{"data": {"bikes": [{"lon": -77.06078866666667, "rental_uris": {"android": "https://dc.lft.to/lastmile_qr_scan", "ios": "https://dc.lft.to/lastmile_qr_scan"}, "fusion_lon": 0.0, "is_reserved": 0, "is_disabled": 0, "fusion_lat": 0.0, "type": "electric_scooter", "name": "8935baac3b7d5ab6af04e2912268617e", "lat": 38.902355166666666, "bike_id": "8935baac3b7d5ab6af04e2912268617e"}, {"lon": -77.03338366666667, "rental_uris": {"android": "https://dc.lft.to/lastmile_qr_scan", "ios": "https://dc.lft.to/lastmile_qr_scan"}, "fusion_lon": 0.0, "is_reserved": 0, "is_disabled": 0, "fusion_lat": 0.0, "type": "electric_scooter", "name": "bc561afb064d0711feadea3077224573", "lat": 38.9096685, "bike_id": "bc561afb064d0711feadea3077224573"}, {"lon": -77.0137365, "rental_uris": {"android": "https://dc.lft.to/lastmile_qr_scan", "ios": "https://dc.lft.to/lastmile_qr_scan"}, "fusion_lon": 0.0, "is_reserved": 0, "is_disabled": 0, "fusion_lat": 0.0, "type": "electric_scooter", "name": "b271a8ebd493bb4e78fba0f8257e1acf", "lat": 38.89634733333333, "bike_id": "b271a8ebd493bb4e78fba0f8257e1acf"}, {"lon": -77.05517083333334, "rental_uris": {"android": "https://dc.lft.to/lastmile_qr_scan", "ios": "https://dc.lft.to/lastmile_qr_scan"}, "fusion_lon": 0.0, "is_reserved": 0, "is_disabled": 0, "fusion_lat": 0.0, "type": "electric_bike", "name": "77e8446403d4e04489aca91903b49baa", "lat": 38.944054333333334, "bike_id": "77e8446403d4e04489aca91903b49baa"}, {"lon": -77.06369716666667, "rental_uris": {"android": "https://dc.lft.to/lastmile_qr_scan", "ios": "https://dc.lft.to/lastmile_qr_scan"}, "fusion_lon": 0.0, "is_reserved": 0, "is_disabled": 0, "fusion_lat": 0.0, "type": "electric_scooter", "name": "f789ed00bfdeba50a5cd19b24ccf887e", "lat": 38.90823283333334, "bike_id": "f789ed00bfdeba50a5cd19b24ccf887e"}, {"lon": -77.031965, "rental_uris": {"android": "https://dc.lft.to/lastmile_qr_scan", "ios": "https://dc.lft.to/lastmile_qr_scan"}, "fusion_lon": 0.0, "is_reserved": 0, "is_disabled": 0, "fusion_lat": 0.0, "type": "electric_scooter", "name": "57c23f3f06119d73a3bda8535c314a49", "lat": 38.9164405, "bike_id": "57c23f3f06119d73a3bda8535c314a49"}, {"lon": -77.040902, "rental_uris": {"android": "https://dc.lft.to/lastmile_qr_scan", "ios": "https://dc.lft.to/lastmile_qr_scan"}, "fusion_lon": 0.0, "is_reserved": 0, "is_disabled": 0, "fusion_lat": 0.0, "type": "electric_scooter", "name": "a40a1ad3ff22161ceacac57465d47754", "lat": 38.92384783333333, "bike_id": "a40a1ad3ff22161ceacac57465d47754"}, {"lon": -77.019678, "rental_uris": {"android": "https://dc.lft.to/lastmile_qr_scan", "ios": "https://dc.lft.to/lastmile_qr_scan"}, "fusion_lon": 0.0, "is_reserved": 0, "is_disabled": 0, "fusion_lat": 0.0, "type": "electric_scooter", "name": "03d29395abf25b2c457679988541db65", "lat": 38.922569, "bike_id": "03d29395abf25b2c457679988541db65"}, {"lon": -77.0414875, "rental_uris": {"android": "https://dc.lft.to/lastmile_qr_scan", "ios": "https://dc.lft.to/lastmile_qr_scan"}, "fusion_lon": 0.0, "is_reserved": 0, "is_disabled": 0, "fusion_lat": 0.0, "type": "electric_scooter", "name": "95caac3ef9ed057c89c4be7358542699", "lat": 38.899307, "bike_id": "95caac3ef9ed057c89c4be7358542699"}, {"lon": -77.050842, "rental_uris": {"android": "https://dc.lft.to/lastmile_qr_scan", "ios": "https://dc.lft.to/lastmile_qr_scan"}, "fusion_lon": 0.0, "is_reserved": 0, "is_disabled": 0, "fusion_lat": 0.0, "type": "electric_scooter", "name": "b03801be84aa5dbb27c9d8237af49b7c", "lat": 38.92346083333333, "bike_id": "b03801be84aa5dbb27c9d8237af49b7c"}, {"lon": -77.00913266666667, "rental_uris": {"android": "https://dc.lft.to/lastmile_qr_scan", "ios": "https://dc.lft.to/lastmile_qr_scan"}, "fusion_lon": 0.0, "is_reserved": 0, "is_disabled": 0, "fusion_lat": 0.0, "type": "electric_scooter", "name": "a8f98955e921698184536f71368dfd20", "lat": 38.895912, "bike_id": "a8f98955e921698184536f71368dfd20"}, {"lon": -77.03431033333334, "rental_uris": {"android": "https://dc.lft.to/lastmile_qr_scan", "ios": "https://dc.lft.to/lastmile_qr_scan"}, "fusion_lon": 0.0, "is_reserved": 0, "is_disabled": 0, "fusion_lat": 0.0, "type": "electric_scooter", "name": "bf8e0e47953e5f85f2ec50af3a5ea6fe", "lat": 38.90960333333334, "bike_id": "bf8e0e47953e5f85f2ec50af3a5ea6fe"}, {"lon": -77.052073, "rental_uris": {"android": "https://dc.lft.to/lastmile_qr_scan", "ios": "https://dc.lft.to/lastmile_qr_scan"}, "fusion_lon": 0.0, "is_reserved": 0, "is_disabled": 0, "fusion_lat": 0.0, "type": "electric_scooter", "name": "e7ed888669042805feb4d1c0ffb78ac2", "lat": 38.924789833333335, "bike_id": "e7ed888669042805feb4d1c0ffb78ac2"}, {"lon": -77.047544, "rental_uris": {"android": "https://dc.lft.to/lastmile_qr_scan", "ios": "https://dc.lft.to/lastmile_qr_scan"}, "fusion_lon": 0.0, "is_reserved": 0, "is_disabled": 0, "fusion_lat": 0.0, "type": "electric_scooter", "name": "94a0f66abca8277e6c35cb9f145084fc", "lat": 38.9024305, "bike_id": "94a0f66abca8277e6c35cb9f145084fc"}, {"lon": -77.051707, "rental_uris": {"android": "https://dc.lft.to/lastmile_qr_scan", "ios": "https://dc.lft.to/lastmile_qr_scan"}, "fusion_lon": 0.0, "is_reserved": 0, "is_disabled": 0, "fusion_lat": 0.0, "type": "electric_scooter", "name": "5948e41ac740208b4369def2db3e000b", "lat": 38.923425, "bike_id": "5948e41ac740208b4369def2db3e000b"}, {"lon": -77.04521916666667, "rental_uris": {"android": "https://dc.lft.to/lastmile_qr_scan", "ios": "https://dc.lft.to/lastmile_qr_scan"}, "fusion_lon": 0.0, "is_reserved": 0, "is_disabled": 0, "fusion_lat": 0.0, "type": "electric_scooter", "name": "a11358384c3d185d1d736031026c99bd", "lat": 38.90374966666667, "bike_id": "a11358384c3d185d1d736031026c99bd"}, {"lon": -77.04876083333333, "rental_uris": {"android": "https://dc.lft.to/lastmile_qr_scan", "ios": "https://dc.lft.to/lastmile_qr_scan"}, "fusion_lon": 0.0, "is_reserved": 0, "is_disabled": 0, "fusion_lat": 0.0, "type": "electric_scooter", "name": "76a8e3b87e4189d4bb42d1c52bf609dc", "lat": 38.9004265, "bike_id": "76a8e3b87e4189d4bb42d1c52bf609dc"}, {"lon": -77.0019775, "rental_uris": {"android": "https://dc.lft.to/lastmile_qr_scan", "ios": "https://dc.lft.to/lastmile_qr_scan"}, "fusion_lon": 0.0, "is_reserved": 0, "is_disabled": 0, "fusion_lat": 0.0, "type": "electric_scooter", "name": "3d1522617dcb0177a16214b2c887a81c", "lat": 38.90235233333333, "bike_id": "3d1522617dcb0177a16214b2c887a81c"}, {"lon": -76.942075, "rental_uris": {"android": "https://dc.lft.to/lastmile_qr_scan", "ios": "https://dc.lft.to/lastmile_qr_scan"}, "fusion_lon": 0.0, "is_reserved": 0, "is_disabled": 0, "fusion_lat": 0.0, "type": "electric_scooter", "name": "750aac88883f4ed96bb524d9c92e0146", "lat": 38.88414133333333, "bike_id": "750aac88883f4ed96bb524d9c92e0146"}, {"lon": -77.0320005, "rental_uris": {"android": "https://dc.lft.to/lastmile_qr_scan", "ios": "https://dc.lft.to/lastmile_qr_scan"}, "fusion_lon": 0.0, "is_reserved": 0, "is_disabled": 0, "fusion_lat": 0.0, "type": "electric_scooter", "name": "db93a35b36d3af9c5324a0d1585233c5", "lat": 38.903102, "bike_id": "db93a35b36d3af9c5324a0d1585233c5"}, {"lon": -77.074582, "rental_uris": {"android": "https://dc.lft.to/lastmile_qr_scan", "ios": "https://dc.lft.to/lastmile_qr_scan"}, "fusion_lon": 0.0, "is_reserved": 0, "is_disabled": 0, "fusion_lat": 0.0, "type": "electric_scooter", "name": "b67f1ec3321805669b4c76e0570d4a06", "lat": 38.920737833333334, "bike_id": "b67f1ec3321805669b4c76e0570d4a06"}, {"lon": -76.97635566666666, "rental_uris": {"android": "https://dc.lft.to/lastmile_qr_scan", "ios": "https://dc.lft.to/lastmile_qr_scan"}, "fusion_lon": 0.0, "is_reserved": 0, "is_disabled": 0, "fusion_lat": 0.0, "type": "electric_scooter", "name": "06e85107c8467bbd72a23912440ff9ad", "lat": 38.88687, "bike_id": "06e85107c8467bbd72a23912440ff9ad"}, {"lon": -77.00286283333334, "rental_uris": {"android": "https://dc.lft.to/lastmile_qr_scan", "ios": "https://dc.lft.to/lastmile_qr_scan"}, "fusion_lon": 0.0, "is_reserved": 0, "is_disabled": 0, "fusion_lat": 0.0, "type": "electric_scooter", "name": "b570e59127544d494eee680e6af56eec", "lat": 38.89228583333333, "bike_id": "b570e59127544d494eee680e6af56eec"}, {"lon": -77.0465665, "rental_uris": {"android": "https://dc.lft.to/lastmile_qr_scan", "ios": "https://dc.lft.to/lastmile_qr_scan"}, "fusion_lon": 0.0, "is_reserved": 0, "is_disabled": 0, "fusion_lat": 0.0, "type": "electric_scooter", "name": "8992abe918d7236ad3961626324d4c3e", "lat": 38.9102375, "bike_id": "8992abe918d7236ad3961626324d4c3e"}, {"lon": -77.01394616666667, "rental_uris": {"android": "https://dc.lft.to/lastmile_qr_scan", "ios": "https://dc.lft.to/lastmile_qr_scan"}, "fusion_lon": 0.0, "is_reserved": 0, "is_disabled": 0, "fusion_lat": 0.0, "type": "electric_scooter", "name": "75fb23ed8615466b4116d0f6e0c12a18", "lat": 38.91812783333334, "bike_id": "75fb23ed8615466b4116d0f6e0c12a18"}, {"lon": -77.045207, "rental_uris": {"android": "https://dc.lft.to/lastmile_qr_scan", "ios": "https://dc.lft.to/lastmile_qr_scan"}, "fusion_lon": 0.0, "is_reserved": 0, "is_disabled": 0, "fusion_lat": 0.0, "type": "electric_scooter", "name": "a83cb05793f67424e5883530ed81ea9c", "lat": 38.901372, "bike_id": "a83cb05793f67424e5883530ed81ea9c"}, {"lon": -76.99572366666666, "rental_uris": {"android": "https://dc.lft.to/lastmile_qr_scan", "ios": "https://dc.lft.to/lastmile_qr_scan"}, "fusion_lon": 0.0, "is_reserved": 0, "is_disabled": 0, "fusion_lat": 0.0, "type": "electric_scooter", "name": "6a5fd6d1ce75769531c7a80dbdbe363a", "lat": 38.86268583333333, "bike_id": "6a5fd6d1ce75769531c7a80dbdbe363a"}, {"lon": -77.03180633333334, "rental_uris": {"android": "https://dc.lft.to/lastmile_qr_scan", "ios": "https://dc.lft.to/lastmile_qr_scan"}, "fusion_lon": 0.0, "is_reserved": 0, "is_disabled": 0, "fusion_lat": 0.0, "type": "electric_scooter", "name": "a14e2fddb83312e3bf153e5319d57f2c", "lat": 38.891871333333334, "bike_id": "a14e2fddb83312e3bf153e5319d57f2c"}, {"lon": -76.984415, "rental_uris": {"android": "https://dc.lft.to/lastmile_qr_scan", "ios": "https://dc.lft.to/lastmile_qr_scan"}, "fusion_lon": 0.0, "is_reserved": 0, "is_disabled": 0, "fusion_lat": 0.0, "type": "electric_scooter", "name": "89b7ba74cc029951fb6cf51e10724813", "lat": 38.914338, "bike_id": "89b7ba74cc029951fb6cf51e10724813"}, {"lon": -77.040806, "rental_uris": {"android": "https://dc.lft.to/lastmile_qr_scan", "ios": "https://dc.lft.to/lastmile_qr_scan"}, "fusion_lon": 0.0, "is_reserved": 0, "is_disabled": 0, "fusion_lat": 0.0, "type": "electric_scooter", "name": "967917e262a96fe70ec4f0ddf56fcb55", "lat": 38.932806166666666, "bike_id": "967917e262a96fe70ec4f0ddf56fcb55"}, {"lon": -77.03564766666666, "rental_uris": {"android": "https://dc.lft.to/lastmile_qr_scan", "ios": "https://dc.lft.to/lastmile_qr_scan"}, "fusion_lon": 0.0, "is_reserved": 0, "is_disabled": 0, "fusion_lat": 0.0, "type": "electric_scooter", "name": "9d610c043aa5c38ad6fba1d75b0e29f5", "lat": 38.92689566666667, "bike_id": "9d610c043aa5c38ad6fba1d75b0e29f5"}, {"lon": -77.0298175, "rental_uris": {"android": "https://dc.lft.to/lastmile_qr_scan", "ios": "https://dc.lft.to/lastmile_qr_scan"}, "fusion_lon": 0.0, "is_reserved": 0, "is_disabled": 0, "fusion_lat": 0.0, "type": "electric_scooter", "name": "c3bd1a14a148f0c0bf15f4f9ea40ab8c", "lat": 38.949787, "bike_id": "c3bd1a14a148f0c0bf15f4f9ea40ab8c"}, {"lon": -77.03180783333333, "rental_uris": {"android": "https://dc.lft.to/lastmile_qr_scan", "ios": "https://dc.lft.to/lastmile_qr_scan"}, "fusion_lon": 0.0, "is_reserved": 0, "is_disabled": 0, "fusion_lat": 0.0, "type": "electric_scooter", "name": "a74926f39f583e10d395e3a4cca38a22", "lat": 38.88731966666667, "bike_id": "a74926f39f583e10d395e3a4cca38a22"}, {"lon": -77.02925733333333, "rental_uris": {"android": "https://dc.lft.to/lastmile_qr_scan", "ios": "https://dc.lft.to/lastmile_qr_scan"}, "fusion_lon": 0.0, "is_reserved": 0, "is_disabled": 0, "fusion_lat": 0.0, "type": "electric_scooter", "name": "d3e12650b2262717261c9c2c7c4beda8", "lat": 38.942896, "bike_id": "d3e12650b2262717261c9c2c7c4beda8"}, {"lon": -77.0417455, "rental_uris": {"android": "https://dc.lft.to/lastmile_qr_scan", "ios": "https://dc.lft.to/lastmile_qr_scan"}, "fusion_lon": 0.0, "is_reserved": 0, "is_disabled": 0, "fusion_lat": 0.0, "type": "electric_scooter", "name": "708fbe71ba27a6150066387532390f88", "lat": 38.9051935, "bike_id": "708fbe71ba27a6150066387532390f88"}, {"lon": -77.04631916666666, "rental_uris": {"android": "https://dc.lft.to/lastmile_qr_scan", "ios": "https://dc.lft.to/lastmile_qr_scan"}, "fusion_lon": 0.0, "is_reserved": 0, "is_disabled": 0, "fusion_lat": 0.0, "type": "electric_scooter", "name": "5af18c52ced45d707e25b72ef279a70a", "lat": 38.90372283333333, "bike_id": "5af18c52ced45d707e25b72ef279a70a"}, {"lon": -77.02310433333334, "rental_uris": {"android": "https://dc.lft.to/lastmile_qr_scan", "ios": "https://dc.lft.to/lastmile_qr_scan"}, "fusion_lon": 0.0, "is_reserved": 0, "is_disabled": 0, "fusion_lat": 0.0, "type": "electric_scooter", "name": "b94a2f3a3eb8ed18ee924dabb7b14990", "lat": 38.917796333333335, "bike_id": "b94a2f3a3eb8ed18ee924dabb7b14990"}, {"lon": -77.04714383333334, "rental_uris": {"android": "https://dc.lft.to/lastmile_qr_scan", "ios": "https://dc.lft.to/lastmile_qr_scan"}, "fusion_lon": 0.0, "is_reserved": 0, "is_disabled": 0, "fusion_lat": 0.0, "type": "electric_bike", "name": "22ec1009fc92cbbbf5ed0d740ce1f81c", "lat": 38.99778416666667, "bike_id": "22ec1009fc92cbbbf5ed0d740ce1f81c"}, {"lon": -77.01824366666666, "rental_uris": {"android": "https://dc.lft.to/lastmile_qr_scan", "ios": "https://dc.lft.to/lastmile_qr_scan"}, "fusion_lon": 0.0, "is_reserved": 0, "is_disabled": 0, "fusion_lat": 0.0, "type": "electric_scooter", "name": "e34287aef4867b8a5f4e3f2f249c2bb6", "lat": 38.922619, "bike_id": "e34287aef4867b8a5f4e3f2f249c2bb6"}, {"lon": -77.02187066666667, "rental_uris": {"android": "https://dc.lft.to/lastmile_qr_scan", "ios": "https://dc.lft.to/lastmile_qr_scan"}, "fusion_lon": 0.0, "is_reserved": 0, "is_disabled": 0, "fusion_lat": 0.0, "type": "electric_scooter", "name": "71e1f7b59b6cbb366fb35d80877c96b0", "lat": 38.910549833333334, "bike_id": "71e1f7b59b6cbb366fb35d80877c96b0"}, {"lon": -76.99060483333334, "rental_uris": {"android": "https://dc.lft.to/lastmile_qr_scan", "ios": "https://dc.lft.to/lastmile_qr_scan"}, "fusion_lon": 0.0, "is_reserved": 0, "is_disabled": 0, "fusion_lat": 0.0, "type": "electric_bike", "name": "5d46cbd2ed9e794f72ff39f64a5af052", "lat": 38.898118833333335, "bike_id": "5d46cbd2ed9e794f72ff39f64a5af052"}, {"lon": -77.02653233333334, "rental_uris": {"android": "https://dc.lft.to/lastmile_qr_scan", "ios": "https://dc.lft.to/lastmile_qr_scan"}, "fusion_lon": 0.0, "is_reserved": 0, "is_disabled": 0, "fusion_lat": 0.0, "type": "electric_scooter", "name": "bc4ca297920765e28e79342c15e63b21", "lat": 38.905701, "bike_id": "bc4ca297920765e28e79342c15e63b21"}, {"lon": -77.04329083333333, "rental_uris": {"android": "https://dc.lft.to/lastmile_qr_scan", "ios": "https://dc.lft.to/lastmile_qr_scan"}, "fusion_lon": 0.0, "is_reserved": 0, "is_disabled": 0, "fusion_lat": 0.0, "type": "electric_scooter", "name": "509af0048d2880b207e6754aaa21a12a", "lat": 38.90571633333333, "bike_id": "509af0048d2880b207e6754aaa21a12a"}, {"lon": -77.00603283333334, "rental_uris": {"android": "https://dc.lft.to/lastmile_qr_scan", "ios": "https://dc.lft.to/lastmile_qr_scan"}, "fusion_lon": 0.0, "is_reserved": 0, "is_disabled": 0, "fusion_lat": 0.0, "type": "electric_scooter", "name": "78d45ede5dab587a66a6f0b4dde615a2", "lat": 38.91117333333333, "bike_id": "78d45ede5dab587a66a6f0b4dde615a2"}, {"lon": -77.01948016666667, "rental_uris": {"android": "https://dc.lft.to/lastmile_qr_scan", "ios": "https://dc.lft.to/lastmile_qr_scan"}, "fusion_lon": 0.0, "is_reserved": 0, "is_disabled": 0, "fusion_lat": 0.0, "type": "electric_scooter", "name": "524d35fdfe82099d08fd4d9c5e8946c1", "lat": 38.922472166666665, "bike_id": "524d35fdfe82099d08fd4d9c5e8946c1"}, {"lon": -77.01832783333333, "rental_uris": {"android": "https://dc.lft.to/lastmile_qr_scan", "ios": "https://dc.lft.to/lastmile_qr_scan"}, "fusion_lon": 0.0, "is_reserved": 0, "is_disabled": 0, "fusion_lat": 0.0, "type": "electric_scooter", "name": "3ab0fc025592b446372acd7d50b976d6", "lat": 38.92143516666667, "bike_id": "3ab0fc025592b446372acd7d50b976d6"}, {"lon": -77.034691, "rental_uris": {"android": "https://dc.lft.to/lastmile_qr_scan", "ios": "https://dc.lft.to/lastmile_qr_scan"}, "fusion_lon": 0.0, "is_reserved": 0, "is_disabled": 0, "fusion_lat": 0.0, "type": "electric_scooter", "name": "5f695e8c03d072b4581247be926d7836", "lat": 38.902316666666664, "bike_id": "5f695e8c03d072b4581247be926d7836"}, {"lon": -77.00273316666667, "rental_uris": {"android": "https://dc.lft.to/lastmile_qr_scan", "ios": "https://dc.lft.to/lastmile_qr_scan"}, "fusion_lon": 0.0, "is_reserved": 0, "is_disabled": 0, "fusion_lat": 0.0, "type": "electric_scooter", "name": "63442169e86f9f81ac72cd5422bd8598", "lat": 38.95233183333333, "bike_id": "63442169e86f9f81ac72cd5422bd8598"}, {"lon": -77.03872866666667, "rental_uris": {"android": "https://dc.lft.to/lastmile_qr_scan", "ios": "https://dc.lft.to/lastmile_qr_scan"}, "fusion_lon": 0.0, "is_reserved": 0, "is_disabled": 0, "fusion_lat": 0.0, "type": "electric_scooter", "name": "524f167749e089523740d1ed4fe0ca87", "lat": 38.90326366666667, "bike_id": "524f167749e089523740d1ed4fe0ca87"}, {"lon": -77.04106666666667, "rental_uris": {"android": "https://dc.lft.to/lastmile_qr_scan", "ios": "https://dc.lft.to/lastmile_qr_scan"}, "fusion_lon": 0.0, "is_reserved": 0, "is_disabled": 0, "fusion_lat": 0.0, "type": "electric_scooter", "name": "5065aca216a88ee84c7d1442b7be922c", "lat": 38.89835766666667, "bike_id": "5065aca216a88ee84c7d1442b7be922c"}, {"lon": -77.035562, "rental_uris": {"android": "https://dc.lft.to/lastmile_qr_scan", "ios": "https://dc.lft.to/lastmile_qr_scan"}, "fusion_lon": 0.0, "is_reserved": 0, "is_disabled": 0, "fusion_lat": 0.0, "type": "electric_bike", "name": "7789c4a3c1949e44486c035ecb4db55c", "lat": 38.96465216666667, "bike_id": "7789c4a3c1949e44486c035ecb4db55c"}, {"lon": -77.0386305, "rental_uris": {"android": "https://dc.lft.to/lastmile_qr_scan", "ios": "https://dc.lft.to/lastmile_qr_scan"}, "fusion_lon": 0.0, "is_reserved": 0, "is_disabled": 0, "fusion_lat": 0.0, "type": "electric_scooter", "name": "626c5339434728c68a2cbe98654e3a90", "lat": 38.92546216666667, "bike_id": "626c5339434728c68a2cbe98654e3a90"}, {"lon": -77.03505966666667, "rental_uris": {"android": "https://dc.lft.to/lastmile_qr_scan", "ios": "https://dc.lft.to/lastmile_qr_scan"}, "fusion_lon": 0.0, "is_reserved": 0, "is_disabled": 0, "fusion_lat": 0.0, "type": "electric_scooter", "name": "fc9fc946becc13ff31989f47532e5c17", "lat": 38.926312, "bike_id": "fc9fc946becc13ff31989f47532e5c17"}, {"lon": -77.070924, "rental_uris": {"android": "https://dc.lft.to/lastmile_qr_scan", "ios": "https://dc.lft.to/lastmile_qr_scan"}, "fusion_lon": 0.0, "is_reserved": 0, "is_disabled": 0, "fusion_lat": 0.0, "type": "electric_scooter", "name": "f48d33d650786c08aae4c2b563c38818", "lat": 38.91972466666667, "bike_id": "f48d33d650786c08aae4c2b563c38818"}, {"lon": -77.0455395, "rental_uris": {"android": "https://dc.lft.to/lastmile_qr_scan", "ios": "https://dc.lft.to/lastmile_qr_scan"}, "fusion_lon": 0.0, "is_reserved": 0, "is_disabled": 0, "fusion_lat": 0.0, "type": "electric_scooter", "name": "1f8a2c1a4c723f08718c132721ebeffe", "lat": 38.913107, "bike_id": "1f8a2c1a4c723f08718c132721ebeffe"}, {"lon": -77.03555166666666, "rental_uris": {"android": "https://dc.lft.to/lastmile_qr_scan", "ios": "https://dc.lft.to/lastmile_qr_scan"}, "fusion_lon": 0.0, "is_reserved": 0, "is_disabled": 0, "fusion_lat": 0.0, "type": "electric_scooter", "name": "eae1236c273cbad1faa0a8fdc17c8aca", "lat": 38.9083125, "bike_id": "eae1236c273cbad1faa0a8fdc17c8aca"}, {"lon": -77.05030016666667, "rental_uris": {"android": "https://dc.lft.to/lastmile_qr_scan", "ios": "https://dc.lft.to/lastmile_qr_scan"}, "fusion_lon": 0.0, "is_reserved": 0, "is_disabled": 0, "fusion_lat": 0.0, "type": "electric_scooter", "name": "653fc5582abc7e0728e14261123b1efe", "lat": 38.897396666666666, "bike_id": "653fc5582abc7e0728e14261123b1efe"}, {"lon": -77.01555533333334, "rental_uris": {"android": "https://dc.lft.to/lastmile_qr_scan", "ios": "https://dc.lft.to/lastmile_qr_scan"}, "fusion_lon": 0.0, "is_reserved": 0, "is_disabled": 0, "fusion_lat": 0.0, "type": "electric_scooter", "name": "b43f7f34288d875e2ad8d3df0c5f9f1c", "lat": 38.89174333333333, "bike_id": "b43f7f34288d875e2ad8d3df0c5f9f1c"}, {"lon": -76.98369133333334, "rental_uris": {"android": "https://dc.lft.to/lastmile_qr_scan", "ios": "https://dc.lft.to/lastmile_qr_scan"}, "fusion_lon": 0.0, "is_reserved": 0, "is_disabled": 0, "fusion_lat": 0.0, "type": "electric_scooter", "name": "6f6b73705d600b36c0896f9c6d99112b", "lat": 38.88989816666667, "bike_id": "6f6b73705d600b36c0896f9c6d99112b"}, {"lon": -77.0053295, "rental_uris": {"android": "https://dc.lft.to/lastmile_qr_scan", "ios": "https://dc.lft.to/lastmile_qr_scan"}, "fusion_lon": 0.0, "is_reserved": 0, "is_disabled": 0, "fusion_lat": 0.0, "type": "electric_scooter", "name": "c984228a0a5a6fbeecfbb9c36cac5cca", "lat": 38.87542783333333, "bike_id": "c984228a0a5a6fbeecfbb9c36cac5cca"}, {"lon": -77.00612166666667, "rental_uris": {"android": "https://dc.lft.to/lastmile_qr_scan", "ios": "https://dc.lft.to/lastmile_qr_scan"}, "fusion_lon": 0.0, "is_reserved": 0, "is_disabled": 0, "fusion_lat": 0.0, "type": "electric_scooter", "name": "84ec3268298ba5551ee597b069f222af", "lat": 38.87572483333334, "bike_id": "84ec3268298ba5551ee597b069f222af"}, {"lon": -76.946169, "rental_uris": {"android": "https://dc.lft.to/lastmile_qr_scan", "ios": "https://dc.lft.to/lastmile_qr_scan"}, "fusion_lon": 0.0, "is_reserved": 0, "is_disabled": 0, "fusion_lat": 0.0, "type": "electric_scooter", "name": "d2f90b849d90fa3250e12558995f4191", "lat": 38.89830883333333, "bike_id": "d2f90b849d90fa3250e12558995f4191"}, {"lon": -77.02955583333333, "rental_uris": {"android": "https://dc.lft.to/lastmile_qr_scan", "ios": "https://dc.lft.to/lastmile_qr_scan"}, "fusion_lon": 0.0, "is_reserved": 0, "is_disabled": 0, "fusion_lat": 0.0, "type": "electric_scooter", "name": "21c3a38ca8b828587e181e72fc7cba4b", "lat": 38.917210833333336, "bike_id": "21c3a38ca8b828587e181e72fc7cba4b"}, {"lon": -77.022172, "rental_uris": {"android": "https://dc.lft.to/lastmile_qr_scan", "ios": "https://dc.lft.to/lastmile_qr_scan"}, "fusion_lon": 0.0, "is_reserved": 0, "is_disabled": 0, "fusion_lat": 0.0, "type": "electric_scooter", "name": "330f70a006adfa89718806b01477c45b", "lat": 38.924736833333334, "bike_id": "330f70a006adfa89718806b01477c45b"}, {"lon": -77.03221833333333, "rental_uris": {"android": "https://dc.lft.to/lastmile_qr_scan", "ios": "https://dc.lft.to/lastmile_qr_scan"}, "fusion_lon": 0.0, "is_reserved": 0, "is_disabled": 0, "fusion_lat": 0.0, "type": "electric_scooter", "name": "4d9bc2c6a6b098050ed4d9535a29dbd8", "lat": 38.90149666666667, "bike_id": "4d9bc2c6a6b098050ed4d9535a29dbd8"}, {"lon": -77.02810533333333, "rental_uris": {"android": "https://dc.lft.to/lastmile_qr_scan", "ios": "https://dc.lft.to/lastmile_qr_scan"}, "fusion_lon": 0.0, "is_reserved": 0, "is_disabled": 0, "fusion_lat": 0.0, "type": "electric_scooter", "name": "ebb546cef47bfc4c8382adc20db18ec8", "lat": 38.8954085, "bike_id": "ebb546cef47bfc4c8382adc20db18ec8"}, {"lon": -77.00196666666666, "rental_uris": {"android": "https://dc.lft.to/lastmile_qr_scan", "ios": "https://dc.lft.to/lastmile_qr_scan"}, "fusion_lon": 0.0, "is_reserved": 0, "is_disabled": 0, "fusion_lat": 0.0, "type": "electric_scooter", "name": "0be7417a0a06371dd342eca00aba5b67", "lat": 38.90035983333333, "bike_id": "0be7417a0a06371dd342eca00aba5b67"}, {"lon": -77.05244033333334, "rental_uris": {"android": "https://dc.lft.to/lastmile_qr_scan", "ios": "https://dc.lft.to/lastmile_qr_scan"}, "fusion_lon": 0.0, "is_reserved": 0, "is_disabled": 0, "fusion_lat": 0.0, "type": "electric_scooter", "name": "92bbcb23bb21b3b6e2cd4f900341d867", "lat": 38.925427, "bike_id": "92bbcb23bb21b3b6e2cd4f900341d867"}, {"lon": -77.02204783333333, "rental_uris": {"android": "https://dc.lft.to/lastmile_qr_scan", "ios": "https://dc.lft.to/lastmile_qr_scan"}, "fusion_lon": 0.0, "is_reserved": 0, "is_disabled": 0, "fusion_lat": 0.0, "type": "electric_scooter", "name": "995030b2e3acdf4882f59805e714f009", "lat": 38.8872055, "bike_id": "995030b2e3acdf4882f59805e714f009"}, {"lon": -77.029489, "rental_uris": {"android": "https://dc.lft.to/lastmile_qr_scan", "ios": "https://dc.lft.to/lastmile_qr_scan"}, "fusion_lon": 0.0, "is_reserved": 0, "is_disabled": 0, "fusion_lat": 0.0, "type": "electric_scooter", "name": "eddc30cc7abcbcb0060717535e00ca54", "lat": 38.9325265, "bike_id": "eddc30cc7abcbcb0060717535e00ca54"}, {"lon": -77.00877816666667, "rental_uris": {"android": "https://dc.lft.to/lastmile_qr_scan", "ios": "https://dc.lft.to/lastmile_qr_scan"}, "fusion_lon": 0.0, "is_reserved": 0, "is_disabled": 0, "fusion_lat": 0.0, "type": "electric_scooter", "name": "ebd159bacb2f3636fa1a0f21a75449d7", "lat": 38.91150733333333, "bike_id": "ebd159bacb2f3636fa1a0f21a75449d7"}, {"lon": -77.03266616666667, "rental_uris": {"android": "https://dc.lft.to/lastmile_qr_scan", "ios": "https://dc.lft.to/lastmile_qr_scan"}, "fusion_lon": 0.0, "is_reserved": 0, "is_disabled": 0, "fusion_lat": 0.0, "type": "electric_scooter", "name": "b3bb2006c31955c7a438e1c89391a7d0", "lat": 38.902494833333336, "bike_id": "b3bb2006c31955c7a438e1c89391a7d0"}, {"lon": -77.032949, "rental_uris": {"android": "https://dc.lft.to/lastmile_qr_scan", "ios": "https://dc.lft.to/lastmile_qr_scan"}, "fusion_lon": 0.0, "is_reserved": 0, "is_disabled": 0, "fusion_lat": 0.0, "type": "electric_scooter", "name": "20dda38142727a05d0de5b9c805b943b", "lat": 38.899111833333336, "bike_id": "20dda38142727a05d0de5b9c805b943b"}, {"lon": -77.04645033333334, "rental_uris": {"android": "https://dc.lft.to/lastmile_qr_scan", "ios": "https://dc.lft.to/lastmile_qr_scan"}, "fusion_lon": 0.0, "is_reserved": 0, "is_disabled": 0, "fusion_lat": 0.0, "type": "electric_scooter", "name": "9c32e77a2413a1a6edaa40027db3ddec", "lat": 38.899647, "bike_id": "9c32e77a2413a1a6edaa40027db3ddec"}, {"lon": -76.99507, "rental_uris": {"android": "https://dc.lft.to/lastmile_qr_scan", "ios": "https://dc.lft.to/lastmile_qr_scan"}, "fusion_lon": 0.0, "is_reserved": 0, "is_disabled": 0, "fusion_lat": 0.0, "type": "electric_scooter", "name": "769cac092eb8a760be9f4693a0135b2d", "lat": 38.8474235, "bike_id": "769cac092eb8a760be9f4693a0135b2d"}, {"lon": -77.01482183333333, "rental_uris": {"android": "https://dc.lft.to/lastmile_qr_scan", "ios": "https://dc.lft.to/lastmile_qr_scan"}, "fusion_lon": 0.0, "is_reserved": 0, "is_disabled": 0, "fusion_lat": 0.0, "type": "electric_scooter", "name": "d8d0a98ab71f8030f105d7f4acd3a3ef", "lat": 38.90730216666667, "bike_id": "d8d0a98ab71f8030f105d7f4acd3a3ef"}, {"lon": -76.93727733333333, "rental_uris": {"android": "https://dc.lft.to/lastmile_qr_scan", "ios": "https://dc.lft.to/lastmile_qr_scan"}, "fusion_lon": 0.0, "is_reserved": 0, "is_disabled": 0, "fusion_lat": 0.0, "type": "electric_scooter", "name": "cfc5c998241bf70759df6420982a35ff", "lat": 38.89033766666667, "bike_id": "cfc5c998241bf70759df6420982a35ff"}, {"lon": -76.95199516666666, "rental_uris": {"android": "https://dc.lft.to/lastmile_qr_scan", "ios": "https://dc.lft.to/lastmile_qr_scan"}, "fusion_lon": 0.0, "is_reserved": 0, "is_disabled": 0, "fusion_lat": 0.0, "type": "electric_scooter", "name": "1045235b7244f192a326cddef7e04a95", "lat": 38.90472966666667, "bike_id": "1045235b7244f192a326cddef7e04a95"}, {"lon": -76.9898255, "rental_uris": {"android": "https://dc.lft.to/lastmile_qr_scan", "ios": "https://dc.lft.to/lastmile_qr_scan"}, "fusion_lon": 0.0, "is_reserved": 0, "is_disabled": 0, "fusion_lat": 0.0, "type": "electric_scooter", "name": "d0657b0d49e721682bd8a59564e4c416", "lat": 38.92442166666667, "bike_id": "d0657b0d49e721682bd8a59564e4c416"}, {"lon": -77.031611, "rental_uris": {"android": "https://dc.lft.to/lastmile_qr_scan", "ios": "https://dc.lft.to/lastmile_qr_scan"}, "fusion_lon": 0.0, "is_reserved": 0, "is_disabled": 0, "fusion_lat": 0.0, "type": "electric_scooter", "name": "6130c3bc43c0d3428b78656f7a6eb05d", "lat": 38.90367, "bike_id": "6130c3bc43c0d3428b78656f7a6eb05d"}, {"lon": -77.0202455, "rental_uris": {"android": "https://dc.lft.to/lastmile_qr_scan", "ios": "https://dc.lft.to/lastmile_qr_scan"}, "fusion_lon": 0.0, "is_reserved": 0, "is_disabled": 0, "fusion_lat": 0.0, "type": "electric_scooter", "name": "26120158325c1e343b52a5f6d542d3e0", "lat": 38.924414, "bike_id": "26120158325c1e343b52a5f6d542d3e0"}, {"lon": -77.07626816666667, "rental_uris": {"android": "https://dc.lft.to/lastmile_qr_scan", "ios": "https://dc.lft.to/lastmile_qr_scan"}, "fusion_lon": 0.0, "is_reserved": 0, "is_disabled": 0, "fusion_lat": 0.0, "type": "electric_scooter", "name": "c3bc4b92da7c6fbc3acf7d528b06cb94", "lat": 38.907165666666664, "bike_id": "c3bc4b92da7c6fbc3acf7d528b06cb94"}, {"lon": -77.072792, "rental_uris": {"android": "https://dc.lft.to/lastmile_qr_scan", "ios": "https://dc.lft.to/lastmile_qr_scan"}, "fusion_lon": 0.0, "is_reserved": 0, "is_disabled": 0, "fusion_lat": 0.0, "type": "electric_scooter", "name": "85353c2490c808c2bfc48558d7ba7792", "lat": 38.934722666666666, "bike_id": "85353c2490c808c2bfc48558d7ba7792"}, {"lon": -77.02130533333333, "rental_uris": {"android": "https://dc.lft.to/lastmile_qr_scan", "ios": "https://dc.lft.to/lastmile_qr_scan"}, "fusion_lon": 0.0, "is_reserved": 0, "is_disabled": 0, "fusion_lat": 0.0, "type": "electric_scooter", "name": "f3da9fab1ba53e1e46b773ee64bedf8a", "lat": 38.9244515, "bike_id": "f3da9fab1ba53e1e46b773ee64bedf8a"}, {"lon": -76.99375083333334, "rental_uris": {"android": "https://dc.lft.to/lastmile_qr_scan", "ios": "https://dc.lft.to/lastmile_qr_scan"}, "fusion_lon": 0.0, "is_reserved": 0, "is_disabled": 0, "fusion_lat": 0.0, "type": "electric_scooter", "name": "aa7c8779d5c80119899e548e90a8e31e", "lat": 38.889299666666666, "bike_id": "aa7c8779d5c80119899e548e90a8e31e"}, {"lon": -77.003057, "rental_uris": {"android": "https://dc.lft.to/lastmile_qr_scan", "ios": "https://dc.lft.to/lastmile_qr_scan"}, "fusion_lon": 0.0, "is_reserved": 0, "is_disabled": 0, "fusion_lat": 0.0, "type": "electric_scooter", "name": "ea57a45b45ef4a0d7de1e4b211f083b8", "lat": 38.8766865, "bike_id": "ea57a45b45ef4a0d7de1e4b211f083b8"}, {"lon": -77.03495816666667, "rental_uris": {"android": "https://dc.lft.to/lastmile_qr_scan", "ios": "https://dc.lft.to/lastmile_qr_scan"}, "fusion_lon": 0.0, "is_reserved": 0, "is_disabled": 0, "fusion_lat": 0.0, "type": "electric_scooter", "name": "14dc00f173bead19597b1fb75a4ae585", "lat": 38.918556, "bike_id": "14dc00f173bead19597b1fb75a4ae585"}, {"lon": -76.979789, "rental_uris": {"android": "https://dc.lft.to/lastmile_qr_scan", "ios": "https://dc.lft.to/lastmile_qr_scan"}, "fusion_lon": 0.0, "is_reserved": 0, "is_disabled": 0, "fusion_lat": 0.0, "type": "electric_scooter", "name": "b1db2d52da6bcdebaa1456300db432f0", "lat": 38.90732333333333, "bike_id": "b1db2d52da6bcdebaa1456300db432f0"}, {"lon": -77.03087683333334, "rental_uris": {"android": "https://dc.lft.to/lastmile_qr_scan", "ios": "https://dc.lft.to/lastmile_qr_scan"}, "fusion_lon": 0.0, "is_reserved": 0, "is_disabled": 0, "fusion_lat": 0.0, "type": "electric_scooter", "name": "9cd2dbc880d716a476b65d28516c951d", "lat": 38.9105775, "bike_id": "9cd2dbc880d716a476b65d28516c951d"}, {"lon": -76.95818783333333, "rental_uris": {"android": "https://dc.lft.to/lastmile_qr_scan", "ios": "https://dc.lft.to/lastmile_qr_scan"}, "fusion_lon": 0.0, "is_reserved": 0, "is_disabled": 0, "fusion_lat": 0.0, "type": "electric_bike", "name": "698795a79975938319379749b6ba5ac8", "lat": 38.920016333333336, "bike_id": "698795a79975938319379749b6ba5ac8"}, {"lon": -77.03218933333333, "rental_uris": {"android": "https://dc.lft.to/lastmile_qr_scan", "ios": "https://dc.lft.to/lastmile_qr_scan"}, "fusion_lon": 0.0, "is_reserved": 0, "is_disabled": 0, "fusion_lat": 0.0, "type": "electric_scooter", "name": "d056444ce42281c1af9a4ba3e057dae4", "lat": 38.89223916666667, "bike_id": "d056444ce42281c1af9a4ba3e057dae4"}, {"lon": -77.0316525, "rental_uris": {"android": "https://dc.lft.to/lastmile_qr_scan", "ios": "https://dc.lft.to/lastmile_qr_scan"}, "fusion_lon": 0.0, "is_reserved": 0, "is_disabled": 0, "fusion_lat": 0.0, "type": "electric_scooter", "name": "06cef0ebd9f82b07fbb97a4e6b5a8f1d", "lat": 38.89970866666667, "bike_id": "06cef0ebd9f82b07fbb97a4e6b5a8f1d"}, {"lon": -77.03891216666666, "rental_uris": {"android": "https://dc.lft.to/lastmile_qr_scan", "ios": "https://dc.lft.to/lastmile_qr_scan"}, "fusion_lon": 0.0, "is_reserved": 0, "is_disabled": 0, "fusion_lat": 0.0, "type": "electric_scooter", "name": "2250c036be462e9ecf282aa6c96ca5fd", "lat": 38.903671, "bike_id": "2250c036be462e9ecf282aa6c96ca5fd"}, {"lon": -77.0259585, "rental_uris": {"android": "https://dc.lft.to/lastmile_qr_scan", "ios": "https://dc.lft.to/lastmile_qr_scan"}, "fusion_lon": 0.0, "is_reserved": 0, "is_disabled": 0, "fusion_lat": 0.0, "type": "electric_scooter", "name": "f6a804626875e87ce3f62406adb921ba", "lat": 38.89866766666667, "bike_id": "f6a804626875e87ce3f62406adb921ba"}, {"lon": -77.02459116666667, "rental_uris": {"android": "https://dc.lft.to/lastmile_qr_scan", "ios": "https://dc.lft.to/lastmile_qr_scan"}, "fusion_lon": 0.0, "is_reserved": 0, "is_disabled": 0, "fusion_lat": 0.0, "type": "electric_bike", "name": "7b334877aa687e39e2827b4bebbd2d9a", "lat": 38.898346833333335, "bike_id": "7b334877aa687e39e2827b4bebbd2d9a"}, {"lon": -77.02955866666667, "rental_uris": {"android": "https://dc.lft.to/lastmile_qr_scan", "ios": "https://dc.lft.to/lastmile_qr_scan"}, "fusion_lon": 0.0, "is_reserved": 0, "is_disabled": 0, "fusion_lat": 0.0, "type": "electric_scooter", "name": "e98ea25ce9600a4d778f6a98cad57e20", "lat": 38.911755666666664, "bike_id": "e98ea25ce9600a4d778f6a98cad57e20"}, {"lon": -77.06086633333334, "rental_uris": {"android": "https://dc.lft.to/lastmile_qr_scan", "ios": "https://dc.lft.to/lastmile_qr_scan"}, "fusion_lon": 0.0, "is_reserved": 0, "is_disabled": 0, "fusion_lat": 0.0, "type": "electric_scooter", "name": "43073c0563f24a658074113e0fc06f22", "lat": 38.902333666666664, "bike_id": "43073c0563f24a658074113e0fc06f22"}, {"lon": -76.99309883333333, "rental_uris": {"android": "https://dc.lft.to/lastmile_qr_scan", "ios": "https://dc.lft.to/lastmile_qr_scan"}, "fusion_lon": 0.0, "is_reserved": 0, "is_disabled": 0, "fusion_lat": 0.0, "type": "electric_bike", "name": "8c33231e72ddfe4d335bc708eadb3dcd", "lat": 38.94632283333333, "bike_id": "8c33231e72ddfe4d335bc708eadb3dcd"}, {"lon": -77.00190983333333, "rental_uris": {"android": "https://dc.lft.to/lastmile_qr_scan", "ios": "https://dc.lft.to/lastmile_qr_scan"}, "fusion_lon": 0.0, "is_reserved": 0, "is_disabled": 0, "fusion_lat": 0.0, "type": "electric_scooter", "name": "f7b76c956a8e5ed858f849045988cdfd", "lat": 38.900358, "bike_id": "f7b76c956a8e5ed858f849045988cdfd"}, {"lon": -77.0232405, "rental_uris": {"android": "https://dc.lft.to/lastmile_qr_scan", "ios": "https://dc.lft.to/lastmile_qr_scan"}, "fusion_lon": 0.0, "is_reserved": 0, "is_disabled": 0, "fusion_lat": 0.0, "type": "electric_scooter", "name": "ce6925cbc1becfbc183f88d1cb00121c", "lat": 38.922987166666665, "bike_id": "ce6925cbc1becfbc183f88d1cb00121c"}, {"lon": -77.02973616666667, "rental_uris": {"android": "https://dc.lft.to/lastmile_qr_scan", "ios": "https://dc.lft.to/lastmile_qr_scan"}, "fusion_lon": 0.0, "is_reserved": 0, "is_disabled": 0, "fusion_lat": 0.0, "type": "electric_scooter", "name": "80ff5cd422589b807d552fcb413040b4", "lat": 38.89934816666667, "bike_id": "80ff5cd422589b807d552fcb413040b4"}, {"lon": -77.079347, "rental_uris": {"android": "https://dc.lft.to/lastmile_qr_scan", "ios": "https://dc.lft.to/lastmile_qr_scan"}, "fusion_lon": 0.0, "is_reserved": 0, "is_disabled": 0, "fusion_lat": 0.0, "type": "electric_scooter", "name": "fccf11d174e8d0d3cac6ef56d28aac43", "lat": 38.91917816666667, "bike_id": "fccf11d174e8d0d3cac6ef56d28aac43"}, {"lon": -77.01763616666666, "rental_uris": {"android": "https://dc.lft.to/lastmile_qr_scan", "ios": "https://dc.lft.to/lastmile_qr_scan"}, "fusion_lon": 0.0, "is_reserved": 0, "is_disabled": 0, "fusion_lat": 0.0, "type": "electric_scooter", "name": "295a2e6a1b8cadcedc46faadffd66b75", "lat": 38.8770035, "bike_id": "295a2e6a1b8cadcedc46faadffd66b75"}, {"lon": -77.021668, "rental_uris": {"android": "https://dc.lft.to/lastmile_qr_scan", "ios": "https://dc.lft.to/lastmile_qr_scan"}, "fusion_lon": 0.0, "is_reserved": 0, "is_disabled": 0, "fusion_lat": 0.0, "type": "electric_scooter", "name": "b3d5fabd1501c6454dccccdcdcdfbb05", "lat": 38.94289, "bike_id": "b3d5fabd1501c6454dccccdcdcdfbb05"}, {"lon": -77.0429905, "rental_uris": {"android": "https://dc.lft.to/lastmile_qr_scan", "ios": "https://dc.lft.to/lastmile_qr_scan"}, "fusion_lon": 0.0, "is_reserved": 0, "is_disabled": 0, "fusion_lat": 0.0, "type": "electric_scooter", "name": "03b9954c906a1858e013ca495b0bcc02", "lat": 38.93189516666666, "bike_id": "03b9954c906a1858e013ca495b0bcc02"}, {"lon": -77.03386966666666, "rental_uris": {"android": "https://dc.lft.to/lastmile_qr_scan", "ios": "https://dc.lft.to/lastmile_qr_scan"}, "fusion_lon": 0.0, "is_reserved": 0, "is_disabled": 0, "fusion_lat": 0.0, "type": "electric_scooter", "name": "12d20580abeb0a13e1197c63d301893d", "lat": 38.886562, "bike_id": "12d20580abeb0a13e1197c63d301893d"}, {"lon": -77.019807, "rental_uris": {"android": "https://dc.lft.to/lastmile_qr_scan", "ios": "https://dc.lft.to/lastmile_qr_scan"}, "fusion_lon": 0.0, "is_reserved": 0, "is_disabled": 0, "fusion_lat": 0.0, "type": "electric_scooter", "name": "31e86c56c2a9eef1cf43020968842641", "lat": 38.91192266666667, "bike_id": "31e86c56c2a9eef1cf43020968842641"}, {"lon": -77.018215, "rental_uris": {"android": "https://dc.lft.to/lastmile_qr_scan", "ios": "https://dc.lft.to/lastmile_qr_scan"}, "fusion_lon": 0.0, "is_reserved": 0, "is_disabled": 0, "fusion_lat": 0.0, "type": "electric_scooter", "name": "2bcbf81a5d67a145813fc89a7300a0aa", "lat": 38.92237733333333, "bike_id": "2bcbf81a5d67a145813fc89a7300a0aa"}, {"lon": -76.9950355, "rental_uris": {"android": "https://dc.lft.to/lastmile_qr_scan", "ios": "https://dc.lft.to/lastmile_qr_scan"}, "fusion_lon": 0.0, "is_reserved": 0, "is_disabled": 0, "fusion_lat": 0.0, "type": "electric_scooter", "name": "dee583fc70271eb0d16ba23572289bb5", "lat": 38.90461466666667, "bike_id": "dee583fc70271eb0d16ba23572289bb5"}, {"lon": -77.062808, "rental_uris": {"android": "https://dc.lft.to/lastmile_qr_scan", "ios": "https://dc.lft.to/lastmile_qr_scan"}, "fusion_lon": 0.0, "is_reserved": 0, "is_disabled": 0, "fusion_lat": 0.0, "type": "electric_scooter", "name": "f41e239c44643089b21aaae188eed90d", "lat": 38.90272266666667, "bike_id": "f41e239c44643089b21aaae188eed90d"}, {"lon": -77.04391016666666, "rental_uris": {"android": "https://dc.lft.to/lastmile_qr_scan", "ios": "https://dc.lft.to/lastmile_qr_scan"}, "fusion_lon": 0.0, "is_reserved": 0, "is_disabled": 0, "fusion_lat": 0.0, "type": "electric_scooter", "name": "d756dad198293b6c48fd276fa3432de2", "lat": 38.91491116666667, "bike_id": "d756dad198293b6c48fd276fa3432de2"}, {"lon": -77.03830266666667, "rental_uris": {"android": "https://dc.lft.to/lastmile_qr_scan", "ios": "https://dc.lft.to/lastmile_qr_scan"}, "fusion_lon": 0.0, "is_reserved": 0, "is_disabled": 0, "fusion_lat": 0.0, "type": "electric_scooter", "name": "08bcd59d3f573c3123128c3e27e51cad", "lat": 38.918865333333336, "bike_id": "08bcd59d3f573c3123128c3e27e51cad"}, {"lon": -77.04323966666666, "rental_uris": {"android": "https://dc.lft.to/lastmile_qr_scan", "ios": "https://dc.lft.to/lastmile_qr_scan"}, "fusion_lon": 0.0, "is_reserved": 0, "is_disabled": 0, "fusion_lat": 0.0, "type": "electric_scooter", "name": "37071d7d590cf268cb46162ba2c8d4fd", "lat": 38.892215666666665, "bike_id": "37071d7d590cf268cb46162ba2c8d4fd"}, {"lon": -77.01677833333333, "rental_uris": {"android": "https://dc.lft.to/lastmile_qr_scan", "ios": "https://dc.lft.to/lastmile_qr_scan"}, "fusion_lon": 0.0, "is_reserved": 0, "is_disabled": 0, "fusion_lat": 0.0, "type": "electric_scooter", "name": "d4ff5698ca39087861cb3486f69004c2", "lat": 38.91262833333333, "bike_id": "d4ff5698ca39087861cb3486f69004c2"}, {"lon": -77.04009, "rental_uris": {"android": "https://dc.lft.to/lastmile_qr_scan", "ios": "https://dc.lft.to/lastmile_qr_scan"}, "fusion_lon": 0.0, "is_reserved": 0, "is_disabled": 0, "fusion_lat": 0.0, "type": "electric_scooter", "name": "4f27014eb6d5c81f346a952eff3c060d", "lat": 38.90335966666667, "bike_id": "4f27014eb6d5c81f346a952eff3c060d"}, {"lon": -77.00033933333333, "rental_uris": {"android": "https://dc.lft.to/lastmile_qr_scan", "ios": "https://dc.lft.to/lastmile_qr_scan"}, "fusion_lon": 0.0, "is_reserved": 0, "is_disabled": 0, "fusion_lat": 0.0, "type": "electric_scooter", "name": "ea50253d4d87589852e4a7d80f5f52ca", "lat": 38.874850333333335, "bike_id": "ea50253d4d87589852e4a7d80f5f52ca"}, {"lon": -77.04143883333333, "rental_uris": {"android": "https://dc.lft.to/lastmile_qr_scan", "ios": "https://dc.lft.to/lastmile_qr_scan"}, "fusion_lon": 0.0, "is_reserved": 0, "is_disabled": 0, "fusion_lat": 0.0, "type": "electric_scooter", "name": "88aa68d42ea962b88af7b55747e947b3", "lat": 38.900254333333336, "bike_id": "88aa68d42ea962b88af7b55747e947b3"}, {"lon": -77.04755716666666, "rental_uris": {"android": "https://dc.lft.to/lastmile_qr_scan", "ios": "https://dc.lft.to/lastmile_qr_scan"}, "fusion_lon": 0.0, "is_reserved": 0, "is_disabled": 0, "fusion_lat": 0.0, "type": "electric_scooter", "name": "ef6477ca6c1f77dc57d2b20e9eace312", "lat": 38.89595516666667, "bike_id": "ef6477ca6c1f77dc57d2b20e9eace312"}, {"lon": -77.05034666666667, "rental_uris": {"android": "https://dc.lft.to/lastmile_qr_scan", "ios": "https://dc.lft.to/lastmile_qr_scan"}, "fusion_lon": 0.0, "is_reserved": 0, "is_disabled": 0, "fusion_lat": 0.0, "type": "electric_scooter", "name": "92da24ea716d083299a9706a33085ee5", "lat": 38.925172, "bike_id": "92da24ea716d083299a9706a33085ee5"}, {"lon": -76.99806366666667, "rental_uris": {"android": "https://dc.lft.to/lastmile_qr_scan", "ios": "https://dc.lft.to/lastmile_qr_scan"}, "fusion_lon": 0.0, "is_reserved": 0, "is_disabled": 0, "fusion_lat": 0.0, "type": "electric_bike", "name": "09ddb8ceb9b4eb029c9004b49a56c3a4", "lat": 38.8198635, "bike_id": "09ddb8ceb9b4eb029c9004b49a56c3a4"}, {"lon": -77.0343225, "rental_uris": {"android": "https://dc.lft.to/lastmile_qr_scan", "ios": "https://dc.lft.to/lastmile_qr_scan"}, "fusion_lon": 0.0, "is_reserved": 0, "is_disabled": 0, "fusion_lat": 0.0, "type": "electric_scooter", "name": "2770c2721a8e32ffe0af6ba2bba6c917", "lat": 38.9094625, "bike_id": "2770c2721a8e32ffe0af6ba2bba6c917"}, {"lon": -77.03223116666666, "rental_uris": {"android": "https://dc.lft.to/lastmile_qr_scan", "ios": "https://dc.lft.to/lastmile_qr_scan"}, "fusion_lon": 0.0, "is_reserved": 0, "is_disabled": 0, "fusion_lat": 0.0, "type": "electric_scooter", "name": "faf2c30791934eec53b53a5c4d328d15", "lat": 38.90011966666667, "bike_id": "faf2c30791934eec53b53a5c4d328d15"}, {"lon": -76.98984166666666, "rental_uris": {"android": "https://dc.lft.to/lastmile_qr_scan", "ios": "https://dc.lft.to/lastmile_qr_scan"}, "fusion_lon": 0.0, "is_reserved": 0, "is_disabled": 0, "fusion_lat": 0.0, "type": "electric_scooter", "name": "545d317361b0ef5d91503898b1329257", "lat": 38.924498666666665, "bike_id": "545d317361b0ef5d91503898b1329257"}, {"lon": -77.05265366666667, "rental_uris": {"android": "https://dc.lft.to/lastmile_qr_scan", "ios": "https://dc.lft.to/lastmile_qr_scan"}, "fusion_lon": 0.0, "is_reserved": 0, "is_disabled": 0, "fusion_lat": 0.0, "type": "electric_scooter", "name": "537a1bb8e6c5c01792e219cb517fc101", "lat": 38.927596, "bike_id": "537a1bb8e6c5c01792e219cb517fc101"}, {"lon": -77.0297575, "rental_uris": {"android": "https://dc.lft.to/lastmile_qr_scan", "ios": "https://dc.lft.to/lastmile_qr_scan"}, "fusion_lon": 0.0, "is_reserved": 0, "is_disabled": 0, "fusion_lat": 0.0, "type": "electric_scooter", "name": "cd7e14a705a027482936c11f569c1bd9", "lat": 38.92253816666667, "bike_id": "cd7e14a705a027482936c11f569c1bd9"}, {"lon": -77.019418, "rental_uris": {"android": "https://dc.lft.to/lastmile_qr_scan", "ios": "https://dc.lft.to/lastmile_qr_scan"}, "fusion_lon": 0.0, "is_reserved": 0, "is_disabled": 0, "fusion_lat": 0.0, "type": "electric_scooter", "name": "ad44c812696b09b311c815a406c57fa0", "lat": 38.9241765, "bike_id": "ad44c812696b09b311c815a406c57fa0"}, {"lon": -76.98777366666667, "rental_uris": {"android": "https://dc.lft.to/lastmile_qr_scan", "ios": "https://dc.lft.to/lastmile_qr_scan"}, "fusion_lon": 0.0, "is_reserved": 0, "is_disabled": 0, "fusion_lat": 0.0, "type": "electric_scooter", "name": "c2a93c468fb1ddb266dd3b6bf2b25f05", "lat": 38.9119835, "bike_id": "c2a93c468fb1ddb266dd3b6bf2b25f05"}, {"lon": -76.99504683333333, "rental_uris": {"android": "https://dc.lft.to/lastmile_qr_scan", "ios": "https://dc.lft.to/lastmile_qr_scan"}, "fusion_lon": 0.0, "is_reserved": 0, "is_disabled": 0, "fusion_lat": 0.0, "type": "electric_scooter", "name": "82e5939b35372fb9372ab57f917f5731", "lat": 38.9046585, "bike_id": "82e5939b35372fb9372ab57f917f5731"}, {"lon": -77.0121905, "rental_uris": {"android": "https://dc.lft.to/lastmile_qr_scan", "ios": "https://dc.lft.to/lastmile_qr_scan"}, "fusion_lon": 0.0, "is_reserved": 0, "is_disabled": 0, "fusion_lat": 0.0, "type": "electric_scooter", "name": "b9c57291814f0f5f094ed9df1961902f", "lat": 38.8982215, "bike_id": "b9c57291814f0f5f094ed9df1961902f"}, {"lon": -76.92659166666667, "rental_uris": {"android": "https://dc.lft.to/lastmile_qr_scan", "ios": "https://dc.lft.to/lastmile_qr_scan"}, "fusion_lon": 0.0, "is_reserved": 0, "is_disabled": 0, "fusion_lat": 0.0, "type": "electric_scooter", "name": "06269ff3390040de9fa7af131897d693", "lat": 38.891745, "bike_id": "06269ff3390040de9fa7af131897d693"}, {"lon": -77.0344155, "rental_uris": {"android": "https://dc.lft.to/lastmile_qr_scan", "ios": "https://dc.lft.to/lastmile_qr_scan"}, "fusion_lon": 0.0, "is_reserved": 0, "is_disabled": 0, "fusion_lat": 0.0, "type": "electric_scooter", "name": "791716519b61b7d1df2c4bc38ac71fdf", "lat": 38.902724, "bike_id": "791716519b61b7d1df2c4bc38ac71fdf"}, {"lon": -76.9728155, "rental_uris": {"android": "https://dc.lft.to/lastmile_qr_scan", "ios": "https://dc.lft.to/lastmile_qr_scan"}, "fusion_lon": 0.0, "is_reserved": 0, "is_disabled": 0, "fusion_lat": 0.0, "type": "electric_scooter", "name": "e34313050e5dc9f001e6e6b1fd0bb33f", "lat": 38.917174333333335, "bike_id": "e34313050e5dc9f001e6e6b1fd0bb33f"}, {"lon": -77.029584, "rental_uris": {"android": "https://dc.lft.to/lastmile_qr_scan", "ios": "https://dc.lft.to/lastmile_qr_scan"}, "fusion_lon": 0.0, "is_reserved": 0, "is_disabled": 0, "fusion_lat": 0.0, "type": "electric_scooter", "name": "47c1d6eff2942e2063c0748632927e42", "lat": 38.916835, "bike_id": "47c1d6eff2942e2063c0748632927e42"}, {"lon": -77.02696616666667, "rental_uris": {"android": "https://dc.lft.to/lastmile_qr_scan", "ios": "https://dc.lft.to/lastmile_qr_scan"}, "fusion_lon": 0.0, "is_reserved": 0, "is_disabled": 0, "fusion_lat": 0.0, "type": "electric_scooter", "name": "30e9a9ab554579e3490ae5f01e155046", "lat": 38.923163333333335, "bike_id": "30e9a9ab554579e3490ae5f01e155046"}, {"lon": -77.049361, "rental_uris": {"android": "https://dc.lft.to/lastmile_qr_scan", "ios": "https://dc.lft.to/lastmile_qr_scan"}, "fusion_lon": 0.0, "is_reserved": 0, "is_disabled": 0, "fusion_lat": 0.0, "type": "electric_scooter", "name": "dcbc7fce7e0d054659b7f2125949e2ef", "lat": 38.89742533333333, "bike_id": "dcbc7fce7e0d054659b7f2125949e2ef"}, {"lon": -77.04183583333334, "rental_uris": {"android": "https://dc.lft.to/lastmile_qr_scan", "ios": "https://dc.lft.to/lastmile_qr_scan"}, "fusion_lon": 0.0, "is_reserved": 0, "is_disabled": 0, "fusion_lat": 0.0, "type": "electric_scooter", "name": "114d9e33088bc37d4a7f3599b16d3d48", "lat": 38.9053325, "bike_id": "114d9e33088bc37d4a7f3599b16d3d48"}, {"lon": -77.00909633333333, "rental_uris": {"android": "https://dc.lft.to/lastmile_qr_scan", "ios": "https://dc.lft.to/lastmile_qr_scan"}, "fusion_lon": 0.0, "is_reserved": 0, "is_disabled": 0, "fusion_lat": 0.0, "type": "electric_scooter", "name": "8ac236965991fc5548bdd90cf28add49", "lat": 38.896404833333335, "bike_id": "8ac236965991fc5548bdd90cf28add49"}, {"lon": -77.0465595, "rental_uris": {"android": "https://dc.lft.to/lastmile_qr_scan", "ios": "https://dc.lft.to/lastmile_qr_scan"}, "fusion_lon": 0.0, "is_reserved": 0, "is_disabled": 0, "fusion_lat": 0.0, "type": "electric_scooter", "name": "ae8e37861a0edb46ca8be760ea0ebf93", "lat": 38.8922375, "bike_id": "ae8e37861a0edb46ca8be760ea0ebf93"}, {"lon": -77.0517695, "rental_uris": {"android": "https://dc.lft.to/lastmile_qr_scan", "ios": "https://dc.lft.to/lastmile_qr_scan"}, "fusion_lon": 0.0, "is_reserved": 0, "is_disabled": 0, "fusion_lat": 0.0, "type": "electric_scooter", "name": "b2722dd825e3337430b09bed4767ffe1", "lat": 38.923446, "bike_id": "b2722dd825e3337430b09bed4767ffe1"}, {"lon": -77.025364, "rental_uris": {"android": "https://dc.lft.to/lastmile_qr_scan", "ios": "https://dc.lft.to/lastmile_qr_scan"}, "fusion_lon": 0.0, "is_reserved": 0, "is_disabled": 0, "fusion_lat": 0.0, "type": "electric_scooter", "name": "23fc3b46c87323ea81fa29db6370e108", "lat": 38.94090216666667, "bike_id": "23fc3b46c87323ea81fa29db6370e108"}, {"lon": -77.038706, "rental_uris": {"android": "https://dc.lft.to/lastmile_qr_scan", "ios": "https://dc.lft.to/lastmile_qr_scan"}, "fusion_lon": 0.0, "is_reserved": 0, "is_disabled": 0, "fusion_lat": 0.0, "type": "electric_scooter", "name": "cb0c37d670feeba6b9713d0bab5e9816", "lat": 38.90661133333333, "bike_id": "cb0c37d670feeba6b9713d0bab5e9816"}, {"lon": -77.00065566666666, "rental_uris": {"android": "https://dc.lft.to/lastmile_qr_scan", "ios": "https://dc.lft.to/lastmile_qr_scan"}, "fusion_lon": 0.0, "is_reserved": 0, "is_disabled": 0, "fusion_lat": 0.0, "type": "electric_scooter", "name": "eb5998e7de4ad64151dc4861a9fd04d9", "lat": 38.873848833333334, "bike_id": "eb5998e7de4ad64151dc4861a9fd04d9"}, {"lon": -77.026048, "rental_uris": {"android": "https://dc.lft.to/lastmile_qr_scan", "ios": "https://dc.lft.to/lastmile_qr_scan"}, "fusion_lon": 0.0, "is_reserved": 0, "is_disabled": 0, "fusion_lat": 0.0, "type": "electric_scooter", "name": "48a83d78d33521c5492ac7fb94903b38", "lat": 38.884286, "bike_id": "48a83d78d33521c5492ac7fb94903b38"}, {"lon": -76.99073916666667, "rental_uris": {"android": "https://dc.lft.to/lastmile_qr_scan", "ios": "https://dc.lft.to/lastmile_qr_scan"}, "fusion_lon": 0.0, "is_reserved": 0, "is_disabled": 0, "fusion_lat": 0.0, "type": "electric_bike", "name": "e26d2aa8da0507b137c45b5c8c7f7d8d", "lat": 38.942642, "bike_id": "e26d2aa8da0507b137c45b5c8c7f7d8d"}, {"lon": -77.0201635, "rental_uris": {"android": "https://dc.lft.to/lastmile_qr_scan", "ios": "https://dc.lft.to/lastmile_qr_scan"}, "fusion_lon": 0.0, "is_reserved": 0, "is_disabled": 0, "fusion_lat": 0.0, "type": "electric_scooter", "name": "5a951f91d4a327ee188f7975fc03f0bf", "lat": 38.921629833333334, "bike_id": "5a951f91d4a327ee188f7975fc03f0bf"}, {"lon": -77.05043633333334, "rental_uris": {"android": "https://dc.lft.to/lastmile_qr_scan", "ios": "https://dc.lft.to/lastmile_qr_scan"}, "fusion_lon": 0.0, "is_reserved": 0, "is_disabled": 0, "fusion_lat": 0.0, "type": "electric_scooter", "name": "df1e9d09460036825fedcca7e3120364", "lat": 38.92362116666666, "bike_id": "df1e9d09460036825fedcca7e3120364"}, {"lon": -77.01394916666666, "rental_uris": {"android": "https://dc.lft.to/lastmile_qr_scan", "ios": "https://dc.lft.to/lastmile_qr_scan"}, "fusion_lon": 0.0, "is_reserved": 0, "is_disabled": 0, "fusion_lat": 0.0, "type": "electric_scooter", "name": "69d211e90bc96a9191d61e8c880a18b4", "lat": 38.974689166666664, "bike_id": "69d211e90bc96a9191d61e8c880a18b4"}, {"lon": -76.99159133333333, "rental_uris": {"android": "https://dc.lft.to/lastmile_qr_scan", "ios": "https://dc.lft.to/lastmile_qr_scan"}, "fusion_lon": 0.0, "is_reserved": 0, "is_disabled": 0, "fusion_lat": 0.0, "type": "electric_scooter", "name": "bdede79042876d69c363f034855436da", "lat": 38.89773816666667, "bike_id": "bdede79042876d69c363f034855436da"}, {"lon": -76.91714416666667, "rental_uris": {"android": "https://dc.lft.to/lastmile_qr_scan", "ios": "https://dc.lft.to/lastmile_qr_scan"}, "fusion_lon": 0.0, "is_reserved": 0, "is_disabled": 0, "fusion_lat": 0.0, "type": "electric_bike", "name": "0f59aa3a8b8cf75273bf2a0c9ac83155", "lat": 38.88025716666667, "bike_id": "0f59aa3a8b8cf75273bf2a0c9ac83155"}, {"lon": -77.0217835, "rental_uris": {"android": "https://dc.lft.to/lastmile_qr_scan", "ios": "https://dc.lft.to/lastmile_qr_scan"}, "fusion_lon": 0.0, "is_reserved": 0, "is_disabled": 0, "fusion_lat": 0.0, "type": "electric_scooter", "name": "f106d40fc2f623230d77a27812dac679", "lat": 38.89228716666667, "bike_id": "f106d40fc2f623230d77a27812dac679"}, {"lon": -77.03206866666666, "rental_uris": {"android": "https://dc.lft.to/lastmile_qr_scan", "ios": "https://dc.lft.to/lastmile_qr_scan"}, "fusion_lon": 0.0, "is_reserved": 0, "is_disabled": 0, "fusion_lat": 0.0, "type": "electric_scooter", "name": "963b615c73d88f3c8298807f6d3d526f", "lat": 38.9258345, "bike_id": "963b615c73d88f3c8298807f6d3d526f"}, {"lon": -77.071617, "rental_uris": {"android": "https://dc.lft.to/lastmile_qr_scan", "ios": "https://dc.lft.to/lastmile_qr_scan"}, "fusion_lon": 0.0, "is_reserved": 0, "is_disabled": 0, "fusion_lat": 0.0, "type": "electric_scooter", "name": "e7eb24ce7f2b72246312e30c110e2f21", "lat": 38.90869033333333, "bike_id": "e7eb24ce7f2b72246312e30c110e2f21"}, {"lon": -77.06729566666667, "rental_uris": {"android": "https://dc.lft.to/lastmile_qr_scan", "ios": "https://dc.lft.to/lastmile_qr_scan"}, "fusion_lon": 0.0, "is_reserved": 0, "is_disabled": 0, "fusion_lat": 0.0, "type": "electric_scooter", "name": "bbd6bcab2ae30b6a00e7a96660cee274", "lat": 38.90503916666667, "bike_id": "bbd6bcab2ae30b6a00e7a96660cee274"}, {"lon": -77.02834983333334, "rental_uris": {"android": "https://dc.lft.to/lastmile_qr_scan", "ios": "https://dc.lft.to/lastmile_qr_scan"}, "fusion_lon": 0.0, "is_reserved": 0, "is_disabled": 0, "fusion_lat": 0.0, "type": "electric_scooter", "name": "30bf9b42c8b49dea4f68fd095f7ea29b", "lat": 38.88765333333333, "bike_id": "30bf9b42c8b49dea4f68fd095f7ea29b"}, {"lon": -77.043428, "rental_uris": {"android": "https://dc.lft.to/lastmile_qr_scan", "ios": "https://dc.lft.to/lastmile_qr_scan"}, "fusion_lon": 0.0, "is_reserved": 0, "is_disabled": 0, "fusion_lat": 0.0, "type": "electric_scooter", "name": "5902b48712dfec2913090c9e32f02dc0", "lat": 38.908002333333336, "bike_id": "5902b48712dfec2913090c9e32f02dc0"}, {"lon": -77.00641633333333, "rental_uris": {"android": "https://dc.lft.to/lastmile_qr_scan", "ios": "https://dc.lft.to/lastmile_qr_scan"}, "fusion_lon": 0.0, "is_reserved": 0, "is_disabled": 0, "fusion_lat": 0.0, "type": "electric_scooter", "name": "5d0bea7bd15b16081d5dd2f321206356", "lat": 38.87183183333333, "bike_id": "5d0bea7bd15b16081d5dd2f321206356"}, {"lon": -77.021521, "rental_uris": {"android": "https://dc.lft.to/lastmile_qr_scan", "ios": "https://dc.lft.to/lastmile_qr_scan"}, "fusion_lon": 0.0, "is_reserved": 0, "is_disabled": 0, "fusion_lat": 0.0, "type": "electric_scooter", "name": "abcb1ba25e4863804e2121c5369ad0b3", "lat": 38.92634416666667, "bike_id": "abcb1ba25e4863804e2121c5369ad0b3"}, {"lon": -77.04472466666667, "rental_uris": {"android": "https://dc.lft.to/lastmile_qr_scan", "ios": "https://dc.lft.to/lastmile_qr_scan"}, "fusion_lon": 0.0, "is_reserved": 0, "is_disabled": 0, "fusion_lat": 0.0, "type": "electric_scooter", "name": "db1cde835c32d9b170eee40ec4e4db04", "lat": 38.892226666666666, "bike_id": "db1cde835c32d9b170eee40ec4e4db04"}, {"lon": -77.02967783333334, "rental_uris": {"android": "https://dc.lft.to/lastmile_qr_scan", "ios": "https://dc.lft.to/lastmile_qr_scan"}, "fusion_lon": 0.0, "is_reserved": 0, "is_disabled": 0, "fusion_lat": 0.0, "type": "electric_scooter", "name": "da0a7c7ae27a85f665aaf0eadf2df0c6", "lat": 38.912905, "bike_id": "da0a7c7ae27a85f665aaf0eadf2df0c6"}, {"lon": -77.04361433333334, "rental_uris": {"android": "https://dc.lft.to/lastmile_qr_scan", "ios": "https://dc.lft.to/lastmile_qr_scan"}, "fusion_lon": 0.0, "is_reserved": 0, "is_disabled": 0, "fusion_lat": 0.0, "type": "electric_scooter", "name": "d07e781df1b39d852ef4ab0f14740ff5", "lat": 38.897534, "bike_id": "d07e781df1b39d852ef4ab0f14740ff5"}, {"lon": -77.02364633333333, "rental_uris": {"android": "https://dc.lft.to/lastmile_qr_scan", "ios": "https://dc.lft.to/lastmile_qr_scan"}, "fusion_lon": 0.0, "is_reserved": 0, "is_disabled": 0, "fusion_lat": 0.0, "type": "electric_scooter", "name": "ec5bfa36b198daba16286dba4967dae7", "lat": 38.90194916666667, "bike_id": "ec5bfa36b198daba16286dba4967dae7"}, {"lon": -77.02160033333334, "rental_uris": {"android": "https://dc.lft.to/lastmile_qr_scan", "ios": "https://dc.lft.to/lastmile_qr_scan"}, "fusion_lon": 0.0, "is_reserved": 0, "is_disabled": 0, "fusion_lat": 0.0, "type": "electric_scooter", "name": "95a85c3c806d1fb386af7b3ff06ec30c", "lat": 38.92613633333333, "bike_id": "95a85c3c806d1fb386af7b3ff06ec30c"}, {"lon": -77.03176583333334, "rental_uris": {"android": "https://dc.lft.to/lastmile_qr_scan", "ios": "https://dc.lft.to/lastmile_qr_scan"}, "fusion_lon": 0.0, "is_reserved": 0, "is_disabled": 0, "fusion_lat": 0.0, "type": "electric_scooter", "name": "db68f03a43998836c2494004cb9a1d7b", "lat": 38.887332, "bike_id": "db68f03a43998836c2494004cb9a1d7b"}, {"lon": -77.048975, "rental_uris": {"android": "https://dc.lft.to/lastmile_qr_scan", "ios": "https://dc.lft.to/lastmile_qr_scan"}, "fusion_lon": 0.0, "is_reserved": 0, "is_disabled": 0, "fusion_lat": 0.0, "type": "electric_bike", "name": "81f24f7cb973be7689408ef346b82bb8", "lat": 38.9159365, "bike_id": "81f24f7cb973be7689408ef346b82bb8"}, {"lon": -77.00382166666667, "rental_uris": {"android": "https://dc.lft.to/lastmile_qr_scan", "ios": "https://dc.lft.to/lastmile_qr_scan"}, "fusion_lon": 0.0, "is_reserved": 0, "is_disabled": 0, "fusion_lat": 0.0, "type": "electric_scooter", "name": "54e767d47d1b736cd2f836b5da2470dc", "lat": 38.90711683333333, "bike_id": "54e767d47d1b736cd2f836b5da2470dc"}, {"lon": -76.98359133333334, "rental_uris": {"android": "https://dc.lft.to/lastmile_qr_scan", "ios": "https://dc.lft.to/lastmile_qr_scan"}, "fusion_lon": 0.0, "is_reserved": 0, "is_disabled": 0, "fusion_lat": 0.0, "type": "electric_scooter", "name": "29a6edd2f692468ec5227c786f12b2e6", "lat": 38.887457833333336, "bike_id": "29a6edd2f692468ec5227c786f12b2e6"}, {"lon": -76.99942166666666, "rental_uris": {"android": "https://dc.lft.to/lastmile_qr_scan", "ios": "https://dc.lft.to/lastmile_qr_scan"}, "fusion_lon": 0.0, "is_reserved": 0, "is_disabled": 0, "fusion_lat": 0.0, "type": "electric_bike", "name": "b3607c64177aa812b4520f417dd60c43", "lat": 38.902963166666666, "bike_id": "b3607c64177aa812b4520f417dd60c43"}, {"lon": -77.0282755, "rental_uris": {"android": "https://dc.lft.to/lastmile_qr_scan", "ios": "https://dc.lft.to/lastmile_qr_scan"}, "fusion_lon": 0.0, "is_reserved": 0, "is_disabled": 0, "fusion_lat": 0.0, "type": "electric_scooter", "name": "d8b7d3bee571ba1e2237fe15796420c8", "lat": 38.886563333333335, "bike_id": "d8b7d3bee571ba1e2237fe15796420c8"}, {"lon": -77.0752045, "rental_uris": {"android": "https://dc.lft.to/lastmile_qr_scan", "ios": "https://dc.lft.to/lastmile_qr_scan"}, "fusion_lon": 0.0, "is_reserved": 0, "is_disabled": 0, "fusion_lat": 0.0, "type": "electric_bike", "name": "92864370d520af32e768df6c331771b5", "lat": 38.84281516666667, "bike_id": "92864370d520af32e768df6c331771b5"}, {"lon": -76.99406416666666, "rental_uris": {"android": "https://dc.lft.to/lastmile_qr_scan", "ios": "https://dc.lft.to/lastmile_qr_scan"}, "fusion_lon": 0.0, "is_reserved": 0, "is_disabled": 0, "fusion_lat": 0.0, "type": "electric_bike", "name": "ab92cd75e3ee1c5ba6c5246d7298b349", "lat": 38.910067833333336, "bike_id": "ab92cd75e3ee1c5ba6c5246d7298b349"}, {"lon": -77.00639616666666, "rental_uris": {"android": "https://dc.lft.to/lastmile_qr_scan", "ios": "https://dc.lft.to/lastmile_qr_scan"}, "fusion_lon": 0.0, "is_reserved": 0, "is_disabled": 0, "fusion_lat": 0.0, "type": "electric_scooter", "name": "324d9ac6dba8147242fc5dc5817fc853", "lat": 38.871839666666666, "bike_id": "324d9ac6dba8147242fc5dc5817fc853"}, {"lon": -77.00034333333333, "rental_uris": {"android": "https://dc.lft.to/lastmile_qr_scan", "ios": "https://dc.lft.to/lastmile_qr_scan"}, "fusion_lon": 0.0, "is_reserved": 0, "is_disabled": 0, "fusion_lat": 0.0, "type": "electric_scooter", "name": "431c1f99e37edef1d4b2d69e4e4d0760", "lat": 38.87480433333333, "bike_id": "431c1f99e37edef1d4b2d69e4e4d0760"}, {"lon": -77.07288883333334, "rental_uris": {"android": "https://dc.lft.to/lastmile_qr_scan", "ios": "https://dc.lft.to/lastmile_qr_scan"}, "fusion_lon": 0.0, "is_reserved": 0, "is_disabled": 0, "fusion_lat": 0.0, "type": "electric_scooter", "name": "744a80cc91a669b208dbd24ad48f2942", "lat": 38.9222445, "bike_id": "744a80cc91a669b208dbd24ad48f2942"}, {"lon": -77.05904183333334, "rental_uris": {"android": "https://dc.lft.to/lastmile_qr_scan", "ios": "https://dc.lft.to/lastmile_qr_scan"}, "fusion_lon": 0.0, "is_reserved": 0, "is_disabled": 0, "fusion_lat": 0.0, "type": "electric_bike", "name": "ca2c2bf63ba128debb6414d155ac059f", "lat": 38.90081333333333, "bike_id": "ca2c2bf63ba128debb6414d155ac059f"}, {"lon": -77.01942466666667, "rental_uris": {"android": "https://dc.lft.to/lastmile_qr_scan", "ios": "https://dc.lft.to/lastmile_qr_scan"}, "fusion_lon": 0.0, "is_reserved": 0, "is_disabled": 0, "fusion_lat": 0.0, "type": "electric_scooter", "name": "32f52373391ddbfcfa4f7df3fd19227d", "lat": 38.89927933333333, "bike_id": "32f52373391ddbfcfa4f7df3fd19227d"}, {"lon": -77.00325483333333, "rental_uris": {"android": "https://dc.lft.to/lastmile_qr_scan", "ios": "https://dc.lft.to/lastmile_qr_scan"}, "fusion_lon": 0.0, "is_reserved": 0, "is_disabled": 0, "fusion_lat": 0.0, "type": "electric_scooter", "name": "9d41bd239693de0b492b6aabb1b8be18", "lat": 38.89360416666667, "bike_id": "9d41bd239693de0b492b6aabb1b8be18"}, {"lon": -77.03336733333333, "rental_uris": {"android": "https://dc.lft.to/lastmile_qr_scan", "ios": "https://dc.lft.to/lastmile_qr_scan"}, "fusion_lon": 0.0, "is_reserved": 0, "is_disabled": 0, "fusion_lat": 0.0, "type": "electric_scooter", "name": "3264423d9d25d5ec5ec8ecd3ab928c82", "lat": 38.972118333333334, "bike_id": "3264423d9d25d5ec5ec8ecd3ab928c82"}, {"lon": -77.0358365, "rental_uris": {"android": "https://dc.lft.to/lastmile_qr_scan", "ios": "https://dc.lft.to/lastmile_qr_scan"}, "fusion_lon": 0.0, "is_reserved": 0, "is_disabled": 0, "fusion_lat": 0.0, "type": "electric_scooter", "name": "3e244aaeb47306fc66854144897d4ad9", "lat": 38.926175, "bike_id": "3e244aaeb47306fc66854144897d4ad9"}, {"lon": -76.95226183333334, "rental_uris": {"android": "https://dc.lft.to/lastmile_qr_scan", "ios": "https://dc.lft.to/lastmile_qr_scan"}, "fusion_lon": 0.0, "is_reserved": 0, "is_disabled": 0, "fusion_lat": 0.0, "type": "electric_scooter", "name": "7c6bffc9d1175d07ca9e887e843ab4d0", "lat": 38.89345133333333, "bike_id": "7c6bffc9d1175d07ca9e887e843ab4d0"}, {"lon": -76.99263083333334, "rental_uris": {"android": "https://dc.lft.to/lastmile_qr_scan", "ios": "https://dc.lft.to/lastmile_qr_scan"}, "fusion_lon": 0.0, "is_reserved": 0, "is_disabled": 0, "fusion_lat": 0.0, "type": "electric_scooter", "name": "e48374fa34eed23f65518f4557ad08a6", "lat": 38.90295016666666, "bike_id": "e48374fa34eed23f65518f4557ad08a6"}, {"lon": -77.02281333333333, "rental_uris": {"android": "https://dc.lft.to/lastmile_qr_scan", "ios": "https://dc.lft.to/lastmile_qr_scan"}, "fusion_lon": 0.0, "is_reserved": 0, "is_disabled": 0, "fusion_lat": 0.0, "type": "electric_scooter", "name": "4c735c5c255c42399bd3c56808df763f", "lat": 38.91452116666667, "bike_id": "4c735c5c255c42399bd3c56808df763f"}, {"lon": -77.10610416666667, "rental_uris": {"android": "https://dc.lft.to/lastmile_qr_scan", "ios": "https://dc.lft.to/lastmile_qr_scan"}, "fusion_lon": 0.0, "is_reserved": 0, "is_disabled": 0, "fusion_lat": 0.0, "type": "electric_bike", "name": "ec5be3656b3d838179fb216de2636a12", "lat": 38.935692833333334, "bike_id": "ec5be3656b3d838179fb216de2636a12"}, {"lon": -77.0241545, "rental_uris": {"android": "https://dc.lft.to/lastmile_qr_scan", "ios": "https://dc.lft.to/lastmile_qr_scan"}, "fusion_lon": 0.0, "is_reserved": 0, "is_disabled": 0, "fusion_lat": 0.0, "type": "electric_scooter", "name": "3b797a68cba79b7b016f2123c7fe0fe2", "lat": 38.892218666666665, "bike_id": "3b797a68cba79b7b016f2123c7fe0fe2"}, {"lon": -77.047457, "rental_uris": {"android": "https://dc.lft.to/lastmile_qr_scan", "ios": "https://dc.lft.to/lastmile_qr_scan"}, "fusion_lon": 0.0, "is_reserved": 0, "is_disabled": 0, "fusion_lat": 0.0, "type": "electric_scooter", "name": "30ac467ac22c7a73afd2cbc566867896", "lat": 38.90537116666667, "bike_id": "30ac467ac22c7a73afd2cbc566867896"}, {"lon": -77.0448525, "rental_uris": {"android": "https://dc.lft.to/lastmile_qr_scan", "ios": "https://dc.lft.to/lastmile_qr_scan"}, "fusion_lon": 0.0, "is_reserved": 0, "is_disabled": 0, "fusion_lat": 0.0, "type": "electric_bike", "name": "ac6731540f026026f4346e2d480a2fd9", "lat": 38.8971825, "bike_id": "ac6731540f026026f4346e2d480a2fd9"}, {"lon": -77.01574883333333, "rental_uris": {"android": "https://dc.lft.to/lastmile_qr_scan", "ios": "https://dc.lft.to/lastmile_qr_scan"}, "fusion_lon": 0.0, "is_reserved": 0, "is_disabled": 0, "fusion_lat": 0.0, "type": "electric_scooter", "name": "a4c5ed573b3ec8c305bb23171f823d28", "lat": 38.876537166666665, "bike_id": "a4c5ed573b3ec8c305bb23171f823d28"}, {"lon": -77.01138483333334, "rental_uris": {"android": "https://dc.lft.to/lastmile_qr_scan", "ios": "https://dc.lft.to/lastmile_qr_scan"}, "fusion_lon": 0.0, "is_reserved": 0, "is_disabled": 0, "fusion_lat": 0.0, "type": "electric_scooter", "name": "57667a5ef85c7c700715eb76fe451a99", "lat": 38.883335, "bike_id": "57667a5ef85c7c700715eb76fe451a99"}, {"lon": -77.04499, "rental_uris": {"android": "https://dc.lft.to/lastmile_qr_scan", "ios": "https://dc.lft.to/lastmile_qr_scan"}, "fusion_lon": 0.0, "is_reserved": 0, "is_disabled": 0, "fusion_lat": 0.0, "type": "electric_bike", "name": "89981ee7cefa93b41aefcd0813ab1d07", "lat": 39.01415183333334, "bike_id": "89981ee7cefa93b41aefcd0813ab1d07"}, {"lon": -77.03910466666666, "rental_uris": {"android": "https://dc.lft.to/lastmile_qr_scan", "ios": "https://dc.lft.to/lastmile_qr_scan"}, "fusion_lon": 0.0, "is_reserved": 0, "is_disabled": 0, "fusion_lat": 0.0, "type": "electric_scooter", "name": "4986174c54cc77f0ba6684c1e15cd71b", "lat": 38.91684033333333, "bike_id": "4986174c54cc77f0ba6684c1e15cd71b"}, {"lon": -77.03663016666667, "rental_uris": {"android": "https://dc.lft.to/lastmile_qr_scan", "ios": "https://dc.lft.to/lastmile_qr_scan"}, "fusion_lon": 0.0, "is_reserved": 0, "is_disabled": 0, "fusion_lat": 0.0, "type": "electric_scooter", "name": "d7cf7c71a2a653e044e972710d3ee836", "lat": 38.90270183333333, "bike_id": "d7cf7c71a2a653e044e972710d3ee836"}, {"lon": -77.039719, "rental_uris": {"android": "https://dc.lft.to/lastmile_qr_scan", "ios": "https://dc.lft.to/lastmile_qr_scan"}, "fusion_lon": 0.0, "is_reserved": 0, "is_disabled": 0, "fusion_lat": 0.0, "type": "electric_scooter", "name": "6fd92f33f7f692dc46a58610dd06351f", "lat": 38.901487833333334, "bike_id": "6fd92f33f7f692dc46a58610dd06351f"}, {"lon": -77.016402, "rental_uris": {"android": "https://dc.lft.to/lastmile_qr_scan", "ios": "https://dc.lft.to/lastmile_qr_scan"}, "fusion_lon": 0.0, "is_reserved": 0, "is_disabled": 0, "fusion_lat": 0.0, "type": "electric_bike", "name": "891aacd63e63075fdb870bd7f15cb2b1", "lat": 38.7845375, "bike_id": "891aacd63e63075fdb870bd7f15cb2b1"}, {"lon": -77.04483466666667, "rental_uris": {"android": "https://dc.lft.to/lastmile_qr_scan", "ios": "https://dc.lft.to/lastmile_qr_scan"}, "fusion_lon": 0.0, "is_reserved": 0, "is_disabled": 0, "fusion_lat": 0.0, "type": "electric_scooter", "name": "519a2a138ff26080fc4d855aaa8442ae", "lat": 38.91088216666667, "bike_id": "519a2a138ff26080fc4d855aaa8442ae"}, {"lon": -77.042979, "rental_uris": {"android": "https://dc.lft.to/lastmile_qr_scan", "ios": "https://dc.lft.to/lastmile_qr_scan"}, "fusion_lon": 0.0, "is_reserved": 0, "is_disabled": 0, "fusion_lat": 0.0, "type": "electric_scooter", "name": "1591fbcdd666f49023fceae07acf3ccc", "lat": 38.90580033333333, "bike_id": "1591fbcdd666f49023fceae07acf3ccc"}, {"lon": -77.0435035, "rental_uris": {"android": "https://dc.lft.to/lastmile_qr_scan", "ios": "https://dc.lft.to/lastmile_qr_scan"}, "fusion_lon": 0.0, "is_reserved": 0, "is_disabled": 0, "fusion_lat": 0.0, "type": "electric_scooter", "name": "cec53d7f1b65e9502da7e92ee825de88", "lat": 38.9032845, "bike_id": "cec53d7f1b65e9502da7e92ee825de88"}, {"lon": -76.97444316666666, "rental_uris": {"android": "https://dc.lft.to/lastmile_qr_scan", "ios": "https://dc.lft.to/lastmile_qr_scan"}, "fusion_lon": 0.0, "is_reserved": 0, "is_disabled": 0, "fusion_lat": 0.0, "type": "electric_bike", "name": "5d94dc0ac81e0a2409fec287cfc7b6a3", "lat": 38.90504466666667, "bike_id": "5d94dc0ac81e0a2409fec287cfc7b6a3"}, {"lon": -76.99554866666666, "rental_uris": {"android": "https://dc.lft.to/lastmile_qr_scan", "ios": "https://dc.lft.to/lastmile_qr_scan"}, "fusion_lon": 0.0, "is_reserved": 0, "is_disabled": 0, "fusion_lat": 0.0, "type": "electric_scooter", "name": "afdcba63ec7f88bf32895ffd069b0ffb", "lat": 38.9273925, "bike_id": "afdcba63ec7f88bf32895ffd069b0ffb"}, {"lon": -77.03983, "rental_uris": {"android": "https://dc.lft.to/lastmile_qr_scan", "ios": "https://dc.lft.to/lastmile_qr_scan"}, "fusion_lon": 0.0, "is_reserved": 0, "is_disabled": 0, "fusion_lat": 0.0, "type": "electric_bike", "name": "12a9e5a566ecac9e99e8ee623279b3a9", "lat": 38.905883333333335, "bike_id": "12a9e5a566ecac9e99e8ee623279b3a9"}, {"lon": -76.99506133333334, "rental_uris": {"android": "https://dc.lft.to/lastmile_qr_scan", "ios": "https://dc.lft.to/lastmile_qr_scan"}, "fusion_lon": 0.0, "is_reserved": 0, "is_disabled": 0, "fusion_lat": 0.0, "type": "electric_scooter", "name": "f25f4b6e51ea411b023770e3c45deb6d", "lat": 38.883612166666666, "bike_id": "f25f4b6e51ea411b023770e3c45deb6d"}, {"lon": -76.955737, "rental_uris": {"android": "https://dc.lft.to/lastmile_qr_scan", "ios": "https://dc.lft.to/lastmile_qr_scan"}, "fusion_lon": 0.0, "is_reserved": 0, "is_disabled": 0, "fusion_lat": 0.0, "type": "electric_bike", "name": "144365d67d46b216c7e448529fcacdb9", "lat": 38.96891633333333, "bike_id": "144365d67d46b216c7e448529fcacdb9"}, {"lon": -77.00339033333333, "rental_uris": {"android": "https://dc.lft.to/lastmile_qr_scan", "ios": "https://dc.lft.to/lastmile_qr_scan"}, "fusion_lon": 0.0, "is_reserved": 0, "is_disabled": 0, "fusion_lat": 0.0, "type": "electric_scooter", "name": "051a23d7f89c432bac48198c5d51f2cd", "lat": 38.8917855, "bike_id": "051a23d7f89c432bac48198c5d51f2cd"}, {"lon": -77.0595235, "rental_uris": {"android": "https://dc.lft.to/lastmile_qr_scan", "ios": "https://dc.lft.to/lastmile_qr_scan"}, "fusion_lon": 0.0, "is_reserved": 0, "is_disabled": 0, "fusion_lat": 0.0, "type": "electric_scooter", "name": "fcdb82029e517ba1a3be99575da9d1cb", "lat": 38.94307116666667, "bike_id": "fcdb82029e517ba1a3be99575da9d1cb"}, {"lon": -76.98618866666666, "rental_uris": {"android": "https://dc.lft.to/lastmile_qr_scan", "ios": "https://dc.lft.to/lastmile_qr_scan"}, "fusion_lon": 0.0, "is_reserved": 0, "is_disabled": 0, "fusion_lat": 0.0, "type": "electric_scooter", "name": "a54b05798bd570c79a827ebb01358b50", "lat": 38.90996116666667, "bike_id": "a54b05798bd570c79a827ebb01358b50"}, {"lon": -77.05879633333333, "rental_uris": {"android": "https://dc.lft.to/lastmile_qr_scan", "ios": "https://dc.lft.to/lastmile_qr_scan"}, "fusion_lon": 0.0, "is_reserved": 0, "is_disabled": 0, "fusion_lat": 0.0, "type": "electric_scooter", "name": "9afac9c520e09a921d8a8d1382d2ff0e", "lat": 38.91830233333334, "bike_id": "9afac9c520e09a921d8a8d1382d2ff0e"}, {"lon": -77.02832816666667, "rental_uris": {"android": "https://dc.lft.to/lastmile_qr_scan", "ios": "https://dc.lft.to/lastmile_qr_scan"}, "fusion_lon": 0.0, "is_reserved": 0, "is_disabled": 0, "fusion_lat": 0.0, "type": "electric_scooter", "name": "7485f0b8201e8695796c7d26192894db", "lat": 38.9562575, "bike_id": "7485f0b8201e8695796c7d26192894db"}, {"lon": -77.018689, "rental_uris": {"android": "https://dc.lft.to/lastmile_qr_scan", "ios": "https://dc.lft.to/lastmile_qr_scan"}, "fusion_lon": 0.0, "is_reserved": 0, "is_disabled": 0, "fusion_lat": 0.0, "type": "electric_scooter", "name": "b284c3145fe9748805f0d90ea6eadb60", "lat": 38.90865016666667, "bike_id": "b284c3145fe9748805f0d90ea6eadb60"}, {"lon": -77.06980133333333, "rental_uris": {"android": "https://dc.lft.to/lastmile_qr_scan", "ios": "https://dc.lft.to/lastmile_qr_scan"}, "fusion_lon": 0.0, "is_reserved": 0, "is_disabled": 0, "fusion_lat": 0.0, "type": "electric_bike", "name": "fe1b9e2588d4c55ee328ac6e788345fa", "lat": 38.95524833333333, "bike_id": "fe1b9e2588d4c55ee328ac6e788345fa"}, {"lon": -76.93186033333333, "rental_uris": {"android": "https://dc.lft.to/lastmile_qr_scan", "ios": "https://dc.lft.to/lastmile_qr_scan"}, "fusion_lon": 0.0, "is_reserved": 0, "is_disabled": 0, "fusion_lat": 0.0, "type": "electric_bike", "name": "9ead34a192e6e79a72de00b2e8fb9a28", "lat": 38.89851083333333, "bike_id": "9ead34a192e6e79a72de00b2e8fb9a28"}, {"lon": -77.0217605, "rental_uris": {"android": "https://dc.lft.to/lastmile_qr_scan", "ios": "https://dc.lft.to/lastmile_qr_scan"}, "fusion_lon": 0.0, "is_reserved": 0, "is_disabled": 0, "fusion_lat": 0.0, "type": "electric_scooter", "name": "2e1617ba27ceb0db7a7925903e6d80a2", "lat": 38.88730966666667, "bike_id": "2e1617ba27ceb0db7a7925903e6d80a2"}, {"lon": -77.0122385, "rental_uris": {"android": "https://dc.lft.to/lastmile_qr_scan", "ios": "https://dc.lft.to/lastmile_qr_scan"}, "fusion_lon": 0.0, "is_reserved": 0, "is_disabled": 0, "fusion_lat": 0.0, "type": "electric_scooter", "name": "050d216d2de6920ad1f7a7611242d691", "lat": 38.893417666666664, "bike_id": "050d216d2de6920ad1f7a7611242d691"}, {"lon": -77.02838716666666, "rental_uris": {"android": "https://dc.lft.to/lastmile_qr_scan", "ios": "https://dc.lft.to/lastmile_qr_scan"}, "fusion_lon": 0.0, "is_reserved": 0, "is_disabled": 0, "fusion_lat": 0.0, "type": "electric_bike", "name": "ea67dd281cc29227ad47112d4b16a7da", "lat": 38.94260533333333, "bike_id": "ea67dd281cc29227ad47112d4b16a7da"}, {"lon": -77.0155555, "rental_uris": {"android": "https://dc.lft.to/lastmile_qr_scan", "ios": "https://dc.lft.to/lastmile_qr_scan"}, "fusion_lon": 0.0, "is_reserved": 0, "is_disabled": 0, "fusion_lat": 0.0, "type": "electric_scooter", "name": "5e6f90436026526355d0d80295bef473", "lat": 38.914669833333335, "bike_id": "5e6f90436026526355d0d80295bef473"}, {"lon": -77.0037705, "rental_uris": {"android": "https://dc.lft.to/lastmile_qr_scan", "ios": "https://dc.lft.to/lastmile_qr_scan"}, "fusion_lon": 0.0, "is_reserved": 0, "is_disabled": 0, "fusion_lat": 0.0, "type": "electric_bike", "name": "8572ba498e639c37295a38dc96161ad9", "lat": 38.83605033333333, "bike_id": "8572ba498e639c37295a38dc96161ad9"}, {"lon": -76.95691533333333, "rental_uris": {"android": "https://dc.lft.to/lastmile_qr_scan", "ios": "https://dc.lft.to/lastmile_qr_scan"}, "fusion_lon": 0.0, "is_reserved": 0, "is_disabled": 0, "fusion_lat": 0.0, "type": "electric_bike", "name": "7ea2ad8798b76e9f2639241b5e8b3b35", "lat": 38.850807333333336, "bike_id": "7ea2ad8798b76e9f2639241b5e8b3b35"}, {"lon": -77.01953683333333, "rental_uris": {"android": "https://dc.lft.to/lastmile_qr_scan", "ios": "https://dc.lft.to/lastmile_qr_scan"}, "fusion_lon": 0.0, "is_reserved": 0, "is_disabled": 0, "fusion_lat": 0.0, "type": "electric_scooter", "name": "7a4dfa09f5a049b9e0b36f92cfd003f2", "lat": 38.923190166666664, "bike_id": "7a4dfa09f5a049b9e0b36f92cfd003f2"}, {"lon": -77.05144483333333, "rental_uris": {"android": "https://dc.lft.to/lastmile_qr_scan", "ios": "https://dc.lft.to/lastmile_qr_scan"}, "fusion_lon": 0.0, "is_reserved": 0, "is_disabled": 0, "fusion_lat": 0.0, "type": "electric_scooter", "name": "efb2f1592fa54f7f5a9bdddaceaa5e76", "lat": 38.9063575, "bike_id": "efb2f1592fa54f7f5a9bdddaceaa5e76"}, {"lon": -77.00315866666666, "rental_uris": {"android": "https://dc.lft.to/lastmile_qr_scan", "ios": "https://dc.lft.to/lastmile_qr_scan"}, "fusion_lon": 0.0, "is_reserved": 0, "is_disabled": 0, "fusion_lat": 0.0, "type": "electric_scooter", "name": "c1e91ff43d78d4f0432ef4e144a0051b", "lat": 38.9189895, "bike_id": "c1e91ff43d78d4f0432ef4e144a0051b"}, {"lon": -77.0234385, "rental_uris": {"android": "https://dc.lft.to/lastmile_qr_scan", "ios": "https://dc.lft.to/lastmile_qr_scan"}, "fusion_lon": 0.0, "is_reserved": 0, "is_disabled": 0, "fusion_lat": 0.0, "type": "electric_scooter", "name": "943344da267f27e68eafdf8e8f05796f", "lat": 38.899634, "bike_id": "943344da267f27e68eafdf8e8f05796f"}, {"lon": -77.0199975, "rental_uris": {"android": "https://dc.lft.to/lastmile_qr_scan", "ios": "https://dc.lft.to/lastmile_qr_scan"}, "fusion_lon": 0.0, "is_reserved": 0, "is_disabled": 0, "fusion_lat": 0.0, "type": "electric_scooter", "name": "e5f0e1059f9faed9cd57a0351b78ee8c", "lat": 38.96437016666667, "bike_id": "e5f0e1059f9faed9cd57a0351b78ee8c"}, {"lon": -77.02170616666666, "rental_uris": {"android": "https://dc.lft.to/lastmile_qr_scan", "ios": "https://dc.lft.to/lastmile_qr_scan"}, "fusion_lon": 0.0, "is_reserved": 0, "is_disabled": 0, "fusion_lat": 0.0, "type": "electric_scooter", "name": "bb65b74267a8fc79c95d4cb22163e7cc", "lat": 38.942895666666665, "bike_id": "bb65b74267a8fc79c95d4cb22163e7cc"}, {"lon": -77.04741816666667, "rental_uris": {"android": "https://dc.lft.to/lastmile_qr_scan", "ios": "https://dc.lft.to/lastmile_qr_scan"}, "fusion_lon": 0.0, "is_reserved": 0, "is_disabled": 0, "fusion_lat": 0.0, "type": "electric_scooter", "name": "1395ee342e16342f679094a9dc0000ff", "lat": 38.901567166666666, "bike_id": "1395ee342e16342f679094a9dc0000ff"}, {"lon": -77.0416515, "rental_uris": {"android": "https://dc.lft.to/lastmile_qr_scan", "ios": "https://dc.lft.to/lastmile_qr_scan"}, "fusion_lon": 0.0, "is_reserved": 0, "is_disabled": 0, "fusion_lat": 0.0, "type": "electric_scooter", "name": "2d86d1ee7fd4164045c58932a52772ba", "lat": 38.899372666666665, "bike_id": "2d86d1ee7fd4164045c58932a52772ba"}, {"lon": -77.001709, "rental_uris": {"android": "https://dc.lft.to/lastmile_qr_scan", "ios": "https://dc.lft.to/lastmile_qr_scan"}, "fusion_lon": 0.0, "is_reserved": 0, "is_disabled": 0, "fusion_lat": 0.0, "type": "electric_scooter", "name": "037715dfad86c2130db55e74ef9850c3", "lat": 38.8736545, "bike_id": "037715dfad86c2130db55e74ef9850c3"}, {"lon": -77.054704, "rental_uris": {"android": "https://dc.lft.to/lastmile_qr_scan", "ios": "https://dc.lft.to/lastmile_qr_scan"}, "fusion_lon": 0.0, "is_reserved": 0, "is_disabled": 0, "fusion_lat": 0.0, "type": "electric_scooter", "name": "2ab144c8d31bfab6049b1e871df843e2", "lat": 38.923281833333334, "bike_id": "2ab144c8d31bfab6049b1e871df843e2"}, {"lon": -77.06937983333333, "rental_uris": {"android": "https://dc.lft.to/lastmile_qr_scan", "ios": "https://dc.lft.to/lastmile_qr_scan"}, "fusion_lon": 0.0, "is_reserved": 0, "is_disabled": 0, "fusion_lat": 0.0, "type": "electric_scooter", "name": "89a7c8dbd2da28d598cbc1d9281dbd5f", "lat": 38.9174405, "bike_id": "89a7c8dbd2da28d598cbc1d9281dbd5f"}, {"lon": -76.98844233333334, "rental_uris": {"android": "https://dc.lft.to/lastmile_qr_scan", "ios": "https://dc.lft.to/lastmile_qr_scan"}, "fusion_lon": 0.0, "is_reserved": 0, "is_disabled": 0, "fusion_lat": 0.0, "type": "electric_bike", "name": "2aa154932c400c5cf647bfebd3feaa22", "lat": 38.84270866666667, "bike_id": "2aa154932c400c5cf647bfebd3feaa22"}, {"lon": -77.03867716666667, "rental_uris": {"android": "https://dc.lft.to/lastmile_qr_scan", "ios": "https://dc.lft.to/lastmile_qr_scan"}, "fusion_lon": 0.0, "is_reserved": 0, "is_disabled": 0, "fusion_lat": 0.0, "type": "electric_scooter", "name": "21e669ea7efe58faf668d094274e3a2d", "lat": 38.906599666666665, "bike_id": "21e669ea7efe58faf668d094274e3a2d"}, {"lon": -77.04679533333334, "rental_uris": {"android": "https://dc.lft.to/lastmile_qr_scan", "ios": "https://dc.lft.to/lastmile_qr_scan"}, "fusion_lon": 0.0, "is_reserved": 0, "is_disabled": 0, "fusion_lat": 0.0, "type": "electric_scooter", "name": "90ae26207964bad7d5501668884ab514", "lat": 38.9003325, "bike_id": "90ae26207964bad7d5501668884ab514"}, {"lon": -77.0469415, "rental_uris": {"android": "https://dc.lft.to/lastmile_qr_scan", "ios": "https://dc.lft.to/lastmile_qr_scan"}, "fusion_lon": 0.0, "is_reserved": 0, "is_disabled": 0, "fusion_lat": 0.0, "type": "electric_scooter", "name": "903a2663b90a602b9020cde65ff0393e", "lat": 38.92113783333333, "bike_id": "903a2663b90a602b9020cde65ff0393e"}, {"lon": -77.0313075, "rental_uris": {"android": "https://dc.lft.to/lastmile_qr_scan", "ios": "https://dc.lft.to/lastmile_qr_scan"}, "fusion_lon": 0.0, "is_reserved": 0, "is_disabled": 0, "fusion_lat": 0.0, "type": "electric_scooter", "name": "6715843d43ddc337ac0405236db5df89", "lat": 38.910568, "bike_id": "6715843d43ddc337ac0405236db5df89"}, {"lon": -77.05355666666667, "rental_uris": {"android": "https://dc.lft.to/lastmile_qr_scan", "ios": "https://dc.lft.to/lastmile_qr_scan"}, "fusion_lon": 0.0, "is_reserved": 0, "is_disabled": 0, "fusion_lat": 0.0, "type": "electric_scooter", "name": "1a0bc1c2a7fc9c005f40607fa6117d74", "lat": 38.9279125, "bike_id": "1a0bc1c2a7fc9c005f40607fa6117d74"}, {"lon": -77.04503, "rental_uris": {"android": "https://dc.lft.to/lastmile_qr_scan", "ios": "https://dc.lft.to/lastmile_qr_scan"}, "fusion_lon": 0.0, "is_reserved": 0, "is_disabled": 0, "fusion_lat": 0.0, "type": "electric_scooter", "name": "1aa0d4e3f192dfe8ed0046edfacc6dc5", "lat": 38.899427, "bike_id": "1aa0d4e3f192dfe8ed0046edfacc6dc5"}, {"lon": -77.02117133333333, "rental_uris": {"android": "https://dc.lft.to/lastmile_qr_scan", "ios": "https://dc.lft.to/lastmile_qr_scan"}, "fusion_lon": 0.0, "is_reserved": 0, "is_disabled": 0, "fusion_lat": 0.0, "type": "electric_scooter", "name": "9d74939f16b20fec4e03d7e1bc7a0281", "lat": 38.924293, "bike_id": "9d74939f16b20fec4e03d7e1bc7a0281"}, {"lon": -77.01794516666666, "rental_uris": {"android": "https://dc.lft.to/lastmile_qr_scan", "ios": "https://dc.lft.to/lastmile_qr_scan"}, "fusion_lon": 0.0, "is_reserved": 0, "is_disabled": 0, "fusion_lat": 0.0, "type": "electric_scooter", "name": "79f20fca4901dc9baa99af154590384f", "lat": 38.913984166666665, "bike_id": "79f20fca4901dc9baa99af154590384f"}, {"lon": -77.03263983333333, "rental_uris": {"android": "https://dc.lft.to/lastmile_qr_scan", "ios": "https://dc.lft.to/lastmile_qr_scan"}, "fusion_lon": 0.0, "is_reserved": 0, "is_disabled": 0, "fusion_lat": 0.0, "type": "electric_scooter", "name": "f7a6b797f76ceb83691ac8db17fc966d", "lat": 38.89917283333333, "bike_id": "f7a6b797f76ceb83691ac8db17fc966d"}, {"lon": -77.09521833333334, "rental_uris": {"android": "https://dc.lft.to/lastmile_qr_scan", "ios": "https://dc.lft.to/lastmile_qr_scan"}, "fusion_lon": 0.0, "is_reserved": 0, "is_disabled": 0, "fusion_lat": 0.0, "type": "electric_bike", "name": "5a28aed56320eb0405175bbd9b59bc4b", "lat": 38.83808633333334, "bike_id": "5a28aed56320eb0405175bbd9b59bc4b"}, {"lon": -76.96790566666667, "rental_uris": {"android": "https://dc.lft.to/lastmile_qr_scan", "ios": "https://dc.lft.to/lastmile_qr_scan"}, "fusion_lon": 0.0, "is_reserved": 0, "is_disabled": 0, "fusion_lat": 0.0, "type": "electric_scooter", "name": "fccbaf2804c77bc717ab69b00a5d5a13", "lat": 38.873411, "bike_id": "fccbaf2804c77bc717ab69b00a5d5a13"}, {"lon": -77.044675, "rental_uris": {"android": "https://dc.lft.to/lastmile_qr_scan", "ios": "https://dc.lft.to/lastmile_qr_scan"}, "fusion_lon": 0.0, "is_reserved": 0, "is_disabled": 0, "fusion_lat": 0.0, "type": "electric_scooter", "name": "8d2f636c41c4a0723abc4ee674837ca5", "lat": 38.89220783333333, "bike_id": "8d2f636c41c4a0723abc4ee674837ca5"}, {"lon": -77.033534, "rental_uris": {"android": "https://dc.lft.to/lastmile_qr_scan", "ios": "https://dc.lft.to/lastmile_qr_scan"}, "fusion_lon": 0.0, "is_reserved": 0, "is_disabled": 0, "fusion_lat": 0.0, "type": "electric_bike", "name": "63acda4aae76baae68769b155272b125", "lat": 38.97234516666666, "bike_id": "63acda4aae76baae68769b155272b125"}, {"lon": -77.04055216666667, "rental_uris": {"android": "https://dc.lft.to/lastmile_qr_scan", "ios": "https://dc.lft.to/lastmile_qr_scan"}, "fusion_lon": 0.0, "is_reserved": 0, "is_disabled": 0, "fusion_lat": 0.0, "type": "electric_scooter", "name": "c56c6f8b9a1fa5b9a75141438641c0b1", "lat": 38.927934666666665, "bike_id": "c56c6f8b9a1fa5b9a75141438641c0b1"}, {"lon": -77.00665216666667, "rental_uris": {"android": "https://dc.lft.to/lastmile_qr_scan", "ios": "https://dc.lft.to/lastmile_qr_scan"}, "fusion_lon": 0.0, "is_reserved": 0, "is_disabled": 0, "fusion_lat": 0.0, "type": "electric_scooter", "name": "59c439f2556ffd6c2ab07504bcf3141c", "lat": 38.90070516666667, "bike_id": "59c439f2556ffd6c2ab07504bcf3141c"}, {"lon": -77.01847, "rental_uris": {"android": "https://dc.lft.to/lastmile_qr_scan", "ios": "https://dc.lft.to/lastmile_qr_scan"}, "fusion_lon": 0.0, "is_reserved": 0, "is_disabled": 0, "fusion_lat": 0.0, "type": "electric_scooter", "name": "cac9b3567e5ef3336d07184ec19b3e68", "lat": 38.92262866666667, "bike_id": "cac9b3567e5ef3336d07184ec19b3e68"}, {"lon": -77.048588, "rental_uris": {"android": "https://dc.lft.to/lastmile_qr_scan", "ios": "https://dc.lft.to/lastmile_qr_scan"}, "fusion_lon": 0.0, "is_reserved": 0, "is_disabled": 0, "fusion_lat": 0.0, "type": "electric_scooter", "name": "df09382f9aa55d2c8bebcdd469927128", "lat": 38.900580833333336, "bike_id": "df09382f9aa55d2c8bebcdd469927128"}, {"lon": -77.0070215, "rental_uris": {"android": "https://dc.lft.to/lastmile_qr_scan", "ios": "https://dc.lft.to/lastmile_qr_scan"}, "fusion_lon": 0.0, "is_reserved": 0, "is_disabled": 0, "fusion_lat": 0.0, "type": "electric_scooter", "name": "97301db05d721c67f81f17fb44b652c9", "lat": 38.9155105, "bike_id": "97301db05d721c67f81f17fb44b652c9"}, {"lon": -77.04477916666667, "rental_uris": {"android": "https://dc.lft.to/lastmile_qr_scan", "ios": "https://dc.lft.to/lastmile_qr_scan"}, "fusion_lon": 0.0, "is_reserved": 0, "is_disabled": 0, "fusion_lat": 0.0, "type": "electric_scooter", "name": "50adc87070d1302475461ff9ada8e2b9", "lat": 38.903157666666665, "bike_id": "50adc87070d1302475461ff9ada8e2b9"}, {"lon": -77.034057, "rental_uris": {"android": "https://dc.lft.to/lastmile_qr_scan", "ios": "https://dc.lft.to/lastmile_qr_scan"}, "fusion_lon": 0.0, "is_reserved": 0, "is_disabled": 0, "fusion_lat": 0.0, "type": "electric_scooter", "name": "d695cf949ac28c78fab70764a404a618", "lat": 38.902599, "bike_id": "d695cf949ac28c78fab70764a404a618"}, {"lon": -77.027153, "rental_uris": {"android": "https://dc.lft.to/lastmile_qr_scan", "ios": "https://dc.lft.to/lastmile_qr_scan"}, "fusion_lon": 0.0, "is_reserved": 0, "is_disabled": 0, "fusion_lat": 0.0, "type": "electric_scooter", "name": "c3d1d31c7450f511cddcb8c77604529c", "lat": 38.896736833333335, "bike_id": "c3d1d31c7450f511cddcb8c77604529c"}, {"lon": -77.0490555, "rental_uris": {"android": "https://dc.lft.to/lastmile_qr_scan", "ios": "https://dc.lft.to/lastmile_qr_scan"}, "fusion_lon": 0.0, "is_reserved": 0, "is_disabled": 0, "fusion_lat": 0.0, "type": "electric_scooter", "name": "0f38b4edcd84553564569cf97394229e", "lat": 38.916001, "bike_id": "0f38b4edcd84553564569cf97394229e"}, {"lon": -77.02799533333334, "rental_uris": {"android": "https://dc.lft.to/lastmile_qr_scan", "ios": "https://dc.lft.to/lastmile_qr_scan"}, "fusion_lon": 0.0, "is_reserved": 0, "is_disabled": 0, "fusion_lat": 0.0, "type": "electric_scooter", "name": "bbe4ebc044d4bd4a3b667d783103aca0", "lat": 38.892259, "bike_id": "bbe4ebc044d4bd4a3b667d783103aca0"}, {"lon": -77.05169333333333, "rental_uris": {"android": "https://dc.lft.to/lastmile_qr_scan", "ios": "https://dc.lft.to/lastmile_qr_scan"}, "fusion_lon": 0.0, "is_reserved": 0, "is_disabled": 0, "fusion_lat": 0.0, "type": "electric_scooter", "name": "284f06433ec3ea0092cca1b48041df9d", "lat": 38.923416833333334, "bike_id": "284f06433ec3ea0092cca1b48041df9d"}, {"lon": -77.01820283333333, "rental_uris": {"android": "https://dc.lft.to/lastmile_qr_scan", "ios": "https://dc.lft.to/lastmile_qr_scan"}, "fusion_lon": 0.0, "is_reserved": 0, "is_disabled": 0, "fusion_lat": 0.0, "type": "electric_scooter", "name": "25d699cfa4619385ea911b914b441f1f", "lat": 38.90073916666667, "bike_id": "25d699cfa4619385ea911b914b441f1f"}, {"lon": -77.04154166666666, "rental_uris": {"android": "https://dc.lft.to/lastmile_qr_scan", "ios": "https://dc.lft.to/lastmile_qr_scan"}, "fusion_lon": 0.0, "is_reserved": 0, "is_disabled": 0, "fusion_lat": 0.0, "type": "electric_scooter", "name": "e17d7452354ff99aded21d162a0de90d", "lat": 38.892345666666664, "bike_id": "e17d7452354ff99aded21d162a0de90d"}, {"lon": -77.00206966666667, "rental_uris": {"android": "https://dc.lft.to/lastmile_qr_scan", "ios": "https://dc.lft.to/lastmile_qr_scan"}, "fusion_lon": 0.0, "is_reserved": 0, "is_disabled": 0, "fusion_lat": 0.0, "type": "electric_scooter", "name": "30547d8287942a39d18f1d340c09e805", "lat": 38.874093333333334, "bike_id": "30547d8287942a39d18f1d340c09e805"}, {"lon": -77.0194695, "rental_uris": {"android": "https://dc.lft.to/lastmile_qr_scan", "ios": "https://dc.lft.to/lastmile_qr_scan"}, "fusion_lon": 0.0, "is_reserved": 0, "is_disabled": 0, "fusion_lat": 0.0, "type": "electric_scooter", "name": "fae063ebf6b9de3f97b533f3a3efc924", "lat": 38.922532833333335, "bike_id": "fae063ebf6b9de3f97b533f3a3efc924"}, {"lon": -77.0269405, "rental_uris": {"android": "https://dc.lft.to/lastmile_qr_scan", "ios": "https://dc.lft.to/lastmile_qr_scan"}, "fusion_lon": 0.0, "is_reserved": 0, "is_disabled": 0, "fusion_lat": 0.0, "type": "electric_scooter", "name": "1110f636e03d13368bf574fce29987c4", "lat": 38.90944616666667, "bike_id": "1110f636e03d13368bf574fce29987c4"}, {"lon": -77.019625, "rental_uris": {"android": "https://dc.lft.to/lastmile_qr_scan", "ios": "https://dc.lft.to/lastmile_qr_scan"}, "fusion_lon": 0.0, "is_reserved": 0, "is_disabled": 0, "fusion_lat": 0.0, "type": "electric_scooter", "name": "11c00eb78f5eac173686eab7e6dda6ea", "lat": 38.9219065, "bike_id": "11c00eb78f5eac173686eab7e6dda6ea"}, {"lon": -77.04674283333334, "rental_uris": {"android": "https://dc.lft.to/lastmile_qr_scan", "ios": "https://dc.lft.to/lastmile_qr_scan"}, "fusion_lon": 0.0, "is_reserved": 0, "is_disabled": 0, "fusion_lat": 0.0, "type": "electric_scooter", "name": "214f25a05bcccc60e7da85d3fbeaf186", "lat": 38.89558683333333, "bike_id": "214f25a05bcccc60e7da85d3fbeaf186"}, {"lon": -77.021738, "rental_uris": {"android": "https://dc.lft.to/lastmile_qr_scan", "ios": "https://dc.lft.to/lastmile_qr_scan"}, "fusion_lon": 0.0, "is_reserved": 0, "is_disabled": 0, "fusion_lat": 0.0, "type": "electric_scooter", "name": "127ac4ed312008524c41b00b67fe0e52", "lat": 38.88733166666667, "bike_id": "127ac4ed312008524c41b00b67fe0e52"}, {"lon": -76.99794816666666, "rental_uris": {"android": "https://dc.lft.to/lastmile_qr_scan", "ios": "https://dc.lft.to/lastmile_qr_scan"}, "fusion_lon": 0.0, "is_reserved": 0, "is_disabled": 0, "fusion_lat": 0.0, "type": "electric_scooter", "name": "46b5e7f7be3446d7b2d16e2d31c25135", "lat": 38.88559566666667, "bike_id": "46b5e7f7be3446d7b2d16e2d31c25135"}, {"lon": -77.0440895, "rental_uris": {"android": "https://dc.lft.to/lastmile_qr_scan", "ios": "https://dc.lft.to/lastmile_qr_scan"}, "fusion_lon": 0.0, "is_reserved": 0, "is_disabled": 0, "fusion_lat": 0.0, "type": "electric_scooter", "name": "2061cf4f0655ef90fe27ca097fbdf741", "lat": 38.92230633333333, "bike_id": "2061cf4f0655ef90fe27ca097fbdf741"}, {"lon": -77.0672615, "rental_uris": {"android": "https://dc.lft.to/lastmile_qr_scan", "ios": "https://dc.lft.to/lastmile_qr_scan"}, "fusion_lon": 0.0, "is_reserved": 0, "is_disabled": 0, "fusion_lat": 0.0, "type": "electric_scooter", "name": "bd54aac086d1681c05a109932523ec2e", "lat": 38.90969283333333, "bike_id": "bd54aac086d1681c05a109932523ec2e"}, {"lon": -77.02924366666667, "rental_uris": {"android": "https://dc.lft.to/lastmile_qr_scan", "ios": "https://dc.lft.to/lastmile_qr_scan"}, "fusion_lon": 0.0, "is_reserved": 0, "is_disabled": 0, "fusion_lat": 0.0, "type": "electric_scooter", "name": "f1939f4fa7edae22c23b54b9a3c306ca", "lat": 38.902397666666666, "bike_id": "f1939f4fa7edae22c23b54b9a3c306ca"}, {"lon": -77.07694933333333, "rental_uris": {"android": "https://dc.lft.to/lastmile_qr_scan", "ios": "https://dc.lft.to/lastmile_qr_scan"}, "fusion_lon": 0.0, "is_reserved": 0, "is_disabled": 0, "fusion_lat": 0.0, "type": "electric_scooter", "name": "8274e45c119a621903671cc8caea4125", "lat": 38.93154666666667, "bike_id": "8274e45c119a621903671cc8caea4125"}, {"lon": -77.04359183333334, "rental_uris": {"android": "https://dc.lft.to/lastmile_qr_scan", "ios": "https://dc.lft.to/lastmile_qr_scan"}, "fusion_lon": 0.0, "is_reserved": 0, "is_disabled": 0, "fusion_lat": 0.0, "type": "electric_scooter", "name": "6744b7229fd2ae663caead15f90d6e4a", "lat": 38.902458, "bike_id": "6744b7229fd2ae663caead15f90d6e4a"}, {"lon": -77.046464, "rental_uris": {"android": "https://dc.lft.to/lastmile_qr_scan", "ios": "https://dc.lft.to/lastmile_qr_scan"}, "fusion_lon": 0.0, "is_reserved": 0, "is_disabled": 0, "fusion_lat": 0.0, "type": "electric_scooter", "name": "940d84fc5f2ba9a0f4c2e52f03a945fa", "lat": 38.892249166666666, "bike_id": "940d84fc5f2ba9a0f4c2e52f03a945fa"}, {"lon": -77.07587183333334, "rental_uris": {"android": "https://dc.lft.to/lastmile_qr_scan", "ios": "https://dc.lft.to/lastmile_qr_scan"}, "fusion_lon": 0.0, "is_reserved": 0, "is_disabled": 0, "fusion_lat": 0.0, "type": "electric_scooter", "name": "9a8631641aa72731e84beaf6efddee85", "lat": 38.91214133333333, "bike_id": "9a8631641aa72731e84beaf6efddee85"}, {"lon": -77.04938016666667, "rental_uris": {"android": "https://dc.lft.to/lastmile_qr_scan", "ios": "https://dc.lft.to/lastmile_qr_scan"}, "fusion_lon": 0.0, "is_reserved": 0, "is_disabled": 0, "fusion_lat": 0.0, "type": "electric_scooter", "name": "015ee6582e5df411db7839fd7538f6a2", "lat": 38.90068866666667, "bike_id": "015ee6582e5df411db7839fd7538f6a2"}, {"lon": -77.0271905, "rental_uris": {"android": "https://dc.lft.to/lastmile_qr_scan", "ios": "https://dc.lft.to/lastmile_qr_scan"}, "fusion_lon": 0.0, "is_reserved": 0, "is_disabled": 0, "fusion_lat": 0.0, "type": "electric_scooter", "name": "6947a04cca2160ca0c806e5624bfbdb8", "lat": 38.89777433333333, "bike_id": "6947a04cca2160ca0c806e5624bfbdb8"}, {"lon": -77.03167183333333, "rental_uris": {"android": "https://dc.lft.to/lastmile_qr_scan", "ios": "https://dc.lft.to/lastmile_qr_scan"}, "fusion_lon": 0.0, "is_reserved": 0, "is_disabled": 0, "fusion_lat": 0.0, "type": "electric_scooter", "name": "2799d0d87fef044b4dc8a47834a9b053", "lat": 38.901252, "bike_id": "2799d0d87fef044b4dc8a47834a9b053"}, {"lon": -76.96705133333333, "rental_uris": {"android": "https://dc.lft.to/lastmile_qr_scan", "ios": "https://dc.lft.to/lastmile_qr_scan"}, "fusion_lon": 0.0, "is_reserved": 0, "is_disabled": 0, "fusion_lat": 0.0, "type": "electric_scooter", "name": "de4bdeac4a293941812e5329e37d1ec6", "lat": 38.86012816666667, "bike_id": "de4bdeac4a293941812e5329e37d1ec6"}, {"lon": -77.0453375, "rental_uris": {"android": "https://dc.lft.to/lastmile_qr_scan", "ios": "https://dc.lft.to/lastmile_qr_scan"}, "fusion_lon": 0.0, "is_reserved": 0, "is_disabled": 0, "fusion_lat": 0.0, "type": "electric_scooter", "name": "988b82a7a76e4c440753fa1e89448c81", "lat": 38.911111, "bike_id": "988b82a7a76e4c440753fa1e89448c81"}, {"lon": -77.03189316666666, "rental_uris": {"android": "https://dc.lft.to/lastmile_qr_scan", "ios": "https://dc.lft.to/lastmile_qr_scan"}, "fusion_lon": 0.0, "is_reserved": 0, "is_disabled": 0, "fusion_lat": 0.0, "type": "electric_scooter", "name": "4cc4b84e9a8fef832732d5fb1ef38027", "lat": 38.908227333333336, "bike_id": "4cc4b84e9a8fef832732d5fb1ef38027"}, {"lon": -77.0205435, "rental_uris": {"android": "https://dc.lft.to/lastmile_qr_scan", "ios": "https://dc.lft.to/lastmile_qr_scan"}, "fusion_lon": 0.0, "is_reserved": 0, "is_disabled": 0, "fusion_lat": 0.0, "type": "electric_scooter", "name": "525b05695c045e165882259f2134260f", "lat": 38.9155715, "bike_id": "525b05695c045e165882259f2134260f"}, {"lon": -77.02403833333334, "rental_uris": {"android": "https://dc.lft.to/lastmile_qr_scan", "ios": "https://dc.lft.to/lastmile_qr_scan"}, "fusion_lon": 0.0, "is_reserved": 0, "is_disabled": 0, "fusion_lat": 0.0, "type": "electric_scooter", "name": "23b93fd5212616d6be27ce0d1d1d5d45", "lat": 38.897442, "bike_id": "23b93fd5212616d6be27ce0d1d1d5d45"}, {"lon": -77.048637, "rental_uris": {"android": "https://dc.lft.to/lastmile_qr_scan", "ios": "https://dc.lft.to/lastmile_qr_scan"}, "fusion_lon": 0.0, "is_reserved": 0, "is_disabled": 0, "fusion_lat": 0.0, "type": "electric_scooter", "name": "a8d1984c3f454c575a5c88b01c1f66c9", "lat": 38.89219716666667, "bike_id": "a8d1984c3f454c575a5c88b01c1f66c9"}, {"lon": -77.0314475, "rental_uris": {"android": "https://dc.lft.to/lastmile_qr_scan", "ios": "https://dc.lft.to/lastmile_qr_scan"}, "fusion_lon": 0.0, "is_reserved": 0, "is_disabled": 0, "fusion_lat": 0.0, "type": "electric_scooter", "name": "e95a8ec8f2702b3c398051b69edfbe91", "lat": 38.94177966666667, "bike_id": "e95a8ec8f2702b3c398051b69edfbe91"}, {"lon": -77.009411, "rental_uris": {"android": "https://dc.lft.to/lastmile_qr_scan", "ios": "https://dc.lft.to/lastmile_qr_scan"}, "fusion_lon": 0.0, "is_reserved": 0, "is_disabled": 0, "fusion_lat": 0.0, "type": "electric_scooter", "name": "f47c3c14891021a7ab918106a46c7dd5", "lat": 38.90850983333333, "bike_id": "f47c3c14891021a7ab918106a46c7dd5"}, {"lon": -77.046121, "rental_uris": {"android": "https://dc.lft.to/lastmile_qr_scan", "ios": "https://dc.lft.to/lastmile_qr_scan"}, "fusion_lon": 0.0, "is_reserved": 0, "is_disabled": 0, "fusion_lat": 0.0, "type": "electric_scooter", "name": "7dea47e99a2c8bc2473473015eb0a611", "lat": 38.90254, "bike_id": "7dea47e99a2c8bc2473473015eb0a611"}, {"lon": -77.02127466666667, "rental_uris": {"android": "https://dc.lft.to/lastmile_qr_scan", "ios": "https://dc.lft.to/lastmile_qr_scan"}, "fusion_lon": 0.0, "is_reserved": 0, "is_disabled": 0, "fusion_lat": 0.0, "type": "electric_scooter", "name": "d59119d912ae7e5f12cc6f8942b8b003", "lat": 38.924135, "bike_id": "d59119d912ae7e5f12cc6f8942b8b003"}, {"lon": -77.00690533333334, "rental_uris": {"android": "https://dc.lft.to/lastmile_qr_scan", "ios": "https://dc.lft.to/lastmile_qr_scan"}, "fusion_lon": 0.0, "is_reserved": 0, "is_disabled": 0, "fusion_lat": 0.0, "type": "electric_scooter", "name": "5046bca06bd907924f24f7c7aafa276b", "lat": 38.8715725, "bike_id": "5046bca06bd907924f24f7c7aafa276b"}, {"lon": -77.037372, "rental_uris": {"android": "https://dc.lft.to/lastmile_qr_scan", "ios": "https://dc.lft.to/lastmile_qr_scan"}, "fusion_lon": 0.0, "is_reserved": 0, "is_disabled": 0, "fusion_lat": 0.0, "type": "electric_scooter", "name": "9b62a81179d0ca7822bed5abe4b0df3e", "lat": 38.90763716666667, "bike_id": "9b62a81179d0ca7822bed5abe4b0df3e"}, {"lon": -77.03422583333334, "rental_uris": {"android": "https://dc.lft.to/lastmile_qr_scan", "ios": "https://dc.lft.to/lastmile_qr_scan"}, "fusion_lon": 0.0, "is_reserved": 0, "is_disabled": 0, "fusion_lat": 0.0, "type": "electric_scooter", "name": "7a37b460f81d1d329cd28cd003027476", "lat": 38.9024985, "bike_id": "7a37b460f81d1d329cd28cd003027476"}, {"lon": -76.970045, "rental_uris": {"android": "https://dc.lft.to/lastmile_qr_scan", "ios": "https://dc.lft.to/lastmile_qr_scan"}, "fusion_lon": 0.0, "is_reserved": 0, "is_disabled": 0, "fusion_lat": 0.0, "type": "electric_bike", "name": "6d32a5c1b6b6e9febffdc012118b35f2", "lat": 38.863660833333334, "bike_id": "6d32a5c1b6b6e9febffdc012118b35f2"},