{"data": {"bikes": [{"lat": 38.91815033333334, "is_disabled": 0, "type": "electric_scooter", "lon": -77.02955066666667, "bike_id": "8beac1214aea769f7272ec8c87ca3f71", "fusion_lat": 0.0, "name": "8beac1214aea769f7272ec8c87ca3f71", "is_reserved": 0, "rental_uris": {"android": "https://dc.lft.to/lastmile_qr_scan", "ios": "https://dc.lft.to/lastmile_qr_scan"}, "fusion_lon": 0.0}, {"lat": 38.938596833333335, "is_disabled": 0, "type": "electric_scooter", "lon": -77.02593716666667, "bike_id": "3becf017bb7b548d7ca4edef5b9c2fb3", "fusion_lat": 0.0, "name": "3becf017bb7b548d7ca4edef5b9c2fb3", "is_reserved": 0, "rental_uris": {"android": "https://dc.lft.to/lastmile_qr_scan", "ios": "https://dc.lft.to/lastmile_qr_scan"}, "fusion_lon": 0.0}, {"lat": 38.9056315, "is_disabled": 0, "type": "electric_scooter", "lon": -76.98135666666667, "bike_id": "af5b87c3d5e8f63844ba7161d6160c88", "fusion_lat": 0.0, "name": "af5b87c3d5e8f63844ba7161d6160c88", "is_reserved": 0, "rental_uris": {"android": "https://dc.lft.to/lastmile_qr_scan", "ios": "https://dc.lft.to/lastmile_qr_scan"}, "fusion_lon": 0.0}, {"lat": 38.85426916666667, "is_disabled": 0, "type": "electric_bike", "lon": -76.90972433333333, "bike_id": "785f01b51e04828a1dc3a0e4bc28f581", "fusion_lat": 0.0, "name": "785f01b51e04828a1dc3a0e4bc28f581", "is_reserved": 0, "rental_uris": {"android": "https://dc.lft.to/lastmile_qr_scan", "ios": "https://dc.lft.to/lastmile_qr_scan"}, "fusion_lon": 0.0}, {"lat": 38.92316783333333, "is_disabled": 0, "type": "electric_scooter", "lon": -77.046445, "bike_id": "1b547664cbc73eb3292ca0bccf836d2f", "fusion_lat": 0.0, "name": "1b547664cbc73eb3292ca0bccf836d2f", "is_reserved": 0, "rental_uris": {"android": "https://dc.lft.to/lastmile_qr_scan", "ios": "https://dc.lft.to/lastmile_qr_scan"}, "fusion_lon": 0.0}, {"lat": 38.91690233333333, "is_disabled": 0, "type": "electric_scooter", "lon": -77.03567216666667, "bike_id": "4fbc23b54e0e469acc33e29ae796ec94", "fusion_lat": 0.0, "name": "4fbc23b54e0e469acc33e29ae796ec94", "is_reserved": 0, "rental_uris": {"android": "https://dc.lft.to/lastmile_qr_scan", "ios": "https://dc.lft.to/lastmile_qr_scan"}, "fusion_lon": 0.0}, {"lat": 38.84430416666667, "is_disabled": 0, "type": "electric_scooter", "lon": -76.998118, "bike_id": "1647edeff2720aa1a9951a97f4768c6d", "fusion_lat": 0.0, "name": "1647edeff2720aa1a9951a97f4768c6d", "is_reserved": 0, "rental_uris": {"android": "https://dc.lft.to/lastmile_qr_scan", "ios": "https://dc.lft.to/lastmile_qr_scan"}, "fusion_lon": 0.0}, {"lat": 38.945980666666664, "is_disabled": 0, "type": "electric_scooter", "lon": -77.07034316666666, "bike_id": "74428e71cffc26412377707f5d20a70f", "fusion_lat": 0.0, "name": "74428e71cffc26412377707f5d20a70f", "is_reserved": 0, "rental_uris": {"android": "https://dc.lft.to/lastmile_qr_scan", "ios": "https://dc.lft.to/lastmile_qr_scan"}, "fusion_lon": 0.0}, {"lat": 38.91218033333333, "is_disabled": 0, "type": "electric_scooter", "lon": -77.02799733333333, "bike_id": "bf35c0007c8503bf3020cbb5fb9e0e2c", "fusion_lat": 0.0, "name": "bf35c0007c8503bf3020cbb5fb9e0e2c", "is_reserved": 0, "rental_uris": {"android": "https://dc.lft.to/lastmile_qr_scan", "ios": "https://dc.lft.to/lastmile_qr_scan"}, "fusion_lon": 0.0}, {"lat": 38.944284333333336, "is_disabled": 0, "type": "electric_scooter", "lon": -77.063522, "bike_id": "4c39e676b39a220a849d02007a75fd6e", "fusion_lat": 0.0, "name": "4c39e676b39a220a849d02007a75fd6e", "is_reserved": 0, "rental_uris": {"android": "https://dc.lft.to/lastmile_qr_scan", "ios": "https://dc.lft.to/lastmile_qr_scan"}, "fusion_lon": 0.0}, {"lat": 38.883358666666666, "is_disabled": 0, "type": "electric_scooter", "lon": -77.00926466666667, "bike_id": "76d83e8121e2e507ec0038d2d49314db", "fusion_lat": 0.0, "name": "76d83e8121e2e507ec0038d2d49314db", "is_reserved": 0, "rental_uris": {"android": "https://dc.lft.to/lastmile_qr_scan", "ios": "https://dc.lft.to/lastmile_qr_scan"}, "fusion_lon": 0.0}, {"lat": 38.897157166666666, "is_disabled": 0, "type": "electric_scooter", "lon": -77.00797283333333, "bike_id": "5d5f2bd00384245ccbae60b0bdc77f84", "fusion_lat": 0.0, "name": "5d5f2bd00384245ccbae60b0bdc77f84", "is_reserved": 0, "rental_uris": {"android": "https://dc.lft.to/lastmile_qr_scan", "ios": "https://dc.lft.to/lastmile_qr_scan"}, "fusion_lon": 0.0}, {"lat": 38.8980475, "is_disabled": 0, "type": "electric_scooter", "lon": -77.050267, "bike_id": "7074feb53a830a94bd9570618dc91c2c", "fusion_lat": 0.0, "name": "7074feb53a830a94bd9570618dc91c2c", "is_reserved": 0, "rental_uris": {"android": "https://dc.lft.to/lastmile_qr_scan", "ios": "https://dc.lft.to/lastmile_qr_scan"}, "fusion_lon": 0.0}, {"lat": 38.949029333333336, "is_disabled": 0, "type": "electric_bike", "lon": -76.97234533333334, "bike_id": "6efedf6954ea2d53755e84fef6798fec", "fusion_lat": 0.0, "name": "6efedf6954ea2d53755e84fef6798fec", "is_reserved": 0, "rental_uris": {"android": "https://dc.lft.to/lastmile_qr_scan", "ios": "https://dc.lft.to/lastmile_qr_scan"}, "fusion_lon": 0.0}, {"lat": 38.7932535, "is_disabled": 0, "type": "electric_bike", "lon": -77.04020533333333, "bike_id": "9413c729dd8ad5046aa3341c0c3c9c83", "fusion_lat": 0.0, "name": "9413c729dd8ad5046aa3341c0c3c9c83", "is_reserved": 0, "rental_uris": {"android": "https://dc.lft.to/lastmile_qr_scan", "ios": "https://dc.lft.to/lastmile_qr_scan"}, "fusion_lon": 0.0}, {"lat": 38.9268245, "is_disabled": 0, "type": "electric_scooter", "lon": -77.015727, "bike_id": "1ca05923e793e0a1e24565a849ec13d9", "fusion_lat": 0.0, "name": "1ca05923e793e0a1e24565a849ec13d9", "is_reserved": 0, "rental_uris": {"android": "https://dc.lft.to/lastmile_qr_scan", "ios": "https://dc.lft.to/lastmile_qr_scan"}, "fusion_lon": 0.0}, {"lat": 38.90072333333333, "is_disabled": 0, "type": "electric_scooter", "lon": -77.0021365, "bike_id": "bf554c686e40f98e7f2719b718bef826", "fusion_lat": 0.0, "name": "bf554c686e40f98e7f2719b718bef826", "is_reserved": 0, "rental_uris": {"android": "https://dc.lft.to/lastmile_qr_scan", "ios": "https://dc.lft.to/lastmile_qr_scan"}, "fusion_lon": 0.0}, {"lat": 38.89399866666667, "is_disabled": 0, "type": "electric_scooter", "lon": -77.04997916666666, "bike_id": "ba49759e5475a14095b821845e3f2391", "fusion_lat": 0.0, "name": "ba49759e5475a14095b821845e3f2391", "is_reserved": 0, "rental_uris": {"android": "https://dc.lft.to/lastmile_qr_scan", "ios": "https://dc.lft.to/lastmile_qr_scan"}, "fusion_lon": 0.0}, {"lat": 38.909585666666665, "is_disabled": 0, "type": "electric_scooter", "lon": -77.03361333333334, "bike_id": "9621dc3343b7fe1bd6bf2de9208d77c6", "fusion_lat": 0.0, "name": "9621dc3343b7fe1bd6bf2de9208d77c6", "is_reserved": 0, "rental_uris": {"android": "https://dc.lft.to/lastmile_qr_scan", "ios": "https://dc.lft.to/lastmile_qr_scan"}, "fusion_lon": 0.0}, {"lat": 39.00471616666667, "is_disabled": 0, "type": "electric_bike", "lon": -76.901288, "bike_id": "5890ac15ac8f5f86023e2b840074281d", "fusion_lat": 0.0, "name": "5890ac15ac8f5f86023e2b840074281d", "is_reserved": 0, "rental_uris": {"android": "https://dc.lft.to/lastmile_qr_scan", "ios": "https://dc.lft.to/lastmile_qr_scan"}, "fusion_lon": 0.0}, {"lat": 38.910359, "is_disabled": 0, "type": "electric_scooter", "lon": -77.03533083333333, "bike_id": "2ed333daa913b4f654fb7b9e505e6726", "fusion_lat": 0.0, "name": "2ed333daa913b4f654fb7b9e505e6726", "is_reserved": 0, "rental_uris": {"android": "https://dc.lft.to/lastmile_qr_scan", "ios": "https://dc.lft.to/lastmile_qr_scan"}, "fusion_lon": 0.0}, {"lat": 38.93283266666667, "is_disabled": 0, "type": "electric_scooter", "lon": -77.0327595, "bike_id": "ad6a54bdec1f0747280fafd9652c063b", "fusion_lat": 0.0, "name": "ad6a54bdec1f0747280fafd9652c063b", "is_reserved": 0, "rental_uris": {"android": "https://dc.lft.to/lastmile_qr_scan", "ios": "https://dc.lft.to/lastmile_qr_scan"}, "fusion_lon": 0.0}, {"lat": 38.930125333333336, "is_disabled": 0, "type": "electric_scooter", "lon": -77.0445485, "bike_id": "c00215edfeae83e2fb1f2dd0580dc67c", "fusion_lat": 0.0, "name": "c00215edfeae83e2fb1f2dd0580dc67c", "is_reserved": 0, "rental_uris": {"android": "https://dc.lft.to/lastmile_qr_scan", "ios": "https://dc.lft.to/lastmile_qr_scan"}, "fusion_lon": 0.0}, {"lat": 38.9231225, "is_disabled": 0, "type": "electric_scooter", "lon": -77.02800716666667, "bike_id": "6f2df2d895c6e9d273be8d66ebcb05e8", "fusion_lat": 0.0, "name": "6f2df2d895c6e9d273be8d66ebcb05e8", "is_reserved": 0, "rental_uris": {"android": "https://dc.lft.to/lastmile_qr_scan", "ios": "https://dc.lft.to/lastmile_qr_scan"}, "fusion_lon": 0.0}, {"lat": 38.90989966666667, "is_disabled": 0, "type": "electric_scooter", "lon": -76.9973825, "bike_id": "002e2b4f2905efc4cad2937abe1ae542", "fusion_lat": 0.0, "name": "002e2b4f2905efc4cad2937abe1ae542", "is_reserved": 0, "rental_uris": {"android": "https://dc.lft.to/lastmile_qr_scan", "ios": "https://dc.lft.to/lastmile_qr_scan"}, "fusion_lon": 0.0}, {"lat": 38.82865916666667, "is_disabled": 0, "type": "electric_bike", "lon": -77.11226, "bike_id": "9d6f11dfc2e812d957efb0b81f31db79", "fusion_lat": 0.0, "name": "9d6f11dfc2e812d957efb0b81f31db79", "is_reserved": 0, "rental_uris": {"android": "https://dc.lft.to/lastmile_qr_scan", "ios": "https://dc.lft.to/lastmile_qr_scan"}, "fusion_lon": 0.0}, {"lat": 38.926624333333336, "is_disabled": 0, "type": "electric_scooter", "lon": -77.014965, "bike_id": "4a86290c48a7931560f8d12fa3490483", "fusion_lat": 0.0, "name": "4a86290c48a7931560f8d12fa3490483", "is_reserved": 0, "rental_uris": {"android": "https://dc.lft.to/lastmile_qr_scan", "ios": "https://dc.lft.to/lastmile_qr_scan"}, "fusion_lon": 0.0}, {"lat": 38.9210765, "is_disabled": 0, "type": "electric_scooter", "lon": -77.0419235, "bike_id": "090a44fe98bee22c62dae039576310fb", "fusion_lat": 0.0, "name": "090a44fe98bee22c62dae039576310fb", "is_reserved": 0, "rental_uris": {"android": "https://dc.lft.to/lastmile_qr_scan", "ios": "https://dc.lft.to/lastmile_qr_scan"}, "fusion_lon": 0.0}, {"lat": 38.88628766666667, "is_disabled": 0, "type": "electric_scooter", "lon": -76.95516433333333, "bike_id": "1cc4dc4a5aede77160f82fee7a3c8d4f", "fusion_lat": 0.0, "name": "1cc4dc4a5aede77160f82fee7a3c8d4f", "is_reserved": 0, "rental_uris": {"android": "https://dc.lft.to/lastmile_qr_scan", "ios": "https://dc.lft.to/lastmile_qr_scan"}, "fusion_lon": 0.0}, {"lat": 38.943139, "is_disabled": 0, "type": "electric_scooter", "lon": -77.0613655, "bike_id": "3b072a215bebc6c5fb5b0eed814d3346", "fusion_lat": 0.0, "name": "3b072a215bebc6c5fb5b0eed814d3346", "is_reserved": 0, "rental_uris": {"android": "https://dc.lft.to/lastmile_qr_scan", "ios": "https://dc.lft.to/lastmile_qr_scan"}, "fusion_lon": 0.0}, {"lat": 38.922489, "is_disabled": 0, "type": "electric_scooter", "lon": -77.01938266666667, "bike_id": "b5f6a304406f5062840d197a72c01ff7", "fusion_lat": 0.0, "name": "b5f6a304406f5062840d197a72c01ff7", "is_reserved": 0, "rental_uris": {"android": "https://dc.lft.to/lastmile_qr_scan", "ios": "https://dc.lft.to/lastmile_qr_scan"}, "fusion_lon": 0.0}, {"lat": 38.924724, "is_disabled": 0, "type": "electric_scooter", "lon": -77.03915966666666, "bike_id": "12e95af7ff826883a1d82fd8c7f94d72", "fusion_lat": 0.0, "name": "12e95af7ff826883a1d82fd8c7f94d72", "is_reserved": 0, "rental_uris": {"android": "https://dc.lft.to/lastmile_qr_scan", "ios": "https://dc.lft.to/lastmile_qr_scan"}, "fusion_lon": 0.0}, {"lat": 38.9248465, "is_disabled": 0, "type": "electric_scooter", "lon": -77.03479316666666, "bike_id": "266bfec8528a2c0848ba8472b1d7980d", "fusion_lat": 0.0, "name": "266bfec8528a2c0848ba8472b1d7980d", "is_reserved": 0, "rental_uris": {"android": "https://dc.lft.to/lastmile_qr_scan", "ios": "https://dc.lft.to/lastmile_qr_scan"}, "fusion_lon": 0.0}, {"lat": 38.902684, "is_disabled": 0, "type": "electric_scooter", "lon": -77.03670066666666, "bike_id": "6592e8e3970c8854d72503c8dfb5a6f3", "fusion_lat": 0.0, "name": "6592e8e3970c8854d72503c8dfb5a6f3", "is_reserved": 0, "rental_uris": {"android": "https://dc.lft.to/lastmile_qr_scan", "ios": "https://dc.lft.to/lastmile_qr_scan"}, "fusion_lon": 0.0}, {"lat": 38.982273666666664, "is_disabled": 0, "type": "electric_scooter", "lon": -77.02637766666666, "bike_id": "d8beab11f6ec444744c8ebe08fed8e4e", "fusion_lat": 0.0, "name": "d8beab11f6ec444744c8ebe08fed8e4e", "is_reserved": 0, "rental_uris": {"android": "https://dc.lft.to/lastmile_qr_scan", "ios": "https://dc.lft.to/lastmile_qr_scan"}, "fusion_lon": 0.0}, {"lat": 38.894825833333336, "is_disabled": 0, "type": "electric_scooter", "lon": -77.00226333333333, "bike_id": "1125420c4f498394e82e216e51c398b8", "fusion_lat": 0.0, "name": "1125420c4f498394e82e216e51c398b8", "is_reserved": 0, "rental_uris": {"android": "https://dc.lft.to/lastmile_qr_scan", "ios": "https://dc.lft.to/lastmile_qr_scan"}, "fusion_lon": 0.0}, {"lat": 38.914925833333335, "is_disabled": 0, "type": "electric_scooter", "lon": -77.021786, "bike_id": "39e4d99404e3ee5ca83394b0e9ec44ee", "fusion_lat": 0.0, "name": "39e4d99404e3ee5ca83394b0e9ec44ee", "is_reserved": 0, "rental_uris": {"android": "https://dc.lft.to/lastmile_qr_scan", "ios": "https://dc.lft.to/lastmile_qr_scan"}, "fusion_lon": 0.0}, {"lat": 38.892212, "is_disabled": 0, "type": "electric_scooter", "lon": -77.04862816666666, "bike_id": "0faaba3236090cee0981ef47bd95ff04", "fusion_lat": 0.0, "name": "0faaba3236090cee0981ef47bd95ff04", "is_reserved": 0, "rental_uris": {"android": "https://dc.lft.to/lastmile_qr_scan", "ios": "https://dc.lft.to/lastmile_qr_scan"}, "fusion_lon": 0.0}, {"lat": 38.92161083333333, "is_disabled": 0, "type": "electric_scooter", "lon": -77.04024516666666, "bike_id": "abde60c1c5cfba19e924f090f4b37055", "fusion_lat": 0.0, "name": "abde60c1c5cfba19e924f090f4b37055", "is_reserved": 0, "rental_uris": {"android": "https://dc.lft.to/lastmile_qr_scan", "ios": "https://dc.lft.to/lastmile_qr_scan"}, "fusion_lon": 0.0}, {"lat": 38.80055133333333, "is_disabled": 0, "type": "electric_bike", "lon": -77.07117316666667, "bike_id": "bb0e90ddd439225f3a7f7a34316f9b00", "fusion_lat": 0.0, "name": "bb0e90ddd439225f3a7f7a34316f9b00", "is_reserved": 0, "rental_uris": {"android": "https://dc.lft.to/lastmile_qr_scan", "ios": "https://dc.lft.to/lastmile_qr_scan"}, "fusion_lon": 0.0}, {"lat": 38.940373666666666, "is_disabled": 0, "type": "electric_bike", "lon": -76.98818083333333, "bike_id": "b334ba831fea5c9867d34a5f154a5cae", "fusion_lat": 0.0, "name": "b334ba831fea5c9867d34a5f154a5cae", "is_reserved": 0, "rental_uris": {"android": "https://dc.lft.to/lastmile_qr_scan", "ios": "https://dc.lft.to/lastmile_qr_scan"}, "fusion_lon": 0.0}, {"lat": 38.956301833333335, "is_disabled": 0, "type": "electric_bike", "lon": -77.02296483333333, "bike_id": "56bcf6a6ccb08ff1302a3b52c8346319", "fusion_lat": 0.0, "name": "56bcf6a6ccb08ff1302a3b52c8346319", "is_reserved": 0, "rental_uris": {"android": "https://dc.lft.to/lastmile_qr_scan", "ios": "https://dc.lft.to/lastmile_qr_scan"}, "fusion_lon": 0.0}, {"lat": 38.86650683333333, "is_disabled": 0, "type": "electric_scooter", "lon": -76.98884366666667, "bike_id": "27d480fd54d6faabf255e872f77af149", "fusion_lat": 0.0, "name": "27d480fd54d6faabf255e872f77af149", "is_reserved": 0, "rental_uris": {"android": "https://dc.lft.to/lastmile_qr_scan", "ios": "https://dc.lft.to/lastmile_qr_scan"}, "fusion_lon": 0.0}, {"lat": 38.90692, "is_disabled": 0, "type": "electric_scooter", "lon": -76.99941016666666, "bike_id": "a064c125458182f7140ab6f331dc3997", "fusion_lat": 0.0, "name": "a064c125458182f7140ab6f331dc3997", "is_reserved": 0, "rental_uris": {"android": "https://dc.lft.to/lastmile_qr_scan", "ios": "https://dc.lft.to/lastmile_qr_scan"}, "fusion_lon": 0.0}, {"lat": 38.884920666666666, "is_disabled": 0, "type": "electric_scooter", "lon": -77.00701416666666, "bike_id": "deeeb23095405b7c4b0e7403e29e17ca", "fusion_lat": 0.0, "name": "deeeb23095405b7c4b0e7403e29e17ca", "is_reserved": 0, "rental_uris": {"android": "https://dc.lft.to/lastmile_qr_scan", "ios": "https://dc.lft.to/lastmile_qr_scan"}, "fusion_lon": 0.0}, {"lat": 38.92069216666667, "is_disabled": 0, "type": "electric_scooter", "lon": -77.0253835, "bike_id": "6a63ce03661ec272470bdfe7e0175d7b", "fusion_lat": 0.0, "name": "6a63ce03661ec272470bdfe7e0175d7b", "is_reserved": 0, "rental_uris": {"android": "https://dc.lft.to/lastmile_qr_scan", "ios": "https://dc.lft.to/lastmile_qr_scan"}, "fusion_lon": 0.0}, {"lat": 38.908508833333336, "is_disabled": 0, "type": "electric_scooter", "lon": -77.02061416666666, "bike_id": "4e84583df11dfa39dd6a82a62bc839c3", "fusion_lat": 0.0, "name": "4e84583df11dfa39dd6a82a62bc839c3", "is_reserved": 0, "rental_uris": {"android": "https://dc.lft.to/lastmile_qr_scan", "ios": "https://dc.lft.to/lastmile_qr_scan"}, "fusion_lon": 0.0}, {"lat": 38.914282666666665, "is_disabled": 0, "type": "electric_scooter", "lon": -77.032117, "bike_id": "485a963e030c6974e17d9c41c9626e87", "fusion_lat": 0.0, "name": "485a963e030c6974e17d9c41c9626e87", "is_reserved": 0, "rental_uris": {"android": "https://dc.lft.to/lastmile_qr_scan", "ios": "https://dc.lft.to/lastmile_qr_scan"}, "fusion_lon": 0.0}, {"lat": 38.897071, "is_disabled": 0, "type": "electric_scooter", "lon": -77.00718183333333, "bike_id": "6dd018f0195b6a6a96bdb717bcefce6f", "fusion_lat": 0.0, "name": "6dd018f0195b6a6a96bdb717bcefce6f", "is_reserved": 0, "rental_uris": {"android": "https://dc.lft.to/lastmile_qr_scan", "ios": "https://dc.lft.to/lastmile_qr_scan"}, "fusion_lon": 0.0}, {"lat": 38.91538166666667, "is_disabled": 0, "type": "electric_scooter", "lon": -77.02202416666667, "bike_id": "10bc6c7d14e8a446f837855c9a227110", "fusion_lat": 0.0, "name": "10bc6c7d14e8a446f837855c9a227110", "is_reserved": 0, "rental_uris": {"android": "https://dc.lft.to/lastmile_qr_scan", "ios": "https://dc.lft.to/lastmile_qr_scan"}, "fusion_lon": 0.0}, {"lat": 38.91984883333333, "is_disabled": 0, "type": "electric_scooter", "lon": -77.0321965, "bike_id": "99cba1310acb08e23b41241c97317695", "fusion_lat": 0.0, "name": "99cba1310acb08e23b41241c97317695", "is_reserved": 0, "rental_uris": {"android": "https://dc.lft.to/lastmile_qr_scan", "ios": "https://dc.lft.to/lastmile_qr_scan"}, "fusion_lon": 0.0}, {"lat": 38.90417516666667, "is_disabled": 0, "type": "electric_scooter", "lon": -77.05348366666666, "bike_id": "6fc63b025704f7534a3d2f07f42d644d", "fusion_lat": 0.0, "name": "6fc63b025704f7534a3d2f07f42d644d", "is_reserved": 0, "rental_uris": {"android": "https://dc.lft.to/lastmile_qr_scan", "ios": "https://dc.lft.to/lastmile_qr_scan"}, "fusion_lon": 0.0}, {"lat": 38.93565616666667, "is_disabled": 0, "type": "electric_bike", "lon": -77.03693833333334, "bike_id": "481c924a83e85a2416f20107ac965f52", "fusion_lat": 0.0, "name": "481c924a83e85a2416f20107ac965f52", "is_reserved": 0, "rental_uris": {"android": "https://dc.lft.to/lastmile_qr_scan", "ios": "https://dc.lft.to/lastmile_qr_scan"}, "fusion_lon": 0.0}, {"lat": 38.916841166666664, "is_disabled": 0, "type": "electric_scooter", "lon": -77.0297335, "bike_id": "97d584c2b588278ae18414f647993e48", "fusion_lat": 0.0, "name": "97d584c2b588278ae18414f647993e48", "is_reserved": 0, "rental_uris": {"android": "https://dc.lft.to/lastmile_qr_scan", "ios": "https://dc.lft.to/lastmile_qr_scan"}, "fusion_lon": 0.0}, {"lat": 38.870646666666666, "is_disabled": 0, "type": "electric_scooter", "lon": -77.00839466666666, "bike_id": "2f22990a7dc68d36badfd31899a783d2", "fusion_lat": 0.0, "name": "2f22990a7dc68d36badfd31899a783d2", "is_reserved": 0, "rental_uris": {"android": "https://dc.lft.to/lastmile_qr_scan", "ios": "https://dc.lft.to/lastmile_qr_scan"}, "fusion_lon": 0.0}, {"lat": 38.9193265, "is_disabled": 0, "type": "electric_scooter", "lon": -77.03424066666666, "bike_id": "64c86ebfdc79f0aaec45d03781da3dc3", "fusion_lat": 0.0, "name": "64c86ebfdc79f0aaec45d03781da3dc3", "is_reserved": 0, "rental_uris": {"android": "https://dc.lft.to/lastmile_qr_scan", "ios": "https://dc.lft.to/lastmile_qr_scan"}, "fusion_lon": 0.0}, {"lat": 38.86673733333333, "is_disabled": 0, "type": "electric_scooter", "lon": -76.98541333333333, "bike_id": "2a88ec64ed1e47838ee322b04f64c918", "fusion_lat": 0.0, "name": "2a88ec64ed1e47838ee322b04f64c918", "is_reserved": 0, "rental_uris": {"android": "https://dc.lft.to/lastmile_qr_scan", "ios": "https://dc.lft.to/lastmile_qr_scan"}, "fusion_lon": 0.0}, {"lat": 38.86209866666667, "is_disabled": 0, "type": "electric_bike", "lon": -76.99778083333334, "bike_id": "240fc561f249f67919294f2ac445d4e9", "fusion_lat": 0.0, "name": "240fc561f249f67919294f2ac445d4e9", "is_reserved": 0, "rental_uris": {"android": "https://dc.lft.to/lastmile_qr_scan", "ios": "https://dc.lft.to/lastmile_qr_scan"}, "fusion_lon": 0.0}, {"lat": 38.9111525, "is_disabled": 0, "type": "electric_scooter", "lon": -77.03820533333334, "bike_id": "431f864186aa79a180140bb7212294e7", "fusion_lat": 0.0, "name": "431f864186aa79a180140bb7212294e7", "is_reserved": 0, "rental_uris": {"android": "https://dc.lft.to/lastmile_qr_scan", "ios": "https://dc.lft.to/lastmile_qr_scan"}, "fusion_lon": 0.0}, {"lat": 38.90430116666667, "is_disabled": 0, "type": "electric_scooter", "lon": -77.00209316666667, "bike_id": "b33232e42de324c05d85264f6773b48e", "fusion_lat": 0.0, "name": "b33232e42de324c05d85264f6773b48e", "is_reserved": 0, "rental_uris": {"android": "https://dc.lft.to/lastmile_qr_scan", "ios": "https://dc.lft.to/lastmile_qr_scan"}, "fusion_lon": 0.0}, {"lat": 38.89615166666667, "is_disabled": 0, "type": "electric_scooter", "lon": -76.9565435, "bike_id": "9411b2220d8197e11cd95befa002241a", "fusion_lat": 0.0, "name": "9411b2220d8197e11cd95befa002241a", "is_reserved": 0, "rental_uris": {"android": "https://dc.lft.to/lastmile_qr_scan", "ios": "https://dc.lft.to/lastmile_qr_scan"}, "fusion_lon": 0.0}, {"lat": 38.8531655, "is_disabled": 0, "type": "electric_scooter", "lon": -76.9802525, "bike_id": "b14f09dc348d50c1cba653f5bd1f0ef7", "fusion_lat": 0.0, "name": "b14f09dc348d50c1cba653f5bd1f0ef7", "is_reserved": 0, "rental_uris": {"android": "https://dc.lft.to/lastmile_qr_scan", "ios": "https://dc.lft.to/lastmile_qr_scan"}, "fusion_lon": 0.0}, {"lat": 38.8972035, "is_disabled": 0, "type": "electric_scooter", "lon": -77.02883466666667, "bike_id": "5238948ceb4fe2ca18f1bb0a4551a80f", "fusion_lat": 0.0, "name": "5238948ceb4fe2ca18f1bb0a4551a80f", "is_reserved": 0, "rental_uris": {"android": "https://dc.lft.to/lastmile_qr_scan", "ios": "https://dc.lft.to/lastmile_qr_scan"}, "fusion_lon": 0.0}, {"lat": 38.912895166666665, "is_disabled": 0, "type": "electric_scooter", "lon": -77.0387345, "bike_id": "788f68e7a944f52dbbaab8bd449f20c3", "fusion_lat": 0.0, "name": "788f68e7a944f52dbbaab8bd449f20c3", "is_reserved": 0, "rental_uris": {"android": "https://dc.lft.to/lastmile_qr_scan", "ios": "https://dc.lft.to/lastmile_qr_scan"}, "fusion_lon": 0.0}, {"lat": 38.9450605, "is_disabled": 0, "type": "electric_scooter", "lon": -77.064098, "bike_id": "df2a99f74cf9d1cad110cce5edd5aa62", "fusion_lat": 0.0, "name": "df2a99f74cf9d1cad110cce5edd5aa62", "is_reserved": 0, "rental_uris": {"android": "https://dc.lft.to/lastmile_qr_scan", "ios": "https://dc.lft.to/lastmile_qr_scan"}, "fusion_lon": 0.0}, {"lat": 38.902587833333335, "is_disabled": 0, "type": "electric_scooter", "lon": -77.00328083333333, "bike_id": "d95a64599d109312a40bf86c75909533", "fusion_lat": 0.0, "name": "d95a64599d109312a40bf86c75909533", "is_reserved": 0, "rental_uris": {"android": "https://dc.lft.to/lastmile_qr_scan", "ios": "https://dc.lft.to/lastmile_qr_scan"}, "fusion_lon": 0.0}, {"lat": 38.941157, "is_disabled": 0, "type": "electric_scooter", "lon": -77.0004305, "bike_id": "1f8ed29591c1d8826cca1049b1289f3e", "fusion_lat": 0.0, "name": "1f8ed29591c1d8826cca1049b1289f3e", "is_reserved": 0, "rental_uris": {"android": "https://dc.lft.to/lastmile_qr_scan", "ios": "https://dc.lft.to/lastmile_qr_scan"}, "fusion_lon": 0.0}, {"lat": 38.90787433333333, "is_disabled": 0, "type": "electric_scooter", "lon": -77.0110105, "bike_id": "b9de173d3385bbf0d1f90b1313df8816", "fusion_lat": 0.0, "name": "b9de173d3385bbf0d1f90b1313df8816", "is_reserved": 0, "rental_uris": {"android": "https://dc.lft.to/lastmile_qr_scan", "ios": "https://dc.lft.to/lastmile_qr_scan"}, "fusion_lon": 0.0}, {"lat": 38.895517166666664, "is_disabled": 0, "type": "electric_scooter", "lon": -77.00362316666667, "bike_id": "922cffba4bc694fb79609b443889a4b5", "fusion_lat": 0.0, "name": "922cffba4bc694fb79609b443889a4b5", "is_reserved": 0, "rental_uris": {"android": "https://dc.lft.to/lastmile_qr_scan", "ios": "https://dc.lft.to/lastmile_qr_scan"}, "fusion_lon": 0.0}, {"lat": 38.9097405, "is_disabled": 0, "type": "electric_scooter", "lon": -77.0320825, "bike_id": "7bd5d12ae107a3a54d9002f6d873f8fe", "fusion_lat": 0.0, "name": "7bd5d12ae107a3a54d9002f6d873f8fe", "is_reserved": 0, "rental_uris": {"android": "https://dc.lft.to/lastmile_qr_scan", "ios": "https://dc.lft.to/lastmile_qr_scan"}, "fusion_lon": 0.0}, {"lat": 38.87191133333334, "is_disabled": 0, "type": "electric_scooter", "lon": -77.01350733333334, "bike_id": "2110561c1cbf93f94a97d3bdd464a708", "fusion_lat": 0.0, "name": "2110561c1cbf93f94a97d3bdd464a708", "is_reserved": 0, "rental_uris": {"android": "https://dc.lft.to/lastmile_qr_scan", "ios": "https://dc.lft.to/lastmile_qr_scan"}, "fusion_lon": 0.0}, {"lat": 38.8134805, "is_disabled": 0, "type": "electric_bike", "lon": -77.04918733333334, "bike_id": "c8a6bf7600c94c61b44c893f56b1134f", "fusion_lat": 0.0, "name": "c8a6bf7600c94c61b44c893f56b1134f", "is_reserved": 0, "rental_uris": {"android": "https://dc.lft.to/lastmile_qr_scan", "ios": "https://dc.lft.to/lastmile_qr_scan"}, "fusion_lon": 0.0}, {"lat": 38.96203166666667, "is_disabled": 0, "type": "electric_bike", "lon": -77.035117, "bike_id": "8bb0da4c550cf693e9302187f7a41a97", "fusion_lat": 0.0, "name": "8bb0da4c550cf693e9302187f7a41a97", "is_reserved": 0, "rental_uris": {"android": "https://dc.lft.to/lastmile_qr_scan", "ios": "https://dc.lft.to/lastmile_qr_scan"}, "fusion_lon": 0.0}, {"lat": 38.90731183333333, "is_disabled": 0, "type": "electric_scooter", "lon": -77.0296915, "bike_id": "6af9578014d795b27289b4959ff724f0", "fusion_lat": 0.0, "name": "6af9578014d795b27289b4959ff724f0", "is_reserved": 0, "rental_uris": {"android": "https://dc.lft.to/lastmile_qr_scan", "ios": "https://dc.lft.to/lastmile_qr_scan"}, "fusion_lon": 0.0}, {"lat": 38.92573433333333, "is_disabled": 0, "type": "electric_scooter", "lon": -77.04010716666667, "bike_id": "3e56a05d455b7188a37565290951151d", "fusion_lat": 0.0, "name": "3e56a05d455b7188a37565290951151d", "is_reserved": 0, "rental_uris": {"android": "https://dc.lft.to/lastmile_qr_scan", "ios": "https://dc.lft.to/lastmile_qr_scan"}, "fusion_lon": 0.0}, {"lat": 38.8707225, "is_disabled": 0, "type": "electric_bike", "lon": -76.97836066666666, "bike_id": "c1dba2314a48f66e8d8ad0dcc66f2172", "fusion_lat": 0.0, "name": "c1dba2314a48f66e8d8ad0dcc66f2172", "is_reserved": 0, "rental_uris": {"android": "https://dc.lft.to/lastmile_qr_scan", "ios": "https://dc.lft.to/lastmile_qr_scan"}, "fusion_lon": 0.0}, {"lat": 38.920536166666665, "is_disabled": 0, "type": "electric_scooter", "lon": -77.04192616666667, "bike_id": "4d7632a154005aefd971b19de54cf574", "fusion_lat": 0.0, "name": "4d7632a154005aefd971b19de54cf574", "is_reserved": 0, "rental_uris": {"android": "https://dc.lft.to/lastmile_qr_scan", "ios": "https://dc.lft.to/lastmile_qr_scan"}, "fusion_lon": 0.0}, {"lat": 38.87700616666667, "is_disabled": 0, "type": "electric_bike", "lon": -77.00362183333333, "bike_id": "2525dc661a4a21e56f91b719e6225e93", "fusion_lat": 0.0, "name": "2525dc661a4a21e56f91b719e6225e93", "is_reserved": 0, "rental_uris": {"android": "https://dc.lft.to/lastmile_qr_scan", "ios": "https://dc.lft.to/lastmile_qr_scan"}, "fusion_lon": 0.0}, {"lat": 38.93294083333333, "is_disabled": 0, "type": "electric_scooter", "lon": -77.04531583333333, "bike_id": "40fe5152412a7676a4ed9eae3a2bf33b", "fusion_lat": 0.0, "name": "40fe5152412a7676a4ed9eae3a2bf33b", "is_reserved": 0, "rental_uris": {"android": "https://dc.lft.to/lastmile_qr_scan", "ios": "https://dc.lft.to/lastmile_qr_scan"}, "fusion_lon": 0.0}, {"lat": 38.914601, "is_disabled": 0, "type": "electric_scooter", "lon": -77.0142885, "bike_id": "8dcf8a58028f698d1848766cd38c2c3b", "fusion_lat": 0.0, "name": "8dcf8a58028f698d1848766cd38c2c3b", "is_reserved": 0, "rental_uris": {"android": "https://dc.lft.to/lastmile_qr_scan", "ios": "https://dc.lft.to/lastmile_qr_scan"}, "fusion_lon": 0.0}, {"lat": 38.9232435, "is_disabled": 0, "type": "electric_scooter", "lon": -77.035512, "bike_id": "90a6909789c852b1e364994541bc742c", "fusion_lat": 0.0, "name": "90a6909789c852b1e364994541bc742c", "is_reserved": 0, "rental_uris": {"android": "https://dc.lft.to/lastmile_qr_scan", "ios": "https://dc.lft.to/lastmile_qr_scan"}, "fusion_lon": 0.0}, {"lat": 38.888000166666664, "is_disabled": 0, "type": "electric_scooter", "lon": -76.93361933333334, "bike_id": "977a56a77c102cd783442be8a5458ee8", "fusion_lat": 0.0, "name": "977a56a77c102cd783442be8a5458ee8", "is_reserved": 0, "rental_uris": {"android": "https://dc.lft.to/lastmile_qr_scan", "ios": "https://dc.lft.to/lastmile_qr_scan"}, "fusion_lon": 0.0}, {"lat": 38.88202166666667, "is_disabled": 0, "type": "electric_scooter", "lon": -76.9892785, "bike_id": "bc87075e8ef3e613c714e778015eaf0e", "fusion_lat": 0.0, "name": "bc87075e8ef3e613c714e778015eaf0e", "is_reserved": 0, "rental_uris": {"android": "https://dc.lft.to/lastmile_qr_scan", "ios": "https://dc.lft.to/lastmile_qr_scan"}, "fusion_lon": 0.0}, {"lat": 38.879949333333336, "is_disabled": 0, "type": "electric_scooter", "lon": -77.03739766666666, "bike_id": "36104e5f5792b7d59bc1b79e9d943403", "fusion_lat": 0.0, "name": "36104e5f5792b7d59bc1b79e9d943403", "is_reserved": 0, "rental_uris": {"android": "https://dc.lft.to/lastmile_qr_scan", "ios": "https://dc.lft.to/lastmile_qr_scan"}, "fusion_lon": 0.0}, {"lat": 38.909442166666665, "is_disabled": 0, "type": "electric_scooter", "lon": -77.0448095, "bike_id": "942a19e3dc49132cfcf43c39075107e9", "fusion_lat": 0.0, "name": "942a19e3dc49132cfcf43c39075107e9", "is_reserved": 0, "rental_uris": {"android": "https://dc.lft.to/lastmile_qr_scan", "ios": "https://dc.lft.to/lastmile_qr_scan"}, "fusion_lon": 0.0}, {"lat": 38.93016433333333, "is_disabled": 0, "type": "electric_scooter", "lon": -77.0233565, "bike_id": "6433cc838da682731416b4ff9b9f62f0", "fusion_lat": 0.0, "name": "6433cc838da682731416b4ff9b9f62f0", "is_reserved": 0, "rental_uris": {"android": "https://dc.lft.to/lastmile_qr_scan", "ios": "https://dc.lft.to/lastmile_qr_scan"}, "fusion_lon": 0.0}, {"lat": 38.8849005, "is_disabled": 0, "type": "electric_scooter", "lon": -77.00707566666667, "bike_id": "08c4da0c03b0148ae087e15157839910", "fusion_lat": 0.0, "name": "08c4da0c03b0148ae087e15157839910", "is_reserved": 0, "rental_uris": {"android": "https://dc.lft.to/lastmile_qr_scan", "ios": "https://dc.lft.to/lastmile_qr_scan"}, "fusion_lon": 0.0}, {"lat": 38.92381683333333, "is_disabled": 0, "type": "electric_scooter", "lon": -77.02740016666667, "bike_id": "48f1d3be062ba25702343adea3028a3f", "fusion_lat": 0.0, "name": "48f1d3be062ba25702343adea3028a3f", "is_reserved": 0, "rental_uris": {"android": "https://dc.lft.to/lastmile_qr_scan", "ios": "https://dc.lft.to/lastmile_qr_scan"}, "fusion_lon": 0.0}, {"lat": 38.87963033333333, "is_disabled": 0, "type": "electric_scooter", "lon": -76.98743283333333, "bike_id": "d4215e692fd16e835979c0b947fd5bea", "fusion_lat": 0.0, "name": "d4215e692fd16e835979c0b947fd5bea", "is_reserved": 0, "rental_uris": {"android": "https://dc.lft.to/lastmile_qr_scan", "ios": "https://dc.lft.to/lastmile_qr_scan"}, "fusion_lon": 0.0}, {"lat": 38.92855083333333, "is_disabled": 0, "type": "electric_scooter", "lon": -77.0309965, "bike_id": "defe55dfb9c6f2fd74ef2b5014dfe073", "fusion_lat": 0.0, "name": "defe55dfb9c6f2fd74ef2b5014dfe073", "is_reserved": 0, "rental_uris": {"android": "https://dc.lft.to/lastmile_qr_scan", "ios": "https://dc.lft.to/lastmile_qr_scan"}, "fusion_lon": 0.0}, {"lat": 38.900097833333334, "is_disabled": 0, "type": "electric_scooter", "lon": -77.011989, "bike_id": "70693b08443c5945e69ffb92455ec73c", "fusion_lat": 0.0, "name": "70693b08443c5945e69ffb92455ec73c", "is_reserved": 0, "rental_uris": {"android": "https://dc.lft.to/lastmile_qr_scan", "ios": "https://dc.lft.to/lastmile_qr_scan"}, "fusion_lon": 0.0}, {"lat": 38.91709816666667, "is_disabled": 0, "type": "electric_scooter", "lon": -77.03237, "bike_id": "06d1904f902f7d2787f1942c2b9c4d90", "fusion_lat": 0.0, "name": "06d1904f902f7d2787f1942c2b9c4d90", "is_reserved": 0, "rental_uris": {"android": "https://dc.lft.to/lastmile_qr_scan", "ios": "https://dc.lft.to/lastmile_qr_scan"}, "fusion_lon": 0.0}, {"lat": 38.8429175, "is_disabled": 0, "type": "electric_scooter", "lon": -76.9994745, "bike_id": "ad6a3154d0e5bb8822d085c7c6b3c4bd", "fusion_lat": 0.0, "name": "ad6a3154d0e5bb8822d085c7c6b3c4bd", "is_reserved": 0, "rental_uris": {"android": "https://dc.lft.to/lastmile_qr_scan", "ios": "https://dc.lft.to/lastmile_qr_scan"}, "fusion_lon": 0.0}, {"lat": 38.9003895, "is_disabled": 0, "type": "electric_scooter", "lon": -76.99387983333334, "bike_id": "753a93be9525f59ab49a6b979813a1f7", "fusion_lat": 0.0, "name": "753a93be9525f59ab49a6b979813a1f7", "is_reserved": 0, "rental_uris": {"android": "https://dc.lft.to/lastmile_qr_scan", "ios": "https://dc.lft.to/lastmile_qr_scan"}, "fusion_lon": 0.0}, {"lat": 38.90074833333333, "is_disabled": 0, "type": "electric_scooter", "lon": -77.01823616666667, "bike_id": "906d730a9beb292d352b941270e59560", "fusion_lat": 0.0, "name": "906d730a9beb292d352b941270e59560", "is_reserved": 0, "rental_uris": {"android": "https://dc.lft.to/lastmile_qr_scan", "ios": "https://dc.lft.to/lastmile_qr_scan"}, "fusion_lon": 0.0}, {"lat": 38.92255083333333, "is_disabled": 0, "type": "electric_scooter", "lon": -77.0430465, "bike_id": "9bafa0c2fecbcec926cee188f2c349e4", "fusion_lat": 0.0, "name": "9bafa0c2fecbcec926cee188f2c349e4", "is_reserved": 0, "rental_uris": {"android": "https://dc.lft.to/lastmile_qr_scan", "ios": "https://dc.lft.to/lastmile_qr_scan"}, "fusion_lon": 0.0}, {"lat": 38.9363775, "is_disabled": 0, "type": "electric_scooter", "lon": -77.02497, "bike_id": "1fb354d76727760eda17d98c224ed6e0", "fusion_lat": 0.0, "name": "1fb354d76727760eda17d98c224ed6e0", "is_reserved": 0, "rental_uris": {"android": "https://dc.lft.to/lastmile_qr_scan", "ios": "https://dc.lft.to/lastmile_qr_scan"}, "fusion_lon": 0.0}, {"lat": 38.9163825, "is_disabled": 0, "type": "electric_scooter", "lon": -77.0478415, "bike_id": "583feed7bf81ac14641505c9425a61bf", "fusion_lat": 0.0, "name": "583feed7bf81ac14641505c9425a61bf", "is_reserved": 0, "rental_uris": {"android": "https://dc.lft.to/lastmile_qr_scan", "ios": "https://dc.lft.to/lastmile_qr_scan"}, "fusion_lon": 0.0}, {"lat": 38.914845, "is_disabled": 0, "type": "electric_scooter", "lon": -77.03263333333334, "bike_id": "854a751c6465ad251938eb99f803e049", "fusion_lat": 0.0, "name": "854a751c6465ad251938eb99f803e049", "is_reserved": 0, "rental_uris": {"android": "https://dc.lft.to/lastmile_qr_scan", "ios": "https://dc.lft.to/lastmile_qr_scan"}, "fusion_lon": 0.0}, {"lat": 38.908649833333335, "is_disabled": 0, "type": "electric_bike", "lon": -77.08706783333334, "bike_id": "d60be00aa35405fa4185460715ea7a42", "fusion_lat": 0.0, "name": "d60be00aa35405fa4185460715ea7a42", "is_reserved": 0, "rental_uris": {"android": "https://dc.lft.to/lastmile_qr_scan", "ios": "https://dc.lft.to/lastmile_qr_scan"}, "fusion_lon": 0.0}, {"lat": 38.9168535, "is_disabled": 0, "type": "electric_scooter", "lon": -77.0255525, "bike_id": "ae09d9472c21e945bbfd0e3371e2af8d", "fusion_lat": 0.0, "name": "ae09d9472c21e945bbfd0e3371e2af8d", "is_reserved": 0, "rental_uris": {"android": "https://dc.lft.to/lastmile_qr_scan", "ios": "https://dc.lft.to/lastmile_qr_scan"}, "fusion_lon": 0.0}, {"lat": 38.930768666666665, "is_disabled": 0, "type": "electric_scooter", "lon": -77.037493, "bike_id": "805b7d0b03cbe17d9c02d0a9e731ac59", "fusion_lat": 0.0, "name": "805b7d0b03cbe17d9c02d0a9e731ac59", "is_reserved": 0, "rental_uris": {"android": "https://dc.lft.to/lastmile_qr_scan", "ios": "https://dc.lft.to/lastmile_qr_scan"}, "fusion_lon": 0.0}, {"lat": 38.89346033333333, "is_disabled": 0, "type": "electric_scooter", "lon": -77.041408, "bike_id": "3236af552bb2823fb9893bc61ed9d490", "fusion_lat": 0.0, "name": "3236af552bb2823fb9893bc61ed9d490", "is_reserved": 0, "rental_uris": {"android": "https://dc.lft.to/lastmile_qr_scan", "ios": "https://dc.lft.to/lastmile_qr_scan"}, "fusion_lon": 0.0}, {"lat": 38.925332833333336, "is_disabled": 0, "type": "electric_scooter", "lon": -77.04420583333334, "bike_id": "30d7ac506aa64768e11d131de2c0bc45", "fusion_lat": 0.0, "name": "30d7ac506aa64768e11d131de2c0bc45", "is_reserved": 0, "rental_uris": {"android": "https://dc.lft.to/lastmile_qr_scan", "ios": "https://dc.lft.to/lastmile_qr_scan"}, "fusion_lon": 0.0}, {"lat": 38.898876, "is_disabled": 0, "type": "electric_bike", "lon": -77.03273216666666, "bike_id": "8018c1d2a580ada11fc6bb72448cd4e6", "fusion_lat": 0.0, "name": "8018c1d2a580ada11fc6bb72448cd4e6", "is_reserved": 0, "rental_uris": {"android": "https://dc.lft.to/lastmile_qr_scan", "ios": "https://dc.lft.to/lastmile_qr_scan"}, "fusion_lon": 0.0}, {"lat": 38.892187666666665, "is_disabled": 0, "type": "electric_bike", "lon": -77.10783, "bike_id": "671fef15b589e7cec28993df38bd2c50", "fusion_lat": 0.0, "name": "671fef15b589e7cec28993df38bd2c50", "is_reserved": 0, "rental_uris": {"android": "https://dc.lft.to/lastmile_qr_scan", "ios": "https://dc.lft.to/lastmile_qr_scan"}, "fusion_lon": 0.0}, {"lat": 38.962249666666665, "is_disabled": 0, "type": "electric_bike", "lon": -77.02624433333334, "bike_id": "dba2fcb8d3443563c321d9dc984818b9", "fusion_lat": 0.0, "name": "dba2fcb8d3443563c321d9dc984818b9", "is_reserved": 0, "rental_uris": {"android": "https://dc.lft.to/lastmile_qr_scan", "ios": "https://dc.lft.to/lastmile_qr_scan"}, "fusion_lon": 0.0}, {"lat": 38.92515566666667, "is_disabled": 0, "type": "electric_scooter", "lon": -77.02359033333333, "bike_id": "f591161fa2679967b27e7d637e08aae4", "fusion_lat": 0.0, "name": "f591161fa2679967b27e7d637e08aae4", "is_reserved": 0, "rental_uris": {"android": "https://dc.lft.to/lastmile_qr_scan", "ios": "https://dc.lft.to/lastmile_qr_scan"}, "fusion_lon": 0.0}, {"lat": 38.89836566666666, "is_disabled": 0, "type": "electric_scooter", "lon": -76.99505216666667, "bike_id": "abc881cc83538d5272c5486622675900", "fusion_lat": 0.0, "name": "abc881cc83538d5272c5486622675900", "is_reserved": 0, "rental_uris": {"android": "https://dc.lft.to/lastmile_qr_scan", "ios": "https://dc.lft.to/lastmile_qr_scan"}, "fusion_lon": 0.0}, {"lat": 38.89480233333333, "is_disabled": 0, "type": "electric_bike", "lon": -77.07300533333333, "bike_id": "eb19a23b1d6bb637e111bc19e49719af", "fusion_lat": 0.0, "name": "eb19a23b1d6bb637e111bc19e49719af", "is_reserved": 0, "rental_uris": {"android": "https://dc.lft.to/lastmile_qr_scan", "ios": "https://dc.lft.to/lastmile_qr_scan"}, "fusion_lon": 0.0}, {"lat": 38.92384933333334, "is_disabled": 0, "type": "electric_scooter", "lon": -77.05762683333333, "bike_id": "008420ddac7e2d23a004dbcdf25a2e9d", "fusion_lat": 0.0, "name": "008420ddac7e2d23a004dbcdf25a2e9d", "is_reserved": 0, "rental_uris": {"android": "https://dc.lft.to/lastmile_qr_scan", "ios": "https://dc.lft.to/lastmile_qr_scan"}, "fusion_lon": 0.0}, {"lat": 38.9085505, "is_disabled": 0, "type": "electric_scooter", "lon": -77.00366633333333, "bike_id": "ec076d845c29ca60c1c2912cd1735c61", "fusion_lat": 0.0, "name": "ec076d845c29ca60c1c2912cd1735c61", "is_reserved": 0, "rental_uris": {"android": "https://dc.lft.to/lastmile_qr_scan", "ios": "https://dc.lft.to/lastmile_qr_scan"}, "fusion_lon": 0.0}, {"lat": 38.90364533333333, "is_disabled": 0, "type": "electric_scooter", "lon": -77.00734033333333, "bike_id": "9e160b071a780c2192ea97e3cff66b3d", "fusion_lat": 0.0, "name": "9e160b071a780c2192ea97e3cff66b3d", "is_reserved": 0, "rental_uris": {"android": "https://dc.lft.to/lastmile_qr_scan", "ios": "https://dc.lft.to/lastmile_qr_scan"}, "fusion_lon": 0.0}, {"lat": 38.9003485, "is_disabled": 0, "type": "electric_scooter", "lon": -77.02211766666667, "bike_id": "3b7426ac0b7ea265f568845ee9812177", "fusion_lat": 0.0, "name": "3b7426ac0b7ea265f568845ee9812177", "is_reserved": 0, "rental_uris": {"android": "https://dc.lft.to/lastmile_qr_scan", "ios": "https://dc.lft.to/lastmile_qr_scan"}, "fusion_lon": 0.0}, {"lat": 38.88654433333333, "is_disabled": 0, "type": "electric_scooter", "lon": -77.01393633333333, "bike_id": "a843f0c0443d5411a5011744d04ee86d", "fusion_lat": 0.0, "name": "a843f0c0443d5411a5011744d04ee86d", "is_reserved": 0, "rental_uris": {"android": "https://dc.lft.to/lastmile_qr_scan", "ios": "https://dc.lft.to/lastmile_qr_scan"}, "fusion_lon": 0.0}, {"lat": 38.9221185, "is_disabled": 0, "type": "electric_scooter", "lon": -77.0329085, "bike_id": "cff923eaa10a6b75c04029f1591a7cee", "fusion_lat": 0.0, "name": "cff923eaa10a6b75c04029f1591a7cee", "is_reserved": 0, "rental_uris": {"android": "https://dc.lft.to/lastmile_qr_scan", "ios": "https://dc.lft.to/lastmile_qr_scan"}, "fusion_lon": 0.0}, {"lat": 38.90220933333333, "is_disabled": 0, "type": "electric_scooter", "lon": -77.04868883333333, "bike_id": "6a1632f83c2cd403c25df05a88b7bac3", "fusion_lat": 0.0, "name": "6a1632f83c2cd403c25df05a88b7bac3", "is_reserved": 0, "rental_uris": {"android": "https://dc.lft.to/lastmile_qr_scan", "ios": "https://dc.lft.to/lastmile_qr_scan"}, "fusion_lon": 0.0}, {"lat": 38.901390166666665, "is_disabled": 0, "type": "electric_scooter", "lon": -77.00074083333334, "bike_id": "431baf30a085683ae0aa76ae3148a7bd", "fusion_lat": 0.0, "name": "431baf30a085683ae0aa76ae3148a7bd", "is_reserved": 0, "rental_uris": {"android": "https://dc.lft.to/lastmile_qr_scan", "ios": "https://dc.lft.to/lastmile_qr_scan"}, "fusion_lon": 0.0}, {"lat": 38.96096416666666, "is_disabled": 0, "type": "electric_scooter", "lon": -77.08285666666667, "bike_id": "cb474e4d1f1eb453fc3512fa61fa7e52", "fusion_lat": 0.0, "name": "cb474e4d1f1eb453fc3512fa61fa7e52", "is_reserved": 0, "rental_uris": {"android": "https://dc.lft.to/lastmile_qr_scan", "ios": "https://dc.lft.to/lastmile_qr_scan"}, "fusion_lon": 0.0}, {"lat": 38.907686, "is_disabled": 0, "type": "electric_scooter", "lon": -77.042673, "bike_id": "076bdd249c6f83d0adfa18b6c883340e", "fusion_lat": 0.0, "name": "076bdd249c6f83d0adfa18b6c883340e", "is_reserved": 0, "rental_uris": {"android": "https://dc.lft.to/lastmile_qr_scan", "ios": "https://dc.lft.to/lastmile_qr_scan"}, "fusion_lon": 0.0}, {"lat": 38.95876916666667, "is_disabled": 0, "type": "electric_bike", "lon": -77.010351, "bike_id": "0b9a4d523ad58ee0ff8e7141b3047211", "fusion_lat": 0.0, "name": "0b9a4d523ad58ee0ff8e7141b3047211", "is_reserved": 0, "rental_uris": {"android": "https://dc.lft.to/lastmile_qr_scan", "ios": "https://dc.lft.to/lastmile_qr_scan"}, "fusion_lon": 0.0}, {"lat": 38.92198916666667, "is_disabled": 0, "type": "electric_scooter", "lon": -77.040177, "bike_id": "ddc6dd6389288ea1499d988946b07b9d", "fusion_lat": 0.0, "name": "ddc6dd6389288ea1499d988946b07b9d", "is_reserved": 0, "rental_uris": {"android": "https://dc.lft.to/lastmile_qr_scan", "ios": "https://dc.lft.to/lastmile_qr_scan"}, "fusion_lon": 0.0}, {"lat": 38.8904135, "is_disabled": 0, "type": "electric_scooter", "lon": -76.951386, "bike_id": "95f7ac83a2538ff38ffb40d1561c9c9e", "fusion_lat": 0.0, "name": "95f7ac83a2538ff38ffb40d1561c9c9e", "is_reserved": 0, "rental_uris": {"android": "https://dc.lft.to/lastmile_qr_scan", "ios": "https://dc.lft.to/lastmile_qr_scan"}, "fusion_lon": 0.0}, {"lat": 38.880569, "is_disabled": 0, "type": "electric_scooter", "lon": -77.02485933333334, "bike_id": "ccbcc752020c6c768d00825a498de366", "fusion_lat": 0.0, "name": "ccbcc752020c6c768d00825a498de366", "is_reserved": 0, "rental_uris": {"android": "https://dc.lft.to/lastmile_qr_scan", "ios": "https://dc.lft.to/lastmile_qr_scan"}, "fusion_lon": 0.0}, {"lat": 38.897268833333335, "is_disabled": 0, "type": "electric_scooter", "lon": -77.02145466666667, "bike_id": "e913a25e83455e8a22b02e9dbdbd27d2", "fusion_lat": 0.0, "name": "e913a25e83455e8a22b02e9dbdbd27d2", "is_reserved": 0, "rental_uris": {"android": "https://dc.lft.to/lastmile_qr_scan", "ios": "https://dc.lft.to/lastmile_qr_scan"}, "fusion_lon": 0.0}, {"lat": 38.91207966666666, "is_disabled": 0, "type": "electric_scooter", "lon": -77.0447805, "bike_id": "daef372c56344a3cbd4802cb2567dacd", "fusion_lat": 0.0, "name": "daef372c56344a3cbd4802cb2567dacd", "is_reserved": 0, "rental_uris": {"android": "https://dc.lft.to/lastmile_qr_scan", "ios": "https://dc.lft.to/lastmile_qr_scan"}, "fusion_lon": 0.0}, {"lat": 38.89922083333333, "is_disabled": 0, "type": "electric_scooter", "lon": -77.032814, "bike_id": "7b55395458178d9fd01e8d4a5cbc3e47", "fusion_lat": 0.0, "name": "7b55395458178d9fd01e8d4a5cbc3e47", "is_reserved": 0, "rental_uris": {"android": "https://dc.lft.to/lastmile_qr_scan", "ios": "https://dc.lft.to/lastmile_qr_scan"}, "fusion_lon": 0.0}, {"lat": 38.9540405, "is_disabled": 0, "type": "electric_scooter", "lon": -77.03633983333333, "bike_id": "affb2b57cccf96832949bbb18943f760", "fusion_lat": 0.0, "name": "affb2b57cccf96832949bbb18943f760", "is_reserved": 0, "rental_uris": {"android": "https://dc.lft.to/lastmile_qr_scan", "ios": "https://dc.lft.to/lastmile_qr_scan"}, "fusion_lon": 0.0}, {"lat": 38.9049745, "is_disabled": 0, "type": "electric_scooter", "lon": -77.0282545, "bike_id": "e280e2336747b03868a66f9385fffcc0", "fusion_lat": 0.0, "name": "e280e2336747b03868a66f9385fffcc0", "is_reserved": 0, "rental_uris": {"android": "https://dc.lft.to/lastmile_qr_scan", "ios": "https://dc.lft.to/lastmile_qr_scan"}, "fusion_lon": 0.0}, {"lat": 38.955720166666666, "is_disabled": 0, "type": "electric_scooter", "lon": -77.07006966666667, "bike_id": "59a05fd084e49cf07aee7b518dbf5e22", "fusion_lat": 0.0, "name": "59a05fd084e49cf07aee7b518dbf5e22", "is_reserved": 0, "rental_uris": {"android": "https://dc.lft.to/lastmile_qr_scan", "ios": "https://dc.lft.to/lastmile_qr_scan"}, "fusion_lon": 0.0}, {"lat": 38.91047283333333, "is_disabled": 0, "type": "electric_scooter", "lon": -77.0150905, "bike_id": "006c5ae8c5ad0e2d6353755079270f7d", "fusion_lat": 0.0, "name": "006c5ae8c5ad0e2d6353755079270f7d", "is_reserved": 0, "rental_uris": {"android": "https://dc.lft.to/lastmile_qr_scan", "ios": "https://dc.lft.to/lastmile_qr_scan"}, "fusion_lon": 0.0}, {"lat": 38.86910483333333, "is_disabled": 0, "type": "electric_bike", "lon": -77.131795, "bike_id": "50ef389bd7cd8f0eb5301232a73ba683", "fusion_lat": 0.0, "name": "50ef389bd7cd8f0eb5301232a73ba683", "is_reserved": 0, "rental_uris": {"android": "https://dc.lft.to/lastmile_qr_scan", "ios": "https://dc.lft.to/lastmile_qr_scan"}, "fusion_lon": 0.0}, {"lat": 38.9075225, "is_disabled": 0, "type": "electric_scooter", "lon": -77.036042, "bike_id": "3602b17452933078214ea5877055af0b", "fusion_lat": 0.0, "name": "3602b17452933078214ea5877055af0b", "is_reserved": 0, "rental_uris": {"android": "https://dc.lft.to/lastmile_qr_scan", "ios": "https://dc.lft.to/lastmile_qr_scan"}, "fusion_lon": 0.0}, {"lat": 38.91957, "is_disabled": 0, "type": "electric_scooter", "lon": -77.02469833333333, "bike_id": "28de839d2946129a624a940fc41ea6fd", "fusion_lat": 0.0, "name": "28de839d2946129a624a940fc41ea6fd", "is_reserved": 0, "rental_uris": {"android": "https://dc.lft.to/lastmile_qr_scan", "ios": "https://dc.lft.to/lastmile_qr_scan"}, "fusion_lon": 0.0}, {"lat": 38.80440216666667, "is_disabled": 0, "type": "electric_bike", "lon": -77.06089133333333, "bike_id": "c4b4fe2eb510f62dd42a5205aa41d76c", "fusion_lat": 0.0, "name": "c4b4fe2eb510f62dd42a5205aa41d76c", "is_reserved": 0, "rental_uris": {"android": "https://dc.lft.to/lastmile_qr_scan", "ios": "https://dc.lft.to/lastmile_qr_scan"}, "fusion_lon": 0.0}, {"lat": 38.92090116666667, "is_disabled": 0, "type": "electric_scooter", "lon": -77.0423215, "bike_id": "7e1e530f0eac4c64c383d8ee167cbfd2", "fusion_lat": 0.0, "name": "7e1e530f0eac4c64c383d8ee167cbfd2", "is_reserved": 0, "rental_uris": {"android": "https://dc.lft.to/lastmile_qr_scan", "ios": "https://dc.lft.to/lastmile_qr_scan"}, "fusion_lon": 0.0}, {"lat": 38.90554733333333, "is_disabled": 0, "type": "electric_scooter", "lon": -77.05702833333334, "bike_id": "20169e9450063bddaf806abb41d95b88", "fusion_lat": 0.0, "name": "20169e9450063bddaf806abb41d95b88", "is_reserved": 0, "rental_uris": {"android": "https://dc.lft.to/lastmile_qr_scan", "ios": "https://dc.lft.to/lastmile_qr_scan"}, "fusion_lon": 0.0}, {"lat": 39.01575583333333, "is_disabled": 0, "type": "electric_bike", "lon": -77.042368, "bike_id": "2dae14d00920ae9911d5f76355335ce6", "fusion_lat": 0.0, "name": "2dae14d00920ae9911d5f76355335ce6", "is_reserved": 0, "rental_uris": {"android": "https://dc.lft.to/lastmile_qr_scan", "ios": "https://dc.lft.to/lastmile_qr_scan"}, "fusion_lon": 0.0}, {"lat": 38.915330166666664, "is_disabled": 0, "type": "electric_scooter", "lon": -77.03198883333333, "bike_id": "cfbd7dfa8de2ed3813031f447dd11902", "fusion_lat": 0.0, "name": "cfbd7dfa8de2ed3813031f447dd11902", "is_reserved": 0, "rental_uris": {"android": "https://dc.lft.to/lastmile_qr_scan", "ios": "https://dc.lft.to/lastmile_qr_scan"}, "fusion_lon": 0.0}, {"lat": 38.911876, "is_disabled": 0, "type": "electric_scooter", "lon": -77.01077983333333, "bike_id": "fb05ce3c8744106953560025e51eb3a1", "fusion_lat": 0.0, "name": "fb05ce3c8744106953560025e51eb3a1", "is_reserved": 0, "rental_uris": {"android": "https://dc.lft.to/lastmile_qr_scan", "ios": "https://dc.lft.to/lastmile_qr_scan"}, "fusion_lon": 0.0}, {"lat": 38.93567183333333, "is_disabled": 0, "type": "electric_scooter", "lon": -77.03273566666667, "bike_id": "c2fdc0bc40a6c9c7900001808f5f339b", "fusion_lat": 0.0, "name": "c2fdc0bc40a6c9c7900001808f5f339b", "is_reserved": 0, "rental_uris": {"android": "https://dc.lft.to/lastmile_qr_scan", "ios": "https://dc.lft.to/lastmile_qr_scan"}, "fusion_lon": 0.0}, {"lat": 38.93255383333333, "is_disabled": 0, "type": "electric_scooter", "lon": -77.03462366666666, "bike_id": "cfd8004c12bafe9c472167bee748b6a6", "fusion_lat": 0.0, "name": "cfd8004c12bafe9c472167bee748b6a6", "is_reserved": 0, "rental_uris": {"android": "https://dc.lft.to/lastmile_qr_scan", "ios": "https://dc.lft.to/lastmile_qr_scan"}, "fusion_lon": 0.0}, {"lat": 38.925736, "is_disabled": 0, "type": "electric_scooter", "lon": -77.028342, "bike_id": "51c436835ad7eb165ee71e93242be63b", "fusion_lat": 0.0, "name": "51c436835ad7eb165ee71e93242be63b", "is_reserved": 0, "rental_uris": {"android": "https://dc.lft.to/lastmile_qr_scan", "ios": "https://dc.lft.to/lastmile_qr_scan"}, "fusion_lon": 0.0}, {"lat": 38.897049, "is_disabled": 0, "type": "electric_scooter", "lon": -77.00837566666667, "bike_id": "6a0b342c99248629b209645a10f364a1", "fusion_lat": 0.0, "name": "6a0b342c99248629b209645a10f364a1", "is_reserved": 0, "rental_uris": {"android": "https://dc.lft.to/lastmile_qr_scan", "ios": "https://dc.lft.to/lastmile_qr_scan"}, "fusion_lon": 0.0}, {"lat": 38.91408466666667, "is_disabled": 0, "type": "electric_scooter", "lon": -77.03153583333334, "bike_id": "3d288433c94416a317c56274ece4c511", "fusion_lat": 0.0, "name": "3d288433c94416a317c56274ece4c511", "is_reserved": 0, "rental_uris": {"android": "https://dc.lft.to/lastmile_qr_scan", "ios": "https://dc.lft.to/lastmile_qr_scan"}, "fusion_lon": 0.0}, {"lat": 38.93014, "is_disabled": 0, "type": "electric_scooter", "lon": -77.044512, "bike_id": "0e6c76e05d086dedd9cc39e7e22ae9ed", "fusion_lat": 0.0, "name": "0e6c76e05d086dedd9cc39e7e22ae9ed", "is_reserved": 0, "rental_uris": {"android": "https://dc.lft.to/lastmile_qr_scan", "ios": "https://dc.lft.to/lastmile_qr_scan"}, "fusion_lon": 0.0}, {"lat": 38.897021, "is_disabled": 0, "type": "electric_scooter", "lon": -77.0488885, "bike_id": "d589ceeff7951769399ce2ef3391d1f8", "fusion_lat": 0.0, "name": "d589ceeff7951769399ce2ef3391d1f8", "is_reserved": 0, "rental_uris": {"android": "https://dc.lft.to/lastmile_qr_scan", "ios": "https://dc.lft.to/lastmile_qr_scan"}, "fusion_lon": 0.0}, {"lat": 38.94349116666667, "is_disabled": 0, "type": "electric_scooter", "lon": -77.00218216666667, "bike_id": "9a0d365571e5976629d5af66dc41fc9f", "fusion_lat": 0.0, "name": "9a0d365571e5976629d5af66dc41fc9f", "is_reserved": 0, "rental_uris": {"android": "https://dc.lft.to/lastmile_qr_scan", "ios": "https://dc.lft.to/lastmile_qr_scan"}, "fusion_lon": 0.0}, {"lat": 38.8954545, "is_disabled": 0, "type": "electric_scooter", "lon": -77.00928366666666, "bike_id": "7ef4c505f2d586042d4850c0c047918d", "fusion_lat": 0.0, "name": "7ef4c505f2d586042d4850c0c047918d", "is_reserved": 0, "rental_uris": {"android": "https://dc.lft.to/lastmile_qr_scan", "ios": "https://dc.lft.to/lastmile_qr_scan"}, "fusion_lon": 0.0}, {"lat": 38.911164666666664, "is_disabled": 0, "type": "electric_scooter", "lon": -77.0434485, "bike_id": "e78f6d94fff5ff758771c6159d3e53a5", "fusion_lat": 0.0, "name": "e78f6d94fff5ff758771c6159d3e53a5", "is_reserved": 0, "rental_uris": {"android": "https://dc.lft.to/lastmile_qr_scan", "ios": "https://dc.lft.to/lastmile_qr_scan"}, "fusion_lon": 0.0}, {"lat": 38.884668166666664, "is_disabled": 0, "type": "electric_scooter", "lon": -76.99277116666667, "bike_id": "84bf967a3ccabbef52f844d17f3c9fd3", "fusion_lat": 0.0, "name": "84bf967a3ccabbef52f844d17f3c9fd3", "is_reserved": 0, "rental_uris": {"android": "https://dc.lft.to/lastmile_qr_scan", "ios": "https://dc.lft.to/lastmile_qr_scan"}, "fusion_lon": 0.0}, {"lat": 38.90251333333333, "is_disabled": 0, "type": "electric_scooter", "lon": -77.0268405, "bike_id": "638e82d0edfb34810a9da7da43c29eb3", "fusion_lat": 0.0, "name": "638e82d0edfb34810a9da7da43c29eb3", "is_reserved": 0, "rental_uris": {"android": "https://dc.lft.to/lastmile_qr_scan", "ios": "https://dc.lft.to/lastmile_qr_scan"}, "fusion_lon": 0.0}, {"lat": 38.892154, "is_disabled": 0, "type": "electric_scooter", "lon": -76.99584283333333, "bike_id": "fe39ebdad6fb64cae6be4095622b7226", "fusion_lat": 0.0, "name": "fe39ebdad6fb64cae6be4095622b7226", "is_reserved": 0, "rental_uris": {"android": "https://dc.lft.to/lastmile_qr_scan", "ios": "https://dc.lft.to/lastmile_qr_scan"}, "fusion_lon": 0.0}, {"lat": 38.884875666666666, "is_disabled": 0, "type": "electric_scooter", "lon": -77.00716583333333, "bike_id": "cca3498bb3e6e91ea65eb301ce6ced2e", "fusion_lat": 0.0, "name": "cca3498bb3e6e91ea65eb301ce6ced2e", "is_reserved": 0, "rental_uris": {"android": "https://dc.lft.to/lastmile_qr_scan", "ios": "https://dc.lft.to/lastmile_qr_scan"}, "fusion_lon": 0.0}, {"lat": 39.029333333333334, "is_disabled": 0, "type": "electric_bike", "lon": -77.0492725, "bike_id": "353b3751c0d443203fb7d5dc8529f6f5", "fusion_lat": 0.0, "name": "353b3751c0d443203fb7d5dc8529f6f5", "is_reserved": 0, "rental_uris": {"android": "https://dc.lft.to/lastmile_qr_scan", "ios": "https://dc.lft.to/lastmile_qr_scan"}, "fusion_lon": 0.0}, {"lat": 38.915394666666664, "is_disabled": 0, "type": "electric_scooter", "lon": -77.021994, "bike_id": "d8ae7778adb838e8b38a5584fdc4de47", "fusion_lat": 0.0, "name": "d8ae7778adb838e8b38a5584fdc4de47", "is_reserved": 0, "rental_uris": {"android": "https://dc.lft.to/lastmile_qr_scan", "ios": "https://dc.lft.to/lastmile_qr_scan"}, "fusion_lon": 0.0}, {"lat": 38.807526, "is_disabled": 0, "type": "electric_bike", "lon": -77.09455533333333, "bike_id": "e02dcc2b9c555290cb1e686700acbe61", "fusion_lat": 0.0, "name": "e02dcc2b9c555290cb1e686700acbe61", "is_reserved": 0, "rental_uris": {"android": "https://dc.lft.to/lastmile_qr_scan", "ios": "https://dc.lft.to/lastmile_qr_scan"}, "fusion_lon": 0.0}, {"lat": 38.924514, "is_disabled": 0, "type": "electric_scooter", "lon": -77.040265, "bike_id": "adcb98e91df0e6ccc693af0e5019d6df", "fusion_lat": 0.0, "name": "adcb98e91df0e6ccc693af0e5019d6df", "is_reserved": 0, "rental_uris": {"android": "https://dc.lft.to/lastmile_qr_scan", "ios": "https://dc.lft.to/lastmile_qr_scan"}, "fusion_lon": 0.0}, {"lat": 38.89978216666667, "is_disabled": 0, "type": "electric_scooter", "lon": -77.0206375, "bike_id": "8cb2b2d2c0e02d3734af1203f670f50c", "fusion_lat": 0.0, "name": "8cb2b2d2c0e02d3734af1203f670f50c", "is_reserved": 0, "rental_uris": {"android": "https://dc.lft.to/lastmile_qr_scan", "ios": "https://dc.lft.to/lastmile_qr_scan"}, "fusion_lon": 0.0}, {"lat": 38.94974966666667, "is_disabled": 0, "type": "electric_scooter", "lon": -77.06559, "bike_id": "49d11ed1f1ba12af4eea4e84fc71cffb", "fusion_lat": 0.0, "name": "49d11ed1f1ba12af4eea4e84fc71cffb", "is_reserved": 0, "rental_uris": {"android": "https://dc.lft.to/lastmile_qr_scan", "ios": "https://dc.lft.to/lastmile_qr_scan"}, "fusion_lon": 0.0}, {"lat": 39.02428916666667, "is_disabled": 0, "type": "electric_bike", "lon": -77.13100633333333, "bike_id": "789b95ce4ef85ffa20a7b44ff68dc16e", "fusion_lat": 0.0, "name": "789b95ce4ef85ffa20a7b44ff68dc16e", "is_reserved": 0, "rental_uris": {"android": "https://dc.lft.to/lastmile_qr_scan", "ios": "https://dc.lft.to/lastmile_qr_scan"}, "fusion_lon": 0.0}, {"lat": 38.9161045, "is_disabled": 0, "type": "electric_scooter", "lon": -77.02179683333334, "bike_id": "0d3e3d4b467e2245ef1f552597892810", "fusion_lat": 0.0, "name": "0d3e3d4b467e2245ef1f552597892810", "is_reserved": 0, "rental_uris": {"android": "https://dc.lft.to/lastmile_qr_scan", "ios": "https://dc.lft.to/lastmile_qr_scan"}, "fusion_lon": 0.0}, {"lat": 38.998194, "is_disabled": 0, "type": "electric_bike", "lon": -76.88378033333333, "bike_id": "01c233d31eb28a6b19d4da15a96fc012", "fusion_lat": 0.0, "name": "01c233d31eb28a6b19d4da15a96fc012", "is_reserved": 0, "rental_uris": {"android": "https://dc.lft.to/lastmile_qr_scan", "ios": "https://dc.lft.to/lastmile_qr_scan"}, "fusion_lon": 0.0}, {"lat": 38.8920705, "is_disabled": 0, "type": "electric_scooter", "lon": -76.98565766666667, "bike_id": "9892c2edddd161e79ab13c1ba7716979", "fusion_lat": 0.0, "name": "9892c2edddd161e79ab13c1ba7716979", "is_reserved": 0, "rental_uris": {"android": "https://dc.lft.to/lastmile_qr_scan", "ios": "https://dc.lft.to/lastmile_qr_scan"}, "fusion_lon": 0.0}, {"lat": 38.93861783333333, "is_disabled": 0, "type": "electric_scooter", "lon": -77.03095883333333, "bike_id": "3f2098ce4915e77baa202928622b8177", "fusion_lat": 0.0, "name": "3f2098ce4915e77baa202928622b8177", "is_reserved": 0, "rental_uris": {"android": "https://dc.lft.to/lastmile_qr_scan", "ios": "https://dc.lft.to/lastmile_qr_scan"}, "fusion_lon": 0.0}, {"lat": 39.03038633333333, "is_disabled": 0, "type": "electric_bike", "lon": -77.094849, "bike_id": "5ada0da3ca16c44bcb3789088325f371", "fusion_lat": 0.0, "name": "5ada0da3ca16c44bcb3789088325f371", "is_reserved": 0, "rental_uris": {"android": "https://dc.lft.to/lastmile_qr_scan", "ios": "https://dc.lft.to/lastmile_qr_scan"}, "fusion_lon": 0.0}, {"lat": 38.91312583333333, "is_disabled": 0, "type": "electric_scooter", "lon": -76.98644016666667, "bike_id": "7f18b468d43309bb99a4c15d09ed1440", "fusion_lat": 0.0, "name": "7f18b468d43309bb99a4c15d09ed1440", "is_reserved": 0, "rental_uris": {"android": "https://dc.lft.to/lastmile_qr_scan", "ios": "https://dc.lft.to/lastmile_qr_scan"}, "fusion_lon": 0.0}, {"lat": 38.9170055, "is_disabled": 0, "type": "electric_scooter", "lon": -77.02732316666666, "bike_id": "f5efba273abccb5761586a6715651e8a", "fusion_lat": 0.0, "name": "f5efba273abccb5761586a6715651e8a", "is_reserved": 0, "rental_uris": {"android": "https://dc.lft.to/lastmile_qr_scan", "ios": "https://dc.lft.to/lastmile_qr_scan"}, "fusion_lon": 0.0}, {"lat": 38.9173785, "is_disabled": 0, "type": "electric_scooter", "lon": -77.0319435, "bike_id": "c6f8e8a704a31facd0fa604c52053057", "fusion_lat": 0.0, "name": "c6f8e8a704a31facd0fa604c52053057", "is_reserved": 0, "rental_uris": {"android": "https://dc.lft.to/lastmile_qr_scan", "ios": "https://dc.lft.to/lastmile_qr_scan"}, "fusion_lon": 0.0}, {"lat": 38.914709333333334, "is_disabled": 0, "type": "electric_scooter", "lon": -77.003465, "bike_id": "0e296b3b8a7fbe783e7645d360dec3a1", "fusion_lat": 0.0, "name": "0e296b3b8a7fbe783e7645d360dec3a1", "is_reserved": 0, "rental_uris": {"android": "https://dc.lft.to/lastmile_qr_scan", "ios": "https://dc.lft.to/lastmile_qr_scan"}, "fusion_lon": 0.0}, {"lat": 38.98650033333333, "is_disabled": 0, "type": "electric_bike", "lon": -77.05629766666667, "bike_id": "8251a0178299fa2aa0c0fc7dba359090", "fusion_lat": 0.0, "name": "8251a0178299fa2aa0c0fc7dba359090", "is_reserved": 0, "rental_uris": {"android": "https://dc.lft.to/lastmile_qr_scan", "ios": "https://dc.lft.to/lastmile_qr_scan"}, "fusion_lon": 0.0}, {"lat": 38.90091183333333, "is_disabled": 0, "type": "electric_scooter", "lon": -76.99480566666666, "bike_id": "ac500fabe9fa3b7191e897a7edc6c1a5", "fusion_lat": 0.0, "name": "ac500fabe9fa3b7191e897a7edc6c1a5", "is_reserved": 0, "rental_uris": {"android": "https://dc.lft.to/lastmile_qr_scan", "ios": "https://dc.lft.to/lastmile_qr_scan"}, "fusion_lon": 0.0}, {"lat": 38.84416816666667, "is_disabled": 0, "type": "electric_scooter", "lon": -76.997851, "bike_id": "02dfe455093beae682050823457a802e", "fusion_lat": 0.0, "name": "02dfe455093beae682050823457a802e", "is_reserved": 0, "rental_uris": {"android": "https://dc.lft.to/lastmile_qr_scan", "ios": "https://dc.lft.to/lastmile_qr_scan"}, "fusion_lon": 0.0}, {"lat": 38.92190083333333, "is_disabled": 0, "type": "electric_scooter", "lon": -77.03984733333333, "bike_id": "aca678e8d85d1850e8b90d54204c0bc3", "fusion_lat": 0.0, "name": "aca678e8d85d1850e8b90d54204c0bc3", "is_reserved": 0, "rental_uris": {"android": "https://dc.lft.to/lastmile_qr_scan", "ios": "https://dc.lft.to/lastmile_qr_scan"}, "fusion_lon": 0.0}, {"lat": 38.914461333333335, "is_disabled": 0, "type": "electric_scooter", "lon": -77.03215166666666, "bike_id": "66a5d2574cccf1ab4d7f754798f80c85", "fusion_lat": 0.0, "name": "66a5d2574cccf1ab4d7f754798f80c85", "is_reserved": 0, "rental_uris": {"android": "https://dc.lft.to/lastmile_qr_scan", "ios": "https://dc.lft.to/lastmile_qr_scan"}, "fusion_lon": 0.0}, {"lat": 38.924795333333336, "is_disabled": 0, "type": "electric_scooter", "lon": -77.02825083333333, "bike_id": "574f5961517d4755b082f7647c698d9c", "fusion_lat": 0.0, "name": "574f5961517d4755b082f7647c698d9c", "is_reserved": 0, "rental_uris": {"android": "https://dc.lft.to/lastmile_qr_scan", "ios": "https://dc.lft.to/lastmile_qr_scan"}, "fusion_lon": 0.0}, {"lat": 38.9191905, "is_disabled": 0, "type": "electric_scooter", "lon": -77.033894, "bike_id": "99ebd6a6e3942af50bb22f4478ffdb62", "fusion_lat": 0.0, "name": "99ebd6a6e3942af50bb22f4478ffdb62", "is_reserved": 0, "rental_uris": {"android": "https://dc.lft.to/lastmile_qr_scan", "ios": "https://dc.lft.to/lastmile_qr_scan"}, "fusion_lon": 0.0}, {"lat": 38.827828333333336, "is_disabled": 0, "type": "electric_bike", "lon": -77.00916183333334, "bike_id": "66a4eb7f2ab0df0d9e5f36fb866b5b10", "fusion_lat": 0.0, "name": "66a4eb7f2ab0df0d9e5f36fb866b5b10", "is_reserved": 0, "rental_uris": {"android": "https://dc.lft.to/lastmile_qr_scan", "ios": "https://dc.lft.to/lastmile_qr_scan"}, "fusion_lon": 0.0}, {"lat": 38.948211, "is_disabled": 0, "type": "electric_scooter", "lon": -76.999078, "bike_id": "7c7c9d74dbc49397840660dace4adb6d", "fusion_lat": 0.0, "name": "7c7c9d74dbc49397840660dace4adb6d", "is_reserved": 0, "rental_uris": {"android": "https://dc.lft.to/lastmile_qr_scan", "ios": "https://dc.lft.to/lastmile_qr_scan"}, "fusion_lon": 0.0}, {"lat": 38.919614333333335, "is_disabled": 0, "type": "electric_scooter", "lon": -77.0143975, "bike_id": "0be5bde2f798acf2ee97b5d928a040b0", "fusion_lat": 0.0, "name": "0be5bde2f798acf2ee97b5d928a040b0", "is_reserved": 0, "rental_uris": {"android": "https://dc.lft.to/lastmile_qr_scan", "ios": "https://dc.lft.to/lastmile_qr_scan"}, "fusion_lon": 0.0}, {"lat": 38.9015915, "is_disabled": 0, "type": "electric_scooter", "lon": -77.039939, "bike_id": "f315e18b7c20872efac4594cee81aa94", "fusion_lat": 0.0, "name": "f315e18b7c20872efac4594cee81aa94", "is_reserved": 0, "rental_uris": {"android": "https://dc.lft.to/lastmile_qr_scan", "ios": "https://dc.lft.to/lastmile_qr_scan"}, "fusion_lon": 0.0}, {"lat": 38.8854925, "is_disabled": 0, "type": "electric_bike", "lon": -77.11785116666667, "bike_id": "0edb05ab6eddc78d6252eb7e1c41cf09", "fusion_lat": 0.0, "name": "0edb05ab6eddc78d6252eb7e1c41cf09", "is_reserved": 0, "rental_uris": {"android": "https://dc.lft.to/lastmile_qr_scan", "ios": "https://dc.lft.to/lastmile_qr_scan"}, "fusion_lon": 0.0}, {"lat": 38.957085666666664, "is_disabled": 0, "type": "electric_scooter", "lon": -77.0241295, "bike_id": "64e0a44410ec216e3ef3edc4969ba8d0", "fusion_lat": 0.0, "name": "64e0a44410ec216e3ef3edc4969ba8d0", "is_reserved": 0, "rental_uris": {"android": "https://dc.lft.to/lastmile_qr_scan", "ios": "https://dc.lft.to/lastmile_qr_scan"}, "fusion_lon": 0.0}, {"lat": 38.922054, "is_disabled": 0, "type": "electric_bike", "lon": -77.08205616666666, "bike_id": "7c398d2d09b7c5a3f700d8cc33e6c8ef", "fusion_lat": 0.0, "name": "7c398d2d09b7c5a3f700d8cc33e6c8ef", "is_reserved": 0, "rental_uris": {"android": "https://dc.lft.to/lastmile_qr_scan", "ios": "https://dc.lft.to/lastmile_qr_scan"}, "fusion_lon": 0.0}, {"lat": 38.903960833333336, "is_disabled": 0, "type": "electric_scooter", "lon": -77.0503895, "bike_id": "3bd7e2c011ae20b0a785a7c401195d47", "fusion_lat": 0.0, "name": "3bd7e2c011ae20b0a785a7c401195d47", "is_reserved": 0, "rental_uris": {"android": "https://dc.lft.to/lastmile_qr_scan", "ios": "https://dc.lft.to/lastmile_qr_scan"}, "fusion_lon": 0.0}, {"lat": 38.90826116666667, "is_disabled": 0, "type": "electric_scooter", "lon": -77.02004566666666, "bike_id": "7fe4b153ec41fee737f2e7a46de78180", "fusion_lat": 0.0, "name": "7fe4b153ec41fee737f2e7a46de78180", "is_reserved": 0, "rental_uris": {"android": "https://dc.lft.to/lastmile_qr_scan", "ios": "https://dc.lft.to/lastmile_qr_scan"}, "fusion_lon": 0.0}, {"lat": 38.90653233333333, "is_disabled": 0, "type": "electric_scooter", "lon": -77.008207, "bike_id": "899cc8a15a51ff90b7afb11a3226f0e2", "fusion_lat": 0.0, "name": "899cc8a15a51ff90b7afb11a3226f0e2", "is_reserved": 0, "rental_uris": {"android": "https://dc.lft.to/lastmile_qr_scan", "ios": "https://dc.lft.to/lastmile_qr_scan"}, "fusion_lon": 0.0}, {"lat": 38.88670483333333, "is_disabled": 0, "type": "electric_bike", "lon": -77.162578, "bike_id": "ad1ea23feebd4b5ba3c1d1a5935632f3", "fusion_lat": 0.0, "name": "ad1ea23feebd4b5ba3c1d1a5935632f3", "is_reserved": 0, "rental_uris": {"android": "https://dc.lft.to/lastmile_qr_scan", "ios": "https://dc.lft.to/lastmile_qr_scan"}, "fusion_lon": 0.0}, {"lat": 38.90392416666667, "is_disabled": 0, "type": "electric_scooter", "lon": -76.9900435, "bike_id": "cd9819e54f19d5b38b0e6c0dcafac515", "fusion_lat": 0.0, "name": "cd9819e54f19d5b38b0e6c0dcafac515", "is_reserved": 0, "rental_uris": {"android": "https://dc.lft.to/lastmile_qr_scan", "ios": "https://dc.lft.to/lastmile_qr_scan"}, "fusion_lon": 0.0}, {"lat": 38.8860545, "is_disabled": 0, "type": "electric_scooter", "lon": -77.01893683333333, "bike_id": "a9d6c6a0ccaabb74d28b6c2ffe177d54", "fusion_lat": 0.0, "name": "a9d6c6a0ccaabb74d28b6c2ffe177d54", "is_reserved": 0, "rental_uris": {"android": "https://dc.lft.to/lastmile_qr_scan", "ios": "https://dc.lft.to/lastmile_qr_scan"}, "fusion_lon": 0.0}, {"lat": 38.90048616666667, "is_disabled": 0, "type": "electric_scooter", "lon": -77.00762183333333, "bike_id": "6f6780e213fda4e06839a921dacaf703", "fusion_lat": 0.0, "name": "6f6780e213fda4e06839a921dacaf703", "is_reserved": 0, "rental_uris": {"android": "https://dc.lft.to/lastmile_qr_scan", "ios": "https://dc.lft.to/lastmile_qr_scan"}, "fusion_lon": 0.0}, {"lat": 38.92463583333333, "is_disabled": 0, "type": "electric_scooter", "lon": -77.03546366666667, "bike_id": "1312c2e81eb8045a58759eaff69b4cbe", "fusion_lat": 0.0, "name": "1312c2e81eb8045a58759eaff69b4cbe", "is_reserved": 0, "rental_uris": {"android": "https://dc.lft.to/lastmile_qr_scan", "ios": "https://dc.lft.to/lastmile_qr_scan"}, "fusion_lon": 0.0}, {"lat": 38.932225, "is_disabled": 0, "type": "electric_scooter", "lon": -77.04416616666667, "bike_id": "1adca12a84ae7196910c834ebaf26910", "fusion_lat": 0.0, "name": "1adca12a84ae7196910c834ebaf26910", "is_reserved": 0, "rental_uris": {"android": "https://dc.lft.to/lastmile_qr_scan", "ios": "https://dc.lft.to/lastmile_qr_scan"}, "fusion_lon": 0.0}, {"lat": 38.913985, "is_disabled": 0, "type": "electric_scooter", "lon": -77.03181283333333, "bike_id": "09c02d00603fe31ade6aff44e7d57194", "fusion_lat": 0.0, "name": "09c02d00603fe31ade6aff44e7d57194", "is_reserved": 0, "rental_uris": {"android": "https://dc.lft.to/lastmile_qr_scan", "ios": "https://dc.lft.to/lastmile_qr_scan"}, "fusion_lon": 0.0}, {"lat": 38.885313, "is_disabled": 0, "type": "electric_scooter", "lon": -77.01531966666667, "bike_id": "865dbbf9f89c19a3344e80d5eafbb20c", "fusion_lat": 0.0, "name": "865dbbf9f89c19a3344e80d5eafbb20c", "is_reserved": 0, "rental_uris": {"android": "https://dc.lft.to/lastmile_qr_scan", "ios": "https://dc.lft.to/lastmile_qr_scan"}, "fusion_lon": 0.0}, {"lat": 38.917543333333334, "is_disabled": 0, "type": "electric_scooter", "lon": -77.00457383333334, "bike_id": "90d79d517d8472e142d6b6d5260d037f", "fusion_lat": 0.0, "name": "90d79d517d8472e142d6b6d5260d037f", "is_reserved": 0, "rental_uris": {"android": "https://dc.lft.to/lastmile_qr_scan", "ios": "https://dc.lft.to/lastmile_qr_scan"}, "fusion_lon": 0.0}, {"lat": 38.865936, "is_disabled": 0, "type": "electric_bike", "lon": -76.932283, "bike_id": "d5f471095e5fc61569d6eb8623472213", "fusion_lat": 0.0, "name": "d5f471095e5fc61569d6eb8623472213", "is_reserved": 0, "rental_uris": {"android": "https://dc.lft.to/lastmile_qr_scan", "ios": "https://dc.lft.to/lastmile_qr_scan"}, "fusion_lon": 0.0}, {"lat": 38.95749566666667, "is_disabled": 0, "type": "electric_bike", "lon": -77.02171116666666, "bike_id": "80ea10af2755d4eea415bebc7adc3c27", "fusion_lat": 0.0, "name": "80ea10af2755d4eea415bebc7adc3c27", "is_reserved": 0, "rental_uris": {"android": "https://dc.lft.to/lastmile_qr_scan", "ios": "https://dc.lft.to/lastmile_qr_scan"}, "fusion_lon": 0.0}, {"lat": 38.92165966666666, "is_disabled": 0, "type": "electric_scooter", "lon": -77.051385, "bike_id": "94ce91528042fa9e90e4a02a0b9d1a98", "fusion_lat": 0.0, "name": "94ce91528042fa9e90e4a02a0b9d1a98", "is_reserved": 0, "rental_uris": {"android": "https://dc.lft.to/lastmile_qr_scan", "ios": "https://dc.lft.to/lastmile_qr_scan"}, "fusion_lon": 0.0}, {"lat": 38.8651925, "is_disabled": 0, "type": "electric_scooter", "lon": -76.9902995, "bike_id": "1bc8e565d962339d8a30241790942e1c", "fusion_lat": 0.0, "name": "1bc8e565d962339d8a30241790942e1c", "is_reserved": 0, "rental_uris": {"android": "https://dc.lft.to/lastmile_qr_scan", "ios": "https://dc.lft.to/lastmile_qr_scan"}, "fusion_lon": 0.0}, {"lat": 38.8922195, "is_disabled": 0, "type": "electric_scooter", "lon": -77.04865766666667, "bike_id": "b46c7a73f892d601f0a346a07e7890b5", "fusion_lat": 0.0, "name": "b46c7a73f892d601f0a346a07e7890b5", "is_reserved": 0, "rental_uris": {"android": "https://dc.lft.to/lastmile_qr_scan", "ios": "https://dc.lft.to/lastmile_qr_scan"}, "fusion_lon": 0.0}, {"lat": 38.909924833333335, "is_disabled": 0, "type": "electric_scooter", "lon": -77.040065, "bike_id": "13b9c97f337228603b9bf52fd2eb6db3", "fusion_lat": 0.0, "name": "13b9c97f337228603b9bf52fd2eb6db3", "is_reserved": 0, "rental_uris": {"android": "https://dc.lft.to/lastmile_qr_scan", "ios": "https://dc.lft.to/lastmile_qr_scan"}, "fusion_lon": 0.0}, {"lat": 38.9215835, "is_disabled": 0, "type": "electric_scooter", "lon": -77.04025766666666, "bike_id": "18adff66647f97223b29af79c79cb3e1", "fusion_lat": 0.0, "name": "18adff66647f97223b29af79c79cb3e1", "is_reserved": 0, "rental_uris": {"android": "https://dc.lft.to/lastmile_qr_scan", "ios": "https://dc.lft.to/lastmile_qr_scan"}, "fusion_lon": 0.0}, {"lat": 38.85217983333333, "is_disabled": 0, "type": "electric_bike", "lon": -77.12958483333334, "bike_id": "cf2fe207d10ffcb7dd79241818af3ed2", "fusion_lat": 0.0, "name": "cf2fe207d10ffcb7dd79241818af3ed2", "is_reserved": 0, "rental_uris": {"android": "https://dc.lft.to/lastmile_qr_scan", "ios": "https://dc.lft.to/lastmile_qr_scan"}, "fusion_lon": 0.0}, {"lat": 38.855109166666665, "is_disabled": 0, "type": "electric_bike", "lon": -76.98429916666667, "bike_id": "dc8c874e0f6239ca719088489d4102bf", "fusion_lat": 0.0, "name": "dc8c874e0f6239ca719088489d4102bf", "is_reserved": 0, "rental_uris": {"android": "https://dc.lft.to/lastmile_qr_scan", "ios": "https://dc.lft.to/lastmile_qr_scan"}, "fusion_lon": 0.0}, {"lat": 38.91109933333333, "is_disabled": 0, "type": "electric_scooter", "lon": -77.0481275, "bike_id": "27103b65f8ab712b2d4052354f882820", "fusion_lat": 0.0, "name": "27103b65f8ab712b2d4052354f882820", "is_reserved": 0, "rental_uris": {"android": "https://dc.lft.to/lastmile_qr_scan", "ios": "https://dc.lft.to/lastmile_qr_scan"}, "fusion_lon": 0.0}, {"lat": 38.89754383333333, "is_disabled": 0, "type": "electric_scooter", "lon": -76.94184266666667, "bike_id": "ed213b192dd711c1b76bf83ee1969248", "fusion_lat": 0.0, "name": "ed213b192dd711c1b76bf83ee1969248", "is_reserved": 0, "rental_uris": {"android": "https://dc.lft.to/lastmile_qr_scan", "ios": "https://dc.lft.to/lastmile_qr_scan"}, "fusion_lon": 0.0}, {"lat": 38.903288333333336, "is_disabled": 0, "type": "electric_scooter", "lon": -77.06306166666667, "bike_id": "b78de79625c51008995a0c2a176fa6a6", "fusion_lat": 0.0, "name": "b78de79625c51008995a0c2a176fa6a6", "is_reserved": 0, "rental_uris": {"android": "https://dc.lft.to/lastmile_qr_scan", "ios": "https://dc.lft.to/lastmile_qr_scan"}, "fusion_lon": 0.0}, {"lat": 38.9111005, "is_disabled": 0, "type": "electric_scooter", "lon": -77.02011116666667, "bike_id": "7c666bdd617f39867d0f0d694bb394f5", "fusion_lat": 0.0, "name": "7c666bdd617f39867d0f0d694bb394f5", "is_reserved": 0, "rental_uris": {"android": "https://dc.lft.to/lastmile_qr_scan", "ios": "https://dc.lft.to/lastmile_qr_scan"}, "fusion_lon": 0.0}, {"lat": 38.922246666666666, "is_disabled": 0, "type": "electric_scooter", "lon": -77.04339266666666, "bike_id": "520f2e0881c35b320a983f1150f68e30", "fusion_lat": 0.0, "name": "520f2e0881c35b320a983f1150f68e30", "is_reserved": 0, "rental_uris": {"android": "https://dc.lft.to/lastmile_qr_scan", "ios": "https://dc.lft.to/lastmile_qr_scan"}, "fusion_lon": 0.0}, {"lat": 38.93422433333333, "is_disabled": 0, "type": "electric_scooter", "lon": -77.055504, "bike_id": "fb97dbe10d27980328c3fb240abc03e7", "fusion_lat": 0.0, "name": "fb97dbe10d27980328c3fb240abc03e7", "is_reserved": 0, "rental_uris": {"android": "https://dc.lft.to/lastmile_qr_scan", "ios": "https://dc.lft.to/lastmile_qr_scan"}, "fusion_lon": 0.0}, {"lat": 38.91692366666667, "is_disabled": 0, "type": "electric_scooter", "lon": -77.037189, "bike_id": "7dcdfc526ecc23edc5a6f10fba8acbbb", "fusion_lat": 0.0, "name": "7dcdfc526ecc23edc5a6f10fba8acbbb", "is_reserved": 0, "rental_uris": {"android": "https://dc.lft.to/lastmile_qr_scan", "ios": "https://dc.lft.to/lastmile_qr_scan"}, "fusion_lon": 0.0}, {"lat": 38.91480466666667, "is_disabled": 0, "type": "electric_scooter", "lon": -77.01378116666666, "bike_id": "159a0e7bb9fe052969420d1ef549c5df", "fusion_lat": 0.0, "name": "159a0e7bb9fe052969420d1ef549c5df", "is_reserved": 0, "rental_uris": {"android": "https://dc.lft.to/lastmile_qr_scan", "ios": "https://dc.lft.to/lastmile_qr_scan"}, "fusion_lon": 0.0}, {"lat": 38.9094325, "is_disabled": 0, "type": "electric_scooter", "lon": -77.0431995, "bike_id": "0e670092ee45c58905fd052d6b025825", "fusion_lat": 0.0, "name": "0e670092ee45c58905fd052d6b025825", "is_reserved": 0, "rental_uris": {"android": "https://dc.lft.to/lastmile_qr_scan", "ios": "https://dc.lft.to/lastmile_qr_scan"}, "fusion_lon": 0.0}, {"lat": 38.9002685, "is_disabled": 0, "type": "electric_scooter", "lon": -77.00194816666666, "bike_id": "f6e7ed7e06b65deff66a9fe4ca8f71f1", "fusion_lat": 0.0, "name": "f6e7ed7e06b65deff66a9fe4ca8f71f1", "is_reserved": 0, "rental_uris": {"android": "https://dc.lft.to/lastmile_qr_scan", "ios": "https://dc.lft.to/lastmile_qr_scan"}, "fusion_lon": 0.0}, {"lat": 38.9180115, "is_disabled": 0, "type": "electric_scooter", "lon": -77.04018583333334, "bike_id": "3a48fc32bb4383603ea7681cb799a761", "fusion_lat": 0.0, "name": "3a48fc32bb4383603ea7681cb799a761", "is_reserved": 0, "rental_uris": {"android": "https://dc.lft.to/lastmile_qr_scan", "ios": "https://dc.lft.to/lastmile_qr_scan"}, "fusion_lon": 0.0}, {"lat": 38.90027416666667, "is_disabled": 0, "type": "electric_scooter", "lon": -76.9989335, "bike_id": "804419d500395cae048ae99e3f3356f1", "fusion_lat": 0.0, "name": "804419d500395cae048ae99e3f3356f1", "is_reserved": 0, "rental_uris": {"android": "https://dc.lft.to/lastmile_qr_scan", "ios": "https://dc.lft.to/lastmile_qr_scan"}, "fusion_lon": 0.0}, {"lat": 38.93133383333333, "is_disabled": 0, "type": "electric_scooter", "lon": -77.032549, "bike_id": "215b533c3a55cc64e46cfd83fa798b7e", "fusion_lat": 0.0, "name": "215b533c3a55cc64e46cfd83fa798b7e", "is_reserved": 0, "rental_uris": {"android": "https://dc.lft.to/lastmile_qr_scan", "ios": "https://dc.lft.to/lastmile_qr_scan"}, "fusion_lon": 0.0}, {"lat": 38.813461, "is_disabled": 0, "type": "electric_bike", "lon": -77.04924733333333, "bike_id": "92a61eec0ced0b80894d9b05807142aa", "fusion_lat": 0.0, "name": "92a61eec0ced0b80894d9b05807142aa", "is_reserved": 0, "rental_uris": {"android": "https://dc.lft.to/lastmile_qr_scan", "ios": "https://dc.lft.to/lastmile_qr_scan"}, "fusion_lon": 0.0}, {"lat": 38.9159385, "is_disabled": 0, "type": "electric_scooter", "lon": -77.03283283333333, "bike_id": "769fa999066832e2cf397e1c1764e6e2", "fusion_lat": 0.0, "name": "769fa999066832e2cf397e1c1764e6e2", "is_reserved": 0, "rental_uris": {"android": "https://dc.lft.to/lastmile_qr_scan", "ios": "https://dc.lft.to/lastmile_qr_scan"}, "fusion_lon": 0.0}, {"lat": 38.868278, "is_disabled": 0, "type": "electric_scooter", "lon": -76.97740916666666, "bike_id": "9f12146ed74d757d58267d26cfe03f75", "fusion_lat": 0.0, "name": "9f12146ed74d757d58267d26cfe03f75", "is_reserved": 0, "rental_uris": {"android": "https://dc.lft.to/lastmile_qr_scan", "ios": "https://dc.lft.to/lastmile_qr_scan"}, "fusion_lon": 0.0}, {"lat": 38.927094, "is_disabled": 0, "type": "electric_scooter", "lon": -77.02102616666667, "bike_id": "bf89016a848d4960ab8fdbd3b25dbaed", "fusion_lat": 0.0, "name": "bf89016a848d4960ab8fdbd3b25dbaed", "is_reserved": 0, "rental_uris": {"android": "https://dc.lft.to/lastmile_qr_scan", "ios": "https://dc.lft.to/lastmile_qr_scan"}, "fusion_lon": 0.0}, {"lat": 38.916170666666666, "is_disabled": 0, "type": "electric_scooter", "lon": -77.04872266666666, "bike_id": "681a2b89f101bc043dab088b76f22521", "fusion_lat": 0.0, "name": "681a2b89f101bc043dab088b76f22521", "is_reserved": 0, "rental_uris": {"android": "https://dc.lft.to/lastmile_qr_scan", "ios": "https://dc.lft.to/lastmile_qr_scan"}, "fusion_lon": 0.0}, {"lat": 38.914242, "is_disabled": 0, "type": "electric_scooter", "lon": -77.04651633333333, "bike_id": "8e7e21d6d34d68f3cdcba8ee04064936", "fusion_lat": 0.0, "name": "8e7e21d6d34d68f3cdcba8ee04064936", "is_reserved": 0, "rental_uris": {"android": "https://dc.lft.to/lastmile_qr_scan", "ios": "https://dc.lft.to/lastmile_qr_scan"}, "fusion_lon": 0.0}, {"lat": 38.9063565, "is_disabled": 0, "type": "electric_scooter", "lon": -77.02507333333334, "bike_id": "575b2ece3d7bc219c96a8021c7a75014", "fusion_lat": 0.0, "name": "575b2ece3d7bc219c96a8021c7a75014", "is_reserved": 0, "rental_uris": {"android": "https://dc.lft.to/lastmile_qr_scan", "ios": "https://dc.lft.to/lastmile_qr_scan"}, "fusion_lon": 0.0}, {"lat": 38.900489, "is_disabled": 0, "type": "electric_scooter", "lon": -77.050654, "bike_id": "959f2d7afff0f92464b633bf151cc2bf", "fusion_lat": 0.0, "name": "959f2d7afff0f92464b633bf151cc2bf", "is_reserved": 0, "rental_uris": {"android": "https://dc.lft.to/lastmile_qr_scan", "ios": "https://dc.lft.to/lastmile_qr_scan"}, "fusion_lon": 0.0}, {"lat": 38.87143, "is_disabled": 0, "type": "electric_bike", "lon": -76.93706666666667, "bike_id": "65bd576bc4133a14227a13ff0d7c0d6e", "fusion_lat": 0.0, "name": "65bd576bc4133a14227a13ff0d7c0d6e", "is_reserved": 0, "rental_uris": {"android": "https://dc.lft.to/lastmile_qr_scan", "ios": "https://dc.lft.to/lastmile_qr_scan"}, "fusion_lon": 0.0}, {"lat": 38.836917666666665, "is_disabled": 0, "type": "electric_scooter", "lon": -77.103133, "bike_id": "50e305cc5456d0261f4f5e3ea1be91be", "fusion_lat": 0.0, "name": "50e305cc5456d0261f4f5e3ea1be91be", "is_reserved": 0, "rental_uris": {"android": "https://dc.lft.to/lastmile_qr_scan", "ios": "https://dc.lft.to/lastmile_qr_scan"}, "fusion_lon": 0.0}, {"lat": 38.90111533333334, "is_disabled": 0, "type": "electric_scooter", "lon": -76.99621716666667, "bike_id": "62f5540400a0690271648a7e41f2fa4e", "fusion_lat": 0.0, "name": "62f5540400a0690271648a7e41f2fa4e", "is_reserved": 0, "rental_uris": {"android": "https://dc.lft.to/lastmile_qr_scan", "ios": "https://dc.lft.to/lastmile_qr_scan"}, "fusion_lon": 0.0}, {"lat": 38.88573366666667, "is_disabled": 0, "type": "electric_scooter", "lon": -76.9191005, "bike_id": "ddd88166ef709222ed564cd246079985", "fusion_lat": 0.0, "name": "ddd88166ef709222ed564cd246079985", "is_reserved": 0, "rental_uris": {"android": "https://dc.lft.to/lastmile_qr_scan", "ios": "https://dc.lft.to/lastmile_qr_scan"}, "fusion_lon": 0.0}, {"lat": 38.92742616666666, "is_disabled": 0, "type": "electric_scooter", "lon": -77.02414883333333, "bike_id": "9b32c0144631b8ac989be129be1cdd30", "fusion_lat": 0.0, "name": "9b32c0144631b8ac989be129be1cdd30", "is_reserved": 0, "rental_uris": {"android": "https://dc.lft.to/lastmile_qr_scan", "ios": "https://dc.lft.to/lastmile_qr_scan"}, "fusion_lon": 0.0}, {"lat": 38.90521566666666, "is_disabled": 0, "type": "electric_scooter", "lon": -77.05154066666667, "bike_id": "8183f55853d5c42ae5617e1744bb7097", "fusion_lat": 0.0, "name": "8183f55853d5c42ae5617e1744bb7097", "is_reserved": 0, "rental_uris": {"android": "https://dc.lft.to/lastmile_qr_scan", "ios": "https://dc.lft.to/lastmile_qr_scan"}, "fusion_lon": 0.0}, {"lat": 38.92168683333333, "is_disabled": 0, "type": "electric_scooter", "lon": -77.03211983333334, "bike_id": "7f5b50455e48ca14f0cdb2588ecbf6e1", "fusion_lat": 0.0, "name": "7f5b50455e48ca14f0cdb2588ecbf6e1", "is_reserved": 0, "rental_uris": {"android": "https://dc.lft.to/lastmile_qr_scan", "ios": "https://dc.lft.to/lastmile_qr_scan"}, "fusion_lon": 0.0}, {"lat": 38.897310166666664, "is_disabled": 0, "type": "electric_scooter", "lon": -77.0490595, "bike_id": "9e4ef4b40ed6d04d29987a6c75c13c54", "fusion_lat": 0.0, "name": "9e4ef4b40ed6d04d29987a6c75c13c54", "is_reserved": 0, "rental_uris": {"android": "https://dc.lft.to/lastmile_qr_scan", "ios": "https://dc.lft.to/lastmile_qr_scan"}, "fusion_lon": 0.0}, {"lat": 38.921784, "is_disabled": 0, "type": "electric_scooter", "lon": -77.0471565, "bike_id": "38d74c1553246da5b36afb8b5eccd85c", "fusion_lat": 0.0, "name": "38d74c1553246da5b36afb8b5eccd85c", "is_reserved": 0, "rental_uris": {"android": "https://dc.lft.to/lastmile_qr_scan", "ios": "https://dc.lft.to/lastmile_qr_scan"}, "fusion_lon": 0.0}, {"lat": 38.92601633333334, "is_disabled": 0, "type": "electric_scooter", "lon": -77.05694366666667, "bike_id": "39a9597940738fe77dcdc43655722c59", "fusion_lat": 0.0, "name": "39a9597940738fe77dcdc43655722c59", "is_reserved": 0, "rental_uris": {"android": "https://dc.lft.to/lastmile_qr_scan", "ios": "https://dc.lft.to/lastmile_qr_scan"}, "fusion_lon": 0.0}, {"lat": 38.94792983333333, "is_disabled": 0, "type": "electric_scooter", "lon": -77.0217175, "bike_id": "7d1f9cba90d850ad31745670d806c9de", "fusion_lat": 0.0, "name": "7d1f9cba90d850ad31745670d806c9de", "is_reserved": 0, "rental_uris": {"android": "https://dc.lft.to/lastmile_qr_scan", "ios": "https://dc.lft.to/lastmile_qr_scan"}, "fusion_lon": 0.0}, {"lat": 38.937415666666666, "is_disabled": 0, "type": "electric_scooter", "lon": -77.03469183333333, "bike_id": "cfc995cc25cb8311ddde57bf03bc1c3f", "fusion_lat": 0.0, "name": "cfc995cc25cb8311ddde57bf03bc1c3f", "is_reserved": 0, "rental_uris": {"android": "https://dc.lft.to/lastmile_qr_scan", "ios": "https://dc.lft.to/lastmile_qr_scan"}, "fusion_lon": 0.0}, {"lat": 38.9164745, "is_disabled": 0, "type": "electric_scooter", "lon": -77.021784, "bike_id": "6dedd063fde7bcdf509a402f9dc7465f", "fusion_lat": 0.0, "name": "6dedd063fde7bcdf509a402f9dc7465f", "is_reserved": 0, "rental_uris": {"android": "https://dc.lft.to/lastmile_qr_scan", "ios": "https://dc.lft.to/lastmile_qr_scan"}, "fusion_lon": 0.0}, {"lat": 38.9021785, "is_disabled": 0, "type": "electric_scooter", "lon": -76.94592683333333, "bike_id": "b6995f1554c599aa96b1ecd2deb0769e", "fusion_lat": 0.0, "name": "b6995f1554c599aa96b1ecd2deb0769e", "is_reserved": 0, "rental_uris": {"android": "https://dc.lft.to/lastmile_qr_scan", "ios": "https://dc.lft.to/lastmile_qr_scan"}, "fusion_lon": 0.0}, {"lat": 38.91763816666667, "is_disabled": 0, "type": "electric_scooter", "lon": -77.0318425, "bike_id": "21e48d8c6350024dc5bd532d1bbd35ee", "fusion_lat": 0.0, "name": "21e48d8c6350024dc5bd532d1bbd35ee", "is_reserved": 0, "rental_uris": {"android": "https://dc.lft.to/lastmile_qr_scan", "ios": "https://dc.lft.to/lastmile_qr_scan"}, "fusion_lon": 0.0}, {"lat": 38.91212616666667, "is_disabled": 0, "type": "electric_scooter", "lon": -77.0275935, "bike_id": "472c053e03d517df2d96bd071aa5f248", "fusion_lat": 0.0, "name": "472c053e03d517df2d96bd071aa5f248", "is_reserved": 0, "rental_uris": {"android": "https://dc.lft.to/lastmile_qr_scan", "ios": "https://dc.lft.to/lastmile_qr_scan"}, "fusion_lon": 0.0}, {"lat": 38.9015095, "is_disabled": 0, "type": "electric_scooter", "lon": -77.03990833333333, "bike_id": "28d286be2bf62a6a02d2c9c85d02caac", "fusion_lat": 0.0, "name": "28d286be2bf62a6a02d2c9c85d02caac", "is_reserved": 0, "rental_uris": {"android": "https://dc.lft.to/lastmile_qr_scan", "ios": "https://dc.lft.to/lastmile_qr_scan"}, "fusion_lon": 0.0}, {"lat": 38.947195666666666, "is_disabled": 0, "type": "electric_scooter", "lon": -77.0226115, "bike_id": "b0054d88fddbaaff9a7bdcb3aba30f72", "fusion_lat": 0.0, "name": "b0054d88fddbaaff9a7bdcb3aba30f72", "is_reserved": 0, "rental_uris": {"android": "https://dc.lft.to/lastmile_qr_scan", "ios": "https://dc.lft.to/lastmile_qr_scan"}, "fusion_lon": 0.0}, {"lat": 38.91960683333333, "is_disabled": 0, "type": "electric_bike", "lon": -76.97264983333334, "bike_id": "adb5d7c26c6c88eb02bf8bf7883e09ed", "fusion_lat": 0.0, "name": "adb5d7c26c6c88eb02bf8bf7883e09ed", "is_reserved": 0, "rental_uris": {"android": "https://dc.lft.to/lastmile_qr_scan", "ios": "https://dc.lft.to/lastmile_qr_scan"}, "fusion_lon": 0.0}, {"lat": 38.914240666666664, "is_disabled": 0, "type": "electric_scooter", "lon": -77.00503166666667, "bike_id": "3f96fdafea1de5cff03d56bfb128ff91", "fusion_lat": 0.0, "name": "3f96fdafea1de5cff03d56bfb128ff91", "is_reserved": 0, "rental_uris": {"android": "https://dc.lft.to/lastmile_qr_scan", "ios": "https://dc.lft.to/lastmile_qr_scan"}, "fusion_lon": 0.0}, {"lat": 38.93009433333334, "is_disabled": 0, "type": "electric_bike", "lon": -77.21649383333333, "bike_id": "1e2861e79bb332ad825373d4d66579e6", "fusion_lat": 0.0, "name": "1e2861e79bb332ad825373d4d66579e6", "is_reserved": 0, "rental_uris": {"android": "https://dc.lft.to/lastmile_qr_scan", "ios": "https://dc.lft.to/lastmile_qr_scan"}, "fusion_lon": 0.0}, {"lat": 38.936698, "is_disabled": 0, "type": "electric_bike", "lon": -76.95206633333333, "bike_id": "f2632b655861a5d730bbc25e15d9c831", "fusion_lat": 0.0, "name": "f2632b655861a5d730bbc25e15d9c831", "is_reserved": 0, "rental_uris": {"android": "https://dc.lft.to/lastmile_qr_scan", "ios": "https://dc.lft.to/lastmile_qr_scan"}, "fusion_lon": 0.0}, {"lat": 38.91259566666667, "is_disabled": 0, "type": "electric_scooter", "lon": -77.039442, "bike_id": "5f3dc3cbed85686c366814bfb7e50cdc", "fusion_lat": 0.0, "name": "5f3dc3cbed85686c366814bfb7e50cdc", "is_reserved": 0, "rental_uris": {"android": "https://dc.lft.to/lastmile_qr_scan", "ios": "https://dc.lft.to/lastmile_qr_scan"}, "fusion_lon": 0.0}, {"lat": 38.93281983333333, "is_disabled": 0, "type": "electric_scooter", "lon": -77.02541016666666, "bike_id": "5a90907efecf562ee5718b83898496a8", "fusion_lat": 0.0, "name": "5a90907efecf562ee5718b83898496a8", "is_reserved": 0, "rental_uris": {"android": "https://dc.lft.to/lastmile_qr_scan", "ios": "https://dc.lft.to/lastmile_qr_scan"}, "fusion_lon": 0.0}, {"lat": 38.89211366666667, "is_disabled": 0, "type": "electric_scooter", "lon": -76.99575366666667, "bike_id": "26c13cf94e16bea3734d05251c11bc34", "fusion_lat": 0.0, "name": "26c13cf94e16bea3734d05251c11bc34", "is_reserved": 0, "rental_uris": {"android": "https://dc.lft.to/lastmile_qr_scan", "ios": "https://dc.lft.to/lastmile_qr_scan"}, "fusion_lon": 0.0}, {"lat": 38.90702116666667, "is_disabled": 0, "type": "electric_scooter", "lon": -76.986974, "bike_id": "78cbbe2b9fdef145e1ff6438eb1e1e41", "fusion_lat": 0.0, "name": "78cbbe2b9fdef145e1ff6438eb1e1e41", "is_reserved": 0, "rental_uris": {"android": "https://dc.lft.to/lastmile_qr_scan", "ios": "https://dc.lft.to/lastmile_qr_scan"}, "fusion_lon": 0.0}, {"lat": 38.946304, "is_disabled": 0, "type": "electric_scooter", "lon": -77.0184695, "bike_id": "aa88966af0c9e4943bd0d72681927c13", "fusion_lat": 0.0, "name": "aa88966af0c9e4943bd0d72681927c13", "is_reserved": 0, "rental_uris": {"android": "https://dc.lft.to/lastmile_qr_scan", "ios": "https://dc.lft.to/lastmile_qr_scan"}, "fusion_lon": 0.0}, {"lat": 38.867452, "is_disabled": 0, "type": "electric_scooter", "lon": -76.97662066666666, "bike_id": "bafaf8076da29bef4389255e4814daa2", "fusion_lat": 0.0, "name": "bafaf8076da29bef4389255e4814daa2", "is_reserved": 0, "rental_uris": {"android": "https://dc.lft.to/lastmile_qr_scan", "ios": "https://dc.lft.to/lastmile_qr_scan"}, "fusion_lon": 0.0}, {"lat": 38.87732233333333, "is_disabled": 0, "type": "electric_bike", "lon": -77.1185, "bike_id": "06883a2ddad466b4ae13b23b224c5c9e", "fusion_lat": 0.0, "name": "06883a2ddad466b4ae13b23b224c5c9e", "is_reserved": 0, "rental_uris": {"android": "https://dc.lft.to/lastmile_qr_scan", "ios": "https://dc.lft.to/lastmile_qr_scan"}, "fusion_lon": 0.0}, {"lat": 38.86256816666667, "is_disabled": 0, "type": "electric_scooter", "lon": -76.9869675, "bike_id": "b29f2a81ad14a98f051621858e58892f", "fusion_lat": 0.0, "name": "b29f2a81ad14a98f051621858e58892f", "is_reserved": 0, "rental_uris": {"android": "https://dc.lft.to/lastmile_qr_scan", "ios": "https://dc.lft.to/lastmile_qr_scan"}, "fusion_lon": 0.0}, {"lat": 38.909217, "is_disabled": 0, "type": "electric_scooter", "lon": -77.0802545, "bike_id": "a3635f17f633d66683c296d1a50572d0", "fusion_lat": 0.0, "name": "a3635f17f633d66683c296d1a50572d0", "is_reserved": 0, "rental_uris": {"android": "https://dc.lft.to/lastmile_qr_scan", "ios": "https://dc.lft.to/lastmile_qr_scan"}, "fusion_lon": 0.0}, {"lat": 38.951854833333336, "is_disabled": 0, "type": "electric_bike", "lon": -76.93544166666666, "bike_id": "5d821fbc0a6fdacefa27ea2acb6364a1", "fusion_lat": 0.0, "name": "5d821fbc0a6fdacefa27ea2acb6364a1", "is_reserved": 0, "rental_uris": {"android": "https://dc.lft.to/lastmile_qr_scan", "ios": "https://dc.lft.to/lastmile_qr_scan"}, "fusion_lon": 0.0}, {"lat": 38.95778633333333, "is_disabled": 0, "type": "electric_bike", "lon": -77.027598, "bike_id": "ca8794f78f0af279d6b000a5b4409691", "fusion_lat": 0.0, "name": "ca8794f78f0af279d6b000a5b4409691", "is_reserved": 0, "rental_uris": {"android": "https://dc.lft.to/lastmile_qr_scan", "ios": "https://dc.lft.to/lastmile_qr_scan"}, "fusion_lon": 0.0}, {"lat": 38.874086, "is_disabled": 0, "type": "electric_bike", "lon": -76.96578616666666, "bike_id": "29924e25aa900a00aaab5bf1be170a7c", "fusion_lat": 0.0, "name": "29924e25aa900a00aaab5bf1be170a7c", "is_reserved": 0, "rental_uris": {"android": "https://dc.lft.to/lastmile_qr_scan", "ios": "https://dc.lft.to/lastmile_qr_scan"}, "fusion_lon": 0.0}, {"lat": 38.90278166666667, "is_disabled": 0, "type": "electric_scooter", "lon": -77.05816416666667, "bike_id": "c9faf82b810a16aa70cad587db816207", "fusion_lat": 0.0, "name": "c9faf82b810a16aa70cad587db816207", "is_reserved": 0, "rental_uris": {"android": "https://dc.lft.to/lastmile_qr_scan", "ios": "https://dc.lft.to/lastmile_qr_scan"}, "fusion_lon": 0.0}, {"lat": 38.9308445, "is_disabled": 0, "type": "electric_scooter", "lon": -77.07752216666667, "bike_id": "e6d53d12fde037eefe2ab6aa6450ca41", "fusion_lat": 0.0, "name": "e6d53d12fde037eefe2ab6aa6450ca41", "is_reserved": 0, "rental_uris": {"android": "https://dc.lft.to/lastmile_qr_scan", "ios": "https://dc.lft.to/lastmile_qr_scan"}, "fusion_lon": 0.0}, {"lat": 38.900396, "is_disabled": 0, "type": "electric_scooter", "lon": -77.05037033333333, "bike_id": "cd13595c1c5d9ff66c344c97417eeb0d", "fusion_lat": 0.0, "name": "cd13595c1c5d9ff66c344c97417eeb0d", "is_reserved": 0, "rental_uris": {"android": "https://dc.lft.to/lastmile_qr_scan", "ios": "https://dc.lft.to/lastmile_qr_scan"}, "fusion_lon": 0.0}, {"lat": 38.909417, "is_disabled": 0, "type": "electric_scooter", "lon": -76.98959916666666, "bike_id": "459144292e123f8c08482c0cb1a8beec", "fusion_lat": 0.0, "name": "459144292e123f8c08482c0cb1a8beec", "is_reserved": 0, "rental_uris": {"android": "https://dc.lft.to/lastmile_qr_scan", "ios": "https://dc.lft.to/lastmile_qr_scan"}, "fusion_lon": 0.0}, {"lat": 38.8669725, "is_disabled": 0, "type": "electric_scooter", "lon": -76.98714266666667, "bike_id": "3dec1352a0dbf471877fbad7bfb6ecaf", "fusion_lat": 0.0, "name": "3dec1352a0dbf471877fbad7bfb6ecaf", "is_reserved": 0, "rental_uris": {"android": "https://dc.lft.to/lastmile_qr_scan", "ios": "https://dc.lft.to/lastmile_qr_scan"}, "fusion_lon": 0.0}, {"lat": 38.89834583333333, "is_disabled": 0, "type": "electric_scooter", "lon": -77.02592083333333, "bike_id": "d5bf54f009e61e496cabb6633fffb10b", "fusion_lat": 0.0, "name": "d5bf54f009e61e496cabb6633fffb10b", "is_reserved": 0, "rental_uris": {"android": "https://dc.lft.to/lastmile_qr_scan", "ios": "https://dc.lft.to/lastmile_qr_scan"}, "fusion_lon": 0.0}, {"lat": 38.90084566666667, "is_disabled": 0, "type": "electric_scooter", "lon": -77.02712133333333, "bike_id": "4369aefdb12e5cf9a9c45b5d779bb204", "fusion_lat": 0.0, "name": "4369aefdb12e5cf9a9c45b5d779bb204", "is_reserved": 0, "rental_uris": {"android": "https://dc.lft.to/lastmile_qr_scan", "ios": "https://dc.lft.to/lastmile_qr_scan"}, "fusion_lon": 0.0}, {"lat": 38.84030816666667, "is_disabled": 0, "type": "electric_bike", "lon": -76.97581966666667, "bike_id": "dc67e01b2e9975cc04c3594e35d7130e", "fusion_lat": 0.0, "name": "dc67e01b2e9975cc04c3594e35d7130e", "is_reserved": 0, "rental_uris": {"android": "https://dc.lft.to/lastmile_qr_scan", "ios": "https://dc.lft.to/lastmile_qr_scan"}, "fusion_lon": 0.0}, {"lat": 38.955543, "is_disabled": 0, "type": "electric_bike", "lon": -76.93551416666666, "bike_id": "784224348adac453b8ed8fb5b81c3c51", "fusion_lat": 0.0, "name": "784224348adac453b8ed8fb5b81c3c51", "is_reserved": 0, "rental_uris": {"android": "https://dc.lft.to/lastmile_qr_scan", "ios": "https://dc.lft.to/lastmile_qr_scan"}, "fusion_lon": 0.0}, {"lat": 38.906765166666666, "is_disabled": 0, "type": "electric_scooter", "lon": -77.02716066666666, "bike_id": "33f5ed3bb0f286354fd82a9449a51a22", "fusion_lat": 0.0, "name": "33f5ed3bb0f286354fd82a9449a51a22", "is_reserved": 0, "rental_uris": {"android": "https://dc.lft.to/lastmile_qr_scan", "ios": "https://dc.lft.to/lastmile_qr_scan"}, "fusion_lon": 0.0}, {"lat": 38.898795, "is_disabled": 0, "type": "electric_scooter", "lon": -77.05338816666666, "bike_id": "5f06ad4d5ed52b55994fb9c1a910a43f", "fusion_lat": 0.0, "name": "5f06ad4d5ed52b55994fb9c1a910a43f", "is_reserved": 0, "rental_uris": {"android": "https://dc.lft.to/lastmile_qr_scan", "ios": "https://dc.lft.to/lastmile_qr_scan"}, "fusion_lon": 0.0}, {"lat": 38.948348333333335, "is_disabled": 0, "type": "electric_bike", "lon": -77.038878, "bike_id": "456be54bffa6eef7d16aef20b541eff6", "fusion_lat": 0.0, "name": "456be54bffa6eef7d16aef20b541eff6", "is_reserved": 0, "rental_uris": {"android": "https://dc.lft.to/lastmile_qr_scan", "ios": "https://dc.lft.to/lastmile_qr_scan"}, "fusion_lon": 0.0}, {"lat": 38.916761, "is_disabled": 0, "type": "electric_scooter", "lon": -77.022893, "bike_id": "0eebf8fc8a0d816ada6b118346191d00", "fusion_lat": 0.0, "name": "0eebf8fc8a0d816ada6b118346191d00", "is_reserved": 0, "rental_uris": {"android": "https://dc.lft.to/lastmile_qr_scan", "ios": "https://dc.lft.to/lastmile_qr_scan"}, "fusion_lon": 0.0}, {"lat": 38.863386166666665, "is_disabled": 0, "type": "electric_scooter", "lon": -76.99010583333333, "bike_id": "255e52d3b7ebc0187430779ad2ace94a", "fusion_lat": 0.0, "name": "255e52d3b7ebc0187430779ad2ace94a", "is_reserved": 0, "rental_uris": {"android": "https://dc.lft.to/lastmile_qr_scan", "ios": "https://dc.lft.to/lastmile_qr_scan"}, "fusion_lon": 0.0}, {"lat": 38.89915366666666, "is_disabled": 0, "type": "electric_scooter", "lon": -76.933825, "bike_id": "608e7f12790c7cf7cd9c1338e01bbbe3", "fusion_lat": 0.0, "name": "608e7f12790c7cf7cd9c1338e01bbbe3", "is_reserved": 0, "rental_uris": {"android": "https://dc.lft.to/lastmile_qr_scan", "ios": "https://dc.lft.to/lastmile_qr_scan"}, "fusion_lon": 0.0}, {"lat": 38.86643216666667, "is_disabled": 0, "type": "electric_scooter", "lon": -76.98882216666667, "bike_id": "9b6922e9f81979167c540ff84fff1f52", "fusion_lat": 0.0, "name": "9b6922e9f81979167c540ff84fff1f52", "is_reserved": 0, "rental_uris": {"android": "https://dc.lft.to/lastmile_qr_scan", "ios": "https://dc.lft.to/lastmile_qr_scan"}, "fusion_lon": 0.0}, {"lat": 38.93868, "is_disabled": 0, "type": "electric_scooter", "lon": -77.03123683333334, "bike_id": "a9615d4e771e662eda3c426872efa656", "fusion_lat": 0.0, "name": "a9615d4e771e662eda3c426872efa656", "is_reserved": 0, "rental_uris": {"android": "https://dc.lft.to/lastmile_qr_scan", "ios": "https://dc.lft.to/lastmile_qr_scan"}, "fusion_lon": 0.0}, {"lat": 38.880183333333335, "is_disabled": 0, "type": "electric_scooter", "lon": -76.96014133333334, "bike_id": "c27cef161aa1c2ae9df5484c90987489", "fusion_lat": 0.0, "name": "c27cef161aa1c2ae9df5484c90987489", "is_reserved": 0, "rental_uris": {"android": "https://dc.lft.to/lastmile_qr_scan", "ios": "https://dc.lft.to/lastmile_qr_scan"}, "fusion_lon": 0.0}, {"lat": 38.920638, "is_disabled": 0, "type": "electric_scooter", "lon": -77.04375066666667, "bike_id": "a9dd0fa1c369a2c88a82918c57051ea8", "fusion_lat": 0.0, "name": "a9dd0fa1c369a2c88a82918c57051ea8", "is_reserved": 0, "rental_uris": {"android": "https://dc.lft.to/lastmile_qr_scan", "ios": "https://dc.lft.to/lastmile_qr_scan"}, "fusion_lon": 0.0}, {"lat": 38.938647, "is_disabled": 0, "type": "electric_scooter", "lon": -77.03083183333334, "bike_id": "3a523716fce0937ccaf38f295ff7336a", "fusion_lat": 0.0, "name": "3a523716fce0937ccaf38f295ff7336a", "is_reserved": 0, "rental_uris": {"android": "https://dc.lft.to/lastmile_qr_scan", "ios": "https://dc.lft.to/lastmile_qr_scan"}, "fusion_lon": 0.0}, {"lat": 38.9002725, "is_disabled": 0, "type": "electric_scooter", "lon": -76.9898465, "bike_id": "1d7f2baea34fab8861ed4f7aa70cbcff", "fusion_lat": 0.0, "name": "1d7f2baea34fab8861ed4f7aa70cbcff", "is_reserved": 0, "rental_uris": {"android": "https://dc.lft.to/lastmile_qr_scan", "ios": "https://dc.lft.to/lastmile_qr_scan"}, "fusion_lon": 0.0}, {"lat": 38.9169825, "is_disabled": 0, "type": "electric_scooter", "lon": -77.0373935, "bike_id": "f5682f036c58ec0c18be23c09d7077c2", "fusion_lat": 0.0, "name": "f5682f036c58ec0c18be23c09d7077c2", "is_reserved": 0, "rental_uris": {"android": "https://dc.lft.to/lastmile_qr_scan", "ios": "https://dc.lft.to/lastmile_qr_scan"}, "fusion_lon": 0.0}, {"lat": 38.958772333333336, "is_disabled": 0, "type": "electric_bike", "lon": -77.01035466666667, "bike_id": "eb37b2ae5b7ce7a14c9777e3af834aff", "fusion_lat": 0.0, "name": "eb37b2ae5b7ce7a14c9777e3af834aff", "is_reserved": 0, "rental_uris": {"android": "https://dc.lft.to/lastmile_qr_scan", "ios": "https://dc.lft.to/lastmile_qr_scan"}, "fusion_lon": 0.0},