{"data": {"bikes": [{"rental_uris": {"android": "https://dc.lft.to/lastmile_qr_scan", "ios": "https://dc.lft.to/lastmile_qr_scan"}, "bike_id": "d55c6b58d86ec2011f1d9cb2b20602f9", "name": "d55c6b58d86ec2011f1d9cb2b20602f9", "type": "electric_scooter", "lon": -77.0384975, "lat": 38.91665883333334, "is_disabled": 0, "is_reserved": 0, "fusion_lat": 0.0, "fusion_lon": 0.0}, {"rental_uris": {"android": "https://dc.lft.to/lastmile_qr_scan", "ios": "https://dc.lft.to/lastmile_qr_scan"}, "bike_id": "3f6a30c5089b8ff5b175b8dfda01e0eb", "name": "3f6a30c5089b8ff5b175b8dfda01e0eb", "type": "electric_scooter", "lon": -76.99485366666667, "lat": 38.862443666666664, "is_disabled": 0, "is_reserved": 0, "fusion_lat": 0.0, "fusion_lon": 0.0}, {"rental_uris": {"android": "https://dc.lft.to/lastmile_qr_scan", "ios": "https://dc.lft.to/lastmile_qr_scan"}, "bike_id": "a0d693114f423ef58a6d9a0fa7d09e8a", "name": "a0d693114f423ef58a6d9a0fa7d09e8a", "type": "electric_scooter", "lon": -76.99261983333334, "lat": 38.8624615, "is_disabled": 0, "is_reserved": 0, "fusion_lat": 0.0, "fusion_lon": 0.0}, {"rental_uris": {"android": "https://dc.lft.to/lastmile_qr_scan", "ios": "https://dc.lft.to/lastmile_qr_scan"}, "bike_id": "54f908e383537986dc85c364c3815ebe", "name": "54f908e383537986dc85c364c3815ebe", "type": "electric_bike", "lon": -76.89536633333333, "lat": 38.945520333333334, "is_disabled": 0, "is_reserved": 0, "fusion_lat": 0.0, "fusion_lon": 0.0}, {"rental_uris": {"android": "https://dc.lft.to/lastmile_qr_scan", "ios": "https://dc.lft.to/lastmile_qr_scan"}, "bike_id": "73fff5b046a7c33653d1010c408249fc", "name": "73fff5b046a7c33653d1010c408249fc", "type": "electric_scooter", "lon": -77.0268455, "lat": 38.898392333333334, "is_disabled": 0, "is_reserved": 0, "fusion_lat": 0.0, "fusion_lon": 0.0}, {"rental_uris": {"android": "https://dc.lft.to/lastmile_qr_scan", "ios": "https://dc.lft.to/lastmile_qr_scan"}, "bike_id": "0f873021d8b099fdb1f852821816c64c", "name": "0f873021d8b099fdb1f852821816c64c", "type": "electric_scooter", "lon": -77.045221, "lat": 38.9027245, "is_disabled": 0, "is_reserved": 0, "fusion_lat": 0.0, "fusion_lon": 0.0}, {"rental_uris": {"android": "https://dc.lft.to/lastmile_qr_scan", "ios": "https://dc.lft.to/lastmile_qr_scan"}, "bike_id": "0ce12f38f7456ccbed5f4eb9184aecde", "name": "0ce12f38f7456ccbed5f4eb9184aecde", "type": "electric_scooter", "lon": -77.01561416666667, "lat": 38.89181716666667, "is_disabled": 0, "is_reserved": 0, "fusion_lat": 0.0, "fusion_lon": 0.0}, {"rental_uris": {"android": "https://dc.lft.to/lastmile_qr_scan", "ios": "https://dc.lft.to/lastmile_qr_scan"}, "bike_id": "a53d0347eaa184f63f277f07681c550c", "name": "a53d0347eaa184f63f277f07681c550c", "type": "electric_scooter", "lon": -77.02396583333334, "lat": 38.9162065, "is_disabled": 0, "is_reserved": 0, "fusion_lat": 0.0, "fusion_lon": 0.0}, {"rental_uris": {"android": "https://dc.lft.to/lastmile_qr_scan", "ios": "https://dc.lft.to/lastmile_qr_scan"}, "bike_id": "fcbdc2f77fe71fb283bfc4c0a3e3cf82", "name": "fcbdc2f77fe71fb283bfc4c0a3e3cf82", "type": "electric_scooter", "lon": -77.016667, "lat": 38.88115766666667, "is_disabled": 0, "is_reserved": 0, "fusion_lat": 0.0, "fusion_lon": 0.0}, {"rental_uris": {"android": "https://dc.lft.to/lastmile_qr_scan", "ios": "https://dc.lft.to/lastmile_qr_scan"}, "bike_id": "7771270823c75843fcdd4acb04a671fb", "name": "7771270823c75843fcdd4acb04a671fb", "type": "electric_scooter", "lon": -77.04462483333333, "lat": 38.90544, "is_disabled": 0, "is_reserved": 0, "fusion_lat": 0.0, "fusion_lon": 0.0}, {"rental_uris": {"android": "https://dc.lft.to/lastmile_qr_scan", "ios": "https://dc.lft.to/lastmile_qr_scan"}, "bike_id": "98c8faf7a1ffa529b5cb0994aed6cc20", "name": "98c8faf7a1ffa529b5cb0994aed6cc20", "type": "electric_scooter", "lon": -77.02729833333333, "lat": 38.9408775, "is_disabled": 0, "is_reserved": 0, "fusion_lat": 0.0, "fusion_lon": 0.0}, {"rental_uris": {"android": "https://dc.lft.to/lastmile_qr_scan", "ios": "https://dc.lft.to/lastmile_qr_scan"}, "bike_id": "dde4c17a03d05e9ad461f69c2ced1819", "name": "dde4c17a03d05e9ad461f69c2ced1819", "type": "electric_scooter", "lon": -77.0635085, "lat": 38.94451816666667, "is_disabled": 0, "is_reserved": 0, "fusion_lat": 0.0, "fusion_lon": 0.0}, {"rental_uris": {"android": "https://dc.lft.to/lastmile_qr_scan", "ios": "https://dc.lft.to/lastmile_qr_scan"}, "bike_id": "b5f6ba1434482c44e86fe5dcef42de91", "name": "b5f6ba1434482c44e86fe5dcef42de91", "type": "electric_scooter", "lon": -77.03287916666666, "lat": 38.923478333333335, "is_disabled": 0, "is_reserved": 0, "fusion_lat": 0.0, "fusion_lon": 0.0}, {"rental_uris": {"android": "https://dc.lft.to/lastmile_qr_scan", "ios": "https://dc.lft.to/lastmile_qr_scan"}, "bike_id": "46d5228dbd78d8dcb57e7769ef85b1f4", "name": "46d5228dbd78d8dcb57e7769ef85b1f4", "type": "electric_scooter", "lon": -77.0325955, "lat": 38.9397135, "is_disabled": 0, "is_reserved": 0, "fusion_lat": 0.0, "fusion_lon": 0.0}, {"rental_uris": {"android": "https://dc.lft.to/lastmile_qr_scan", "ios": "https://dc.lft.to/lastmile_qr_scan"}, "bike_id": "796fd72d93a8c5668b91eae24a9dc4b2", "name": "796fd72d93a8c5668b91eae24a9dc4b2", "type": "electric_scooter", "lon": -77.0387225, "lat": 38.90278416666666, "is_disabled": 0, "is_reserved": 0, "fusion_lat": 0.0, "fusion_lon": 0.0}, {"rental_uris": {"android": "https://dc.lft.to/lastmile_qr_scan", "ios": "https://dc.lft.to/lastmile_qr_scan"}, "bike_id": "78cb6287f38d44359770086a57520724", "name": "78cb6287f38d44359770086a57520724", "type": "electric_scooter", "lon": -77.03377466666667, "lat": 38.900135166666665, "is_disabled": 0, "is_reserved": 0, "fusion_lat": 0.0, "fusion_lon": 0.0}, {"rental_uris": {"android": "https://dc.lft.to/lastmile_qr_scan", "ios": "https://dc.lft.to/lastmile_qr_scan"}, "bike_id": "16e3c4e0edfede3dcdfa6d82181e2ccb", "name": "16e3c4e0edfede3dcdfa6d82181e2ccb", "type": "electric_scooter", "lon": -77.007245, "lat": 38.88491966666667, "is_disabled": 0, "is_reserved": 0, "fusion_lat": 0.0, "fusion_lon": 0.0}, {"rental_uris": {"android": "https://dc.lft.to/lastmile_qr_scan", "ios": "https://dc.lft.to/lastmile_qr_scan"}, "bike_id": "cdaf8baf52d7c61957245e07f37e4094", "name": "cdaf8baf52d7c61957245e07f37e4094", "type": "electric_scooter", "lon": -77.04141516666667, "lat": 38.8935075, "is_disabled": 0, "is_reserved": 0, "fusion_lat": 0.0, "fusion_lon": 0.0}, {"rental_uris": {"android": "https://dc.lft.to/lastmile_qr_scan", "ios": "https://dc.lft.to/lastmile_qr_scan"}, "bike_id": "091ac75ba141614eb8ce1eee47191094", "name": "091ac75ba141614eb8ce1eee47191094", "type": "electric_scooter", "lon": -77.04645083333334, "lat": 38.91937016666667, "is_disabled": 0, "is_reserved": 0, "fusion_lat": 0.0, "fusion_lon": 0.0}, {"rental_uris": {"android": "https://dc.lft.to/lastmile_qr_scan", "ios": "https://dc.lft.to/lastmile_qr_scan"}, "bike_id": "fa162e8caf3a2db18c94f9fefc794ff4", "name": "fa162e8caf3a2db18c94f9fefc794ff4", "type": "electric_scooter", "lon": -76.99855266666667, "lat": 38.903671833333334, "is_disabled": 0, "is_reserved": 0, "fusion_lat": 0.0, "fusion_lon": 0.0}, {"rental_uris": {"android": "https://dc.lft.to/lastmile_qr_scan", "ios": "https://dc.lft.to/lastmile_qr_scan"}, "bike_id": "3fe8334aa058f85c9268d3aa166852ea", "name": "3fe8334aa058f85c9268d3aa166852ea", "type": "electric_scooter", "lon": -77.03721783333333, "lat": 38.91261016666667, "is_disabled": 0, "is_reserved": 0, "fusion_lat": 0.0, "fusion_lon": 0.0}, {"rental_uris": {"android": "https://dc.lft.to/lastmile_qr_scan", "ios": "https://dc.lft.to/lastmile_qr_scan"}, "bike_id": "a966ea3dce4c45ee521e4637a626684d", "name": "a966ea3dce4c45ee521e4637a626684d", "type": "electric_scooter", "lon": -76.99624616666667, "lat": 38.900338, "is_disabled": 0, "is_reserved": 0, "fusion_lat": 0.0, "fusion_lon": 0.0}, {"rental_uris": {"android": "https://dc.lft.to/lastmile_qr_scan", "ios": "https://dc.lft.to/lastmile_qr_scan"}, "bike_id": "1a7f256b38675fa3f9287fc495f2be5b", "name": "1a7f256b38675fa3f9287fc495f2be5b", "type": "electric_scooter", "lon": -77.0173385, "lat": 38.90352133333333, "is_disabled": 0, "is_reserved": 0, "fusion_lat": 0.0, "fusion_lon": 0.0}, {"rental_uris": {"android": "https://dc.lft.to/lastmile_qr_scan", "ios": "https://dc.lft.to/lastmile_qr_scan"}, "bike_id": "a1798573e3a075a5b552d8148d5721c4", "name": "a1798573e3a075a5b552d8148d5721c4", "type": "electric_scooter", "lon": -77.01377333333333, "lat": 38.8933475, "is_disabled": 0, "is_reserved": 0, "fusion_lat": 0.0, "fusion_lon": 0.0}, {"rental_uris": {"android": "https://dc.lft.to/lastmile_qr_scan", "ios": "https://dc.lft.to/lastmile_qr_scan"}, "bike_id": "dbf461f89e601977629ec32a0134c3e6", "name": "dbf461f89e601977629ec32a0134c3e6", "type": "electric_scooter", "lon": -77.03395883333333, "lat": 38.92870383333333, "is_disabled": 0, "is_reserved": 0, "fusion_lat": 0.0, "fusion_lon": 0.0}, {"rental_uris": {"android": "https://dc.lft.to/lastmile_qr_scan", "ios": "https://dc.lft.to/lastmile_qr_scan"}, "bike_id": "18a8eef8986979143a5b14e6b1faf2c0", "name": "18a8eef8986979143a5b14e6b1faf2c0", "type": "electric_scooter", "lon": -77.03470483333334, "lat": 38.906218333333335, "is_disabled": 0, "is_reserved": 0, "fusion_lat": 0.0, "fusion_lon": 0.0}, {"rental_uris": {"android": "https://dc.lft.to/lastmile_qr_scan", "ios": "https://dc.lft.to/lastmile_qr_scan"}, "bike_id": "f664bd5f0fa9078e68a7d2781fc04ae2", "name": "f664bd5f0fa9078e68a7d2781fc04ae2", "type": "electric_scooter", "lon": -77.03864233333333, "lat": 38.911837166666665, "is_disabled": 0, "is_reserved": 0, "fusion_lat": 0.0, "fusion_lon": 0.0}, {"rental_uris": {"android": "https://dc.lft.to/lastmile_qr_scan", "ios": "https://dc.lft.to/lastmile_qr_scan"}, "bike_id": "1fd6aa94fdcb71913607832c230780f5", "name": "1fd6aa94fdcb71913607832c230780f5", "type": "electric_bike", "lon": -77.078489, "lat": 38.931419166666664, "is_disabled": 0, "is_reserved": 0, "fusion_lat": 0.0, "fusion_lon": 0.0}, {"rental_uris": {"android": "https://dc.lft.to/lastmile_qr_scan", "ios": "https://dc.lft.to/lastmile_qr_scan"}, "bike_id": "a900e8b08234e66360da0790852f8d79", "name": "a900e8b08234e66360da0790852f8d79", "type": "electric_scooter", "lon": -77.04087883333334, "lat": 38.91044016666667, "is_disabled": 0, "is_reserved": 0, "fusion_lat": 0.0, "fusion_lon": 0.0}, {"rental_uris": {"android": "https://dc.lft.to/lastmile_qr_scan", "ios": "https://dc.lft.to/lastmile_qr_scan"}, "bike_id": "05bcb8bc17f46a9c2527c5a581f1509d", "name": "05bcb8bc17f46a9c2527c5a581f1509d", "type": "electric_scooter", "lon": -77.03132966666666, "lat": 38.92377, "is_disabled": 0, "is_reserved": 0, "fusion_lat": 0.0, "fusion_lon": 0.0}, {"rental_uris": {"android": "https://dc.lft.to/lastmile_qr_scan", "ios": "https://dc.lft.to/lastmile_qr_scan"}, "bike_id": "99f9d748ef75a8773ddb101906d37952", "name": "99f9d748ef75a8773ddb101906d37952", "type": "electric_scooter", "lon": -77.0270945, "lat": 38.901303166666665, "is_disabled": 0, "is_reserved": 0, "fusion_lat": 0.0, "fusion_lon": 0.0}, {"rental_uris": {"android": "https://dc.lft.to/lastmile_qr_scan", "ios": "https://dc.lft.to/lastmile_qr_scan"}, "bike_id": "ca1d5dfe6e7c371f047bce21ee3e3cd5", "name": "ca1d5dfe6e7c371f047bce21ee3e3cd5", "type": "electric_scooter", "lon": -77.02296333333334, "lat": 38.920837166666665, "is_disabled": 0, "is_reserved": 0, "fusion_lat": 0.0, "fusion_lon": 0.0}, {"rental_uris": {"android": "https://dc.lft.to/lastmile_qr_scan", "ios": "https://dc.lft.to/lastmile_qr_scan"}, "bike_id": "8a3fcc4de774e8c1335daa93e7c29a37", "name": "8a3fcc4de774e8c1335daa93e7c29a37", "type": "electric_scooter", "lon": -77.04829666666667, "lat": 38.911091166666665, "is_disabled": 0, "is_reserved": 0, "fusion_lat": 0.0, "fusion_lon": 0.0}, {"rental_uris": {"android": "https://dc.lft.to/lastmile_qr_scan", "ios": "https://dc.lft.to/lastmile_qr_scan"}, "bike_id": "9109f3557cc0401d3f30bc34861fdb54", "name": "9109f3557cc0401d3f30bc34861fdb54", "type": "electric_bike", "lon": -77.09523283333333, "lat": 38.83812433333333, "is_disabled": 0, "is_reserved": 0, "fusion_lat": 0.0, "fusion_lon": 0.0}, {"rental_uris": {"android": "https://dc.lft.to/lastmile_qr_scan", "ios": "https://dc.lft.to/lastmile_qr_scan"}, "bike_id": "56e31a1a1b0cbeb71fabeca4d92d5d9b", "name": "56e31a1a1b0cbeb71fabeca4d92d5d9b", "type": "electric_scooter", "lon": -77.05323666666666, "lat": 38.9026155, "is_disabled": 0, "is_reserved": 0, "fusion_lat": 0.0, "fusion_lon": 0.0}, {"rental_uris": {"android": "https://dc.lft.to/lastmile_qr_scan", "ios": "https://dc.lft.to/lastmile_qr_scan"}, "bike_id": "b24c373336405c093c111b4d9a82b98c", "name": "b24c373336405c093c111b4d9a82b98c", "type": "electric_bike", "lon": -77.22798983333334, "lat": 38.91017766666667, "is_disabled": 0, "is_reserved": 0, "fusion_lat": 0.0, "fusion_lon": 0.0}, {"rental_uris": {"android": "https://dc.lft.to/lastmile_qr_scan", "ios": "https://dc.lft.to/lastmile_qr_scan"}, "bike_id": "94dbfce712f16c2a6bf5ca52002894c5", "name": "94dbfce712f16c2a6bf5ca52002894c5", "type": "electric_bike", "lon": -77.21648183333333, "lat": 38.93007, "is_disabled": 0, "is_reserved": 0, "fusion_lat": 0.0, "fusion_lon": 0.0}, {"rental_uris": {"android": "https://dc.lft.to/lastmile_qr_scan", "ios": "https://dc.lft.to/lastmile_qr_scan"}, "bike_id": "c868c8551c902952f09a6165b1931ac9", "name": "c868c8551c902952f09a6165b1931ac9", "type": "electric_scooter", "lon": -77.02307016666667, "lat": 38.9272085, "is_disabled": 0, "is_reserved": 0, "fusion_lat": 0.0, "fusion_lon": 0.0}, {"rental_uris": {"android": "https://dc.lft.to/lastmile_qr_scan", "ios": "https://dc.lft.to/lastmile_qr_scan"}, "bike_id": "6e5f5f50addd3747dc1b63f2f116c5d6", "name": "6e5f5f50addd3747dc1b63f2f116c5d6", "type": "electric_bike", "lon": -77.05875333333333, "lat": 38.95894233333333, "is_disabled": 0, "is_reserved": 0, "fusion_lat": 0.0, "fusion_lon": 0.0}, {"rental_uris": {"android": "https://dc.lft.to/lastmile_qr_scan", "ios": "https://dc.lft.to/lastmile_qr_scan"}, "bike_id": "467b849a73ec7d538f12b17c132bb792", "name": "467b849a73ec7d538f12b17c132bb792", "type": "electric_scooter", "lon": -77.02385083333333, "lat": 38.91959816666667, "is_disabled": 0, "is_reserved": 0, "fusion_lat": 0.0, "fusion_lon": 0.0}, {"rental_uris": {"android": "https://dc.lft.to/lastmile_qr_scan", "ios": "https://dc.lft.to/lastmile_qr_scan"}, "bike_id": "fd9ba09b3d52f61cc779fc7aefca8028", "name": "fd9ba09b3d52f61cc779fc7aefca8028", "type": "electric_scooter", "lon": -77.0210665, "lat": 38.915861666666665, "is_disabled": 0, "is_reserved": 0, "fusion_lat": 0.0, "fusion_lon": 0.0}, {"rental_uris": {"android": "https://dc.lft.to/lastmile_qr_scan", "ios": "https://dc.lft.to/lastmile_qr_scan"}, "bike_id": "9f065699fbad9ae6a040aeab985a48b0", "name": "9f065699fbad9ae6a040aeab985a48b0", "type": "electric_scooter", "lon": -77.0421025, "lat": 38.907044166666665, "is_disabled": 0, "is_reserved": 0, "fusion_lat": 0.0, "fusion_lon": 0.0}, {"rental_uris": {"android": "https://dc.lft.to/lastmile_qr_scan", "ios": "https://dc.lft.to/lastmile_qr_scan"}, "bike_id": "63bbcf09a81795880e9dd7fe03494dd6", "name": "63bbcf09a81795880e9dd7fe03494dd6", "type": "electric_scooter", "lon": -77.03435333333333, "lat": 38.91234016666667, "is_disabled": 0, "is_reserved": 0, "fusion_lat": 0.0, "fusion_lon": 0.0}, {"rental_uris": {"android": "https://dc.lft.to/lastmile_qr_scan", "ios": "https://dc.lft.to/lastmile_qr_scan"}, "bike_id": "43d11572affffc0d856f030bd807f5ff", "name": "43d11572affffc0d856f030bd807f5ff", "type": "electric_scooter", "lon": -76.9373655, "lat": 38.89012783333333, "is_disabled": 0, "is_reserved": 0, "fusion_lat": 0.0, "fusion_lon": 0.0}, {"rental_uris": {"android": "https://dc.lft.to/lastmile_qr_scan", "ios": "https://dc.lft.to/lastmile_qr_scan"}, "bike_id": "3a57a85c28ff1a31cc9df884e63eed21", "name": "3a57a85c28ff1a31cc9df884e63eed21", "type": "electric_scooter", "lon": -77.03013966666667, "lat": 38.90507083333333, "is_disabled": 0, "is_reserved": 0, "fusion_lat": 0.0, "fusion_lon": 0.0}, {"rental_uris": {"android": "https://dc.lft.to/lastmile_qr_scan", "ios": "https://dc.lft.to/lastmile_qr_scan"}, "bike_id": "c76372845b880934a9870835f593d00f", "name": "c76372845b880934a9870835f593d00f", "type": "electric_bike", "lon": -77.0464835, "lat": 39.05501783333333, "is_disabled": 0, "is_reserved": 0, "fusion_lat": 0.0, "fusion_lon": 0.0}, {"rental_uris": {"android": "https://dc.lft.to/lastmile_qr_scan", "ios": "https://dc.lft.to/lastmile_qr_scan"}, "bike_id": "9862974e13288fa8f7cda22555152368", "name": "9862974e13288fa8f7cda22555152368", "type": "electric_bike", "lon": -77.02881866666667, "lat": 38.99850416666666, "is_disabled": 0, "is_reserved": 0, "fusion_lat": 0.0, "fusion_lon": 0.0}, {"rental_uris": {"android": "https://dc.lft.to/lastmile_qr_scan", "ios": "https://dc.lft.to/lastmile_qr_scan"}, "bike_id": "2336337a12e9c934b09849a8a77a280b", "name": "2336337a12e9c934b09849a8a77a280b", "type": "electric_scooter", "lon": -76.988853, "lat": 38.8665365, "is_disabled": 0, "is_reserved": 0, "fusion_lat": 0.0, "fusion_lon": 0.0}, {"rental_uris": {"android": "https://dc.lft.to/lastmile_qr_scan", "ios": "https://dc.lft.to/lastmile_qr_scan"}, "bike_id": "998598b9ea88a027a7fe58c33a222caa", "name": "998598b9ea88a027a7fe58c33a222caa", "type": "electric_scooter", "lon": -77.03188216666666, "lat": 38.903563, "is_disabled": 0, "is_reserved": 0, "fusion_lat": 0.0, "fusion_lon": 0.0}, {"rental_uris": {"android": "https://dc.lft.to/lastmile_qr_scan", "ios": "https://dc.lft.to/lastmile_qr_scan"}, "bike_id": "4832cd7cb696892f199b81ede5a7acce", "name": "4832cd7cb696892f199b81ede5a7acce", "type": "electric_scooter", "lon": -77.03980133333333, "lat": 38.90269333333333, "is_disabled": 0, "is_reserved": 0, "fusion_lat": 0.0, "fusion_lon": 0.0}, {"rental_uris": {"android": "https://dc.lft.to/lastmile_qr_scan", "ios": "https://dc.lft.to/lastmile_qr_scan"}, "bike_id": "6cdc8d34f727bf609dcccd3e17135f76", "name": "6cdc8d34f727bf609dcccd3e17135f76", "type": "electric_scooter", "lon": -77.03857233333333, "lat": 38.91776016666667, "is_disabled": 0, "is_reserved": 0, "fusion_lat": 0.0, "fusion_lon": 0.0}, {"rental_uris": {"android": "https://dc.lft.to/lastmile_qr_scan", "ios": "https://dc.lft.to/lastmile_qr_scan"}, "bike_id": "eca6dcee444864c6c6dbc57fbfb65601", "name": "eca6dcee444864c6c6dbc57fbfb65601", "type": "electric_scooter", "lon": -77.01999466666666, "lat": 38.909472, "is_disabled": 0, "is_reserved": 0, "fusion_lat": 0.0, "fusion_lon": 0.0}, {"rental_uris": {"android": "https://dc.lft.to/lastmile_qr_scan", "ios": "https://dc.lft.to/lastmile_qr_scan"}, "bike_id": "1e03ed4402223c1ca803905ffa4b1e97", "name": "1e03ed4402223c1ca803905ffa4b1e97", "type": "electric_scooter", "lon": -77.03441016666666, "lat": 38.91842166666667, "is_disabled": 0, "is_reserved": 0, "fusion_lat": 0.0, "fusion_lon": 0.0}, {"rental_uris": {"android": "https://dc.lft.to/lastmile_qr_scan", "ios": "https://dc.lft.to/lastmile_qr_scan"}, "bike_id": "a9d95940cbc11f08cd954043932e907e", "name": "a9d95940cbc11f08cd954043932e907e", "type": "electric_scooter", "lon": -77.02598283333333, "lat": 38.91692716666667, "is_disabled": 0, "is_reserved": 0, "fusion_lat": 0.0, "fusion_lon": 0.0}, {"rental_uris": {"android": "https://dc.lft.to/lastmile_qr_scan", "ios": "https://dc.lft.to/lastmile_qr_scan"}, "bike_id": "7b4dc36993e4adc375cd2027b1997efd", "name": "7b4dc36993e4adc375cd2027b1997efd", "type": "electric_scooter", "lon": -77.03239333333333, "lat": 38.928705666666666, "is_disabled": 0, "is_reserved": 0, "fusion_lat": 0.0, "fusion_lon": 0.0}, {"rental_uris": {"android": "https://dc.lft.to/lastmile_qr_scan", "ios": "https://dc.lft.to/lastmile_qr_scan"}, "bike_id": "93c8aed80087895a1dbf6dbe70db713a", "name": "93c8aed80087895a1dbf6dbe70db713a", "type": "electric_scooter", "lon": -77.03489633333334, "lat": 38.9326145, "is_disabled": 0, "is_reserved": 0, "fusion_lat": 0.0, "fusion_lon": 0.0}, {"rental_uris": {"android": "https://dc.lft.to/lastmile_qr_scan", "ios": "https://dc.lft.to/lastmile_qr_scan"}, "bike_id": "08b85b1a3ea789b8e33ac9a4cee70e90", "name": "08b85b1a3ea789b8e33ac9a4cee70e90", "type": "electric_scooter", "lon": -77.05425383333333, "lat": 38.92347766666666, "is_disabled": 0, "is_reserved": 0, "fusion_lat": 0.0, "fusion_lon": 0.0}, {"rental_uris": {"android": "https://dc.lft.to/lastmile_qr_scan", "ios": "https://dc.lft.to/lastmile_qr_scan"}, "bike_id": "4175519d1d27172edcfdb7b668e804b5", "name": "4175519d1d27172edcfdb7b668e804b5", "type": "electric_scooter", "lon": -77.02285783333333, "lat": 38.91571233333333, "is_disabled": 0, "is_reserved": 0, "fusion_lat": 0.0, "fusion_lon": 0.0}, {"rental_uris": {"android": "https://dc.lft.to/lastmile_qr_scan", "ios": "https://dc.lft.to/lastmile_qr_scan"}, "bike_id": "841b5e5ac6ff47de187dc9f59a173dbf", "name": "841b5e5ac6ff47de187dc9f59a173dbf", "type": "electric_scooter", "lon": -77.04201133333333, "lat": 38.92277983333334, "is_disabled": 0, "is_reserved": 0, "fusion_lat": 0.0, "fusion_lon": 0.0}, {"rental_uris": {"android": "https://dc.lft.to/lastmile_qr_scan", "ios": "https://dc.lft.to/lastmile_qr_scan"}, "bike_id": "9ed1f31b16aada4244349db6868108fa", "name": "9ed1f31b16aada4244349db6868108fa", "type": "electric_scooter", "lon": -77.033742, "lat": 38.89959066666667, "is_disabled": 0, "is_reserved": 0, "fusion_lat": 0.0, "fusion_lon": 0.0}, {"rental_uris": {"android": "https://dc.lft.to/lastmile_qr_scan", "ios": "https://dc.lft.to/lastmile_qr_scan"}, "bike_id": "22065169d5ecf3e070936078d1756e6f", "name": "22065169d5ecf3e070936078d1756e6f", "type": "electric_scooter", "lon": -77.01642183333334, "lat": 38.91037216666667, "is_disabled": 0, "is_reserved": 0, "fusion_lat": 0.0, "fusion_lon": 0.0}, {"rental_uris": {"android": "https://dc.lft.to/lastmile_qr_scan", "ios": "https://dc.lft.to/lastmile_qr_scan"}, "bike_id": "e4e4f1e82d68d8b974a9d2dd9b276d99", "name": "e4e4f1e82d68d8b974a9d2dd9b276d99", "type": "electric_scooter", "lon": -77.00975516666666, "lat": 38.91564416666667, "is_disabled": 0, "is_reserved": 0, "fusion_lat": 0.0, "fusion_lon": 0.0}, {"rental_uris": {"android": "https://dc.lft.to/lastmile_qr_scan", "ios": "https://dc.lft.to/lastmile_qr_scan"}, "bike_id": "4014a8a107ddfae3c7ce3e2b5b433073", "name": "4014a8a107ddfae3c7ce3e2b5b433073", "type": "electric_scooter", "lon": -77.03201166666666, "lat": 38.89990916666667, "is_disabled": 0, "is_reserved": 0, "fusion_lat": 0.0, "fusion_lon": 0.0}, {"rental_uris": {"android": "https://dc.lft.to/lastmile_qr_scan", "ios": "https://dc.lft.to/lastmile_qr_scan"}, "bike_id": "9fb29287c70af336124c79563e1d809a", "name": "9fb29287c70af336124c79563e1d809a", "type": "electric_scooter", "lon": -76.960074, "lat": 38.89644883333333, "is_disabled": 0, "is_reserved": 0, "fusion_lat": 0.0, "fusion_lon": 0.0}, {"rental_uris": {"android": "https://dc.lft.to/lastmile_qr_scan", "ios": "https://dc.lft.to/lastmile_qr_scan"}, "bike_id": "ccba61c0f988b839c79cf99c11b5f040", "name": "ccba61c0f988b839c79cf99c11b5f040", "type": "electric_scooter", "lon": -76.96600733333334, "lat": 38.87380866666667, "is_disabled": 0, "is_reserved": 0, "fusion_lat": 0.0, "fusion_lon": 0.0}, {"rental_uris": {"android": "https://dc.lft.to/lastmile_qr_scan", "ios": "https://dc.lft.to/lastmile_qr_scan"}, "bike_id": "0d14704bd327ddb825e3e0f6fb04d8d8", "name": "0d14704bd327ddb825e3e0f6fb04d8d8", "type": "electric_scooter", "lon": -77.05571883333333, "lat": 38.89982466666667, "is_disabled": 0, "is_reserved": 0, "fusion_lat": 0.0, "fusion_lon": 0.0}, {"rental_uris": {"android": "https://dc.lft.to/lastmile_qr_scan", "ios": "https://dc.lft.to/lastmile_qr_scan"}, "bike_id": "e6f45c881c5c9fefae3ddd324ba54db6", "name": "e6f45c881c5c9fefae3ddd324ba54db6", "type": "electric_scooter", "lon": -77.01533166666667, "lat": 38.887387833333335, "is_disabled": 0, "is_reserved": 0, "fusion_lat": 0.0, "fusion_lon": 0.0}, {"rental_uris": {"android": "https://dc.lft.to/lastmile_qr_scan", "ios": "https://dc.lft.to/lastmile_qr_scan"}, "bike_id": "866f0871ee670346ce99d70b2c9a5a44", "name": "866f0871ee670346ce99d70b2c9a5a44", "type": "electric_bike", "lon": -77.00636466666667, "lat": 38.948353833333336, "is_disabled": 0, "is_reserved": 0, "fusion_lat": 0.0, "fusion_lon": 0.0}, {"rental_uris": {"android": "https://dc.lft.to/lastmile_qr_scan", "ios": "https://dc.lft.to/lastmile_qr_scan"}, "bike_id": "b3389ef22fcc56dce2825d12da60f5a1", "name": "b3389ef22fcc56dce2825d12da60f5a1", "type": "electric_scooter", "lon": -76.98373833333333, "lat": 38.885901833333335, "is_disabled": 0, "is_reserved": 0, "fusion_lat": 0.0, "fusion_lon": 0.0}, {"rental_uris": {"android": "https://dc.lft.to/lastmile_qr_scan", "ios": "https://dc.lft.to/lastmile_qr_scan"}, "bike_id": "66203b401fd59410b1602cbeb0bab855", "name": "66203b401fd59410b1602cbeb0bab855", "type": "electric_scooter", "lon": -77.03183616666666, "lat": 38.91069816666667, "is_disabled": 0, "is_reserved": 0, "fusion_lat": 0.0, "fusion_lon": 0.0}, {"rental_uris": {"android": "https://dc.lft.to/lastmile_qr_scan", "ios": "https://dc.lft.to/lastmile_qr_scan"}, "bike_id": "2db61ae379f7dc5725b3505a3606da25", "name": "2db61ae379f7dc5725b3505a3606da25", "type": "electric_scooter", "lon": -76.99017083333334, "lat": 38.905039, "is_disabled": 0, "is_reserved": 0, "fusion_lat": 0.0, "fusion_lon": 0.0}, {"rental_uris": {"android": "https://dc.lft.to/lastmile_qr_scan", "ios": "https://dc.lft.to/lastmile_qr_scan"}, "bike_id": "59823300c2ee4a3f8373d8463353da09", "name": "59823300c2ee4a3f8373d8463353da09", "type": "electric_scooter", "lon": -77.03466516666667, "lat": 38.917004666666664, "is_disabled": 0, "is_reserved": 0, "fusion_lat": 0.0, "fusion_lon": 0.0}, {"rental_uris": {"android": "https://dc.lft.to/lastmile_qr_scan", "ios": "https://dc.lft.to/lastmile_qr_scan"}, "bike_id": "b4697c17e98fd07240f5582b20ac1c86", "name": "b4697c17e98fd07240f5582b20ac1c86", "type": "electric_scooter", "lon": -77.04999883333333, "lat": 38.892262, "is_disabled": 0, "is_reserved": 0, "fusion_lat": 0.0, "fusion_lon": 0.0}, {"rental_uris": {"android": "https://dc.lft.to/lastmile_qr_scan", "ios": "https://dc.lft.to/lastmile_qr_scan"}, "bike_id": "6d969189a067b3ffd1d8f74748be294d", "name": "6d969189a067b3ffd1d8f74748be294d", "type": "electric_scooter", "lon": -77.04140283333334, "lat": 38.9230125, "is_disabled": 0, "is_reserved": 0, "fusion_lat": 0.0, "fusion_lon": 0.0}, {"rental_uris": {"android": "https://dc.lft.to/lastmile_qr_scan", "ios": "https://dc.lft.to/lastmile_qr_scan"}, "bike_id": "0bad8e1dbbd99d2e1862b1b39d19af23", "name": "0bad8e1dbbd99d2e1862b1b39d19af23", "type": "electric_scooter", "lon": -77.03090383333333, "lat": 38.9375545, "is_disabled": 0, "is_reserved": 0, "fusion_lat": 0.0, "fusion_lon": 0.0}, {"rental_uris": {"android": "https://dc.lft.to/lastmile_qr_scan", "ios": "https://dc.lft.to/lastmile_qr_scan"}, "bike_id": "c74ddec488b703b8ae0f835d1d055177", "name": "c74ddec488b703b8ae0f835d1d055177", "type": "electric_bike", "lon": -76.93645266666667, "lat": 38.8714785, "is_disabled": 0, "is_reserved": 0, "fusion_lat": 0.0, "fusion_lon": 0.0}, {"rental_uris": {"android": "https://dc.lft.to/lastmile_qr_scan", "ios": "https://dc.lft.to/lastmile_qr_scan"}, "bike_id": "926c6a60c9a3a9800f0d4c0cb2b813c8", "name": "926c6a60c9a3a9800f0d4c0cb2b813c8", "type": "electric_scooter", "lon": -77.05916383333333, "lat": 38.90100133333333, "is_disabled": 0, "is_reserved": 0, "fusion_lat": 0.0, "fusion_lon": 0.0}, {"rental_uris": {"android": "https://dc.lft.to/lastmile_qr_scan", "ios": "https://dc.lft.to/lastmile_qr_scan"}, "bike_id": "b11ef6d6b8dbda93918d017202c2f6e0", "name": "b11ef6d6b8dbda93918d017202c2f6e0", "type": "electric_scooter", "lon": -76.96866216666666, "lat": 38.870942166666666, "is_disabled": 0, "is_reserved": 0, "fusion_lat": 0.0, "fusion_lon": 0.0}, {"rental_uris": {"android": "https://dc.lft.to/lastmile_qr_scan", "ios": "https://dc.lft.to/lastmile_qr_scan"}, "bike_id": "e23e6b7d992cabc7c51ff27ef8ade4e9", "name": "e23e6b7d992cabc7c51ff27ef8ade4e9", "type": "electric_scooter", "lon": -77.0022495, "lat": 38.9250985, "is_disabled": 0, "is_reserved": 0, "fusion_lat": 0.0, "fusion_lon": 0.0}, {"rental_uris": {"android": "https://dc.lft.to/lastmile_qr_scan", "ios": "https://dc.lft.to/lastmile_qr_scan"}, "bike_id": "e95107f567cfa70d93e48503452c4bf0", "name": "e95107f567cfa70d93e48503452c4bf0", "type": "electric_scooter", "lon": -77.04771583333333, "lat": 38.8960795, "is_disabled": 0, "is_reserved": 0, "fusion_lat": 0.0, "fusion_lon": 0.0}, {"rental_uris": {"android": "https://dc.lft.to/lastmile_qr_scan", "ios": "https://dc.lft.to/lastmile_qr_scan"}, "bike_id": "890c650563e20f42228890dfce72d858", "name": "890c650563e20f42228890dfce72d858", "type": "electric_scooter", "lon": -77.04647916666667, "lat": 38.9192295, "is_disabled": 0, "is_reserved": 0, "fusion_lat": 0.0, "fusion_lon": 0.0}, {"rental_uris": {"android": "https://dc.lft.to/lastmile_qr_scan", "ios": "https://dc.lft.to/lastmile_qr_scan"}, "bike_id": "1238829f61becf6283be596c24880dd2", "name": "1238829f61becf6283be596c24880dd2", "type": "electric_scooter", "lon": -77.03288816666667, "lat": 38.956425, "is_disabled": 0, "is_reserved": 0, "fusion_lat": 0.0, "fusion_lon": 0.0}, {"rental_uris": {"android": "https://dc.lft.to/lastmile_qr_scan", "ios": "https://dc.lft.to/lastmile_qr_scan"}, "bike_id": "7a3c95694a13199da4684bba3e59eccd", "name": "7a3c95694a13199da4684bba3e59eccd", "type": "electric_scooter", "lon": -77.04556683333334, "lat": 38.90223683333333, "is_disabled": 0, "is_reserved": 0, "fusion_lat": 0.0, "fusion_lon": 0.0}, {"rental_uris": {"android": "https://dc.lft.to/lastmile_qr_scan", "ios": "https://dc.lft.to/lastmile_qr_scan"}, "bike_id": "d65f7e37cd8700636355f5f2cbc3328d", "name": "d65f7e37cd8700636355f5f2cbc3328d", "type": "electric_scooter", "lon": -77.04669916666667, "lat": 38.90675183333333, "is_disabled": 0, "is_reserved": 0, "fusion_lat": 0.0, "fusion_lon": 0.0}, {"rental_uris": {"android": "https://dc.lft.to/lastmile_qr_scan", "ios": "https://dc.lft.to/lastmile_qr_scan"}, "bike_id": "344bae1ed99e3dcbde38b90b90237072", "name": "344bae1ed99e3dcbde38b90b90237072", "type": "electric_scooter", "lon": -76.92997033333333, "lat": 38.901864833333335, "is_disabled": 0, "is_reserved": 0, "fusion_lat": 0.0, "fusion_lon": 0.0}, {"rental_uris": {"android": "https://dc.lft.to/lastmile_qr_scan", "ios": "https://dc.lft.to/lastmile_qr_scan"}, "bike_id": "6827d5db1f94cae6ce07bffb2282324d", "name": "6827d5db1f94cae6ce07bffb2282324d", "type": "electric_scooter", "lon": -77.0176055, "lat": 38.9024355, "is_disabled": 0, "is_reserved": 0, "fusion_lat": 0.0, "fusion_lon": 0.0}, {"rental_uris": {"android": "https://dc.lft.to/lastmile_qr_scan", "ios": "https://dc.lft.to/lastmile_qr_scan"}, "bike_id": "41da4085eb0ec8bda04065b8238c5b23", "name": "41da4085eb0ec8bda04065b8238c5b23", "type": "electric_scooter", "lon": -77.03967883333334, "lat": 38.90558766666667, "is_disabled": 0, "is_reserved": 0, "fusion_lat": 0.0, "fusion_lon": 0.0}, {"rental_uris": {"android": "https://dc.lft.to/lastmile_qr_scan", "ios": "https://dc.lft.to/lastmile_qr_scan"}, "bike_id": "b9670480783d82f81c0cfba401d7a95c", "name": "b9670480783d82f81c0cfba401d7a95c", "type": "electric_scooter", "lon": -77.04323766666667, "lat": 38.90882083333333, "is_disabled": 0, "is_reserved": 0, "fusion_lat": 0.0, "fusion_lon": 0.0}, {"rental_uris": {"android": "https://dc.lft.to/lastmile_qr_scan", "ios": "https://dc.lft.to/lastmile_qr_scan"}, "bike_id": "9f4bd74beb0bb36c63018899b2404672", "name": "9f4bd74beb0bb36c63018899b2404672", "type": "electric_scooter", "lon": -76.99029933333334, "lat": 38.86372316666667, "is_disabled": 0, "is_reserved": 0, "fusion_lat": 0.0, "fusion_lon": 0.0}, {"rental_uris": {"android": "https://dc.lft.to/lastmile_qr_scan", "ios": "https://dc.lft.to/lastmile_qr_scan"}, "bike_id": "6e9902cfb1de8017c54d3a39bf94d7d8", "name": "6e9902cfb1de8017c54d3a39bf94d7d8", "type": "electric_scooter", "lon": -77.02985533333333, "lat": 38.898302, "is_disabled": 0, "is_reserved": 0, "fusion_lat": 0.0, "fusion_lon": 0.0}, {"rental_uris": {"android": "https://dc.lft.to/lastmile_qr_scan", "ios": "https://dc.lft.to/lastmile_qr_scan"}, "bike_id": "364f7deb4d618b3b6f1e19e8b1b6fbc9", "name": "364f7deb4d618b3b6f1e19e8b1b6fbc9", "type": "electric_scooter", "lon": -77.0318595, "lat": 38.91426, "is_disabled": 0, "is_reserved": 0, "fusion_lat": 0.0, "fusion_lon": 0.0}, {"rental_uris": {"android": "https://dc.lft.to/lastmile_qr_scan", "ios": "https://dc.lft.to/lastmile_qr_scan"}, "bike_id": "6b9eb5f9c4e3d8d134c3fc9b484aa1a2", "name": "6b9eb5f9c4e3d8d134c3fc9b484aa1a2", "type": "electric_scooter", "lon": -77.04279216666667, "lat": 38.914085166666666, "is_disabled": 0, "is_reserved": 0, "fusion_lat": 0.0, "fusion_lon": 0.0}, {"rental_uris": {"android": "https://dc.lft.to/lastmile_qr_scan", "ios": "https://dc.lft.to/lastmile_qr_scan"}, "bike_id": "f4ef91130cfac8ed1ad43858ebcaa1eb", "name": "f4ef91130cfac8ed1ad43858ebcaa1eb", "type": "electric_bike", "lon": -77.109237, "lat": 39.052006, "is_disabled": 0, "is_reserved": 0, "fusion_lat": 0.0, "fusion_lon": 0.0}, {"rental_uris": {"android": "https://dc.lft.to/lastmile_qr_scan", "ios": "https://dc.lft.to/lastmile_qr_scan"}, "bike_id": "504fec7a18efaea23d33a249180083a8", "name": "504fec7a18efaea23d33a249180083a8", "type": "electric_scooter", "lon": -77.023076, "lat": 38.920907666666665, "is_disabled": 0, "is_reserved": 0, "fusion_lat": 0.0, "fusion_lon": 0.0}, {"rental_uris": {"android": "https://dc.lft.to/lastmile_qr_scan", "ios": "https://dc.lft.to/lastmile_qr_scan"}, "bike_id": "06917061a4dad90247d51c95fd1b5e89", "name": "06917061a4dad90247d51c95fd1b5e89", "type": "electric_scooter", "lon": -77.03207916666666, "lat": 38.8958715, "is_disabled": 0, "is_reserved": 0, "fusion_lat": 0.0, "fusion_lon": 0.0}, {"rental_uris": {"android": "https://dc.lft.to/lastmile_qr_scan", "ios": "https://dc.lft.to/lastmile_qr_scan"}, "bike_id": "414f1d895fba2b281e326ca2a319f904", "name": "414f1d895fba2b281e326ca2a319f904", "type": "electric_scooter", "lon": -77.05757916666667, "lat": 38.924365333333334, "is_disabled": 0, "is_reserved": 0, "fusion_lat": 0.0, "fusion_lon": 0.0}, {"rental_uris": {"android": "https://dc.lft.to/lastmile_qr_scan", "ios": "https://dc.lft.to/lastmile_qr_scan"}, "bike_id": "3b7dd94af43d7864ae62a5d2e453c3a4", "name": "3b7dd94af43d7864ae62a5d2e453c3a4", "type": "electric_scooter", "lon": -77.07093683333333, "lat": 38.919348, "is_disabled": 0, "is_reserved": 0, "fusion_lat": 0.0, "fusion_lon": 0.0}, {"rental_uris": {"android": "https://dc.lft.to/lastmile_qr_scan", "ios": "https://dc.lft.to/lastmile_qr_scan"}, "bike_id": "7187234003657c5c2ca476d12d14f4b6", "name": "7187234003657c5c2ca476d12d14f4b6", "type": "electric_scooter", "lon": -77.0175545, "lat": 38.902347166666665, "is_disabled": 0, "is_reserved": 0, "fusion_lat": 0.0, "fusion_lon": 0.0}, {"rental_uris": {"android": "https://dc.lft.to/lastmile_qr_scan", "ios": "https://dc.lft.to/lastmile_qr_scan"}, "bike_id": "d4aba11e9f4d2eb6861c391c45a6ed6a", "name": "d4aba11e9f4d2eb6861c391c45a6ed6a", "type": "electric_scooter", "lon": -77.0466985, "lat": 38.90417716666666, "is_disabled": 0, "is_reserved": 0, "fusion_lat": 0.0, "fusion_lon": 0.0}, {"rental_uris": {"android": "https://dc.lft.to/lastmile_qr_scan", "ios": "https://dc.lft.to/lastmile_qr_scan"}, "bike_id": "91d232eb06933bb0caab522c97f8e473", "name": "91d232eb06933bb0caab522c97f8e473", "type": "electric_scooter", "lon": -76.932282, "lat": 38.898843666666664, "is_disabled": 0, "is_reserved": 0, "fusion_lat": 0.0, "fusion_lon": 0.0}, {"rental_uris": {"android": "https://dc.lft.to/lastmile_qr_scan", "ios": "https://dc.lft.to/lastmile_qr_scan"}, "bike_id": "eedad2cbfedc1dc5a42e803ef5e3c990", "name": "eedad2cbfedc1dc5a42e803ef5e3c990", "type": "electric_scooter", "lon": -77.03894833333334, "lat": 38.91112833333333, "is_disabled": 0, "is_reserved": 0, "fusion_lat": 0.0, "fusion_lon": 0.0}, {"rental_uris": {"android": "https://dc.lft.to/lastmile_qr_scan", "ios": "https://dc.lft.to/lastmile_qr_scan"}, "bike_id": "3ffe1b04a3014605a33e065d7e198397", "name": "3ffe1b04a3014605a33e065d7e198397", "type": "electric_scooter", "lon": -77.0418255, "lat": 38.904842333333335, "is_disabled": 0, "is_reserved": 0, "fusion_lat": 0.0, "fusion_lon": 0.0}, {"rental_uris": {"android": "https://dc.lft.to/lastmile_qr_scan", "ios": "https://dc.lft.to/lastmile_qr_scan"}, "bike_id": "a1640399dc087d50e52142f90e5d8f59", "name": "a1640399dc087d50e52142f90e5d8f59", "type": "electric_scooter", "lon": -77.03447016666667, "lat": 38.9089315, "is_disabled": 0, "is_reserved": 0, "fusion_lat": 0.0, "fusion_lon": 0.0}, {"rental_uris": {"android": "https://dc.lft.to/lastmile_qr_scan", "ios": "https://dc.lft.to/lastmile_qr_scan"}, "bike_id": "cbdc9f347dd211ebbd9f50da7f336004", "name": "cbdc9f347dd211ebbd9f50da7f336004", "type": "electric_scooter", "lon": -77.04597266666667, "lat": 38.9025385, "is_disabled": 0, "is_reserved": 0, "fusion_lat": 0.0, "fusion_lon": 0.0}, {"rental_uris": {"android": "https://dc.lft.to/lastmile_qr_scan", "ios": "https://dc.lft.to/lastmile_qr_scan"}, "bike_id": "7fd926d3671586988d7d3c50664ed092", "name": "7fd926d3671586988d7d3c50664ed092", "type": "electric_scooter", "lon": -77.01598233333333, "lat": 38.949384333333334, "is_disabled": 0, "is_reserved": 0, "fusion_lat": 0.0, "fusion_lon": 0.0}, {"rental_uris": {"android": "https://dc.lft.to/lastmile_qr_scan", "ios": "https://dc.lft.to/lastmile_qr_scan"}, "bike_id": "948992f3480a935377d0ba787628b19c", "name": "948992f3480a935377d0ba787628b19c", "type": "electric_scooter", "lon": -77.05857216666666, "lat": 38.936075333333335, "is_disabled": 0, "is_reserved": 0, "fusion_lat": 0.0, "fusion_lon": 0.0}, {"rental_uris": {"android": "https://dc.lft.to/lastmile_qr_scan", "ios": "https://dc.lft.to/lastmile_qr_scan"}, "bike_id": "139ff80141d95ed9acca90a240dd884e", "name": "139ff80141d95ed9acca90a240dd884e", "type": "electric_scooter", "lon": -77.02524583333333, "lat": 38.92094083333333, "is_disabled": 0, "is_reserved": 0, "fusion_lat": 0.0, "fusion_lon": 0.0}, {"rental_uris": {"android": "https://dc.lft.to/lastmile_qr_scan", "ios": "https://dc.lft.to/lastmile_qr_scan"}, "bike_id": "5d8d3489e44b72a716a5288cb6753f47", "name": "5d8d3489e44b72a716a5288cb6753f47", "type": "electric_scooter", "lon": -77.03458866666666, "lat": 38.903881166666665, "is_disabled": 0, "is_reserved": 0, "fusion_lat": 0.0, "fusion_lon": 0.0}, {"rental_uris": {"android": "https://dc.lft.to/lastmile_qr_scan", "ios": "https://dc.lft.to/lastmile_qr_scan"}, "bike_id": "f345f07a2c4c0f36cde2b472443be437", "name": "f345f07a2c4c0f36cde2b472443be437", "type": "electric_scooter", "lon": -77.03851933333333, "lat": 38.90467316666667, "is_disabled": 0, "is_reserved": 0, "fusion_lat": 0.0, "fusion_lon": 0.0}, {"rental_uris": {"android": "https://dc.lft.to/lastmile_qr_scan", "ios": "https://dc.lft.to/lastmile_qr_scan"}, "bike_id": "912a6c904b5af11450e7df6a4c627993", "name": "912a6c904b5af11450e7df6a4c627993", "type": "electric_scooter", "lon": -77.04596383333333, "lat": 38.919156666666666, "is_disabled": 0, "is_reserved": 0, "fusion_lat": 0.0, "fusion_lon": 0.0}, {"rental_uris": {"android": "https://dc.lft.to/lastmile_qr_scan", "ios": "https://dc.lft.to/lastmile_qr_scan"}, "bike_id": "61a5784c26f9f2fd6dfc2d5d04fb4815", "name": "61a5784c26f9f2fd6dfc2d5d04fb4815", "type": "electric_scooter", "lon": -77.0243245, "lat": 38.902808, "is_disabled": 0, "is_reserved": 0, "fusion_lat": 0.0, "fusion_lon": 0.0}, {"rental_uris": {"android": "https://dc.lft.to/lastmile_qr_scan", "ios": "https://dc.lft.to/lastmile_qr_scan"}, "bike_id": "f3edc1a350be98682617f9a972945166", "name": "f3edc1a350be98682617f9a972945166", "type": "electric_scooter", "lon": -77.04345633333334, "lat": 38.90371733333333, "is_disabled": 0, "is_reserved": 0, "fusion_lat": 0.0, "fusion_lon": 0.0}, {"rental_uris": {"android": "https://dc.lft.to/lastmile_qr_scan", "ios": "https://dc.lft.to/lastmile_qr_scan"}, "bike_id": "a98dbff46aab7694760181ea573195c6", "name": "a98dbff46aab7694760181ea573195c6", "type": "electric_scooter", "lon": -77.04183533333334, "lat": 38.90112383333334, "is_disabled": 0, "is_reserved": 0, "fusion_lat": 0.0, "fusion_lon": 0.0}, {"rental_uris": {"android": "https://dc.lft.to/lastmile_qr_scan", "ios": "https://dc.lft.to/lastmile_qr_scan"}, "bike_id": "7329dc341d366e19896b60a55e0a66b7", "name": "7329dc341d366e19896b60a55e0a66b7", "type": "electric_scooter", "lon": -77.03209033333333, "lat": 38.89585683333333, "is_disabled": 0, "is_reserved": 0, "fusion_lat": 0.0, "fusion_lon": 0.0}, {"rental_uris": {"android": "https://dc.lft.to/lastmile_qr_scan", "ios": "https://dc.lft.to/lastmile_qr_scan"}, "bike_id": "121377a2de91b870f504f1c29a6dfb09", "name": "121377a2de91b870f504f1c29a6dfb09", "type": "electric_scooter", "lon": -76.98879483333333, "lat": 38.9044055, "is_disabled": 0, "is_reserved": 0, "fusion_lat": 0.0, "fusion_lon": 0.0}, {"rental_uris": {"android": "https://dc.lft.to/lastmile_qr_scan", "ios": "https://dc.lft.to/lastmile_qr_scan"}, "bike_id": "28ee0e3da45fa09b5f7cb20033d13425", "name": "28ee0e3da45fa09b5f7cb20033d13425", "type": "electric_bike", "lon": -76.981067, "lat": 38.877306, "is_disabled": 0, "is_reserved": 0, "fusion_lat": 0.0, "fusion_lon": 0.0}, {"rental_uris": {"android": "https://dc.lft.to/lastmile_qr_scan", "ios": "https://dc.lft.to/lastmile_qr_scan"}, "bike_id": "9ba05331d86d0b4d87fc83d917feb196", "name": "9ba05331d86d0b4d87fc83d917feb196", "type": "electric_scooter", "lon": -77.055287, "lat": 38.930121666666665, "is_disabled": 0, "is_reserved": 0, "fusion_lat": 0.0, "fusion_lon": 0.0}, {"rental_uris": {"android": "https://dc.lft.to/lastmile_qr_scan", "ios": "https://dc.lft.to/lastmile_qr_scan"}, "bike_id": "162e8b6cbb000fb93ba0039f7fad4909", "name": "162e8b6cbb000fb93ba0039f7fad4909", "type": "electric_scooter", "lon": -77.02422433333334, "lat": 38.9073325, "is_disabled": 0, "is_reserved": 0, "fusion_lat": 0.0, "fusion_lon": 0.0}, {"rental_uris": {"android": "https://dc.lft.to/lastmile_qr_scan", "ios": "https://dc.lft.to/lastmile_qr_scan"}, "bike_id": "c081059e91c94339b94dbf4352f32032", "name": "c081059e91c94339b94dbf4352f32032", "type": "electric_scooter", "lon": -77.03639716666666, "lat": 38.917346, "is_disabled": 0, "is_reserved": 0, "fusion_lat": 0.0, "fusion_lon": 0.0}, {"rental_uris": {"android": "https://dc.lft.to/lastmile_qr_scan", "ios": "https://dc.lft.to/lastmile_qr_scan"}, "bike_id": "5581180b5fbdfa1d7bcc3cd218b3d223", "name": "5581180b5fbdfa1d7bcc3cd218b3d223", "type": "electric_scooter", "lon": -76.9934995, "lat": 38.914831166666666, "is_disabled": 0, "is_reserved": 0, "fusion_lat": 0.0, "fusion_lon": 0.0}, {"rental_uris": {"android": "https://dc.lft.to/lastmile_qr_scan", "ios": "https://dc.lft.to/lastmile_qr_scan"}, "bike_id": "74213e3aa12f65abf96cbb818d034586", "name": "74213e3aa12f65abf96cbb818d034586", "type": "electric_scooter", "lon": -77.03548133333334, "lat": 38.906829333333334, "is_disabled": 0, "is_reserved": 0, "fusion_lat": 0.0, "fusion_lon": 0.0}, {"rental_uris": {"android": "https://dc.lft.to/lastmile_qr_scan", "ios": "https://dc.lft.to/lastmile_qr_scan"}, "bike_id": "7f99bc1237070fc9e9a1f231e9aa9834", "name": "7f99bc1237070fc9e9a1f231e9aa9834", "type": "electric_scooter", "lon": -77.03193516666667, "lat": 38.9132225, "is_disabled": 0, "is_reserved": 0, "fusion_lat": 0.0, "fusion_lon": 0.0}, {"rental_uris": {"android": "https://dc.lft.to/lastmile_qr_scan", "ios": "https://dc.lft.to/lastmile_qr_scan"}, "bike_id": "3ffc4bcf5b4d1ecbf432b3e024675c77", "name": "3ffc4bcf5b4d1ecbf432b3e024675c77", "type": "electric_scooter", "lon": -77.027211, "lat": 38.9495695, "is_disabled": 0, "is_reserved": 0, "fusion_lat": 0.0, "fusion_lon": 0.0}, {"rental_uris": {"android": "https://dc.lft.to/lastmile_qr_scan", "ios": "https://dc.lft.to/lastmile_qr_scan"}, "bike_id": "146466594d98ab8a601383b7ff97cde1", "name": "146466594d98ab8a601383b7ff97cde1", "type": "electric_scooter", "lon": -77.03472666666667, "lat": 38.917069, "is_disabled": 0, "is_reserved": 0, "fusion_lat": 0.0, "fusion_lon": 0.0}, {"rental_uris": {"android": "https://dc.lft.to/lastmile_qr_scan", "ios": "https://dc.lft.to/lastmile_qr_scan"}, "bike_id": "c913a5984483d44d052e41ec9d65f1c2", "name": "c913a5984483d44d052e41ec9d65f1c2", "type": "electric_scooter", "lon": -77.0304715, "lat": 38.884075333333335, "is_disabled": 0, "is_reserved": 0, "fusion_lat": 0.0, "fusion_lon": 0.0}, {"rental_uris": {"android": "https://dc.lft.to/lastmile_qr_scan", "ios": "https://dc.lft.to/lastmile_qr_scan"}, "bike_id": "37d16ffd6aff068a55d04d86fbe7a84b", "name": "37d16ffd6aff068a55d04d86fbe7a84b", "type": "electric_scooter", "lon": -77.02891233333334, "lat": 38.91692966666667, "is_disabled": 0, "is_reserved": 0, "fusion_lat": 0.0, "fusion_lon": 0.0}, {"rental_uris": {"android": "https://dc.lft.to/lastmile_qr_scan", "ios": "https://dc.lft.to/lastmile_qr_scan"}, "bike_id": "8cfe9a1f9353be1601c275cef7aab59c", "name": "8cfe9a1f9353be1601c275cef7aab59c", "type": "electric_scooter", "lon": -77.04364016666666, "lat": 38.91120083333333, "is_disabled": 0, "is_reserved": 0, "fusion_lat": 0.0, "fusion_lon": 0.0}, {"rental_uris": {"android": "https://dc.lft.to/lastmile_qr_scan", "ios": "https://dc.lft.to/lastmile_qr_scan"}, "bike_id": "ce00ea446c606af9e21c72912fc7e35b", "name": "ce00ea446c606af9e21c72912fc7e35b", "type": "electric_scooter", "lon": -77.02414333333333, "lat": 38.896307, "is_disabled": 0, "is_reserved": 0, "fusion_lat": 0.0, "fusion_lon": 0.0}, {"rental_uris": {"android": "https://dc.lft.to/lastmile_qr_scan", "ios": "https://dc.lft.to/lastmile_qr_scan"}, "bike_id": "f112e063cbc96d83917b4f467f7e6cdd", "name": "f112e063cbc96d83917b4f467f7e6cdd", "type": "electric_scooter", "lon": -77.04113216666667, "lat": 38.905832833333335, "is_disabled": 0, "is_reserved": 0, "fusion_lat": 0.0, "fusion_lon": 0.0}, {"rental_uris": {"android": "https://dc.lft.to/lastmile_qr_scan", "ios": "https://dc.lft.to/lastmile_qr_scan"}, "bike_id": "02198661dca834d763cec5a060779cca", "name": "02198661dca834d763cec5a060779cca", "type": "electric_scooter", "lon": -76.9955975, "lat": 38.86259366666667, "is_disabled": 0, "is_reserved": 0, "fusion_lat": 0.0, "fusion_lon": 0.0}, {"rental_uris": {"android": "https://dc.lft.to/lastmile_qr_scan", "ios": "https://dc.lft.to/lastmile_qr_scan"}, "bike_id": "e2b5bafbedfdd37e8152bc335cb249bc", "name": "e2b5bafbedfdd37e8152bc335cb249bc", "type": "electric_scooter", "lon": -77.044051, "lat": 38.8983285, "is_disabled": 0, "is_reserved": 0, "fusion_lat": 0.0, "fusion_lon": 0.0}, {"rental_uris": {"android": "https://dc.lft.to/lastmile_qr_scan", "ios": "https://dc.lft.to/lastmile_qr_scan"}, "bike_id": "af78fa1e108c657fce2bafebcf339899", "name": "af78fa1e108c657fce2bafebcf339899", "type": "electric_scooter", "lon": -77.02253983333334, "lat": 38.92308366666666, "is_disabled": 0, "is_reserved": 0, "fusion_lat": 0.0, "fusion_lon": 0.0}, {"rental_uris": {"android": "https://dc.lft.to/lastmile_qr_scan", "ios": "https://dc.lft.to/lastmile_qr_scan"}, "bike_id": "77336c53e19fcee828a0c2d118f1e0f1", "name": "77336c53e19fcee828a0c2d118f1e0f1", "type": "electric_scooter", "lon": -76.99551566666666, "lat": 38.882644166666665, "is_disabled": 0, "is_reserved": 0, "fusion_lat": 0.0, "fusion_lon": 0.0}, {"rental_uris": {"android": "https://dc.lft.to/lastmile_qr_scan", "ios": "https://dc.lft.to/lastmile_qr_scan"}, "bike_id": "554d725cd2b62cd92e6238d4cae4b693", "name": "554d725cd2b62cd92e6238d4cae4b693", "type": "electric_scooter", "lon": -76.99776766666666, "lat": 38.84430566666666, "is_disabled": 0, "is_reserved": 0, "fusion_lat": 0.0, "fusion_lon": 0.0}, {"rental_uris": {"android": "https://dc.lft.to/lastmile_qr_scan", "ios": "https://dc.lft.to/lastmile_qr_scan"}, "bike_id": "c96ef29a532b9626a199fa412a621b5b", "name": "c96ef29a532b9626a199fa412a621b5b", "type": "electric_scooter", "lon": -77.04699983333333, "lat": 38.921627666666666, "is_disabled": 0, "is_reserved": 0, "fusion_lat": 0.0, "fusion_lon": 0.0}, {"rental_uris": {"android": "https://dc.lft.to/lastmile_qr_scan", "ios": "https://dc.lft.to/lastmile_qr_scan"}, "bike_id": "a2f779ac5ab7b501ae67ae457c881fd8", "name": "a2f779ac5ab7b501ae67ae457c881fd8", "type": "electric_scooter", "lon": -76.98311833333334, "lat": 38.868904, "is_disabled": 0, "is_reserved": 0, "fusion_lat": 0.0, "fusion_lon": 0.0}, {"rental_uris": {"android": "https://dc.lft.to/lastmile_qr_scan", "ios": "https://dc.lft.to/lastmile_qr_scan"}, "bike_id": "59d49f71543ff069a9341b543377f9d3", "name": "59d49f71543ff069a9341b543377f9d3", "type": "electric_scooter", "lon": -77.032636, "lat": 38.918150833333335, "is_disabled": 0, "is_reserved": 0, "fusion_lat": 0.0, "fusion_lon": 0.0}, {"rental_uris": {"android": "https://dc.lft.to/lastmile_qr_scan", "ios": "https://dc.lft.to/lastmile_qr_scan"}, "bike_id": "bd59773d3ed3a31a2566d6169f937e2d", "name": "bd59773d3ed3a31a2566d6169f937e2d", "type": "electric_scooter", "lon": -76.99533116666667, "lat": 38.8625035, "is_disabled": 0, "is_reserved": 0, "fusion_lat": 0.0, "fusion_lon": 0.0}, {"rental_uris": {"android": "https://dc.lft.to/lastmile_qr_scan", "ios": "https://dc.lft.to/lastmile_qr_scan"}, "bike_id": "38e4ad4d8eaceca266a5689f5348cb75", "name": "38e4ad4d8eaceca266a5689f5348cb75", "type": "electric_scooter", "lon": -76.98381133333334, "lat": 38.861213, "is_disabled": 0, "is_reserved": 0, "fusion_lat": 0.0, "fusion_lon": 0.0}, {"rental_uris": {"android": "https://dc.lft.to/lastmile_qr_scan", "ios": "https://dc.lft.to/lastmile_qr_scan"}, "bike_id": "3bd54591835f09d6caf423c139be018c", "name": "3bd54591835f09d6caf423c139be018c", "type": "electric_scooter", "lon": -76.98116983333334, "lat": 38.914683, "is_disabled": 0, "is_reserved": 0, "fusion_lat": 0.0, "fusion_lon": 0.0}, {"rental_uris": {"android": "https://dc.lft.to/lastmile_qr_scan", "ios": "https://dc.lft.to/lastmile_qr_scan"}, "bike_id": "042b8a6833a8432d82b595daebb7a7a2", "name": "042b8a6833a8432d82b595daebb7a7a2", "type": "electric_scooter", "lon": -77.031847, "lat": 38.92381566666667, "is_disabled": 0, "is_reserved": 0, "fusion_lat": 0.0, "fusion_lon": 0.0}, {"rental_uris": {"android": "https://dc.lft.to/lastmile_qr_scan", "ios": "https://dc.lft.to/lastmile_qr_scan"}, "bike_id": "b4c85c2eeac276cce7bd851dc1b2b595", "name": "b4c85c2eeac276cce7bd851dc1b2b595", "type": "electric_scooter", "lon": -77.00595383333334, "lat": 38.90571116666667, "is_disabled": 0, "is_reserved": 0, "fusion_lat": 0.0, "fusion_lon": 0.0}, {"rental_uris": {"android": "https://dc.lft.to/lastmile_qr_scan", "ios": "https://dc.lft.to/lastmile_qr_scan"}, "bike_id": "2e3fc9e95351bfbda5b8eda519663fce", "name": "2e3fc9e95351bfbda5b8eda519663fce", "type": "electric_scooter", "lon": -77.07239516666667, "lat": 38.9396045, "is_disabled": 0, "is_reserved": 0, "fusion_lat": 0.0, "fusion_lon": 0.0}, {"rental_uris": {"android": "https://dc.lft.to/lastmile_qr_scan", "ios": "https://dc.lft.to/lastmile_qr_scan"}, "bike_id": "77a5958ffed8b3332ae41ef76ba44eea", "name": "77a5958ffed8b3332ae41ef76ba44eea", "type": "electric_scooter", "lon": -77.01199383333334, "lat": 38.90014933333333, "is_disabled": 0, "is_reserved": 0, "fusion_lat": 0.0, "fusion_lon": 0.0}, {"rental_uris": {"android": "https://dc.lft.to/lastmile_qr_scan", "ios": "https://dc.lft.to/lastmile_qr_scan"}, "bike_id": "77390934a0bb6893425f94c5927c7b80", "name": "77390934a0bb6893425f94c5927c7b80", "type": "electric_scooter", "lon": -77.03225116666667, "lat": 38.90867466666667, "is_disabled": 0, "is_reserved": 0, "fusion_lat": 0.0, "fusion_lon": 0.0}, {"rental_uris": {"android": "https://dc.lft.to/lastmile_qr_scan", "ios": "https://dc.lft.to/lastmile_qr_scan"}, "bike_id": "6980b7befc3281bbdae1e4e45c69fac1", "name": "6980b7befc3281bbdae1e4e45c69fac1", "type": "electric_scooter", "lon": -77.0179875, "lat": 38.87675483333334, "is_disabled": 0, "is_reserved": 0, "fusion_lat": 0.0, "fusion_lon": 0.0}, {"rental_uris": {"android": "https://dc.lft.to/lastmile_qr_scan", "ios": "https://dc.lft.to/lastmile_qr_scan"}, "bike_id": "f42b8e9089c2d4984b090d7f1a2c8d0e", "name": "f42b8e9089c2d4984b090d7f1a2c8d0e", "type": "electric_scooter", "lon": -76.9771725, "lat": 38.888221333333334, "is_disabled": 0, "is_reserved": 0, "fusion_lat": 0.0, "fusion_lon": 0.0}, {"rental_uris": {"android": "https://dc.lft.to/lastmile_qr_scan", "ios": "https://dc.lft.to/lastmile_qr_scan"}, "bike_id": "c0c05c92d84a3641075d4b7bfd0466fa", "name": "c0c05c92d84a3641075d4b7bfd0466fa", "type": "electric_scooter", "lon": -77.0417105, "lat": 38.9173065, "is_disabled": 0, "is_reserved": 0, "fusion_lat": 0.0, "fusion_lon": 0.0}, {"rental_uris": {"android": "https://dc.lft.to/lastmile_qr_scan", "ios": "https://dc.lft.to/lastmile_qr_scan"}, "bike_id": "b0c967e1d99d32d71a3a288613cb181a", "name": "b0c967e1d99d32d71a3a288613cb181a", "type": "electric_scooter", "lon": -77.0417885, "lat": 38.918787333333334, "is_disabled": 0, "is_reserved": 0, "fusion_lat": 0.0, "fusion_lon": 0.0}, {"rental_uris": {"android": "https://dc.lft.to/lastmile_qr_scan", "ios": "https://dc.lft.to/lastmile_qr_scan"}, "bike_id": "490d3b8c5225091052539a2131de95d5", "name": "490d3b8c5225091052539a2131de95d5", "type": "electric_scooter", "lon": -77.02249, "lat": 38.8961475, "is_disabled": 0, "is_reserved": 0, "fusion_lat": 0.0, "fusion_lon": 0.0}, {"rental_uris": {"android": "https://dc.lft.to/lastmile_qr_scan", "ios": "https://dc.lft.to/lastmile_qr_scan"}, "bike_id": "24e2608535acad2e4e581ee83b15ef7a", "name": "24e2608535acad2e4e581ee83b15ef7a", "type": "electric_scooter", "lon": -77.03250316666667, "lat": 38.91814883333333, "is_disabled": 0, "is_reserved": 0, "fusion_lat": 0.0, "fusion_lon": 0.0}, {"rental_uris": {"android": "https://dc.lft.to/lastmile_qr_scan", "ios": "https://dc.lft.to/lastmile_qr_scan"}, "bike_id": "739182915c05d805577d2dc64cb3480a", "name": "739182915c05d805577d2dc64cb3480a", "type": "electric_scooter", "lon": -77.05262933333333, "lat": 38.93941, "is_disabled": 0, "is_reserved": 0, "fusion_lat": 0.0, "fusion_lon": 0.0}, {"rental_uris": {"android": "https://dc.lft.to/lastmile_qr_scan", "ios": "https://dc.lft.to/lastmile_qr_scan"}, "bike_id": "fa5a5536b775cc03f586b33bf49e1af1", "name": "fa5a5536b775cc03f586b33bf49e1af1", "type": "electric_scooter", "lon": -77.02968766666666, "lat": 38.90736783333333, "is_disabled": 0, "is_reserved": 0, "fusion_lat": 0.0, "fusion_lon": 0.0}, {"rental_uris": {"android": "https://dc.lft.to/lastmile_qr_scan", "ios": "https://dc.lft.to/lastmile_qr_scan"}, "bike_id": "083e7479e32e1943afdfef89a6f2213d", "name": "083e7479e32e1943afdfef89a6f2213d", "type": "electric_scooter", "lon": -77.041737, "lat": 38.911939333333336, "is_disabled": 0, "is_reserved": 0, "fusion_lat": 0.0, "fusion_lon": 0.0}, {"rental_uris": {"android": "https://dc.lft.to/lastmile_qr_scan", "ios": "https://dc.lft.to/lastmile_qr_scan"}, "bike_id": "3f2f7977cb18f8d0bc8b0b7cb75bce2c", "name": "3f2f7977cb18f8d0bc8b0b7cb75bce2c", "type": "electric_scooter", "lon": -77.02715583333334, "lat": 38.906855666666665, "is_disabled": 0, "is_reserved": 0, "fusion_lat": 0.0, "fusion_lon": 0.0}, {"rental_uris": {"android": "https://dc.lft.to/lastmile_qr_scan", "ios": "https://dc.lft.to/lastmile_qr_scan"}, "bike_id": "64c2e033fcd1ef18b4bdde3db22e9e80", "name": "64c2e033fcd1ef18b4bdde3db22e9e80", "type": "electric_scooter", "lon": -77.02712816666667, "lat": 38.900778333333335, "is_disabled": 0, "is_reserved": 0, "fusion_lat": 0.0, "fusion_lon": 0.0}, {"rental_uris": {"android": "https://dc.lft.to/lastmile_qr_scan", "ios": "https://dc.lft.to/lastmile_qr_scan"}, "bike_id": "d15bfae54a420de82e4afcf860a7d36d", "name": "d15bfae54a420de82e4afcf860a7d36d", "type": "electric_scooter", "lon": -77.0453365, "lat": 38.902704166666666, "is_disabled": 0, "is_reserved": 0, "fusion_lat": 0.0, "fusion_lon": 0.0}, {"rental_uris": {"android": "https://dc.lft.to/lastmile_qr_scan", "ios": "https://dc.lft.to/lastmile_qr_scan"}, "bike_id": "5679a3deb84eb19524a99376d61af26d", "name": "5679a3deb84eb19524a99376d61af26d", "type": "electric_scooter", "lon": -76.95944066666667, "lat": 38.88999166666667, "is_disabled": 0, "is_reserved": 0, "fusion_lat": 0.0, "fusion_lon": 0.0}, {"rental_uris": {"android": "https://dc.lft.to/lastmile_qr_scan", "ios": "https://dc.lft.to/lastmile_qr_scan"}, "bike_id": "f984d9fbf395ce84493346e4a4234fe2", "name": "f984d9fbf395ce84493346e4a4234fe2", "type": "electric_scooter", "lon": -77.02280566666667, "lat": 38.92571233333334, "is_disabled": 0, "is_reserved": 0, "fusion_lat": 0.0, "fusion_lon": 0.0}, {"rental_uris": {"android": "https://dc.lft.to/lastmile_qr_scan", "ios": "https://dc.lft.to/lastmile_qr_scan"}, "bike_id": "0061f4c035be06ec4528e1caedfc5681", "name": "0061f4c035be06ec4528e1caedfc5681", "type": "electric_bike", "lon": -76.99702466666666, "lat": 38.83862633333333, "is_disabled": 0, "is_reserved": 0, "fusion_lat": 0.0, "fusion_lon": 0.0}, {"rental_uris": {"android": "https://dc.lft.to/lastmile_qr_scan", "ios": "https://dc.lft.to/lastmile_qr_scan"}, "bike_id": "659410edb1ddfd4f36123362de416913", "name": "659410edb1ddfd4f36123362de416913", "type": "electric_bike", "lon": -76.98842616666667, "lat": 38.84277183333333, "is_disabled": 0, "is_reserved": 0, "fusion_lat": 0.0, "fusion_lon": 0.0}, {"rental_uris": {"android": "https://dc.lft.to/lastmile_qr_scan", "ios": "https://dc.lft.to/lastmile_qr_scan"}, "bike_id": "9044d7ac259406531ef0292a81375643", "name": "9044d7ac259406531ef0292a81375643", "type": "electric_scooter", "lon": -77.02398816666667, "lat": 38.91960383333333, "is_disabled": 0, "is_reserved": 0, "fusion_lat": 0.0, "fusion_lon": 0.0}, {"rental_uris": {"android": "https://dc.lft.to/lastmile_qr_scan", "ios": "https://dc.lft.to/lastmile_qr_scan"}, "bike_id": "93ad337644fcb6e9ed4ec53846ed9317", "name": "93ad337644fcb6e9ed4ec53846ed9317", "type": "electric_scooter", "lon": -77.0426785, "lat": 38.91619933333333, "is_disabled": 0, "is_reserved": 0, "fusion_lat": 0.0, "fusion_lon": 0.0}, {"rental_uris": {"android": "https://dc.lft.to/lastmile_qr_scan", "ios": "https://dc.lft.to/lastmile_qr_scan"}, "bike_id": "9d03791e519dc347a8da80566e7ffa30", "name": "9d03791e519dc347a8da80566e7ffa30", "type": "electric_bike", "lon": -77.0781995, "lat": 38.9363835, "is_disabled": 0, "is_reserved": 0, "fusion_lat": 0.0, "fusion_lon": 0.0}, {"rental_uris": {"android": "https://dc.lft.to/lastmile_qr_scan", "ios": "https://dc.lft.to/lastmile_qr_scan"}, "bike_id": "5e39376fbc193c9fe0ffcb93514fa828", "name": "5e39376fbc193c9fe0ffcb93514fa828", "type": "electric_scooter", "lon": -77.04601283333334, "lat": 38.9169335, "is_disabled": 0, "is_reserved": 0, "fusion_lat": 0.0, "fusion_lon": 0.0}, {"rental_uris": {"android": "https://dc.lft.to/lastmile_qr_scan", "ios": "https://dc.lft.to/lastmile_qr_scan"}, "bike_id": "701cec0098a006338891720166e404c3", "name": "701cec0098a006338891720166e404c3", "type": "electric_scooter", "lon": -77.05900566666666, "lat": 38.905136, "is_disabled": 0, "is_reserved": 0, "fusion_lat": 0.0, "fusion_lon": 0.0}, {"rental_uris": {"android": "https://dc.lft.to/lastmile_qr_scan", "ios": "https://dc.lft.to/lastmile_qr_scan"}, "bike_id": "55009e48fa5a8f77fdbe938c7d00476f", "name": "55009e48fa5a8f77fdbe938c7d00476f", "type": "electric_scooter", "lon": -77.03894183333334, "lat": 38.922027, "is_disabled": 0, "is_reserved": 0, "fusion_lat": 0.0, "fusion_lon": 0.0}, {"rental_uris": {"android": "https://dc.lft.to/lastmile_qr_scan", "ios": "https://dc.lft.to/lastmile_qr_scan"}, "bike_id": "669ecdd8eea99c44d8ee0aacae72805d", "name": "669ecdd8eea99c44d8ee0aacae72805d", "type": "electric_scooter", "lon": -77.02682666666666, "lat": 38.896214, "is_disabled": 0, "is_reserved": 0, "fusion_lat": 0.0, "fusion_lon": 0.0}, {"rental_uris": {"android": "https://dc.lft.to/lastmile_qr_scan", "ios": "https://dc.lft.to/lastmile_qr_scan"}, "bike_id": "4a43ffcdc3e4798216009f692e05a7c1", "name": "4a43ffcdc3e4798216009f692e05a7c1", "type": "electric_scooter", "lon": -77.026144, "lat": 38.89434033333333, "is_disabled": 0, "is_reserved": 0, "fusion_lat": 0.0, "fusion_lon": 0.0}, {"rental_uris": {"android": "https://dc.lft.to/lastmile_qr_scan", "ios": "https://dc.lft.to/lastmile_qr_scan"}, "bike_id": "9ffc971b7d3708629ee824816f8abdbb", "name": "9ffc971b7d3708629ee824816f8abdbb", "type": "electric_scooter", "lon": -77.00798616666667, "lat": 38.8971515, "is_disabled": 0, "is_reserved": 0, "fusion_lat": 0.0, "fusion_lon": 0.0}, {"rental_uris": {"android": "https://dc.lft.to/lastmile_qr_scan", "ios": "https://dc.lft.to/lastmile_qr_scan"}, "bike_id": "a42868b5409c6902256c01e0976ba2db", "name": "a42868b5409c6902256c01e0976ba2db", "type": "electric_scooter", "lon": -77.030853, "lat": 38.897473166666664, "is_disabled": 0, "is_reserved": 0, "fusion_lat": 0.0, "fusion_lon": 0.0}, {"rental_uris": {"android": "https://dc.lft.to/lastmile_qr_scan", "ios": "https://dc.lft.to/lastmile_qr_scan"}, "bike_id": "18a4474014a552c7f957b4066b070865", "name": "18a4474014a552c7f957b4066b070865", "type": "electric_scooter", "lon": -77.03462366666666, "lat": 38.918200666666664, "is_disabled": 0, "is_reserved": 0, "fusion_lat": 0.0, "fusion_lon": 0.0}, {"rental_uris": {"android": "https://dc.lft.to/lastmile_qr_scan", "ios": "https://dc.lft.to/lastmile_qr_scan"}, "bike_id": "048dd58e2403861aff9d05f1c69e2dc0", "name": "048dd58e2403861aff9d05f1c69e2dc0", "type": "electric_scooter", "lon": -77.0438825, "lat": 38.90021433333333, "is_disabled": 0, "is_reserved": 0, "fusion_lat": 0.0, "fusion_lon": 0.0}, {"rental_uris": {"android": "https://dc.lft.to/lastmile_qr_scan", "ios": "https://dc.lft.to/lastmile_qr_scan"}, "bike_id": "10a72f077931d124653350386add7e83", "name": "10a72f077931d124653350386add7e83", "type": "electric_bike", "lon": -77.134875, "lat": 38.853540833333334, "is_disabled": 0, "is_reserved": 0, "fusion_lat": 0.0, "fusion_lon": 0.0}, {"rental_uris": {"android": "https://dc.lft.to/lastmile_qr_scan", "ios": "https://dc.lft.to/lastmile_qr_scan"}, "bike_id": "cb6f1053b4b22751e5e315150c42e19f", "name": "cb6f1053b4b22751e5e315150c42e19f", "type": "electric_scooter", "lon": -76.98664883333333, "lat": 38.902517, "is_disabled": 0, "is_reserved": 0, "fusion_lat": 0.0, "fusion_lon": 0.0}, {"rental_uris": {"android": "https://dc.lft.to/lastmile_qr_scan", "ios": "https://dc.lft.to/lastmile_qr_scan"}, "bike_id": "23bdd1f9e30f16d8b11cfdf97248c966", "name": "23bdd1f9e30f16d8b11cfdf97248c966", "type": "electric_scooter", "lon": -77.03985283333333, "lat": 38.9175885, "is_disabled": 0, "is_reserved": 0, "fusion_lat": 0.0, "fusion_lon": 0.0}, {"rental_uris": {"android": "https://dc.lft.to/lastmile_qr_scan", "ios": "https://dc.lft.to/lastmile_qr_scan"}, "bike_id": "f924a45d65dbb785b257b8518f6ddbb6", "name": "f924a45d65dbb785b257b8518f6ddbb6", "type": "electric_scooter", "lon": -77.02421133333333, "lat": 38.907285, "is_disabled": 0, "is_reserved": 0, "fusion_lat": 0.0, "fusion_lon": 0.0}, {"rental_uris": {"android": "https://dc.lft.to/lastmile_qr_scan", "ios": "https://dc.lft.to/lastmile_qr_scan"}, "bike_id": "a194f30a4ad301109f499145e2001038", "name": "a194f30a4ad301109f499145e2001038", "type": "electric_scooter", "lon": -77.03259066666666, "lat": 38.93724816666667, "is_disabled": 0, "is_reserved": 0, "fusion_lat": 0.0, "fusion_lon": 0.0}, {"rental_uris": {"android": "https://dc.lft.to/lastmile_qr_scan", "ios": "https://dc.lft.to/lastmile_qr_scan"}, "bike_id": "12148b5d0475f4f4297d4fd37b4193f6", "name": "12148b5d0475f4f4297d4fd37b4193f6", "type": "electric_scooter", "lon": -77.005648, "lat": 38.885033666666665, "is_disabled": 0, "is_reserved": 0, "fusion_lat": 0.0, "fusion_lon": 0.0}, {"rental_uris": {"android": "https://dc.lft.to/lastmile_qr_scan", "ios": "https://dc.lft.to/lastmile_qr_scan"}, "bike_id": "7be2bd23835dd3de03dfd303fb8589d8", "name": "7be2bd23835dd3de03dfd303fb8589d8", "type": "electric_scooter", "lon": -77.03400916666666, "lat": 38.931213, "is_disabled": 0, "is_reserved": 0, "fusion_lat": 0.0, "fusion_lon": 0.0}, {"rental_uris": {"android": "https://dc.lft.to/lastmile_qr_scan", "ios": "https://dc.lft.to/lastmile_qr_scan"}, "bike_id": "5cac954cabe73851c36be611e69d2e77", "name": "5cac954cabe73851c36be611e69d2e77", "type": "electric_scooter", "lon": -77.01765733333333, "lat": 38.912662, "is_disabled": 0, "is_reserved": 0, "fusion_lat": 0.0, "fusion_lon": 0.0}, {"rental_uris": {"android": "https://dc.lft.to/lastmile_qr_scan", "ios": "https://dc.lft.to/lastmile_qr_scan"}, "bike_id": "679ea14166d971db1eb53eb702f8a5ad", "name": "679ea14166d971db1eb53eb702f8a5ad", "type": "electric_scooter", "lon": -77.03125183333333, "lat": 38.91552466666667, "is_disabled": 0, "is_reserved": 0, "fusion_lat": 0.0, "fusion_lon": 0.0}, {"rental_uris": {"android": "https://dc.lft.to/lastmile_qr_scan", "ios": "https://dc.lft.to/lastmile_qr_scan"}, "bike_id": "4942b508dc14714c65fa6f74115654c0", "name": "4942b508dc14714c65fa6f74115654c0", "type": "electric_scooter", "lon": -77.03660333333333, "lat": 38.91804316666666, "is_disabled": 0, "is_reserved": 0, "fusion_lat": 0.0, "fusion_lon": 0.0}, {"rental_uris": {"android": "https://dc.lft.to/lastmile_qr_scan", "ios": "https://dc.lft.to/lastmile_qr_scan"}, "bike_id": "192989608a6bbb62601b012bf84b0898", "name": "192989608a6bbb62601b012bf84b0898", "type": "electric_scooter", "lon": -76.99776233333333, "lat": 38.844308833333336, "is_disabled": 0, "is_reserved": 0, "fusion_lat": 0.0, "fusion_lon": 0.0}, {"rental_uris": {"android": "https://dc.lft.to/lastmile_qr_scan", "ios": "https://dc.lft.to/lastmile_qr_scan"}, "bike_id": "9d78e70bec0d963a9fefa42515348f7f", "name": "9d78e70bec0d963a9fefa42515348f7f", "type": "electric_scooter", "lon": -76.9463655, "lat": 38.89842216666667, "is_disabled": 0, "is_reserved": 0, "fusion_lat": 0.0, "fusion_lon": 0.0}, {"rental_uris": {"android": "https://dc.lft.to/lastmile_qr_scan", "ios": "https://dc.lft.to/lastmile_qr_scan"}, "bike_id": "68fff1aab522841d6d85d0da190c8cba", "name": "68fff1aab522841d6d85d0da190c8cba", "type": "electric_scooter", "lon": -77.01236366666667, "lat": 38.93108816666667, "is_disabled": 0, "is_reserved": 0, "fusion_lat": 0.0, "fusion_lon": 0.0}, {"rental_uris": {"android": "https://dc.lft.to/lastmile_qr_scan", "ios": "https://dc.lft.to/lastmile_qr_scan"}, "bike_id": "82ba786dbba062162804bde60e93435e", "name": "82ba786dbba062162804bde60e93435e", "type": "electric_scooter", "lon": -76.9575465, "lat": 38.88430966666667, "is_disabled": 0, "is_reserved": 0, "fusion_lat": 0.0, "fusion_lon": 0.0}, {"rental_uris": {"android": "https://dc.lft.to/lastmile_qr_scan", "ios": "https://dc.lft.to/lastmile_qr_scan"}, "bike_id": "510ee061d6adfd2a571ddabdcbf48e5d", "name": "510ee061d6adfd2a571ddabdcbf48e5d", "type": "electric_bike", "lon": -76.97831283333333, "lat": 38.84368833333333, "is_disabled": 0, "is_reserved": 0, "fusion_lat": 0.0, "fusion_lon": 0.0}, {"rental_uris": {"android": "https://dc.lft.to/lastmile_qr_scan", "ios": "https://dc.lft.to/lastmile_qr_scan"}, "bike_id": "1198bc2c00026abac1f6606610e5e885", "name": "1198bc2c00026abac1f6606610e5e885", "type": "electric_scooter", "lon": -77.02811416666667, "lat": 38.9142995, "is_disabled": 0, "is_reserved": 0, "fusion_lat": 0.0, "fusion_lon": 0.0}, {"rental_uris": {"android": "https://dc.lft.to/lastmile_qr_scan", "ios": "https://dc.lft.to/lastmile_qr_scan"}, "bike_id": "729f43d091aaea2e4c3e466788c18ad4", "name": "729f43d091aaea2e4c3e466788c18ad4", "type": "electric_scooter", "lon": -77.0344565, "lat": 38.907595, "is_disabled": 0, "is_reserved": 0, "fusion_lat": 0.0, "fusion_lon": 0.0}, {"rental_uris": {"android": "https://dc.lft.to/lastmile_qr_scan", "ios": "https://dc.lft.to/lastmile_qr_scan"}, "bike_id": "a8bef64e681ebf2700192bb40c259d13", "name": "a8bef64e681ebf2700192bb40c259d13", "type": "electric_scooter", "lon": -76.93760383333333, "lat": 38.89048866666667, "is_disabled": 0, "is_reserved": 0, "fusion_lat": 0.0, "fusion_lon": 0.0}, {"rental_uris": {"android": "https://dc.lft.to/lastmile_qr_scan", "ios": "https://dc.lft.to/lastmile_qr_scan"}, "bike_id": "33e51adbf596e4294a3df84c5f42aa4e", "name": "33e51adbf596e4294a3df84c5f42aa4e", "type": "electric_scooter", "lon": -77.02176416666667, "lat": 38.916701333333336, "is_disabled": 0, "is_reserved": 0, "fusion_lat": 0.0, "fusion_lon": 0.0}, {"rental_uris": {"android": "https://dc.lft.to/lastmile_qr_scan", "ios": "https://dc.lft.to/lastmile_qr_scan"}, "bike_id": "f8b574b9736a5db484aa09d1277d5ad1", "name": "f8b574b9736a5db484aa09d1277d5ad1", "type": "electric_scooter", "lon": -77.0323765, "lat": 38.91711033333333, "is_disabled": 0, "is_reserved": 0, "fusion_lat": 0.0, "fusion_lon": 0.0}, {"rental_uris": {"android": "https://dc.lft.to/lastmile_qr_scan", "ios": "https://dc.lft.to/lastmile_qr_scan"}, "bike_id": "609dba20cfae8ea5e85adaec9e638421", "name": "609dba20cfae8ea5e85adaec9e638421", "type": "electric_bike", "lon": -76.971088, "lat": 38.8571565, "is_disabled": 0, "is_reserved": 0, "fusion_lat": 0.0, "fusion_lon": 0.0}, {"rental_uris": {"android": "https://dc.lft.to/lastmile_qr_scan", "ios": "https://dc.lft.to/lastmile_qr_scan"}, "bike_id": "565d01bbc1626484cb3f7e91f1f47445", "name": "565d01bbc1626484cb3f7e91f1f47445", "type": "electric_scooter", "lon": -77.03384316666667, "lat": 38.90118966666667, "is_disabled": 0, "is_reserved": 0, "fusion_lat": 0.0, "fusion_lon": 0.0}, {"rental_uris": {"android": "https://dc.lft.to/lastmile_qr_scan", "ios": "https://dc.lft.to/lastmile_qr_scan"}, "bike_id": "bfb073fef26c3125c1bc43bafef8dbcb", "name": "bfb073fef26c3125c1bc43bafef8dbcb", "type": "electric_scooter", "lon": -76.99778733333333, "lat": 38.844274666666664, "is_disabled": 0, "is_reserved": 0, "fusion_lat": 0.0, "fusion_lon": 0.0}, {"rental_uris": {"android": "https://dc.lft.to/lastmile_qr_scan", "ios": "https://dc.lft.to/lastmile_qr_scan"}, "bike_id": "13b5b4d62c55155d4669b4294ac8972b", "name": "13b5b4d62c55155d4669b4294ac8972b", "type": "electric_scooter", "lon": -77.034945, "lat": 38.917101, "is_disabled": 0, "is_reserved": 0, "fusion_lat": 0.0, "fusion_lon": 0.0}, {"rental_uris": {"android": "https://dc.lft.to/lastmile_qr_scan", "ios": "https://dc.lft.to/lastmile_qr_scan"}, "bike_id": "f8a42d79a8aa253a953b81b114d69861", "name": "f8a42d79a8aa253a953b81b114d69861", "type": "electric_scooter", "lon": -77.03630883333334, "lat": 38.92851183333333, "is_disabled": 0, "is_reserved": 0, "fusion_lat": 0.0, "fusion_lon": 0.0}, {"rental_uris": {"android": "https://dc.lft.to/lastmile_qr_scan", "ios": "https://dc.lft.to/lastmile_qr_scan"}, "bike_id": "02f7375e4bfc01c2878c5a8b1b0b76fe", "name": "02f7375e4bfc01c2878c5a8b1b0b76fe", "type": "electric_scooter", "lon": -77.02095883333334, "lat": 38.92718933333333, "is_disabled": 0, "is_reserved": 0, "fusion_lat": 0.0, "fusion_lon": 0.0}, {"rental_uris": {"android": "https://dc.lft.to/lastmile_qr_scan", "ios": "https://dc.lft.to/lastmile_qr_scan"}, "bike_id": "1e96e2b0368ef5792651bf5f084b83c3", "name": "1e96e2b0368ef5792651bf5f084b83c3", "type": "electric_scooter", "lon": -77.02590983333333, "lat": 38.963917, "is_disabled": 0, "is_reserved": 0, "fusion_lat": 0.0, "fusion_lon": 0.0}, {"rental_uris": {"android": "https://dc.lft.to/lastmile_qr_scan", "ios": "https://dc.lft.to/lastmile_qr_scan"}, "bike_id": "ad0f005de1f64a88b4b9d5d0a3d8f912", "name": "ad0f005de1f64a88b4b9d5d0a3d8f912", "type": "electric_scooter", "lon": -77.01129666666667, "lat": 38.916961666666666, "is_disabled": 0, "is_reserved": 0, "fusion_lat": 0.0, "fusion_lon": 0.0}, {"rental_uris": {"android": "https://dc.lft.to/lastmile_qr_scan", "ios": "https://dc.lft.to/lastmile_qr_scan"}, "bike_id": "a928fc4f0ba248ee48f9e58443262ee3", "name": "a928fc4f0ba248ee48f9e58443262ee3", "type": "electric_scooter", "lon": -77.02369033333333, "lat": 38.9197685, "is_disabled": 0, "is_reserved": 0, "fusion_lat": 0.0, "fusion_lon": 0.0}, {"rental_uris": {"android": "https://dc.lft.to/lastmile_qr_scan", "ios": "https://dc.lft.to/lastmile_qr_scan"}, "bike_id": "8931ac4057de6c1e9d8a9e3cb3b8883d", "name": "8931ac4057de6c1e9d8a9e3cb3b8883d", "type": "electric_scooter", "lon": -77.00739783333333, "lat": 38.89845483333333, "is_disabled": 0, "is_reserved": 0, "fusion_lat": 0.0, "fusion_lon": 0.0}, {"rental_uris": {"android": "https://dc.lft.to/lastmile_qr_scan", "ios": "https://dc.lft.to/lastmile_qr_scan"}, "bike_id": "8df1394a83b1a876f282ab365af8a356", "name": "8df1394a83b1a876f282ab365af8a356", "type": "electric_scooter", "lon": -77.0013725, "lat": 38.89472033333333, "is_disabled": 0, "is_reserved": 0, "fusion_lat": 0.0, "fusion_lon": 0.0}, {"rental_uris": {"android": "https://dc.lft.to/lastmile_qr_scan", "ios": "https://dc.lft.to/lastmile_qr_scan"}, "bike_id": "0263510dfa516040adb27ce0eda473b1", "name": "0263510dfa516040adb27ce0eda473b1", "type": "electric_scooter", "lon": -77.0347355, "lat": 38.90274483333334, "is_disabled": 0, "is_reserved": 0, "fusion_lat": 0.0, "fusion_lon": 0.0}, {"rental_uris": {"android": "https://dc.lft.to/lastmile_qr_scan", "ios": "https://dc.lft.to/lastmile_qr_scan"}, "bike_id": "021be872a8ba9d09ff23434ee9d36f0c", "name": "021be872a8ba9d09ff23434ee9d36f0c", "type": "electric_scooter", "lon": -76.98606183333334, "lat": 38.86525733333333, "is_disabled": 0, "is_reserved": 0, "fusion_lat": 0.0, "fusion_lon": 0.0}, {"rental_uris": {"android": "https://dc.lft.to/lastmile_qr_scan", "ios": "https://dc.lft.to/lastmile_qr_scan"}, "bike_id": "c969bd3e158eaafe04faa487895e7a47", "name": "c969bd3e158eaafe04faa487895e7a47", "type": "electric_scooter", "lon": -77.039573, "lat": 38.908262, "is_disabled": 0, "is_reserved": 0, "fusion_lat": 0.0, "fusion_lon": 0.0}, {"rental_uris": {"android": "https://dc.lft.to/lastmile_qr_scan", "ios": "https://dc.lft.to/lastmile_qr_scan"}, "bike_id": "6ea5bcbf6de1014c576ca85ff2fb539d", "name": "6ea5bcbf6de1014c576ca85ff2fb539d", "type": "electric_bike", "lon": -77.125266, "lat": 39.0563295, "is_disabled": 0, "is_reserved": 0, "fusion_lat": 0.0, "fusion_lon": 0.0}, {"rental_uris": {"android": "https://dc.lft.to/lastmile_qr_scan", "ios": "https://dc.lft.to/lastmile_qr_scan"}, "bike_id": "0fc883a6e9281efe1a17c45b473e286f", "name": "0fc883a6e9281efe1a17c45b473e286f", "type": "electric_scooter", "lon": -77.04355883333334, "lat": 38.923436333333335, "is_disabled": 0, "is_reserved": 0, "fusion_lat": 0.0, "fusion_lon": 0.0}, {"rental_uris": {"android": "https://dc.lft.to/lastmile_qr_scan", "ios": "https://dc.lft.to/lastmile_qr_scan"}, "bike_id": "110ed97193df863a6eb11c07a91c1f5e", "name": "110ed97193df863a6eb11c07a91c1f5e", "type": "electric_scooter", "lon": -77.03251716666666, "lat": 38.905548, "is_disabled": 0, "is_reserved": 0, "fusion_lat": 0.0, "fusion_lon": 0.0}, {"rental_uris": {"android": "https://dc.lft.to/lastmile_qr_scan", "ios": "https://dc.lft.to/lastmile_qr_scan"}, "bike_id": "006f7f372e423a1baf710f782d4ed651", "name": "006f7f372e423a1baf710f782d4ed651", "type": "electric_scooter", "lon": -76.94639366666667, "lat": 38.8984445, "is_disabled": 0, "is_reserved": 0, "fusion_lat": 0.0, "fusion_lon": 0.0}, {"rental_uris": {"android": "https://dc.lft.to/lastmile_qr_scan", "ios": "https://dc.lft.to/lastmile_qr_scan"}, "bike_id": "84306252011f576de57e4f760329cff4", "name": "84306252011f576de57e4f760329cff4", "type": "electric_scooter", "lon": -77.06932333333333, "lat": 38.907702666666665, "is_disabled": 0, "is_reserved": 0, "fusion_lat": 0.0, "fusion_lon": 0.0}, {"rental_uris": {"android": "https://dc.lft.to/lastmile_qr_scan", "ios": "https://dc.lft.to/lastmile_qr_scan"}, "bike_id": "5a1566f2049516d635b3a02925046bbd", "name": "5a1566f2049516d635b3a02925046bbd", "type": "electric_scooter", "lon": -77.0335625, "lat": 38.9287385, "is_disabled": 0, "is_reserved": 0, "fusion_lat": 0.0, "fusion_lon": 0.0}, {"rental_uris": {"android": "https://dc.lft.to/lastmile_qr_scan", "ios": "https://dc.lft.to/lastmile_qr_scan"}, "bike_id": "b0d6bd1c5a0494a579be6a236982c518", "name": "b0d6bd1c5a0494a579be6a236982c518", "type": "electric_scooter", "lon": -77.059347, "lat": 38.909449333333335, "is_disabled": 0, "is_reserved": 0, "fusion_lat": 0.0, "fusion_lon": 0.0}, {"rental_uris": {"android": "https://dc.lft.to/lastmile_qr_scan", "ios": "https://dc.lft.to/lastmile_qr_scan"}, "bike_id": "8c3712d7ef36563672528886ba55b109", "name": "8c3712d7ef36563672528886ba55b109", "type": "electric_scooter", "lon": -77.031996, "lat": 38.919788, "is_disabled": 0, "is_reserved": 0, "fusion_lat": 0.0, "fusion_lon": 0.0}, {"rental_uris": {"android": "https://dc.lft.to/lastmile_qr_scan", "ios": "https://dc.lft.to/lastmile_qr_scan"}, "bike_id": "48c46466860c449992f76bc60484f63b", "name": "48c46466860c449992f76bc60484f63b", "type": "electric_scooter", "lon": -77.03357816666667, "lat": 38.886452166666665, "is_disabled": 0, "is_reserved": 0, "fusion_lat": 0.0, "fusion_lon": 0.0}, {"rental_uris": {"android": "https://dc.lft.to/lastmile_qr_scan", "ios": "https://dc.lft.to/lastmile_qr_scan"}, "bike_id": "aa6a5ac92d22b0c725ab7e620a261e4d", "name": "aa6a5ac92d22b0c725ab7e620a261e4d", "type": "electric_scooter", "lon": -77.0463895, "lat": 38.9159565, "is_disabled": 0, "is_reserved": 0, "fusion_lat": 0.0, "fusion_lon": 0.0}, {"rental_uris": {"android": "https://dc.lft.to/lastmile_qr_scan", "ios": "https://dc.lft.to/lastmile_qr_scan"}, "bike_id": "030d78b6acd0d1a9a52975c72ed46beb", "name": "030d78b6acd0d1a9a52975c72ed46beb", "type": "electric_scooter", "lon": -77.03087683333334, "lat": 38.931718333333336, "is_disabled": 0, "is_reserved": 0, "fusion_lat": 0.0, "fusion_lon": 0.0}, {"rental_uris": {"android": "https://dc.lft.to/lastmile_qr_scan", "ios": "https://dc.lft.to/lastmile_qr_scan"}, "bike_id": "0ea0f4b022a5a492aca19c2136f63ffa", "name": "0ea0f4b022a5a492aca19c2136f63ffa", "type": "electric_scooter", "lon": -77.0584365, "lat": 38.910454, "is_disabled": 0, "is_reserved": 0, "fusion_lat": 0.0, "fusion_lon": 0.0}, {"rental_uris": {"android": "https://dc.lft.to/lastmile_qr_scan", "ios": "https://dc.lft.to/lastmile_qr_scan"}, "bike_id": "b63a38f234a32b482130f773044492ec", "name": "b63a38f234a32b482130f773044492ec", "type": "electric_scooter", "lon": -76.99926083333334, "lat": 38.920390166666664, "is_disabled": 0, "is_reserved": 0, "fusion_lat": 0.0, "fusion_lon": 0.0}, {"rental_uris": {"android": "https://dc.lft.to/lastmile_qr_scan", "ios": "https://dc.lft.to/lastmile_qr_scan"}, "bike_id": "de56afa41466acfa29573bdd754215b8", "name": "de56afa41466acfa29573bdd754215b8", "type": "electric_bike", "lon": -77.11330766666667, "lat": 38.83143916666667, "is_disabled": 0, "is_reserved": 0, "fusion_lat": 0.0, "fusion_lon": 0.0}, {"rental_uris": {"android": "https://dc.lft.to/lastmile_qr_scan", "ios": "https://dc.lft.to/lastmile_qr_scan"}, "bike_id": "6444bf1e2acd7f3c0728ad265823c244", "name": "6444bf1e2acd7f3c0728ad265823c244", "type": "electric_scooter", "lon": -77.04840433333334, "lat": 38.907944666666666, "is_disabled": 0, "is_reserved": 0, "fusion_lat": 0.0, "fusion_lon": 0.0}, {"rental_uris": {"android": "https://dc.lft.to/lastmile_qr_scan", "ios": "https://dc.lft.to/lastmile_qr_scan"}, "bike_id": "20c58f39f6c9449bd63a401212fac3f2", "name": "20c58f39f6c9449bd63a401212fac3f2", "type": "electric_scooter", "lon": -77.01420533333334, "lat": 38.92843166666667, "is_disabled": 0, "is_reserved": 0, "fusion_lat": 0.0, "fusion_lon": 0.0}, {"rental_uris": {"android": "https://dc.lft.to/lastmile_qr_scan", "ios": "https://dc.lft.to/lastmile_qr_scan"}, "bike_id": "e37dd9d0f58ca38029054c178a314878", "name": "e37dd9d0f58ca38029054c178a314878", "type": "electric_scooter", "lon": -76.99000083333334, "lat": 38.864172, "is_disabled": 0, "is_reserved": 0, "fusion_lat": 0.0, "fusion_lon": 0.0}, {"rental_uris": {"android": "https://dc.lft.to/lastmile_qr_scan", "ios": "https://dc.lft.to/lastmile_qr_scan"}, "bike_id": "dab1e83a587349bfa8a13e4ca7d1e8ad", "name": "dab1e83a587349bfa8a13e4ca7d1e8ad", "type": "electric_scooter", "lon": -77.01883466666666, "lat": 38.922589, "is_disabled": 0, "is_reserved": 0, "fusion_lat": 0.0, "fusion_lon": 0.0}, {"rental_uris": {"android": "https://dc.lft.to/lastmile_qr_scan", "ios": "https://dc.lft.to/lastmile_qr_scan"}, "bike_id": "18157839a5c5f239a5a2e517fa9dffa3", "name": "18157839a5c5f239a5a2e517fa9dffa3", "type": "electric_scooter", "lon": -77.05897066666667, "lat": 38.9031675, "is_disabled": 0, "is_reserved": 0, "fusion_lat": 0.0, "fusion_lon": 0.0}, {"rental_uris": {"android": "https://dc.lft.to/lastmile_qr_scan", "ios": "https://dc.lft.to/lastmile_qr_scan"}, "bike_id": "b20c17a09de845e7b7ebd50231b7c2b9", "name": "b20c17a09de845e7b7ebd50231b7c2b9", "type": "electric_scooter", "lon": -77.034642, "lat": 38.906338833333336, "is_disabled": 0, "is_reserved": 0, "fusion_lat": 0.0, "fusion_lon": 0.0}, {"rental_uris": {"android": "https://dc.lft.to/lastmile_qr_scan", "ios": "https://dc.lft.to/lastmile_qr_scan"}, "bike_id": "4095667b2878a942020c8fbf8d138e84", "name": "4095667b2878a942020c8fbf8d138e84", "type": "electric_scooter", "lon": -77.03133283333334, "lat": 38.923815, "is_disabled": 0, "is_reserved": 0, "fusion_lat": 0.0, "fusion_lon": 0.0}, {"rental_uris": {"android": "https://dc.lft.to/lastmile_qr_scan", "ios": "https://dc.lft.to/lastmile_qr_scan"}, "bike_id": "37cea84b2f65cd570b2e70995f9f810c", "name": "37cea84b2f65cd570b2e70995f9f810c", "type": "electric_scooter", "lon": -77.03731716666667, "lat": 38.935685166666666, "is_disabled": 0, "is_reserved": 0, "fusion_lat": 0.0, "fusion_lon": 0.0}, {"rental_uris": {"android": "https://dc.lft.to/lastmile_qr_scan", "ios": "https://dc.lft.to/lastmile_qr_scan"}, "bike_id": "f4db68909bd2c87d900d9dd49ba0115d", "name": "f4db68909bd2c87d900d9dd49ba0115d", "type": "electric_bike", "lon": -77.20836716666666, "lat": 38.924633666666665, "is_disabled": 0, "is_reserved": 0, "fusion_lat": 0.0, "fusion_lon": 0.0}, {"rental_uris": {"android": "https://dc.lft.to/lastmile_qr_scan", "ios": "https://dc.lft.to/lastmile_qr_scan"}, "bike_id": "a39a107eeb3eefb6c9be84cde7afc6b6", "name": "a39a107eeb3eefb6c9be84cde7afc6b6", "type": "electric_scooter", "lon": -77.02335583333333, "lat": 38.92615466666667, "is_disabled": 0, "is_reserved": 0, "fusion_lat": 0.0, "fusion_lon": 0.0}, {"rental_uris": {"android": "https://dc.lft.to/lastmile_qr_scan", "ios": "https://dc.lft.to/lastmile_qr_scan"}, "bike_id": "04c63dcb0b59dce9e24363c2814b1e36", "name": "04c63dcb0b59dce9e24363c2814b1e36", "type": "electric_scooter", "lon": -77.027742, "lat": 38.93959483333333, "is_disabled": 0, "is_reserved": 0, "fusion_lat": 0.0, "fusion_lon": 0.0}, {"rental_uris": {"android": "https://dc.lft.to/lastmile_qr_scan", "ios": "https://dc.lft.to/lastmile_qr_scan"}, "bike_id": "c0cc41073ce09c1a2da8d4a47a563c8f", "name": "c0cc41073ce09c1a2da8d4a47a563c8f", "type": "electric_scooter", "lon": -77.0012095, "lat": 38.905608, "is_disabled": 0, "is_reserved": 0, "fusion_lat": 0.0, "fusion_lon": 0.0}, {"rental_uris": {"android": "https://dc.lft.to/lastmile_qr_scan", "ios": "https://dc.lft.to/lastmile_qr_scan"}, "bike_id": "aee495d769ef4ebdc0fe8ef0b9629161", "name": "aee495d769ef4ebdc0fe8ef0b9629161", "type": "electric_scooter", "lon": -77.04269333333333, "lat": 38.90559733333333, "is_disabled": 0, "is_reserved": 0, "fusion_lat": 0.0, "fusion_lon": 0.0}, {"rental_uris": {"android": "https://dc.lft.to/lastmile_qr_scan", "ios": "https://dc.lft.to/lastmile_qr_scan"}, "bike_id": "42fdf76f5e111e7bc789e50faf085a36", "name": "42fdf76f5e111e7bc789e50faf085a36", "type": "electric_scooter", "lon": -77.07954166666667, "lat": 38.947623, "is_disabled": 0, "is_reserved": 0, "fusion_lat": 0.0, "fusion_lon": 0.0}, {"rental_uris": {"android": "https://dc.lft.to/lastmile_qr_scan", "ios": "https://dc.lft.to/lastmile_qr_scan"}, "bike_id": "c774743c66b694297424780241eed53e", "name": "c774743c66b694297424780241eed53e", "type": "electric_scooter", "lon": -77.046456, "lat": 38.919252166666666, "is_disabled": 0, "is_reserved": 0, "fusion_lat": 0.0, "fusion_lon": 0.0}, {"rental_uris": {"android": "https://dc.lft.to/lastmile_qr_scan", "ios": "https://dc.lft.to/lastmile_qr_scan"}, "bike_id": "615510bcc1ad41892d58dfa8293b3076", "name": "615510bcc1ad41892d58dfa8293b3076", "type": "electric_scooter", "lon": -77.02709583333333, "lat": 38.908848166666665, "is_disabled": 0, "is_reserved": 0, "fusion_lat": 0.0, "fusion_lon": 0.0}, {"rental_uris": {"android": "https://dc.lft.to/lastmile_qr_scan", "ios": "https://dc.lft.to/lastmile_qr_scan"}, "bike_id": "e7ae05a7a40caa88f744872b2bcf7401", "name": "e7ae05a7a40caa88f744872b2bcf7401", "type": "electric_scooter", "lon": -76.99587283333334, "lat": 38.884342833333335, "is_disabled": 0, "is_reserved": 0, "fusion_lat": 0.0, "fusion_lon": 0.0}, {"rental_uris": {"android": "https://dc.lft.to/lastmile_qr_scan", "ios": "https://dc.lft.to/lastmile_qr_scan"}, "bike_id": "781c597a2ae28f619a8f46f5d98a8174", "name": "781c597a2ae28f619a8f46f5d98a8174", "type": "electric_scooter", "lon": -77.032878, "lat": 38.92059183333333, "is_disabled": 0, "is_reserved": 0, "fusion_lat": 0.0, "fusion_lon": 0.0}, {"rental_uris": {"android": "https://dc.lft.to/lastmile_qr_scan", "ios": "https://dc.lft.to/lastmile_qr_scan"}, "bike_id": "69bfe910ce33ab2952b1b6b2067ea114", "name": "69bfe910ce33ab2952b1b6b2067ea114", "type": "electric_scooter", "lon": -77.04352216666666, "lat": 38.9214465, "is_disabled": 0, "is_reserved": 0, "fusion_lat": 0.0, "fusion_lon": 0.0}, {"rental_uris": {"android": "https://dc.lft.to/lastmile_qr_scan", "ios": "https://dc.lft.to/lastmile_qr_scan"}, "bike_id": "7619b3aaed40e8ccf0c00573e19a2488", "name": "7619b3aaed40e8ccf0c00573e19a2488", "type": "electric_scooter", "lon": -77.05037966666667, "lat": 38.9063015, "is_disabled": 0, "is_reserved": 0, "fusion_lat": 0.0, "fusion_lon": 0.0}, {"rental_uris": {"android": "https://dc.lft.to/lastmile_qr_scan", "ios": "https://dc.lft.to/lastmile_qr_scan"}, "bike_id": "3c0b771d0f3c8b3085c45b5d6a21c06a", "name": "3c0b771d0f3c8b3085c45b5d6a21c06a", "type": "electric_scooter", "lon": -77.03373466666666, "lat": 38.90386016666667, "is_disabled": 0, "is_reserved": 0, "fusion_lat": 0.0, "fusion_lon": 0.0}, {"rental_uris": {"android": "https://dc.lft.to/lastmile_qr_scan", "ios": "https://dc.lft.to/lastmile_qr_scan"}, "bike_id": "736868802c475ee3179b095077bbcc68", "name": "736868802c475ee3179b095077bbcc68", "type": "electric_scooter", "lon": -77.030427, "lat": 38.9132935, "is_disabled": 0, "is_reserved": 0, "fusion_lat": 0.0, "fusion_lon": 0.0}, {"rental_uris": {"android": "https://dc.lft.to/lastmile_qr_scan", "ios": "https://dc.lft.to/lastmile_qr_scan"}, "bike_id": "52a654af2bb0f3dc6795adbf82db0014", "name": "52a654af2bb0f3dc6795adbf82db0014", "type": "electric_scooter", "lon": -77.02079966666666, "lat": 38.91120383333333, "is_disabled": 0, "is_reserved": 0, "fusion_lat": 0.0, "fusion_lon": 0.0}, {"rental_uris": {"android": "https://dc.lft.to/lastmile_qr_scan", "ios": "https://dc.lft.to/lastmile_qr_scan"}, "bike_id": "b57e6ff14af5d6938512e951f6fd875c", "name": "b57e6ff14af5d6938512e951f6fd875c", "type": "electric_scooter", "lon": -77.02575616666667, "lat": 38.916010666666665, "is_disabled": 0, "is_reserved": 0, "fusion_lat": 0.0, "fusion_lon": 0.0}, {"rental_uris": {"android": "https://dc.lft.to/lastmile_qr_scan", "ios": "https://dc.lft.to/lastmile_qr_scan"}, "bike_id": "42ec44bd6f80024b6d173fc355ba5a64", "name": "42ec44bd6f80024b6d173fc355ba5a64", "type": "electric_scooter", "lon": -77.02166716666666, "lat": 38.88475666666667, "is_disabled": 0, "is_reserved": 0, "fusion_lat": 0.0, "fusion_lon": 0.0}, {"rental_uris": {"android": "https://dc.lft.to/lastmile_qr_scan", "ios": "https://dc.lft.to/lastmile_qr_scan"}, "bike_id": "069be669d01399aa1a0be85ab6085240", "name": "069be669d01399aa1a0be85ab6085240", "type": "electric_bike", "lon": -76.984745, "lat": 38.91095766666667, "is_disabled": 0, "is_reserved": 0, "fusion_lat": 0.0, "fusion_lon": 0.0}, {"rental_uris": {"android": "https://dc.lft.to/lastmile_qr_scan", "ios": "https://dc.lft.to/lastmile_qr_scan"}, "bike_id": "cb4e9f9619172d85783ae57fc7fb8c13", "name": "cb4e9f9619172d85783ae57fc7fb8c13", "type": "electric_scooter", "lon": -77.03217816666667, "lat": 38.91711766666667, "is_disabled": 0, "is_reserved": 0, "fusion_lat": 0.0, "fusion_lon": 0.0}, {"rental_uris": {"android": "https://dc.lft.to/lastmile_qr_scan", "ios": "https://dc.lft.to/lastmile_qr_scan"}, "bike_id": "113176b8e0501eaea2ac91e59729162e", "name": "113176b8e0501eaea2ac91e59729162e", "type": "electric_scooter", "lon": -77.03945216666666, "lat": 38.9156575, "is_disabled": 0, "is_reserved": 0, "fusion_lat": 0.0, "fusion_lon": 0.0}, {"rental_uris": {"android": "https://dc.lft.to/lastmile_qr_scan", "ios": "https://dc.lft.to/lastmile_qr_scan"}, "bike_id": "4348d677dba0e2660a7891dda8889137", "name": "4348d677dba0e2660a7891dda8889137", "type": "electric_scooter", "lon": -77.02211816666667, "lat": 38.9142695, "is_disabled": 0, "is_reserved": 0, "fusion_lat": 0.0, "fusion_lon": 0.0}, {"rental_uris": {"android": "https://dc.lft.to/lastmile_qr_scan", "ios": "https://dc.lft.to/lastmile_qr_scan"}, "bike_id": "cbe808ada535d83f5502caa24a1cfbf4", "name": "cbe808ada535d83f5502caa24a1cfbf4", "type": "electric_scooter", "lon": -76.94838416666667, "lat": 38.895876333333334, "is_disabled": 0, "is_reserved": 0, "fusion_lat": 0.0, "fusion_lon": 0.0}, {"rental_uris": {"android": "https://dc.lft.to/lastmile_qr_scan", "ios": "https://dc.lft.to/lastmile_qr_scan"}, "bike_id": "877fd1d9f177afe820cf9d2b0d7c75aa", "name": "877fd1d9f177afe820cf9d2b0d7c75aa", "type": "electric_scooter", "lon": -77.04519316666666, "lat": 38.902666833333335, "is_disabled": 0, "is_reserved": 0, "fusion_lat": 0.0, "fusion_lon": 0.0}, {"rental_uris": {"android": "https://dc.lft.to/lastmile_qr_scan", "ios": "https://dc.lft.to/lastmile_qr_scan"}, "bike_id": "6af24147293047ddbb68471aeda87e92", "name": "6af24147293047ddbb68471aeda87e92", "type": "electric_scooter", "lon": -77.0311905, "lat": 38.915631833333336, "is_disabled": 0, "is_reserved": 0, "fusion_lat": 0.0, "fusion_lon": 0.0}, {"rental_uris": {"android": "https://dc.lft.to/lastmile_qr_scan", "ios": "https://dc.lft.to/lastmile_qr_scan"}, "bike_id": "b39aeb63cfa03ddf6d2cf4e45cda856e", "name": "b39aeb63cfa03ddf6d2cf4e45cda856e", "type": "electric_scooter", "lon": -77.01751883333333, "lat": 38.90233416666667, "is_disabled": 0, "is_reserved": 0, "fusion_lat": 0.0, "fusion_lon": 0.0}, {"rental_uris": {"android": "https://dc.lft.to/lastmile_qr_scan", "ios": "https://dc.lft.to/lastmile_qr_scan"}, "bike_id": "75f27cc650ac0450383c9e813efa44ac", "name": "75f27cc650ac0450383c9e813efa44ac", "type": "electric_scooter", "lon": -77.02382983333334, "lat": 38.9167925, "is_disabled": 0, "is_reserved": 0, "fusion_lat": 0.0, "fusion_lon": 0.0}, {"rental_uris": {"android": "https://dc.lft.to/lastmile_qr_scan", "ios": "https://dc.lft.to/lastmile_qr_scan"}, "bike_id": "32fcb8562aea563408200659413ec8e0", "name": "32fcb8562aea563408200659413ec8e0", "type": "electric_scooter", "lon": -77.02774266666667, "lat": 38.916960333333336, "is_disabled": 0, "is_reserved": 0, "fusion_lat": 0.0, "fusion_lon": 0.0}, {"rental_uris": {"android": "https://dc.lft.to/lastmile_qr_scan", "ios": "https://dc.lft.to/lastmile_qr_scan"}, "bike_id": "49d6f80fb6a2007f5963a9627a68c39a", "name": "49d6f80fb6a2007f5963a9627a68c39a", "type": "electric_scooter", "lon": -77.0349895, "lat": 38.924787333333335, "is_disabled": 0, "is_reserved": 0, "fusion_lat": 0.0, "fusion_lon": 0.0}, {"rental_uris": {"android": "https://dc.lft.to/lastmile_qr_scan", "ios": "https://dc.lft.to/lastmile_qr_scan"}, "bike_id": "34d975e4d6d684e6ba13ba40486861b8", "name": "34d975e4d6d684e6ba13ba40486861b8", "type": "electric_scooter", "lon": -77.02961666666667, "lat": 38.898757833333335, "is_disabled": 0, "is_reserved": 0, "fusion_lat": 0.0, "fusion_lon": 0.0}, {"rental_uris": {"android": "https://dc.lft.to/lastmile_qr_scan", "ios": "https://dc.lft.to/lastmile_qr_scan"}, "bike_id": "8d3395ca190a9398b99226c1691d1484", "name": "8d3395ca190a9398b99226c1691d1484", "type": "electric_scooter", "lon": -77.0463065, "lat": 38.90117266666667, "is_disabled": 0, "is_reserved": 0, "fusion_lat": 0.0, "fusion_lon": 0.0}, {"rental_uris": {"android": "https://dc.lft.to/lastmile_qr_scan", "ios": "https://dc.lft.to/lastmile_qr_scan"}, "bike_id": "ac4ff02e768962fcfe121500e12935b2", "name": "ac4ff02e768962fcfe121500e12935b2", "type": "electric_bike", "lon": -77.0669295, "lat": 38.831762499999996, "is_disabled": 0, "is_reserved": 0, "fusion_lat": 0.0, "fusion_lon": 0.0}, {"rental_uris": {"android": "https://dc.lft.to/lastmile_qr_scan", "ios": "https://dc.lft.to/lastmile_qr_scan"}, "bike_id": "e40c08c8207826f7522ea3d13db0cedf", "name": "e40c08c8207826f7522ea3d13db0cedf", "type": "electric_scooter", "lon": -77.031918, "lat": 38.90360233333333, "is_disabled": 0, "is_reserved": 0, "fusion_lat": 0.0, "fusion_lon": 0.0}, {"rental_uris": {"android": "https://dc.lft.to/lastmile_qr_scan", "ios": "https://dc.lft.to/lastmile_qr_scan"}, "bike_id": "f67aae9a2606d4d69f54434315a0dd71", "name": "f67aae9a2606d4d69f54434315a0dd71", "type": "electric_scooter", "lon": -77.0239235, "lat": 38.886824, "is_disabled": 0, "is_reserved": 0, "fusion_lat": 0.0, "fusion_lon": 0.0}, {"rental_uris": {"android": "https://dc.lft.to/lastmile_qr_scan", "ios": "https://dc.lft.to/lastmile_qr_scan"}, "bike_id": "916f4fd7095b2d1270993b4966da608a", "name": "916f4fd7095b2d1270993b4966da608a", "type": "electric_scooter", "lon": -77.0213235, "lat": 38.924886, "is_disabled": 0, "is_reserved": 0, "fusion_lat": 0.0, "fusion_lon": 0.0}, {"rental_uris": {"android": "https://dc.lft.to/lastmile_qr_scan", "ios": "https://dc.lft.to/lastmile_qr_scan"}, "bike_id": "74d90bcde7caba781dddfbc37df11743", "name": "74d90bcde7caba781dddfbc37df11743", "type": "electric_scooter", "lon": -77.03852, "lat": 38.903265, "is_disabled": 0, "is_reserved": 0, "fusion_lat": 0.0, "fusion_lon": 0.0}, {"rental_uris": {"android": "https://dc.lft.to/lastmile_qr_scan", "ios": "https://dc.lft.to/lastmile_qr_scan"}, "bike_id": "81c53c9e73105f12dc5e5fdbe373b647", "name": "81c53c9e73105f12dc5e5fdbe373b647", "type": "electric_scooter", "lon": -77.06414533333333, "lat": 38.912989833333334, "is_disabled": 0, "is_reserved": 0, "fusion_lat": 0.0, "fusion_lon": 0.0}, {"rental_uris": {"android": "https://dc.lft.to/lastmile_qr_scan", "ios": "https://dc.lft.to/lastmile_qr_scan"}, "bike_id": "5e5ed0383402d75d6fb38de3371951ab", "name": "5e5ed0383402d75d6fb38de3371951ab", "type": "electric_bike", "lon": -76.94574566666667, "lat": 38.93745066666666, "is_disabled": 0, "is_reserved": 0, "fusion_lat": 0.0, "fusion_lon": 0.0}, {"rental_uris": {"android": "https://dc.lft.to/lastmile_qr_scan", "ios": "https://dc.lft.to/lastmile_qr_scan"}, "bike_id": "1cc69ae55890ab98c0cf8dbe0175accb", "name": "1cc69ae55890ab98c0cf8dbe0175accb", "type": "electric_scooter", "lon": -76.99271133333333, "lat": 38.9003885, "is_disabled": 0, "is_reserved": 0, "fusion_lat": 0.0, "fusion_lon": 0.0}, {"rental_uris": {"android": "https://dc.lft.to/lastmile_qr_scan", "ios": "https://dc.lft.to/lastmile_qr_scan"}, "bike_id": "934d7c064e96f286a8b4b8f61d013419", "name": "934d7c064e96f286a8b4b8f61d013419", "type": "electric_scooter", "lon": -76.98709766666667, "lat": 38.866998333333335, "is_disabled": 0, "is_reserved": 0, "fusion_lat": 0.0, "fusion_lon": 0.0}, {"rental_uris": {"android": "https://dc.lft.to/lastmile_qr_scan", "ios": "https://dc.lft.to/lastmile_qr_scan"}, "bike_id": "3a0ff0c4983a17ef4c67701adeccf842", "name": "3a0ff0c4983a17ef4c67701adeccf842", "type": "electric_scooter", "lon": -77.02824233333334, "lat": 38.91400316666667, "is_disabled": 0, "is_reserved": 0, "fusion_lat": 0.0, "fusion_lon": 0.0}, {"rental_uris": {"android": "https://dc.lft.to/lastmile_qr_scan", "ios": "https://dc.lft.to/lastmile_qr_scan"}, "bike_id": "6f5a935da095a27c032f56a1da3d0e8b", "name": "6f5a935da095a27c032f56a1da3d0e8b", "type": "electric_scooter", "lon": -77.038296, "lat": 38.90336533333333, "is_disabled": 0, "is_reserved": 0, "fusion_lat": 0.0, "fusion_lon": 0.0}, {"rental_uris": {"android": "https://dc.lft.to/lastmile_qr_scan", "ios": "https://dc.lft.to/lastmile_qr_scan"}, "bike_id": "fa01b39d59f47b72b97ef18ef5385b3d", "name": "fa01b39d59f47b72b97ef18ef5385b3d", "type": "electric_scooter", "lon": -77.03775116666667, "lat": 38.9169415, "is_disabled": 0, "is_reserved": 0, "fusion_lat": 0.0, "fusion_lon": 0.0}, {"rental_uris": {"android": "https://dc.lft.to/lastmile_qr_scan", "ios": "https://dc.lft.to/lastmile_qr_scan"}, "bike_id": "38a82e4ffbc9f06e2e8cb445073c5fac", "name": "38a82e4ffbc9f06e2e8cb445073c5fac", "type": "electric_scooter", "lon": -77.02197883333334, "lat": 38.89549133333333, "is_disabled": 0, "is_reserved": 0, "fusion_lat": 0.0, "fusion_lon": 0.0}, {"rental_uris": {"android": "https://dc.lft.to/lastmile_qr_scan", "ios": "https://dc.lft.to/lastmile_qr_scan"}, "bike_id": "f5f908ceb5e4ec95e3d5f13419c326ee", "name": "f5f908ceb5e4ec95e3d5f13419c326ee", "type": "electric_scooter", "lon": -77.0385915, "lat": 38.90782866666667, "is_disabled": 0, "is_reserved": 0, "fusion_lat": 0.0, "fusion_lon": 0.0}, {"rental_uris": {"android": "https://dc.lft.to/lastmile_qr_scan", "ios": "https://dc.lft.to/lastmile_qr_scan"}, "bike_id": "d649291ad642909a6fd078c49b876da0", "name": "d649291ad642909a6fd078c49b876da0", "type": "electric_scooter", "lon": -77.02563966666666, "lat": 38.918161833333336, "is_disabled": 0, "is_reserved": 0, "fusion_lat": 0.0, "fusion_lon": 0.0}, {"rental_uris": {"android": "https://dc.lft.to/lastmile_qr_scan", "ios": "https://dc.lft.to/lastmile_qr_scan"}, "bike_id": "3f8f99ef063a3e21cd2e31f4ba5725a1", "name": "3f8f99ef063a3e21cd2e31f4ba5725a1", "type": "electric_scooter", "lon": -77.02695666666666, "lat": 38.91136483333333, "is_disabled": 0, "is_reserved": 0, "fusion_lat": 0.0, "fusion_lon": 0.0}, {"rental_uris": {"android": "https://dc.lft.to/lastmile_qr_scan", "ios": "https://dc.lft.to/lastmile_qr_scan"}, "bike_id": "9de06c53158d3ef073597e4ceb36d01a", "name": "9de06c53158d3ef073597e4ceb36d01a", "type": "electric_bike", "lon": -76.985144, "lat": 38.8807205, "is_disabled": 0, "is_reserved": 0, "fusion_lat": 0.0, "fusion_lon": 0.0}, {"rental_uris": {"android": "https://dc.lft.to/lastmile_qr_scan", "ios": "https://dc.lft.to/lastmile_qr_scan"}, "bike_id": "44bd5125d7e921ef06136122eb06c934", "name": "44bd5125d7e921ef06136122eb06c934", "type": "electric_scooter", "lon": -77.00375016666666, "lat": 38.876361833333334, "is_disabled": 0, "is_reserved": 0, "fusion_lat": 0.0, "fusion_lon": 0.0}, {"rental_uris": {"android": "https://dc.lft.to/lastmile_qr_scan", "ios": "https://dc.lft.to/lastmile_qr_scan"}, "bike_id": "f7626966e1fc82d5f93a67b286b7f6d4", "name": "f7626966e1fc82d5f93a67b286b7f6d4", "type": "electric_scooter", "lon": -77.035364, "lat": 38.924014666666665, "is_disabled": 0, "is_reserved": 0, "fusion_lat": 0.0, "fusion_lon": 0.0}, {"rental_uris": {"android": "https://dc.lft.to/lastmile_qr_scan", "ios": "https://dc.lft.to/lastmile_qr_scan"}, "bike_id": "e27a0c24d43ddfc7f625f6e6a75812da", "name": "e27a0c24d43ddfc7f625f6e6a75812da", "type": "electric_scooter", "lon": -77.04196433333334, "lat": 38.9187385, "is_disabled": 0, "is_reserved": 0, "fusion_lat": 0.0, "fusion_lon": 0.0}, {"rental_uris": {"android": "https://dc.lft.to/lastmile_qr_scan", "ios": "https://dc.lft.to/lastmile_qr_scan"}, "bike_id": "82a564f6ae8862c6c87ec1c423fe9796", "name": "82a564f6ae8862c6c87ec1c423fe9796", "type": "electric_scooter", "lon": -76.9774095, "lat": 38.86830416666667, "is_disabled": 0, "is_reserved": 0, "fusion_lat": 0.0, "fusion_lon": 0.0}, {"rental_uris": {"android": "https://dc.lft.to/lastmile_qr_scan", "ios": "https://dc.lft.to/lastmile_qr_scan"}, "bike_id": "86635093cf805658721f391a973cdf4a", "name": "86635093cf805658721f391a973cdf4a", "type": "electric_scooter", "lon": -77.04475883333333, "lat": 38.9213625, "is_disabled": 0, "is_reserved": 0, "fusion_lat": 0.0, "fusion_lon": 0.0}, {"rental_uris": {"android": "https://dc.lft.to/lastmile_qr_scan", "ios": "https://dc.lft.to/lastmile_qr_scan"}, "bike_id": "1cd3d5a928cbb0f830ac22ea783b75fc", "name": "1cd3d5a928cbb0f830ac22ea783b75fc", "type": "electric_scooter", "lon": -77.02978783333333, "lat": 38.9519425, "is_disabled": 0, "is_reserved": 0, "fusion_lat": 0.0, "fusion_lon": 0.0}, {"rental_uris": {"android": "https://dc.lft.to/lastmile_qr_scan", "ios": "https://dc.lft.to/lastmile_qr_scan"},