{"data": {"bikes": [{"fusion_lat": 0.0, "name": "6943dba9f9885e0fb3f3238d000e9f1e", "is_disabled": 0, "rental_uris": {"android": "https://dc.lft.to/lastmile_qr_scan", "ios": "https://dc.lft.to/lastmile_qr_scan"}, "fusion_lon": 0.0, "lat": 38.89732133333333, "bike_id": "6943dba9f9885e0fb3f3238d000e9f1e", "type": "electric_scooter", "is_reserved": 0, "lon": -77.04636166666667}, {"fusion_lat": 0.0, "name": "0f062dbc3ae1857c125db53524f30eec", "is_disabled": 0, "rental_uris": {"android": "https://dc.lft.to/lastmile_qr_scan", "ios": "https://dc.lft.to/lastmile_qr_scan"}, "fusion_lon": 0.0, "lat": 38.908525166666664, "bike_id": "0f062dbc3ae1857c125db53524f30eec", "type": "electric_scooter", "is_reserved": 0, "lon": -77.04474366666666}, {"fusion_lat": 0.0, "name": "1e1063636518ddbe27a35ac1e45e0dc0", "is_disabled": 0, "rental_uris": {"android": "https://dc.lft.to/lastmile_qr_scan", "ios": "https://dc.lft.to/lastmile_qr_scan"}, "fusion_lon": 0.0, "lat": 38.8784885, "bike_id": "1e1063636518ddbe27a35ac1e45e0dc0", "type": "electric_bike", "is_reserved": 0, "lon": -77.03026966666667}, {"fusion_lat": 0.0, "name": "cc4daf2a4b88667a4f70194b4db6d7c6", "is_disabled": 0, "rental_uris": {"android": "https://dc.lft.to/lastmile_qr_scan", "ios": "https://dc.lft.to/lastmile_qr_scan"}, "fusion_lon": 0.0, "lat": 38.91997633333333, "bike_id": "cc4daf2a4b88667a4f70194b4db6d7c6", "type": "electric_scooter", "is_reserved": 0, "lon": -77.07195666666667}, {"fusion_lat": 0.0, "name": "0bf34ebd05d3b16e5c3f5bb39323dc3a", "is_disabled": 0, "rental_uris": {"android": "https://dc.lft.to/lastmile_qr_scan", "ios": "https://dc.lft.to/lastmile_qr_scan"}, "fusion_lon": 0.0, "lat": 38.85415316666667, "bike_id": "0bf34ebd05d3b16e5c3f5bb39323dc3a", "type": "electric_bike", "is_reserved": 0, "lon": -77.12073566666666}, {"fusion_lat": 0.0, "name": "b8e1c6219747b11fa46b9ef6b6553142", "is_disabled": 0, "rental_uris": {"android": "https://dc.lft.to/lastmile_qr_scan", "ios": "https://dc.lft.to/lastmile_qr_scan"}, "fusion_lon": 0.0, "lat": 38.92096983333333, "bike_id": "b8e1c6219747b11fa46b9ef6b6553142", "type": "electric_scooter", "is_reserved": 0, "lon": -76.9945925}, {"fusion_lat": 0.0, "name": "059afca8b332bc10508203e5bf19f0f5", "is_disabled": 0, "rental_uris": {"android": "https://dc.lft.to/lastmile_qr_scan", "ios": "https://dc.lft.to/lastmile_qr_scan"}, "fusion_lon": 0.0, "lat": 38.9429075, "bike_id": "059afca8b332bc10508203e5bf19f0f5", "type": "electric_scooter", "is_reserved": 0, "lon": -77.02172433333334}, {"fusion_lat": 0.0, "name": "2df54d6def21f41667c405b7fab59a0f", "is_disabled": 0, "rental_uris": {"android": "https://dc.lft.to/lastmile_qr_scan", "ios": "https://dc.lft.to/lastmile_qr_scan"}, "fusion_lon": 0.0, "lat": 38.900594166666664, "bike_id": "2df54d6def21f41667c405b7fab59a0f", "type": "electric_scooter", "is_reserved": 0, "lon": -77.03526183333334}, {"fusion_lat": 0.0, "name": "5b003484915f0648974922f75aea2770", "is_disabled": 0, "rental_uris": {"android": "https://dc.lft.to/lastmile_qr_scan", "ios": "https://dc.lft.to/lastmile_qr_scan"}, "fusion_lon": 0.0, "lat": 38.88300183333333, "bike_id": "5b003484915f0648974922f75aea2770", "type": "electric_scooter", "is_reserved": 0, "lon": -76.94855633333333}, {"fusion_lat": 0.0, "name": "f71dba8df65953630e74dcbe774a03b1", "is_disabled": 0, "rental_uris": {"android": "https://dc.lft.to/lastmile_qr_scan", "ios": "https://dc.lft.to/lastmile_qr_scan"}, "fusion_lon": 0.0, "lat": 38.985473166666665, "bike_id": "f71dba8df65953630e74dcbe774a03b1", "type": "electric_bike", "is_reserved": 0, "lon": -77.00401716666667}, {"fusion_lat": 0.0, "name": "22169888bf8236aa16dacf44e2396133", "is_disabled": 0, "rental_uris": {"android": "https://dc.lft.to/lastmile_qr_scan", "ios": "https://dc.lft.to/lastmile_qr_scan"}, "fusion_lon": 0.0, "lat": 38.88422583333333, "bike_id": "22169888bf8236aa16dacf44e2396133", "type": "electric_scooter", "is_reserved": 0, "lon": -76.957482}, {"fusion_lat": 0.0, "name": "e607a462908d18a891d2ac650377b32d", "is_disabled": 0, "rental_uris": {"android": "https://dc.lft.to/lastmile_qr_scan", "ios": "https://dc.lft.to/lastmile_qr_scan"}, "fusion_lon": 0.0, "lat": 38.89835716666666, "bike_id": "e607a462908d18a891d2ac650377b32d", "type": "electric_scooter", "is_reserved": 0, "lon": -77.01339416666667}, {"fusion_lat": 0.0, "name": "026c4b0b5e854d951d66054bba11b272", "is_disabled": 0, "rental_uris": {"android": "https://dc.lft.to/lastmile_qr_scan", "ios": "https://dc.lft.to/lastmile_qr_scan"}, "fusion_lon": 0.0, "lat": 38.92415533333333, "bike_id": "026c4b0b5e854d951d66054bba11b272", "type": "electric_scooter", "is_reserved": 0, "lon": -76.99623916666667}, {"fusion_lat": 0.0, "name": "c87e2e6b37cf85d4813a9a50d58cf2d7", "is_disabled": 0, "rental_uris": {"android": "https://dc.lft.to/lastmile_qr_scan", "ios": "https://dc.lft.to/lastmile_qr_scan"}, "fusion_lon": 0.0, "lat": 38.925117666666665, "bike_id": "c87e2e6b37cf85d4813a9a50d58cf2d7", "type": "electric_scooter", "is_reserved": 0, "lon": -77.0228615}, {"fusion_lat": 0.0, "name": "f0ea1cd0fe827f3293caac04fb8165c0", "is_disabled": 0, "rental_uris": {"android": "https://dc.lft.to/lastmile_qr_scan", "ios": "https://dc.lft.to/lastmile_qr_scan"}, "fusion_lon": 0.0, "lat": 38.93581733333333, "bike_id": "f0ea1cd0fe827f3293caac04fb8165c0", "type": "electric_scooter", "is_reserved": 0, "lon": -77.02846283333334}, {"fusion_lat": 0.0, "name": "a41f23773b48c70dc68452f41888a6da", "is_disabled": 0, "rental_uris": {"android": "https://dc.lft.to/lastmile_qr_scan", "ios": "https://dc.lft.to/lastmile_qr_scan"}, "fusion_lon": 0.0, "lat": 38.887797, "bike_id": "a41f23773b48c70dc68452f41888a6da", "type": "electric_scooter", "is_reserved": 0, "lon": -77.0330325}, {"fusion_lat": 0.0, "name": "010b61c9b9f85d4dcaa413996852919f", "is_disabled": 0, "rental_uris": {"android": "https://dc.lft.to/lastmile_qr_scan", "ios": "https://dc.lft.to/lastmile_qr_scan"}, "fusion_lon": 0.0, "lat": 38.907636333333336, "bike_id": "010b61c9b9f85d4dcaa413996852919f", "type": "electric_scooter", "is_reserved": 0, "lon": -77.05596733333333}, {"fusion_lat": 0.0, "name": "5f553e1f4cdfe1e8767c1a07c96b643b", "is_disabled": 0, "rental_uris": {"android": "https://dc.lft.to/lastmile_qr_scan", "ios": "https://dc.lft.to/lastmile_qr_scan"}, "fusion_lon": 0.0, "lat": 38.912179333333334, "bike_id": "5f553e1f4cdfe1e8767c1a07c96b643b", "type": "electric_scooter", "is_reserved": 0, "lon": -77.03184183333333}, {"fusion_lat": 0.0, "name": "9efef6a66c320baa66d994ec1b6c9a55", "is_disabled": 0, "rental_uris": {"android": "https://dc.lft.to/lastmile_qr_scan", "ios": "https://dc.lft.to/lastmile_qr_scan"}, "fusion_lon": 0.0, "lat": 38.952180166666665, "bike_id": "9efef6a66c320baa66d994ec1b6c9a55", "type": "electric_scooter", "is_reserved": 0, "lon": -77.082171}, {"fusion_lat": 0.0, "name": "11354d15eb79bd91dc9866da531d3fd5", "is_disabled": 0, "rental_uris": {"android": "https://dc.lft.to/lastmile_qr_scan", "ios": "https://dc.lft.to/lastmile_qr_scan"}, "fusion_lon": 0.0, "lat": 38.883249666666664, "bike_id": "11354d15eb79bd91dc9866da531d3fd5", "type": "electric_scooter", "is_reserved": 0, "lon": -77.01773666666666}, {"fusion_lat": 0.0, "name": "08f28a24a6764141711d75d3620dafc2", "is_disabled": 0, "rental_uris": {"android": "https://dc.lft.to/lastmile_qr_scan", "ios": "https://dc.lft.to/lastmile_qr_scan"}, "fusion_lon": 0.0, "lat": 38.905801, "bike_id": "08f28a24a6764141711d75d3620dafc2", "type": "electric_scooter", "is_reserved": 0, "lon": -77.02209016666667}, {"fusion_lat": 0.0, "name": "1774be945e77445aa4a7eeefb6721921", "is_disabled": 0, "rental_uris": {"android": "https://dc.lft.to/lastmile_qr_scan", "ios": "https://dc.lft.to/lastmile_qr_scan"}, "fusion_lon": 0.0, "lat": 38.91563983333333, "bike_id": "1774be945e77445aa4a7eeefb6721921", "type": "electric_scooter", "is_reserved": 0, "lon": -77.0315}, {"fusion_lat": 0.0, "name": "3d25f02271ce20cd447bf2bb5b3df960", "is_disabled": 0, "rental_uris": {"android": "https://dc.lft.to/lastmile_qr_scan", "ios": "https://dc.lft.to/lastmile_qr_scan"}, "fusion_lon": 0.0, "lat": 38.88499516666667, "bike_id": "3d25f02271ce20cd447bf2bb5b3df960", "type": "electric_scooter", "is_reserved": 0, "lon": -77.02075383333333}, {"fusion_lat": 0.0, "name": "7626c5fe828cbbc936be64b57bc1e4a1", "is_disabled": 0, "rental_uris": {"android": "https://dc.lft.to/lastmile_qr_scan", "ios": "https://dc.lft.to/lastmile_qr_scan"}, "fusion_lon": 0.0, "lat": 38.87288683333333, "bike_id": "7626c5fe828cbbc936be64b57bc1e4a1", "type": "electric_scooter", "is_reserved": 0, "lon": -77.00985883333334}, {"fusion_lat": 0.0, "name": "1f43d85f35f9dc0f2186f9380a17c590", "is_disabled": 0, "rental_uris": {"android": "https://dc.lft.to/lastmile_qr_scan", "ios": "https://dc.lft.to/lastmile_qr_scan"}, "fusion_lon": 0.0, "lat": 38.927055833333334, "bike_id": "1f43d85f35f9dc0f2186f9380a17c590", "type": "electric_scooter", "is_reserved": 0, "lon": -77.0208565}, {"fusion_lat": 0.0, "name": "5c40681e5888813997ae189f8bf064f7", "is_disabled": 0, "rental_uris": {"android": "https://dc.lft.to/lastmile_qr_scan", "ios": "https://dc.lft.to/lastmile_qr_scan"}, "fusion_lon": 0.0, "lat": 38.939392166666664, "bike_id": "5c40681e5888813997ae189f8bf064f7", "type": "electric_scooter", "is_reserved": 0, "lon": -77.03322083333333}, {"fusion_lat": 0.0, "name": "9444fe7be10820730d154cd79e96d342", "is_disabled": 0, "rental_uris": {"android": "https://dc.lft.to/lastmile_qr_scan", "ios": "https://dc.lft.to/lastmile_qr_scan"}, "fusion_lon": 0.0, "lat": 38.90933583333333, "bike_id": "9444fe7be10820730d154cd79e96d342", "type": "electric_scooter", "is_reserved": 0, "lon": -77.021301}, {"fusion_lat": 0.0, "name": "df62d21de6fc76f79d4bf860389d9518", "is_disabled": 0, "rental_uris": {"android": "https://dc.lft.to/lastmile_qr_scan", "ios": "https://dc.lft.to/lastmile_qr_scan"}, "fusion_lon": 0.0, "lat": 38.90382, "bike_id": "df62d21de6fc76f79d4bf860389d9518", "type": "electric_scooter", "is_reserved": 0, "lon": -76.99003783333333}, {"fusion_lat": 0.0, "name": "1fb352bba28319a049ea530cf9193de9", "is_disabled": 0, "rental_uris": {"android": "https://dc.lft.to/lastmile_qr_scan", "ios": "https://dc.lft.to/lastmile_qr_scan"}, "fusion_lon": 0.0, "lat": 38.889879, "bike_id": "1fb352bba28319a049ea530cf9193de9", "type": "electric_scooter", "is_reserved": 0, "lon": -76.98744216666667}, {"fusion_lat": 0.0, "name": "a6a0641ee700c0f2f05c8c503ae20d2d", "is_disabled": 0, "rental_uris": {"android": "https://dc.lft.to/lastmile_qr_scan", "ios": "https://dc.lft.to/lastmile_qr_scan"}, "fusion_lon": 0.0, "lat": 38.900172166666664, "bike_id": "a6a0641ee700c0f2f05c8c503ae20d2d", "type": "electric_scooter", "is_reserved": 0, "lon": -76.99859666666667}, {"fusion_lat": 0.0, "name": "05c2b70c54026c66021f63a72f53e5ee", "is_disabled": 0, "rental_uris": {"android": "https://dc.lft.to/lastmile_qr_scan", "ios": "https://dc.lft.to/lastmile_qr_scan"}, "fusion_lon": 0.0, "lat": 38.84610833333333, "bike_id": "05c2b70c54026c66021f63a72f53e5ee", "type": "electric_bike", "is_reserved": 0, "lon": -76.9690635}, {"fusion_lat": 0.0, "name": "0c881f673861cec13628a6a2470acfbb", "is_disabled": 0, "rental_uris": {"android": "https://dc.lft.to/lastmile_qr_scan", "ios": "https://dc.lft.to/lastmile_qr_scan"}, "fusion_lon": 0.0, "lat": 38.95902483333333, "bike_id": "0c881f673861cec13628a6a2470acfbb", "type": "electric_bike", "is_reserved": 0, "lon": -76.924744}, {"fusion_lat": 0.0, "name": "9fe5df8f9d446e6a8f8215ed6e35e251", "is_disabled": 0, "rental_uris": {"android": "https://dc.lft.to/lastmile_qr_scan", "ios": "https://dc.lft.to/lastmile_qr_scan"}, "fusion_lon": 0.0, "lat": 38.89003816666666, "bike_id": "9fe5df8f9d446e6a8f8215ed6e35e251", "type": "electric_scooter", "is_reserved": 0, "lon": -76.93744866666667}, {"fusion_lat": 0.0, "name": "9897e9e9517abd1fd3a2a82a7cd113b8", "is_disabled": 0, "rental_uris": {"android": "https://dc.lft.to/lastmile_qr_scan", "ios": "https://dc.lft.to/lastmile_qr_scan"}, "fusion_lon": 0.0, "lat": 38.87491633333333, "bike_id": "9897e9e9517abd1fd3a2a82a7cd113b8", "type": "electric_bike", "is_reserved": 0, "lon": -77.21122}, {"fusion_lat": 0.0, "name": "2a514d8c5bef8fd47954e5a3fbf390a8", "is_disabled": 0, "rental_uris": {"android": "https://dc.lft.to/lastmile_qr_scan", "ios": "https://dc.lft.to/lastmile_qr_scan"}, "fusion_lon": 0.0, "lat": 38.917545833333335, "bike_id": "2a514d8c5bef8fd47954e5a3fbf390a8", "type": "electric_scooter", "is_reserved": 0, "lon": -77.0230395}, {"fusion_lat": 0.0, "name": "e516738941c24ed1110a3fd686159d57", "is_disabled": 0, "rental_uris": {"android": "https://dc.lft.to/lastmile_qr_scan", "ios": "https://dc.lft.to/lastmile_qr_scan"}, "fusion_lon": 0.0, "lat": 38.89618083333333, "bike_id": "e516738941c24ed1110a3fd686159d57", "type": "electric_bike", "is_reserved": 0, "lon": -76.9074395}, {"fusion_lat": 0.0, "name": "960f1a31265f5a9c5d1355f2fdd2cfce", "is_disabled": 0, "rental_uris": {"android": "https://dc.lft.to/lastmile_qr_scan", "ios": "https://dc.lft.to/lastmile_qr_scan"}, "fusion_lon": 0.0, "lat": 38.8774845, "bike_id": "960f1a31265f5a9c5d1355f2fdd2cfce", "type": "electric_scooter", "is_reserved": 0, "lon": -77.00262833333333}, {"fusion_lat": 0.0, "name": "535f4988d70b612eaf2b6757c8bd8252", "is_disabled": 0, "rental_uris": {"android": "https://dc.lft.to/lastmile_qr_scan", "ios": "https://dc.lft.to/lastmile_qr_scan"}, "fusion_lon": 0.0, "lat": 38.923267833333334, "bike_id": "535f4988d70b612eaf2b6757c8bd8252", "type": "electric_scooter", "is_reserved": 0, "lon": -77.02964816666666}, {"fusion_lat": 0.0, "name": "90bf89eabadeeb01235f01349abe9327", "is_disabled": 0, "rental_uris": {"android": "https://dc.lft.to/lastmile_qr_scan", "ios": "https://dc.lft.to/lastmile_qr_scan"}, "fusion_lon": 0.0, "lat": 38.94827516666667, "bike_id": "90bf89eabadeeb01235f01349abe9327", "type": "electric_scooter", "is_reserved": 0, "lon": -77.080032}, {"fusion_lat": 0.0, "name": "dc49aa50ca83c798c958e28300ff0930", "is_disabled": 0, "rental_uris": {"android": "https://dc.lft.to/lastmile_qr_scan", "ios": "https://dc.lft.to/lastmile_qr_scan"}, "fusion_lon": 0.0, "lat": 38.926778, "bike_id": "dc49aa50ca83c798c958e28300ff0930", "type": "electric_scooter", "is_reserved": 0, "lon": -77.03638}, {"fusion_lat": 0.0, "name": "3e18cd330b98a73bfbe3f0e498026ec5", "is_disabled": 0, "rental_uris": {"android": "https://dc.lft.to/lastmile_qr_scan", "ios": "https://dc.lft.to/lastmile_qr_scan"}, "fusion_lon": 0.0, "lat": 38.946188, "bike_id": "3e18cd330b98a73bfbe3f0e498026ec5", "type": "electric_scooter", "is_reserved": 0, "lon": -77.08020883333333}, {"fusion_lat": 0.0, "name": "935507d2da9ba83ddb91c7b6ba482a71", "is_disabled": 0, "rental_uris": {"android": "https://dc.lft.to/lastmile_qr_scan", "ios": "https://dc.lft.to/lastmile_qr_scan"}, "fusion_lon": 0.0, "lat": 38.922753166666666, "bike_id": "935507d2da9ba83ddb91c7b6ba482a71", "type": "electric_scooter", "is_reserved": 0, "lon": -77.02962883333333}, {"fusion_lat": 0.0, "name": "ed238b4e4920205aa69ab5a09e097858", "is_disabled": 0, "rental_uris": {"android": "https://dc.lft.to/lastmile_qr_scan", "ios": "https://dc.lft.to/lastmile_qr_scan"}, "fusion_lon": 0.0, "lat": 38.896745833333334, "bike_id": "ed238b4e4920205aa69ab5a09e097858", "type": "electric_scooter", "is_reserved": 0, "lon": -77.043217}, {"fusion_lat": 0.0, "name": "8d138125951d17e9a73bd78e4ca27694", "is_disabled": 0, "rental_uris": {"android": "https://dc.lft.to/lastmile_qr_scan", "ios": "https://dc.lft.to/lastmile_qr_scan"}, "fusion_lon": 0.0, "lat": 38.915220833333336, "bike_id": "8d138125951d17e9a73bd78e4ca27694", "type": "electric_scooter", "is_reserved": 0, "lon": -77.07557783333333}, {"fusion_lat": 0.0, "name": "6aa80e5c30c95d1896e248581ea8dc4f", "is_disabled": 0, "rental_uris": {"android": "https://dc.lft.to/lastmile_qr_scan", "ios": "https://dc.lft.to/lastmile_qr_scan"}, "fusion_lon": 0.0, "lat": 38.93859533333333, "bike_id": "6aa80e5c30c95d1896e248581ea8dc4f", "type": "electric_scooter", "is_reserved": 0, "lon": -77.02327416666667}, {"fusion_lat": 0.0, "name": "3384b0e327070bfacddd86761e14358a", "is_disabled": 0, "rental_uris": {"android": "https://dc.lft.to/lastmile_qr_scan", "ios": "https://dc.lft.to/lastmile_qr_scan"}, "fusion_lon": 0.0, "lat": 38.90290266666667, "bike_id": "3384b0e327070bfacddd86761e14358a", "type": "electric_scooter", "is_reserved": 0, "lon": -76.97635366666667}, {"fusion_lat": 0.0, "name": "4161623c23c62eccf702010ceb86b193", "is_disabled": 0, "rental_uris": {"android": "https://dc.lft.to/lastmile_qr_scan", "ios": "https://dc.lft.to/lastmile_qr_scan"}, "fusion_lon": 0.0, "lat": 38.896213, "bike_id": "4161623c23c62eccf702010ceb86b193", "type": "electric_scooter", "is_reserved": 0, "lon": -77.0316555}, {"fusion_lat": 0.0, "name": "0bfcd049fc8b597e6dfcf96ec39dea33", "is_disabled": 0, "rental_uris": {"android": "https://dc.lft.to/lastmile_qr_scan", "ios": "https://dc.lft.to/lastmile_qr_scan"}, "fusion_lon": 0.0, "lat": 38.92285733333333, "bike_id": "0bfcd049fc8b597e6dfcf96ec39dea33", "type": "electric_scooter", "is_reserved": 0, "lon": -77.01995233333334}, {"fusion_lat": 0.0, "name": "5d7eea95307c306e52e1063412c658ca", "is_disabled": 0, "rental_uris": {"android": "https://dc.lft.to/lastmile_qr_scan", "ios": "https://dc.lft.to/lastmile_qr_scan"}, "fusion_lon": 0.0, "lat": 38.941605333333335, "bike_id": "5d7eea95307c306e52e1063412c658ca", "type": "electric_scooter", "is_reserved": 0, "lon": -77.026294}, {"fusion_lat": 0.0, "name": "72000631cedc24fac3d39f5732d0fe7f", "is_disabled": 0, "rental_uris": {"android": "https://dc.lft.to/lastmile_qr_scan", "ios": "https://dc.lft.to/lastmile_qr_scan"}, "fusion_lon": 0.0, "lat": 38.918292, "bike_id": "72000631cedc24fac3d39f5732d0fe7f", "type": "electric_scooter", "is_reserved": 0, "lon": -77.0363645}, {"fusion_lat": 0.0, "name": "bc4797004a8619af4f7e9c8dd2090d98", "is_disabled": 0, "rental_uris": {"android": "https://dc.lft.to/lastmile_qr_scan", "ios": "https://dc.lft.to/lastmile_qr_scan"}, "fusion_lon": 0.0, "lat": 38.92599083333333, "bike_id": "bc4797004a8619af4f7e9c8dd2090d98", "type": "electric_scooter", "is_reserved": 0, "lon": -77.02149066666666}, {"fusion_lat": 0.0, "name": "752076288671bf647a07b9f3ff5953c7", "is_disabled": 0, "rental_uris": {"android": "https://dc.lft.to/lastmile_qr_scan", "ios": "https://dc.lft.to/lastmile_qr_scan"}, "fusion_lon": 0.0, "lat": 38.997748, "bike_id": "752076288671bf647a07b9f3ff5953c7", "type": "electric_bike", "is_reserved": 0, "lon": -77.04719983333334}, {"fusion_lat": 0.0, "name": "e5eb344b171b9e257603ef74aff37731", "is_disabled": 0, "rental_uris": {"android": "https://dc.lft.to/lastmile_qr_scan", "ios": "https://dc.lft.to/lastmile_qr_scan"}, "fusion_lon": 0.0, "lat": 38.90304366666667, "bike_id": "e5eb344b171b9e257603ef74aff37731", "type": "electric_bike", "is_reserved": 0, "lon": -76.97656616666667}, {"fusion_lat": 0.0, "name": "7d8df18060300baf1c448f612fd35cd1", "is_disabled": 0, "rental_uris": {"android": "https://dc.lft.to/lastmile_qr_scan", "ios": "https://dc.lft.to/lastmile_qr_scan"}, "fusion_lon": 0.0, "lat": 38.90483833333333, "bike_id": "7d8df18060300baf1c448f612fd35cd1", "type": "electric_scooter", "is_reserved": 0, "lon": -77.01788616666667}, {"fusion_lat": 0.0, "name": "c15ae0dae9464b3b666f9ac38f650e6d", "is_disabled": 0, "rental_uris": {"android": "https://dc.lft.to/lastmile_qr_scan", "ios": "https://dc.lft.to/lastmile_qr_scan"}, "fusion_lon": 0.0, "lat": 38.9621045, "bike_id": "c15ae0dae9464b3b666f9ac38f650e6d", "type": "electric_scooter", "is_reserved": 0, "lon": -77.0223}, {"fusion_lat": 0.0, "name": "2a9f6282e96c241c4242279fe4622bba", "is_disabled": 0, "rental_uris": {"android": "https://dc.lft.to/lastmile_qr_scan", "ios": "https://dc.lft.to/lastmile_qr_scan"}, "fusion_lon": 0.0, "lat": 38.88406633333334, "bike_id": "2a9f6282e96c241c4242279fe4622bba", "type": "electric_scooter", "is_reserved": 0, "lon": -77.021749}, {"fusion_lat": 0.0, "name": "208a07639bb7d7af0861b35d1ec8bc0f", "is_disabled": 0, "rental_uris": {"android": "https://dc.lft.to/lastmile_qr_scan", "ios": "https://dc.lft.to/lastmile_qr_scan"}, "fusion_lon": 0.0, "lat": 38.88715716666667, "bike_id": "208a07639bb7d7af0861b35d1ec8bc0f", "type": "electric_scooter", "is_reserved": 0, "lon": -77.0132795}, {"fusion_lat": 0.0, "name": "0f0e395ab7ae6ffb2abaae9126c16b02", "is_disabled": 0, "rental_uris": {"android": "https://dc.lft.to/lastmile_qr_scan", "ios": "https://dc.lft.to/lastmile_qr_scan"}, "fusion_lon": 0.0, "lat": 38.93393866666667, "bike_id": "0f0e395ab7ae6ffb2abaae9126c16b02", "type": "electric_scooter", "is_reserved": 0, "lon": -77.05740133333333}, {"fusion_lat": 0.0, "name": "990782293b20f7d799a51df5098aaa86", "is_disabled": 0, "rental_uris": {"android": "https://dc.lft.to/lastmile_qr_scan", "ios": "https://dc.lft.to/lastmile_qr_scan"}, "fusion_lon": 0.0, "lat": 38.92791833333333, "bike_id": "990782293b20f7d799a51df5098aaa86", "type": "electric_scooter", "is_reserved": 0, "lon": -77.03151966666667}, {"fusion_lat": 0.0, "name": "39fce783ef5c23fd68a6c980dbb6902f", "is_disabled": 0, "rental_uris": {"android": "https://dc.lft.to/lastmile_qr_scan", "ios": "https://dc.lft.to/lastmile_qr_scan"}, "fusion_lon": 0.0, "lat": 38.927848833333336, "bike_id": "39fce783ef5c23fd68a6c980dbb6902f", "type": "electric_scooter", "is_reserved": 0, "lon": -77.025816}, {"fusion_lat": 0.0, "name": "b898c8399c6871e162d08ff886b92a8d", "is_disabled": 0, "rental_uris": {"android": "https://dc.lft.to/lastmile_qr_scan", "ios": "https://dc.lft.to/lastmile_qr_scan"}, "fusion_lon": 0.0, "lat": 38.9287385, "bike_id": "b898c8399c6871e162d08ff886b92a8d", "type": "electric_scooter", "is_reserved": 0, "lon": -77.05449183333333}, {"fusion_lat": 0.0, "name": "c1163bf6ae95006720c1312638e693e0", "is_disabled": 0, "rental_uris": {"android": "https://dc.lft.to/lastmile_qr_scan", "ios": "https://dc.lft.to/lastmile_qr_scan"}, "fusion_lon": 0.0, "lat": 38.88944433333333, "bike_id": "c1163bf6ae95006720c1312638e693e0", "type": "electric_scooter", "is_reserved": 0, "lon": -76.99159066666667}, {"fusion_lat": 0.0, "name": "d8c81b4457d01f3621e9371efccf3964", "is_disabled": 0, "rental_uris": {"android": "https://dc.lft.to/lastmile_qr_scan", "ios": "https://dc.lft.to/lastmile_qr_scan"}, "fusion_lon": 0.0, "lat": 38.90553766666667, "bike_id": "d8c81b4457d01f3621e9371efccf3964", "type": "electric_scooter", "is_reserved": 0, "lon": -77.0265065}, {"fusion_lat": 0.0, "name": "ffe51249dfc6e649efc764f1404b8726", "is_disabled": 0, "rental_uris": {"android": "https://dc.lft.to/lastmile_qr_scan", "ios": "https://dc.lft.to/lastmile_qr_scan"}, "fusion_lon": 0.0, "lat": 38.90502383333333, "bike_id": "ffe51249dfc6e649efc764f1404b8726", "type": "electric_scooter", "is_reserved": 0, "lon": -77.061122}, {"fusion_lat": 0.0, "name": "aa4e35f8861da81b79a2bfc4bdd99020", "is_disabled": 0, "rental_uris": {"android": "https://dc.lft.to/lastmile_qr_scan", "ios": "https://dc.lft.to/lastmile_qr_scan"}, "fusion_lon": 0.0, "lat": 38.9278065, "bike_id": "aa4e35f8861da81b79a2bfc4bdd99020", "type": "electric_scooter", "is_reserved": 0, "lon": -77.02704783333333}, {"fusion_lat": 0.0, "name": "d465c5076cfb5d8d4701199a852bff6b", "is_disabled": 0, "rental_uris": {"android": "https://dc.lft.to/lastmile_qr_scan", "ios": "https://dc.lft.to/lastmile_qr_scan"}, "fusion_lon": 0.0, "lat": 38.93874, "bike_id": "d465c5076cfb5d8d4701199a852bff6b", "type": "electric_scooter", "is_reserved": 0, "lon": -77.029191}, {"fusion_lat": 0.0, "name": "8b1d5fe43dc7589af075c72f3484779e", "is_disabled": 0, "rental_uris": {"android": "https://dc.lft.to/lastmile_qr_scan", "ios": "https://dc.lft.to/lastmile_qr_scan"}, "fusion_lon": 0.0, "lat": 38.9311005, "bike_id": "8b1d5fe43dc7589af075c72f3484779e", "type": "electric_scooter", "is_reserved": 0, "lon": -77.02136516666667}, {"fusion_lat": 0.0, "name": "59e479ef509a8aa76c6f8223290c99a2", "is_disabled": 0, "rental_uris": {"android": "https://dc.lft.to/lastmile_qr_scan", "ios": "https://dc.lft.to/lastmile_qr_scan"}, "fusion_lon": 0.0, "lat": 38.928811333333336, "bike_id": "59e479ef509a8aa76c6f8223290c99a2", "type": "electric_scooter", "is_reserved": 0, "lon": -77.03272466666667}, {"fusion_lat": 0.0, "name": "8da88b22460bfde1a8185ec706387daf", "is_disabled": 0, "rental_uris": {"android": "https://dc.lft.to/lastmile_qr_scan", "ios": "https://dc.lft.to/lastmile_qr_scan"}, "fusion_lon": 0.0, "lat": 38.9415575, "bike_id": "8da88b22460bfde1a8185ec706387daf", "type": "electric_scooter", "is_reserved": 0, "lon": -77.02493683333333}, {"fusion_lat": 0.0, "name": "020bc147149b583a3c04aee0b6d47718", "is_disabled": 0, "rental_uris": {"android": "https://dc.lft.to/lastmile_qr_scan", "ios": "https://dc.lft.to/lastmile_qr_scan"}, "fusion_lon": 0.0, "lat": 38.917672, "bike_id": "020bc147149b583a3c04aee0b6d47718", "type": "electric_scooter", "is_reserved": 0, "lon": -77.02281483333333}, {"fusion_lat": 0.0, "name": "6f2ef6561867670949333c3ea3030acc", "is_disabled": 0, "rental_uris": {"android": "https://dc.lft.to/lastmile_qr_scan", "ios": "https://dc.lft.to/lastmile_qr_scan"}, "fusion_lon": 0.0, "lat": 38.86369916666666, "bike_id": "6f2ef6561867670949333c3ea3030acc", "type": "electric_bike", "is_reserved": 0, "lon": -76.97009516666667}, {"fusion_lat": 0.0, "name": "db4ebac8d8e0a8098f8d0c6d3913e04d", "is_disabled": 0, "rental_uris": {"android": "https://dc.lft.to/lastmile_qr_scan", "ios": "https://dc.lft.to/lastmile_qr_scan"}, "fusion_lon": 0.0, "lat": 38.9329675, "bike_id": "db4ebac8d8e0a8098f8d0c6d3913e04d", "type": "electric_scooter", "is_reserved": 0, "lon": -77.0399195}, {"fusion_lat": 0.0, "name": "39ce16ec35c6f54561dd5315e930ca33", "is_disabled": 0, "rental_uris": {"android": "https://dc.lft.to/lastmile_qr_scan", "ios": "https://dc.lft.to/lastmile_qr_scan"}, "fusion_lon": 0.0, "lat": 38.92353766666667, "bike_id": "39ce16ec35c6f54561dd5315e930ca33", "type": "electric_scooter", "is_reserved": 0, "lon": -77.034666}, {"fusion_lat": 0.0, "name": "b8e1a3c16283557ac3e36251c250cc89", "is_disabled": 0, "rental_uris": {"android": "https://dc.lft.to/lastmile_qr_scan", "ios": "https://dc.lft.to/lastmile_qr_scan"}, "fusion_lon": 0.0, "lat": 38.89828716666667, "bike_id": "b8e1a3c16283557ac3e36251c250cc89", "type": "electric_scooter", "is_reserved": 0, "lon": -77.04675116666667}, {"fusion_lat": 0.0, "name": "cc1d93f7c8a170bb9d8b2c471cbfa85e", "is_disabled": 0, "rental_uris": {"android": "https://dc.lft.to/lastmile_qr_scan", "ios": "https://dc.lft.to/lastmile_qr_scan"}, "fusion_lon": 0.0, "lat": 38.942298666666666, "bike_id": "cc1d93f7c8a170bb9d8b2c471cbfa85e", "type": "electric_scooter", "is_reserved": 0, "lon": -77.01387816666667}, {"fusion_lat": 0.0, "name": "5dade8029ece013e0d5d53e0d3ff2d5e", "is_disabled": 0, "rental_uris": {"android": "https://dc.lft.to/lastmile_qr_scan", "ios": "https://dc.lft.to/lastmile_qr_scan"}, "fusion_lon": 0.0, "lat": 38.9364765, "bike_id": "5dade8029ece013e0d5d53e0d3ff2d5e", "type": "electric_scooter", "is_reserved": 0, "lon": -77.03046183333333}, {"fusion_lat": 0.0, "name": "d74be505a4ccd92bca14ee2ddc805e25", "is_disabled": 0, "rental_uris": {"android": "https://dc.lft.to/lastmile_qr_scan", "ios": "https://dc.lft.to/lastmile_qr_scan"}, "fusion_lon": 0.0, "lat": 38.9132355, "bike_id": "d74be505a4ccd92bca14ee2ddc805e25", "type": "electric_scooter", "is_reserved": 0, "lon": -77.03184066666667}, {"fusion_lat": 0.0, "name": "2f990305764b6d799d85bd832968117e", "is_disabled": 0, "rental_uris": {"android": "https://dc.lft.to/lastmile_qr_scan", "ios": "https://dc.lft.to/lastmile_qr_scan"}, "fusion_lon": 0.0, "lat": 38.885124833333336, "bike_id": "2f990305764b6d799d85bd832968117e", "type": "electric_scooter", "is_reserved": 0, "lon": -77.01514616666667}, {"fusion_lat": 0.0, "name": "035ab1c70e6cfacdbc3dba7411bd964b", "is_disabled": 0, "rental_uris": {"android": "https://dc.lft.to/lastmile_qr_scan", "ios": "https://dc.lft.to/lastmile_qr_scan"}, "fusion_lon": 0.0, "lat": 38.90246533333333, "bike_id": "035ab1c70e6cfacdbc3dba7411bd964b", "type": "electric_scooter", "is_reserved": 0, "lon": -77.05936333333334}, {"fusion_lat": 0.0, "name": "ca880bc1a5693433d390ebeca6f02709", "is_disabled": 0, "rental_uris": {"android": "https://dc.lft.to/lastmile_qr_scan", "ios": "https://dc.lft.to/lastmile_qr_scan"}, "fusion_lon": 0.0, "lat": 38.923323833333335, "bike_id": "ca880bc1a5693433d390ebeca6f02709", "type": "electric_scooter", "is_reserved": 0, "lon": -77.03515466666667}, {"fusion_lat": 0.0, "name": "977e648f3b624b8a35bfb4277030bd65", "is_disabled": 0, "rental_uris": {"android": "https://dc.lft.to/lastmile_qr_scan", "ios": "https://dc.lft.to/lastmile_qr_scan"}, "fusion_lon": 0.0, "lat": 38.9173185, "bike_id": "977e648f3b624b8a35bfb4277030bd65", "type": "electric_scooter", "is_reserved": 0, "lon": -77.02504}, {"fusion_lat": 0.0, "name": "8837b499b06db9d466aa5a959b8fe4c3", "is_disabled": 0, "rental_uris": {"android": "https://dc.lft.to/lastmile_qr_scan", "ios": "https://dc.lft.to/lastmile_qr_scan"}, "fusion_lon": 0.0, "lat": 38.910393166666665, "bike_id": "8837b499b06db9d466aa5a959b8fe4c3", "type": "electric_scooter", "is_reserved": 0, "lon": -77.04346716666667}, {"fusion_lat": 0.0, "name": "07752191eaf8bff85ffd092e3d546ea3", "is_disabled": 0, "rental_uris": {"android": "https://dc.lft.to/lastmile_qr_scan", "ios": "https://dc.lft.to/lastmile_qr_scan"}, "fusion_lon": 0.0, "lat": 38.894998333333334, "bike_id": "07752191eaf8bff85ffd092e3d546ea3", "type": "electric_scooter", "is_reserved": 0, "lon": -77.0217}, {"fusion_lat": 0.0, "name": "c4c8b7f166b77b77e16fed1bbfb475ec", "is_disabled": 0, "rental_uris": {"android": "https://dc.lft.to/lastmile_qr_scan", "ios": "https://dc.lft.to/lastmile_qr_scan"}, "fusion_lon": 0.0, "lat": 38.92078083333333, "bike_id": "c4c8b7f166b77b77e16fed1bbfb475ec", "type": "electric_bike", "is_reserved": 0, "lon": -76.989433}, {"fusion_lat": 0.0, "name": "ec8efca07ce6021c7d62e69ff793daea", "is_disabled": 0, "rental_uris": {"android": "https://dc.lft.to/lastmile_qr_scan", "ios": "https://dc.lft.to/lastmile_qr_scan"}, "fusion_lon": 0.0, "lat": 38.93729616666667, "bike_id": "ec8efca07ce6021c7d62e69ff793daea", "type": "electric_scooter", "is_reserved": 0, "lon": -77.024619}, {"fusion_lat": 0.0, "name": "a78b23bf78423979e0d2c93cac2093ce", "is_disabled": 0, "rental_uris": {"android": "https://dc.lft.to/lastmile_qr_scan", "ios": "https://dc.lft.to/lastmile_qr_scan"}, "fusion_lon": 0.0, "lat": 38.901209333333334, "bike_id": "a78b23bf78423979e0d2c93cac2093ce", "type": "electric_scooter", "is_reserved": 0, "lon": -77.04993933333333}, {"fusion_lat": 0.0, "name": "6a2bb9f679ed98170fc0d46dbea45d70", "is_disabled": 0, "rental_uris": {"android": "https://dc.lft.to/lastmile_qr_scan", "ios": "https://dc.lft.to/lastmile_qr_scan"}, "fusion_lon": 0.0, "lat": 38.9249585, "bike_id": "6a2bb9f679ed98170fc0d46dbea45d70", "type": "electric_scooter", "is_reserved": 0, "lon": -77.0511045}, {"fusion_lat": 0.0, "name": "5d8d33c7b205d07fa1ec1c4fb7d99402", "is_disabled": 0, "rental_uris": {"android": "https://dc.lft.to/lastmile_qr_scan", "ios": "https://dc.lft.to/lastmile_qr_scan"}, "fusion_lon": 0.0, "lat": 38.938122, "bike_id": "5d8d33c7b205d07fa1ec1c4fb7d99402", "type": "electric_scooter", "is_reserved": 0, "lon": -77.060181}, {"fusion_lat": 0.0, "name": "e5f4bd75dd7ad6da30171df9e714847c", "is_disabled": 0, "rental_uris": {"android": "https://dc.lft.to/lastmile_qr_scan", "ios": "https://dc.lft.to/lastmile_qr_scan"}, "fusion_lon": 0.0, "lat": 38.919218666666666, "bike_id": "e5f4bd75dd7ad6da30171df9e714847c", "type": "electric_scooter", "is_reserved": 0, "lon": -77.0251765}, {"fusion_lat": 0.0, "name": "4e031b014607f09446aee313191b0286", "is_disabled": 0, "rental_uris": {"android": "https://dc.lft.to/lastmile_qr_scan", "ios": "https://dc.lft.to/lastmile_qr_scan"}, "fusion_lon": 0.0, "lat": 38.90441166666667, "bike_id": "4e031b014607f09446aee313191b0286", "type": "electric_scooter", "is_reserved": 0, "lon": -76.97421433333334}, {"fusion_lat": 0.0, "name": "100fd2c71da4889836718b807843a366", "is_disabled": 0, "rental_uris": {"android": "https://dc.lft.to/lastmile_qr_scan", "ios": "https://dc.lft.to/lastmile_qr_scan"}, "fusion_lon": 0.0, "lat": 38.9021875, "bike_id": "100fd2c71da4889836718b807843a366", "type": "electric_scooter", "is_reserved": 0, "lon": -76.994987}, {"fusion_lat": 0.0, "name": "48306a9ace6404153d7c4d6aa3996bec", "is_disabled": 0, "rental_uris": {"android": "https://dc.lft.to/lastmile_qr_scan", "ios": "https://dc.lft.to/lastmile_qr_scan"}, "fusion_lon": 0.0, "lat": 38.90270616666667, "bike_id": "48306a9ace6404153d7c4d6aa3996bec", "type": "electric_scooter", "is_reserved": 0, "lon": -77.03375366666667}, {"fusion_lat": 0.0, "name": "6e08f02ac6b1f0eb061c5d4ed80989c0", "is_disabled": 0, "rental_uris": {"android": "https://dc.lft.to/lastmile_qr_scan", "ios": "https://dc.lft.to/lastmile_qr_scan"}, "fusion_lon": 0.0, "lat": 38.907817666666666, "bike_id": "6e08f02ac6b1f0eb061c5d4ed80989c0", "type": "electric_scooter", "is_reserved": 0, "lon": -77.03857083333334}, {"fusion_lat": 0.0, "name": "d655f9538d6f5f91c15614dbb6a765c2", "is_disabled": 0, "rental_uris": {"android": "https://dc.lft.to/lastmile_qr_scan", "ios": "https://dc.lft.to/lastmile_qr_scan"}, "fusion_lon": 0.0, "lat": 38.915592333333336, "bike_id": "d655f9538d6f5f91c15614dbb6a765c2", "type": "electric_scooter", "is_reserved": 0, "lon": -77.02220583333333}, {"fusion_lat": 0.0, "name": "a39ea832a5831afecae10467fc760b63", "is_disabled": 0, "rental_uris": {"android": "https://dc.lft.to/lastmile_qr_scan", "ios": "https://dc.lft.to/lastmile_qr_scan"}, "fusion_lon": 0.0, "lat": 38.9013525, "bike_id": "a39ea832a5831afecae10467fc760b63", "type": "electric_scooter", "is_reserved": 0, "lon": -77.0091455}, {"fusion_lat": 0.0, "name": "95a5e24e9a3428f88609210ecd7b0bbe", "is_disabled": 0, "rental_uris": {"android": "https://dc.lft.to/lastmile_qr_scan", "ios": "https://dc.lft.to/lastmile_qr_scan"}, "fusion_lon": 0.0, "lat": 38.93396516666667, "bike_id": "95a5e24e9a3428f88609210ecd7b0bbe", "type": "electric_scooter", "is_reserved": 0, "lon": -77.0577205}, {"fusion_lat": 0.0, "name": "2477a98e61d43d0025f367e9b41fe20b", "is_disabled": 0, "rental_uris": {"android": "https://dc.lft.to/lastmile_qr_scan", "ios": "https://dc.lft.to/lastmile_qr_scan"}, "fusion_lon": 0.0, "lat": 38.92858366666667, "bike_id": "2477a98e61d43d0025f367e9b41fe20b", "type": "electric_scooter", "is_reserved": 0, "lon": -77.03223716666666}, {"fusion_lat": 0.0, "name": "d6335643df222f7acc0ebc6b6fb6f6d6", "is_disabled": 0, "rental_uris": {"android": "https://dc.lft.to/lastmile_qr_scan", "ios": "https://dc.lft.to/lastmile_qr_scan"}, "fusion_lon": 0.0, "lat": 38.9298325, "bike_id": "d6335643df222f7acc0ebc6b6fb6f6d6", "type": "electric_scooter", "is_reserved": 0, "lon": -77.01976916666666}, {"fusion_lat": 0.0, "name": "00e5b5d376ad24fed0f5901073d95d0d", "is_disabled": 0, "rental_uris": {"android": "https://dc.lft.to/lastmile_qr_scan", "ios": "https://dc.lft.to/lastmile_qr_scan"}, "fusion_lon": 0.0, "lat": 38.89210283333333, "bike_id": "00e5b5d376ad24fed0f5901073d95d0d", "type": "electric_scooter", "is_reserved": 0, "lon": -76.9971275}, {"fusion_lat": 0.0, "name": "9780c9d3d5cd87ef7a64cae301ccb663", "is_disabled": 0, "rental_uris": {"android": "https://dc.lft.to/lastmile_qr_scan", "ios": "https://dc.lft.to/lastmile_qr_scan"}, "fusion_lon": 0.0, "lat": 38.9160095, "bike_id": "9780c9d3d5cd87ef7a64cae301ccb663", "type": "electric_scooter", "is_reserved": 0, "lon": -77.02205616666667}, {"fusion_lat": 0.0, "name": "43ba2852e17853971ed2c5d703e4f080", "is_disabled": 0, "rental_uris": {"android": "https://dc.lft.to/lastmile_qr_scan", "ios": "https://dc.lft.to/lastmile_qr_scan"}, "fusion_lon": 0.0, "lat": 38.951818833333334, "bike_id": "43ba2852e17853971ed2c5d703e4f080", "type": "electric_scooter", "is_reserved": 0, "lon": -77.02725916666667}, {"fusion_lat": 0.0, "name": "4d50f0d426a17c7707de3eb7b66170c4", "is_disabled": 0, "rental_uris": {"android": "https://dc.lft.to/lastmile_qr_scan", "ios": "https://dc.lft.to/lastmile_qr_scan"}, "fusion_lon": 0.0, "lat": 38.9205085, "bike_id": "4d50f0d426a17c7707de3eb7b66170c4", "type": "electric_scooter", "is_reserved": 0, "lon": -77.021874}, {"fusion_lat": 0.0, "name": "41749a5ac62d7491e643e973d3a2db53", "is_disabled": 0, "rental_uris": {"android": "https://dc.lft.to/lastmile_qr_scan", "ios": "https://dc.lft.to/lastmile_qr_scan"}, "fusion_lon": 0.0, "lat": 38.877842, "bike_id": "41749a5ac62d7491e643e973d3a2db53", "type": "electric_scooter", "is_reserved": 0, "lon": -77.00114516666666}, {"fusion_lat": 0.0, "name": "848fa70ac2d2802e793b718b195782a7", "is_disabled": 0, "rental_uris": {"android": "https://dc.lft.to/lastmile_qr_scan", "ios": "https://dc.lft.to/lastmile_qr_scan"}, "fusion_lon": 0.0, "lat": 38.907836, "bike_id": "848fa70ac2d2802e793b718b195782a7", "type": "electric_scooter", "is_reserved": 0, "lon": -77.03860983333334}, {"fusion_lat": 0.0, "name": "6f7a69847ac7e511c1628fbc1de2c17b", "is_disabled": 0, "rental_uris": {"android": "https://dc.lft.to/lastmile_qr_scan", "ios": "https://dc.lft.to/lastmile_qr_scan"}, "fusion_lon": 0.0, "lat": 38.87941383333333, "bike_id": "6f7a69847ac7e511c1628fbc1de2c17b", "type": "electric_scooter", "is_reserved": 0, "lon": -77.008851}, {"fusion_lat": 0.0, "name": "50e6b7a1856aa79b815b8f6911815d6d", "is_disabled": 0, "rental_uris": {"android": "https://dc.lft.to/lastmile_qr_scan", "ios": "https://dc.lft.to/lastmile_qr_scan"}, "fusion_lon": 0.0, "lat": 38.883846166666665, "bike_id": "50e6b7a1856aa79b815b8f6911815d6d", "type": "electric_bike", "is_reserved": 0, "lon": -76.95417183333333}, {"fusion_lat": 0.0, "name": "978978ec55a27e17a498812eacb8ee46", "is_disabled": 0, "rental_uris": {"android": "https://dc.lft.to/lastmile_qr_scan", "ios": "https://dc.lft.to/lastmile_qr_scan"}, "fusion_lon": 0.0, "lat": 38.897225666666664, "bike_id": "978978ec55a27e17a498812eacb8ee46", "type": "electric_scooter", "is_reserved": 0, "lon": -77.0442825}, {"fusion_lat": 0.0, "name": "12cfce43d0c3edb2706b1b923cc7524d", "is_disabled": 0, "rental_uris": {"android": "https://dc.lft.to/lastmile_qr_scan", "ios": "https://dc.lft.to/lastmile_qr_scan"}, "fusion_lon": 0.0, "lat": 38.891908, "bike_id": "12cfce43d0c3edb2706b1b923cc7524d", "type": "electric_scooter", "is_reserved": 0, "lon": -76.99840633333334}, {"fusion_lat": 0.0, "name": "4513a083984a8d29024e5efc55908e59", "is_disabled": 0, "rental_uris": {"android": "https://dc.lft.to/lastmile_qr_scan", "ios": "https://dc.lft.to/lastmile_qr_scan"}, "fusion_lon": 0.0, "lat": 38.9161245, "bike_id": "4513a083984a8d29024e5efc55908e59", "type": "electric_scooter", "is_reserved": 0, "lon": -77.0313045}, {"fusion_lat": 0.0, "name": "a875fbe2ef84768c116ee699961d9dc0", "is_disabled": 0, "rental_uris": {"android": "https://dc.lft.to/lastmile_qr_scan", "ios": "https://dc.lft.to/lastmile_qr_scan"}, "fusion_lon": 0.0, "lat": 38.91887466666667, "bike_id": "a875fbe2ef84768c116ee699961d9dc0", "type": "electric_scooter", "is_reserved": 0, "lon": -77.04832933333333}, {"fusion_lat": 0.0, "name": "5fd1714e18321d8a1b10e9aed6ec97b0", "is_disabled": 0, "rental_uris": {"android": "https://dc.lft.to/lastmile_qr_scan", "ios": "https://dc.lft.to/lastmile_qr_scan"}, "fusion_lon": 0.0, "lat": 38.87578166666667, "bike_id": "5fd1714e18321d8a1b10e9aed6ec97b0", "type": "electric_bike", "is_reserved": 0, "lon": -77.23409683333334}, {"fusion_lat": 0.0, "name": "ce8c24fd9959e59b4927f789ec38047c", "is_disabled": 0, "rental_uris": {"android": "https://dc.lft.to/lastmile_qr_scan", "ios": "https://dc.lft.to/lastmile_qr_scan"}, "fusion_lon": 0.0, "lat": 38.907862333333334, "bike_id": "ce8c24fd9959e59b4927f789ec38047c", "type": "electric_scooter", "is_reserved": 0, "lon": -77.04337033333333}, {"fusion_lat": 0.0, "name": "824f3e34e0f66e0a66b49f28f661fb3c", "is_disabled": 0, "rental_uris": {"android": "https://dc.lft.to/lastmile_qr_scan", "ios": "https://dc.lft.to/lastmile_qr_scan"}, "fusion_lon": 0.0, "lat": 38.8852495, "bike_id": "824f3e34e0f66e0a66b49f28f661fb3c", "type": "electric_scooter", "is_reserved": 0, "lon": -76.92909333333333}, {"fusion_lat": 0.0, "name": "57721c8a5c94abb20cb62285d7419418", "is_disabled": 0, "rental_uris": {"android": "https://dc.lft.to/lastmile_qr_scan", "ios": "https://dc.lft.to/lastmile_qr_scan"}, "fusion_lon": 0.0, "lat": 38.900310833333336, "bike_id": "57721c8a5c94abb20cb62285d7419418", "type": "electric_scooter", "is_reserved": 0, "lon": -77.034929}, {"fusion_lat": 0.0, "name": "ebd59055646e5e9ef6b42faf52b95828", "is_disabled": 0, "rental_uris": {"android": "https://dc.lft.to/lastmile_qr_scan", "ios": "https://dc.lft.to/lastmile_qr_scan"}, "fusion_lon": 0.0, "lat": 38.921516833333335, "bike_id": "ebd59055646e5e9ef6b42faf52b95828", "type": "electric_scooter", "is_reserved": 0, "lon": -77.01809766666666}, {"fusion_lat": 0.0, "name": "ebdbbe58d4f81019b5fa61b4c284183d", "is_disabled": 0, "rental_uris": {"android": "https://dc.lft.to/lastmile_qr_scan", "ios": "https://dc.lft.to/lastmile_qr_scan"}, "fusion_lon": 0.0, "lat": 38.89827416666667, "bike_id": "ebdbbe58d4f81019b5fa61b4c284183d", "type": "electric_scooter", "is_reserved": 0, "lon": -76.946529}, {"fusion_lat": 0.0, "name": "86b745e1fbbc5b69332b210b61b6020d", "is_disabled": 0, "rental_uris": {"android": "https://dc.lft.to/lastmile_qr_scan", "ios": "https://dc.lft.to/lastmile_qr_scan"}, "fusion_lon": 0.0, "lat": 38.9168785, "bike_id": "86b745e1fbbc5b69332b210b61b6020d", "type": "electric_scooter", "is_reserved": 0, "lon": -77.03234283333333}, {"fusion_lat": 0.0, "name": "e2ea86cae8e590e75164c132ff27b475", "is_disabled": 0, "rental_uris": {"android": "https://dc.lft.to/lastmile_qr_scan", "ios": "https://dc.lft.to/lastmile_qr_scan"}, "fusion_lon": 0.0, "lat": 38.9224325, "bike_id": "e2ea86cae8e590e75164c132ff27b475", "type": "electric_scooter", "is_reserved": 0, "lon": -77.01952083333333}, {"fusion_lat": 0.0, "name": "154528787b52e27186a82db2e4a54e55", "is_disabled": 0, "rental_uris": {"android": "https://dc.lft.to/lastmile_qr_scan", "ios": "https://dc.lft.to/lastmile_qr_scan"}, "fusion_lon": 0.0, "lat": 38.89910233333333, "bike_id": "154528787b52e27186a82db2e4a54e55", "type": "electric_scooter", "is_reserved": 0, "lon": -76.93347116666666}, {"fusion_lat": 0.0, "name": "50a087f6a1a55fe64f636defcad9155b", "is_disabled": 0, "rental_uris": {"android": "https://dc.lft.to/lastmile_qr_scan", "ios": "https://dc.lft.to/lastmile_qr_scan"}, "fusion_lon": 0.0, "lat": 38.935991, "bike_id": "50a087f6a1a55fe64f636defcad9155b", "type": "electric_scooter", "is_reserved": 0, "lon": -77.03656483333333}, {"fusion_lat": 0.0, "name": "aa83f08eb81b87d605ec4b7b2848e38e", "is_disabled": 0, "rental_uris": {"android": "https://dc.lft.to/lastmile_qr_scan", "ios": "https://dc.lft.to/lastmile_qr_scan"}, "fusion_lon": 0.0, "lat": 38.950530666666666, "bike_id": "aa83f08eb81b87d605ec4b7b2848e38e", "type": "electric_scooter", "is_reserved": 0, "lon": -77.080259}, {"fusion_lat": 0.0, "name": "d40f70d92303be98703545bb69b56283", "is_disabled": 0, "rental_uris": {"android": "https://dc.lft.to/lastmile_qr_scan", "ios": "https://dc.lft.to/lastmile_qr_scan"}, "fusion_lon": 0.0, "lat": 38.89611133333333, "bike_id": "d40f70d92303be98703545bb69b56283", "type": "electric_scooter", "is_reserved": 0, "lon": -77.03246816666666}, {"fusion_lat": 0.0, "name": "aae070687cddcb666af0ea879aa9373d", "is_disabled": 0, "rental_uris": {"android": "https://dc.lft.to/lastmile_qr_scan", "ios": "https://dc.lft.to/lastmile_qr_scan"}, "fusion_lon": 0.0, "lat": 38.880997666666666, "bike_id": "aae070687cddcb666af0ea879aa9373d", "type": "electric_scooter", "is_reserved": 0, "lon": -76.9866615}, {"fusion_lat": 0.0, "name": "c6eda48495ebe6f51d24584ba8e3223e", "is_disabled": 0, "rental_uris": {"android": "https://dc.lft.to/lastmile_qr_scan", "ios": "https://dc.lft.to/lastmile_qr_scan"}, "fusion_lon": 0.0, "lat": 38.8861285, "bike_id": "c6eda48495ebe6f51d24584ba8e3223e", "type": "electric_scooter", "is_reserved": 0, "lon": -77.01555883333333}, {"fusion_lat": 0.0, "name": "c2fd583227de78f827f8e590ed24ab47", "is_disabled": 0, "rental_uris": {"android": "https://dc.lft.to/lastmile_qr_scan", "ios": "https://dc.lft.to/lastmile_qr_scan"}, "fusion_lon": 0.0, "lat": 38.8354105, "bike_id": "c2fd583227de78f827f8e590ed24ab47", "type": "electric_bike", "is_reserved": 0, "lon": -76.98722766666667}, {"fusion_lat": 0.0, "name": "7fba7c74c7edc8a4c906b0738efcb70d", "is_disabled": 0, "rental_uris": {"android": "https://dc.lft.to/lastmile_qr_scan", "ios": "https://dc.lft.to/lastmile_qr_scan"}, "fusion_lon": 0.0, "lat": 38.932599333333336, "bike_id": "7fba7c74c7edc8a4c906b0738efcb70d", "type": "electric_scooter", "is_reserved": 0, "lon": -77.034518}, {"fusion_lat": 0.0, "name": "367d2c3cb564249b9ccfcf0adcc1a286", "is_disabled": 0, "rental_uris": {"android": "https://dc.lft.to/lastmile_qr_scan", "ios": "https://dc.lft.to/lastmile_qr_scan"}, "fusion_lon": 0.0, "lat": 38.923834166666666, "bike_id": "367d2c3cb564249b9ccfcf0adcc1a286", "type": "electric_scooter", "is_reserved": 0, "lon": -77.03642683333334}, {"fusion_lat": 0.0, "name": "a41228b5c50345ef4830ae5432c7a58c", "is_disabled": 0, "rental_uris": {"android": "https://dc.lft.to/lastmile_qr_scan", "ios": "https://dc.lft.to/lastmile_qr_scan"}, "fusion_lon": 0.0, "lat": 38.934341, "bike_id": "a41228b5c50345ef4830ae5432c7a58c", "type": "electric_scooter", "is_reserved": 0, "lon": -77.03996216666667}, {"fusion_lat": 0.0, "name": "01e3ef2ee3a329b5c952cd0909a4b118", "is_disabled": 0, "rental_uris": {"android": "https://dc.lft.to/lastmile_qr_scan", "ios": "https://dc.lft.to/lastmile_qr_scan"}, "fusion_lon": 0.0, "lat": 38.892375333333334, "bike_id": "01e3ef2ee3a329b5c952cd0909a4b118", "type": "electric_scooter", "is_reserved": 0, "lon": -77.03350866666666}, {"fusion_lat": 0.0, "name": "528310ee60f6bd21823a4cabda8ec663", "is_disabled": 0, "rental_uris": {"android": "https://dc.lft.to/lastmile_qr_scan", "ios": "https://dc.lft.to/lastmile_qr_scan"}, "fusion_lon": 0.0, "lat": 38.9006585, "bike_id": "528310ee60f6bd21823a4cabda8ec663", "type": "electric_scooter", "is_reserved": 0, "lon": -76.93387066666666}, {"fusion_lat": 0.0, "name": "03f0e3ea10f56125f1e44e8eeda52a23", "is_disabled": 0, "rental_uris": {"android": "https://dc.lft.to/lastmile_qr_scan", "ios": "https://dc.lft.to/lastmile_qr_scan"}, "fusion_lon": 0.0, "lat": 38.9223885, "bike_id": "03f0e3ea10f56125f1e44e8eeda52a23", "type": "electric_scooter", "is_reserved": 0, "lon": -77.04247866666667}, {"fusion_lat": 0.0, "name": "18e961a5045dab1b27c73d67345050bb", "is_disabled": 0, "rental_uris": {"android": "https://dc.lft.to/lastmile_qr_scan", "ios": "https://dc.lft.to/lastmile_qr_scan"}, "fusion_lon": 0.0, "lat": 38.94820983333334, "bike_id": "18e961a5045dab1b27c73d67345050bb", "type": "electric_scooter", "is_reserved": 0, "lon": -77.02619266666666}, {"fusion_lat": 0.0, "name": "da2259ef892bfc0fc2aab1a93c892ec6", "is_disabled": 0, "rental_uris": {"android": "https://dc.lft.to/lastmile_qr_scan", "ios": "https://dc.lft.to/lastmile_qr_scan"}, "fusion_lon": 0.0, "lat": 38.905588, "bike_id": "da2259ef892bfc0fc2aab1a93c892ec6", "type": "electric_scooter", "is_reserved": 0, "lon": -77.00595633333333}, {"fusion_lat": 0.0, "name": "fba053b9dd908f667eaf059ed1064d7f", "is_disabled": 0, "rental_uris": {"android": "https://dc.lft.to/lastmile_qr_scan", "ios": "https://dc.lft.to/lastmile_qr_scan"}, "fusion_lon": 0.0, "lat": 38.91551883333333, "bike_id": "fba053b9dd908f667eaf059ed1064d7f", "type": "electric_scooter", "is_reserved": 0, "lon": -77.04148416666666}, {"fusion_lat": 0.0, "name": "63d8c584faf1680892fbb976145043f2", "is_disabled": 0, "rental_uris": {"android": "https://dc.lft.to/lastmile_qr_scan", "ios": "https://dc.lft.to/lastmile_qr_scan"}, "fusion_lon": 0.0, "lat": 38.876840333333334, "bike_id": "63d8c584faf1680892fbb976145043f2", "type": "electric_scooter", "is_reserved": 0, "lon": -77.01758866666667}, {"fusion_lat": 0.0, "name": "3160f9a86c2d8e6ef9e2cb50776e02d5", "is_disabled": 0, "rental_uris": {"android": "https://dc.lft.to/lastmile_qr_scan", "ios": "https://dc.lft.to/lastmile_qr_scan"}, "fusion_lon": 0.0, "lat": 38.91476516666667, "bike_id": "3160f9a86c2d8e6ef9e2cb50776e02d5", "type": "electric_scooter", "is_reserved": 0, "lon": -77.04551483333333}, {"fusion_lat": 0.0, "name": "201591c307a38d9942fe774e8acaaea0", "is_disabled": 0, "rental_uris": {"android": "https://dc.lft.to/lastmile_qr_scan", "ios": "https://dc.lft.to/lastmile_qr_scan"}, "fusion_lon": 0.0, "lat": 38.89719233333334, "bike_id": "201591c307a38d9942fe774e8acaaea0", "type": "electric_scooter", "is_reserved": 0, "lon": -77.04624033333333}, {"fusion_lat": 0.0, "name": "d5dd2148c38769b76b9ec3ed145baead", "is_disabled": 0, "rental_uris": {"android": "https://dc.lft.to/lastmile_qr_scan", "ios": "https://dc.lft.to/lastmile_qr_scan"}, "fusion_lon": 0.0, "lat": 38.934883166666665, "bike_id": "d5dd2148c38769b76b9ec3ed145baead", "type": "electric_bike", "is_reserved": 0, "lon": -77.03016383333333}, {"fusion_lat": 0.0, "name": "6f646793efd060f9ac928c93da5a58fe", "is_disabled": 0, "rental_uris": {"android": "https://dc.lft.to/lastmile_qr_scan", "ios": "https://dc.lft.to/lastmile_qr_scan"}, "fusion_lon": 0.0, "lat": 38.90037133333333, "bike_id": "6f646793efd060f9ac928c93da5a58fe", "type": "electric_scooter", "is_reserved": 0, "lon": -77.0019715}, {"fusion_lat": 0.0, "name": "82e0f9290e3d570806850944c08c67fe", "is_disabled": 0, "rental_uris": {"android": "https://dc.lft.to/lastmile_qr_scan", "ios": "https://dc.lft.to/lastmile_qr_scan"}, "fusion_lon": 0.0, "lat": 38.80442866666667, "bike_id": "82e0f9290e3d570806850944c08c67fe", "type": "electric_bike", "is_reserved": 0, "lon": -77.05383216666667}, {"fusion_lat": 0.0, "name": "3145f4d7ab74e9c6cd96a5a7f9f1db45", "is_disabled": 0, "rental_uris": {"android": "https://dc.lft.to/lastmile_qr_scan", "ios": "https://dc.lft.to/lastmile_qr_scan"}, "fusion_lon": 0.0, "lat": 38.9273705, "bike_id": "3145f4d7ab74e9c6cd96a5a7f9f1db45", "type": "electric_scooter", "is_reserved": 0, "lon": -77.034258}, {"fusion_lat": 0.0, "name": "370333ee61abe17455d94804407d2636", "is_disabled": 0, "rental_uris": {"android": "https://dc.lft.to/lastmile_qr_scan", "ios": "https://dc.lft.to/lastmile_qr_scan"}, "fusion_lon": 0.0, "lat": 38.904100666666665, "bike_id": "370333ee61abe17455d94804407d2636", "type": "electric_scooter", "is_reserved": 0, "lon": -76.97335083333333}, {"fusion_lat": 0.0, "name": "55b3c96904588c8e31124c7da0609498", "is_disabled": 0, "rental_uris": {"android": "https://dc.lft.to/lastmile_qr_scan", "ios": "https://dc.lft.to/lastmile_qr_scan"}, "fusion_lon": 0.0, "lat": 38.896997666666664, "bike_id": "55b3c96904588c8e31124c7da0609498", "type": "electric_scooter", "is_reserved": 0, "lon": -77.0297275}, {"fusion_lat": 0.0, "name": "7e5e9fd7137d08022f4edce381cc59db", "is_disabled": 0, "rental_uris": {"android": "https://dc.lft.to/lastmile_qr_scan", "ios": "https://dc.lft.to/lastmile_qr_scan"}, "fusion_lon": 0.0, "lat": 38.88706966666667, "bike_id": "7e5e9fd7137d08022f4edce381cc59db", "type": "electric_scooter", "is_reserved": 0, "lon": -77.00248516666667}, {"fusion_lat": 0.0, "name": "6a9baa4a9e77591ded7ad25c22413c70", "is_disabled": 0, "rental_uris": {"android": "https://dc.lft.to/lastmile_qr_scan", "ios": "https://dc.lft.to/lastmile_qr_scan"}, "fusion_lon": 0.0, "lat": 38.896971, "bike_id": "6a9baa4a9e77591ded7ad25c22413c70", "type": "electric_scooter", "is_reserved": 0, "lon": -77.0509915}, {"fusion_lat": 0.0, "name": "fd33c70a2cd1bd39eb3ad22f0a197018", "is_disabled": 0, "rental_uris": {"android": "https://dc.lft.to/lastmile_qr_scan", "ios": "https://dc.lft.to/lastmile_qr_scan"}, "fusion_lon": 0.0, "lat": 38.90217666666667, "bike_id": "fd33c70a2cd1bd39eb3ad22f0a197018", "type": "electric_scooter", "is_reserved": 0, "lon": -77.02302666666667}, {"fusion_lat": 0.0, "name": "2d6142c209ca12d8ef511cb935189611", "is_disabled": 0, "rental_uris": {"android": "https://dc.lft.to/lastmile_qr_scan", "ios": "https://dc.lft.to/lastmile_qr_scan"}, "fusion_lon": 0.0, "lat": 38.901191, "bike_id": "2d6142c209ca12d8ef511cb935189611", "type": "electric_scooter", "is_reserved": 0, "lon": -77.05238716666666}, {"fusion_lat": 0.0, "name": "3351dc89f2102683dbe725d8f79098ba", "is_disabled": 0, "rental_uris": {"android": "https://dc.lft.to/lastmile_qr_scan", "ios": "https://dc.lft.to/lastmile_qr_scan"}, "fusion_lon": 0.0, "lat": 38.89829566666667, "bike_id": "3351dc89f2102683dbe725d8f79098ba", "type": "electric_scooter", "is_reserved": 0, "lon": -76.94629366666666}, {"fusion_lat": 0.0, "name": "4b4abbb0eedf41e0cff7a450db5bf652", "is_disabled": 0, "rental_uris": {"android": "https://dc.lft.to/lastmile_qr_scan", "ios": "https://dc.lft.to/lastmile_qr_scan"}, "fusion_lon": 0.0, "lat": 38.877447, "bike_id": "4b4abbb0eedf41e0cff7a450db5bf652", "type": "electric_scooter", "is_reserved": 0, "lon": -77.014308}, {"fusion_lat": 0.0, "name": "b9f138a8c0c6f2e7529c0139bcb17de2", "is_disabled": 0, "rental_uris": {"android": "https://dc.lft.to/lastmile_qr_scan", "ios": "https://dc.lft.to/lastmile_qr_scan"}, "fusion_lon": 0.0, "lat": 38.883119666666666, "bike_id": "b9f138a8c0c6f2e7529c0139bcb17de2", "type": "electric_scooter", "is_reserved": 0, "lon": -77.01763866666667}, {"fusion_lat": 0.0, "name": "fda160ba5e614240e6be8f269e105851", "is_disabled": 0, "rental_uris": {"android": "https://dc.lft.to/lastmile_qr_scan", "ios": "https://dc.lft.to/lastmile_qr_scan"}, "fusion_lon": 0.0, "lat": 38.8961335, "bike_id": "fda160ba5e614240e6be8f269e105851", "type": "electric_scooter", "is_reserved": 0, "lon": -76.94813383333333}, {"fusion_lat": 0.0, "name": "a1fac579c512725e45889c710171a449", "is_disabled": 0, "rental_uris": {"android": "https://dc.lft.to/lastmile_qr_scan", "ios": "https://dc.lft.to/lastmile_qr_scan"}, "fusion_lon": 0.0, "lat": 38.87952333333333, "bike_id": "a1fac579c512725e45889c710171a449", "type": "electric_scooter", "is_reserved": 0, "lon": -76.99007033333334}, {"fusion_lat": 0.0, "name": "b147d25187f32b2f43568134daaa142f", "is_disabled": 0, "rental_uris": {"android": "https://dc.lft.to/lastmile_qr_scan", "ios": "https://dc.lft.to/lastmile_qr_scan"}, "fusion_lon": 0.0, "lat": 38.89006633333333, "bike_id": "b147d25187f32b2f43568134daaa142f", "type": "electric_scooter", "is_reserved": 0, "lon": -76.93746733333333}, {"fusion_lat": 0.0, "name": "228c95682e6e25f131dd0567cff87b73", "is_disabled": 0, "rental_uris": {"android": "https://dc.lft.to/lastmile_qr_scan", "ios": "https://dc.lft.to/lastmile_qr_scan"}, "fusion_lon": 0.0, "lat": 38.926030833333336, "bike_id": "228c95682e6e25f131dd0567cff87b73", "type": "electric_scooter", "is_reserved": 0, "lon": -77.021537}, {"fusion_lat": 0.0, "name": "515e6e5586d2555cebedb6b9c5bc5d69", "is_disabled": 0, "rental_uris": {"android": "https://dc.lft.to/lastmile_qr_scan", "ios": "https://dc.lft.to/lastmile_qr_scan"}, "fusion_lon": 0.0, "lat": 38.91659966666667, "bike_id": "515e6e5586d2555cebedb6b9c5bc5d69", "type": "electric_scooter", "is_reserved": 0, "lon": -77.0281075}, {"fusion_lat": 0.0, "name": "4936716719cef82fb91be42b26421034", "is_disabled": 0, "rental_uris": {"android": "https://dc.lft.to/lastmile_qr_scan", "ios": "https://dc.lft.to/lastmile_qr_scan"}, "fusion_lon": 0.0, "lat": 38.82174116666667, "bike_id": "4936716719cef82fb91be42b26421034", "type": "electric_bike", "is_reserved": 0, "lon": -76.99511533333333}, {"fusion_lat": 0.0, "name": "94016cf7caee453ed77cf54e81fa2c2b", "is_disabled": 0, "rental_uris": {"android": "https://dc.lft.to/lastmile_qr_scan", "ios": "https://dc.lft.to/lastmile_qr_scan"}, "fusion_lon": 0.0, "lat": 38.93262583333333, "bike_id": "94016cf7caee453ed77cf54e81fa2c2b", "type": "electric_scooter", "is_reserved": 0, "lon": -77.02091766666666}, {"fusion_lat": 0.0, "name": "dae774ad2eba4e1aacd96bd80e995e3c", "is_disabled": 0, "rental_uris": {"android": "https://dc.lft.to/lastmile_qr_scan", "ios": "https://dc.lft.to/lastmile_qr_scan"}, "fusion_lon": 0.0, "lat": 38.920712, "bike_id": "dae774ad2eba4e1aacd96bd80e995e3c", "type": "electric_scooter", "is_reserved": 0, "lon": -76.9944875}, {"fusion_lat": 0.0, "name": "50775b8889a71bdfbc7fbb242008b5d5", "is_disabled": 0, "rental_uris": {"android": "https://dc.lft.to/lastmile_qr_scan", "ios": "https://dc.lft.to/lastmile_qr_scan"}, "fusion_lon": 0.0, "lat": 38.89670316666667, "bike_id": "50775b8889a71bdfbc7fbb242008b5d5", "type": "electric_scooter", "is_reserved": 0, "lon": -77.0051455}, {"fusion_lat": 0.0, "name": "3c11631ff61e4c195b1daec029929785", "is_disabled": 0, "rental_uris": {"android": "https://dc.lft.to/lastmile_qr_scan", "ios": "https://dc.lft.to/lastmile_qr_scan"}, "fusion_lon": 0.0, "lat": 38.908265666666665, "bike_id": "3c11631ff61e4c195b1daec029929785", "type": "electric_scooter", "is_reserved": 0, "lon": -76.98428066666666}, {"fusion_lat": 0.0, "name": "f69c0250d8eeb8b3f95cd6af47179569", "is_disabled": 0, "rental_uris": {"android": "https://dc.lft.to/lastmile_qr_scan", "ios": "https://dc.lft.to/lastmile_qr_scan"}, "fusion_lon": 0.0, "lat": 38.8859185, "bike_id": "f69c0250d8eeb8b3f95cd6af47179569", "type": "electric_scooter", "is_reserved": 0, "lon": -77.01722683333334}, {"fusion_lat": 0.0, "name": "65b9e91c024b0e5f1a7afbf3b9a482ae", "is_disabled": 0, "rental_uris": {"android": "https://dc.lft.to/lastmile_qr_scan", "ios": "https://dc.lft.to/lastmile_qr_scan"}, "fusion_lon": 0.0, "lat": 38.95057116666667, "bike_id": "65b9e91c024b0e5f1a7afbf3b9a482ae", "type": "electric_scooter", "is_reserved": 0, "lon": -77.08026116666667}, {"fusion_lat": 0.0, "name": "6c98b1f2f33ed4f82bd61862fc390dd0", "is_disabled": 0, "rental_uris": {"android": "https://dc.lft.to/lastmile_qr_scan", "ios": "https://dc.lft.to/lastmile_qr_scan"}, "fusion_lon": 0.0, "lat": 38.91661166666667, "bike_id": "6c98b1f2f33ed4f82bd61862fc390dd0", "type": "electric_scooter", "is_reserved": 0, "lon": -77.0385555}, {"fusion_lat": 0.0, "name": "75527669af554599170851ff08e317b6", "is_disabled": 0, "rental_uris": {"android": "https://dc.lft.to/lastmile_qr_scan", "ios": "https://dc.lft.to/lastmile_qr_scan"}, "fusion_lon": 0.0, "lat": 38.91046516666667, "bike_id": "75527669af554599170851ff08e317b6", "type": "electric_scooter", "is_reserved": 0, "lon": -77.04091533333333}, {"fusion_lat": 0.0, "name": "d9b7f3d8d40c22139b0a626780f838d9", "is_disabled": 0, "rental_uris": {"android": "https://dc.lft.to/lastmile_qr_scan", "ios": "https://dc.lft.to/lastmile_qr_scan"}, "fusion_lon": 0.0, "lat": 38.93395816666666, "bike_id": "d9b7f3d8d40c22139b0a626780f838d9", "type": "electric_scooter", "is_reserved": 0, "lon": -77.057489}, {"fusion_lat": 0.0, "name": "9614c2e56197520ef0ada8008cadb278", "is_disabled": 0, "rental_uris": {"android": "https://dc.lft.to/lastmile_qr_scan", "ios": "https://dc.lft.to/lastmile_qr_scan"}, "fusion_lon": 0.0, "lat": 38.89789366666667, "bike_id": "9614c2e56197520ef0ada8008cadb278", "type": "electric_scooter", "is_reserved": 0, "lon": -77.02818533333334}, {"fusion_lat": 0.0, "name": "133536572cea6b59b127c398107e4097", "is_disabled": 0, "rental_uris": {"android": "https://dc.lft.to/lastmile_qr_scan", "ios": "https://dc.lft.to/lastmile_qr_scan"}, "fusion_lon": 0.0, "lat": 38.92248883333333, "bike_id": "133536572cea6b59b127c398107e4097", "type": "electric_scooter", "is_reserved": 0, "lon": -77.07480266666667}, {"fusion_lat": 0.0, "name": "7480797a0098f6c54b66bcded149c2b8", "is_disabled": 0, "rental_uris": {"android": "https://dc.lft.to/lastmile_qr_scan", "ios": "https://dc.lft.to/lastmile_qr_scan"}, "fusion_lon": 0.0, "lat": 38.9199685, "bike_id": "7480797a0098f6c54b66bcded149c2b8", "type": "electric_scooter", "is_reserved": 0, "lon": -77.0314335}, {"fusion_lat": 0.0, "name": "086ef0bd835d2d9b10e377513524b833", "is_disabled": 0, "rental_uris": {"android": "https://dc.lft.to/lastmile_qr_scan", "ios": "https://dc.lft.to/lastmile_qr_scan"}, "fusion_lon": 0.0, "lat": 38.93507133333333, "bike_id": "086ef0bd835d2d9b10e377513524b833", "type": "electric_scooter", "is_reserved": 0, "lon": -77.03263283333334}, {"fusion_lat": 0.0, "name": "451805f3f8c6e515396f70d0c000f7c2", "is_disabled": 0, "rental_uris": {"android": "https://dc.lft.to/lastmile_qr_scan", "ios": "https://dc.lft.to/lastmile_qr_scan"}, "fusion_lon": 0.0, "lat": 38.92052566666667, "bike_id": "451805f3f8c6e515396f70d0c000f7c2", "type": "electric_scooter", "is_reserved": 0, "lon": -77.04258}, {"fusion_lat": 0.0, "name": "08ab43dfb5e76dbfe8b809e21887c5b9", "is_disabled": 0, "rental_uris": {"android": "https://dc.lft.to/lastmile_qr_scan", "ios": "https://dc.lft.to/lastmile_qr_scan"}, "fusion_lon": 0.0, "lat": 38.900392, "bike_id": "08ab43dfb5e76dbfe8b809e21887c5b9", "type": "electric_scooter", "is_reserved": 0, "lon": -77.00188516666667}, {"fusion_lat": 0.0, "name": "e7873418042251803862664bfa598304", "is_disabled": 0, "rental_uris": {"android": "https://dc.lft.to/lastmile_qr_scan", "ios": "https://dc.lft.to/lastmile_qr_scan"}, "fusion_lon": 0.0, "lat": 38.88316416666667, "bike_id": "e7873418042251803862664bfa598304", "type": "electric_scooter", "is_reserved": 0, "lon": -77.017675}, {"fusion_lat": 0.0, "name": "2d9677e5a2579c3b5f6132984dc09b0f", "is_disabled": 0, "rental_uris": {"android": "https://dc.lft.to/lastmile_qr_scan", "ios": "https://dc.lft.to/lastmile_qr_scan"}, "fusion_lon": 0.0, "lat": 38.81329433333333, "bike_id": "2d9677e5a2579c3b5f6132984dc09b0f", "type": "electric_bike", "is_reserved": 0, "lon": -77.050923}, {"fusion_lat": 0.0, "name": "1143a5679f47d6c81bb41203ea622fef", "is_disabled": 0, "rental_uris": {"android": "https://dc.lft.to/lastmile_qr_scan", "ios": "https://dc.lft.to/lastmile_qr_scan"}, "fusion_lon": 0.0, "lat": 38.931897666666664, "bike_id": "1143a5679f47d6c81bb41203ea622fef", "type": "electric_bike", "is_reserved": 0, "lon": -77.22922133333333}, {"fusion_lat": 0.0, "name": "c0d1a85f69ec9bda97006e534dd7e233", "is_disabled": 0, "rental_uris": {"android": "https://dc.lft.to/lastmile_qr_scan", "ios": "https://dc.lft.to/lastmile_qr_scan"}, "fusion_lon": 0.0, "lat": 38.914251, "bike_id": "c0d1a85f69ec9bda97006e534dd7e233", "type": "electric_scooter", "is_reserved": 0, "lon": -77.03461}, {"fusion_lat": 0.0, "name": "2d1f90a5aee32c201a17e74f18428c08", "is_disabled": 0, "rental_uris": {"android": "https://dc.lft.to/lastmile_qr_scan", "ios": "https://dc.lft.to/lastmile_qr_scan"}, "fusion_lon": 0.0, "lat": 38.92483433333334, "bike_id": "2d1f90a5aee32c201a17e74f18428c08", "type": "electric_scooter", "is_reserved": 0, "lon": -77.02631183333334}, {"fusion_lat": 0.0, "name": "cc2e20bbc25eabb26e94ae08c2eaac22", "is_disabled": 0, "rental_uris": {"android": "https://dc.lft.to/lastmile_qr_scan", "ios": "https://dc.lft.to/lastmile_qr_scan"}, "fusion_lon": 0.0, "lat": 38.887645, "bike_id": "cc2e20bbc25eabb26e94ae08c2eaac22", "type": "electric_scooter", "is_reserved": 0, "lon": -76.9775305}, {"fusion_lat": 0.0, "name": "c5dc5daf88e06bcaeba3ed12584180a3", "is_disabled": 0, "rental_uris": {"android": "https://dc.lft.to/lastmile_qr_scan", "ios": "https://dc.lft.to/lastmile_qr_scan"}, "fusion_lon": 0.0, "lat": 38.909486666666666, "bike_id": "c5dc5daf88e06bcaeba3ed12584180a3", "type": "electric_scooter", "is_reserved": 0, "lon": -76.98534766666667}, {"fusion_lat": 0.0, "name": "ffe5f1cc1aea24207f401fa17322a68c", "is_disabled": 0, "rental_uris": {"android": "https://dc.lft.to/lastmile_qr_scan", "ios": "https://dc.lft.to/lastmile_qr_scan"}, "fusion_lon": 0.0, "lat": 38.897281166666666, "bike_id": "ffe5f1cc1aea24207f401fa17322a68c", "type": "electric_scooter", "is_reserved": 0, "lon": -77.0461695}, {"fusion_lat": 0.0, "name": "37ba4fff6a673cbac4e6400d3dc8d14b", "is_disabled": 0, "rental_uris": {"android": "https://dc.lft.to/lastmile_qr_scan", "ios": "https://dc.lft.to/lastmile_qr_scan"}, "fusion_lon": 0.0, "lat": 38.900212833333335, "bike_id": "37ba4fff6a673cbac4e6400d3dc8d14b", "type": "electric_scooter", "is_reserved": 0, "lon": -77.0069125}, {"fusion_lat": 0.0, "name": "e15a0972cfa36431cff78cd3235a069d", "is_disabled": 0, "rental_uris": {"android": "https://dc.lft.to/lastmile_qr_scan", "ios": "https://dc.lft.to/lastmile_qr_scan"}, "fusion_lon": 0.0, "lat": 38.91360983333333, "bike_id": "e15a0972cfa36431cff78cd3235a069d", "type": "electric_scooter", "is_reserved": 0, "lon": -77.04560583333334}, {"fusion_lat": 0.0, "name": "8318f83650a166a48fe1d99eb9222883", "is_disabled": 0, "rental_uris": {"android": "https://dc.lft.to/lastmile_qr_scan", "ios": "https://dc.lft.to/lastmile_qr_scan"}, "fusion_lon": 0.0, "lat": 38.92127266666667, "bike_id": "8318f83650a166a48fe1d99eb9222883", "type": "electric_bike", "is_reserved": 0, "lon": -77.01082883333333}, {"fusion_lat": 0.0, "name": "2ad5951b36165b4b3d74b65fead471b1", "is_disabled": 0, "rental_uris": {"android": "https://dc.lft.to/lastmile_qr_scan", "ios": "https://dc.lft.to/lastmile_qr_scan"}, "fusion_lon": 0.0, "lat": 38.916161, "bike_id": "2ad5951b36165b4b3d74b65fead471b1", "type": "electric_scooter", "is_reserved": 0, "lon": -77.0213895}, {"fusion_lat": 0.0, "name": "e2ffeb9f30964ad1129810b5b37edf14", "is_disabled": 0, "rental_uris": {"android": "https://dc.lft.to/lastmile_qr_scan", "ios": "https://dc.lft.to/lastmile_qr_scan"}, "fusion_lon": 0.0, "lat": 38.91192383333333, "bike_id": "e2ffeb9f30964ad1129810b5b37edf14", "type": "electric_scooter", "is_reserved": 0, "lon": -77.04256816666667}, {"fusion_lat": 0.0, "name": "74e138788b4bff4dbf1e620a522f0f74", "is_disabled": 0, "rental_uris": {"android": "https://dc.lft.to/lastmile_qr_scan", "ios": "https://dc.lft.to/lastmile_qr_scan"}, "fusion_lon": 0.0, "lat": 38.91300833333333, "bike_id": "74e138788b4bff4dbf1e620a522f0f74", "type": "electric_scooter", "is_reserved": 0, "lon": -76.98469566666667}, {"fusion_lat": 0.0, "name": "26a76d695d3c43576258e36bcf956a57", "is_disabled": 0, "rental_uris": {"android": "https://dc.lft.to/lastmile_qr_scan", "ios": "https://dc.lft.to/lastmile_qr_scan"}, "fusion_lon": 0.0, "lat": 38.893588, "bike_id": "26a76d695d3c43576258e36bcf956a57", "type": "electric_scooter", "is_reserved": 0, "lon": -76.925918}, {"fusion_lat": 0.0, "name": "03e594486fc5918143a6634432e67439", "is_disabled": 0, "rental_uris": {"android": "https://dc.lft.to/lastmile_qr_scan", "ios": "https://dc.lft.to/lastmile_qr_scan"}, "fusion_lon": 0.0, "lat": 38.87667533333333, "bike_id": "03e594486fc5918143a6634432e67439", "type": "electric_scooter", "is_reserved": 0, "lon": -77.0074525}, {"fusion_lat": 0.0, "name": "fffd2242b0eb3e063c120d237ff78885", "is_disabled": 0, "rental_uris": {"android": "https://dc.lft.to/lastmile_qr_scan", "ios": "https://dc.lft.to/lastmile_qr_scan"}, "fusion_lon": 0.0, "lat": 38.90869166666667, "bike_id": "fffd2242b0eb3e063c120d237ff78885", "type": "electric_scooter", "is_reserved": 0, "lon": -77.085892}, {"fusion_lat": 0.0, "name": "18f763a78fa2e3e933c2523b86c839c5", "is_disabled": 0, "rental_uris": {"android": "https://dc.lft.to/lastmile_qr_scan", "ios": "https://dc.lft.to/lastmile_qr_scan"}, "fusion_lon": 0.0, "lat": 38.82458183333333, "bike_id": "18f763a78fa2e3e933c2523b86c839c5", "type": "electric_bike", "is_reserved": 0, "lon": -77.00792433333334}, {"fusion_lat": 0.0, "name": "e57bceb38358af3b19072766bf6fda21", "is_disabled": 0, "rental_uris": {"android": "https://dc.lft.to/lastmile_qr_scan", "ios": "https://dc.lft.to/lastmile_qr_scan"}, "fusion_lon": 0.0, "lat": 38.92536583333333, "bike_id": "e57bceb38358af3b19072766bf6fda21", "type": "electric_scooter", "is_reserved": 0, "lon": -77.03481416666666}, {"fusion_lat": 0.0, "name": "8a80c8c06c396e5781d6a8f0c44d06cc", "is_disabled": 0, "rental_uris": {"android": "https://dc.lft.to/lastmile_qr_scan", "ios": "https://dc.lft.to/lastmile_qr_scan"}, "fusion_lon": 0.0, "lat": 38.896113166666666, "bike_id": "8a80c8c06c396e5781d6a8f0c44d06cc", "type": "electric_scooter", "is_reserved": 0, "lon": -76.9481165}, {"fusion_lat": 0.0, "name": "fca4adc258e481d03254a093f869723a", "is_disabled": 0, "rental_uris": {"android": "https://dc.lft.to/lastmile_qr_scan", "ios": "https://dc.lft.to/lastmile_qr_scan"}, "fusion_lon": 0.0, "lat": 38.8975625, "bike_id": "fca4adc258e481d03254a093f869723a", "type": "electric_scooter", "is_reserved": 0, "lon": -77.0335235}, {"fusion_lat": 0.0, "name": "0ae524bf96bd738b5ddbd6983d3a418b", "is_disabled": 0, "rental_uris": {"android": "https://dc.lft.to/lastmile_qr_scan", "ios": "https://dc.lft.to/lastmile_qr_scan"}, "fusion_lon": 0.0, "lat": 38.96160833333333, "bike_id": "0ae524bf96bd738b5ddbd6983d3a418b", "type": "electric_scooter", "is_reserved": 0, "lon": -77.07341866666667}, {"fusion_lat": 0.0, "name": "2be2edfbdf90f24ea9d6d6e329b341ea", "is_disabled": 0, "rental_uris": {"android": "https://dc.lft.to/lastmile_qr_scan", "ios": "https://dc.lft.to/lastmile_qr_scan"}, "fusion_lon": 0.0, "lat": 38.923077666666664, "bike_id": "2be2edfbdf90f24ea9d6d6e329b341ea", "type": "electric_scooter", "is_reserved": 0, "lon": -77.041168}, {"fusion_lat": 0.0, "name": "37aaecb025e6429ddac2aafe292f5d30", "is_disabled": 0, "rental_uris": {"android": "https://dc.lft.to/lastmile_qr_scan", "ios": "https://dc.lft.to/lastmile_qr_scan"}, "fusion_lon": 0.0, "lat": 38.9236825, "bike_id": "37aaecb025e6429ddac2aafe292f5d30", "type": "electric_scooter", "is_reserved": 0, "lon": -77.03649566666667}, {"fusion_lat": 0.0, "name": "b1b4b1bca7d746be7943d728b16d67f8", "is_disabled": 0, "rental_uris": {"android": "https://dc.lft.to/lastmile_qr_scan", "ios": "https://dc.lft.to/lastmile_qr_scan"}, "fusion_lon": 0.0, "lat": 38.9041985, "bike_id": "b1b4b1bca7d746be7943d728b16d67f8", "type": "electric_scooter", "is_reserved": 0, "lon": -77.00119733333334}, {"fusion_lat": 0.0, "name": "6cbd3a56ac1c3a7a3d3f18ac0421199f", "is_disabled": 0, "rental_uris": {"android": "https://dc.lft.to/lastmile_qr_scan", "ios": "https://dc.lft.to/lastmile_qr_scan"}, "fusion_lon": 0.0, "lat": 38.858641, "bike_id": "6cbd3a56ac1c3a7a3d3f18ac0421199f", "type": "electric_bike", "is_reserved": 0, "lon": -77.09559666666667}, {"fusion_lat": 0.0, "name": "3c24b886e2ff88699bc7843be7748ea2", "is_disabled": 0, "rental_uris": {"android": "https://dc.lft.to/lastmile_qr_scan", "ios": "https://dc.lft.to/lastmile_qr_scan"}, "fusion_lon": 0.0, "lat": 38.916979, "bike_id": "3c24b886e2ff88699bc7843be7748ea2", "type": "electric_scooter", "is_reserved": 0, "lon": -77.04219466666666}, {"fusion_lat": 0.0, "name": "1071486ec6a163571c7fe44eef658976", "is_disabled": 0, "rental_uris": {"android": "https://dc.lft.to/lastmile_qr_scan", "ios": "https://dc.lft.to/lastmile_qr_scan"}, "fusion_lon": 0.0, "lat": 39.00376966666666, "bike_id": "1071486ec6a163571c7fe44eef658976", "type": "electric_bike", "is_reserved": 0, "lon": -77.012845}, {"fusion_lat": 0.0, "name": "ef189798d3187989fcf7c4c3873ad73f", "is_disabled": 0, "rental_uris": {"android": "https://dc.lft.to/lastmile_qr_scan", "ios": "https://dc.lft.to/lastmile_qr_scan"}, "fusion_lon": 0.0, "lat": 38.907878, "bike_id": "ef189798d3187989fcf7c4c3873ad73f", "type": "electric_scooter", "is_reserved": 0, "lon": -77.03435183333333}, {"fusion_lat": 0.0, "name": "c80720673d21a9d2faa148c2e17ebafa", "is_disabled": 0, "rental_uris": {"android": "https://dc.lft.to/lastmile_qr_scan", "ios": "https://dc.lft.to/lastmile_qr_scan"}, "fusion_lon": 0.0, "lat": 38.905804833333335, "bike_id": "c80720673d21a9d2faa148c2e17ebafa", "type": "electric_scooter", "is_reserved": 0, "lon": -77.022112}, {"fusion_lat": 0.0, "name": "b80640b68d8027da6a055b20c825f389", "is_disabled": 0, "rental_uris": {"android": "https://dc.lft.to/lastmile_qr_scan", "ios": "https://dc.lft.to/lastmile_qr_scan"}, "fusion_lon": 0.0, "lat": 38.935418166666665, "bike_id": "b80640b68d8027da6a055b20c825f389", "type": "electric_scooter", "is_reserved": 0, "lon": -77.032701}, {"fusion_lat": 0.0, "name": "2bb2c5dd684e8d19eee97d07cc05cf6e", "is_disabled": 0, "rental_uris": {"android": "https://dc.lft.to/lastmile_qr_scan", "ios": "https://dc.lft.to/lastmile_qr_scan"}, "fusion_lon": 0.0, "lat": 38.907747666666666, "bike_id": "2bb2c5dd684e8d19eee97d07cc05cf6e", "type": "electric_scooter", "is_reserved": 0, "lon": -77.03854633333333}, {"fusion_lat": 0.0, "name": "40d81e10ffa2a1c91e49cb6ea302f6b9", "is_disabled": 0, "rental_uris": {"android": "https://dc.lft.to/lastmile_qr_scan", "ios": "https://dc.lft.to/lastmile_qr_scan"}, "fusion_lon": 0.0, "lat": 38.90553583333333, "bike_id": "40d81e10ffa2a1c91e49cb6ea302f6b9", "type": "electric_scooter", "is_reserved": 0, "lon": -77.04636816666667}, {"fusion_lat": 0.0, "name": "ac44a2e272970c8642158aa72b90aa89", "is_disabled": 0, "rental_uris": {"android": "https://dc.lft.to/lastmile_qr_scan", "ios": "https://dc.lft.to/lastmile_qr_scan"}, "fusion_lon": 0.0, "lat": 38.92372916666667, "bike_id": "ac44a2e272970c8642158aa72b90aa89", "type": "electric_scooter", "is_reserved": 0, "lon": -77.02136883333333}, {"fusion_lat": 0.0, "name": "a821808c787f4e8658d15265556f0bbf", "is_disabled": 0, "rental_uris": {"android": "https://dc.lft.to/lastmile_qr_scan", "ios": "https://dc.lft.to/lastmile_qr_scan"}, "fusion_lon": 0.0, "lat": 38.8833005, "bike_id": "a821808c787f4e8658d15265556f0bbf", "type": "electric_scooter", "is_reserved": 0, "lon": -77.016863}, {"fusion_lat": 0.0, "name": "dcec04b424bd739e3622edf1626c8a0b", "is_disabled": 0, "rental_uris": {"android": "https://dc.lft.to/lastmile_qr_scan", "ios": "https://dc.lft.to/lastmile_qr_scan"}, "fusion_lon": 0.0, "lat": 38.913252, "bike_id": "dcec04b424bd739e3622edf1626c8a0b", "type": "electric_scooter", "is_reserved": 0, "lon": -77.021201}, {"fusion_lat": 0.0, "name": "5630b59fa343af40fd5843eb172b4261", "is_disabled": 0, "rental_uris": {"android": "https://dc.lft.to/lastmile_qr_scan", "ios": "https://dc.lft.to/lastmile_qr_scan"}, "fusion_lon": 0.0, "lat": 38.8845945, "bike_id": "5630b59fa343af40fd5843eb172b4261", "type": "electric_scooter", "is_reserved": 0, "lon": -77.01523933333333}, {"fusion_lat": 0.0, "name": "720f8024e92c1ed28e257c3eb7b70b78", "is_disabled": 0, "rental_uris": {"android": "https://dc.lft.to/lastmile_qr_scan", "ios": "https://dc.lft.to/lastmile_qr_scan"}, "fusion_lon": 0.0, "lat": 38.93190033333333, "bike_id": "720f8024e92c1ed28e257c3eb7b70b78", "type": "electric_scooter", "is_reserved": 0, "lon": -77.07319733333334}, {"fusion_lat": 0.0, "name": "51b1de8af8e43c5cc1d972d3b9035692", "is_disabled": 0, "rental_uris": {"android": "https://dc.lft.to/lastmile_qr_scan", "ios": "https://dc.lft.to/lastmile_qr_scan"}, "fusion_lon": 0.0, "lat": 38.884906, "bike_id": "51b1de8af8e43c5cc1d972d3b9035692", "type": "electric_scooter", "is_reserved": 0, "lon": -77.01083833333334}, {"fusion_lat": 0.0, "name": "dc0bfd93d36a543bee526306b6e01fca", "is_disabled": 0, "rental_uris": {"android": "https://dc.lft.to/lastmile_qr_scan", "ios": "https://dc.lft.to/lastmile_qr_scan"}, "fusion_lon": 0.0, "lat": 38.900136, "bike_id": "dc0bfd93d36a543bee526306b6e01fca", "type": "electric_scooter", "is_reserved": 0, "lon": -77.0317535}, {"fusion_lat": 0.0, "name": "9574e049ca6528989ed3fd0ce3207f25", "is_disabled": 0, "rental_uris": {"android": "https://dc.lft.to/lastmile_qr_scan", "ios": "https://dc.lft.to/lastmile_qr_scan"}, "fusion_lon": 0.0, "lat": 38.917187, "bike_id": "9574e049ca6528989ed3fd0ce3207f25", "type": "electric_scooter", "is_reserved": 0, "lon": -77.06832266666666}, {"fusion_lat": 0.0, "name": "b1b335cde5f2302207b7baaa5432288e", "is_disabled": 0, "rental_uris": {"android": "https://dc.lft.to/lastmile_qr_scan", "ios": "https://dc.lft.to/lastmile_qr_scan"}, "fusion_lon": 0.0, "lat": 38.879696833333334, "bike_id": "b1b335cde5f2302207b7baaa5432288e", "type": "electric_bike", "is_reserved": 0, "lon": -76.91604616666666}, {"fusion_lat": 0.0, "name": "817928ddd0e3f88695925ade5b3255c2", "is_disabled": 0, "rental_uris": {"android": "https://dc.lft.to/lastmile_qr_scan", "ios": "https://dc.lft.to/lastmile_qr_scan"}, "fusion_lon": 0.0, "lat": 38.913334666666664, "bike_id": "817928ddd0e3f88695925ade5b3255c2", "type": "electric_scooter", "is_reserved": 0, "lon": -77.02133816666667}, {"fusion_lat": 0.0, "name": "a38bb01a9b5e7eb5c0ae5059d994da71", "is_disabled": 0, "rental_uris": {"android": "https://dc.lft.to/lastmile_qr_scan", "ios": "https://dc.lft.to/lastmile_qr_scan"}, "fusion_lon": 0.0, "lat": 38.90011166666667, "bike_id": "a38bb01a9b5e7eb5c0ae5059d994da71", "type": "electric_scooter", "is_reserved": 0, "lon": -76.988102}, {"fusion_lat": 0.0, "name": "cc312585be0a9fd3664877461e7e0e1e", "is_disabled": 0, "rental_uris": {"android": "https://dc.lft.to/lastmile_qr_scan", "ios": "https://dc.lft.to/lastmile_qr_scan"}, "fusion_lon": 0.0, "lat": 38.91559916666667, "bike_id": "cc312585be0a9fd3664877461e7e0e1e", "type": "electric_scooter", "is_reserved": 0, "lon": -77.03224116666667}, {"fusion_lat": 0.0, "name": "d260251428410a28ab597b135065c092", "is_disabled": 0, "rental_uris": {"android": "https://dc.lft.to/lastmile_qr_scan", "ios": "https://dc.lft.to/lastmile_qr_scan"}, "fusion_lon": 0.0, "lat": 38.928241, "bike_id": "d260251428410a28ab597b135065c092", "type": "electric_scooter", "is_reserved": 0, "lon": -77.054582}, {"fusion_lat": 0.0, "name": "53d91f0945669b787ad9920fdfe93227", "is_disabled": 0, "rental_uris": {"android": "https://dc.lft.to/lastmile_qr_scan", "ios": "https://dc.lft.to/lastmile_qr_scan"}, "fusion_lon": 0.0, "lat": 38.92614616666667, "bike_id": "53d91f0945669b787ad9920fdfe93227", "type": "electric_scooter", "is_reserved": 0, "lon": -77.02157466666667}, {"fusion_lat": 0.0, "name": "dcec79a2e63fa584c369294c92a417db", "is_disabled": 0, "rental_uris": {"android": "https://dc.lft.to/lastmile_qr_scan", "ios": "https://dc.lft.to/lastmile_qr_scan"}, "fusion_lon": 0.0, "lat": 38.924217166666665, "bike_id": "dcec79a2e63fa584c369294c92a417db", "type": "electric_scooter", "is_reserved": 0, "lon": -77.01958616666667}, {"fusion_lat": 0.0, "name": "9cf968820b5d8a2cc1c1a35b5b822d66", "is_disabled": 0, "rental_uris": {"android": "https://dc.lft.to/lastmile_qr_scan", "ios": "https://dc.lft.to/lastmile_qr_scan"}, "fusion_lon": 0.0, "lat": 38.91032883333333, "bike_id": "9cf968820b5d8a2cc1c1a35b5b822d66", "type": "electric_scooter", "is_reserved": 0, "lon": -77.01512466666667}, {"fusion_lat": 0.0, "name": "47762885b451899291d505de3c040185", "is_disabled": 0, "rental_uris": {"android": "https://dc.lft.to/lastmile_qr_scan", "ios": "https://dc.lft.to/lastmile_qr_scan"}, "fusion_lon": 0.0, "lat": 38.920305, "bike_id": "47762885b451899291d505de3c040185", "type": "electric_scooter", "is_reserved": 0, "lon": -77.01027416666666}, {"fusion_lat": 0.0, "name": "faeddaeca0a24d9e032bf93a455fa021", "is_disabled": 0, "rental_uris": {"android": "https://dc.lft.to/lastmile_qr_scan", "ios": "https://dc.lft.to/lastmile_qr_scan"}, "fusion_lon": 0.0, "lat": 38.89353333333333, "bike_id": "faeddaeca0a24d9e032bf93a455fa021", "type": "electric_bike", "is_reserved": 0, "lon": -77.18743366666666}, {"fusion_lat": 0.0, "name": "f46d5452d166998af12ce65ad36dfec2", "is_disabled": 0, "rental_uris": {"android": "https://dc.lft.to/lastmile_qr_scan", "ios": "https://dc.lft.to/lastmile_qr_scan"}, "fusion_lon": 0.0, "lat": 38.922948833333336, "bike_id": "f46d5452d166998af12ce65ad36dfec2", "type": "electric_scooter", "is_reserved": 0, "lon": -77.04268316666666}, {"fusion_lat": 0.0, "name": "f07e36af27b0a127fc2a75f06bb6c796", "is_disabled": 0, "rental_uris": {"android": "https://dc.lft.to/lastmile_qr_scan", "ios": "https://dc.lft.to/lastmile_qr_scan"}, "fusion_lon": 0.0, "lat": 38.87920066666667, "bike_id": "f07e36af27b0a127fc2a75f06bb6c796", "type": "electric_scooter", "is_reserved": 0, "lon": -76.94483816666667}, {"fusion_lat": 0.0, "name": "321f80bf0ca0ca46e57ad49a224e3c0c", "is_disabled": 0, "rental_uris": {"android": "https://dc.lft.to/lastmile_qr_scan", "ios": "https://dc.lft.to/lastmile_qr_scan"}, "fusion_lon": 0.0, "lat": 38.928081166666665, "bike_id": "321f80bf0ca0ca46e57ad49a224e3c0c", "type": "electric_scooter", "is_reserved": 0, "lon": -77.02671366666667}, {"fusion_lat": 0.0, "name": "c290205962ce70681446fb998f3bc272", "is_disabled": 0, "rental_uris": {"android": "https://dc.lft.to/lastmile_qr_scan", "ios": "https://dc.lft.to/lastmile_qr_scan"}, "fusion_lon": 0.0, "lat": 38.903632333333334, "bike_id": "c290205962ce70681446fb998f3bc272", "type": "electric_bike", "is_reserved": 0, "lon": -76.97917283333334}, {"fusion_lat": 0.0, "name": "a3fd7ea3702d301f0650abf4c68cd16a", "is_disabled": 0, "rental_uris": {"android": "https://dc.lft.to/lastmile_qr_scan", "ios": "https://dc.lft.to/lastmile_qr_scan"}, "fusion_lon": 0.0, "lat": 38.911152333333334, "bike_id": "a3fd7ea3702d301f0650abf4c68cd16a", "type": "electric_scooter", "is_reserved": 0, "lon": -77.00668233333333}, {"fusion_lat": 0.0, "name": "889ec08d641e747c9e3153824bddb5f3", "is_disabled": 0, "rental_uris": {"android": "https://dc.lft.to/lastmile_qr_scan", "ios": "https://dc.lft.to/lastmile_qr_scan"}, "fusion_lon": 0.0, "lat": 38.889009, "bike_id": "889ec08d641e747c9e3153824bddb5f3", "type": "electric_scooter", "is_reserved": 0, "lon": -76.99203883333334}, {"fusion_lat": 0.0, "name": "0ba1293195745eb8fdf699d88b50dad8", "is_disabled": 0, "rental_uris": {"android": "https://dc.lft.to/lastmile_qr_scan", "ios": "https://dc.lft.to/lastmile_qr_scan"}, "fusion_lon": 0.0, "lat": 38.91563266666667, "bike_id": "0ba1293195745eb8fdf699d88b50dad8", "type": "electric_scooter", "is_reserved": 0, "lon": -77.03149233333333}, {"fusion_lat": 0.0, "name": "2546a7b7fc206486e2a28c96d5ed882f", "is_disabled": 0, "rental_uris": {"android": "https://dc.lft.to/lastmile_qr_scan", "ios": "https://dc.lft.to/lastmile_qr_scan"}, "fusion_lon": 0.0, "lat": 38.93065283333333, "bike_id": "2546a7b7fc206486e2a28c96d5ed882f", "type": "electric_scooter", "is_reserved": 0, "lon": -77.01952133333333}, {"fusion_lat": 0.0, "name": "71a55f78dcd411062fed01517b74dbba", "is_disabled": 0, "rental_uris": {"android": "https://dc.lft.to/lastmile_qr_scan", "ios": "https://dc.lft.to/lastmile_qr_scan"}, "fusion_lon": 0.0, "lat": 38.92329383333333, "bike_id": "71a55f78dcd411062fed01517b74dbba", "type": "electric_scooter", "is_reserved": 0, "lon": -77.03616066666666}, {"fusion_lat": 0.0, "name": "813f26de2d027f99c2717e6035203e9e", "is_disabled": 0, "rental_uris": {"android": "https://dc.lft.to/lastmile_qr_scan", "ios": "https://dc.lft.to/lastmile_qr_scan"}, "fusion_lon": 0.0, "lat": 38.92055533333333, "bike_id": "813f26de2d027f99c2717e6035203e9e", "type": "electric_scooter", "is_reserved": 0, "lon": -77.02203016666667}, {"fusion_lat": 0.0, "name": "c16da9f58988e2a10f93a74ec72af4ad", "is_disabled": 0, "rental_uris": {"android": "https://dc.lft.to/lastmile_qr_scan", "ios": "https://dc.lft.to/lastmile_qr_scan"}, "fusion_lon": 0.0, "lat": 38.909798, "bike_id": "c16da9f58988e2a10f93a74ec72af4ad", "type": "electric_scooter", "is_reserved": 0, "lon": -77.03176266666667}, {"fusion_lat": 0.0, "name": "cf70270f626803f3e6a3dca2ac61a14e", "is_disabled": 0, "rental_uris": {"android": "https://dc.lft.to/lastmile_qr_scan", "ios": "https://dc.lft.to/lastmile_qr_scan"}, "fusion_lon": 0.0, "lat": 38.9494725, "bike_id": "cf70270f626803f3e6a3dca2ac61a14e", "type": "electric_scooter", "is_reserved": 0, "lon": -77.02314816666667}, {"fusion_lat": 0.0, "name": "ce058ed60cc8594508e4e1f984d5280f", "is_disabled": 0, "rental_uris": {"android": "https://dc.lft.to/lastmile_qr_scan", "ios": "https://dc.lft.to/lastmile_qr_scan"}, "fusion_lon": 0.0, "lat": 38.894301666666664, "bike_id": "ce058ed60cc8594508e4e1f984d5280f", "type": "electric_scooter", "is_reserved": 0, "lon": -77.00105333333333}, {"fusion_lat": 0.0, "name": "cbd2763fe72b230312e574618ec01aa5", "is_disabled": 0, "rental_uris": {"android": "https://dc.lft.to/lastmile_qr_scan", "ios": "https://dc.lft.to/lastmile_qr_scan"}, "fusion_lon": 0.0, "lat": 38.898470833333334, "bike_id": "cbd2763fe72b230312e574618ec01aa5", "type": "electric_scooter", "is_reserved": 0, "lon": -76.946258}, {"fusion_lat": 0.0, "name": "d64eb2687aed8ff1ee75ec3d66ffa832", "is_disabled": 0, "rental_uris": {"android": "https://dc.lft.to/lastmile_qr_scan", "ios": "https://dc.lft.to/lastmile_qr_scan"}, "fusion_lon": 0.0, "lat": 38.89244883333333, "bike_id": "d64eb2687aed8ff1ee75ec3d66ffa832", "type": "electric_bike", "is_reserved": 0, "lon": -76.98539766666667}, {"fusion_lat": 0.0, "name": "0bab6301c9296e58ea6c452cfa31a043", "is_disabled": 0, "rental_uris": {"android": "https://dc.lft.to/lastmile_qr_scan", "ios": "https://dc.lft.to/lastmile_qr_scan"}, "fusion_lon": 0.0, "lat": 38.877074, "bike_id": "0bab6301c9296e58ea6c452cfa31a043", "type": "electric_scooter", "is_reserved": 0, "lon": -77.017669}, {"fusion_lat": 0.0, "name": "6c7aaf3f039b49f5b6f035d4d32249ce", "is_disabled": 0, "rental_uris": {"android": "https://dc.lft.to/lastmile_qr_scan", "ios": "https://dc.lft.to/lastmile_qr_scan"}, "fusion_lon": 0.0, "lat": 38.923570166666664, "bike_id": "6c7aaf3f039b49f5b6f035d4d32249ce", "type": "electric_scooter", "is_reserved": 0, "lon": -77.03371466666667}, {"fusion_lat": 0.0, "name": "ddfa50c42fc843872a4d2c331c95ea2f", "is_disabled": 0, "rental_uris": {"android": "https://dc.lft.to/lastmile_qr_scan", "ios": "https://dc.lft.to/lastmile_qr_scan"}, "fusion_lon": 0.0, "lat": 38.917704, "bike_id": "ddfa50c42fc843872a4d2c331c95ea2f", "type": "electric_scooter", "is_reserved": 0, "lon": -77.0228525}, {"fusion_lat": 0.0, "name": "d32150be911f3e51404f5cde3c6e4ba6", "is_disabled": 0, "rental_uris": {"android": "https://dc.lft.to/lastmile_qr_scan", "ios": "https://dc.lft.to/lastmile_qr_scan"}, "fusion_lon": 0.0, "lat": 38.962332833333335, "bike_id": "d32150be911f3e51404f5cde3c6e4ba6", "type": "electric_bike", "is_reserved": 0, "lon": -76.92761183333333}, {"fusion_lat": 0.0, "name": "afa080c304e38ecb4c4910d04ea3598d", "is_disabled": 0, "rental_uris": {"android": "https://dc.lft.to/lastmile_qr_scan", "ios": "https://dc.lft.to/lastmile_qr_scan"}, "fusion_lon": 0.0, "lat": 38.8891355, "bike_id": "afa080c304e38ecb4c4910d04ea3598d", "type": "electric_bike", "is_reserved": 0, "lon": -77.04929833333334}, {"fusion_lat": 0.0, "name": "665273d894f1483df5c0ddf8f1173321", "is_disabled": 0, "rental_uris": {"android": "https://dc.lft.to/lastmile_qr_scan", "ios": "https://dc.lft.to/lastmile_qr_scan"}, "fusion_lon": 0.0, "lat": 38.956139, "bike_id": "665273d894f1483df5c0ddf8f1173321", "type": "electric_scooter", "is_reserved": 0, "lon": -77.02759466666667}, {"fusion_lat": 0.0, "name": "52dd4b9bb7ec10a5eb09b899bb751f35", "is_disabled": 0, "rental_uris": {"android": "https://dc.lft.to/lastmile_qr_scan", "ios": "https://dc.lft.to/lastmile_qr_scan"}, "fusion_lon": 0.0, "lat": 38.943064666666665, "bike_id": "52dd4b9bb7ec10a5eb09b899bb751f35", "type": "electric_scooter", "is_reserved": 0, "lon": -77.06065616666666}, {"fusion_lat": 0.0, "name": "c3879ed2647cf265671e0a77cbecbb2c", "is_disabled": 0, "rental_uris": {"android": "https://dc.lft.to/lastmile_qr_scan", "ios": "https://dc.lft.to/lastmile_qr_scan"}, "fusion_lon": 0.0, "lat": 38.90724683333333, "bike_id": "c3879ed2647cf265671e0a77cbecbb2c", "type": "electric_scooter", "is_reserved": 0, "lon": -77.02975616666667}, {"fusion_lat": 0.0, "name": "3ad86e5d5f06e91b18ec49970d5bcd99", "is_disabled": 0, "rental_uris": {"android": "https://dc.lft.to/lastmile_qr_scan", "ios": "https://dc.lft.to/lastmile_qr_scan"}, "fusion_lon": 0.0, "lat": 38.927491833333335, "bike_id": "3ad86e5d5f06e91b18ec49970d5bcd99", "type": "electric_scooter", "is_reserved": 0, "lon": -77.025369}, {"fusion_lat": 0.0, "name": "0e37566513af978daf85a60e371a2b35", "is_disabled": 0, "rental_uris": {"android": "https://dc.lft.to/lastmile_qr_scan", "ios": "https://dc.lft.to/lastmile_qr_scan"}, "fusion_lon": 0.0, "lat": 38.89841766666667, "bike_id": "0e37566513af978daf85a60e371a2b35", "type": "electric_scooter", "is_reserved": 0, "lon": -77.04168383333334}, {"fusion_lat": 0.0, "name": "10fd0106c4903288e2c08982a336d009", "is_disabled": 0, "rental_uris": {"android": "https://dc.lft.to/lastmile_qr_scan", "ios": "https://dc.lft.to/lastmile_qr_scan"}, "fusion_lon": 0.0, "lat": 38.931087166666664, "bike_id": "10fd0106c4903288e2c08982a336d009", "type": "electric_scooter", "is_reserved": 0, "lon": -77.03028633333334}, {"fusion_lat": 0.0, "name": "d88cd438cd9478c63ae2e00060cfbc36", "is_disabled": 0, "rental_uris": {"android": "https://dc.lft.to/lastmile_qr_scan", "ios": "https://dc.lft.to/lastmile_qr_scan"}, "fusion_lon": 0.0, "lat": 38.916612, "bike_id": "d88cd438cd9478c63ae2e00060cfbc36", "type": "electric_scooter", "is_reserved": 0, "lon": -77.02815983333333}, {"fusion_lat": 0.0, "name": "7a43e9f22bbeb2baac4cdd96fad1ed8c", "is_disabled": 0, "rental_uris": {"android": "https://dc.lft.to/lastmile_qr_scan", "ios": "https://dc.lft.to/lastmile_qr_scan"}, "fusion_lon": 0.0, "lat": 38.9016915, "bike_id": "7a43e9f22bbeb2baac4cdd96fad1ed8c", "type": "electric_scooter", "is_reserved": 0, "lon": -77.0161745}, {"fusion_lat": 0.0, "name": "c2144c8cf3945bc6a3191b03283c3c37", "is_disabled": 0, "rental_uris": {"android": "https://dc.lft.to/lastmile_qr_scan", "ios": "https://dc.lft.to/lastmile_qr_scan"}, "fusion_lon": 0.0, "lat": 38.92413066666667, "bike_id": "c2144c8cf3945bc6a3191b03283c3c37", "type": "electric_scooter", "is_reserved": 0, "lon": -77.0445945}, {"fusion_lat": 0.0, "name": "afc79439959b8b0b84dfdd0372419288", "is_disabled": 0, "rental_uris": {"android": "https://dc.lft.to/lastmile_qr_scan", "ios": "https://dc.lft.to/lastmile_qr_scan"}, "fusion_lon": 0.0, "lat": 38.8787985, "bike_id": "afc79439959b8b0b84dfdd0372419288", "type": "electric_scooter", "is_reserved": 0, "lon": -77.022316}, {"fusion_lat": 0.0, "name": "975f246ffc947cf95ee598bea4fa9c32", "is_disabled": 0, "rental_uris": {"android": "https://dc.lft.to/lastmile_qr_scan", "ios": "https://dc.lft.to/lastmile_qr_scan"}, "fusion_lon": 0.0, "lat": 38.926692, "bike_id": "975f246ffc947cf95ee598bea4fa9c32", "type": "electric_scooter", "is_reserved": 0, "lon": -77.01484416666666}, {"fusion_lat": 0.0, "name": "8b3de3488412755e06d7a77a3732bbaa", "is_disabled": 0, "rental_uris": {"android": "https://dc.lft.to/lastmile_qr_scan", "ios": "https://dc.lft.to/lastmile_qr_scan"}, "fusion_lon": 0.0, "lat": 38.94115333333333, "bike_id": "8b3de3488412755e06d7a77a3732bbaa", "type": "electric_scooter", "is_reserved": 0, "lon": -77.02540416666666}, {"fusion_lat": 0.0, "name": "015a36df45cc8e0f754a8c61686178d0", "is_disabled": 0, "rental_uris": {"android": "https://dc.lft.to/lastmile_qr_scan", "ios": "https://dc.lft.to/lastmile_qr_scan"}, "fusion_lon": 0.0, "lat": 38.923340833333334, "bike_id": "015a36df45cc8e0f754a8c61686178d0", "type": "electric_scooter", "is_reserved": 0, "lon": -77.05298266666667}, {"fusion_lat": 0.0, "name": "601c2caaead4e157518bbe7b8f982dc0", "is_disabled": 0, "rental_uris": {"android": "https://dc.lft.to/lastmile_qr_scan", "ios": "https://dc.lft.to/lastmile_qr_scan"}, "fusion_lon": 0.0, "lat": 38.896150166666665, "bike_id": "601c2caaead4e157518bbe7b8f982dc0", "type": "electric_bike", "is_reserved": 0, "lon": -76.90741716666666}, {"fusion_lat": 0.0, "name": "782c2f3709b18fd527ba2f8c701a67a6", "is_disabled": 0, "rental_uris": {"android": "https://dc.lft.to/lastmile_qr_scan", "ios": "https://dc.lft.to/lastmile_qr_scan"}, "fusion_lon": 0.0, "lat": 38.93139733333334, "bike_id": "782c2f3709b18fd527ba2f8c701a67a6", "type": "electric_scooter", "is_reserved": 0, "lon": -77.02987866666666}, {"fusion_lat": 0.0, "name": "12ed62013f7829e8933b5421e5f730c6", "is_disabled": 0, "rental_uris": {"android": "https://dc.lft.to/lastmile_qr_scan", "ios": "https://dc.lft.to/lastmile_qr_scan"}, "fusion_lon": 0.0, "lat": 38.91840283333333, "bike_id": "12ed62013f7829e8933b5421e5f730c6", "type": "electric_scooter", "is_reserved": 0, "lon": -77.03477466666666}, {"fusion_lat": 0.0, "name": "398350bfaa7a5d51fd0c5383fc13ce0a", "is_disabled": 0, "rental_uris": {"android": "https://dc.lft.to/lastmile_qr_scan", "ios": "https://dc.lft.to/lastmile_qr_scan"}, "fusion_lon": 0.0, "lat": 38.908724, "bike_id": "398350bfaa7a5d51fd0c5383fc13ce0a", "type": "electric_scooter", "is_reserved": 0, "lon": -77.05427383333334}, {"fusion_lat": 0.0, "name": "735d6c0c87aa134f25885f6a5ad25a8e", "is_disabled": 0, "rental_uris": {"android": "https://dc.lft.to/lastmile_qr_scan", "ios": "https://dc.lft.to/lastmile_qr_scan"}, "fusion_lon": 0.0, "lat": 38.93525966666667, "bike_id": "735d6c0c87aa134f25885f6a5ad25a8e", "type": "electric_scooter", "is_reserved": 0, "lon": -77.04513733333333}, {"fusion_lat": 0.0, "name": "3deba99ea1a3c2cd5cc47960f94eeb72", "is_disabled": 0, "rental_uris": {"android": "https://dc.lft.to/lastmile_qr_scan", "ios": "https://dc.lft.to/lastmile_qr_scan"}, "fusion_lon": 0.0, "lat": 38.9034815, "bike_id": "3deba99ea1a3c2cd5cc47960f94eeb72", "type": "electric_scooter", "is_reserved": 0, "lon": -76.9747195}, {"fusion_lat": 0.0, "name": "d7e9d72b54559a686af984933d21d0f0", "is_disabled": 0, "rental_uris": {"android": "https://dc.lft.to/lastmile_qr_scan", "ios": "https://dc.lft.to/lastmile_qr_scan"}, "fusion_lon": 0.0, "lat": 38.8952755, "bike_id": "d7e9d72b54559a686af984933d21d0f0", "type": "electric_scooter", "is_reserved": 0, "lon": -77.0267595}, {"fusion_lat": 0.0, "name": "1e881804f5d33a07095eec389182ebe6", "is_disabled": 0, "rental_uris": {"android": "https://dc.lft.to/lastmile_qr_scan", "ios": "https://dc.lft.to/lastmile_qr_scan"}, "fusion_lon": 0.0, "lat": 38.8831365, "bike_id": "1e881804f5d33a07095eec389182ebe6", "type": "electric_scooter", "is_reserved": 0, "lon": -77.01369216666667}, {"fusion_lat": 0.0, "name": "763d495bb6d7734b16acdd3f1c0f4e46", "is_disabled": 0, "rental_uris": {"android": "https://dc.lft.to/lastmile_qr_scan", "ios": "https://dc.lft.to/lastmile_qr_scan"}, "fusion_lon": 0.0, "lat": 38.909758, "bike_id": "763d495bb6d7734b16acdd3f1c0f4e46", "type": "electric_scooter", "is_reserved": 0, "lon": -77.04868216666667}, {"fusion_lat": 0.0, "name": "c44fe460e01eb83946eee0e13c20f8a2", "is_disabled": 0, "rental_uris": {"android": "https://dc.lft.to/lastmile_qr_scan", "ios": "https://dc.lft.to/lastmile_qr_scan"}, "fusion_lon": 0.0, "lat": 38.91032716666667, "bike_id": "c44fe460e01eb83946eee0e13c20f8a2", "type": "electric_scooter", "is_reserved": 0, "lon": -77.03334783333334}, {"fusion_lat": 0.0, "name": "c2becb175f4de8929be05e82b48f4a61", "is_disabled": 0, "rental_uris": {"android": "https://dc.lft.to/lastmile_qr_scan", "ios": "https://dc.lft.to/lastmile_qr_scan"}, "fusion_lon": 0.0, "lat": 38.92053716666667, "bike_id": "c2becb175f4de8929be05e82b48f4a61", "type": "electric_scooter", "is_reserved": 0, "lon": -77.02538316666667}, {"fusion_lat": 0.0, "name": "c1adab72141cb013ee73f8c3e0797ce7", "is_disabled": 0, "rental_uris": {"android": "https://dc.lft.to/lastmile_qr_scan", "ios": "https://dc.lft.to/lastmile_qr_scan"}, "fusion_lon": 0.0, "lat": 38.9106405, "bike_id": "c1adab72141cb013ee73f8c3e0797ce7", "type": "electric_scooter", "is_reserved": 0, "lon": -77.05267266666667}, {"fusion_lat": 0.0, "name": "78e523342e135fa36f870825f10d05dd", "is_disabled": 0, "rental_uris": {"android": "https://dc.lft.to/lastmile_qr_scan", "ios": "https://dc.lft.to/lastmile_qr_scan"}, "fusion_lon": 0.0, "lat": 38.900339, "bike_id": "78e523342e135fa36f870825f10d05dd", "type": "electric_scooter", "is_reserved": 0, "lon": -77.00029666666667}, {"fusion_lat": 0.0, "name": "4da31a1ef1b903cc5e4037ea5a351ed2", "is_disabled": 0, "rental_uris": {"android": "https://dc.lft.to/lastmile_qr_scan", "ios": "https://dc.lft.to/lastmile_qr_scan"}, "fusion_lon": 0.0, "lat": 38.94334416666667, "bike_id": "4da31a1ef1b903cc5e4037ea5a351ed2", "type": "electric_scooter", "is_reserved": 0, "lon": -77.02687733333333}, {"fusion_lat": 0.0, "name": "e0dac3bc9e7a374948ff4b8ed3fd3d24", "is_disabled": 0, "rental_uris": {"android": "https://dc.lft.to/lastmile_qr_scan", "ios": "https://dc.lft.to/lastmile_qr_scan"}, "fusion_lon": 0.0, "lat": 38.9170755, "bike_id": "e0dac3bc9e7a374948ff4b8ed3fd3d24", "type": "electric_scooter", "is_reserved": 0, "lon": -77.00120883333334}, {"fusion_lat": 0.0, "name": "ce6871c3305fca3f32b6ad81c1bb3bd9", "is_disabled": 0, "rental_uris": {"android": "https://dc.lft.to/lastmile_qr_scan", "ios": "https://dc.lft.to/lastmile_qr_scan"}, "fusion_lon": 0.0, "lat": 38.91110616666667, "bike_id": "ce6871c3305fca3f32b6ad81c1bb3bd9", "type": "electric_scooter", "is_reserved": 0, "lon": -77.02166866666667}, {"fusion_lat": 0.0, "name": "2bb659c588a4fbeca2d57e21c8b1b322", "is_disabled": 0, "rental_uris": {"android": "https://dc.lft.to/lastmile_qr_scan", "ios": "https://dc.lft.to/lastmile_qr_scan"}, "fusion_lon": 0.0, "lat": 38.900608166666665, "bike_id": "2bb659c588a4fbeca2d57e21c8b1b322", "type": "electric_scooter", "is_reserved": 0, "lon": -76.98559533333334}, {"fusion_lat": 0.0, "name": "d3390c78b97fdbea7bf8b4b7c552aec4", "is_disabled": 0, "rental_uris": {"android": "https://dc.lft.to/lastmile_qr_scan", "ios": "https://dc.lft.to/lastmile_qr_scan"}, "fusion_lon": 0.0, "lat": 38.89853566666667, "bike_id": "d3390c78b97fdbea7bf8b4b7c552aec4", "type": "electric_scooter", "is_reserved": 0, "lon": -76.99032}, {"fusion_lat": 0.0, "name": "a90dc76e889c8b42925d5aa3c56ee834", "is_disabled": 0, "rental_uris": {"android": "https://dc.lft.to/lastmile_qr_scan", "ios": "https://dc.lft.to/lastmile_qr_scan"}, "fusion_lon": 0.0, "lat": 38.9073115, "bike_id": "a90dc76e889c8b42925d5aa3c56ee834", "type": "electric_scooter", "is_reserved": 0, "lon": -77.02974683333333}, {"fusion_lat": 0.0, "name": "252bb3765acb2dd9963bce9b412bfb71", "is_disabled": 0, "rental_uris": {"android": "https://dc.lft.to/lastmile_qr_scan", "ios": "https://dc.lft.to/lastmile_qr_scan"}, "fusion_lon": 0.0, "lat": 38.92869366666667, "bike_id": "252bb3765acb2dd9963bce9b412bfb71", "type": "electric_scooter", "is_reserved": 0, "lon": -77.03795133333334}, {"fusion_lat": 0.0, "name": "51196182c3f34c485f0e7ec0bd8ba5dc", "is_disabled": 0, "rental_uris": {"android": "https://dc.lft.to/lastmile_qr_scan", "ios": "https://dc.lft.to/lastmile_qr_scan"}, "fusion_lon": 0.0, "lat": 38.92917333333333, "bike_id": "51196182c3f34c485f0e7ec0bd8ba5dc", "type": "electric_scooter", "is_reserved": 0, "lon": -77.03750416666666}, {"fusion_lat": 0.0, "name": "db0d5fa0dec56d70108df3112ae6c786", "is_disabled": 0, "rental_uris": {"android": "https://dc.lft.to/lastmile_qr_scan", "ios": "https://dc.lft.to/lastmile_qr_scan"}, "fusion_lon": 0.0, "lat": 38.933938166666664, "bike_id": "db0d5fa0dec56d70108df3112ae6c786", "type": "electric_scooter", "is_reserved": 0, "lon": -77.02845633333334}, {"fusion_lat": 0.0, "name": "50b229f597bf964cbec75f78ad011c6b", "is_disabled": 0, "rental_uris": {"android": "https://dc.lft.to/lastmile_qr_scan", "ios": "https://dc.lft.to/lastmile_qr_scan"}, "fusion_lon": 0.0, "lat": 38.88388166666667, "bike_id": "50b229f597bf964cbec75f78ad011c6b", "type": "electric_scooter", "is_reserved": 0, "lon": -76.93053816666666}, {"fusion_lat": 0.0, "name": "8c7267037ab6b2d3cdec0ecaa6a083d0", "is_disabled": 0, "rental_uris": {"android": "https://dc.lft.to/lastmile_qr_scan", "ios": "https://dc.lft.to/lastmile_qr_scan"}, "fusion_lon": 0.0, "lat": 38.903964333333334, "bike_id": "8c7267037ab6b2d3cdec0ecaa6a083d0", "type": "electric_scooter", "is_reserved": 0, "lon": -77.03846316666667}, {"fusion_lat": 0.0, "name": "fc951f1956726a8f66b1d3036efa9a30", "is_disabled": 0, "rental_uris": {"android": "https://dc.lft.to/lastmile_qr_scan", "ios": "https://dc.lft.to/lastmile_qr_scan"}, "fusion_lon": 0.0, "lat": 38.93772966666667, "bike_id": "fc951f1956726a8f66b1d3036efa9a30", "type": "electric_bike", "is_reserved": 0, "lon": -77.0191375}, {"fusion_lat": 0.0, "name": "3d2bc5cbf5e66071a1e4c7d067a5b517", "is_disabled": 0, "rental_uris": {"android": "https://dc.lft.to/lastmile_qr_scan", "ios": "https://dc.lft.to/lastmile_qr_scan"}, "fusion_lon": 0.0, "lat": 38.90240883333333, "bike_id": "3d2bc5cbf5e66071a1e4c7d067a5b517", "type": "electric_scooter", "is_reserved": 0, "lon": -77.02691883333334}, {"fusion_lat": 0.0, "name": "7f87a2d0375428ea6777114c0dc2b6ab", "is_disabled": 0, "rental_uris": {"android": "https://dc.lft.to/lastmile_qr_scan", "ios": "https://dc.lft.to/lastmile_qr_scan"}, "fusion_lon": 0.0, "lat": 38.913988833333335, "bike_id": "7f87a2d0375428ea6777114c0dc2b6ab", "type": "electric_scooter", "is_reserved": 0, "lon": -77.03321933333334},