{"data": {"bikes": [{"rental_uris": {"android": "https://dc.lft.to/lastmile_qr_scan", "ios": "https://dc.lft.to/lastmile_qr_scan"}, "type": "electric_scooter", "lon": -77.04001283333334, "name": "4fd092d3c0b95c331b67d7951c4f6a94", "bike_id": "4fd092d3c0b95c331b67d7951c4f6a94", "fusion_lat": 0.0, "is_reserved": 0, "lat": 38.91414016666667, "fusion_lon": 0.0, "is_disabled": 0}, {"rental_uris": {"android": "https://dc.lft.to/lastmile_qr_scan", "ios": "https://dc.lft.to/lastmile_qr_scan"}, "type": "electric_scooter", "lon": -77.04348583333334, "name": "c8fb9e7eb08b23e5f44433ac05d5f508", "bike_id": "c8fb9e7eb08b23e5f44433ac05d5f508", "fusion_lat": 0.0, "is_reserved": 0, "lat": 38.921610333333334, "fusion_lon": 0.0, "is_disabled": 0}, {"rental_uris": {"android": "https://dc.lft.to/lastmile_qr_scan", "ios": "https://dc.lft.to/lastmile_qr_scan"}, "type": "electric_scooter", "lon": -77.05002783333333, "name": "d474a3d77b033cfb47ec06de6166fd59", "bike_id": "d474a3d77b033cfb47ec06de6166fd59", "fusion_lat": 0.0, "is_reserved": 0, "lat": 38.90536216666667, "fusion_lon": 0.0, "is_disabled": 0}, {"rental_uris": {"android": "https://dc.lft.to/lastmile_qr_scan", "ios": "https://dc.lft.to/lastmile_qr_scan"}, "type": "electric_scooter", "lon": -77.0239365, "name": "f13d4eeafd5fab54b3c350599f64c47b", "bike_id": "f13d4eeafd5fab54b3c350599f64c47b", "fusion_lat": 0.0, "is_reserved": 0, "lat": 38.916843, "fusion_lon": 0.0, "is_disabled": 0}, {"rental_uris": {"android": "https://dc.lft.to/lastmile_qr_scan", "ios": "https://dc.lft.to/lastmile_qr_scan"}, "type": "electric_scooter", "lon": -76.93154583333333, "name": "5125e2c2f3b53846052e39dda7380d0a", "bike_id": "5125e2c2f3b53846052e39dda7380d0a", "fusion_lat": 0.0, "is_reserved": 0, "lat": 38.89882566666667, "fusion_lon": 0.0, "is_disabled": 0}, {"rental_uris": {"android": "https://dc.lft.to/lastmile_qr_scan", "ios": "https://dc.lft.to/lastmile_qr_scan"}, "type": "electric_scooter", "lon": -77.0658585, "name": "87bfd600f386ca09f53367799c44e7a6", "bike_id": "87bfd600f386ca09f53367799c44e7a6", "fusion_lat": 0.0, "is_reserved": 0, "lat": 38.913696333333334, "fusion_lon": 0.0, "is_disabled": 0}, {"rental_uris": {"android": "https://dc.lft.to/lastmile_qr_scan", "ios": "https://dc.lft.to/lastmile_qr_scan"}, "type": "electric_scooter", "lon": -76.93184066666667, "name": "e4a9017aaa16710b6610e907635eaa4b", "bike_id": "e4a9017aaa16710b6610e907635eaa4b", "fusion_lat": 0.0, "is_reserved": 0, "lat": 38.8987645, "fusion_lon": 0.0, "is_disabled": 0}, {"rental_uris": {"android": "https://dc.lft.to/lastmile_qr_scan", "ios": "https://dc.lft.to/lastmile_qr_scan"}, "type": "electric_scooter", "lon": -77.04354016666667, "name": "29078f07f664fa3371301840efeaf123", "bike_id": "29078f07f664fa3371301840efeaf123", "fusion_lat": 0.0, "is_reserved": 0, "lat": 38.9041375, "fusion_lon": 0.0, "is_disabled": 0}, {"rental_uris": {"android": "https://dc.lft.to/lastmile_qr_scan", "ios": "https://dc.lft.to/lastmile_qr_scan"}, "type": "electric_scooter", "lon": -77.0239275, "name": "8d4743e9ea50bd152d7378688dc85c9a", "bike_id": "8d4743e9ea50bd152d7378688dc85c9a", "fusion_lat": 0.0, "is_reserved": 0, "lat": 38.88740583333333, "fusion_lon": 0.0, "is_disabled": 0}, {"rental_uris": {"android": "https://dc.lft.to/lastmile_qr_scan", "ios": "https://dc.lft.to/lastmile_qr_scan"}, "type": "electric_bike", "lon": -77.12739616666667, "name": "96eb0d3d465b1f6fe889f1c8b115706e", "bike_id": "96eb0d3d465b1f6fe889f1c8b115706e", "fusion_lat": 0.0, "is_reserved": 0, "lat": 38.88816416666667, "fusion_lon": 0.0, "is_disabled": 0}, {"rental_uris": {"android": "https://dc.lft.to/lastmile_qr_scan", "ios": "https://dc.lft.to/lastmile_qr_scan"}, "type": "electric_scooter", "lon": -76.94119366666666, "name": "e3295d4e1d745442196d463854c7b8d7", "bike_id": "e3295d4e1d745442196d463854c7b8d7", "fusion_lat": 0.0, "is_reserved": 0, "lat": 38.9078495, "fusion_lon": 0.0, "is_disabled": 0}, {"rental_uris": {"android": "https://dc.lft.to/lastmile_qr_scan", "ios": "https://dc.lft.to/lastmile_qr_scan"}, "type": "electric_scooter", "lon": -76.98683066666666, "name": "48a28ce4e1860dbbcaf63bc45bbd55a0", "bike_id": "48a28ce4e1860dbbcaf63bc45bbd55a0", "fusion_lat": 0.0, "is_reserved": 0, "lat": 38.85582516666667, "fusion_lon": 0.0, "is_disabled": 0}, {"rental_uris": {"android": "https://dc.lft.to/lastmile_qr_scan", "ios": "https://dc.lft.to/lastmile_qr_scan"}, "type": "electric_scooter", "lon": -77.06161433333334, "name": "f9ce826c4dff410df7b18de15abfcc3d", "bike_id": "f9ce826c4dff410df7b18de15abfcc3d", "fusion_lat": 0.0, "is_reserved": 0, "lat": 38.94225983333333, "fusion_lon": 0.0, "is_disabled": 0}, {"rental_uris": {"android": "https://dc.lft.to/lastmile_qr_scan", "ios": "https://dc.lft.to/lastmile_qr_scan"}, "type": "electric_scooter", "lon": -77.0343615, "name": "5c1d517d53d4bafcd46c1a9e29536dd9", "bike_id": "5c1d517d53d4bafcd46c1a9e29536dd9", "fusion_lat": 0.0, "is_reserved": 0, "lat": 38.902651166666665, "fusion_lon": 0.0, "is_disabled": 0}, {"rental_uris": {"android": "https://dc.lft.to/lastmile_qr_scan", "ios": "https://dc.lft.to/lastmile_qr_scan"}, "type": "electric_scooter", "lon": -76.98770766666667, "name": "27a4cec9b38809c7030ab8cb6b44734f", "bike_id": "27a4cec9b38809c7030ab8cb6b44734f", "fusion_lat": 0.0, "is_reserved": 0, "lat": 38.91175166666667, "fusion_lon": 0.0, "is_disabled": 0}, {"rental_uris": {"android": "https://dc.lft.to/lastmile_qr_scan", "ios": "https://dc.lft.to/lastmile_qr_scan"}, "type": "electric_scooter", "lon": -77.02759783333333, "name": "827cb0a749e7db42aa75e0cc491d6fef", "bike_id": "827cb0a749e7db42aa75e0cc491d6fef", "fusion_lat": 0.0, "is_reserved": 0, "lat": 38.954025666666666, "fusion_lon": 0.0, "is_disabled": 0}, {"rental_uris": {"android": "https://dc.lft.to/lastmile_qr_scan", "ios": "https://dc.lft.to/lastmile_qr_scan"}, "type": "electric_scooter", "lon": -77.02354733333334, "name": "28317b44d882a0b48be4d6fd5680945c", "bike_id": "28317b44d882a0b48be4d6fd5680945c", "fusion_lat": 0.0, "is_reserved": 0, "lat": 38.92267066666667, "fusion_lon": 0.0, "is_disabled": 0}, {"rental_uris": {"android": "https://dc.lft.to/lastmile_qr_scan", "ios": "https://dc.lft.to/lastmile_qr_scan"}, "type": "electric_bike", "lon": -76.95206066666667, "name": "6d50f5483ba5bf8cc9b7a688ed403209", "bike_id": "6d50f5483ba5bf8cc9b7a688ed403209", "fusion_lat": 0.0, "is_reserved": 0, "lat": 38.93668366666667, "fusion_lon": 0.0, "is_disabled": 0}, {"rental_uris": {"android": "https://dc.lft.to/lastmile_qr_scan", "ios": "https://dc.lft.to/lastmile_qr_scan"}, "type": "electric_scooter", "lon": -77.04009766666667, "name": "faaa9620db3c8cc231f7547f155b8329", "bike_id": "faaa9620db3c8cc231f7547f155b8329", "fusion_lat": 0.0, "is_reserved": 0, "lat": 38.90371733333333, "fusion_lon": 0.0, "is_disabled": 0}, {"rental_uris": {"android": "https://dc.lft.to/lastmile_qr_scan", "ios": "https://dc.lft.to/lastmile_qr_scan"}, "type": "electric_scooter", "lon": -76.99092383333333, "name": "e0bb1ef69530f1456d8c1c082a32c65b", "bike_id": "e0bb1ef69530f1456d8c1c082a32c65b", "fusion_lat": 0.0, "is_reserved": 0, "lat": 38.863551666666666, "fusion_lon": 0.0, "is_disabled": 0}, {"rental_uris": {"android": "https://dc.lft.to/lastmile_qr_scan", "ios": "https://dc.lft.to/lastmile_qr_scan"}, "type": "electric_scooter", "lon": -77.0401555, "name": "b316f8fa123c7d3da81f47e58a2826b3", "bike_id": "b316f8fa123c7d3da81f47e58a2826b3", "fusion_lat": 0.0, "is_reserved": 0, "lat": 38.89938683333333, "fusion_lon": 0.0, "is_disabled": 0}, {"rental_uris": {"android": "https://dc.lft.to/lastmile_qr_scan", "ios": "https://dc.lft.to/lastmile_qr_scan"}, "type": "electric_scooter", "lon": -77.03567933333333, "name": "3a3ad922c3088a3cc925194ee6d6bfc6", "bike_id": "3a3ad922c3088a3cc925194ee6d6bfc6", "fusion_lat": 0.0, "is_reserved": 0, "lat": 38.90483783333333, "fusion_lon": 0.0, "is_disabled": 0}, {"rental_uris": {"android": "https://dc.lft.to/lastmile_qr_scan", "ios": "https://dc.lft.to/lastmile_qr_scan"}, "type": "electric_scooter", "lon": -76.9872715, "name": "a52a9cba4460bc96cb829676c77b115b", "bike_id": "a52a9cba4460bc96cb829676c77b115b", "fusion_lat": 0.0, "is_reserved": 0, "lat": 38.867109, "fusion_lon": 0.0, "is_disabled": 0}, {"rental_uris": {"android": "https://dc.lft.to/lastmile_qr_scan", "ios": "https://dc.lft.to/lastmile_qr_scan"}, "type": "electric_scooter", "lon": -77.01254933333334, "name": "c3b2c35cf048132d534a660003ea589c", "bike_id": "c3b2c35cf048132d534a660003ea589c", "fusion_lat": 0.0, "is_reserved": 0, "lat": 38.9085475, "fusion_lon": 0.0, "is_disabled": 0}, {"rental_uris": {"android": "https://dc.lft.to/lastmile_qr_scan", "ios": "https://dc.lft.to/lastmile_qr_scan"}, "type": "electric_scooter", "lon": -77.00555816666666, "name": "370bf43d261b576b6a704c9fa8f8aa9f", "bike_id": "370bf43d261b576b6a704c9fa8f8aa9f", "fusion_lat": 0.0, "is_reserved": 0, "lat": 38.90564616666666, "fusion_lon": 0.0, "is_disabled": 0}, {"rental_uris": {"android": "https://dc.lft.to/lastmile_qr_scan", "ios": "https://dc.lft.to/lastmile_qr_scan"}, "type": "electric_scooter", "lon": -77.0089835, "name": "e7ce17fd22e42a8cb904c40534b47538", "bike_id": "e7ce17fd22e42a8cb904c40534b47538", "fusion_lat": 0.0, "is_reserved": 0, "lat": 38.900253166666666, "fusion_lon": 0.0, "is_disabled": 0}, {"rental_uris": {"android": "https://dc.lft.to/lastmile_qr_scan", "ios": "https://dc.lft.to/lastmile_qr_scan"}, "type": "electric_scooter", "lon": -77.01889233333333, "name": "908753db9cb651c9f4255275c0b57e41", "bike_id": "908753db9cb651c9f4255275c0b57e41", "fusion_lat": 0.0, "is_reserved": 0, "lat": 38.9294385, "fusion_lon": 0.0, "is_disabled": 0}, {"rental_uris": {"android": "https://dc.lft.to/lastmile_qr_scan", "ios": "https://dc.lft.to/lastmile_qr_scan"}, "type": "electric_bike", "lon": -76.998418, "name": "4ac63c221aa2bfdb2d3e945e3acec18f", "bike_id": "4ac63c221aa2bfdb2d3e945e3acec18f", "fusion_lat": 0.0, "is_reserved": 0, "lat": 38.839192833333335, "fusion_lon": 0.0, "is_disabled": 0}, {"rental_uris": {"android": "https://dc.lft.to/lastmile_qr_scan", "ios": "https://dc.lft.to/lastmile_qr_scan"}, "type": "electric_scooter", "lon": -76.9950155, "name": "e20102ced254c7753062a910d08d434a", "bike_id": "e20102ced254c7753062a910d08d434a", "fusion_lat": 0.0, "is_reserved": 0, "lat": 38.86251266666667, "fusion_lon": 0.0, "is_disabled": 0}, {"rental_uris": {"android": "https://dc.lft.to/lastmile_qr_scan", "ios": "https://dc.lft.to/lastmile_qr_scan"}, "type": "electric_scooter", "lon": -76.995267, "name": "5715c6af6ddbe150c5c6351481b9fe9e", "bike_id": "5715c6af6ddbe150c5c6351481b9fe9e", "fusion_lat": 0.0, "is_reserved": 0, "lat": 38.88410733333333, "fusion_lon": 0.0, "is_disabled": 0}, {"rental_uris": {"android": "https://dc.lft.to/lastmile_qr_scan", "ios": "https://dc.lft.to/lastmile_qr_scan"}, "type": "electric_bike", "lon": -77.010761, "name": "36f99301e1bd76e412e2235e57d06b91", "bike_id": "36f99301e1bd76e412e2235e57d06b91", "fusion_lat": 0.0, "is_reserved": 0, "lat": 38.96261916666667, "fusion_lon": 0.0, "is_disabled": 0}, {"rental_uris": {"android": "https://dc.lft.to/lastmile_qr_scan", "ios": "https://dc.lft.to/lastmile_qr_scan"}, "type": "electric_scooter", "lon": -77.00199266666667, "name": "cc90827f4830282698e4cbbf666c0847", "bike_id": "cc90827f4830282698e4cbbf666c0847", "fusion_lat": 0.0, "is_reserved": 0, "lat": 38.902385833333334, "fusion_lon": 0.0, "is_disabled": 0}, {"rental_uris": {"android": "https://dc.lft.to/lastmile_qr_scan", "ios": "https://dc.lft.to/lastmile_qr_scan"}, "type": "electric_scooter", "lon": -77.02316183333333, "name": "fc7f526d6a283a278e272445578efe65", "bike_id": "fc7f526d6a283a278e272445578efe65", "fusion_lat": 0.0, "is_reserved": 0, "lat": 38.9176825, "fusion_lon": 0.0, "is_disabled": 0}, {"rental_uris": {"android": "https://dc.lft.to/lastmile_qr_scan", "ios": "https://dc.lft.to/lastmile_qr_scan"}, "type": "electric_scooter", "lon": -77.03477466666666, "name": "0f5c2b8f95ebe5a7117359e02cade79f", "bike_id": "0f5c2b8f95ebe5a7117359e02cade79f", "fusion_lat": 0.0, "is_reserved": 0, "lat": 38.902569, "fusion_lon": 0.0, "is_disabled": 0}, {"rental_uris": {"android": "https://dc.lft.to/lastmile_qr_scan", "ios": "https://dc.lft.to/lastmile_qr_scan"}, "type": "electric_bike", "lon": -77.0763645, "name": "26b6b6b1ecb90d64637451fd889fdd99", "bike_id": "26b6b6b1ecb90d64637451fd889fdd99", "fusion_lat": 0.0, "is_reserved": 0, "lat": 38.90616933333333, "fusion_lon": 0.0, "is_disabled": 0}, {"rental_uris": {"android": "https://dc.lft.to/lastmile_qr_scan", "ios": "https://dc.lft.to/lastmile_qr_scan"}, "type": "electric_scooter", "lon": -77.00644983333333, "name": "bc8d45356d31acafb7ea9fa364fd2d9c", "bike_id": "bc8d45356d31acafb7ea9fa364fd2d9c", "fusion_lat": 0.0, "is_reserved": 0, "lat": 38.8834, "fusion_lon": 0.0, "is_disabled": 0}, {"rental_uris": {"android": "https://dc.lft.to/lastmile_qr_scan", "ios": "https://dc.lft.to/lastmile_qr_scan"}, "type": "electric_scooter", "lon": -77.01205933333334, "name": "773a2f1b73db8744ff765c2dce2cc4d8", "bike_id": "773a2f1b73db8744ff765c2dce2cc4d8", "fusion_lat": 0.0, "is_reserved": 0, "lat": 38.870861833333336, "fusion_lon": 0.0, "is_disabled": 0}, {"rental_uris": {"android": "https://dc.lft.to/lastmile_qr_scan", "ios": "https://dc.lft.to/lastmile_qr_scan"}, "type": "electric_scooter", "lon": -77.031889, "name": "5de837b10e3c2f065368abcc2b3bdafe", "bike_id": "5de837b10e3c2f065368abcc2b3bdafe", "fusion_lat": 0.0, "is_reserved": 0, "lat": 38.92976183333333, "fusion_lon": 0.0, "is_disabled": 0}, {"rental_uris": {"android": "https://dc.lft.to/lastmile_qr_scan", "ios": "https://dc.lft.to/lastmile_qr_scan"}, "type": "electric_scooter", "lon": -77.01460116666667, "name": "ba3716828d00f221dd4b0a7821d97ea1", "bike_id": "ba3716828d00f221dd4b0a7821d97ea1", "fusion_lat": 0.0, "is_reserved": 0, "lat": 38.926746, "fusion_lon": 0.0, "is_disabled": 0}, {"rental_uris": {"android": "https://dc.lft.to/lastmile_qr_scan", "ios": "https://dc.lft.to/lastmile_qr_scan"}, "type": "electric_scooter", "lon": -77.03858016666666, "name": "0b5184bd93d60ab4d16c67861bc15aef", "bike_id": "0b5184bd93d60ab4d16c67861bc15aef", "fusion_lat": 0.0, "is_reserved": 0, "lat": 38.9028895, "fusion_lon": 0.0, "is_disabled": 0}, {"rental_uris": {"android": "https://dc.lft.to/lastmile_qr_scan", "ios": "https://dc.lft.to/lastmile_qr_scan"}, "type": "electric_scooter", "lon": -77.03427016666667, "name": "73d59a4c23397640d73b8eecf421d471", "bike_id": "73d59a4c23397640d73b8eecf421d471", "fusion_lat": 0.0, "is_reserved": 0, "lat": 38.9243155, "fusion_lon": 0.0, "is_disabled": 0}, {"rental_uris": {"android": "https://dc.lft.to/lastmile_qr_scan", "ios": "https://dc.lft.to/lastmile_qr_scan"}, "type": "electric_scooter", "lon": -77.04048866666666, "name": "f49fee9351782c13a3f7e10b692af75e", "bike_id": "f49fee9351782c13a3f7e10b692af75e", "fusion_lat": 0.0, "is_reserved": 0, "lat": 38.905754333333334, "fusion_lon": 0.0, "is_disabled": 0}, {"rental_uris": {"android": "https://dc.lft.to/lastmile_qr_scan", "ios": "https://dc.lft.to/lastmile_qr_scan"}, "type": "electric_scooter", "lon": -77.02106783333333, "name": "8b03c443cee003defae6d095c9a29a7e", "bike_id": "8b03c443cee003defae6d095c9a29a7e", "fusion_lat": 0.0, "is_reserved": 0, "lat": 38.94096966666667, "fusion_lon": 0.0, "is_disabled": 0}, {"rental_uris": {"android": "https://dc.lft.to/lastmile_qr_scan", "ios": "https://dc.lft.to/lastmile_qr_scan"}, "type": "electric_scooter", "lon": -76.9995115, "name": "aa58640fe0f503d31f40fe4edc561b93", "bike_id": "aa58640fe0f503d31f40fe4edc561b93", "fusion_lat": 0.0, "is_reserved": 0, "lat": 38.842959666666665, "fusion_lon": 0.0, "is_disabled": 0}, {"rental_uris": {"android": "https://dc.lft.to/lastmile_qr_scan", "ios": "https://dc.lft.to/lastmile_qr_scan"}, "type": "electric_scooter", "lon": -77.00067216666666, "name": "9a088f5f3575033a8af0b9a1eb2a78f5", "bike_id": "9a088f5f3575033a8af0b9a1eb2a78f5", "fusion_lat": 0.0, "is_reserved": 0, "lat": 38.91912933333333, "fusion_lon": 0.0, "is_disabled": 0}, {"rental_uris": {"android": "https://dc.lft.to/lastmile_qr_scan", "ios": "https://dc.lft.to/lastmile_qr_scan"}, "type": "electric_scooter", "lon": -77.0209365, "name": "a4ee0c745dcf2100195a5fc8a39dd1fa", "bike_id": "a4ee0c745dcf2100195a5fc8a39dd1fa", "fusion_lat": 0.0, "is_reserved": 0, "lat": 38.92915383333333, "fusion_lon": 0.0, "is_disabled": 0}, {"rental_uris": {"android": "https://dc.lft.to/lastmile_qr_scan", "ios": "https://dc.lft.to/lastmile_qr_scan"}, "type": "electric_scooter", "lon": -77.02696466666667, "name": "6551cbd48a1c894c7d978dedc1eb3c46", "bike_id": "6551cbd48a1c894c7d978dedc1eb3c46", "fusion_lat": 0.0, "is_reserved": 0, "lat": 38.908458, "fusion_lon": 0.0, "is_disabled": 0}, {"rental_uris": {"android": "https://dc.lft.to/lastmile_qr_scan", "ios": "https://dc.lft.to/lastmile_qr_scan"}, "type": "electric_scooter", "lon": -77.065273, "name": "908f8fc846482553c0bee18c42f31a29", "bike_id": "908f8fc846482553c0bee18c42f31a29", "fusion_lat": 0.0, "is_reserved": 0, "lat": 38.905254, "fusion_lon": 0.0, "is_disabled": 0}, {"rental_uris": {"android": "https://dc.lft.to/lastmile_qr_scan", "ios": "https://dc.lft.to/lastmile_qr_scan"}, "type": "electric_scooter", "lon": -77.01843666666667, "name": "212eb6096655708dea14d18282879ade", "bike_id": "212eb6096655708dea14d18282879ade", "fusion_lat": 0.0, "is_reserved": 0, "lat": 38.8769155, "fusion_lon": 0.0, "is_disabled": 0}, {"rental_uris": {"android": "https://dc.lft.to/lastmile_qr_scan", "ios": "https://dc.lft.to/lastmile_qr_scan"}, "type": "electric_scooter", "lon": -77.01791883333334, "name": "3206e2f6e61d06bcefa5bfd346a8af0f", "bike_id": "3206e2f6e61d06bcefa5bfd346a8af0f", "fusion_lat": 0.0, "is_reserved": 0, "lat": 38.921139333333336, "fusion_lon": 0.0, "is_disabled": 0}, {"rental_uris": {"android": "https://dc.lft.to/lastmile_qr_scan", "ios": "https://dc.lft.to/lastmile_qr_scan"}, "type": "electric_scooter", "lon": -77.027046, "name": "37a5d2eda5d33942540ba99411e4b25e", "bike_id": "37a5d2eda5d33942540ba99411e4b25e", "fusion_lat": 0.0, "is_reserved": 0, "lat": 38.949987, "fusion_lon": 0.0, "is_disabled": 0}, {"rental_uris": {"android": "https://dc.lft.to/lastmile_qr_scan", "ios": "https://dc.lft.to/lastmile_qr_scan"}, "type": "electric_scooter", "lon": -77.01278983333333, "name": "971519f43a75ca936c7f5ccab573cec5", "bike_id": "971519f43a75ca936c7f5ccab573cec5", "fusion_lat": 0.0, "is_reserved": 0, "lat": 38.9156725, "fusion_lon": 0.0, "is_disabled": 0}, {"rental_uris": {"android": "https://dc.lft.to/lastmile_qr_scan", "ios": "https://dc.lft.to/lastmile_qr_scan"}, "type": "electric_scooter", "lon": -77.01249366666667, "name": "e2d0cbd865d0e771eb6edc79c93b9863", "bike_id": "e2d0cbd865d0e771eb6edc79c93b9863", "fusion_lat": 0.0, "is_reserved": 0, "lat": 38.90869683333333, "fusion_lon": 0.0, "is_disabled": 0}, {"rental_uris": {"android": "https://dc.lft.to/lastmile_qr_scan", "ios": "https://dc.lft.to/lastmile_qr_scan"}, "type": "electric_bike", "lon": -77.009064, "name": "aee3328ae3dd3ebcfeaaee880309e8a9", "bike_id": "aee3328ae3dd3ebcfeaaee880309e8a9", "fusion_lat": 0.0, "is_reserved": 0, "lat": 38.90351366666667, "fusion_lon": 0.0, "is_disabled": 0}, {"rental_uris": {"android": "https://dc.lft.to/lastmile_qr_scan", "ios": "https://dc.lft.to/lastmile_qr_scan"}, "type": "electric_scooter", "lon": -76.96520816666667, "name": "22cb1c747cc393c21ba1af16b6424c87", "bike_id": "22cb1c747cc393c21ba1af16b6424c87", "fusion_lat": 0.0, "is_reserved": 0, "lat": 38.87482333333333, "fusion_lon": 0.0, "is_disabled": 0}, {"rental_uris": {"android": "https://dc.lft.to/lastmile_qr_scan", "ios": "https://dc.lft.to/lastmile_qr_scan"}, "type": "electric_scooter", "lon": -77.032674, "name": "0728ea1538e94bcedcbb4f6e8dfebfda", "bike_id": "0728ea1538e94bcedcbb4f6e8dfebfda", "fusion_lat": 0.0, "is_reserved": 0, "lat": 38.93343816666667, "fusion_lon": 0.0, "is_disabled": 0}, {"rental_uris": {"android": "https://dc.lft.to/lastmile_qr_scan", "ios": "https://dc.lft.to/lastmile_qr_scan"}, "type": "electric_scooter", "lon": -76.974761, "name": "dfa04b9716efca8684b1d5d13e97d63b", "bike_id": "dfa04b9716efca8684b1d5d13e97d63b", "fusion_lat": 0.0, "is_reserved": 0, "lat": 38.90353066666667, "fusion_lon": 0.0, "is_disabled": 0}, {"rental_uris": {"android": "https://dc.lft.to/lastmile_qr_scan", "ios": "https://dc.lft.to/lastmile_qr_scan"}, "type": "electric_scooter", "lon": -77.05922366666667, "name": "61568712a1e8af78252c9ae9fc359b91", "bike_id": "61568712a1e8af78252c9ae9fc359b91", "fusion_lat": 0.0, "is_reserved": 0, "lat": 38.93656516666667, "fusion_lon": 0.0, "is_disabled": 0}, {"rental_uris": {"android": "https://dc.lft.to/lastmile_qr_scan", "ios": "https://dc.lft.to/lastmile_qr_scan"}, "type": "electric_scooter", "lon": -77.01169133333333, "name": "aedb6ad2ca345cdcd9aadced705ebc04", "bike_id": "aedb6ad2ca345cdcd9aadced705ebc04", "fusion_lat": 0.0, "is_reserved": 0, "lat": 38.90321, "fusion_lon": 0.0, "is_disabled": 0}, {"rental_uris": {"android": "https://dc.lft.to/lastmile_qr_scan", "ios": "https://dc.lft.to/lastmile_qr_scan"}, "type": "electric_scooter", "lon": -76.98756983333334, "name": "3d88cfb2f8ac4e961c05c0b6c57dffa0", "bike_id": "3d88cfb2f8ac4e961c05c0b6c57dffa0", "fusion_lat": 0.0, "is_reserved": 0, "lat": 38.844994166666666, "fusion_lon": 0.0, "is_disabled": 0}, {"rental_uris": {"android": "https://dc.lft.to/lastmile_qr_scan", "ios": "https://dc.lft.to/lastmile_qr_scan"}, "type": "electric_bike", "lon": -77.1432485, "name": "311062df6e1790f143ed076ede949894", "bike_id": "311062df6e1790f143ed076ede949894", "fusion_lat": 0.0, "is_reserved": 0, "lat": 39.0545345, "fusion_lon": 0.0, "is_disabled": 0}, {"rental_uris": {"android": "https://dc.lft.to/lastmile_qr_scan", "ios": "https://dc.lft.to/lastmile_qr_scan"}, "type": "electric_bike", "lon": -76.97950433333334, "name": "1eb9552c2cdd6aa323a0ae1730a842c8", "bike_id": "1eb9552c2cdd6aa323a0ae1730a842c8", "fusion_lat": 0.0, "is_reserved": 0, "lat": 38.89806733333333, "fusion_lon": 0.0, "is_disabled": 0}, {"rental_uris": {"android": "https://dc.lft.to/lastmile_qr_scan", "ios": "https://dc.lft.to/lastmile_qr_scan"}, "type": "electric_scooter", "lon": -77.0144245, "name": "5f3658f7c504ef06a3da6b4c579ec97f", "bike_id": "5f3658f7c504ef06a3da6b4c579ec97f", "fusion_lat": 0.0, "is_reserved": 0, "lat": 38.87778733333333, "fusion_lon": 0.0, "is_disabled": 0}, {"rental_uris": {"android": "https://dc.lft.to/lastmile_qr_scan", "ios": "https://dc.lft.to/lastmile_qr_scan"}, "type": "electric_scooter", "lon": -76.9902755, "name": "ca192b7f4a0bd19ac32e6b47adfd60ce", "bike_id": "ca192b7f4a0bd19ac32e6b47adfd60ce", "fusion_lat": 0.0, "is_reserved": 0, "lat": 38.8607795, "fusion_lon": 0.0, "is_disabled": 0}, {"rental_uris": {"android": "https://dc.lft.to/lastmile_qr_scan", "ios": "https://dc.lft.to/lastmile_qr_scan"}, "type": "electric_scooter", "lon": -77.0348305, "name": "af51a045dfdcd0b50d56dac7c85da384", "bike_id": "af51a045dfdcd0b50d56dac7c85da384", "fusion_lat": 0.0, "is_reserved": 0, "lat": 38.92858116666667, "fusion_lon": 0.0, "is_disabled": 0}, {"rental_uris": {"android": "https://dc.lft.to/lastmile_qr_scan", "ios": "https://dc.lft.to/lastmile_qr_scan"}, "type": "electric_scooter", "lon": -77.0295785, "name": "531b74a447ffbddc27a88d883dfeb860", "bike_id": "531b74a447ffbddc27a88d883dfeb860", "fusion_lat": 0.0, "is_reserved": 0, "lat": 38.9171065, "fusion_lon": 0.0, "is_disabled": 0}, {"rental_uris": {"android": "https://dc.lft.to/lastmile_qr_scan", "ios": "https://dc.lft.to/lastmile_qr_scan"}, "type": "electric_scooter", "lon": -77.0315375, "name": "50bf783b1bcf90831cc529e165715e1f", "bike_id": "50bf783b1bcf90831cc529e165715e1f", "fusion_lat": 0.0, "is_reserved": 0, "lat": 38.9278465, "fusion_lon": 0.0, "is_disabled": 0}, {"rental_uris": {"android": "https://dc.lft.to/lastmile_qr_scan", "ios": "https://dc.lft.to/lastmile_qr_scan"}, "type": "electric_scooter", "lon": -76.94855716666666, "name": "9a2a2c8cdaa12d439d02c990631b61db", "bike_id": "9a2a2c8cdaa12d439d02c990631b61db", "fusion_lat": 0.0, "is_reserved": 0, "lat": 38.8830655, "fusion_lon": 0.0, "is_disabled": 0}, {"rental_uris": {"android": "https://dc.lft.to/lastmile_qr_scan", "ios": "https://dc.lft.to/lastmile_qr_scan"}, "type": "electric_scooter", "lon": -77.0345015, "name": "cf8890663ec719c81bfe8dc0e0e20d64", "bike_id": "cf8890663ec719c81bfe8dc0e0e20d64", "fusion_lat": 0.0, "is_reserved": 0, "lat": 38.90538766666667, "fusion_lon": 0.0, "is_disabled": 0}, {"rental_uris": {"android": "https://dc.lft.to/lastmile_qr_scan", "ios": "https://dc.lft.to/lastmile_qr_scan"}, "type": "electric_scooter", "lon": -77.06188233333333, "name": "403619d7a440a211087dcf3ccbad9f58", "bike_id": "403619d7a440a211087dcf3ccbad9f58", "fusion_lat": 0.0, "is_reserved": 0, "lat": 38.93009516666667, "fusion_lon": 0.0, "is_disabled": 0}, {"rental_uris": {"android": "https://dc.lft.to/lastmile_qr_scan", "ios": "https://dc.lft.to/lastmile_qr_scan"}, "type": "electric_scooter", "lon": -77.03445833333333, "name": "6e5354a48e079c6c884c452fbabeab18", "bike_id": "6e5354a48e079c6c884c452fbabeab18", "fusion_lat": 0.0, "is_reserved": 0, "lat": 38.90412366666666, "fusion_lon": 0.0, "is_disabled": 0}, {"rental_uris": {"android": "https://dc.lft.to/lastmile_qr_scan", "ios": "https://dc.lft.to/lastmile_qr_scan"}, "type": "electric_scooter", "lon": -77.05435566666667, "name": "fc6c65615d6b8beb61240446756117e7", "bike_id": "fc6c65615d6b8beb61240446756117e7", "fusion_lat": 0.0, "is_reserved": 0, "lat": 38.9285565, "fusion_lon": 0.0, "is_disabled": 0}, {"rental_uris": {"android": "https://dc.lft.to/lastmile_qr_scan", "ios": "https://dc.lft.to/lastmile_qr_scan"}, "type": "electric_scooter", "lon": -77.054454, "name": "d53ac2925d6e7d9dc8b97c7942b2d4b2", "bike_id": "d53ac2925d6e7d9dc8b97c7942b2d4b2", "fusion_lat": 0.0, "is_reserved": 0, "lat": 38.92855433333333, "fusion_lon": 0.0, "is_disabled": 0}, {"rental_uris": {"android": "https://dc.lft.to/lastmile_qr_scan", "ios": "https://dc.lft.to/lastmile_qr_scan"}, "type": "electric_scooter", "lon": -77.0571055, "name": "5652e2652d159d4eddeb17a3401293f0", "bike_id": "5652e2652d159d4eddeb17a3401293f0", "fusion_lat": 0.0, "is_reserved": 0, "lat": 38.911051, "fusion_lon": 0.0, "is_disabled": 0}, {"rental_uris": {"android": "https://dc.lft.to/lastmile_qr_scan", "ios": "https://dc.lft.to/lastmile_qr_scan"}, "type": "electric_scooter", "lon": -77.02173433333333, "name": "2584162bd5ab897a60639b23f6a63501", "bike_id": "2584162bd5ab897a60639b23f6a63501", "fusion_lat": 0.0, "is_reserved": 0, "lat": 38.943128, "fusion_lon": 0.0, "is_disabled": 0}, {"rental_uris": {"android": "https://dc.lft.to/lastmile_qr_scan", "ios": "https://dc.lft.to/lastmile_qr_scan"}, "type": "electric_scooter", "lon": -76.99548116666666, "name": "8b3435e36f372a344ef403885eaa8b57", "bike_id": "8b3435e36f372a344ef403885eaa8b57", "fusion_lat": 0.0, "is_reserved": 0, "lat": 38.8842075, "fusion_lon": 0.0, "is_disabled": 0}, {"rental_uris": {"android": "https://dc.lft.to/lastmile_qr_scan", "ios": "https://dc.lft.to/lastmile_qr_scan"}, "type": "electric_scooter", "lon": -77.044831, "name": "8189788f273804fc333da59c3eb897f6", "bike_id": "8189788f273804fc333da59c3eb897f6", "fusion_lat": 0.0, "is_reserved": 0, "lat": 38.901112499999996, "fusion_lon": 0.0, "is_disabled": 0}, {"rental_uris": {"android": "https://dc.lft.to/lastmile_qr_scan", "ios": "https://dc.lft.to/lastmile_qr_scan"}, "type": "electric_scooter", "lon": -77.04211716666667, "name": "a5ba523f37d15a54a8465a8383a246d2", "bike_id": "a5ba523f37d15a54a8465a8383a246d2", "fusion_lat": 0.0, "is_reserved": 0, "lat": 38.92130383333333, "fusion_lon": 0.0, "is_disabled": 0}, {"rental_uris": {"android": "https://dc.lft.to/lastmile_qr_scan", "ios": "https://dc.lft.to/lastmile_qr_scan"}, "type": "electric_scooter", "lon": -76.98852966666666, "name": "608e699481eff8eb9c89bdc6dc966641", "bike_id": "608e699481eff8eb9c89bdc6dc966641", "fusion_lat": 0.0, "is_reserved": 0, "lat": 38.900287166666665, "fusion_lon": 0.0, "is_disabled": 0}, {"rental_uris": {"android": "https://dc.lft.to/lastmile_qr_scan", "ios": "https://dc.lft.to/lastmile_qr_scan"}, "type": "electric_scooter", "lon": -76.93384333333333, "name": "7b01da16ca56978c77d8556e7fbae50e", "bike_id": "7b01da16ca56978c77d8556e7fbae50e", "fusion_lat": 0.0, "is_reserved": 0, "lat": 38.89919783333333, "fusion_lon": 0.0, "is_disabled": 0}, {"rental_uris": {"android": "https://dc.lft.to/lastmile_qr_scan", "ios": "https://dc.lft.to/lastmile_qr_scan"}, "type": "electric_bike", "lon": -77.043294, "name": "b78e30f9f7716218910b2f2d3f1c73be", "bike_id": "b78e30f9f7716218910b2f2d3f1c73be", "fusion_lat": 0.0, "is_reserved": 0, "lat": 38.90662433333333, "fusion_lon": 0.0, "is_disabled": 0}, {"rental_uris": {"android": "https://dc.lft.to/lastmile_qr_scan", "ios": "https://dc.lft.to/lastmile_qr_scan"}, "type": "electric_scooter", "lon": -77.04582666666667, "name": "9b8a62816ce05a3f8bf994c36d6f9991", "bike_id": "9b8a62816ce05a3f8bf994c36d6f9991", "fusion_lat": 0.0, "is_reserved": 0, "lat": 38.92133416666667, "fusion_lon": 0.0, "is_disabled": 0}, {"rental_uris": {"android": "https://dc.lft.to/lastmile_qr_scan", "ios": "https://dc.lft.to/lastmile_qr_scan"}, "type": "electric_bike", "lon": -77.02107266666667, "name": "c8a388d44e9db9d5f54379426ace161c", "bike_id": "c8a388d44e9db9d5f54379426ace161c", "fusion_lat": 0.0, "is_reserved": 0, "lat": 39.0230185, "fusion_lon": 0.0, "is_disabled": 0}, {"rental_uris": {"android": "https://dc.lft.to/lastmile_qr_scan", "ios": "https://dc.lft.to/lastmile_qr_scan"}, "type": "electric_scooter", "lon": -77.05117633333333, "name": "87bef245d449f580f829713e7502a504", "bike_id": "87bef245d449f580f829713e7502a504", "fusion_lat": 0.0, "is_reserved": 0, "lat": 38.905237666666665, "fusion_lon": 0.0, "is_disabled": 0}, {"rental_uris": {"android": "https://dc.lft.to/lastmile_qr_scan", "ios": "https://dc.lft.to/lastmile_qr_scan"}, "type": "electric_scooter", "lon": -77.00585183333334, "name": "b888bb27fc2137ed4aa14da2bb3c6ce9", "bike_id": "b888bb27fc2137ed4aa14da2bb3c6ce9", "fusion_lat": 0.0, "is_reserved": 0, "lat": 38.8836155, "fusion_lon": 0.0, "is_disabled": 0}, {"rental_uris": {"android": "https://dc.lft.to/lastmile_qr_scan", "ios": "https://dc.lft.to/lastmile_qr_scan"}, "type": "electric_scooter", "lon": -77.07440383333334, "name": "67fb6aaf661d433fc5e75fa7c74030e0", "bike_id": "67fb6aaf661d433fc5e75fa7c74030e0", "fusion_lat": 0.0, "is_reserved": 0, "lat": 38.911012666666664, "fusion_lon": 0.0, "is_disabled": 0}, {"rental_uris": {"android": "https://dc.lft.to/lastmile_qr_scan", "ios": "https://dc.lft.to/lastmile_qr_scan"}, "type": "electric_scooter", "lon": -77.02944016666666, "name": "0b00b38a5cac43cf71e19d148865acfc", "bike_id": "0b00b38a5cac43cf71e19d148865acfc", "fusion_lat": 0.0, "is_reserved": 0, "lat": 38.942869, "fusion_lon": 0.0, "is_disabled": 0}, {"rental_uris": {"android": "https://dc.lft.to/lastmile_qr_scan", "ios": "https://dc.lft.to/lastmile_qr_scan"}, "type": "electric_scooter", "lon": -77.00581183333334, "name": "2281b948dc04a845e7657febcf65c6c9", "bike_id": "2281b948dc04a845e7657febcf65c6c9", "fusion_lat": 0.0, "is_reserved": 0, "lat": 38.885399, "fusion_lon": 0.0, "is_disabled": 0}, {"rental_uris": {"android": "https://dc.lft.to/lastmile_qr_scan", "ios": "https://dc.lft.to/lastmile_qr_scan"}, "type": "electric_scooter", "lon": -77.04646133333334, "name": "dc5450bf691d029f39085a39962befed", "bike_id": "dc5450bf691d029f39085a39962befed", "fusion_lat": 0.0, "is_reserved": 0, "lat": 38.9222945, "fusion_lon": 0.0, "is_disabled": 0}, {"rental_uris": {"android": "https://dc.lft.to/lastmile_qr_scan", "ios": "https://dc.lft.to/lastmile_qr_scan"}, "type": "electric_scooter", "lon": -77.03982133333334, "name": "d0b460e34d4814a1f6dde7b31aa57327", "bike_id": "d0b460e34d4814a1f6dde7b31aa57327", "fusion_lat": 0.0, "is_reserved": 0, "lat": 38.909220833333336, "fusion_lon": 0.0, "is_disabled": 0}, {"rental_uris": {"android": "https://dc.lft.to/lastmile_qr_scan", "ios": "https://dc.lft.to/lastmile_qr_scan"}, "type": "electric_scooter", "lon": -76.99389133333334, "name": "8d015724cb07a0fce97bad26844eb5f6", "bike_id": "8d015724cb07a0fce97bad26844eb5f6", "fusion_lat": 0.0, "is_reserved": 0, "lat": 38.884514, "fusion_lon": 0.0, "is_disabled": 0}, {"rental_uris": {"android": "https://dc.lft.to/lastmile_qr_scan", "ios": "https://dc.lft.to/lastmile_qr_scan"}, "type": "electric_scooter", "lon": -77.04675533333334, "name": "4974af57990fd17370f42f0101339ab0", "bike_id": "4974af57990fd17370f42f0101339ab0", "fusion_lat": 0.0, "is_reserved": 0, "lat": 38.89557, "fusion_lon": 0.0, "is_disabled": 0}, {"rental_uris": {"android": "https://dc.lft.to/lastmile_qr_scan", "ios": "https://dc.lft.to/lastmile_qr_scan"}, "type": "electric_scooter", "lon": -77.032616, "name": "cb28933bcf46a293aefde517156341f6", "bike_id": "cb28933bcf46a293aefde517156341f6", "fusion_lat": 0.0, "is_reserved": 0, "lat": 38.936665833333336, "fusion_lon": 0.0, "is_disabled": 0}, {"rental_uris": {"android": "https://dc.lft.to/lastmile_qr_scan", "ios": "https://dc.lft.to/lastmile_qr_scan"}, "type": "electric_bike", "lon": -77.12902166666667, "name": "6266e4d577e47dbe30ae043d6c487d7c", "bike_id": "6266e4d577e47dbe30ae043d6c487d7c", "fusion_lat": 0.0, "is_reserved": 0, "lat": 38.8637655, "fusion_lon": 0.0, "is_disabled": 0}, {"rental_uris": {"android": "https://dc.lft.to/lastmile_qr_scan", "ios": "https://dc.lft.to/lastmile_qr_scan"}, "type": "electric_scooter", "lon": -77.04270183333334, "name": "be201b063831abc1b0f8a82b752eac60", "bike_id": "be201b063831abc1b0f8a82b752eac60", "fusion_lat": 0.0, "is_reserved": 0, "lat": 38.909824666666665, "fusion_lon": 0.0, "is_disabled": 0}, {"rental_uris": {"android": "https://dc.lft.to/lastmile_qr_scan", "ios": "https://dc.lft.to/lastmile_qr_scan"}, "type": "electric_scooter", "lon": -76.99984866666667, "name": "ab8dc3623b7cec685a873c4694baa3bf", "bike_id": "ab8dc3623b7cec685a873c4694baa3bf", "fusion_lat": 0.0, "is_reserved": 0, "lat": 38.909322833333334, "fusion_lon": 0.0, "is_disabled": 0}, {"rental_uris": {"android": "https://dc.lft.to/lastmile_qr_scan", "ios": "https://dc.lft.to/lastmile_qr_scan"}, "type": "electric_scooter", "lon": -77.06076133333333, "name": "9ec9b119ec93890efce653141ec39497", "bike_id": "9ec9b119ec93890efce653141ec39497", "fusion_lat": 0.0, "is_reserved": 0, "lat": 38.939133166666664, "fusion_lon": 0.0, "is_disabled": 0}, {"rental_uris": {"android": "https://dc.lft.to/lastmile_qr_scan", "ios": "https://dc.lft.to/lastmile_qr_scan"}, "type": "electric_bike", "lon": -77.00230766666667, "name": "ab60d9b1fe3b5bc90c433fd613edd617", "bike_id": "ab60d9b1fe3b5bc90c433fd613edd617", "fusion_lat": 0.0, "is_reserved": 0, "lat": 38.957354, "fusion_lon": 0.0, "is_disabled": 0}, {"rental_uris": {"android": "https://dc.lft.to/lastmile_qr_scan", "ios": "https://dc.lft.to/lastmile_qr_scan"}, "type": "electric_scooter", "lon": -77.00249566666666, "name": "1ef75fd0614ef3b2746bce9f33fd46df", "bike_id": "1ef75fd0614ef3b2746bce9f33fd46df", "fusion_lat": 0.0, "is_reserved": 0, "lat": 38.95265083333334, "fusion_lon": 0.0, "is_disabled": 0}, {"rental_uris": {"android": "https://dc.lft.to/lastmile_qr_scan", "ios": "https://dc.lft.to/lastmile_qr_scan"}, "type": "electric_scooter", "lon": -77.0435365, "name": "8d67e6af6f04385d997a4e374afec45e", "bike_id": "8d67e6af6f04385d997a4e374afec45e", "fusion_lat": 0.0, "is_reserved": 0, "lat": 38.9034985, "fusion_lon": 0.0, "is_disabled": 0}, {"rental_uris": {"android": "https://dc.lft.to/lastmile_qr_scan", "ios": "https://dc.lft.to/lastmile_qr_scan"}, "type": "electric_scooter", "lon": -77.02147166666667, "name": "bd7460f8158fe5055d55a517bd1a8f9f", "bike_id": "bd7460f8158fe5055d55a517bd1a8f9f", "fusion_lat": 0.0, "is_reserved": 0, "lat": 38.895996333333336, "fusion_lon": 0.0, "is_disabled": 0}, {"rental_uris": {"android": "https://dc.lft.to/lastmile_qr_scan", "ios": "https://dc.lft.to/lastmile_qr_scan"}, "type": "electric_scooter", "lon": -77.01998933333333, "name": "490a37dfbc1a43d1dfd812f12b9478ea", "bike_id": "490a37dfbc1a43d1dfd812f12b9478ea", "fusion_lat": 0.0, "is_reserved": 0, "lat": 38.913351, "fusion_lon": 0.0, "is_disabled": 0}, {"rental_uris": {"android": "https://dc.lft.to/lastmile_qr_scan", "ios": "https://dc.lft.to/lastmile_qr_scan"}, "type": "electric_scooter", "lon": -77.02475683333333, "name": "88d4e2c779f99ef78401f6e751182c05", "bike_id": "88d4e2c779f99ef78401f6e751182c05", "fusion_lat": 0.0, "is_reserved": 0, "lat": 38.92654683333333, "fusion_lon": 0.0, "is_disabled": 0}, {"rental_uris": {"android": "https://dc.lft.to/lastmile_qr_scan", "ios": "https://dc.lft.to/lastmile_qr_scan"}, "type": "electric_scooter", "lon": -77.00750733333334, "name": "fc1f3b12018572b6ce4d446b8eb36dc2", "bike_id": "fc1f3b12018572b6ce4d446b8eb36dc2", "fusion_lat": 0.0, "is_reserved": 0, "lat": 38.876522666666666, "fusion_lon": 0.0, "is_disabled": 0}, {"rental_uris": {"android": "https://dc.lft.to/lastmile_qr_scan", "ios": "https://dc.lft.to/lastmile_qr_scan"}, "type": "electric_scooter", "lon": -77.02379183333333, "name": "d8f0f12c4b31c6722da66d29b47667a8", "bike_id": "d8f0f12c4b31c6722da66d29b47667a8", "fusion_lat": 0.0, "is_reserved": 0, "lat": 38.902024, "fusion_lon": 0.0, "is_disabled": 0}, {"rental_uris": {"android": "https://dc.lft.to/lastmile_qr_scan", "ios": "https://dc.lft.to/lastmile_qr_scan"}, "type": "electric_scooter", "lon": -77.03461516666667, "name": "b7a38b28272e3aae526b05886bf1a353", "bike_id": "b7a38b28272e3aae526b05886bf1a353", "fusion_lat": 0.0, "is_reserved": 0, "lat": 38.935615166666665, "fusion_lon": 0.0, "is_disabled": 0}, {"rental_uris": {"android": "https://dc.lft.to/lastmile_qr_scan", "ios": "https://dc.lft.to/lastmile_qr_scan"}, "type": "electric_bike", "lon": -76.9478685, "name": "def3c1c28c12eb87a02efc31d17c5a84", "bike_id": "def3c1c28c12eb87a02efc31d17c5a84", "fusion_lat": 0.0, "is_reserved": 0, "lat": 38.896424333333336, "fusion_lon": 0.0, "is_disabled": 0}, {"rental_uris": {"android": "https://dc.lft.to/lastmile_qr_scan", "ios": "https://dc.lft.to/lastmile_qr_scan"}, "type": "electric_scooter", "lon": -77.00138483333333, "name": "dbe6e57fdccdaf6375aeefa1ab474488", "bike_id": "dbe6e57fdccdaf6375aeefa1ab474488", "fusion_lat": 0.0, "is_reserved": 0, "lat": 38.9001445, "fusion_lon": 0.0, "is_disabled": 0}, {"rental_uris": {"android": "https://dc.lft.to/lastmile_qr_scan", "ios": "https://dc.lft.to/lastmile_qr_scan"}, "type": "electric_scooter", "lon": -77.04989433333333, "name": "b64a4e3d4c4617130bad1b88abb98259", "bike_id": "b64a4e3d4c4617130bad1b88abb98259", "fusion_lat": 0.0, "is_reserved": 0, "lat": 38.8973145, "fusion_lon": 0.0, "is_disabled": 0}, {"rental_uris": {"android": "https://dc.lft.to/lastmile_qr_scan", "ios": "https://dc.lft.to/lastmile_qr_scan"}, "type": "electric_bike", "lon": -76.991048, "name": "2fc919c979364f22a03e30362aba79ed", "bike_id": "2fc919c979364f22a03e30362aba79ed", "fusion_lat": 0.0, "is_reserved": 0, "lat": 38.93371783333333, "fusion_lon": 0.0, "is_disabled": 0}, {"rental_uris": {"android": "https://dc.lft.to/lastmile_qr_scan", "ios": "https://dc.lft.to/lastmile_qr_scan"}, "type": "electric_scooter", "lon": -76.97019533333334, "name": "6ed2b451215fe3829fbec1512773f9ba", "bike_id": "6ed2b451215fe3829fbec1512773f9ba", "fusion_lat": 0.0, "is_reserved": 0, "lat": 38.92032183333333, "fusion_lon": 0.0, "is_disabled": 0}, {"rental_uris": {"android": "https://dc.lft.to/lastmile_qr_scan", "ios": "https://dc.lft.to/lastmile_qr_scan"}, "type": "electric_scooter", "lon": -77.0298085, "name": "40f43f7c621ad2e6fba5075e5d27e2f0", "bike_id": "40f43f7c621ad2e6fba5075e5d27e2f0", "fusion_lat": 0.0, "is_reserved": 0, "lat": 38.92307133333333, "fusion_lon": 0.0, "is_disabled": 0}, {"rental_uris": {"android": "https://dc.lft.to/lastmile_qr_scan", "ios": "https://dc.lft.to/lastmile_qr_scan"}, "type": "electric_scooter", "lon": -77.0208605, "name": "16f717e2ddf450847b9c24c8688b3c0a", "bike_id": "16f717e2ddf450847b9c24c8688b3c0a", "fusion_lat": 0.0, "is_reserved": 0, "lat": 38.885081, "fusion_lon": 0.0, "is_disabled": 0}, {"rental_uris": {"android": "https://dc.lft.to/lastmile_qr_scan", "ios": "https://dc.lft.to/lastmile_qr_scan"}, "type": "electric_scooter", "lon": -77.0237355, "name": "49ff28a8eca83056f3f0927670ce05d7", "bike_id": "49ff28a8eca83056f3f0927670ce05d7", "fusion_lat": 0.0, "is_reserved": 0, "lat": 38.902017666666666, "fusion_lon": 0.0, "is_disabled": 0}, {"rental_uris": {"android": "https://dc.lft.to/lastmile_qr_scan", "ios": "https://dc.lft.to/lastmile_qr_scan"}, "type": "electric_scooter", "lon": -76.99076733333334, "name": "045650e588c6ebbf54b696f611f38a92", "bike_id": "045650e588c6ebbf54b696f611f38a92", "fusion_lat": 0.0, "is_reserved": 0, "lat": 38.84288, "fusion_lon": 0.0, "is_disabled": 0}, {"rental_uris": {"android": "https://dc.lft.to/lastmile_qr_scan", "ios": "https://dc.lft.to/lastmile_qr_scan"}, "type": "electric_scooter", "lon": -77.05145116666667, "name": "bade350de8f61a654f612da0804fa33f", "bike_id": "bade350de8f61a654f612da0804fa33f", "fusion_lat": 0.0, "is_reserved": 0, "lat": 38.904269, "fusion_lon": 0.0, "is_disabled": 0}, {"rental_uris": {"android": "https://dc.lft.to/lastmile_qr_scan", "ios": "https://dc.lft.to/lastmile_qr_scan"}, "type": "electric_scooter", "lon": -77.0189925, "name": "2329a594995367f5fe9ca320c691e338", "bike_id": "2329a594995367f5fe9ca320c691e338", "fusion_lat": 0.0, "is_reserved": 0, "lat": 38.939160666666666, "fusion_lon": 0.0, "is_disabled": 0}, {"rental_uris": {"android": "https://dc.lft.to/lastmile_qr_scan", "ios": "https://dc.lft.to/lastmile_qr_scan"}, "type": "electric_scooter", "lon": -77.025044, "name": "399e4edf2ed92d8f50f38eac0864a0e6", "bike_id": "399e4edf2ed92d8f50f38eac0864a0e6", "fusion_lat": 0.0, "is_reserved": 0, "lat": 38.942001166666664, "fusion_lon": 0.0, "is_disabled": 0}, {"rental_uris": {"android": "https://dc.lft.to/lastmile_qr_scan", "ios": "https://dc.lft.to/lastmile_qr_scan"}, "type": "electric_scooter", "lon": -77.02764316666666, "name": "93514f4c1b08a8daf4ca1f9a7f27a8a7", "bike_id": "93514f4c1b08a8daf4ca1f9a7f27a8a7", "fusion_lat": 0.0, "is_reserved": 0, "lat": 38.953996833333335, "fusion_lon": 0.0, "is_disabled": 0}, {"rental_uris": {"android": "https://dc.lft.to/lastmile_qr_scan", "ios": "https://dc.lft.to/lastmile_qr_scan"}, "type": "electric_scooter", "lon": -77.04108183333334, "name": "a3d98662a96670d34a719776782e2f0d", "bike_id": "a3d98662a96670d34a719776782e2f0d", "fusion_lat": 0.0, "is_reserved": 0, "lat": 38.91696866666667, "fusion_lon": 0.0, "is_disabled": 0}, {"rental_uris": {"android": "https://dc.lft.to/lastmile_qr_scan", "ios": "https://dc.lft.to/lastmile_qr_scan"}, "type": "electric_bike", "lon": -76.95463533333333, "name": "e1b3e9628728423b821c7e7399071f9f", "bike_id": "e1b3e9628728423b821c7e7399071f9f", "fusion_lat": 0.0, "is_reserved": 0, "lat": 38.935663166666664, "fusion_lon": 0.0, "is_disabled": 0}, {"rental_uris": {"android": "https://dc.lft.to/lastmile_qr_scan", "ios": "https://dc.lft.to/lastmile_qr_scan"}, "type": "electric_scooter", "lon": -76.984695, "name": "9dab296342ce850af6eb21d80115397c", "bike_id": "9dab296342ce850af6eb21d80115397c", "fusion_lat": 0.0, "is_reserved": 0, "lat": 38.9289555, "fusion_lon": 0.0, "is_disabled": 0}, {"rental_uris": {"android": "https://dc.lft.to/lastmile_qr_scan", "ios": "https://dc.lft.to/lastmile_qr_scan"}, "type": "electric_scooter", "lon": -76.97619566666667, "name": "b991350cce0ba1809b007b9d2eca01e4", "bike_id": "b991350cce0ba1809b007b9d2eca01e4", "fusion_lat": 0.0, "is_reserved": 0, "lat": 38.9314385, "fusion_lon": 0.0, "is_disabled": 0}, {"rental_uris": {"android": "https://dc.lft.to/lastmile_qr_scan", "ios": "https://dc.lft.to/lastmile_qr_scan"}, "type": "electric_scooter", "lon": -76.98532033333333, "name": "71e52c32227b7e7fb777eefbbc600291", "bike_id": "71e52c32227b7e7fb777eefbbc600291", "fusion_lat": 0.0, "is_reserved": 0, "lat": 38.88080933333333, "fusion_lon": 0.0, "is_disabled": 0}, {"rental_uris": {"android": "https://dc.lft.to/lastmile_qr_scan", "ios": "https://dc.lft.to/lastmile_qr_scan"}, "type": "electric_bike", "lon": -77.029055, "name": "64ce74c178fd4928bdf39b0950163005", "bike_id": "64ce74c178fd4928bdf39b0950163005", "fusion_lat": 0.0, "is_reserved": 0, "lat": 38.892018166666666, "fusion_lon": 0.0, "is_disabled": 0}, {"rental_uris": {"android": "https://dc.lft.to/lastmile_qr_scan", "ios": "https://dc.lft.to/lastmile_qr_scan"}, "type": "electric_scooter", "lon": -77.005123, "name": "e00e47d82c76727d6a66f6ff137890c6", "bike_id": "e00e47d82c76727d6a66f6ff137890c6", "fusion_lat": 0.0, "is_reserved": 0, "lat": 38.9260665, "fusion_lon": 0.0, "is_disabled": 0}, {"rental_uris": {"android": "https://dc.lft.to/lastmile_qr_scan", "ios": "https://dc.lft.to/lastmile_qr_scan"}, "type": "electric_scooter", "lon": -76.98263983333334, "name": "4c7554c4aa3601bef69bda6481e9254d", "bike_id": "4c7554c4aa3601bef69bda6481e9254d", "fusion_lat": 0.0, "is_reserved": 0, "lat": 38.863551666666666, "fusion_lon": 0.0, "is_disabled": 0}, {"rental_uris": {"android": "https://dc.lft.to/lastmile_qr_scan", "ios": "https://dc.lft.to/lastmile_qr_scan"}, "type": "electric_scooter", "lon": -77.05520366666667, "name": "9fcb17d38f162a3969e143608c82ea62", "bike_id": "9fcb17d38f162a3969e143608c82ea62", "fusion_lat": 0.0, "is_reserved": 0, "lat": 38.9296795, "fusion_lon": 0.0, "is_disabled": 0}, {"rental_uris": {"android": "https://dc.lft.to/lastmile_qr_scan", "ios": "https://dc.lft.to/lastmile_qr_scan"}, "type": "electric_scooter", "lon": -77.0321445, "name": "0394e7dabe58a492c5d897478feb8dae", "bike_id": "0394e7dabe58a492c5d897478feb8dae", "fusion_lat": 0.0, "is_reserved": 0, "lat": 38.91879333333333, "fusion_lon": 0.0, "is_disabled": 0}, {"rental_uris": {"android": "https://dc.lft.to/lastmile_qr_scan", "ios": "https://dc.lft.to/lastmile_qr_scan"}, "type": "electric_scooter", "lon": -77.00818833333334, "name": "a8c4fbaf15c3fcf8d0065476f75b5943", "bike_id": "a8c4fbaf15c3fcf8d0065476f75b5943", "fusion_lat": 0.0, "is_reserved": 0, "lat": 38.87636533333333, "fusion_lon": 0.0, "is_disabled": 0}, {"rental_uris": {"android": "https://dc.lft.to/lastmile_qr_scan", "ios": "https://dc.lft.to/lastmile_qr_scan"}, "type": "electric_bike", "lon": -76.94468733333333, "name": "abc475b6b998d7eed5dcd20ae775b49b", "bike_id": "abc475b6b998d7eed5dcd20ae775b49b", "fusion_lat": 0.0, "is_reserved": 0, "lat": 38.945594166666666, "fusion_lon": 0.0, "is_disabled": 0}, {"rental_uris": {"android": "https://dc.lft.to/lastmile_qr_scan", "ios": "https://dc.lft.to/lastmile_qr_scan"}, "type": "electric_scooter", "lon": -77.0321745, "name": "f624c2a38a7f795c6e43da26856f53f2", "bike_id": "f624c2a38a7f795c6e43da26856f53f2", "fusion_lat": 0.0, "is_reserved": 0, "lat": 38.911827833333334, "fusion_lon": 0.0, "is_disabled": 0}, {"rental_uris": {"android": "https://dc.lft.to/lastmile_qr_scan", "ios": "https://dc.lft.to/lastmile_qr_scan"}, "type": "electric_bike", "lon": -77.07902016666667, "name": "98652848a16f5cb66e4f246d375a46d9", "bike_id": "98652848a16f5cb66e4f246d375a46d9", "fusion_lat": 0.0, "is_reserved": 0, "lat": 38.839366, "fusion_lon": 0.0, "is_disabled": 0}, {"rental_uris": {"android": "https://dc.lft.to/lastmile_qr_scan", "ios": "https://dc.lft.to/lastmile_qr_scan"}, "type": "electric_scooter", "lon": -76.98361083333333, "name": "a3bab08dc297d47daec42d1e8b86e564", "bike_id": "a3bab08dc297d47daec42d1e8b86e564", "fusion_lat": 0.0, "is_reserved": 0, "lat": 38.8610905, "fusion_lon": 0.0, "is_disabled": 0}, {"rental_uris": {"android": "https://dc.lft.to/lastmile_qr_scan", "ios": "https://dc.lft.to/lastmile_qr_scan"}, "type": "electric_scooter", "lon": -77.02821866666666, "name": "cb96f2a27a9f5e42c86630d335006460", "bike_id": "cb96f2a27a9f5e42c86630d335006460", "fusion_lat": 0.0, "is_reserved": 0, "lat": 38.9155235, "fusion_lon": 0.0, "is_disabled": 0}, {"rental_uris": {"android": "https://dc.lft.to/lastmile_qr_scan", "ios": "https://dc.lft.to/lastmile_qr_scan"}, "type": "electric_scooter", "lon": -77.023543, "name": "3188949505b8de356268520919f09adf", "bike_id": "3188949505b8de356268520919f09adf", "fusion_lat": 0.0, "is_reserved": 0, "lat": 38.89218966666667, "fusion_lon": 0.0, "is_disabled": 0}, {"rental_uris": {"android": "https://dc.lft.to/lastmile_qr_scan", "ios": "https://dc.lft.to/lastmile_qr_scan"}, "type": "electric_bike", "lon": -77.05087933333333, "name": "9e59e075e0dd77bcc284abd82883df95", "bike_id": "9e59e075e0dd77bcc284abd82883df95", "fusion_lat": 0.0, "is_reserved": 0, "lat": 38.81326216666667, "fusion_lon": 0.0, "is_disabled": 0}, {"rental_uris": {"android": "https://dc.lft.to/lastmile_qr_scan", "ios": "https://dc.lft.to/lastmile_qr_scan"}, "type": "electric_scooter", "lon": -77.04342466666667, "name": "61799d29ce660dcfd123c1c8e090dd8c", "bike_id": "61799d29ce660dcfd123c1c8e090dd8c", "fusion_lat": 0.0, "is_reserved": 0, "lat": 38.903628833333336, "fusion_lon": 0.0, "is_disabled": 0}, {"rental_uris": {"android": "https://dc.lft.to/lastmile_qr_scan", "ios": "https://dc.lft.to/lastmile_qr_scan"}, "type": "electric_scooter", "lon": -76.96505616666667, "name": "65e187a5292a20bc993a943aa4a295c3", "bike_id": "65e187a5292a20bc993a943aa4a295c3", "fusion_lat": 0.0, "is_reserved": 0, "lat": 38.876453, "fusion_lon": 0.0, "is_disabled": 0}, {"rental_uris": {"android": "https://dc.lft.to/lastmile_qr_scan", "ios": "https://dc.lft.to/lastmile_qr_scan"}, "type": "electric_scooter", "lon": -77.01825583333333, "name": "0107f2dd4dd9b5bb0adf9ce93d2eed44", "bike_id": "0107f2dd4dd9b5bb0adf9ce93d2eed44", "fusion_lat": 0.0, "is_reserved": 0, "lat": 38.90819466666667, "fusion_lon": 0.0, "is_disabled": 0}, {"rental_uris": {"android": "https://dc.lft.to/lastmile_qr_scan", "ios": "https://dc.lft.to/lastmile_qr_scan"}, "type": "electric_scooter", "lon": -77.03692483333333, "name": "d37a1b4d063be51a780926b6ce9d6acd", "bike_id": "d37a1b4d063be51a780926b6ce9d6acd", "fusion_lat": 0.0, "is_reserved": 0, "lat": 38.920314166666664, "fusion_lon": 0.0, "is_disabled": 0}, {"rental_uris": {"android": "https://dc.lft.to/lastmile_qr_scan", "ios": "https://dc.lft.to/lastmile_qr_scan"}, "type": "electric_scooter", "lon": -77.00813816666667, "name": "a7a93ad8702d7f8be72e0b4847e954cd", "bike_id": "a7a93ad8702d7f8be72e0b4847e954cd", "fusion_lat": 0.0, "is_reserved": 0, "lat": 38.87658366666667, "fusion_lon": 0.0, "is_disabled": 0}, {"rental_uris": {"android": "https://dc.lft.to/lastmile_qr_scan", "ios": "https://dc.lft.to/lastmile_qr_scan"}, "type": "electric_scooter", "lon": -77.00308866666667, "name": "8e74e83533da3187a50021f0ce5bafe2", "bike_id": "8e74e83533da3187a50021f0ce5bafe2", "fusion_lat": 0.0, "is_reserved": 0, "lat": 38.923414666666666, "fusion_lon": 0.0, "is_disabled": 0}, {"rental_uris": {"android": "https://dc.lft.to/lastmile_qr_scan", "ios": "https://dc.lft.to/lastmile_qr_scan"}, "type": "electric_scooter", "lon": -76.99033016666667, "name": "bc926e1e6033304bbf02d3b72e4b7f0a", "bike_id": "bc926e1e6033304bbf02d3b72e4b7f0a", "fusion_lat": 0.0, "is_reserved": 0, "lat": 38.858766833333334, "fusion_lon": 0.0, "is_disabled": 0}, {"rental_uris": {"android": "https://dc.lft.to/lastmile_qr_scan", "ios": "https://dc.lft.to/lastmile_qr_scan"}, "type": "electric_bike", "lon": -77.10914216666667, "name": "9bc1f702a0c751e0f251a67d30e084f3", "bike_id": "9bc1f702a0c751e0f251a67d30e084f3", "fusion_lat": 0.0, "is_reserved": 0, "lat": 39.052068166666665, "fusion_lon": 0.0, "is_disabled": 0}, {"rental_uris": {"android": "https://dc.lft.to/lastmile_qr_scan", "ios": "https://dc.lft.to/lastmile_qr_scan"}, "type": "electric_scooter", "lon": -77.04901416666667, "name": "4a346b178b1e539f585132f0b9b65a14", "bike_id": "4a346b178b1e539f585132f0b9b65a14", "fusion_lat": 0.0, "is_reserved": 0, "lat": 38.892527, "fusion_lon": 0.0, "is_disabled": 0}, {"rental_uris": {"android": "https://dc.lft.to/lastmile_qr_scan", "ios": "https://dc.lft.to/lastmile_qr_scan"}, "type": "electric_scooter", "lon": -77.01184, "name": "3646b658c5e0f2572b043f26fb111206", "bike_id": "3646b658c5e0f2572b043f26fb111206", "fusion_lat": 0.0, "is_reserved": 0, "lat": 38.9003435, "fusion_lon": 0.0, "is_disabled": 0}, {"rental_uris": {"android": "https://dc.lft.to/lastmile_qr_scan", "ios": "https://dc.lft.to/lastmile_qr_scan"}, "type": "electric_scooter", "lon": -77.04355566666666, "name": "d073775520942e8143f4a7ab9420657c", "bike_id": "d073775520942e8143f4a7ab9420657c", "fusion_lat": 0.0, "is_reserved": 0, "lat": 38.903944333333335, "fusion_lon": 0.0, "is_disabled": 0}, {"rental_uris": {"android": "https://dc.lft.to/lastmile_qr_scan", "ios": "https://dc.lft.to/lastmile_qr_scan"}, "type": "electric_scooter", "lon": -77.03468883333333, "name": "88c648e6edf984d077c554c1662d69c6", "bike_id": "88c648e6edf984d077c554c1662d69c6", "fusion_lat": 0.0, "is_reserved": 0, "lat": 38.90260683333333, "fusion_lon": 0.0, "is_disabled": 0}, {"rental_uris": {"android": "https://dc.lft.to/lastmile_qr_scan", "ios": "https://dc.lft.to/lastmile_qr_scan"}, "type": "electric_scooter", "lon": -77.04388216666666, "name": "7f7fb9609486e53ba24159cd78f53203", "bike_id": "7f7fb9609486e53ba24159cd78f53203", "fusion_lat": 0.0, "is_reserved": 0, "lat": 38.922796166666664, "fusion_lon": 0.0, "is_disabled": 0}, {"rental_uris": {"android": "https://dc.lft.to/lastmile_qr_scan", "ios": "https://dc.lft.to/lastmile_qr_scan"}, "type": "electric_bike", "lon": -77.012109, "name": "02d7adbb6c78d0e2f3c7be279801c588", "bike_id": "02d7adbb6c78d0e2f3c7be279801c588", "fusion_lat": 0.0, "is_reserved": 0, "lat": 38.87079933333333, "fusion_lon": 0.0, "is_disabled": 0}, {"rental_uris": {"android": "https://dc.lft.to/lastmile_qr_scan", "ios": "https://dc.lft.to/lastmile_qr_scan"}, "type": "electric_scooter", "lon": -77.02374416666666, "name": "5cf1513f4da2ad654249340a6ca070f2", "bike_id": "5cf1513f4da2ad654249340a6ca070f2", "fusion_lat": 0.0, "is_reserved": 0, "lat": 38.89219, "fusion_lon": 0.0, "is_disabled": 0}, {"rental_uris": {"android": "https://dc.lft.to/lastmile_qr_scan", "ios": "https://dc.lft.to/lastmile_qr_scan"}, "type": "electric_scooter", "lon": -77.02799983333334, "name": "920ae7e8691a2cf052a87c85a0b7ecba", "bike_id": "920ae7e8691a2cf052a87c85a0b7ecba", "fusion_lat": 0.0, "is_reserved": 0, "lat": 38.96146016666667, "fusion_lon": 0.0, "is_disabled": 0}, {"rental_uris": {"android": "https://dc.lft.to/lastmile_qr_scan", "ios": "https://dc.lft.to/lastmile_qr_scan"}, "type": "electric_scooter", "lon": -77.03702533333333, "name": "baef3c7adee9393bad2f205a8aa746ab", "bike_id": "baef3c7adee9393bad2f205a8aa746ab", "fusion_lat": 0.0, "is_reserved": 0, "lat": 38.92643283333334, "fusion_lon": 0.0, "is_disabled": 0}, {"rental_uris": {"android": "https://dc.lft.to/lastmile_qr_scan", "ios": "https://dc.lft.to/lastmile_qr_scan"}, "type": "electric_scooter", "lon": -77.06781633333334, "name": "93cc1bb0e87b9fa10dd3024550c60a17", "bike_id": "93cc1bb0e87b9fa10dd3024550c60a17", "fusion_lat": 0.0, "is_reserved": 0, "lat": 38.9520575, "fusion_lon": 0.0, "is_disabled": 0}, {"rental_uris": {"android": "https://dc.lft.to/lastmile_qr_scan", "ios": "https://dc.lft.to/lastmile_qr_scan"}, "type": "electric_scooter", "lon": -77.00742133333334, "name": "0b661c579c9bb6d8252d1425a5037830", "bike_id": "0b661c579c9bb6d8252d1425a5037830", "fusion_lat": 0.0, "is_reserved": 0, "lat": 38.95524183333333, "fusion_lon": 0.0, "is_disabled": 0}, {"rental_uris": {"android": "https://dc.lft.to/lastmile_qr_scan", "ios": "https://dc.lft.to/lastmile_qr_scan"}, "type": "electric_scooter", "lon": -77.02012533333334, "name": "519d4a7c0b771103a77d9ef9d660584b", "bike_id": "519d4a7c0b771103a77d9ef9d660584b", "fusion_lat": 0.0, "is_reserved": 0, "lat": 38.924130166666664, "fusion_lon": 0.0, "is_disabled": 0}, {"rental_uris": {"android": "https://dc.lft.to/lastmile_qr_scan", "ios": "https://dc.lft.to/lastmile_qr_scan"}, "type": "electric_scooter", "lon": -77.00966916666667, "name": "4e32fab5d5783548dc8ce327b02a4305", "bike_id": "4e32fab5d5783548dc8ce327b02a4305", "fusion_lat": 0.0, "is_reserved": 0, "lat": 38.881338666666664, "fusion_lon": 0.0, "is_disabled": 0}, {"rental_uris": {"android": "https://dc.lft.to/lastmile_qr_scan", "ios": "https://dc.lft.to/lastmile_qr_scan"}, "type": "electric_scooter", "lon": -77.0334135, "name": "482fe198fd2a763fa9a9b7ebadf9526d", "bike_id": "482fe198fd2a763fa9a9b7ebadf9526d", "fusion_lat": 0.0, "is_reserved": 0, "lat": 38.902477833333336, "fusion_lon": 0.0, "is_disabled": 0}, {"rental_uris": {"android": "https://dc.lft.to/lastmile_qr_scan", "ios": "https://dc.lft.to/lastmile_qr_scan"}, "type": "electric_scooter", "lon": -77.0250295, "name": "c3a55513f801d3a62a620b7b6e70f05c", "bike_id": "c3a55513f801d3a62a620b7b6e70f05c", "fusion_lat": 0.0, "is_reserved": 0, "lat": 38.942016, "fusion_lon": 0.0, "is_disabled": 0}, {"rental_uris": {"android": "https://dc.lft.to/lastmile_qr_scan", "ios": "https://dc.lft.to/lastmile_qr_scan"}, "type": "electric_scooter", "lon": -77.03261683333334, "name": "0dc3279eee6d284628fc86e2197be019", "bike_id": "0dc3279eee6d284628fc86e2197be019", "fusion_lat": 0.0, "is_reserved": 0, "lat": 38.935252, "fusion_lon": 0.0, "is_disabled": 0}, {"rental_uris": {"android": "https://dc.lft.to/lastmile_qr_scan", "ios": "https://dc.lft.to/lastmile_qr_scan"}, "type": "electric_scooter", "lon": -77.0436345, "name": "81afb373bcc328b6fc7a415c5ec4c6f1", "bike_id": "81afb373bcc328b6fc7a415c5ec4c6f1", "fusion_lat": 0.0, "is_reserved": 0, "lat": 38.9027335, "fusion_lon": 0.0, "is_disabled": 0}, {"rental_uris": {"android": "https://dc.lft.to/lastmile_qr_scan", "ios": "https://dc.lft.to/lastmile_qr_scan"}, "type": "electric_scooter", "lon": -76.99067566666666, "name": "7f0af50b7a8498ac6299e8c793be8398", "bike_id": "7f0af50b7a8498ac6299e8c793be8398", "fusion_lat": 0.0, "is_reserved": 0, "lat": 38.92941483333333, "fusion_lon": 0.0, "is_disabled": 0}, {"rental_uris": {"android": "https://dc.lft.to/lastmile_qr_scan", "ios": "https://dc.lft.to/lastmile_qr_scan"}, "type": "electric_scooter", "lon": -77.07667616666667, "name": "8780accf19450d909675dfae56738ea7", "bike_id": "8780accf19450d909675dfae56738ea7", "fusion_lat": 0.0, "is_reserved": 0, "lat": 38.906313833333336, "fusion_lon": 0.0, "is_disabled": 0}, {"rental_uris": {"android": "https://dc.lft.to/lastmile_qr_scan", "ios": "https://dc.lft.to/lastmile_qr_scan"}, "type": "electric_scooter", "lon": -77.0484075, "name": "4854653e47388ba537791798fc72cb55", "bike_id": "4854653e47388ba537791798fc72cb55", "fusion_lat": 0.0, "is_reserved": 0, "lat": 38.91635933333333, "fusion_lon": 0.0, "is_disabled": 0}, {"rental_uris": {"android": "https://dc.lft.to/lastmile_qr_scan", "ios": "https://dc.lft.to/lastmile_qr_scan"}, "type": "electric_scooter", "lon": -76.98126366666666, "name": "b0a6c82d652898c81f27cc96735c5081", "bike_id": "b0a6c82d652898c81f27cc96735c5081", "fusion_lat": 0.0, "is_reserved": 0, "lat": 38.89199766666667, "fusion_lon": 0.0, "is_disabled": 0}, {"rental_uris": {"android": "https://dc.lft.to/lastmile_qr_scan", "ios": "https://dc.lft.to/lastmile_qr_scan"}, "type": "electric_scooter", "lon": -77.06496633333333, "name": "301ec9e76eb0de314fbf25968cac069e", "bike_id": "301ec9e76eb0de314fbf25968cac069e", "fusion_lat": 0.0, "is_reserved": 0, "lat": 38.905226666666664, "fusion_lon": 0.0, "is_disabled": 0}, {"rental_uris": {"android": "https://dc.lft.to/lastmile_qr_scan", "ios": "https://dc.lft.to/lastmile_qr_scan"}, "type": "electric_scooter", "lon": -76.94640816666667, "name": "a36f473f0dda688ca9c5ff1b790c08a1", "bike_id": "a36f473f0dda688ca9c5ff1b790c08a1", "fusion_lat": 0.0, "is_reserved": 0, "lat": 38.8984495, "fusion_lon": 0.0, "is_disabled": 0}, {"rental_uris": {"android": "https://dc.lft.to/lastmile_qr_scan", "ios": "https://dc.lft.to/lastmile_qr_scan"}, "type": "electric_scooter", "lon": -77.03500166666667, "name": "5edec22e2a3f536dd3f9effbf48b2126", "bike_id": "5edec22e2a3f536dd3f9effbf48b2126", "fusion_lat": 0.0, "is_reserved": 0, "lat": 38.9357025, "fusion_lon": 0.0, "is_disabled": 0}, {"rental_uris": {"android": "https://dc.lft.to/lastmile_qr_scan", "ios": "https://dc.lft.to/lastmile_qr_scan"}, "type": "electric_scooter", "lon": -77.02714016666667, "name": "a719cb4da06e355118e41268ceddd3e8", "bike_id": "a719cb4da06e355118e41268ceddd3e8", "fusion_lat": 0.0, "is_reserved": 0, "lat": 38.899777, "fusion_lon": 0.0, "is_disabled": 0}, {"rental_uris": {"android": "https://dc.lft.to/lastmile_qr_scan", "ios": "https://dc.lft.to/lastmile_qr_scan"}, "type": "electric_bike", "lon": -76.9389015, "name": "586d79a848358559bf5a51cf12a20e6d", "bike_id": "586d79a848358559bf5a51cf12a20e6d", "fusion_lat": 0.0, "is_reserved": 0, "lat": 38.95626716666666, "fusion_lon": 0.0, "is_disabled": 0}, {"rental_uris": {"android": "https://dc.lft.to/lastmile_qr_scan", "ios": "https://dc.lft.to/lastmile_qr_scan"}, "type": "electric_scooter", "lon": -77.01953666666667, "name": "c1185bf955fdc667202cc836347f639f", "bike_id": "c1185bf955fdc667202cc836347f639f", "fusion_lat": 0.0, "is_reserved": 0, "lat": 38.9225455, "fusion_lon": 0.0, "is_disabled": 0}, {"rental_uris": {"android": "https://dc.lft.to/lastmile_qr_scan", "ios": "https://dc.lft.to/lastmile_qr_scan"}, "type": "electric_scooter", "lon": -77.02710366666666, "name": "17f419155e347c558140e8558e27b29a", "bike_id": "17f419155e347c558140e8558e27b29a", "fusion_lat": 0.0, "is_reserved": 0, "lat": 38.906640833333334, "fusion_lon": 0.0, "is_disabled": 0}, {"rental_uris": {"android": "https://dc.lft.to/lastmile_qr_scan", "ios": "https://dc.lft.to/lastmile_qr_scan"}, "type": "electric_scooter", "lon": -77.038648, "name": "3a8b2751399e64c9525210491ef2a546", "bike_id": "3a8b2751399e64c9525210491ef2a546", "fusion_lat": 0.0, "is_reserved": 0, "lat": 38.902758666666664, "fusion_lon": 0.0, "is_disabled": 0}, {"rental_uris": {"android": "https://dc.lft.to/lastmile_qr_scan", "ios": "https://dc.lft.to/lastmile_qr_scan"}, "type": "electric_scooter", "lon": -77.06576033333333, "name": "79312d64e0d5beb7f4ff91cf8e88428b", "bike_id": "79312d64e0d5beb7f4ff91cf8e88428b", "fusion_lat": 0.0, "is_reserved": 0, "lat": 38.905117833333335, "fusion_lon": 0.0, "is_disabled": 0}, {"rental_uris": {"android": "https://dc.lft.to/lastmile_qr_scan", "ios": "https://dc.lft.to/lastmile_qr_scan"}, "type": "electric_bike", "lon": -76.98557566666666, "name": "adc5fea9b4b2350d276c1a39316cedc8", "bike_id": "adc5fea9b4b2350d276c1a39316cedc8", "fusion_lat": 0.0, "is_reserved": 0, "lat": 38.86889583333333, "fusion_lon": 0.0, "is_disabled": 0}, {"rental_uris": {"android": "https://dc.lft.to/lastmile_qr_scan", "ios": "https://dc.lft.to/lastmile_qr_scan"}, "type": "electric_scooter", "lon": -77.029766, "name": "ffa1fe39f577a9dbbedbd391819ff8cb", "bike_id": "ffa1fe39f577a9dbbedbd391819ff8cb", "fusion_lat": 0.0, "is_reserved": 0, "lat": 38.923132, "fusion_lon": 0.0, "is_disabled": 0}, {"rental_uris": {"android": "https://dc.lft.to/lastmile_qr_scan", "ios": "https://dc.lft.to/lastmile_qr_scan"}, "type": "electric_scooter", "lon": -77.0028725, "name": "8d778191f80788b66b3a985d0e726602", "bike_id": "8d778191f80788b66b3a985d0e726602", "fusion_lat": 0.0, "is_reserved": 0, "lat": 38.909131, "fusion_lon": 0.0, "is_disabled": 0}, {"rental_uris": {"android": "https://dc.lft.to/lastmile_qr_scan", "ios": "https://dc.lft.to/lastmile_qr_scan"}, "type": "electric_scooter", "lon": -77.0183025, "name": "bd3b06f5bc5a3576304ee74fbd9012ed", "bike_id": "bd3b06f5bc5a3576304ee74fbd9012ed", "fusion_lat": 0.0, "is_reserved": 0, "lat": 38.91115216666667, "fusion_lon": 0.0, "is_disabled": 0}, {"rental_uris": {"android": "https://dc.lft.to/lastmile_qr_scan", "ios": "https://dc.lft.to/lastmile_qr_scan"}, "type": "electric_scooter", "lon": -77.04228116666667, "name": "2bbea5c27558fd9da60cf6732d1e8f97", "bike_id": "2bbea5c27558fd9da60cf6732d1e8f97", "fusion_lat": 0.0, "is_reserved": 0, "lat": 38.911108, "fusion_lon": 0.0, "is_disabled": 0}, {"rental_uris": {"android": "https://dc.lft.to/lastmile_qr_scan", "ios": "https://dc.lft.to/lastmile_qr_scan"}, "type": "electric_scooter", "lon": -77.02197066666666, "name": "76883168c981c8a1dd9c906a6c8c0527", "bike_id": "76883168c981c8a1dd9c906a6c8c0527", "fusion_lat": 0.0, "is_reserved": 0, "lat": 38.91691766666667, "fusion_lon": 0.0, "is_disabled": 0}, {"rental_uris": {"android": "https://dc.lft.to/lastmile_qr_scan", "ios": "https://dc.lft.to/lastmile_qr_scan"}, "type": "electric_scooter", "lon": -76.93739266666667, "name": "adcd4e7a89e8f53b02430ff19219f915", "bike_id": "adcd4e7a89e8f53b02430ff19219f915", "fusion_lat": 0.0, "is_reserved": 0, "lat": 38.890191, "fusion_lon": 0.0, "is_disabled": 0}, {"rental_uris": {"android": "https://dc.lft.to/lastmile_qr_scan", "ios": "https://dc.lft.to/lastmile_qr_scan"}, "type": "electric_scooter", "lon": -77.03137066666666, "name": "f79d5bddf7b4de9e4f7b37856a069e11", "bike_id": "f79d5bddf7b4de9e4f7b37856a069e11", "fusion_lat": 0.0, "is_reserved": 0, "lat": 38.904635666666664, "fusion_lon": 0.0, "is_disabled": 0}, {"rental_uris": {"android": "https://dc.lft.to/lastmile_qr_scan", "ios": "https://dc.lft.to/lastmile_qr_scan"}, "type": "electric_scooter", "lon": -76.95519766666666, "name": "860b06e7599ea926c8dfc10332d66c69", "bike_id": "860b06e7599ea926c8dfc10332d66c69", "fusion_lat": 0.0, "is_reserved": 0, "lat": 38.890588666666666, "fusion_lon": 0.0, "is_disabled": 0}, {"rental_uris": {"android": "https://dc.lft.to/lastmile_qr_scan", "ios": "https://dc.lft.to/lastmile_qr_scan"}, "type": "electric_scooter", "lon": -77.0378885, "name": "991bb5f9c0491ef8087c04cdc54c05da", "bike_id": "991bb5f9c0491ef8087c04cdc54c05da", "fusion_lat": 0.0, "is_reserved": 0, "lat": 38.90565483333334, "fusion_lon": 0.0, "is_disabled": 0}, {"rental_uris": {"android": "https://dc.lft.to/lastmile_qr_scan", "ios": "https://dc.lft.to/lastmile_qr_scan"}, "type": "electric_scooter", "lon": -77.02117566666666, "name": "4886bf26aef1c31e9ecb9865624768ad", "bike_id": "4886bf26aef1c31e9ecb9865624768ad", "fusion_lat": 0.0, "is_reserved": 0, "lat": 38.9173935, "fusion_lon": 0.0, "is_disabled": 0}, {"rental_uris": {"android": "https://dc.lft.to/lastmile_qr_scan", "ios": "https://dc.lft.to/lastmile_qr_scan"}, "type": "electric_scooter", "lon": -77.03449183333333, "name": "ba47df70809c7e9fe1d14dcd93745007", "bike_id": "ba47df70809c7e9fe1d14dcd93745007", "fusion_lat": 0.0, "is_reserved": 0, "lat": 38.934337, "fusion_lon": 0.0, "is_disabled": 0}, {"rental_uris": {"android": "https://dc.lft.to/lastmile_qr_scan", "ios": "https://dc.lft.to/lastmile_qr_scan"}, "type": "electric_scooter", "lon": -77.02979416666666, "name": "fdc550ab193c56a3bcefefb726a185bd", "bike_id": "fdc550ab193c56a3bcefefb726a185bd", "fusion_lat": 0.0, "is_reserved": 0, "lat": 38.94066566666667, "fusion_lon": 0.0, "is_disabled": 0}, {"rental_uris": {"android": "https://dc.lft.to/lastmile_qr_scan", "ios": "https://dc.lft.to/lastmile_qr_scan"}, "type": "electric_scooter", "lon": -77.04025533333333, "name": "26146cebd4863515bba3f2e2cab3d8bc", "bike_id": "26146cebd4863515bba3f2e2cab3d8bc", "fusion_lat": 0.0, "is_reserved": 0, "lat": 38.900092, "fusion_lon": 0.0, "is_disabled": 0}, {"rental_uris": {"android": "https://dc.lft.to/lastmile_qr_scan", "ios": "https://dc.lft.to/lastmile_qr_scan"}, "type": "electric_scooter", "lon": -77.019596, "name": "8496bafcff4736bb3fc3ac6deb2a3af5", "bike_id": "8496bafcff4736bb3fc3ac6deb2a3af5", "fusion_lat": 0.0, "is_reserved": 0, "lat": 38.902343, "fusion_lon": 0.0, "is_disabled": 0}, {"rental_uris": {"android": "https://dc.lft.to/lastmile_qr_scan", "ios": "https://dc.lft.to/lastmile_qr_scan"}, "type": "electric_scooter", "lon": -76.99623983333333, "name": "b82ac147783604473765076a791d3e1a", "bike_id": "b82ac147783604473765076a791d3e1a", "fusion_lat": 0.0, "is_reserved": 0, "lat": 38.900375833333335, "fusion_lon": 0.0, "is_disabled": 0}, {"rental_uris": {"android": "https://dc.lft.to/lastmile_qr_scan", "ios": "https://dc.lft.to/lastmile_qr_scan"}, "type": "electric_scooter", "lon": -77.021735, "name": "a3f735f5b56008c2048a3ccd403339ad", "bike_id": "a3f735f5b56008c2048a3ccd403339ad", "fusion_lat": 0.0, "is_reserved": 0, "lat": 38.942969, "fusion_lon": 0.0, "is_disabled": 0}, {"rental_uris": {"android": "https://dc.lft.to/lastmile_qr_scan", "ios": "https://dc.lft.to/lastmile_qr_scan"}, "type": "electric_scooter", "lon": -77.03379433333333, "name": "93473746151789f71907740124232c42", "bike_id": "93473746151789f71907740124232c42", "fusion_lat": 0.0, "is_reserved": 0, "lat": 38.9281705, "fusion_lon": 0.0, "is_disabled": 0}, {"rental_uris": {"android": "https://dc.lft.to/lastmile_qr_scan", "ios": "https://dc.lft.to/lastmile_qr_scan"}, "type": "electric_scooter", "lon": -77.0317535, "name": "f9f62708206dbde68dbcf425f089945b", "bike_id": "f9f62708206dbde68dbcf425f089945b", "fusion_lat": 0.0, "is_reserved": 0, "lat": 38.921096, "fusion_lon": 0.0, "is_disabled": 0}, {"rental_uris": {"android": "https://dc.lft.to/lastmile_qr_scan", "ios": "https://dc.lft.to/lastmile_qr_scan"}, "type": "electric_scooter", "lon": -77.03581933333334, "name": "8210c5cc5cb95f9642313e76ad05429d", "bike_id": "8210c5cc5cb95f9642313e76ad05429d", "fusion_lat": 0.0, "is_reserved": 0, "lat": 38.934812, "fusion_lon": 0.0, "is_disabled": 0}, {"rental_uris": {"android": "https://dc.lft.to/lastmile_qr_scan", "ios": "https://dc.lft.to/lastmile_qr_scan"}, "type": "electric_bike", "lon": -76.9816335, "name": "bac19c5cc6607772a41f32f2b616846e", "bike_id": "bac19c5cc6607772a41f32f2b616846e", "fusion_lat": 0.0, "is_reserved": 0, "lat": 38.884972, "fusion_lon": 0.0, "is_disabled": 0}, {"rental_uris": {"android": "https://dc.lft.to/lastmile_qr_scan", "ios": "https://dc.lft.to/lastmile_qr_scan"}, "type": "electric_scooter", "lon": -77.01413233333334, "name": "3d28f982c677711fc076f0c080c6a534", "bike_id": "3d28f982c677711fc076f0c080c6a534", "fusion_lat": 0.0, "is_reserved": 0, "lat": 38.87894, "fusion_lon": 0.0, "is_disabled": 0}, {"rental_uris": {"android": "https://dc.lft.to/lastmile_qr_scan", "ios": "https://dc.lft.to/lastmile_qr_scan"}, "type": "electric_scooter", "lon": -77.0329205, "name": "0066be5ab871743927ddb6e28e085c31", "bike_id": "0066be5ab871743927ddb6e28e085c31", "fusion_lat": 0.0, "is_reserved": 0, "lat": 38.92218066666667, "fusion_lon": 0.0, "is_disabled": 0}, {"rental_uris": {"android": "https://dc.lft.to/lastmile_qr_scan", "ios": "https://dc.lft.to/lastmile_qr_scan"}, "type": "electric_scooter", "lon": -77.00123633333334, "name": "95d4b58addd05c919a5fc915906e4673", "bike_id": "95d4b58addd05c919a5fc915906e4673", "fusion_lat": 0.0, "is_reserved": 0, "lat": 38.87787816666667, "fusion_lon": 0.0, "is_disabled": 0}, {"rental_uris": {"android": "https://dc.lft.to/lastmile_qr_scan", "ios": "https://dc.lft.to/lastmile_qr_scan"}, "type": "electric_bike", "lon": -77.07795983333334, "name": "63725c3307ae40bfcf6878594a3d92f1", "bike_id": "63725c3307ae40bfcf6878594a3d92f1", "fusion_lat": 0.0, "is_reserved": 0, "lat": 38.845154, "fusion_lon": 0.0, "is_disabled": 0}, {"rental_uris": {"android": "https://dc.lft.to/lastmile_qr_scan", "ios": "https://dc.lft.to/lastmile_qr_scan"}, "type": "electric_scooter", "lon": -77.03281783333334, "name": "f2a1886f450f5581c4cdc7b5b7d8444b", "bike_id": "f2a1886f450f5581c4cdc7b5b7d8444b", "fusion_lat": 0.0, "is_reserved": 0, "lat": 38.936881, "fusion_lon": 0.0, "is_disabled": 0}, {"rental_uris": {"android": "https://dc.lft.to/lastmile_qr_scan", "ios": "https://dc.lft.to/lastmile_qr_scan"}, "type": "electric_scooter", "lon": -76.9875975, "name": "5b60b1c9253e82d2270344b5f6f6de9f", "bike_id": "5b60b1c9253e82d2270344b5f6f6de9f", "fusion_lat": 0.0, "is_reserved": 0, "lat": 38.908061000000004, "fusion_lon": 0.0, "is_disabled": 0}, {"rental_uris": {"android": "https://dc.lft.to/lastmile_qr_scan", "ios": "https://dc.lft.to/lastmile_qr_scan"}, "type": "electric_scooter", "lon": -76.98339233333333, "name": "221db2529f7f80e006d97a834972debb", "bike_id": "221db2529f7f80e006d97a834972debb", "fusion_lat": 0.0, "is_reserved": 0, "lat": 38.8626095, "fusion_lon": 0.0, "is_disabled": 0}, {"rental_uris": {"android": "https://dc.lft.to/lastmile_qr_scan", "ios": "https://dc.lft.to/lastmile_qr_scan"}, "type": "electric_scooter", "lon": -77.0240545, "name": "68025cebeb1b4b3d10f9627f332f8569", "bike_id": "68025cebeb1b4b3d10f9627f332f8569", "fusion_lat": 0.0, "is_reserved": 0, "lat": 38.95732733333333, "fusion_lon": 0.0, "is_disabled": 0}, {"rental_uris": {"android": "https://dc.lft.to/lastmile_qr_scan", "ios": "https://dc.lft.to/lastmile_qr_scan"}, "type": "electric_scooter", "lon": -77.03762466666667, "name": "ed39e65bc6297d39a233bf71e3636ae1", "bike_id": "ed39e65bc6297d39a233bf71e3636ae1", "fusion_lat": 0.0, "is_reserved": 0, "lat": 38.90672716666667, "fusion_lon": 0.0, "is_disabled": 0}, {"rental_uris": {"android": "https://dc.lft.to/lastmile_qr_scan", "ios": "https://dc.lft.to/lastmile_qr_scan"}, "type": "electric_scooter", "lon": -76.99951983333334, "name": "e9e84b7d0b9f04f3cf344624cc3a74cf", "bike_id": "e9e84b7d0b9f04f3cf344624cc3a74cf", "fusion_lat": 0.0, "is_reserved": 0, "lat": 38.84296283333333, "fusion_lon": 0.0, "is_disabled": 0}, {"rental_uris": {"android": "https://dc.lft.to/lastmile_qr_scan", "ios": "https://dc.lft.to/lastmile_qr_scan"}, "type": "electric_scooter", "lon": -76.99613316666667, "name": "d7a1e46a78f46ffb0e681f03857023e8", "bike_id": "d7a1e46a78f46ffb0e681f03857023e8", "fusion_lat": 0.0, "is_reserved": 0, "lat": 38.88449583333333, "fusion_lon": 0.0, "is_disabled": 0}, {"rental_uris": {"android": "https://dc.lft.to/lastmile_qr_scan", "ios": "https://dc.lft.to/lastmile_qr_scan"}, "type": "electric_scooter", "lon": -77.02305033333333, "name": "0d8b2f186fad55b6e0847eadaf1fd0d8", "bike_id": "0d8b2f186fad55b6e0847eadaf1fd0d8", "fusion_lat": 0.0, "is_reserved": 0, "lat": 38.9086675, "fusion_lon": 0.0, "is_disabled": 0}, {"rental_uris": {"android": "https://dc.lft.to/lastmile_qr_scan", "ios": "https://dc.lft.to/lastmile_qr_scan"}, "type": "electric_scooter", "lon": -77.02946883333334, "name": "6987750203df854511500caf4aad6e47", "bike_id": "6987750203df854511500caf4aad6e47", "fusion_lat": 0.0, "is_reserved": 0, "lat": 38.917020666666666, "fusion_lon": 0.0, "is_disabled": 0}, {"rental_uris": {"android": "https://dc.lft.to/lastmile_qr_scan", "ios": "https://dc.lft.to/lastmile_qr_scan"}, "type": "electric_scooter", "lon": -77.05149866666666, "name": "e45c75bdcf4e4fee9aa959e51ebfc8ba", "bike_id": "e45c75bdcf4e4fee9aa959e51ebfc8ba", "fusion_lat": 0.0, "is_reserved": 0, "lat": 38.90432633333333, "fusion_lon": 0.0, "is_disabled": 0}, {"rental_uris": {"android": "https://dc.lft.to/lastmile_qr_scan", "ios": "https://dc.lft.to/lastmile_qr_scan"}, "type": "electric_scooter", "lon": -77.02162616666666, "name": "b323eba547ccc36c0961ddde7aac2bb5", "bike_id": "b323eba547ccc36c0961ddde7aac2bb5", "fusion_lat": 0.0, "is_reserved": 0, "lat": 38.92615283333333, "fusion_lon": 0.0, "is_disabled": 0}, {"rental_uris": {"android": "https://dc.lft.to/lastmile_qr_scan", "ios": "https://dc.lft.to/lastmile_qr_scan"}, "type": "electric_scooter", "lon": -77.0425095, "name": "c3d02ba33495d2cba7441eb1e5719ecf", "bike_id": "c3d02ba33495d2cba7441eb1e5719ecf", "fusion_lat": 0.0, "is_reserved": 0, "lat": 38.9455645, "fusion_lon": 0.0, "is_disabled": 0}, {"rental_uris": {"android": "https://dc.lft.to/lastmile_qr_scan", "ios": "https://dc.lft.to/lastmile_qr_scan"}, "type": "electric_scooter", "lon": -77.02806733333334, "name": "7930c8b9da308f28387f6092f8ecc3c4", "bike_id": "7930c8b9da308f28387f6092f8ecc3c4", "fusion_lat": 0.0, "is_reserved": 0, "lat": 38.89731, "fusion_lon": 0.0, "is_disabled": 0}, {"rental_uris": {"android": "https://dc.lft.to/lastmile_qr_scan", "ios": "https://dc.lft.to/lastmile_qr_scan"}, "type": "electric_scooter", "lon": -77.0415035, "name": "44b4d3da48f959c0873e57d2c800e2d3", "bike_id": "44b4d3da48f959c0873e57d2c800e2d3", "fusion_lat": 0.0, "is_reserved": 0, "lat": 38.899538, "fusion_lon": 0.0, "is_disabled": 0}, {"rental_uris": {"android": "https://dc.lft.to/lastmile_qr_scan", "ios": "https://dc.lft.to/lastmile_qr_scan"}, "type": "electric_scooter", "lon": -77.05000283333334, "name": "6782f692cf5b1c7cfa185abd945de8df", "bike_id": "6782f692cf5b1c7cfa185abd945de8df", "fusion_lat": 0.0, "is_reserved": 0, "lat": 38.90528233333333, "fusion_lon": 0.0, "is_disabled": 0}, {"rental_uris": {"android": "https://dc.lft.to/lastmile_qr_scan", "ios": "https://dc.lft.to/lastmile_qr_scan"}, "type": "electric_scooter", "lon": -77.063944, "name": "410ae18e178372c4d5d9d6393d6f74f0", "bike_id": "410ae18e178372c4d5d9d6393d6f74f0", "fusion_lat": 0.0, "is_reserved": 0, "lat": 38.9290925, "fusion_lon": 0.0, "is_disabled": 0}, {"rental_uris": {"android": "https://dc.lft.to/lastmile_qr_scan", "ios": "https://dc.lft.to/lastmile_qr_scan"}, "type": "electric_scooter", "lon": -77.06039066666666, "name": "1de2b3bdf895a57cb510ac3fe2991326", "bike_id": "1de2b3bdf895a57cb510ac3fe2991326", "fusion_lat": 0.0, "is_reserved": 0, "lat": 38.939271, "fusion_lon": 0.0, "is_disabled": 0}, {"rental_uris": {"android": "https://dc.lft.to/lastmile_qr_scan", "ios": "https://dc.lft.to/lastmile_qr_scan"}, "type": "electric_scooter", "lon": -76.9412135, "name": "5f11fcd98eeed4f222a52b6b0a5be483", "bike_id": "5f11fcd98eeed4f222a52b6b0a5be483", "fusion_lat": 0.0, "is_reserved": 0, "lat": 38.90790583333333, "fusion_lon": 0.0, "is_disabled": 0}, {"rental_uris": {"android": "https://dc.lft.to/lastmile_qr_scan", "ios": "https://dc.lft.to/lastmile_qr_scan"}, "type": "electric_scooter", "lon": -77.02805166666667, "name": "ca9acf792e82b063ae316e5272260729", "bike_id": "ca9acf792e82b063ae316e5272260729", "fusion_lat": 0.0, "is_reserved": 0, "lat": 38.919616, "fusion_lon": 0.0, "is_disabled": 0}, {"rental_uris": {"android": "https://dc.lft.to/lastmile_qr_scan", "ios": "https://dc.lft.to/lastmile_qr_scan"}, "type": "electric_bike", "lon": -76.92998, "name": "1cec1c472064da0d1300f7fcda19b741", "bike_id": "1cec1c472064da0d1300f7fcda19b741", "fusion_lat": 0.0, "is_reserved": 0, "lat": 38.888007333333334, "fusion_lon": 0.0, "is_disabled": 0}, {"rental_uris": {"android": "https://dc.lft.to/lastmile_qr_scan", "ios": "https://dc.lft.to/lastmile_qr_scan"}, "type": "electric_bike", "lon": -77.1526845, "name": "b28a1e219f3779ff5d415de89a17c365", "bike_id": "b28a1e219f3779ff5d415de89a17c365", "fusion_lat": 0.0, "is_reserved": 0, "lat": 39.105681833333335, "fusion_lon": 0.0, "is_disabled": 0}, {"rental_uris": {"android": "https://dc.lft.to/lastmile_qr_scan", "ios": "https://dc.lft.to/lastmile_qr_scan"}, "type": "electric_scooter", "lon": -76.98327266666666, "name": "9c2733c3b88283e5d4444e5f18ec8045", "bike_id": "9c2733c3b88283e5d4444e5f18ec8045", "fusion_lat": 0.0, "is_reserved": 0, "lat": 38.86168633333333, "fusion_lon": 0.0, "is_disabled": 0}, {"rental_uris": {"android": "https://dc.lft.to/lastmile_qr_scan", "ios": "https://dc.lft.to/lastmile_qr_scan"}, "type": "electric_scooter", "lon": -76.9650575, "name": "4c492cfe4cd28549e1f28af69733dd0f", "bike_id": "4c492cfe4cd28549e1f28af69733dd0f", "fusion_lat": 0.0, "is_reserved": 0, "lat": 38.87649583333334, "fusion_lon": 0.0, "is_disabled": 0}, {"rental_uris": {"android": "https://dc.lft.to/lastmile_qr_scan", "ios": "https://dc.lft.to/lastmile_qr_scan"}, "type": "electric_scooter", "lon": -77.04720716666667, "name": "b5acb2562f81aa93b60346592649a0d1", "bike_id": "b5acb2562f81aa93b60346592649a0d1", "fusion_lat": 0.0, "is_reserved": 0, "lat": 38.89948116666667, "fusion_lon": 0.0, "is_disabled": 0}, {"rental_uris": {"android": "https://dc.lft.to/lastmile_qr_scan", "ios": "https://dc.lft.to/lastmile_qr_scan"}, "type": "electric_scooter", "lon": -77.07267316666666, "name": "518d497e7b08f7fa55b8e288b2c1412a", "bike_id": "518d497e7b08f7fa55b8e288b2c1412a", "fusion_lat": 0.0, "is_reserved": 0, "lat": 38.93470716666667, "fusion_lon": 0.0, "is_disabled": 0}, {"rental_uris": {"android": "https://dc.lft.to/lastmile_qr_scan", "ios": "https://dc.lft.to/lastmile_qr_scan"}, "type": "electric_scooter", "lon": -77.03665733333334, "name": "c4ae5c7145bc45208316ce9fdf00f14c", "bike_id": "c4ae5c7145bc45208316ce9fdf00f14c", "fusion_lat": 0.0, "is_reserved": 0, "lat": 38.922603333333335, "fusion_lon": 0.0, "is_disabled": 0}, {"rental_uris": {"android": "https://dc.lft.to/lastmile_qr_scan", "ios": "https://dc.lft.to/lastmile_qr_scan"}, "type": "electric_bike", "lon": -76.9683965, "name": "6467c8a10b7954c6c3ae9bb8e69267a7", "bike_id": "6467c8a10b7954c6c3ae9bb8e69267a7", "fusion_lat": 0.0, "is_reserved": 0, "lat": 38.924485833333335, "fusion_lon": 0.0, "is_disabled": 0}, {"rental_uris": {"android": "https://dc.lft.to/lastmile_qr_scan", "ios": "https://dc.lft.to/lastmile_qr_scan"}, "type": "electric_scooter", "lon": -77.03802616666667, "name": "a28ba586f3f14d992477df0efa97458b", "bike_id": "a28ba586f3f14d992477df0efa97458b", "fusion_lat": 0.0, "is_reserved": 0, "lat": 38.930201, "fusion_lon": 0.0, "is_disabled": 0}, {"rental_uris": {"android": "https://dc.lft.to/lastmile_qr_scan", "ios": "https://dc.lft.to/lastmile_qr_scan"}, "type": "electric_scooter", "lon": -76.977132, "name": "afcbe42a721076697cadcbbeeb2bf07e", "bike_id": "afcbe42a721076697cadcbbeeb2bf07e", "fusion_lat": 0.0, "is_reserved": 0, "lat": 38.900285333333336, "fusion_lon": 0.0, "is_disabled": 0}, {"rental_uris": {"android": "https://dc.lft.to/lastmile_qr_scan", "ios": "https://dc.lft.to/lastmile_qr_scan"}, "type": "electric_scooter", "lon": -76.97909466666667, "name": "1c7149e15ecc6e0b896a7429fe338fae", "bike_id": "1c7149e15ecc6e0b896a7429fe338fae", "fusion_lat": 0.0, "is_reserved": 0, "lat": 38.894352, "fusion_lon": 0.0, "is_disabled": 0}, {"rental_uris": {"android": "https://dc.lft.to/lastmile_qr_scan", "ios": "https://dc.lft.to/lastmile_qr_scan"}, "type": "electric_scooter", "lon": -77.02652916666666, "name": "ea2c35967953d6437dec81488b7c5b22", "bike_id": "ea2c35967953d6437dec81488b7c5b22", "fusion_lat": 0.0, "is_reserved": 0, "lat": 38.902592166666665, "fusion_lon": 0.0, "is_disabled": 0}, {"rental_uris": {"android": "https://dc.lft.to/lastmile_qr_scan", "ios": "https://dc.lft.to/lastmile_qr_scan"}, "type": "electric_scooter", "lon": -77.04665233333333, "name": "00434a1f009fe61d5595356a61858179", "bike_id": "00434a1f009fe61d5595356a61858179", "fusion_lat": 0.0, "is_reserved": 0, "lat": 38.893362833333335, "fusion_lon": 0.0, "is_disabled": 0}, {"rental_uris": {"android": "https://dc.lft.to/lastmile_qr_scan", "ios": "https://dc.lft.to/lastmile_qr_scan"}, "type": "electric_scooter", "lon": -77.02954566666666, "name": "4e6664c406576d87a10742952ba64660", "bike_id": "4e6664c406576d87a10742952ba64660", "fusion_lat": 0.0, "is_reserved": 0, "lat": 38.896316166666665, "fusion_lon": 0.0, "is_disabled": 0}, {"rental_uris": {"android": "https://dc.lft.to/lastmile_qr_scan", "ios": "https://dc.lft.to/lastmile_qr_scan"}, "type": "electric_scooter", "lon": -77.00200383333333, "name": "ff182580fcb1e1bed5e80718792c4e68", "bike_id": "ff182580fcb1e1bed5e80718792c4e68", "fusion_lat": 0.0, "is_reserved": 0, "lat": 38.878325333333336, "fusion_lon": 0.0, "is_disabled": 0}, {"rental_uris": {"android": "https://dc.lft.to/lastmile_qr_scan", "ios": "https://dc.lft.to/lastmile_qr_scan"}, "type": "electric_scooter", "lon": -77.01399016666667, "name": "0a2c8d1b61394f0053403f6617166990", "bike_id": "0a2c8d1b61394f0053403f6617166990", "fusion_lat": 0.0, "is_reserved": 0, "lat": 38.88033216666667, "fusion_lon": 0.0, "is_disabled": 0}, {"rental_uris": {"android": "https://dc.lft.to/lastmile_qr_scan", "ios": "https://dc.lft.to/lastmile_qr_scan"}, "type": "electric_scooter", "lon": -77.04227416666667, "name": "ba340f58d0b0382b0861a276f7fc8481", "bike_id": "ba340f58d0b0382b0861a276f7fc8481", "fusion_lat": 0.0, "is_reserved": 0, "lat": 38.9169225, "fusion_lon": 0.0, "is_disabled": 0}, {"rental_uris": {"android": "https://dc.lft.to/lastmile_qr_scan", "ios": "https://dc.lft.to/lastmile_qr_scan"}, "type": "electric_scooter", "lon": -77.03318483333334, "name": "b28f2907c874ddaf157ad53f9287eef5", "bike_id": "b28f2907c874ddaf157ad53f9287eef5", "fusion_lat": 0.0, "is_reserved": 0, "lat": 38.898856333333335, "fusion_lon": 0.0, "is_disabled": 0}, {"rental_uris": {"android": "https://dc.lft.to/lastmile_qr_scan", "ios": "https://dc.lft.to/lastmile_qr_scan"}, "type": "electric_scooter", "lon": -76.98536266666666, "name": "7e64ae55eeef776ed5305cec7cf57f3a", "bike_id": "7e64ae55eeef776ed5305cec7cf57f3a", "fusion_lat": 0.0, "is_reserved": 0, "lat": 38.85853566666667, "fusion_lon": 0.0, "is_disabled": 0}, {"rental_uris": {"android": "https://dc.lft.to/lastmile_qr_scan", "ios": "https://dc.lft.to/lastmile_qr_scan"}, "type": "electric_bike", "lon": -77.10684566666667, "name": "d571a2470c2228747f7775375339732c", "bike_id": "d571a2470c2228747f7775375339732c", "fusion_lat": 0.0, "is_reserved": 0, "lat": 38.93585083333333, "fusion_lon": 0.0, "is_disabled": 0}, {"rental_uris": {"android": "https://dc.lft.to/lastmile_qr_scan", "ios": "https://dc.lft.to/lastmile_qr_scan"}, "type": "electric_scooter", "lon": -77.04874866666667, "name": "431763b365eb79a80d0a568d96abd17c", "bike_id": "431763b365eb79a80d0a568d96abd17c", "fusion_lat": 0.0, "is_reserved": 0, "lat": 38.892973, "fusion_lon": 0.0, "is_disabled": 0}, {"rental_uris": {"android": "https://dc.lft.to/lastmile_qr_scan", "ios": "https://dc.lft.to/lastmile_qr_scan"}, "type": "electric_scooter", "lon": -77.07105566666667, "name": "56faa9b4bb4c00a708a553aad1e62623", "bike_id": "56faa9b4bb4c00a708a553aad1e62623", "fusion_lat": 0.0, "is_reserved": 0, "lat": 38.91417366666667, "fusion_lon": 0.0, "is_disabled": 0}, {"rental_uris": {"android": "https://dc.lft.to/lastmile_qr_scan", "ios": "https://dc.lft.to/lastmile_qr_scan"}, "type": "electric_scooter", "lon": -77.044894, "name": "5fa9acd2275d457a147f2d852bc010ba", "bike_id": "5fa9acd2275d457a147f2d852bc010ba", "fusion_lat": 0.0, "is_reserved": 0, "lat": 38.9034355, "fusion_lon": 0.0, "is_disabled": 0}, {"rental_uris": {"android": "https://dc.lft.to/lastmile_qr_scan", "ios": "https://dc.lft.to/lastmile_qr_scan"}, "type": "electric_scooter", "lon": -77.02938766666666, "name": "9d0dab29c25d82bcbcdc4c02129252f7", "bike_id": "9d0dab29c25d82bcbcdc4c02129252f7", "fusion_lat": 0.0, "is_reserved": 0, "lat": 38.8981825, "fusion_lon": 0.0, "is_disabled": 0}, {"rental_uris": {"android": "https://dc.lft.to/lastmile_qr_scan", "ios": "https://dc.lft.to/lastmile_qr_scan"}, "type": "electric_scooter", "lon": -77.05030466666666, "name": "85e93171853b704b1f2e5a98a0fbe51d", "bike_id": "85e93171853b704b1f2e5a98a0fbe51d", "fusion_lat": 0.0, "is_reserved": 0, "lat": 38.923713666666664, "fusion_lon": 0.0, "is_disabled": 0}, {"rental_uris": {"android": "https://dc.lft.to/lastmile_qr_scan", "ios": "https://dc.lft.to/lastmile_qr_scan"}, "type": "electric_bike", "lon": -76.99801966666666, "name": "e81de894af7c43ffbd569e52c872a8ed", "bike_id": "e81de894af7c43ffbd569e52c872a8ed", "fusion_lat": 0.0, "is_reserved": 0, "lat": 38.93502566666667, "fusion_lon": 0.0, "is_disabled": 0}, {"rental_uris": {"android": "https://dc.lft.to/lastmile_qr_scan", "ios": "https://dc.lft.to/lastmile_qr_scan"}, "type": "electric_scooter", "lon": -76.948096, "name": "e64f124c382227833c6d16af35d7dc65", "bike_id": "e64f124c382227833c6d16af35d7dc65", "fusion_lat": 0.0, "is_reserved": 0, "lat": 38.89348366666667, "fusion_lon": 0.0, "is_disabled": 0}, {"rental_uris": {"android": "https://dc.lft.to/lastmile_qr_scan", "ios": "https://dc.lft.to/lastmile_qr_scan"}, "type": "electric_scooter", "lon": -77.01769783333333, "name": "e2950d0984a0a7dcf0bec158dc9eda3c", "bike_id": "e2950d0984a0a7dcf0bec158dc9eda3c", "fusion_lat": 0.0, "is_reserved": 0, "lat": 38.87298083333334, "fusion_lon": 0.0, "is_disabled": 0}, {"rental_uris": {"android": "https://dc.lft.to/lastmile_qr_scan", "ios": "https://dc.lft.to/lastmile_qr_scan"}, "type": "electric_scooter", "lon": -76.99004116666667, "name": "482c5a60e13d9cc0b048e5966f402513", "bike_id": "482c5a60e13d9cc0b048e5966f402513", "fusion_lat": 0.0, "is_reserved": 0, "lat": 38.865074166666666, "fusion_lon": 0.0, "is_disabled": 0}, {"rental_uris": {"android": "https://dc.lft.to/lastmile_qr_scan", "ios": "https://dc.lft.to/lastmile_qr_scan"}, "type": "electric_scooter", "lon": -77.0113225, "name": "370e8d09ef266c381062f7031d6aa3c7", "bike_id": "370e8d09ef266c381062f7031d6aa3c7", "fusion_lat": 0.0, "is_reserved": 0, "lat": 38.9073035, "fusion_lon": 0.0, "is_disabled": 0}, {"rental_uris": {"android": "https://dc.lft.to/lastmile_qr_scan", "ios": "https://dc.lft.to/lastmile_qr_scan"}, "type": "electric_scooter", "lon": -77.00200766666667, "name": "597529b380fd167f6ac54eee9d3aceeb", "bike_id": "597529b380fd167f6ac54eee9d3aceeb", "fusion_lat": 0.0, "is_reserved": 0, "lat": 38.9024105, "fusion_lon": 0.0, "is_disabled": 0}, {"rental_uris": {"android": "https://dc.lft.to/lastmile_qr_scan", "ios": "https://dc.lft.to/lastmile_qr_scan"}, "type": "electric_scooter", "lon": -77.02314233333334, "name": "b4e48cf10a28493d7a7dd4d7a2fbac85", "bike_id": "b4e48cf10a28493d7a7dd4d7a2fbac85", "fusion_lat": 0.0, "is_reserved": 0, "lat": 38.917705833333336, "fusion_lon": 0.0, "is_disabled": 0}, {"rental_uris": {"android": "https://dc.lft.to/lastmile_qr_scan", "ios": "https://dc.lft.to/lastmile_qr_scan"}, "type": "electric_scooter", "lon": -77.05141716666667, "name": "3d1b29919abdacc2685ce1a617b80f4b", "bike_id": "3d1b29919abdacc2685ce1a617b80f4b", "fusion_lat": 0.0, "is_reserved": 0, "lat": 38.908085166666666, "fusion_lon": 0.0, "is_disabled": 0}, {"rental_uris": {"android": "https://dc.lft.to/lastmile_qr_scan", "ios": "https://dc.lft.to/lastmile_qr_scan"}, "type": "electric_scooter", "lon": -77.03262216666667, "name": "f38ee6a13e47b88f010588c8bf3de4a6", "bike_id": "f38ee6a13e47b88f010588c8bf3de4a6", "fusion_lat": 0.0, "is_reserved": 0, "lat": 38.9366965, "fusion_lon": 0.0, "is_disabled": 0}, {"rental_uris": {"android": "https://dc.lft.to/lastmile_qr_scan", "ios": "https://dc.lft.to/lastmile_qr_scan"}, "type": "electric_scooter", "lon": -77.02858, "name": "660b5d305ae84f9639d0fbfad70d4946", "bike_id": "660b5d305ae84f9639d0fbfad70d4946", "fusion_lat": 0.0, "is_reserved": 0, "lat": 38.922226333333334, "fusion_lon": 0.0, "is_disabled": 0}, {"rental_uris": {"android": "https://dc.lft.to/lastmile_qr_scan", "ios": "https://dc.lft.to/lastmile_qr_scan"}, "type": "electric_scooter", "lon": -76.93435533333333, "name": "0d5a9cc3f7c08bca0d5772943e045125", "bike_id": "0d5a9cc3f7c08bca0d5772943e045125", "fusion_lat": 0.0, "is_reserved": 0, "lat": 38.89971966666667, "fusion_lon": 0.0, "is_disabled": 0}, {"rental_uris": {"android": "https://dc.lft.to/lastmile_qr_scan", "ios": "https://dc.lft.to/lastmile_qr_scan"}, "type": "electric_scooter", "lon": -76.98616783333334, "name": "f86598e78dbe12f48bdd1e1e235c483f", "bike_id": "f86598e78dbe12f48bdd1e1e235c483f", "fusion_lat": 0.0, "is_reserved": 0, "lat": 38.938268666666666, "fusion_lon": 0.0, "is_disabled": 0}, {"rental_uris": {"android": "https://dc.lft.to/lastmile_qr_scan", "ios": "https://dc.lft.to/lastmile_qr_scan"}, "type": "electric_scooter", "lon": -77.03886166666666, "name": "0048c6db439432f434f86f1a13100e76", "bike_id": "0048c6db439432f434f86f1a13100e76", "fusion_lat": 0.0, "is_reserved": 0, "lat": 38.92233066666667, "fusion_lon": 0.0, "is_disabled": 0}, {"rental_uris": {"android": "https://dc.lft.to/lastmile_qr_scan", "ios": "https://dc.lft.to/lastmile_qr_scan"}, "type": "electric_bike", "lon": -76.99496233333333, "name": "dade2996fd2a67e535d4c83584ab2dfa", "bike_id": "dade2996fd2a67e535d4c83584ab2dfa", "fusion_lat": 0.0, "is_reserved": 0, "lat": 38.925752833333334, "fusion_lon": 0.0, "is_disabled": 0}, {"rental_uris": {"android": "https://dc.lft.to/lastmile_qr_scan", "ios": "https://dc.lft.to/lastmile_qr_scan"}, "type": "electric_scooter", "lon": -77.04641033333333, "name": "bb2e33b8e1cbc946ea880f4e04e196c4", "bike_id": "bb2e33b8e1cbc946ea880f4e04e196c4", "fusion_lat": 0.0, "is_reserved": 0, "lat": 38.896127666666665, "fusion_lon": 0.0, "is_disabled": 0}, {"rental_uris": {"android": "https://dc.lft.to/lastmile_qr_scan", "ios": "https://dc.lft.to/lastmile_qr_scan"}, "type": "electric_bike", "lon": -77.12627183333333, "name": "aee1a192d65b9ec4a6deaaa5a3d8873c", "bike_id": "aee1a192d65b9ec4a6deaaa5a3d8873c", "fusion_lat": 0.0, "is_reserved": 0, "lat": 39.058188666666666, "fusion_lon": 0.0, "is_disabled": 0}, {"rental_uris": {"android": "https://dc.lft.to/lastmile_qr_scan", "ios": "https://dc.lft.to/lastmile_qr_scan"}, "type": "electric_scooter", "lon": -77.02175933333334, "name": "df1e1273b37873339e51b7281e1bb8cb", "bike_id": "df1e1273b37873339e51b7281e1bb8cb", "fusion_lat": 0.0, "is_reserved": 0, "lat": 38.897315666666664, "fusion_lon": 0.0, "is_disabled": 0}, {"rental_uris": {"android": "https://dc.lft.to/lastmile_qr_scan", "ios": "https://dc.lft.to/lastmile_qr_scan"}, "type": "electric_scooter", "lon": -77.03368216666667, "name": "698bfca7c05d87a2a1bf0562e401474b", "bike_id": "698bfca7c05d87a2a1bf0562e401474b", "fusion_lat": 0.0, "is_reserved": 0, "lat": 38.922484833333336, "fusion_lon": 0.0, "is_disabled": 0}, {"rental_uris": {"android": "https://dc.lft.to/lastmile_qr_scan", "ios": "https://dc.lft.to/lastmile_qr_scan"}, "type": "electric_bike", "lon": -76.98093883333334, "name": "342775b878a12933b31f0cb0302746ab", "bike_id": "342775b878a12933b31f0cb0302746ab", "fusion_lat": 0.0, "is_reserved": 0, "lat": 38.95359716666667, "fusion_lon": 0.0, "is_disabled": 0}, {"rental_uris": {"android": "https://dc.lft.to/lastmile_qr_scan", "ios": "https://dc.lft.to/lastmile_qr_scan"}, "type": "electric_bike", "lon": -76.98742066666667, "name": "ca062cfc89947948fd356b9243f04581", "bike_id": "ca062cfc89947948fd356b9243f04581", "fusion_lat": 0.0, "is_reserved": 0, "lat": 38.8578785, "fusion_lon": 0.0, "is_disabled": 0}, {"rental_uris": {"android": "https://dc.lft.to/lastmile_qr_scan", "ios": "https://dc.lft.to/lastmile_qr_scan"}, "type": "electric_scooter", "lon": -77.02966516666666, "name": "4b0adf4a11451df8fca8b35bf62d046e", "bike_id": "4b0adf4a11451df8fca8b35bf62d046e", "fusion_lat": 0.0, "is_reserved": 0, "lat": 38.89221783333333, "fusion_lon": 0.0, "is_disabled": 0}, {"rental_uris": {"android": "https://dc.lft.to/lastmile_qr_scan", "ios": "https://dc.lft.to/lastmile_qr_scan"}, "type": "electric_scooter", "lon": -77.04601216666667, "name": "372806380bbb0feba684fcc811149a4c", "bike_id": "372806380bbb0feba684fcc811149a4c", "fusion_lat": 0.0, "is_reserved": 0, "lat": 38.90282533333333, "fusion_lon": 0.0, "is_disabled": 0}, {"rental_uris": {"android": "https://dc.lft.to/lastmile_qr_scan", "ios": "https://dc.lft.to/lastmile_qr_scan"}, "type": "electric_scooter", "lon": -77.02958983333333, "name": "b4d651206d2cddab085c5ffcddc1d126", "bike_id": "b4d651206d2cddab085c5ffcddc1d126", "fusion_lat": 0.0, "is_reserved": 0, "lat": 38.91686583333333, "fusion_lon": 0.0, "is_disabled": 0}, {"rental_uris": {"android": "https://dc.lft.to/lastmile_qr_scan", "ios": "https://dc.lft.to/lastmile_qr_scan"}, "type": "electric_scooter", "lon": -77.04682933333333, "name": "ce66781d82fb7eaa4a9b70e45b85a9d2", "bike_id": "ce66781d82fb7eaa4a9b70e45b85a9d2", "fusion_lat": 0.0, "is_reserved": 0, "lat": 38.89385016666667, "fusion_lon": 0.0, "is_disabled": 0}, {"rental_uris": {"android": "https://dc.lft.to/lastmile_qr_scan", "ios": "https://dc.lft.to/lastmile_qr_scan"}, "type": "electric_scooter", "lon": -77.03870966666666, "name": "4f28fac1fd777a529b98027f093eb4ae", "bike_id": "4f28fac1fd777a529b98027f093eb4ae", "fusion_lat": 0.0, "is_reserved": 0, "lat": 38.932435, "fusion_lon": 0.0, "is_disabled": 0}, {"rental_uris": {"android": "https://dc.lft.to/lastmile_qr_scan", "ios": "https://dc.lft.to/lastmile_qr_scan"}, "type": "electric_scooter", "lon": -76.9982875, "name": "382fc044a32bfe8fac4e445a0870ebc1", "bike_id": "382fc044a32bfe8fac4e445a0870ebc1", "fusion_lat": 0.0, "is_reserved": 0, "lat": 38.844311833333336, "fusion_lon": 0.0, "is_disabled": 0}, {"rental_uris": {"android": "https://dc.lft.to/lastmile_qr_scan", "ios": "https://dc.lft.to/lastmile_qr_scan"}, "type": "electric_scooter", "lon": -77.0499775, "name": "17429ee37a9269b48636776a57793a8c", "bike_id": "17429ee37a9269b48636776a57793a8c", "fusion_lat": 0.0, "is_reserved": 0, "lat": 38.90517216666667, "fusion_lon": 0.0, "is_disabled": 0}, {"rental_uris": {"android": "https://dc.lft.to/lastmile_qr_scan", "ios": "https://dc.lft.to/lastmile_qr_scan"}, "type": "electric_scooter", "lon": -77.04975683333333, "name": "e44573210da88f870fae7963022a1247", "bike_id": "e44573210da88f870fae7963022a1247", "fusion_lat": 0.0, "is_reserved": 0, "lat": 38.900904, "fusion_lon": 0.0, "is_disabled": 0}, {"rental_uris": {"android": "https://dc.lft.to/lastmile_qr_scan", "ios": "https://dc.lft.to/lastmile_qr_scan"}, "type": "electric_scooter", "lon": -76.9650665, "name": "6e8ba356c96e4fbd10f4746a9edf1df7", "bike_id": "6e8ba356c96e4fbd10f4746a9edf1df7", "fusion_lat": 0.0, "is_reserved": 0, "lat": 38.876467166666664, "fusion_lon": 0.0, "is_disabled": 0}, {"rental_uris": {"android": "https://dc.lft.to/lastmile_qr_scan", "ios": "https://dc.lft.to/lastmile_qr_scan"}, "type": "electric_scooter", "lon": -77.03220833333333, "name": "a1a2ae24572437b8e55eae8d2e82541e", "bike_id": "a1a2ae24572437b8e55eae8d2e82541e", "fusion_lat": 0.0, "is_reserved": 0, "lat": 38.907587666666664, "fusion_lon": 0.0, "is_disabled": 0}, {"rental_uris": {"android": "https://dc.lft.to/lastmile_qr_scan", "ios": "https://dc.lft.to/lastmile_qr_scan"}, "type": "electric_scooter", "lon": -76.99632966666667, "name": "d86159f78f139f16855c6dd346cb49c7", "bike_id": "d86159f78f139f16855c6dd346cb49c7", "fusion_lat": 0.0, "is_reserved": 0, "lat": 38.846256, "fusion_lon": 0.0, "is_disabled": 0}, {"rental_uris": {"android": "https://dc.lft.to/lastmile_qr_scan", "ios": "https://dc.lft.to/lastmile_qr_scan"}, "type": "electric_scooter", "lon": -77.04421533333333, "name": "d6bf3918b1d3ee4af445bec03ca0a533", "bike_id": "d6bf3918b1d3ee4af445bec03ca0a533", "fusion_lat": 0.0, "is_reserved": 0, "lat": 38.90589683333334, "fusion_lon": 0.0, "is_disabled": 0}, {"rental_uris": {"android": "https://dc.lft.to/lastmile_qr_scan", "ios": "https://dc.lft.to/lastmile_qr_scan"}, "type": "electric_bike", "lon": -77.124002, "name": "2d653cddbc2a96dc8504f41b35beea8e", "bike_id": "2d653cddbc2a96dc8504f41b35beea8e", "fusion_lat": 0.0, "is_reserved": 0, "lat": 38.89336333333333, "fusion_lon": 0.0, "is_disabled": 0}, {"rental_uris": {"android": "https://dc.lft.to/lastmile_qr_scan", "ios": "https://dc.lft.to/lastmile_qr_scan"}, "type": "electric_scooter", "lon": -77.02117683333333, "name": "6e9a7d9db0117af4b2202883a6558d80", "bike_id": "6e9a7d9db0117af4b2202883a6558d80", "fusion_lat": 0.0, "is_reserved": 0, "lat": 38.917374833333334, "fusion_lon": 0.0, "is_disabled": 0}, {"rental_uris": {"android": "https://dc.lft.to/lastmile_qr_scan", "ios": "https://dc.lft.to/lastmile_qr_scan"}, "type": "electric_scooter", "lon": -77.00053, "name": "2adb74fd01ff5b31b35059e430bc1b67", "bike_id": "2adb74fd01ff5b31b35059e430bc1b67", "fusion_lat": 0.0, "is_reserved": 0, "lat": 38.89742566666666, "fusion_lon": 0.0, "is_disabled": 0}, {"rental_uris": {"android": "https://dc.lft.to/lastmile_qr_scan", "ios": "https://dc.lft.to/lastmile_qr_scan"}, "type": "electric_bike", "lon": -77.03180533333334, "name": "20807db915780579226297bbefd435c8", "bike_id": "20807db915780579226297bbefd435c8", "fusion_lat": 0.0, "is_reserved": 0, "lat": 38.90457116666666, "fusion_lon": 0.0, "is_disabled": 0}, {"rental_uris": {"android": "https://dc.lft.to/lastmile_qr_scan", "ios": "https://dc.lft.to/lastmile_qr_scan"}, "type": "electric_scooter", "lon": -77.05883866666667, "name": "60a5053a6b2509a7a482f79eb95d6ea8", "bike_id": "60a5053a6b2509a7a482f79eb95d6ea8", "fusion_lat": 0.0, "is_reserved": 0, "lat": 38.9363865, "fusion_lon": 0.0, "is_disabled": 0}, {"rental_uris": {"android": "https://dc.lft.to/lastmile_qr_scan", "ios": "https://dc.lft.to/lastmile_qr_scan"}, "type": "electric_scooter", "lon": -77.03427916666666, "name": "7e26d4c4fa3646550aabd02dbdce226f", "bike_id": "7e26d4c4fa3646550aabd02dbdce226f", "fusion_lat": 0.0, "is_reserved": 0, "lat": 38.91924616666667, "fusion_lon": 0.0, "is_disabled": 0}, {"rental_uris": {"android": "https://dc.lft.to/lastmile_qr_scan", "ios": "https://dc.lft.to/lastmile_qr_scan"},