{"data": {"bikes": [{"is_disabled": 0, "fusion_lat": 0.0, "lat": 38.8457185, "type": "electric_bike", "lon": -77.0962275, "is_reserved": 0, "fusion_lon": 0.0, "bike_id": "09e106f9e1733244e64f8b668bcb10e2", "name": "09e106f9e1733244e64f8b668bcb10e2", "rental_uris": {"ios": "https://dc.lft.to/lastmile_qr_scan", "android": "https://dc.lft.to/lastmile_qr_scan"}}, {"is_disabled": 0, "fusion_lat": 0.0, "lat": 38.901532333333336, "type": "electric_scooter", "lon": -77.0420305, "is_reserved": 0, "fusion_lon": 0.0, "bike_id": "81014ecaeb6f32079daf38a8eb83883c", "name": "81014ecaeb6f32079daf38a8eb83883c", "rental_uris": {"ios": "https://dc.lft.to/lastmile_qr_scan", "android": "https://dc.lft.to/lastmile_qr_scan"}}, {"is_disabled": 0, "fusion_lat": 0.0, "lat": 38.8715815, "type": "electric_scooter", "lon": -77.0135175, "is_reserved": 0, "fusion_lon": 0.0, "bike_id": "0c6bf68e724bbfb9e4c4608f3ede6fe7", "name": "0c6bf68e724bbfb9e4c4608f3ede6fe7", "rental_uris": {"ios": "https://dc.lft.to/lastmile_qr_scan", "android": "https://dc.lft.to/lastmile_qr_scan"}}, {"is_disabled": 0, "fusion_lat": 0.0, "lat": 38.90379883333333, "type": "electric_scooter", "lon": -77.05338966666666, "is_reserved": 0, "fusion_lon": 0.0, "bike_id": "765611f5e2e5e813ecb99ba9d8872257", "name": "765611f5e2e5e813ecb99ba9d8872257", "rental_uris": {"ios": "https://dc.lft.to/lastmile_qr_scan", "android": "https://dc.lft.to/lastmile_qr_scan"}}, {"is_disabled": 0, "fusion_lat": 0.0, "lat": 38.892193, "type": "electric_scooter", "lon": -77.02224383333333, "is_reserved": 0, "fusion_lon": 0.0, "bike_id": "7d7f6612f4ebeb731e43e1c43be0241d", "name": "7d7f6612f4ebeb731e43e1c43be0241d", "rental_uris": {"ios": "https://dc.lft.to/lastmile_qr_scan", "android": "https://dc.lft.to/lastmile_qr_scan"}}, {"is_disabled": 0, "fusion_lat": 0.0, "lat": 38.900282, "type": "electric_scooter", "lon": -76.99860433333333, "is_reserved": 0, "fusion_lon": 0.0, "bike_id": "0c30ef4990f215d488d5b327b467f553", "name": "0c30ef4990f215d488d5b327b467f553", "rental_uris": {"ios": "https://dc.lft.to/lastmile_qr_scan", "android": "https://dc.lft.to/lastmile_qr_scan"}}, {"is_disabled": 0, "fusion_lat": 0.0, "lat": 38.924100833333334, "type": "electric_bike", "lon": -77.20814633333333, "is_reserved": 0, "fusion_lon": 0.0, "bike_id": "10c46037557ddeb6950e227caffd7f63", "name": "10c46037557ddeb6950e227caffd7f63", "rental_uris": {"ios": "https://dc.lft.to/lastmile_qr_scan", "android": "https://dc.lft.to/lastmile_qr_scan"}}, {"is_disabled": 0, "fusion_lat": 0.0, "lat": 38.903528666666666, "type": "electric_scooter", "lon": -77.06584283333333, "is_reserved": 0, "fusion_lon": 0.0, "bike_id": "65cdf0477f1a4b7af0ba2b319e175364", "name": "65cdf0477f1a4b7af0ba2b319e175364", "rental_uris": {"ios": "https://dc.lft.to/lastmile_qr_scan", "android": "https://dc.lft.to/lastmile_qr_scan"}}, {"is_disabled": 0, "fusion_lat": 0.0, "lat": 38.90914383333333, "type": "electric_scooter", "lon": -76.992631, "is_reserved": 0, "fusion_lon": 0.0, "bike_id": "e2e1f07d62cfd8203f9b11d96e31cd09", "name": "e2e1f07d62cfd8203f9b11d96e31cd09", "rental_uris": {"ios": "https://dc.lft.to/lastmile_qr_scan", "android": "https://dc.lft.to/lastmile_qr_scan"}}, {"is_disabled": 0, "fusion_lat": 0.0, "lat": 38.917806166666665, "type": "electric_scooter", "lon": -77.03427116666667, "is_reserved": 0, "fusion_lon": 0.0, "bike_id": "2c5c4293a10aface18475a5fffea92b5", "name": "2c5c4293a10aface18475a5fffea92b5", "rental_uris": {"ios": "https://dc.lft.to/lastmile_qr_scan", "android": "https://dc.lft.to/lastmile_qr_scan"}}, {"is_disabled": 0, "fusion_lat": 0.0, "lat": 38.917265, "type": "electric_scooter", "lon": -77.03665833333334, "is_reserved": 0, "fusion_lon": 0.0, "bike_id": "bde8073af490d6223f063d8502c77a74", "name": "bde8073af490d6223f063d8502c77a74", "rental_uris": {"ios": "https://dc.lft.to/lastmile_qr_scan", "android": "https://dc.lft.to/lastmile_qr_scan"}}, {"is_disabled": 0, "fusion_lat": 0.0, "lat": 38.9172795, "type": "electric_scooter", "lon": -77.03662966666667, "is_reserved": 0, "fusion_lon": 0.0, "bike_id": "e1bb0f77bafe734c599fb23210d55fb1", "name": "e1bb0f77bafe734c599fb23210d55fb1", "rental_uris": {"ios": "https://dc.lft.to/lastmile_qr_scan", "android": "https://dc.lft.to/lastmile_qr_scan"}}, {"is_disabled": 0, "fusion_lat": 0.0, "lat": 38.90837483333333, "type": "electric_scooter", "lon": -77.0329815, "is_reserved": 0, "fusion_lon": 0.0, "bike_id": "b4cf3fd5dbec8f9dbd1cb25539d3cb5a", "name": "b4cf3fd5dbec8f9dbd1cb25539d3cb5a", "rental_uris": {"ios": "https://dc.lft.to/lastmile_qr_scan", "android": "https://dc.lft.to/lastmile_qr_scan"}}, {"is_disabled": 0, "fusion_lat": 0.0, "lat": 38.92694566666667, "type": "electric_scooter", "lon": -77.01491, "is_reserved": 0, "fusion_lon": 0.0, "bike_id": "fb2bc76b1252245c25bb744123ac1bbe", "name": "fb2bc76b1252245c25bb744123ac1bbe", "rental_uris": {"ios": "https://dc.lft.to/lastmile_qr_scan", "android": "https://dc.lft.to/lastmile_qr_scan"}}, {"is_disabled": 0, "fusion_lat": 0.0, "lat": 38.89882466666667, "type": "electric_scooter", "lon": -76.93174366666666, "is_reserved": 0, "fusion_lon": 0.0, "bike_id": "3aae27f1f4a6b6fc9137716b87203266", "name": "3aae27f1f4a6b6fc9137716b87203266", "rental_uris": {"ios": "https://dc.lft.to/lastmile_qr_scan", "android": "https://dc.lft.to/lastmile_qr_scan"}}, {"is_disabled": 0, "fusion_lat": 0.0, "lat": 38.92743466666667, "type": "electric_scooter", "lon": -77.02538683333333, "is_reserved": 0, "fusion_lon": 0.0, "bike_id": "92900e655a3c274ec142a76da8f8f6b1", "name": "92900e655a3c274ec142a76da8f8f6b1", "rental_uris": {"ios": "https://dc.lft.to/lastmile_qr_scan", "android": "https://dc.lft.to/lastmile_qr_scan"}}, {"is_disabled": 0, "fusion_lat": 0.0, "lat": 38.90352133333333, "type": "electric_scooter", "lon": -77.04480266666667, "is_reserved": 0, "fusion_lon": 0.0, "bike_id": "91b9cf284be4a180f7ff3c484e7956b1", "name": "91b9cf284be4a180f7ff3c484e7956b1", "rental_uris": {"ios": "https://dc.lft.to/lastmile_qr_scan", "android": "https://dc.lft.to/lastmile_qr_scan"}}, {"is_disabled": 0, "fusion_lat": 0.0, "lat": 38.906111, "type": "electric_scooter", "lon": -77.05903016666667, "is_reserved": 0, "fusion_lon": 0.0, "bike_id": "eb8f871924fcf935761116ff12aa8c24", "name": "eb8f871924fcf935761116ff12aa8c24", "rental_uris": {"ios": "https://dc.lft.to/lastmile_qr_scan", "android": "https://dc.lft.to/lastmile_qr_scan"}}, {"is_disabled": 0, "fusion_lat": 0.0, "lat": 38.900921333333336, "type": "electric_scooter", "lon": -77.04373383333333, "is_reserved": 0, "fusion_lon": 0.0, "bike_id": "eb2dc0bfdb15ec53900a9b713ed8039f", "name": "eb2dc0bfdb15ec53900a9b713ed8039f", "rental_uris": {"ios": "https://dc.lft.to/lastmile_qr_scan", "android": "https://dc.lft.to/lastmile_qr_scan"}}, {"is_disabled": 0, "fusion_lat": 0.0, "lat": 38.905148833333335, "type": "electric_scooter", "lon": -77.06868166666666, "is_reserved": 0, "fusion_lon": 0.0, "bike_id": "a36ae792da9cf26bbca1907182821361", "name": "a36ae792da9cf26bbca1907182821361", "rental_uris": {"ios": "https://dc.lft.to/lastmile_qr_scan", "android": "https://dc.lft.to/lastmile_qr_scan"}}, {"is_disabled": 0, "fusion_lat": 0.0, "lat": 38.89822783333334, "type": "electric_scooter", "lon": -77.033399, "is_reserved": 0, "fusion_lon": 0.0, "bike_id": "11edd666348716644f1598b4627c8c34", "name": "11edd666348716644f1598b4627c8c34", "rental_uris": {"ios": "https://dc.lft.to/lastmile_qr_scan", "android": "https://dc.lft.to/lastmile_qr_scan"}}, {"is_disabled": 0, "fusion_lat": 0.0, "lat": 38.91244866666667, "type": "electric_scooter", "lon": -77.0162105, "is_reserved": 0, "fusion_lon": 0.0, "bike_id": "65e4e27c783a20111e86e23c4ea664e0", "name": "65e4e27c783a20111e86e23c4ea664e0", "rental_uris": {"ios": "https://dc.lft.to/lastmile_qr_scan", "android": "https://dc.lft.to/lastmile_qr_scan"}}, {"is_disabled": 0, "fusion_lat": 0.0, "lat": 38.927602, "type": "electric_scooter", "lon": -77.00592533333334, "is_reserved": 0, "fusion_lon": 0.0, "bike_id": "4fa01cd6ecb7c6f433ccd3687d86200f", "name": "4fa01cd6ecb7c6f433ccd3687d86200f", "rental_uris": {"ios": "https://dc.lft.to/lastmile_qr_scan", "android": "https://dc.lft.to/lastmile_qr_scan"}}, {"is_disabled": 0, "fusion_lat": 0.0, "lat": 38.93323383333333, "type": "electric_scooter", "lon": -77.02933866666666, "is_reserved": 0, "fusion_lon": 0.0, "bike_id": "9558a6d3300e51ce693d5fbd7bb9d7db", "name": "9558a6d3300e51ce693d5fbd7bb9d7db", "rental_uris": {"ios": "https://dc.lft.to/lastmile_qr_scan", "android": "https://dc.lft.to/lastmile_qr_scan"}}, {"is_disabled": 0, "fusion_lat": 0.0, "lat": 38.907329833333336, "type": "electric_scooter", "lon": -77.02330416666666, "is_reserved": 0, "fusion_lon": 0.0, "bike_id": "91a1e4ebce6836c3711bd94ed262ae96", "name": "91a1e4ebce6836c3711bd94ed262ae96", "rental_uris": {"ios": "https://dc.lft.to/lastmile_qr_scan", "android": "https://dc.lft.to/lastmile_qr_scan"}}, {"is_disabled": 0, "fusion_lat": 0.0, "lat": 38.90594433333333, "type": "electric_scooter", "lon": -77.03980733333333, "is_reserved": 0, "fusion_lon": 0.0, "bike_id": "25c6a5a7360b8871a31543919ef0f9c0", "name": "25c6a5a7360b8871a31543919ef0f9c0", "rental_uris": {"ios": "https://dc.lft.to/lastmile_qr_scan", "android": "https://dc.lft.to/lastmile_qr_scan"}}, {"is_disabled": 0, "fusion_lat": 0.0, "lat": 38.92480616666667, "type": "electric_scooter", "lon": -77.02721266666667, "is_reserved": 0, "fusion_lon": 0.0, "bike_id": "8ebd11d1c2a438e2b98d1a6221227bea", "name": "8ebd11d1c2a438e2b98d1a6221227bea", "rental_uris": {"ios": "https://dc.lft.to/lastmile_qr_scan", "android": "https://dc.lft.to/lastmile_qr_scan"}}, {"is_disabled": 0, "fusion_lat": 0.0, "lat": 38.9198005, "type": "electric_scooter", "lon": -77.04173466666667, "is_reserved": 0, "fusion_lon": 0.0, "bike_id": "fa8ab44ff5806087441998d6d51ee3d6", "name": "fa8ab44ff5806087441998d6d51ee3d6", "rental_uris": {"ios": "https://dc.lft.to/lastmile_qr_scan", "android": "https://dc.lft.to/lastmile_qr_scan"}}, {"is_disabled": 0, "fusion_lat": 0.0, "lat": 38.8972035, "type": "electric_scooter", "lon": -77.03120266666667, "is_reserved": 0, "fusion_lon": 0.0, "bike_id": "4343f8e92d8df0b99415c50d683916f6", "name": "4343f8e92d8df0b99415c50d683916f6", "rental_uris": {"ios": "https://dc.lft.to/lastmile_qr_scan", "android": "https://dc.lft.to/lastmile_qr_scan"}}, {"is_disabled": 0, "fusion_lat": 0.0, "lat": 38.92474133333333, "type": "electric_scooter", "lon": -77.0255425, "is_reserved": 0, "fusion_lon": 0.0, "bike_id": "dfefba921ed4a471989623c8ba711b24", "name": "dfefba921ed4a471989623c8ba711b24", "rental_uris": {"ios": "https://dc.lft.to/lastmile_qr_scan", "android": "https://dc.lft.to/lastmile_qr_scan"}}, {"is_disabled": 0, "fusion_lat": 0.0, "lat": 38.87844333333334, "type": "electric_scooter", "lon": -77.02270583333333, "is_reserved": 0, "fusion_lon": 0.0, "bike_id": "041b752107e994916b8a089d79aca967", "name": "041b752107e994916b8a089d79aca967", "rental_uris": {"ios": "https://dc.lft.to/lastmile_qr_scan", "android": "https://dc.lft.to/lastmile_qr_scan"}}, {"is_disabled": 0, "fusion_lat": 0.0, "lat": 38.91549783333333, "type": "electric_scooter", "lon": -77.0417245, "is_reserved": 0, "fusion_lon": 0.0, "bike_id": "9dc483950285756bb4629d788250b1c4", "name": "9dc483950285756bb4629d788250b1c4", "rental_uris": {"ios": "https://dc.lft.to/lastmile_qr_scan", "android": "https://dc.lft.to/lastmile_qr_scan"}}, {"is_disabled": 0, "fusion_lat": 0.0, "lat": 38.95732666666667, "type": "electric_scooter", "lon": -77.023904, "is_reserved": 0, "fusion_lon": 0.0, "bike_id": "956bfc162f91768b8510631e7ab4b36d", "name": "956bfc162f91768b8510631e7ab4b36d", "rental_uris": {"ios": "https://dc.lft.to/lastmile_qr_scan", "android": "https://dc.lft.to/lastmile_qr_scan"}}, {"is_disabled": 0, "fusion_lat": 0.0, "lat": 38.90057, "type": "electric_scooter", "lon": -77.01710883333334, "is_reserved": 0, "fusion_lon": 0.0, "bike_id": "5fd27c08013f21bc91cb60f27603c613", "name": "5fd27c08013f21bc91cb60f27603c613", "rental_uris": {"ios": "https://dc.lft.to/lastmile_qr_scan", "android": "https://dc.lft.to/lastmile_qr_scan"}}, {"is_disabled": 0, "fusion_lat": 0.0, "lat": 38.898345, "type": "electric_scooter", "lon": -77.03333966666666, "is_reserved": 0, "fusion_lon": 0.0, "bike_id": "932c3464d49001480cd7b3f141a63547", "name": "932c3464d49001480cd7b3f141a63547", "rental_uris": {"ios": "https://dc.lft.to/lastmile_qr_scan", "android": "https://dc.lft.to/lastmile_qr_scan"}}, {"is_disabled": 0, "fusion_lat": 0.0, "lat": 38.885906, "type": "electric_scooter", "lon": -77.00065933333333, "is_reserved": 0, "fusion_lon": 0.0, "bike_id": "c36d0bf76182bd48142c81174510220d", "name": "c36d0bf76182bd48142c81174510220d", "rental_uris": {"ios": "https://dc.lft.to/lastmile_qr_scan", "android": "https://dc.lft.to/lastmile_qr_scan"}}, {"is_disabled": 0, "fusion_lat": 0.0, "lat": 38.921724166666664, "type": "electric_scooter", "lon": -76.99465766666667, "is_reserved": 0, "fusion_lon": 0.0, "bike_id": "d54a0c089e88b8563991e768b190138c", "name": "d54a0c089e88b8563991e768b190138c", "rental_uris": {"ios": "https://dc.lft.to/lastmile_qr_scan", "android": "https://dc.lft.to/lastmile_qr_scan"}}, {"is_disabled": 0, "fusion_lat": 0.0, "lat": 38.912532, "type": "electric_scooter", "lon": -77.04235383333334, "is_reserved": 0, "fusion_lon": 0.0, "bike_id": "da249d898a0fddde4ff6e3a58f5fb20b", "name": "da249d898a0fddde4ff6e3a58f5fb20b", "rental_uris": {"ios": "https://dc.lft.to/lastmile_qr_scan", "android": "https://dc.lft.to/lastmile_qr_scan"}}, {"is_disabled": 0, "fusion_lat": 0.0, "lat": 38.913852166666665, "type": "electric_scooter", "lon": -77.0170235, "is_reserved": 0, "fusion_lon": 0.0, "bike_id": "f65124dc5078d85d5ffe0551daebb21e", "name": "f65124dc5078d85d5ffe0551daebb21e", "rental_uris": {"ios": "https://dc.lft.to/lastmile_qr_scan", "android": "https://dc.lft.to/lastmile_qr_scan"}}, {"is_disabled": 0, "fusion_lat": 0.0, "lat": 38.918036666666666, "type": "electric_scooter", "lon": -77.03729766666666, "is_reserved": 0, "fusion_lon": 0.0, "bike_id": "cbd9ba6dac1228364e42e5a8af381b03", "name": "cbd9ba6dac1228364e42e5a8af381b03", "rental_uris": {"ios": "https://dc.lft.to/lastmile_qr_scan", "android": "https://dc.lft.to/lastmile_qr_scan"}}, {"is_disabled": 0, "fusion_lat": 0.0, "lat": 38.9004625, "type": "electric_bike", "lon": -77.045179, "is_reserved": 0, "fusion_lon": 0.0, "bike_id": "20bf6774325f1539fd56f8a4b2dda872", "name": "20bf6774325f1539fd56f8a4b2dda872", "rental_uris": {"ios": "https://dc.lft.to/lastmile_qr_scan", "android": "https://dc.lft.to/lastmile_qr_scan"}}, {"is_disabled": 0, "fusion_lat": 0.0, "lat": 38.93515766666667, "type": "electric_scooter", "lon": -77.02397983333333, "is_reserved": 0, "fusion_lon": 0.0, "bike_id": "6a6e11731841bee67ed343b8a8666b09", "name": "6a6e11731841bee67ed343b8a8666b09", "rental_uris": {"ios": "https://dc.lft.to/lastmile_qr_scan", "android": "https://dc.lft.to/lastmile_qr_scan"}}, {"is_disabled": 0, "fusion_lat": 0.0, "lat": 38.90271283333333, "type": "electric_scooter", "lon": -77.034387, "is_reserved": 0, "fusion_lon": 0.0, "bike_id": "9706f83b36e9f9b816e0c18e21b3c97a", "name": "9706f83b36e9f9b816e0c18e21b3c97a", "rental_uris": {"ios": "https://dc.lft.to/lastmile_qr_scan", "android": "https://dc.lft.to/lastmile_qr_scan"}}, {"is_disabled": 0, "fusion_lat": 0.0, "lat": 38.905085, "type": "electric_scooter", "lon": -77.06656466666666, "is_reserved": 0, "fusion_lon": 0.0, "bike_id": "eef4be905707645b4639afa7fd6d3aa2", "name": "eef4be905707645b4639afa7fd6d3aa2", "rental_uris": {"ios": "https://dc.lft.to/lastmile_qr_scan", "android": "https://dc.lft.to/lastmile_qr_scan"}}, {"is_disabled": 0, "fusion_lat": 0.0, "lat": 38.87487683333333, "type": "electric_scooter", "lon": -77.00119016666666, "is_reserved": 0, "fusion_lon": 0.0, "bike_id": "2e299b2369f6efe3bd36c42d51ec98c2", "name": "2e299b2369f6efe3bd36c42d51ec98c2", "rental_uris": {"ios": "https://dc.lft.to/lastmile_qr_scan", "android": "https://dc.lft.to/lastmile_qr_scan"}}, {"is_disabled": 0, "fusion_lat": 0.0, "lat": 38.9563625, "type": "electric_scooter", "lon": -77.0330405, "is_reserved": 0, "fusion_lon": 0.0, "bike_id": "0ba80b5de6e3670ab3b6cfd96e3c2605", "name": "0ba80b5de6e3670ab3b6cfd96e3c2605", "rental_uris": {"ios": "https://dc.lft.to/lastmile_qr_scan", "android": "https://dc.lft.to/lastmile_qr_scan"}}, {"is_disabled": 0, "fusion_lat": 0.0, "lat": 38.8719585, "type": "electric_scooter", "lon": -77.0060705, "is_reserved": 0, "fusion_lon": 0.0, "bike_id": "179aaa7000dd0841c16cfca23d9be02a", "name": "179aaa7000dd0841c16cfca23d9be02a", "rental_uris": {"ios": "https://dc.lft.to/lastmile_qr_scan", "android": "https://dc.lft.to/lastmile_qr_scan"}}, {"is_disabled": 0, "fusion_lat": 0.0, "lat": 38.892222, "type": "electric_scooter", "lon": -77.04646983333333, "is_reserved": 0, "fusion_lon": 0.0, "bike_id": "ea1d8efcac034efd1220d15407936ab5", "name": "ea1d8efcac034efd1220d15407936ab5", "rental_uris": {"ios": "https://dc.lft.to/lastmile_qr_scan", "android": "https://dc.lft.to/lastmile_qr_scan"}}, {"is_disabled": 0, "fusion_lat": 0.0, "lat": 38.90074166666667, "type": "electric_scooter", "lon": -77.0503375, "is_reserved": 0, "fusion_lon": 0.0, "bike_id": "75b8e68448d50b28ad9df279b295f5ad", "name": "75b8e68448d50b28ad9df279b295f5ad", "rental_uris": {"ios": "https://dc.lft.to/lastmile_qr_scan", "android": "https://dc.lft.to/lastmile_qr_scan"}}, {"is_disabled": 0, "fusion_lat": 0.0, "lat": 38.90507316666667, "type": "electric_scooter", "lon": -77.05912983333333, "is_reserved": 0, "fusion_lon": 0.0, "bike_id": "b79f5bc4413051eb6d929b88cb02161c", "name": "b79f5bc4413051eb6d929b88cb02161c", "rental_uris": {"ios": "https://dc.lft.to/lastmile_qr_scan", "android": "https://dc.lft.to/lastmile_qr_scan"}}, {"is_disabled": 0, "fusion_lat": 0.0, "lat": 38.918248, "type": "electric_scooter", "lon": -77.03840366666667, "is_reserved": 0, "fusion_lon": 0.0, "bike_id": "9cc586344f7adec4d0cc3d724fcd0baf", "name": "9cc586344f7adec4d0cc3d724fcd0baf", "rental_uris": {"ios": "https://dc.lft.to/lastmile_qr_scan", "android": "https://dc.lft.to/lastmile_qr_scan"}}, {"is_disabled": 0, "fusion_lat": 0.0, "lat": 38.909551, "type": "electric_scooter", "lon": -77.046457, "is_reserved": 0, "fusion_lon": 0.0, "bike_id": "5babfbb3df90332d481eba4a0f02765e", "name": "5babfbb3df90332d481eba4a0f02765e", "rental_uris": {"ios": "https://dc.lft.to/lastmile_qr_scan", "android": "https://dc.lft.to/lastmile_qr_scan"}}, {"is_disabled": 0, "fusion_lat": 0.0, "lat": 38.904898, "type": "electric_scooter", "lon": -77.06788966666667, "is_reserved": 0, "fusion_lon": 0.0, "bike_id": "17e7abeb66e32a86e87055f8b772d7c3", "name": "17e7abeb66e32a86e87055f8b772d7c3", "rental_uris": {"ios": "https://dc.lft.to/lastmile_qr_scan", "android": "https://dc.lft.to/lastmile_qr_scan"}}, {"is_disabled": 0, "fusion_lat": 0.0, "lat": 38.90537416666667, "type": "electric_scooter", "lon": -77.04563316666666, "is_reserved": 0, "fusion_lon": 0.0, "bike_id": "474bdce95e62aea0e754276d4f70729e", "name": "474bdce95e62aea0e754276d4f70729e", "rental_uris": {"ios": "https://dc.lft.to/lastmile_qr_scan", "android": "https://dc.lft.to/lastmile_qr_scan"}}, {"is_disabled": 0, "fusion_lat": 0.0, "lat": 38.90268416666667, "type": "electric_scooter", "lon": -77.049101, "is_reserved": 0, "fusion_lon": 0.0, "bike_id": "e324d152fd7b44d1c3d0271fcdea58e3", "name": "e324d152fd7b44d1c3d0271fcdea58e3", "rental_uris": {"ios": "https://dc.lft.to/lastmile_qr_scan", "android": "https://dc.lft.to/lastmile_qr_scan"}}, {"is_disabled": 0, "fusion_lat": 0.0, "lat": 38.910526833333336, "type": "electric_scooter", "lon": -77.01523, "is_reserved": 0, "fusion_lon": 0.0, "bike_id": "428465e744a47d1cbd48f93113e7cbdb", "name": "428465e744a47d1cbd48f93113e7cbdb", "rental_uris": {"ios": "https://dc.lft.to/lastmile_qr_scan", "android": "https://dc.lft.to/lastmile_qr_scan"}}, {"is_disabled": 0, "fusion_lat": 0.0, "lat": 38.933577666666665, "type": "electric_scooter", "lon": -77.05723933333333, "is_reserved": 0, "fusion_lon": 0.0, "bike_id": "07b0c994da2999f3f3136eb7160bb0ca", "name": "07b0c994da2999f3f3136eb7160bb0ca", "rental_uris": {"ios": "https://dc.lft.to/lastmile_qr_scan", "android": "https://dc.lft.to/lastmile_qr_scan"}}, {"is_disabled": 0, "fusion_lat": 0.0, "lat": 38.885077, "type": "electric_scooter", "lon": -77.01585483333334, "is_reserved": 0, "fusion_lon": 0.0, "bike_id": "6f583cc2d9ded903a431fcbce0883ccb", "name": "6f583cc2d9ded903a431fcbce0883ccb", "rental_uris": {"ios": "https://dc.lft.to/lastmile_qr_scan", "android": "https://dc.lft.to/lastmile_qr_scan"}}, {"is_disabled": 0, "fusion_lat": 0.0, "lat": 38.90211166666667, "type": "electric_scooter", "lon": -76.94591883333334, "is_reserved": 0, "fusion_lon": 0.0, "bike_id": "4be810416b68896a7fc39004be62babd", "name": "4be810416b68896a7fc39004be62babd", "rental_uris": {"ios": "https://dc.lft.to/lastmile_qr_scan", "android": "https://dc.lft.to/lastmile_qr_scan"}}, {"is_disabled": 0, "fusion_lat": 0.0, "lat": 38.909684, "type": "electric_scooter", "lon": -77.03582583333333, "is_reserved": 0, "fusion_lon": 0.0, "bike_id": "753dba0f9ae2df563754d27ff1c53561", "name": "753dba0f9ae2df563754d27ff1c53561", "rental_uris": {"ios": "https://dc.lft.to/lastmile_qr_scan", "android": "https://dc.lft.to/lastmile_qr_scan"}}, {"is_disabled": 0, "fusion_lat": 0.0, "lat": 38.91829216666667, "type": "electric_scooter", "lon": -77.03640166666666, "is_reserved": 0, "fusion_lon": 0.0, "bike_id": "d4b919845d097d6deb3e4c2c9aeb0bc3", "name": "d4b919845d097d6deb3e4c2c9aeb0bc3", "rental_uris": {"ios": "https://dc.lft.to/lastmile_qr_scan", "android": "https://dc.lft.to/lastmile_qr_scan"}}, {"is_disabled": 0, "fusion_lat": 0.0, "lat": 38.949391166666665, "type": "electric_scooter", "lon": -77.01616683333333, "is_reserved": 0, "fusion_lon": 0.0, "bike_id": "65ecb28333583a73ad282b5b68b24fb3", "name": "65ecb28333583a73ad282b5b68b24fb3", "rental_uris": {"ios": "https://dc.lft.to/lastmile_qr_scan", "android": "https://dc.lft.to/lastmile_qr_scan"}}, {"is_disabled": 0, "fusion_lat": 0.0, "lat": 38.9157335, "type": "electric_scooter", "lon": -77.04682766666667, "is_reserved": 0, "fusion_lon": 0.0, "bike_id": "a8f5715aceb1967e1ff049335f6f06ae", "name": "a8f5715aceb1967e1ff049335f6f06ae", "rental_uris": {"ios": "https://dc.lft.to/lastmile_qr_scan", "android": "https://dc.lft.to/lastmile_qr_scan"}}, {"is_disabled": 0, "fusion_lat": 0.0, "lat": 38.958808833333336, "type": "electric_bike", "lon": -77.0104025, "is_reserved": 0, "fusion_lon": 0.0, "bike_id": "28f4e14cd37145c378305bb445cad924", "name": "28f4e14cd37145c378305bb445cad924", "rental_uris": {"ios": "https://dc.lft.to/lastmile_qr_scan", "android": "https://dc.lft.to/lastmile_qr_scan"}}, {"is_disabled": 0, "fusion_lat": 0.0, "lat": 38.8609395, "type": "electric_scooter", "lon": -76.98375516666667, "is_reserved": 0, "fusion_lon": 0.0, "bike_id": "9b6cc455d3ad003a66665bdafc065510", "name": "9b6cc455d3ad003a66665bdafc065510", "rental_uris": {"ios": "https://dc.lft.to/lastmile_qr_scan", "android": "https://dc.lft.to/lastmile_qr_scan"}}, {"is_disabled": 0, "fusion_lat": 0.0, "lat": 38.92907483333333, "type": "electric_scooter", "lon": -77.03276133333334, "is_reserved": 0, "fusion_lon": 0.0, "bike_id": "3634145a12e1c1f05a5d26e44bb97af0", "name": "3634145a12e1c1f05a5d26e44bb97af0", "rental_uris": {"ios": "https://dc.lft.to/lastmile_qr_scan", "android": "https://dc.lft.to/lastmile_qr_scan"}}, {"is_disabled": 0, "fusion_lat": 0.0, "lat": 38.961717166666666, "type": "electric_bike", "lon": -76.9959015, "is_reserved": 0, "fusion_lon": 0.0, "bike_id": "e3931445953dcfab3ce88d82a5831d87", "name": "e3931445953dcfab3ce88d82a5831d87", "rental_uris": {"ios": "https://dc.lft.to/lastmile_qr_scan", "android": "https://dc.lft.to/lastmile_qr_scan"}}, {"is_disabled": 0, "fusion_lat": 0.0, "lat": 38.92472683333333, "type": "electric_scooter", "lon": -77.03913083333333, "is_reserved": 0, "fusion_lon": 0.0, "bike_id": "49a9c70b7069e7dc23d22b4284a5b5b8", "name": "49a9c70b7069e7dc23d22b4284a5b5b8", "rental_uris": {"ios": "https://dc.lft.to/lastmile_qr_scan", "android": "https://dc.lft.to/lastmile_qr_scan"}}, {"is_disabled": 0, "fusion_lat": 0.0, "lat": 38.924230333333334, "type": "electric_bike", "lon": -77.04574766666667, "is_reserved": 0, "fusion_lon": 0.0, "bike_id": "ecc556763c1c95ab432abce53f93d13b", "name": "ecc556763c1c95ab432abce53f93d13b", "rental_uris": {"ios": "https://dc.lft.to/lastmile_qr_scan", "android": "https://dc.lft.to/lastmile_qr_scan"}}, {"is_disabled": 0, "fusion_lat": 0.0, "lat": 38.91960516666666, "type": "electric_bike", "lon": -76.9726715, "is_reserved": 0, "fusion_lon": 0.0, "bike_id": "d8b84cf126e3e6ce5df8d68f67453b78", "name": "d8b84cf126e3e6ce5df8d68f67453b78", "rental_uris": {"ios": "https://dc.lft.to/lastmile_qr_scan", "android": "https://dc.lft.to/lastmile_qr_scan"}}, {"is_disabled": 0, "fusion_lat": 0.0, "lat": 38.896249, "type": "electric_scooter", "lon": -77.009179, "is_reserved": 0, "fusion_lon": 0.0, "bike_id": "356c3f54b7b3f9447bc6f4b36d269ceb", "name": "356c3f54b7b3f9447bc6f4b36d269ceb", "rental_uris": {"ios": "https://dc.lft.to/lastmile_qr_scan", "android": "https://dc.lft.to/lastmile_qr_scan"}}, {"is_disabled": 0, "fusion_lat": 0.0, "lat": 38.896144166666666, "type": "electric_scooter", "lon": -77.04503716666666, "is_reserved": 0, "fusion_lon": 0.0, "bike_id": "c15487b7d510cf14c45a93849ffa16db", "name": "c15487b7d510cf14c45a93849ffa16db", "rental_uris": {"ios": "https://dc.lft.to/lastmile_qr_scan", "android": "https://dc.lft.to/lastmile_qr_scan"}}, {"is_disabled": 0, "fusion_lat": 0.0, "lat": 38.941830833333334, "type": "electric_scooter", "lon": -77.02489883333334, "is_reserved": 0, "fusion_lon": 0.0, "bike_id": "7649b7a68c2e7f95bc84ab42a522395d", "name": "7649b7a68c2e7f95bc84ab42a522395d", "rental_uris": {"ios": "https://dc.lft.to/lastmile_qr_scan", "android": "https://dc.lft.to/lastmile_qr_scan"}}, {"is_disabled": 0, "fusion_lat": 0.0, "lat": 38.90573233333333, "type": "electric_scooter", "lon": -77.02214683333334, "is_reserved": 0, "fusion_lon": 0.0, "bike_id": "ee23b2eb185ff4122557ac30a0ca9a32", "name": "ee23b2eb185ff4122557ac30a0ca9a32", "rental_uris": {"ios": "https://dc.lft.to/lastmile_qr_scan", "android": "https://dc.lft.to/lastmile_qr_scan"}}, {"is_disabled": 0, "fusion_lat": 0.0, "lat": 38.8661375, "type": "electric_scooter", "lon": -76.9867005, "is_reserved": 0, "fusion_lon": 0.0, "bike_id": "dcfac41258fdd3852896e3eaa1bf9c7c", "name": "dcfac41258fdd3852896e3eaa1bf9c7c", "rental_uris": {"ios": "https://dc.lft.to/lastmile_qr_scan", "android": "https://dc.lft.to/lastmile_qr_scan"}}, {"is_disabled": 0, "fusion_lat": 0.0, "lat": 38.9354085, "type": "electric_scooter", "lon": -77.07275616666666, "is_reserved": 0, "fusion_lon": 0.0, "bike_id": "b12cbfaf8aafc7ba3ae3a83bd0f72deb", "name": "b12cbfaf8aafc7ba3ae3a83bd0f72deb", "rental_uris": {"ios": "https://dc.lft.to/lastmile_qr_scan", "android": "https://dc.lft.to/lastmile_qr_scan"}}, {"is_disabled": 0, "fusion_lat": 0.0, "lat": 38.845929, "type": "electric_bike", "lon": -77.0767635, "is_reserved": 0, "fusion_lon": 0.0, "bike_id": "fe03bae596e1cd26423a28532de8caf3", "name": "fe03bae596e1cd26423a28532de8caf3", "rental_uris": {"ios": "https://dc.lft.to/lastmile_qr_scan", "android": "https://dc.lft.to/lastmile_qr_scan"}}, {"is_disabled": 0, "fusion_lat": 0.0, "lat": 38.9066565, "type": "electric_scooter", "lon": -77.027133, "is_reserved": 0, "fusion_lon": 0.0, "bike_id": "ea883ef5ebd75d79d26d6d69f460ebfb", "name": "ea883ef5ebd75d79d26d6d69f460ebfb", "rental_uris": {"ios": "https://dc.lft.to/lastmile_qr_scan", "android": "https://dc.lft.to/lastmile_qr_scan"}}, {"is_disabled": 0, "fusion_lat": 0.0, "lat": 38.919192, "type": "electric_scooter", "lon": -77.03422333333333, "is_reserved": 0, "fusion_lon": 0.0, "bike_id": "7dcbc04cafaf90b461574fb55290d04f", "name": "7dcbc04cafaf90b461574fb55290d04f", "rental_uris": {"ios": "https://dc.lft.to/lastmile_qr_scan", "android": "https://dc.lft.to/lastmile_qr_scan"}}, {"is_disabled": 0, "fusion_lat": 0.0, "lat": 38.935339166666665, "type": "electric_scooter", "lon": -77.02349716666667, "is_reserved": 0, "fusion_lon": 0.0, "bike_id": "e07b51e456e9d2e946a4ce90e4e76f18", "name": "e07b51e456e9d2e946a4ce90e4e76f18", "rental_uris": {"ios": "https://dc.lft.to/lastmile_qr_scan", "android": "https://dc.lft.to/lastmile_qr_scan"}}, {"is_disabled": 0, "fusion_lat": 0.0, "lat": 38.9376245, "type": "electric_scooter", "lon": -77.02114483333334, "is_reserved": 0, "fusion_lon": 0.0, "bike_id": "7171c79762ff0c0ee759901c95c6eb2d", "name": "7171c79762ff0c0ee759901c95c6eb2d", "rental_uris": {"ios": "https://dc.lft.to/lastmile_qr_scan", "android": "https://dc.lft.to/lastmile_qr_scan"}}, {"is_disabled": 0, "fusion_lat": 0.0, "lat": 38.919537, "type": "electric_scooter", "lon": -77.03193533333334, "is_reserved": 0, "fusion_lon": 0.0, "bike_id": "4b9d20e5a9b7edfec917c68bdeb8dc87", "name": "4b9d20e5a9b7edfec917c68bdeb8dc87", "rental_uris": {"ios": "https://dc.lft.to/lastmile_qr_scan", "android": "https://dc.lft.to/lastmile_qr_scan"}}, {"is_disabled": 0, "fusion_lat": 0.0, "lat": 38.908047833333335, "type": "electric_scooter", "lon": -77.044924, "is_reserved": 0, "fusion_lon": 0.0, "bike_id": "9ed8ad60b9f4913d0e943e5cffd1a213", "name": "9ed8ad60b9f4913d0e943e5cffd1a213", "rental_uris": {"ios": "https://dc.lft.to/lastmile_qr_scan", "android": "https://dc.lft.to/lastmile_qr_scan"}}, {"is_disabled": 0, "fusion_lat": 0.0, "lat": 38.92639466666667, "type": "electric_scooter", "lon": -77.01341416666666, "is_reserved": 0, "fusion_lon": 0.0, "bike_id": "9cd1cd78ed599b704782d61cf59c0308", "name": "9cd1cd78ed599b704782d61cf59c0308", "rental_uris": {"ios": "https://dc.lft.to/lastmile_qr_scan", "android": "https://dc.lft.to/lastmile_qr_scan"}}, {"is_disabled": 0, "fusion_lat": 0.0, "lat": 38.898973833333336, "type": "electric_scooter", "lon": -77.00734883333334, "is_reserved": 0, "fusion_lon": 0.0, "bike_id": "05382c5eed3dca2d91125b4a4f784e10", "name": "05382c5eed3dca2d91125b4a4f784e10", "rental_uris": {"ios": "https://dc.lft.to/lastmile_qr_scan", "android": "https://dc.lft.to/lastmile_qr_scan"}}, {"is_disabled": 0, "fusion_lat": 0.0, "lat": 38.926036833333335, "type": "electric_scooter", "lon": -77.05694466666667, "is_reserved": 0, "fusion_lon": 0.0, "bike_id": "f6ea73dca66a77b04f07d864e3be6941", "name": "f6ea73dca66a77b04f07d864e3be6941", "rental_uris": {"ios": "https://dc.lft.to/lastmile_qr_scan", "android": "https://dc.lft.to/lastmile_qr_scan"}}, {"is_disabled": 0, "fusion_lat": 0.0, "lat": 38.952643, "type": "electric_bike", "lon": -77.06981816666666, "is_reserved": 0, "fusion_lon": 0.0, "bike_id": "fa111e47050175df91a1dd6ea1292505", "name": "fa111e47050175df91a1dd6ea1292505", "rental_uris": {"ios": "https://dc.lft.to/lastmile_qr_scan", "android": "https://dc.lft.to/lastmile_qr_scan"}}, {"is_disabled": 0, "fusion_lat": 0.0, "lat": 38.8209385, "type": "electric_bike", "lon": -77.05366383333333, "is_reserved": 0, "fusion_lon": 0.0, "bike_id": "79ad4a527996587f4b15bb4bd66d227f", "name": "79ad4a527996587f4b15bb4bd66d227f", "rental_uris": {"ios": "https://dc.lft.to/lastmile_qr_scan", "android": "https://dc.lft.to/lastmile_qr_scan"}}, {"is_disabled": 0, "fusion_lat": 0.0, "lat": 38.918224333333335, "type": "electric_scooter", "lon": -77.0352585, "is_reserved": 0, "fusion_lon": 0.0, "bike_id": "462fa1c8bebff4d9c576f095fa4fff83", "name": "462fa1c8bebff4d9c576f095fa4fff83", "rental_uris": {"ios": "https://dc.lft.to/lastmile_qr_scan", "android": "https://dc.lft.to/lastmile_qr_scan"}}, {"is_disabled": 0, "fusion_lat": 0.0, "lat": 38.92318933333333, "type": "electric_scooter", "lon": -77.0389515, "is_reserved": 0, "fusion_lon": 0.0, "bike_id": "e83b525fea62f4512cd63ce7235e0320", "name": "e83b525fea62f4512cd63ce7235e0320", "rental_uris": {"ios": "https://dc.lft.to/lastmile_qr_scan", "android": "https://dc.lft.to/lastmile_qr_scan"}}, {"is_disabled": 0, "fusion_lat": 0.0, "lat": 38.95084033333333, "type": "electric_scooter", "lon": -77.02833616666666, "is_reserved": 0, "fusion_lon": 0.0, "bike_id": "67b8f3a728c8a0548137991199d91d1d", "name": "67b8f3a728c8a0548137991199d91d1d", "rental_uris": {"ios": "https://dc.lft.to/lastmile_qr_scan", "android": "https://dc.lft.to/lastmile_qr_scan"}}, {"is_disabled": 0, "fusion_lat": 0.0, "lat": 38.90972283333333, "type": "electric_scooter", "lon": -77.03868983333334, "is_reserved": 0, "fusion_lon": 0.0, "bike_id": "d5667d6c009ecaaa8bc1dddfdb168efe", "name": "d5667d6c009ecaaa8bc1dddfdb168efe", "rental_uris": {"ios": "https://dc.lft.to/lastmile_qr_scan", "android": "https://dc.lft.to/lastmile_qr_scan"}}, {"is_disabled": 0, "fusion_lat": 0.0, "lat": 38.94090166666667, "type": "electric_scooter", "lon": -77.02721633333333, "is_reserved": 0, "fusion_lon": 0.0, "bike_id": "afcab10d89384d7c372aa19df8bf6452", "name": "afcab10d89384d7c372aa19df8bf6452", "rental_uris": {"ios": "https://dc.lft.to/lastmile_qr_scan", "android": "https://dc.lft.to/lastmile_qr_scan"}}, {"is_disabled": 0, "fusion_lat": 0.0, "lat": 38.919639833333335, "type": "electric_scooter", "lon": -77.0320705, "is_reserved": 0, "fusion_lon": 0.0, "bike_id": "60131ea7f4efb1041a93929f07c9b4fa", "name": "60131ea7f4efb1041a93929f07c9b4fa", "rental_uris": {"ios": "https://dc.lft.to/lastmile_qr_scan", "android": "https://dc.lft.to/lastmile_qr_scan"}}, {"is_disabled": 0, "fusion_lat": 0.0, "lat": 38.92246566666667, "type": "electric_scooter", "lon": -77.03062833333334, "is_reserved": 0, "fusion_lon": 0.0, "bike_id": "a21cdac44dec145589c7d0e26a3eb1f8", "name": "a21cdac44dec145589c7d0e26a3eb1f8", "rental_uris": {"ios": "https://dc.lft.to/lastmile_qr_scan", "android": "https://dc.lft.to/lastmile_qr_scan"}}, {"is_disabled": 0, "fusion_lat": 0.0, "lat": 38.887073666666666, "type": "electric_scooter", "lon": -77.03212683333334, "is_reserved": 0, "fusion_lon": 0.0, "bike_id": "63a93db137dd02a8d2987577b0700a69", "name": "63a93db137dd02a8d2987577b0700a69", "rental_uris": {"ios": "https://dc.lft.to/lastmile_qr_scan", "android": "https://dc.lft.to/lastmile_qr_scan"}}, {"is_disabled": 0, "fusion_lat": 0.0, "lat": 38.88281466666667, "type": "electric_scooter", "lon": -77.04148866666667, "is_reserved": 0, "fusion_lon": 0.0, "bike_id": "f81b7fc27701a15bd1abc450a74bed6f", "name": "f81b7fc27701a15bd1abc450a74bed6f", "rental_uris": {"ios": "https://dc.lft.to/lastmile_qr_scan", "android": "https://dc.lft.to/lastmile_qr_scan"}}, {"is_disabled": 0, "fusion_lat": 0.0, "lat": 38.918763, "type": "electric_scooter", "lon": -76.9714355, "is_reserved": 0, "fusion_lon": 0.0, "bike_id": "8048ac84976ef82d7618b9d3d47973fc", "name": "8048ac84976ef82d7618b9d3d47973fc", "rental_uris": {"ios": "https://dc.lft.to/lastmile_qr_scan", "android": "https://dc.lft.to/lastmile_qr_scan"}}, {"is_disabled": 0, "fusion_lat": 0.0, "lat": 38.90267716666666, "type": "electric_scooter", "lon": -77.0383565, "is_reserved": 0, "fusion_lon": 0.0, "bike_id": "ca212dc818e41e2eadc350c549015832", "name": "ca212dc818e41e2eadc350c549015832", "rental_uris": {"ios": "https://dc.lft.to/lastmile_qr_scan", "android": "https://dc.lft.to/lastmile_qr_scan"}}, {"is_disabled": 0, "fusion_lat": 0.0, "lat": 38.946080333333335, "type": "electric_scooter", "lon": -77.0351255, "is_reserved": 0, "fusion_lon": 0.0, "bike_id": "559de2d05891c4d73a95b905f05eea82", "name": "559de2d05891c4d73a95b905f05eea82", "rental_uris": {"ios": "https://dc.lft.to/lastmile_qr_scan", "android": "https://dc.lft.to/lastmile_qr_scan"}}, {"is_disabled": 0, "fusion_lat": 0.0, "lat": 38.90853466666667, "type": "electric_scooter", "lon": -77.02454516666667, "is_reserved": 0, "fusion_lon": 0.0, "bike_id": "9a84de78e430d50cc469ee1c86c30918", "name": "9a84de78e430d50cc469ee1c86c30918", "rental_uris": {"ios": "https://dc.lft.to/lastmile_qr_scan", "android": "https://dc.lft.to/lastmile_qr_scan"}}, {"is_disabled": 0, "fusion_lat": 0.0, "lat": 38.8992645, "type": "electric_scooter", "lon": -77.05417483333333, "is_reserved": 0, "fusion_lon": 0.0, "bike_id": "628860b8e05955dc53793faa8638ebf4", "name": "628860b8e05955dc53793faa8638ebf4", "rental_uris": {"ios": "https://dc.lft.to/lastmile_qr_scan", "android": "https://dc.lft.to/lastmile_qr_scan"}}, {"is_disabled": 0, "fusion_lat": 0.0, "lat": 38.86363433333333, "type": "electric_scooter", "lon": -76.99045016666666, "is_reserved": 0, "fusion_lon": 0.0, "bike_id": "dacd6ced9ab4d665302429cef645e4d8", "name": "dacd6ced9ab4d665302429cef645e4d8", "rental_uris": {"ios": "https://dc.lft.to/lastmile_qr_scan", "android": "https://dc.lft.to/lastmile_qr_scan"}}, {"is_disabled": 0, "fusion_lat": 0.0, "lat": 38.9071315, "type": "electric_scooter", "lon": -77.02972316666667, "is_reserved": 0, "fusion_lon": 0.0, "bike_id": "a6175d4fb7628f01af5623611ea5632e", "name": "a6175d4fb7628f01af5623611ea5632e", "rental_uris": {"ios": "https://dc.lft.to/lastmile_qr_scan", "android": "https://dc.lft.to/lastmile_qr_scan"}}, {"is_disabled": 0, "fusion_lat": 0.0, "lat": 38.943295, "type": "electric_scooter", "lon": -77.073912, "is_reserved": 0, "fusion_lon": 0.0, "bike_id": "44f0485ce84ee30c2a1840a5fa04540a", "name": "44f0485ce84ee30c2a1840a5fa04540a", "rental_uris": {"ios": "https://dc.lft.to/lastmile_qr_scan", "android": "https://dc.lft.to/lastmile_qr_scan"}}, {"is_disabled": 0, "fusion_lat": 0.0, "lat": 38.87519866666667, "type": "electric_scooter", "lon": -77.002009, "is_reserved": 0, "fusion_lon": 0.0, "bike_id": "ad0ccc3caf756fe3b4905505e27a1709", "name": "ad0ccc3caf756fe3b4905505e27a1709", "rental_uris": {"ios": "https://dc.lft.to/lastmile_qr_scan", "android": "https://dc.lft.to/lastmile_qr_scan"}}, {"is_disabled": 0, "fusion_lat": 0.0, "lat": 38.926116, "type": "electric_scooter", "lon": -77.00555383333334, "is_reserved": 0, "fusion_lon": 0.0, "bike_id": "0e8e5bb89a13345e16153606c791de8c", "name": "0e8e5bb89a13345e16153606c791de8c", "rental_uris": {"ios": "https://dc.lft.to/lastmile_qr_scan", "android": "https://dc.lft.to/lastmile_qr_scan"}}, {"is_disabled": 0, "fusion_lat": 0.0, "lat": 38.96500666666667, "type": "electric_bike", "lon": -77.02826416666667, "is_reserved": 0, "fusion_lon": 0.0, "bike_id": "312eb43f91ab9a8ce89fd6f8d0312f2e", "name": "312eb43f91ab9a8ce89fd6f8d0312f2e", "rental_uris": {"ios": "https://dc.lft.to/lastmile_qr_scan", "android": "https://dc.lft.to/lastmile_qr_scan"}}, {"is_disabled": 0, "fusion_lat": 0.0, "lat": 38.951938, "type": "electric_bike", "lon": -76.96721066666667, "is_reserved": 0, "fusion_lon": 0.0, "bike_id": "91d00c6afa8566451a04133424c4f58a", "name": "91d00c6afa8566451a04133424c4f58a", "rental_uris": {"ios": "https://dc.lft.to/lastmile_qr_scan", "android": "https://dc.lft.to/lastmile_qr_scan"}}, {"is_disabled": 0, "fusion_lat": 0.0, "lat": 38.9034455, "type": "electric_scooter", "lon": -76.97564933333334, "is_reserved": 0, "fusion_lon": 0.0, "bike_id": "7827ff6671d9db05ee839bea2d6b1260", "name": "7827ff6671d9db05ee839bea2d6b1260", "rental_uris": {"ios": "https://dc.lft.to/lastmile_qr_scan", "android": "https://dc.lft.to/lastmile_qr_scan"}}, {"is_disabled": 0, "fusion_lat": 0.0, "lat": 38.913353666666666, "type": "electric_scooter", "lon": -77.03007816666667, "is_reserved": 0, "fusion_lon": 0.0, "bike_id": "63e356c5b63a0a29013f75ab4a8105c7", "name": "63e356c5b63a0a29013f75ab4a8105c7", "rental_uris": {"ios": "https://dc.lft.to/lastmile_qr_scan", "android": "https://dc.lft.to/lastmile_qr_scan"}}, {"is_disabled": 0, "fusion_lat": 0.0, "lat": 38.94165266666667, "type": "electric_scooter", "lon": -77.04138066666667, "is_reserved": 0, "fusion_lon": 0.0, "bike_id": "2f57f3ce99a2ced5b7c37345b25dae0a", "name": "2f57f3ce99a2ced5b7c37345b25dae0a", "rental_uris": {"ios": "https://dc.lft.to/lastmile_qr_scan", "android": "https://dc.lft.to/lastmile_qr_scan"}}, {"is_disabled": 0, "fusion_lat": 0.0, "lat": 38.90682783333333, "type": "electric_scooter", "lon": -77.0635575, "is_reserved": 0, "fusion_lon": 0.0, "bike_id": "36765b1e7f2f1dd53b2ad216633549be", "name": "36765b1e7f2f1dd53b2ad216633549be", "rental_uris": {"ios": "https://dc.lft.to/lastmile_qr_scan", "android": "https://dc.lft.to/lastmile_qr_scan"}}, {"is_disabled": 0, "fusion_lat": 0.0, "lat": 38.86387416666667, "type": "electric_bike", "lon": -76.98992333333334, "is_reserved": 0, "fusion_lon": 0.0, "bike_id": "5a095e09693dc92ea4a54e351d67754c", "name": "5a095e09693dc92ea4a54e351d67754c", "rental_uris": {"ios": "https://dc.lft.to/lastmile_qr_scan", "android": "https://dc.lft.to/lastmile_qr_scan"}}, {"is_disabled": 0, "fusion_lat": 0.0, "lat": 38.998177, "type": "electric_bike", "lon": -76.88368433333333, "is_reserved": 0, "fusion_lon": 0.0, "bike_id": "e540f8413fc39220558376efcc95b16b", "name": "e540f8413fc39220558376efcc95b16b", "rental_uris": {"ios": "https://dc.lft.to/lastmile_qr_scan", "android": "https://dc.lft.to/lastmile_qr_scan"}}, {"is_disabled": 0, "fusion_lat": 0.0, "lat": 38.9112855, "type": "electric_scooter", "lon": -77.0445725, "is_reserved": 0, "fusion_lon": 0.0, "bike_id": "3a2b31d28676337a175af2fe7606d7d6", "name": "3a2b31d28676337a175af2fe7606d7d6", "rental_uris": {"ios": "https://dc.lft.to/lastmile_qr_scan", "android": "https://dc.lft.to/lastmile_qr_scan"}}, {"is_disabled": 0, "fusion_lat": 0.0, "lat": 38.93310233333333, "type": "electric_scooter", "lon": -77.03286866666667, "is_reserved": 0, "fusion_lon": 0.0, "bike_id": "9381447d8d8a7b393dddc151ff2040fe", "name": "9381447d8d8a7b393dddc151ff2040fe", "rental_uris": {"ios": "https://dc.lft.to/lastmile_qr_scan", "android": "https://dc.lft.to/lastmile_qr_scan"}}, {"is_disabled": 0, "fusion_lat": 0.0, "lat": 38.90378233333333, "type": "electric_scooter", "lon": -77.01098433333334, "is_reserved": 0, "fusion_lon": 0.0, "bike_id": "d00b333e99e7c2fb81e2a0f293e1d630", "name": "d00b333e99e7c2fb81e2a0f293e1d630", "rental_uris": {"ios": "https://dc.lft.to/lastmile_qr_scan", "android": "https://dc.lft.to/lastmile_qr_scan"}}, {"is_disabled": 0, "fusion_lat": 0.0, "lat": 38.925576, "type": "electric_scooter", "lon": -77.052977, "is_reserved": 0, "fusion_lon": 0.0, "bike_id": "905f11d54196a65e22de6a757e3c1fc4", "name": "905f11d54196a65e22de6a757e3c1fc4", "rental_uris": {"ios": "https://dc.lft.to/lastmile_qr_scan", "android": "https://dc.lft.to/lastmile_qr_scan"}}, {"is_disabled": 0, "fusion_lat": 0.0, "lat": 38.83237466666667, "type": "electric_bike", "lon": -76.94625233333333, "is_reserved": 0, "fusion_lon": 0.0, "bike_id": "71e78fafd810ff6842440e6dc003492a", "name": "71e78fafd810ff6842440e6dc003492a", "rental_uris": {"ios": "https://dc.lft.to/lastmile_qr_scan", "android": "https://dc.lft.to/lastmile_qr_scan"}}, {"is_disabled": 0, "fusion_lat": 0.0, "lat": 38.92548516666667, "type": "electric_scooter", "lon": -77.03370533333333, "is_reserved": 0, "fusion_lon": 0.0, "bike_id": "1a6ca78f166aeb59d9baecdc4b347bda", "name": "1a6ca78f166aeb59d9baecdc4b347bda", "rental_uris": {"ios": "https://dc.lft.to/lastmile_qr_scan", "android": "https://dc.lft.to/lastmile_qr_scan"}}, {"is_disabled": 0, "fusion_lat": 0.0, "lat": 38.86457383333333, "type": "electric_scooter", "lon": -76.98246133333333, "is_reserved": 0, "fusion_lon": 0.0, "bike_id": "9935fb4e1a75d21803baa19f4747e4e7", "name": "9935fb4e1a75d21803baa19f4747e4e7", "rental_uris": {"ios": "https://dc.lft.to/lastmile_qr_scan", "android": "https://dc.lft.to/lastmile_qr_scan"}}, {"is_disabled": 0, "fusion_lat": 0.0, "lat": 38.924458333333334, "type": "electric_scooter", "lon": -77.02031366666667, "is_reserved": 0, "fusion_lon": 0.0, "bike_id": "edb30bada6787b6dfb5949eb62687000", "name": "edb30bada6787b6dfb5949eb62687000", "rental_uris": {"ios": "https://dc.lft.to/lastmile_qr_scan", "android": "https://dc.lft.to/lastmile_qr_scan"}}, {"is_disabled": 0, "fusion_lat": 0.0, "lat": 38.9273805, "type": "electric_scooter", "lon": -77.03559816666667, "is_reserved": 0, "fusion_lon": 0.0, "bike_id": "d45e91f7053c8f0d57f0ac186d6e1ed4", "name": "d45e91f7053c8f0d57f0ac186d6e1ed4", "rental_uris": {"ios": "https://dc.lft.to/lastmile_qr_scan", "android": "https://dc.lft.to/lastmile_qr_scan"}}, {"is_disabled": 0, "fusion_lat": 0.0, "lat": 38.91577083333333, "type": "electric_scooter", "lon": -77.046913, "is_reserved": 0, "fusion_lon": 0.0, "bike_id": "527a7f69062f316095bd79a3301c58a4", "name": "527a7f69062f316095bd79a3301c58a4", "rental_uris": {"ios": "https://dc.lft.to/lastmile_qr_scan", "android": "https://dc.lft.to/lastmile_qr_scan"}}, {"is_disabled": 0, "fusion_lat": 0.0, "lat": 38.91114066666667, "type": "electric_scooter", "lon": -77.03837366666667, "is_reserved": 0, "fusion_lon": 0.0, "bike_id": "35c93eeb3575b6418f0d4fa7240b4f19", "name": "35c93eeb3575b6418f0d4fa7240b4f19", "rental_uris": {"ios": "https://dc.lft.to/lastmile_qr_scan", "android": "https://dc.lft.to/lastmile_qr_scan"}}, {"is_disabled": 0, "fusion_lat": 0.0, "lat": 38.9787995, "type": "electric_scooter", "lon": -77.02548416666667, "is_reserved": 0, "fusion_lon": 0.0, "bike_id": "504634920268878e798fc3a78536f1ec", "name": "504634920268878e798fc3a78536f1ec", "rental_uris": {"ios": "https://dc.lft.to/lastmile_qr_scan", "android": "https://dc.lft.to/lastmile_qr_scan"}}, {"is_disabled": 0, "fusion_lat": 0.0, "lat": 38.917404833333336, "type": "electric_scooter", "lon": -77.0319245, "is_reserved": 0, "fusion_lon": 0.0, "bike_id": "388abc74773f81bb7d3c5ec386b56689", "name": "388abc74773f81bb7d3c5ec386b56689", "rental_uris": {"ios": "https://dc.lft.to/lastmile_qr_scan", "android": "https://dc.lft.to/lastmile_qr_scan"}}, {"is_disabled": 0, "fusion_lat": 0.0, "lat": 38.909235333333335, "type": "electric_scooter", "lon": -77.0438225, "is_reserved": 0, "fusion_lon": 0.0, "bike_id": "0d929fcbf79511284197a5c669843f59", "name": "0d929fcbf79511284197a5c669843f59", "rental_uris": {"ios": "https://dc.lft.to/lastmile_qr_scan", "android": "https://dc.lft.to/lastmile_qr_scan"}}, {"is_disabled": 0, "fusion_lat": 0.0, "lat": 38.911105666666664, "type": "electric_scooter", "lon": -77.04497683333334, "is_reserved": 0, "fusion_lon": 0.0, "bike_id": "5cab34faf29720e7df26bba9fe68f4c1", "name": "5cab34faf29720e7df26bba9fe68f4c1", "rental_uris": {"ios": "https://dc.lft.to/lastmile_qr_scan", "android": "https://dc.lft.to/lastmile_qr_scan"}}, {"is_disabled": 0, "fusion_lat": 0.0, "lat": 38.905922, "type": "electric_scooter", "lon": -77.03253883333333, "is_reserved": 0, "fusion_lon": 0.0, "bike_id": "d7c1c753367b51885ebc7aab921e99b9", "name": "d7c1c753367b51885ebc7aab921e99b9", "rental_uris": {"ios": "https://dc.lft.to/lastmile_qr_scan", "android": "https://dc.lft.to/lastmile_qr_scan"}}, {"is_disabled": 0, "fusion_lat": 0.0, "lat": 38.889918, "type": "electric_scooter", "lon": -76.94704533333334, "is_reserved": 0, "fusion_lon": 0.0, "bike_id": "a775d23a7ae355a0dc2c081133edc6d3", "name": "a775d23a7ae355a0dc2c081133edc6d3", "rental_uris": {"ios": "https://dc.lft.to/lastmile_qr_scan", "android": "https://dc.lft.to/lastmile_qr_scan"}}, {"is_disabled": 0, "fusion_lat": 0.0, "lat": 38.9140065, "type": "electric_scooter", "lon": -77.018405, "is_reserved": 0, "fusion_lon": 0.0, "bike_id": "7460acf429bb04f785dcb8243c85b40a", "name": "7460acf429bb04f785dcb8243c85b40a", "rental_uris": {"ios": "https://dc.lft.to/lastmile_qr_scan", "android": "https://dc.lft.to/lastmile_qr_scan"}}, {"is_disabled": 0, "fusion_lat": 0.0, "lat": 38.90625716666667, "type": "electric_scooter", "lon": -77.0396445, "is_reserved": 0, "fusion_lon": 0.0, "bike_id": "2a88185055f9a47badc47a3bbfb419e9", "name": "2a88185055f9a47badc47a3bbfb419e9", "rental_uris": {"ios": "https://dc.lft.to/lastmile_qr_scan", "android": "https://dc.lft.to/lastmile_qr_scan"}}, {"is_disabled": 0, "fusion_lat": 0.0, "lat": 38.902787333333336, "type": "electric_scooter", "lon": -77.03833616666667, "is_reserved": 0, "fusion_lon": 0.0, "bike_id": "bfb037e1297cf7a3cad0301fcd05534c", "name": "bfb037e1297cf7a3cad0301fcd05534c", "rental_uris": {"ios": "https://dc.lft.to/lastmile_qr_scan", "android": "https://dc.lft.to/lastmile_qr_scan"}}, {"is_disabled": 0, "fusion_lat": 0.0, "lat": 38.9224195, "type": "electric_scooter", "lon": -77.03663066666667, "is_reserved": 0, "fusion_lon": 0.0, "bike_id": "6992bf687ff18de9360397f17c6c561a", "name": "6992bf687ff18de9360397f17c6c561a", "rental_uris": {"ios": "https://dc.lft.to/lastmile_qr_scan", "android": "https://dc.lft.to/lastmile_qr_scan"}}, {"is_disabled": 0, "fusion_lat": 0.0, "lat": 38.91545216666667, "type": "electric_scooter", "lon": -77.03846733333333, "is_reserved": 0, "fusion_lon": 0.0, "bike_id": "7ecd3b82f6c3ee190f3eb0f9db174107", "name": "7ecd3b82f6c3ee190f3eb0f9db174107", "rental_uris": {"ios": "https://dc.lft.to/lastmile_qr_scan", "android": "https://dc.lft.to/lastmile_qr_scan"}}, {"is_disabled": 0, "fusion_lat": 0.0, "lat": 38.911046, "type": "electric_scooter", "lon": -77.0420455, "is_reserved": 0, "fusion_lon": 0.0, "bike_id": "6292faa5530108575f9feaa70675f7ad", "name": "6292faa5530108575f9feaa70675f7ad", "rental_uris": {"ios": "https://dc.lft.to/lastmile_qr_scan", "android": "https://dc.lft.to/lastmile_qr_scan"}}, {"is_disabled": 0, "fusion_lat": 0.0, "lat": 38.921673, "type": "electric_scooter", "lon": -77.035515, "is_reserved": 0, "fusion_lon": 0.0, "bike_id": "3e250aa9275aa6fbc3b584cda3900efa", "name": "3e250aa9275aa6fbc3b584cda3900efa", "rental_uris": {"ios": "https://dc.lft.to/lastmile_qr_scan", "android": "https://dc.lft.to/lastmile_qr_scan"}}, {"is_disabled": 0, "fusion_lat": 0.0, "lat": 38.924821333333334, "type": "electric_scooter", "lon": -77.02725166666667, "is_reserved": 0, "fusion_lon": 0.0, "bike_id": "061f2ddcfe9480524fd843d1625577b6", "name": "061f2ddcfe9480524fd843d1625577b6", "rental_uris": {"ios": "https://dc.lft.to/lastmile_qr_scan", "android": "https://dc.lft.to/lastmile_qr_scan"}}, {"is_disabled": 0, "fusion_lat": 0.0, "lat": 38.901973166666664, "type": "electric_scooter", "lon": -77.02182616666667, "is_reserved": 0, "fusion_lon": 0.0, "bike_id": "13e08191dd0f1cdeba560208df87b48a", "name": "13e08191dd0f1cdeba560208df87b48a", "rental_uris": {"ios": "https://dc.lft.to/lastmile_qr_scan", "android": "https://dc.lft.to/lastmile_qr_scan"}}, {"is_disabled": 0, "fusion_lat": 0.0, "lat": 38.908385833333334, "type": "electric_scooter", "lon": -77.02696233333333, "is_reserved": 0, "fusion_lon": 0.0, "bike_id": "a61f0a23b52bfefc946112621f1ae468", "name": "a61f0a23b52bfefc946112621f1ae468", "rental_uris": {"ios": "https://dc.lft.to/lastmile_qr_scan", "android": "https://dc.lft.to/lastmile_qr_scan"}}, {"is_disabled": 0, "fusion_lat": 0.0, "lat": 38.92043483333333, "type": "electric_scooter", "lon": -76.97911916666666, "is_reserved": 0, "fusion_lon": 0.0, "bike_id": "26f765e3e5b44fb2574164b0af83feef", "name": "26f765e3e5b44fb2574164b0af83feef", "rental_uris": {"ios": "https://dc.lft.to/lastmile_qr_scan", "android": "https://dc.lft.to/lastmile_qr_scan"}}, {"is_disabled": 0, "fusion_lat": 0.0, "lat": 38.90328916666667, "type": "electric_scooter", "lon": -77.037825, "is_reserved": 0, "fusion_lon": 0.0, "bike_id": "f2ec62776d83ac38e28d8a02d35a2618", "name": "f2ec62776d83ac38e28d8a02d35a2618", "rental_uris": {"ios": "https://dc.lft.to/lastmile_qr_scan", "android": "https://dc.lft.to/lastmile_qr_scan"}}, {"is_disabled": 0, "fusion_lat": 0.0, "lat": 38.89473383333333, "type": "electric_scooter", "lon": -77.021883, "is_reserved": 0, "fusion_lon": 0.0, "bike_id": "db69e3090717a70868edb61326684447", "name": "db69e3090717a70868edb61326684447", "rental_uris": {"ios": "https://dc.lft.to/lastmile_qr_scan", "android": "https://dc.lft.to/lastmile_qr_scan"}}, {"is_disabled": 0, "fusion_lat": 0.0, "lat": 38.9052575, "type": "electric_scooter", "lon": -77.047631, "is_reserved": 0, "fusion_lon": 0.0, "bike_id": "a85fa2fdb8890d1c8e0b8f968c1c81fe", "name": "a85fa2fdb8890d1c8e0b8f968c1c81fe", "rental_uris": {"ios": "https://dc.lft.to/lastmile_qr_scan", "android": "https://dc.lft.to/lastmile_qr_scan"}}, {"is_disabled": 0, "fusion_lat": 0.0, "lat": 38.9055215, "type": "electric_scooter", "lon": -77.0465915, "is_reserved": 0, "fusion_lon": 0.0, "bike_id": "00617b301b4e45f7e5b1ec47c0e857f8", "name": "00617b301b4e45f7e5b1ec47c0e857f8", "rental_uris": {"ios": "https://dc.lft.to/lastmile_qr_scan", "android": "https://dc.lft.to/lastmile_qr_scan"}}, {"is_disabled": 0, "fusion_lat": 0.0, "lat": 38.915468, "type": "electric_scooter", "lon": -77.041566, "is_reserved": 0, "fusion_lon": 0.0, "bike_id": "1075acc59ccacc791501218ae1c9ca38", "name": "1075acc59ccacc791501218ae1c9ca38", "rental_uris": {"ios": "https://dc.lft.to/lastmile_qr_scan", "android": "https://dc.lft.to/lastmile_qr_scan"}}, {"is_disabled": 0, "fusion_lat": 0.0, "lat": 38.92066616666666, "type": "electric_scooter", "lon": -77.04379083333333, "is_reserved": 0, "fusion_lon": 0.0, "bike_id": "abd50138815adcf3b5d5f58fcb9c6322", "name": "abd50138815adcf3b5d5f58fcb9c6322", "rental_uris": {"ios": "https://dc.lft.to/lastmile_qr_scan", "android": "https://dc.lft.to/lastmile_qr_scan"}}, {"is_disabled": 0, "fusion_lat": 0.0, "lat": 38.8637, "type": "electric_bike", "lon": -76.9700525, "is_reserved": 0, "fusion_lon": 0.0, "bike_id": "7b5e0af0efa80045947a604a393f1fc4", "name": "7b5e0af0efa80045947a604a393f1fc4", "rental_uris": {"ios": "https://dc.lft.to/lastmile_qr_scan", "android": "https://dc.lft.to/lastmile_qr_scan"}}, {"is_disabled": 0, "fusion_lat": 0.0, "lat": 38.91456733333333, "type": "electric_scooter", "lon": -77.046119, "is_reserved": 0, "fusion_lon": 0.0, "bike_id": "b5fea967161cfdf69dacb7d4fc76ddae", "name": "b5fea967161cfdf69dacb7d4fc76ddae", "rental_uris": {"ios": "https://dc.lft.to/lastmile_qr_scan", "android": "https://dc.lft.to/lastmile_qr_scan"}}, {"is_disabled": 0, "fusion_lat": 0.0, "lat": 38.90230533333333, "type": "electric_scooter", "lon": -77.04597516666666, "is_reserved": 0, "fusion_lon": 0.0, "bike_id": "a5cbcfb61f885c94176b244ea4a3b1ab", "name": "a5cbcfb61f885c94176b244ea4a3b1ab", "rental_uris": {"ios": "https://dc.lft.to/lastmile_qr_scan", "android": "https://dc.lft.to/lastmile_qr_scan"}}, {"is_disabled": 0, "fusion_lat": 0.0, "lat": 38.902631666666665, "type": "electric_scooter", "lon": -77.0532095, "is_reserved": 0, "fusion_lon": 0.0, "bike_id": "19654cd1ac4975a8132e5d08a49406f4", "name": "19654cd1ac4975a8132e5d08a49406f4", "rental_uris": {"ios": "https://dc.lft.to/lastmile_qr_scan", "android": "https://dc.lft.to/lastmile_qr_scan"}}, {"is_disabled": 0, "fusion_lat": 0.0, "lat": 38.850572166666666, "type": "electric_bike", "lon": -76.97331533333333, "is_reserved": 0, "fusion_lon": 0.0, "bike_id": "9114997cf1d103ea3e4ca7090698ba17", "name": "9114997cf1d103ea3e4ca7090698ba17", "rental_uris": {"ios": "https://dc.lft.to/lastmile_qr_scan", "android": "https://dc.lft.to/lastmile_qr_scan"}}, {"is_disabled": 0, "fusion_lat": 0.0, "lat": 38.925642333333336, "type": "electric_scooter", "lon": -77.0527305, "is_reserved": 0, "fusion_lon": 0.0, "bike_id": "3ba72b85edea5937b82fa6e3b869712e", "name": "3ba72b85edea5937b82fa6e3b869712e", "rental_uris": {"ios": "https://dc.lft.to/lastmile_qr_scan", "android": "https://dc.lft.to/lastmile_qr_scan"}}, {"is_disabled": 0, "fusion_lat": 0.0, "lat": 38.940216, "type": "electric_scooter", "lon": -77.071715, "is_reserved": 0, "fusion_lon": 0.0, "bike_id": "83963dcbcd431dc0f82415ba1a33642a", "name": "83963dcbcd431dc0f82415ba1a33642a", "rental_uris": {"ios": "https://dc.lft.to/lastmile_qr_scan", "android": "https://dc.lft.to/lastmile_qr_scan"}}, {"is_disabled": 0, "fusion_lat": 0.0, "lat": 38.91692416666667, "type": "electric_scooter", "lon": -77.0387355, "is_reserved": 0, "fusion_lon": 0.0, "bike_id": "46de7adf5a2ce8d747426b3c306223db", "name": "46de7adf5a2ce8d747426b3c306223db", "rental_uris": {"ios": "https://dc.lft.to/lastmile_qr_scan", "android": "https://dc.lft.to/lastmile_qr_scan"}}, {"is_disabled": 0, "fusion_lat": 0.0, "lat": 38.925472166666665, "type": "electric_bike", "lon": -77.00131633333334, "is_reserved": 0, "fusion_lon": 0.0, "bike_id": "fc8bb81639f66c3ac52811f5f61c8c19", "name": "fc8bb81639f66c3ac52811f5f61c8c19", "rental_uris": {"ios": "https://dc.lft.to/lastmile_qr_scan", "android": "https://dc.lft.to/lastmile_qr_scan"}}, {"is_disabled": 0, "fusion_lat": 0.0, "lat": 38.90027633333333, "type": "electric_scooter", "lon": -77.01215566666667, "is_reserved": 0, "fusion_lon": 0.0, "bike_id": "46d94520321111e9193f158005bb5511", "name": "46d94520321111e9193f158005bb5511", "rental_uris": {"ios": "https://dc.lft.to/lastmile_qr_scan", "android": "https://dc.lft.to/lastmile_qr_scan"}}, {"is_disabled": 0, "fusion_lat": 0.0, "lat": 38.8988275, "type": "electric_scooter", "lon": -76.93177583333333, "is_reserved": 0, "fusion_lon": 0.0, "bike_id": "6375a9974789f35a77abe97d4ff237cf", "name": "6375a9974789f35a77abe97d4ff237cf", "rental_uris": {"ios": "https://dc.lft.to/lastmile_qr_scan", "android": "https://dc.lft.to/lastmile_qr_scan"}}, {"is_disabled": 0, "fusion_lat": 0.0, "lat": 38.8749855, "type": "electric_bike", "lon": -77.02594483333333, "is_reserved": 0, "fusion_lon": 0.0, "bike_id": "a243f1301f5dc1e90cd2f1d1dac4fffe", "name": "a243f1301f5dc1e90cd2f1d1dac4fffe", "rental_uris": {"ios": "https://dc.lft.to/lastmile_qr_scan", "android": "https://dc.lft.to/lastmile_qr_scan"}}, {"is_disabled": 0, "fusion_lat": 0.0, "lat": 38.9072595, "type": "electric_scooter", "lon": -77.0107535, "is_reserved": 0, "fusion_lon": 0.0, "bike_id": "5dbabb6d8d27e5694f9a1c2d272f2bdc", "name": "5dbabb6d8d27e5694f9a1c2d272f2bdc", "rental_uris": {"ios": "https://dc.lft.to/lastmile_qr_scan", "android": "https://dc.lft.to/lastmile_qr_scan"}}, {"is_disabled": 0, "fusion_lat": 0.0, "lat": 38.9057635, "type": "electric_scooter", "lon": -77.048687, "is_reserved": 0, "fusion_lon": 0.0, "bike_id": "a86da717e6bdacee96082c56d5c4ca97", "name": "a86da717e6bdacee96082c56d5c4ca97", "rental_uris": {"ios": "https://dc.lft.to/lastmile_qr_scan", "android": "https://dc.lft.to/lastmile_qr_scan"}}, {"is_disabled": 0, "fusion_lat": 0.0, "lat": 38.91126, "type": "electric_scooter", "lon": -77.03754566666667, "is_reserved": 0, "fusion_lon": 0.0, "bike_id": "962ee97740a6ba6a6f818b4878d19884", "name": "962ee97740a6ba6a6f818b4878d19884", "rental_uris": {"ios": "https://dc.lft.to/lastmile_qr_scan", "android": "https://dc.lft.to/lastmile_qr_scan"}}, {"is_disabled": 0, "fusion_lat": 0.0, "lat": 38.88125633333333, "type": "electric_scooter", "lon": -77.0268885, "is_reserved": 0, "fusion_lon": 0.0, "bike_id": "d695de75413e26a3f430524e01faca9e", "name": "d695de75413e26a3f430524e01faca9e", "rental_uris": {"ios": "https://dc.lft.to/lastmile_qr_scan", "android": "https://dc.lft.to/lastmile_qr_scan"}}, {"is_disabled": 0, "fusion_lat": 0.0, "lat": 38.891195, "type": "electric_scooter", "lon": -76.9408925, "is_reserved": 0, "fusion_lon": 0.0, "bike_id": "54a8a705b9a69989bf78d321f683db7d", "name": "54a8a705b9a69989bf78d321f683db7d", "rental_uris": {"ios": "https://dc.lft.to/lastmile_qr_scan", "android": "https://dc.lft.to/lastmile_qr_scan"}}, {"is_disabled": 0, "fusion_lat": 0.0, "lat": 38.92045816666667, "type": "electric_scooter", "lon": -77.0348505, "is_reserved": 0, "fusion_lon": 0.0, "bike_id": "9bb1b4d3706f7de3815fbdec6685a6b5", "name": "9bb1b4d3706f7de3815fbdec6685a6b5", "rental_uris": {"ios": "https://dc.lft.to/lastmile_qr_scan", "android": "https://dc.lft.to/lastmile_qr_scan"}}, {"is_disabled": 0, "fusion_lat": 0.0, "lat": 39.0159085, "type": "electric_bike", "lon": -77.04431616666666, "is_reserved": 0, "fusion_lon": 0.0, "bike_id": "c29e4ede7720aabfcd61cdc5659820b9", "name": "c29e4ede7720aabfcd61cdc5659820b9", "rental_uris": {"ios": "https://dc.lft.to/lastmile_qr_scan", "android": "https://dc.lft.to/lastmile_qr_scan"}}, {"is_disabled": 0, "fusion_lat": 0.0, "lat": 38.908377333333334, "type": "electric_scooter", "lon": -77.0850805, "is_reserved": 0, "fusion_lon": 0.0, "bike_id": "c3eee709ceab8deb038717f3eaf92d8a", "name": "c3eee709ceab8deb038717f3eaf92d8a", "rental_uris": {"ios": "https://dc.lft.to/lastmile_qr_scan", "android": "https://dc.lft.to/lastmile_qr_scan"}}, {"is_disabled": 0, "fusion_lat": 0.0, "lat": 38.910444166666665, "type": "electric_scooter", "lon": -77.02206383333333, "is_reserved": 0, "fusion_lon": 0.0, "bike_id": "68dfb4a41f04807486ab8fc37a9c0123", "name": "68dfb4a41f04807486ab8fc37a9c0123", "rental_uris": {"ios": "https://dc.lft.to/lastmile_qr_scan", "android": "https://dc.lft.to/lastmile_qr_scan"}}, {"is_disabled": 0, "fusion_lat": 0.0, "lat": 38.91956183333333, "type": "electric_scooter", "lon": -77.04331133333334, "is_reserved": 0, "fusion_lon": 0.0, "bike_id": "433daa42d874e56d095a2de0e18fc8b5", "name": "433daa42d874e56d095a2de0e18fc8b5", "rental_uris": {"ios": "https://dc.lft.to/lastmile_qr_scan", "android": "https://dc.lft.to/lastmile_qr_scan"}}, {"is_disabled": 0, "fusion_lat": 0.0, "lat": 38.92158516666667, "type": "electric_scooter", "lon": -77.03884216666667, "is_reserved": 0, "fusion_lon": 0.0, "bike_id": "8f936385422ba4e2958a24661e698cf6", "name": "8f936385422ba4e2958a24661e698cf6", "rental_uris": {"ios": "https://dc.lft.to/lastmile_qr_scan", "android": "https://dc.lft.to/lastmile_qr_scan"}}, {"is_disabled": 0, "fusion_lat": 0.0, "lat": 38.900069, "type": "electric_scooter", "lon": -76.99016816666666, "is_reserved": 0, "fusion_lon": 0.0, "bike_id": "415f4b131ec2e0933a4bae65ed881b23", "name": "415f4b131ec2e0933a4bae65ed881b23", "rental_uris": {"ios": "https://dc.lft.to/lastmile_qr_scan", "android": "https://dc.lft.to/lastmile_qr_scan"}}, {"is_disabled": 0, "fusion_lat": 0.0, "lat": 38.872331333333335, "type": "electric_bike", "lon": -77.01174666666667, "is_reserved": 0, "fusion_lon": 0.0, "bike_id": "b9b9242e34891ea5b90df3c9ae963f85", "name": "b9b9242e34891ea5b90df3c9ae963f85", "rental_uris": {"ios": "https://dc.lft.to/lastmile_qr_scan", "android": "https://dc.lft.to/lastmile_qr_scan"}}, {"is_disabled": 0, "fusion_lat": 0.0, "lat": 38.95097466666667, "type": "electric_scooter", "lon": -77.02337316666667, "is_reserved": 0, "fusion_lon": 0.0, "bike_id": "2c6e78f06a30f8d509b01e40b2fe17e1", "name": "2c6e78f06a30f8d509b01e40b2fe17e1", "rental_uris": {"ios": "https://dc.lft.to/lastmile_qr_scan", "android": "https://dc.lft.to/lastmile_qr_scan"}}, {"is_disabled": 0, "fusion_lat": 0.0, "lat": 38.89618466666667, "type": "electric_scooter", "lon": -76.98122316666667, "is_reserved": 0, "fusion_lon": 0.0, "bike_id": "9254feef3462cd0356ee2527b9d2eeca", "name": "9254feef3462cd0356ee2527b9d2eeca", "rental_uris": {"ios": "https://dc.lft.to/lastmile_qr_scan", "android": "https://dc.lft.to/lastmile_qr_scan"}}, {"is_disabled": 0, "fusion_lat": 0.0, "lat": 38.865715333333334, "type": "electric_scooter", "lon": -76.98955366666667, "is_reserved": 0, "fusion_lon": 0.0, "bike_id": "6d8165ffc2deca552350958afdb315a4", "name": "6d8165ffc2deca552350958afdb315a4", "rental_uris": {"ios": "https://dc.lft.to/lastmile_qr_scan", "android": "https://dc.lft.to/lastmile_qr_scan"}}, {"is_disabled": 0, "fusion_lat": 0.0, "lat": 38.89472716666667, "type": "electric_scooter", "lon": -76.98397833333334, "is_reserved": 0, "fusion_lon": 0.0, "bike_id": "a1b35b2dfcf1ac1d1c9797a621aea8a3", "name": "a1b35b2dfcf1ac1d1c9797a621aea8a3", "rental_uris": {"ios": "https://dc.lft.to/lastmile_qr_scan", "android": "https://dc.lft.to/lastmile_qr_scan"}}, {"is_disabled": 0, "fusion_lat": 0.0, "lat": 38.91013433333333, "type": "electric_scooter", "lon": -77.08894066666667, "is_reserved": 0, "fusion_lon": 0.0, "bike_id": "e92881e89f96ba9d8b9d9006d6bf1d85", "name": "e92881e89f96ba9d8b9d9006d6bf1d85", "rental_uris": {"ios": "https://dc.lft.to/lastmile_qr_scan", "android": "https://dc.lft.to/lastmile_qr_scan"}}, {"is_disabled": 0, "fusion_lat": 0.0, "lat": 38.86165283333333, "type": "electric_bike", "lon": -77.13145666666667, "is_reserved": 0, "fusion_lon": 0.0, "bike_id": "6e74109b5a6f22f1c88a0732278c74bd", "name": "6e74109b5a6f22f1c88a0732278c74bd", "rental_uris": {"ios": "https://dc.lft.to/lastmile_qr_scan", "android": "https://dc.lft.to/lastmile_qr_scan"}}, {"is_disabled": 0, "fusion_lat": 0.0, "lat": 38.9369715, "type": "electric_bike", "lon": -77.029831, "is_reserved": 0, "fusion_lon": 0.0, "bike_id": "4b647a44c073d2b02ab1cfc7ebd6d884", "name": "4b647a44c073d2b02ab1cfc7ebd6d884", "rental_uris": {"ios": "https://dc.lft.to/lastmile_qr_scan", "android": "https://dc.lft.to/lastmile_qr_scan"}}, {"is_disabled": 0, "fusion_lat": 0.0, "lat": 38.913706, "type": "electric_scooter", "lon": -77.004575, "is_reserved": 0, "fusion_lon": 0.0, "bike_id": "02c0797788bd0734c509873ac613617d", "name": "02c0797788bd0734c509873ac613617d", "rental_uris": {"ios": "https://dc.lft.to/lastmile_qr_scan", "android": "https://dc.lft.to/lastmile_qr_scan"}}, {"is_disabled": 0, "fusion_lat": 0.0, "lat": 38.906219166666666, "type": "electric_bike", "lon": -76.9861145, "is_reserved": 0, "fusion_lon": 0.0, "bike_id": "59976c02ab58c6de4e761c9a799a2b15", "name": "59976c02ab58c6de4e761c9a799a2b15", "rental_uris": {"ios": "https://dc.lft.to/lastmile_qr_scan", "android": "https://dc.lft.to/lastmile_qr_scan"}}, {"is_disabled": 0, "fusion_lat": 0.0, "lat": 38.876611833333335, "type": "electric_scooter", "lon": -77.0045655, "is_reserved": 0, "fusion_lon": 0.0, "bike_id": "3d5115eddb40d6ec81da63a8ea89aa49", "name": "3d5115eddb40d6ec81da63a8ea89aa49", "rental_uris": {"ios": "https://dc.lft.to/lastmile_qr_scan", "android": "https://dc.lft.to/lastmile_qr_scan"}}, {"is_disabled": 0, "fusion_lat": 0.0, "lat": 38.903999, "type": "electric_scooter", "lon": -77.0206305, "is_reserved": 0, "fusion_lon": 0.0, "bike_id": "f1dda7abf3358ee0f465eb642d13555b", "name": "f1dda7abf3358ee0f465eb642d13555b", "rental_uris": {"ios": "https://dc.lft.to/lastmile_qr_scan", "android": "https://dc.lft.to/lastmile_qr_scan"}}, {"is_disabled": 0, "fusion_lat": 0.0, "lat": 38.96025316666667, "type": "electric_scooter", "lon": -77.028353, "is_reserved": 0, "fusion_lon": 0.0, "bike_id": "c87aee4095e0f4ed520d4bc7b1374cee", "name": "c87aee4095e0f4ed520d4bc7b1374cee", "rental_uris": {"ios": "https://dc.lft.to/lastmile_qr_scan", "android": "https://dc.lft.to/lastmile_qr_scan"}}, {"is_disabled": 0, "fusion_lat": 0.0, "lat": 38.912621333333334, "type": "electric_scooter", "lon": -77.0170635, "is_reserved": 0, "fusion_lon": 0.0, "bike_id": "2f1d6a3d55a45004bda7b0b97fefb307", "name": "2f1d6a3d55a45004bda7b0b97fefb307", "rental_uris": {"ios": "https://dc.lft.to/lastmile_qr_scan", "android": "https://dc.lft.to/lastmile_qr_scan"}}, {"is_disabled": 0, "fusion_lat": 0.0, "lat": 38.92164483333333, "type": "electric_scooter", "lon": -77.03858816666667, "is_reserved": 0, "fusion_lon": 0.0, "bike_id": "925b7691b9b5fffc5249fd429d2b37fa", "name": "925b7691b9b5fffc5249fd429d2b37fa", "rental_uris": {"ios": "https://dc.lft.to/lastmile_qr_scan", "android": "https://dc.lft.to/lastmile_qr_scan"}}, {"is_disabled": 0, "fusion_lat": 0.0, "lat": 38.9317175, "type": "electric_scooter", "lon": -77.02839616666667, "is_reserved": 0, "fusion_lon": 0.0, "bike_id": "0d1db6ef02b2b279f2530cefd2c4b7ea", "name": "0d1db6ef02b2b279f2530cefd2c4b7ea", "rental_uris": {"ios": "https://dc.lft.to/lastmile_qr_scan", "android": "https://dc.lft.to/lastmile_qr_scan"}}, {"is_disabled": 0, "fusion_lat": 0.0, "lat": 38.897458, "type": "electric_scooter", "lon": -77.04499583333333, "is_reserved": 0, "fusion_lon": 0.0, "bike_id": "bbfd0ea5408f113900276759aa7ea046", "name": "bbfd0ea5408f113900276759aa7ea046", "rental_uris": {"ios": "https://dc.lft.to/lastmile_qr_scan", "android": "https://dc.lft.to/lastmile_qr_scan"}}, {"is_disabled": 0, "fusion_lat": 0.0, "lat": 38.9657495, "type": "electric_bike", "lon": -77.01627016666667, "is_reserved": 0, "fusion_lon": 0.0, "bike_id": "ee1b2ddefec4f0a89ff8cd73eecd6cf0", "name": "ee1b2ddefec4f0a89ff8cd73eecd6cf0", "rental_uris": {"ios": "https://dc.lft.to/lastmile_qr_scan", "android": "https://dc.lft.to/lastmile_qr_scan"}}, {"is_disabled": 0, "fusion_lat": 0.0, "lat": 38.90413, "type": "electric_scooter", "lon": -77.03253016666666, "is_reserved": 0, "fusion_lon": 0.0, "bike_id": "95130470cafa5e85f00e7ff515d40f4a", "name": "95130470cafa5e85f00e7ff515d40f4a", "rental_uris": {"ios": "https://dc.lft.to/lastmile_qr_scan", "android": "https://dc.lft.to/lastmile_qr_scan"}}, {"is_disabled": 0, "fusion_lat": 0.0, "lat": 38.90668983333333, "type": "electric_scooter", "lon": -77.0004925, "is_reserved": 0, "fusion_lon": 0.0, "bike_id": "a443da6f4086553678e9e6f8e971099e", "name": "a443da6f4086553678e9e6f8e971099e", "rental_uris": {"ios": "https://dc.lft.to/lastmile_qr_scan", "android": "https://dc.lft.to/lastmile_qr_scan"}}, {"is_disabled": 0, "fusion_lat": 0.0, "lat": 38.911877833333335, "type": "electric_scooter", "lon": -77.00382166666667, "is_reserved": 0, "fusion_lon": 0.0, "bike_id": "5f6374d49a405b6293562dd301ba8bee", "name": "5f6374d49a405b6293562dd301ba8bee", "rental_uris": {"ios": "https://dc.lft.to/lastmile_qr_scan", "android": "https://dc.lft.to/lastmile_qr_scan"}}, {"is_disabled": 0, "fusion_lat": 0.0, "lat": 38.925287833333336, "type": "electric_scooter", "lon": -77.04414616666666, "is_reserved": 0, "fusion_lon": 0.0, "bike_id": "8cf6c3c5aa3ed1872f47bf5740e3f6cc", "name": "8cf6c3c5aa3ed1872f47bf5740e3f6cc", "rental_uris": {"ios": "https://dc.lft.to/lastmile_qr_scan", "android": "https://dc.lft.to/lastmile_qr_scan"}}, {"is_disabled": 0, "fusion_lat": 0.0, "lat": 38.911897833333335, "type": "electric_scooter", "lon": -77.0105305, "is_reserved": 0, "fusion_lon": 0.0, "bike_id": "f0613c0d93f92f3d507b3e15be764fcb", "name": "f0613c0d93f92f3d507b3e15be764fcb", "rental_uris": {"ios": "https://dc.lft.to/lastmile_qr_scan", "android": "https://dc.lft.to/lastmile_qr_scan"}}, {"is_disabled": 0, "fusion_lat": 0.0, "lat": 38.90240133333333, "type": "electric_scooter", "lon": -77.0019815, "is_reserved": 0, "fusion_lon": 0.0, "bike_id": "d053f0e4a4f865f9c83e4aeff14ef2ed", "name": "d053f0e4a4f865f9c83e4aeff14ef2ed", "rental_uris": {"ios": "https://dc.lft.to/lastmile_qr_scan", "android": "https://dc.lft.to/lastmile_qr_scan"}}, {"is_disabled": 0, "fusion_lat": 0.0, "lat": 38.91016066666667, "type": "electric_scooter", "lon": -77.03855966666667, "is_reserved": 0, "fusion_lon": 0.0, "bike_id": "0ab57e720da6ce2102affff3b0e053f3", "name": "0ab57e720da6ce2102affff3b0e053f3", "rental_uris": {"ios": "https://dc.lft.to/lastmile_qr_scan", "android": "https://dc.lft.to/lastmile_qr_scan"}}, {"is_disabled": 0, "fusion_lat": 0.0, "lat": 38.90501183333333, "type": "electric_scooter", "lon": -76.99014916666667, "is_reserved": 0, "fusion_lon": 0.0, "bike_id": "5b08a7a397ce4783cd7d12986de7b4d2", "name": "5b08a7a397ce4783cd7d12986de7b4d2", "rental_uris": {"ios": "https://dc.lft.to/lastmile_qr_scan", "android": "https://dc.lft.to/lastmile_qr_scan"}}, {"is_disabled": 0, "fusion_lat": 0.0, "lat": 38.9021985, "type": "electric_scooter", "lon": -77.02384566666667, "is_reserved": 0, "fusion_lon": 0.0, "bike_id": "bd5f47b0e5574579b04192cb92f5ebcb", "name": "bd5f47b0e5574579b04192cb92f5ebcb", "rental_uris": {"ios": "https://dc.lft.to/lastmile_qr_scan", "android": "https://dc.lft.to/lastmile_qr_scan"}}, {"is_disabled": 0, "fusion_lat": 0.0, "lat": 38.902317, "type": "electric_scooter", "lon": -77.01579183333334, "is_reserved": 0, "fusion_lon": 0.0, "bike_id": "9d247283c6e9fbd23fd13eeca9c30b9d", "name": "9d247283c6e9fbd23fd13eeca9c30b9d", "rental_uris": {"ios": "https://dc.lft.to/lastmile_qr_scan", "android": "https://dc.lft.to/lastmile_qr_scan"}}, {"is_disabled": 0, "fusion_lat": 0.0, "lat": 38.90500633333333, "type": "electric_scooter", "lon": -77.02956366666666, "is_reserved": 0, "fusion_lon": 0.0, "bike_id": "c19202e4b565dc71cc388e3d0d207f1e", "name": "c19202e4b565dc71cc388e3d0d207f1e", "rental_uris": {"ios": "https://dc.lft.to/lastmile_qr_scan", "android": "https://dc.lft.to/lastmile_qr_scan"}}, {"is_disabled": 0, "fusion_lat": 0.0, "lat": 38.918868333333336, "type": "electric_scooter", "lon": -77.03913333333334, "is_reserved": 0, "fusion_lon": 0.0, "bike_id": "892f4e2ac63d8c9eeacb0e6d4df1c8ee", "name": "892f4e2ac63d8c9eeacb0e6d4df1c8ee", "rental_uris": {"ios": "https://dc.lft.to/lastmile_qr_scan", "android": "https://dc.lft.to/lastmile_qr_scan"}}, {"is_disabled": 0, "fusion_lat": 0.0, "lat": 38.9215315, "type": "electric_scooter", "lon": -77.024258, "is_reserved": 0, "fusion_lon": 0.0, "bike_id": "bf18e8719a47154124a761f0d831889c", "name": "bf18e8719a47154124a761f0d831889c", "rental_uris": {"ios": "https://dc.lft.to/lastmile_qr_scan", "android": "https://dc.lft.to/lastmile_qr_scan"}}, {"is_disabled": 0, "fusion_lat": 0.0, "lat": 38.91869616666666, "type": "electric_scooter", "lon": -77.0260135, "is_reserved": 0, "fusion_lon": 0.0, "bike_id": "110d810c56d1eb4d5be6e9435180f0c8", "name": "110d810c56d1eb4d5be6e9435180f0c8", "rental_uris": {"ios": "https://dc.lft.to/lastmile_qr_scan", "android": "https://dc.lft.to/lastmile_qr_scan"}}, {"is_disabled": 0, "fusion_lat": 0.0, "lat": 38.896148833333335, "type": "electric_scooter", "lon": -76.955886, "is_reserved": 0, "fusion_lon": 0.0, "bike_id": "ad2dbc095db06c9017fc4cb624f98d90", "name": "ad2dbc095db06c9017fc4cb624f98d90", "rental_uris": {"ios": "https://dc.lft.to/lastmile_qr_scan", "android": "https://dc.lft.to/lastmile_qr_scan"}}, {"is_disabled": 0, "fusion_lat": 0.0, "lat": 38.895580833333334, "type": "electric_bike", "lon": -77.127332, "is_reserved": 0, "fusion_lon": 0.0, "bike_id": "8696551e7f2d35b8ef3cf70076c1a056", "name": "8696551e7f2d35b8ef3cf70076c1a056", "rental_uris": {"ios": "https://dc.lft.to/lastmile_qr_scan", "android": "https://dc.lft.to/lastmile_qr_scan"}}, {"is_disabled": 0, "fusion_lat": 0.0, "lat": 38.90566583333333, "type": "electric_scooter", "lon": -77.03482433333333, "is_reserved": 0, "fusion_lon": 0.0, "bike_id": "060ec3cb88146215da4999afef84b320", "name": "060ec3cb88146215da4999afef84b320", "rental_uris": {"ios": "https://dc.lft.to/lastmile_qr_scan", "android": "https://dc.lft.to/lastmile_qr_scan"}}, {"is_disabled": 0, "fusion_lat": 0.0, "lat": 38.914140833333335, "type": "electric_scooter", "lon": -77.01952033333333, "is_reserved": 0, "fusion_lon": 0.0, "bike_id": "72880cc1ab0d1dfc86ce01f04d3e883f", "name": "72880cc1ab0d1dfc86ce01f04d3e883f", "rental_uris": {"ios": "https://dc.lft.to/lastmile_qr_scan", "android": "https://dc.lft.to/lastmile_qr_scan"}}, {"is_disabled": 0, "fusion_lat": 0.0, "lat": 38.923214333333334, "type": "electric_scooter", "lon": -77.039649, "is_reserved": 0, "fusion_lon": 0.0, "bike_id": "9341421b689bc559e22a2c853a856e95", "name": "9341421b689bc559e22a2c853a856e95", "rental_uris": {"ios": "https://dc.lft.to/lastmile_qr_scan", "android": "https://dc.lft.to/lastmile_qr_scan"}}, {"is_disabled": 0, "fusion_lat": 0.0, "lat": 38.90717766666667, "type": "electric_scooter", "lon": -77.02965416666666, "is_reserved": 0, "fusion_lon": 0.0, "bike_id": "c3b1561c62baf8b94fb59d68fa70f2f8", "name": "c3b1561c62baf8b94fb59d68fa70f2f8", "rental_uris": {"ios": "https://dc.lft.to/lastmile_qr_scan", "android": "https://dc.lft.to/lastmile_qr_scan"}}, {"is_disabled": 0, "fusion_lat": 0.0, "lat": 38.896027, "type": "electric_scooter", "lon": -77.04417783333334, "is_reserved": 0, "fusion_lon": 0.0, "bike_id": "d063e8e8a3db6cbbac126f2475311d4d", "name": "d063e8e8a3db6cbbac126f2475311d4d", "rental_uris": {"ios": "https://dc.lft.to/lastmile_qr_scan", "android": "https://dc.lft.to/lastmile_qr_scan"}}, {"is_disabled": 0, "fusion_lat": 0.0, "lat": 38.91103066666667, "type": "electric_scooter", "lon": -77.00217983333333, "is_reserved": 0, "fusion_lon": 0.0, "bike_id": "ad30b7a74700f1e394e19991d40f30ac", "name": "ad30b7a74700f1e394e19991d40f30ac", "rental_uris": {"ios": "https://dc.lft.to/lastmile_qr_scan", "android": "https://dc.lft.to/lastmile_qr_scan"}}, {"is_disabled": 0, "fusion_lat": 0.0, "lat": 38.903801333333334, "type": "electric_scooter", "lon": -77.04474666666667, "is_reserved": 0, "fusion_lon": 0.0, "bike_id": "8f197fa4e407c337c65bb98bb9af598f", "name": "8f197fa4e407c337c65bb98bb9af598f", "rental_uris": {"ios": "https://dc.lft.to/lastmile_qr_scan", "android": "https://dc.lft.to/lastmile_qr_scan"}}, {"is_disabled": 0, "fusion_lat": 0.0, "lat": 38.90236633333333, "type": "electric_scooter", "lon": -77.01752083333334, "is_reserved": 0, "fusion_lon": 0.0, "bike_id": "aa4bccf43103d8f22bc9b1cf0b836a8e", "name": "aa4bccf43103d8f22bc9b1cf0b836a8e", "rental_uris": {"ios": "https://dc.lft.to/lastmile_qr_scan", "android": "https://dc.lft.to/lastmile_qr_scan"}}, {"is_disabled": 0, "fusion_lat": 0.0, "lat": 38.921449833333334, "type": "electric_scooter", "lon": -77.04226083333333, "is_reserved": 0, "fusion_lon": 0.0, "bike_id": "2da4a0ff95e0ec980178c892bf9688d0", "name": "2da4a0ff95e0ec980178c892bf9688d0", "rental_uris": {"ios": "https://dc.lft.to/lastmile_qr_scan", "android": "https://dc.lft.to/lastmile_qr_scan"}}, {"is_disabled": 0, "fusion_lat": 0.0, "lat": 38.93087416666667, "type": "electric_scooter", "lon": -77.02518566666667, "is_reserved": 0, "fusion_lon": 0.0, "bike_id": "b8a7d574b0f757d9ce97518e79278999", "name": "b8a7d574b0f757d9ce97518e79278999", "rental_uris": {"ios": "https://dc.lft.to/lastmile_qr_scan", "android": "https://dc.lft.to/lastmile_qr_scan"}}, {"is_disabled": 0, "fusion_lat": 0.0, "lat": 38.9173595, "type": "electric_scooter", "lon": -77.0417755, "is_reserved": 0, "fusion_lon": 0.0, "bike_id": "63e68cf75aa3d87526320107a208175f", "name": "63e68cf75aa3d87526320107a208175f", "rental_uris": {"ios": "https://dc.lft.to/lastmile_qr_scan", "android": "https://dc.lft.to/lastmile_qr_scan"}}, {"is_disabled": 0, "fusion_lat": 0.0, "lat": 38.9064125, "type": "electric_scooter", "lon": -76.98378433333333, "is_reserved": 0, "fusion_lon": 0.0, "bike_id": "bbfe42cec397460ef6dc63fa8463a9f9", "name": "bbfe42cec397460ef6dc63fa8463a9f9", "rental_uris": {"ios": "https://dc.lft.to/lastmile_qr_scan", "android": "https://dc.lft.to/lastmile_qr_scan"}}, {"is_disabled": 0, "fusion_lat": 0.0, "lat": 38.95287416666667, "type": "electric_bike", "lon": -77.06855433333334, "is_reserved": 0, "fusion_lon": 0.0, "bike_id": "225508ce6e5c329bd222b31165e2c34c", "name": "225508ce6e5c329bd222b31165e2c34c", "rental_uris": {"ios": "https://dc.lft.to/lastmile_qr_scan", "android": "https://dc.lft.to/lastmile_qr_scan"}}, {"is_disabled": 0, "fusion_lat": 0.0, "lat": 38.939573333333335, "type": "electric_bike", "lon": -77.36080533333333, "is_reserved": 0, "fusion_lon": 0.0, "bike_id": "a0f61ff96e5e3a0922e352bcc7f0e6d7", "name": "a0f61ff96e5e3a0922e352bcc7f0e6d7", "rental_uris": {"ios": "https://dc.lft.to/lastmile_qr_scan", "android": "https://dc.lft.to/lastmile_qr_scan"}}, {"is_disabled": 0, "fusion_lat": 0.0, "lat": 38.895581, "type": "electric_scooter", "lon": -76.93080516666667, "is_reserved": 0, "fusion_lon": 0.0, "bike_id": "9818445d0fd31506165c585542c7471f", "name": "9818445d0fd31506165c585542c7471f", "rental_uris": {"ios": "https://dc.lft.to/lastmile_qr_scan", "android": "https://dc.lft.to/lastmile_qr_scan"}}, {"is_disabled": 0, "fusion_lat": 0.0, "lat": 38.9035695, "type": "electric_scooter", "lon": -77.02931233333334, "is_reserved": 0, "fusion_lon": 0.0, "bike_id": "db30f4d282ccc1c30425464209407136", "name": "db30f4d282ccc1c30425464209407136", "rental_uris": {"ios": "https://dc.lft.to/lastmile_qr_scan", "android": "https://dc.lft.to/lastmile_qr_scan"}}, {"is_disabled": 0, "fusion_lat": 0.0, "lat": 38.927478, "type": "electric_scooter", "lon": -77.02483233333334, "is_reserved": 0, "fusion_lon": 0.0, "bike_id": "b81570e9e007a23f3688756f06abbb89", "name": "b81570e9e007a23f3688756f06abbb89", "rental_uris": {"ios": "https://dc.lft.to/lastmile_qr_scan", "android": "https://dc.lft.to/lastmile_qr_scan"}}, {"is_disabled": 0, "fusion_lat": 0.0, "lat": 38.92312283333333, "type": "electric_scooter", "lon": -77.04094966666666, "is_reserved": 0, "fusion_lon": 0.0, "bike_id": "52c6bd0feeed530ddafda10ac9d9d58e", "name": "52c6bd0feeed530ddafda10ac9d9d58e", "rental_uris": {"ios": "https://dc.lft.to/lastmile_qr_scan", "android": "https://dc.lft.to/lastmile_qr_scan"}}, {"is_disabled": 0, "fusion_lat": 0.0, "lat": 38.919648333333335, "type": "electric_scooter", "lon": -77.03968483333334, "is_reserved": 0, "fusion_lon": 0.0, "bike_id": "9eeec61b0b72bf5917f59fac8f353e74", "name": "9eeec61b0b72bf5917f59fac8f353e74", "rental_uris": {"ios": "https://dc.lft.to/lastmile_qr_scan", "android": "https://dc.lft.to/lastmile_qr_scan"}}, {"is_disabled": 0, "fusion_lat": 0.0, "lat": 38.89945183333333, "type": "electric_scooter", "lon": -76.99022866666667, "is_reserved": 0, "fusion_lon": 0.0, "bike_id": "b8091ca067ef6e6d2957362ff2f824f6", "name": "b8091ca067ef6e6d2957362ff2f824f6", "rental_uris": {"ios": "https://dc.lft.to/lastmile_qr_scan", "android": "https://dc.lft.to/lastmile_qr_scan"}}, {"is_disabled": 0, "fusion_lat": 0.0, "lat": 38.919239, "type": "electric_scooter", "lon": -77.03186983333333, "is_reserved": 0, "fusion_lon": 0.0, "bike_id": "29f4f07b2b7f337d581c46e1bc757da0", "name": "29f4f07b2b7f337d581c46e1bc757da0", "rental_uris": {"ios": "https://dc.lft.to/lastmile_qr_scan", "android": "https://dc.lft.to/lastmile_qr_scan"}}, {"is_disabled": 0, "fusion_lat": 0.0, "lat": 38.900293, "type": "electric_scooter", "lon": -77.002131, "is_reserved": 0, "fusion_lon": 0.0, "bike_id": "13a90f41e05a3f2217e9d99bb2deb77a", "name": "13a90f41e05a3f2217e9d99bb2deb77a", "rental_uris": {"ios": "https://dc.lft.to/lastmile_qr_scan", "android": "https://dc.lft.to/lastmile_qr_scan"}}, {"is_disabled": 0, "fusion_lat": 0.0, "lat": 38.880365166666664, "type": "electric_scooter", "lon": -77.019274, "is_reserved": 0, "fusion_lon": 0.0, "bike_id": "4b6510bcd37628d88f3dc16fa4edff9a", "name": "4b6510bcd37628d88f3dc16fa4edff9a", "rental_uris": {"ios": "https://dc.lft.to/lastmile_qr_scan", "android": "https://dc.lft.to/lastmile_qr_scan"}}, {"is_disabled": 0, "fusion_lat": 0.0, "lat": 38.905036333333335, "type": "electric_scooter", "lon": -76.97928716666667, "is_reserved": 0, "fusion_lon": 0.0, "bike_id": "faf1ab5a73d0891fa4adf6018164be6c", "name": "faf1ab5a73d0891fa4adf6018164be6c", "rental_uris": {"ios": "https://dc.lft.to/lastmile_qr_scan", "android": "https://dc.lft.to/lastmile_qr_scan"}}, {"is_disabled": 0, "fusion_lat": 0.0, "lat": 38.93670483333333, "type": "electric_bike", "lon": -76.95228566666667, "is_reserved": 0, "fusion_lon": 0.0, "bike_id": "e9edd90c93fd5cecf52d1d4d76911e50", "name": "e9edd90c93fd5cecf52d1d4d76911e50", "rental_uris": {"ios": "https://dc.lft.to/lastmile_qr_scan", "android": "https://dc.lft.to/lastmile_qr_scan"}}, {"is_disabled": 0, "fusion_lat": 0.0, "lat": 38.87011533333333, "type": "electric_bike", "lon": -76.96020833333333, "is_reserved": 0, "fusion_lon": 0.0, "bike_id": "7582df53ca76f221e84878927531733c", "name": "7582df53ca76f221e84878927531733c", "rental_uris": {"ios": "https://dc.lft.to/lastmile_qr_scan", "android": "https://dc.lft.to/lastmile_qr_scan"}}, {"is_disabled": 0, "fusion_lat": 0.0, "lat": 38.836754666666664, "type": "electric_scooter", "lon": -77.0059785, "is_reserved": 0, "fusion_lon": 0.0, "bike_id": "8509d37c5217057ff7033861537ce82c", "name": "8509d37c5217057ff7033861537ce82c", "rental_uris": {"ios": "https://dc.lft.to/lastmile_qr_scan", "android": "https://dc.lft.to/lastmile_qr_scan"}}, {"is_disabled": 0, "fusion_lat": 0.0, "lat": 38.918298166666666, "type": "electric_scooter", "lon": -77.032116, "is_reserved": 0, "fusion_lon": 0.0, "bike_id": "472867619e1a22565ae41c123f162e06", "name": "472867619e1a22565ae41c123f162e06", "rental_uris": {"ios": "https://dc.lft.to/lastmile_qr_scan", "android": "https://dc.lft.to/lastmile_qr_scan"}}, {"is_disabled": 0, "fusion_lat": 0.0, "lat": 38.9004505, "type": "electric_scooter", "lon": -76.997779, "is_reserved": 0, "fusion_lon": 0.0, "bike_id": "fe6e855daa633ab988e9cdc546b7ddfd", "name": "fe6e855daa633ab988e9cdc546b7ddfd", "rental_uris": {"ios": "https://dc.lft.to/lastmile_qr_scan", "android": "https://dc.lft.to/lastmile_qr_scan"}}, {"is_disabled": 0, "fusion_lat": 0.0, "lat": 38.90265216666667, "type": "electric_scooter", "lon": -77.017642, "is_reserved": 0, "fusion_lon": 0.0, "bike_id": "a6bfd7c290f20f2b8055ae72eff99441", "name": "a6bfd7c290f20f2b8055ae72eff99441", "rental_uris": {"ios": "https://dc.lft.to/lastmile_qr_scan", "android": "https://dc.lft.to/lastmile_qr_scan"}}, {"is_disabled": 0, "fusion_lat": 0.0, "lat": 38.92773, "type": "electric_scooter", "lon": -77.02707483333333, "is_reserved": 0, "fusion_lon": 0.0, "bike_id": "12a7cb70b11b1db8ea817d638286178d", "name": "12a7cb70b11b1db8ea817d638286178d", "rental_uris": {"ios": "https://dc.lft.to/lastmile_qr_scan", "android": "https://dc.lft.to/lastmile_qr_scan"}}, {"is_disabled": 0, "fusion_lat": 0.0, "lat": 38.917579833333335, "type": "electric_scooter", "lon": -77.03182866666667, "is_reserved": 0, "fusion_lon": 0.0, "bike_id": "c4c6741faed6e75ffa3e90881d2c67fa", "name": "c4c6741faed6e75ffa3e90881d2c67fa", "rental_uris": {"ios": "https://dc.lft.to/lastmile_qr_scan", "android": "https://dc.lft.to/lastmile_qr_scan"}}, {"is_disabled": 0, "fusion_lat": 0.0, "lat": 38.923610833333335, "type": "electric_scooter", "lon": -77.05085383333333, "is_reserved": 0, "fusion_lon": 0.0, "bike_id": "cad63ae1979894bbeb98d25af512edda", "name": "cad63ae1979894bbeb98d25af512edda", "rental_uris": {"ios": "https://dc.lft.to/lastmile_qr_scan", "android": "https://dc.lft.to/lastmile_qr_scan"}}, {"is_disabled": 0, "fusion_lat": 0.0, "lat": 38.93607633333333, "type": "electric_scooter", "lon": -77.08172816666666, "is_reserved": 0, "fusion_lon": 0.0, "bike_id": "e975eaabf368ffe1db030de006808d24", "name": "e975eaabf368ffe1db030de006808d24", "rental_uris": {"ios": "https://dc.lft.to/lastmile_qr_scan", "android": "https://dc.lft.to/lastmile_qr_scan"}}, {"is_disabled": 0, "fusion_lat": 0.0, "lat": 38.934990666666664, "type": "electric_scooter", "lon": -77.05801133333334, "is_reserved": 0, "fusion_lon": 0.0, "bike_id": "79816b584db28468d8b9eb66a61cde32", "name": "79816b584db28468d8b9eb66a61cde32", "rental_uris": {"ios": "https://dc.lft.to/lastmile_qr_scan", "android": "https://dc.lft.to/lastmile_qr_scan"}}, {"is_disabled": 0, "fusion_lat": 0.0, "lat": 38.859647, "type": "electric_scooter", "lon": -76.99111483333333, "is_reserved": 0, "fusion_lon": 0.0, "bike_id": "1623da5228a4640ea76bdaf84eb88f30", "name": "1623da5228a4640ea76bdaf84eb88f30", "rental_uris": {"ios": "https://dc.lft.to/lastmile_qr_scan", "android": "https://dc.lft.to/lastmile_qr_scan"}}, {"is_disabled": 0, "fusion_lat": 0.0, "lat": 38.93994083333333, "type": "electric_scooter", "lon": -77.028894, "is_reserved": 0, "fusion_lon": 0.0, "bike_id": "dfb2bc3b68d6d768bf00294c929c9f53", "name": "dfb2bc3b68d6d768bf00294c929c9f53", "rental_uris": {"ios": "https://dc.lft.to/lastmile_qr_scan", "android": "https://dc.lft.to/lastmile_qr_scan"}}, {"is_disabled": 0, "fusion_lat": 0.0, "lat": 38.92479016666667, "type": "electric_scooter", "lon": -77.0263335, "is_reserved": 0, "fusion_lon": 0.0, "bike_id": "fb2078873dd41c4d855a805c8cf43e56", "name": "fb2078873dd41c4d855a805c8cf43e56", "rental_uris": {"ios": "https://dc.lft.to/lastmile_qr_scan", "android": "https://dc.lft.to/lastmile_qr_scan"}}, {"is_disabled": 0, "fusion_lat": 0.0, "lat": 38.89222066666667, "type": "electric_scooter", "lon": -77.04660333333334, "is_reserved": 0, "fusion_lon": 0.0, "bike_id": "7e76841f91557f470d2e96fc01142614", "name": "7e76841f91557f470d2e96fc01142614", "rental_uris": {"ios": "https://dc.lft.to/lastmile_qr_scan", "android": "https://dc.lft.to/lastmile_qr_scan"}}, {"is_disabled": 0, "fusion_lat": 0.0, "lat": 38.918037, "type": "electric_scooter", "lon": -77.03304916666667, "is_reserved": 0, "fusion_lon": 0.0, "bike_id": "9143dad3292d8f16502969fc0bb9fe5d", "name": "9143dad3292d8f16502969fc0bb9fe5d", "rental_uris": {"ios": "https://dc.lft.to/lastmile_qr_scan", "android": "https://dc.lft.to/lastmile_qr_scan"}}, {"is_disabled": 0, "fusion_lat": 0.0, "lat": 38.87836333333333, "type": "electric_scooter", "lon": -77.01962933333333, "is_reserved": 0, "fusion_lon": 0.0, "bike_id": "73805b856dbe8253a2070a3523d2db56", "name": "73805b856dbe8253a2070a3523d2db56", "rental_uris": {"ios": "https://dc.lft.to/lastmile_qr_scan", "android": "https://dc.lft.to/lastmile_qr_scan"}}, {"is_disabled": 0, "fusion_lat": 0.0, "lat": 38.9129945, "type": "electric_scooter", "lon": -77.01965766666666, "is_reserved": 0, "fusion_lon": 0.0, "bike_id": "5e2c18ac8ab1a926713cfb3535ba465f", "name": "5e2c18ac8ab1a926713cfb3535ba465f", "rental_uris": {"ios": "https://dc.lft.to/lastmile_qr_scan", "android": "https://dc.lft.to/lastmile_qr_scan"}}, {"is_disabled": 0, "fusion_lat": 0.0, "lat": 38.916849166666665, "type": "electric_scooter", "lon": -77.046094, "is_reserved": 0, "fusion_lon": 0.0, "bike_id": "36ecbdaf17142028844e615adcb2b0ef", "name": "36ecbdaf17142028844e615adcb2b0ef", "rental_uris": {"ios": "https://dc.lft.to/lastmile_qr_scan", "android": "https://dc.lft.to/lastmile_qr_scan"}}, {"is_disabled": 0, "fusion_lat": 0.0, "lat": 38.936325333333336, "type": "electric_scooter", "lon": -77.036602, "is_reserved": 0, "fusion_lon": 0.0, "bike_id": "abff1aa3e38fbfd6117c5321b2d44ed6", "name": "abff1aa3e38fbfd6117c5321b2d44ed6", "rental_uris": {"ios": "https://dc.lft.to/lastmile_qr_scan", "android": "https://dc.lft.to/lastmile_qr_scan"}}, {"is_disabled": 0, "fusion_lat": 0.0, "lat": 38.9030175, "type": "electric_scooter", "lon": -77.017693, "is_reserved": 0, "fusion_lon": 0.0, "bike_id": "4ab5d3d863c0a19c4222834d11de6d54", "name": "4ab5d3d863c0a19c4222834d11de6d54", "rental_uris": {"ios": "https://dc.lft.to/lastmile_qr_scan", "android": "https://dc.lft.to/lastmile_qr_scan"}}, {"is_disabled": 0, "fusion_lat": 0.0, "lat": 38.916674, "type": "electric_scooter", "lon": -77.006573, "is_reserved": 0, "fusion_lon": 0.0, "bike_id": "d0f0125e01d3c9efa453f7ab481a4419", "name": "d0f0125e01d3c9efa453f7ab481a4419", "rental_uris": {"ios": "https://dc.lft.to/lastmile_qr_scan", "android": "https://dc.lft.to/lastmile_qr_scan"}}, {"is_disabled": 0, "fusion_lat": 0.0, "lat": 38.8969785, "type": "electric_scooter", "lon": -77.026808, "is_reserved": 0, "fusion_lon": 0.0, "bike_id": "1d8c3455b47170a79d2732ce08a95b98", "name": "1d8c3455b47170a79d2732ce08a95b98", "rental_uris": {"ios": "https://dc.lft.to/lastmile_qr_scan", "android": "https://dc.lft.to/lastmile_qr_scan"}}, {"is_disabled": 0, "fusion_lat": 0.0, "lat": 38.940491, "type": "electric_scooter", "lon": -77.0926835, "is_reserved": 0, "fusion_lon": 0.0, "bike_id": "7782ca0bf4eff56f76b89066cfdc6e1c", "name": "7782ca0bf4eff56f76b89066cfdc6e1c", "rental_uris": {"ios": "https://dc.lft.to/lastmile_qr_scan", "android": "https://dc.lft.to/lastmile_qr_scan"}}, {"is_disabled": 0, "fusion_lat": 0.0, "lat": 38.919923833333335, "type": "electric_scooter", "lon": -77.041493, "is_reserved": 0, "fusion_lon": 0.0, "bike_id": "58655c27ae2f9b3706a81b18edefb168", "name": "58655c27ae2f9b3706a81b18edefb168", "rental_uris": {"ios": "https://dc.lft.to/lastmile_qr_scan", "android": "https://dc.lft.to/lastmile_qr_scan"}}, {"is_disabled": 0, "fusion_lat": 0.0, "lat": 38.8763365, "type": "electric_scooter", "lon": -77.01642533333333, "is_reserved": 0, "fusion_lon": 0.0, "bike_id": "9edeb6cd7437680bacb564d91644c905", "name": "9edeb6cd7437680bacb564d91644c905", "rental_uris": {"ios": "https://dc.lft.to/lastmile_qr_scan", "android": "https://dc.lft.to/lastmile_qr_scan"}}, {"is_disabled": 0, "fusion_lat": 0.0, "lat": 38.90144883333333, "type": "electric_scooter", "lon": -77.03862933333333, "is_reserved": 0, "fusion_lon": 0.0, "bike_id": "2edc0f910f4fc6ec85eb982b61a54046", "name": "2edc0f910f4fc6ec85eb982b61a54046", "rental_uris": {"ios": "https://dc.lft.to/lastmile_qr_scan", "android": "https://dc.lft.to/lastmile_qr_scan"}}, {"is_disabled": 0, "fusion_lat": 0.0, "lat": 38.90134483333333, "type": "electric_scooter", "lon": -77.018239, "is_reserved": 0, "fusion_lon": 0.0, "bike_id": "36ee6c40ec7d7b762f6a9fcbbb5c9ed8", "name": "36ee6c40ec7d7b762f6a9fcbbb5c9ed8", "rental_uris": {"ios": "https://dc.lft.to/lastmile_qr_scan", "android": "https://dc.lft.to/lastmile_qr_scan"}}, {"is_disabled": 0, "fusion_lat": 0.0, "lat": 38.90482466666667, "type": "electric_scooter", "lon": -77.0296755, "is_reserved": 0, "fusion_lon": 0.0, "bike_id": "5a107d6550e2e865dcaaa721cca1de98", "name": "5a107d6550e2e865dcaaa721cca1de98", "rental_uris": {"ios": "https://dc.lft.to/lastmile_qr_scan", "android": "https://dc.lft.to/lastmile_qr_scan"}}, {"is_disabled": 0, "fusion_lat": 0.0, "lat": 38.91470833333333, "type": "electric_scooter", "lon": -77.038476, "is_reserved": 0, "fusion_lon": 0.0, "bike_id": "a851e7bff886bcb73be5c88991c26f44", "name": "a851e7bff886bcb73be5c88991c26f44", "rental_uris": {"ios": "https://dc.lft.to/lastmile_qr_scan", "android": "https://dc.lft.to/lastmile_qr_scan"}}, {"is_disabled": 0, "fusion_lat": 0.0, "lat": 38.97365116666667, "type": "electric_scooter", "lon": -77.01866333333334, "is_reserved": 0, "fusion_lon": 0.0, "bike_id": "192df68d1510565d9a3ba73cde61cafe", "name": "192df68d1510565d9a3ba73cde61cafe", "rental_uris": {"ios": "https://dc.lft.to/lastmile_qr_scan", "android": "https://dc.lft.to/lastmile_qr_scan"}}, {"is_disabled": 0, "fusion_lat": 0.0, "lat": 38.84291966666667, "type": "electric_scooter", "lon": -76.99949516666666, "is_reserved": 0, "fusion_lon": 0.0, "bike_id": "e415dff74480493852be467b20e61e33", "name": "e415dff74480493852be467b20e61e33", "rental_uris": {"ios": "https://dc.lft.to/lastmile_qr_scan", "android": "https://dc.lft.to/lastmile_qr_scan"}}, {"is_disabled": 0, "fusion_lat": 0.0, "lat": 38.867233, "type": "electric_scooter", "lon": -76.9878885, "is_reserved": 0, "fusion_lon": 0.0, "bike_id": "ae1bf6cea033424900cd1d66523e2321", "name": "ae1bf6cea033424900cd1d66523e2321", "rental_uris": {"ios": "https://dc.lft.to/lastmile_qr_scan", "android": "https://dc.lft.to/lastmile_qr_scan"}}, {"is_disabled": 0, "fusion_lat": 0.0, "lat": 38.92650033333334, "type": "electric_scooter", "lon": -77.03713583333334, "is_reserved": 0, "fusion_lon": 0.0, "bike_id": "cf2c19326ecf299d7a5c0bec2122036b", "name": "cf2c19326ecf299d7a5c0bec2122036b", "rental_uris": {"ios": "https://dc.lft.to/lastmile_qr_scan", "android": "https://dc.lft.to/lastmile_qr_scan"}}, {"is_disabled": 0, "fusion_lat": 0.0, "lat": 38.92491783333333, "type": "electric_scooter", "lon": -77.02628116666666, "is_reserved": 0, "fusion_lon": 0.0, "bike_id": "1da516b4870da4a249c488539d0a5abe", "name": "1da516b4870da4a249c488539d0a5abe", "rental_uris": {"ios": "https://dc.lft.to/lastmile_qr_scan", "android": "https://dc.lft.to/lastmile_qr_scan"}}, {"is_disabled": 0, "fusion_lat": 0.0, "lat": 38.98505016666667, "type": "electric_bike", "lon": -76.98212616666666, "is_reserved": 0, "fusion_lon": 0.0, "bike_id": "969280588d33972ed0ae72f877a57279", "name": "969280588d33972ed0ae72f877a57279", "rental_uris": {"ios": "https://dc.lft.to/lastmile_qr_scan", "android": "https://dc.lft.to/lastmile_qr_scan"}}, {"is_disabled": 0, "fusion_lat": 0.0, "lat": 38.9301855, "type": "electric_scooter", "lon": -77.020914, "is_reserved": 0, "fusion_lon": 0.0, "bike_id": "34116556a09b04f7b1b81b3129882e51", "name": "34116556a09b04f7b1b81b3129882e51", "rental_uris": {"ios": "https://dc.lft.to/lastmile_qr_scan", "android": "https://dc.lft.to/lastmile_qr_scan"}}, {"is_disabled": 0, "fusion_lat": 0.0, "lat": 38.89825783333333, "type": "electric_scooter", "lon": -77.03163316666667, "is_reserved": 0, "fusion_lon": 0.0, "bike_id": "3afcca4bda4532e121f7b837951a50b1", "name": "3afcca4bda4532e121f7b837951a50b1", "rental_uris": {"ios": "https://dc.lft.to/lastmile_qr_scan", "android": "https://dc.lft.to/lastmile_qr_scan"}}, {"is_disabled": 0, "fusion_lat": 0.0, "lat": 38.910417333333335, "type": "electric_scooter", "lon": -77.01007766666666, "is_reserved": 0, "fusion_lon": 0.0, "bike_id": "82e4bf589d30e08ae0118da7703d9536", "name": "82e4bf589d30e08ae0118da7703d9536", "rental_uris": {"ios": "https://dc.lft.to/lastmile_qr_scan", "android": "https://dc.lft.to/lastmile_qr_scan"}}, {"is_disabled": 0, "fusion_lat": 0.0, "lat": 38.878920666666666, "type": "electric_scooter", "lon": -77.00553016666667, "is_reserved": 0, "fusion_lon": 0.0, "bike_id": "0162138c116e3014d69c13e89cd41d16", "name": "0162138c116e3014d69c13e89cd41d16", "rental_uris": {"ios": "https://dc.lft.to/lastmile_qr_scan", "android": "https://dc.lft.to/lastmile_qr_scan"}}, {"is_disabled": 0, "fusion_lat": 0.0, "lat": 38.884911, "type": "electric_scooter", "lon": -77.00719416666666, "is_reserved": 0, "fusion_lon": 0.0, "bike_id": "520e6dabb8feed8166ca54e231f83cb6", "name": "520e6dabb8feed8166ca54e231f83cb6", "rental_uris": {"ios": "https://dc.lft.to/lastmile_qr_scan", "android": "https://dc.lft.to/lastmile_qr_scan"}}, {"is_disabled": 0, "fusion_lat": 0.0, "lat": 38.86985, "type": "electric_bike", "lon": -76.95985933333333, "is_reserved": 0, "fusion_lon": 0.0, "bike_id": "7354d52be501abc63b90c8a408329643", "name": "7354d52be501abc63b90c8a408329643", "rental_uris": {"ios": "https://dc.lft.to/lastmile_qr_scan", "android": "https://dc.lft.to/lastmile_qr_scan"}}, {"is_disabled": 0, "fusion_lat": 0.0, "lat": 38.881808166666666, "type": "electric_scooter", "lon": -77.020972, "is_reserved": 0, "fusion_lon": 0.0, "bike_id": "4e5867a3ce50d1b98676efa2236c179b", "name": "4e5867a3ce50d1b98676efa2236c179b", "rental_uris": {"ios": "https://dc.lft.to/lastmile_qr_scan", "android": "https://dc.lft.to/lastmile_qr_scan"}}, {"is_disabled": 0, "fusion_lat": 0.0, "lat": 38.932419833333334, "type": "electric_scooter", "lon": -77.03282766666666, "is_reserved": 0, "fusion_lon": 0.0, "bike_id": "22e2b4170dd878279213f5864d166343", "name": "22e2b4170dd878279213f5864d166343", "rental_uris": {"ios": "https://dc.lft.to/lastmile_qr_scan", "android": "https://dc.lft.to/lastmile_qr_scan"}}, {"is_disabled": 0, "fusion_lat": 0.0, "lat": 38.94167766666666, "type": "electric_scooter", "lon": -77.02537483333333, "is_reserved": 0, "fusion_lon": 0.0, "bike_id": "872f901185e8f9ef7be0e3fe5377b493", "name": "872f901185e8f9ef7be0e3fe5377b493", "rental_uris": {"ios": "https://dc.lft.to/lastmile_qr_scan", "android": "https://dc.lft.to/lastmile_qr_scan"}}, {"is_disabled": 0, "fusion_lat": 0.0, "lat": 38.897398333333335, "type": "electric_scooter", "lon": -77.046789, "is_reserved": 0, "fusion_lon": 0.0, "bike_id": "90a0f4da4daa4d1c672b9b9330bef2a0", "name": "90a0f4da4daa4d1c672b9b9330bef2a0", "rental_uris": {"ios": "https://dc.lft.to/lastmile_qr_scan", "android": "https://dc.lft.to/lastmile_qr_scan"}}, {"is_disabled": 0, "fusion_lat": 0.0, "lat": 38.921011666666665, "type": "electric_scooter", "lon": -77.0251725, "is_reserved": 0, "fusion_lon": 0.0, "bike_id": "99e7327db64e83ee0308c0a30968fa90", "name": "99e7327db64e83ee0308c0a30968fa90", "rental_uris": {"ios": "https://dc.lft.to/lastmile_qr_scan", "android": "https://dc.lft.to/lastmile_qr_scan"}}, {"is_disabled": 0, "fusion_lat": 0.0, "lat": 38.806189, "type": "electric_bike", "lon": -77.0634905, "is_reserved": 0, "fusion_lon": 0.0, "bike_id": "bbf5a25e66736830d9865abd70eac098", "name": "bbf5a25e66736830d9865abd70eac098", "rental_uris": {"ios": "https://dc.lft.to/lastmile_qr_scan", "android": "https://dc.lft.to/lastmile_qr_scan"}}, {"is_disabled": 0, "fusion_lat": 0.0, "lat": 38.907850833333335, "type": "electric_scooter", "lon": -77.03656983333333, "is_reserved": 0, "fusion_lon": 0.0, "bike_id": "95bc0ef0396ac9e2b96771650701e8d4", "name": "95bc0ef0396ac9e2b96771650701e8d4", "rental_uris": {"ios": "https://dc.lft.to/lastmile_qr_scan", "android": "https://dc.lft.to/lastmile_qr_scan"}}, {"is_disabled": 0, "fusion_lat": 0.0, "lat": 38.91681666666667, "type": "electric_scooter", "lon": -77.029477, "is_reserved": 0, "fusion_lon": 0.0, "bike_id": "f73b1bd4213a2a51057a4d4b4c876f5c", "name": "f73b1bd4213a2a51057a4d4b4c876f5c", "rental_uris": {"ios": "https://dc.lft.to/lastmile_qr_scan", "android": "https://dc.lft.to/lastmile_qr_scan"}}, {"is_disabled": 0, "fusion_lat": 0.0, "lat": 38.92049083333333, "type": "electric_scooter", "lon": -77.01625716666666, "is_reserved": 0, "fusion_lon": 0.0, "bike_id": "b077dc956c10361891ec5a9b8aeb0c86", "name": "b077dc956c10361891ec5a9b8aeb0c86", "rental_uris": {"ios": "https://dc.lft.to/lastmile_qr_scan", "android": "https://dc.lft.to/lastmile_qr_scan"}},