{"data": {"bikes": [{"lat": 38.93188133333334, "is_disabled": 0, "type": "electric_scooter", "lon": -77.03867466666667, "bike_id": "3c4e2357ecb06e217951e6e9498b3f6f", "fusion_lat": 0.0, "name": "3c4e2357ecb06e217951e6e9498b3f6f", "is_reserved": 0, "rental_uris": {"android": "https://dc.lft.to/lastmile_qr_scan", "ios": "https://dc.lft.to/lastmile_qr_scan"}, "fusion_lon": 0.0}, {"lat": 38.921084666666665, "is_disabled": 0, "type": "electric_scooter", "lon": -77.04215616666667, "bike_id": "fa330c491e192550c323b8607ce3fbb2", "fusion_lat": 0.0, "name": "fa330c491e192550c323b8607ce3fbb2", "is_reserved": 0, "rental_uris": {"android": "https://dc.lft.to/lastmile_qr_scan", "ios": "https://dc.lft.to/lastmile_qr_scan"}, "fusion_lon": 0.0}, {"lat": 38.810529, "is_disabled": 0, "type": "electric_bike", "lon": -77.0850405, "bike_id": "662e52fa095ed203668ccc6bfdf3d582", "fusion_lat": 0.0, "name": "662e52fa095ed203668ccc6bfdf3d582", "is_reserved": 0, "rental_uris": {"android": "https://dc.lft.to/lastmile_qr_scan", "ios": "https://dc.lft.to/lastmile_qr_scan"}, "fusion_lon": 0.0}, {"lat": 38.93867816666667, "is_disabled": 0, "type": "electric_scooter", "lon": -77.0259345, "bike_id": "ea71bf7bc70af86862432167d0f85bb0", "fusion_lat": 0.0, "name": "ea71bf7bc70af86862432167d0f85bb0", "is_reserved": 0, "rental_uris": {"android": "https://dc.lft.to/lastmile_qr_scan", "ios": "https://dc.lft.to/lastmile_qr_scan"}, "fusion_lon": 0.0}, {"lat": 38.85425933333333, "is_disabled": 0, "type": "electric_bike", "lon": -76.90982216666667, "bike_id": "93ddfad3a28e60c9814dc2b198775789", "fusion_lat": 0.0, "name": "93ddfad3a28e60c9814dc2b198775789", "is_reserved": 0, "rental_uris": {"android": "https://dc.lft.to/lastmile_qr_scan", "ios": "https://dc.lft.to/lastmile_qr_scan"}, "fusion_lon": 0.0}, {"lat": 38.904887333333335, "is_disabled": 0, "type": "electric_scooter", "lon": -76.99542683333334, "bike_id": "23fcf9a55f2d1f071ac14ce425a511f5", "fusion_lat": 0.0, "name": "23fcf9a55f2d1f071ac14ce425a511f5", "is_reserved": 0, "rental_uris": {"android": "https://dc.lft.to/lastmile_qr_scan", "ios": "https://dc.lft.to/lastmile_qr_scan"}, "fusion_lon": 0.0}, {"lat": 38.912662833333336, "is_disabled": 0, "type": "electric_scooter", "lon": -77.03025433333333, "bike_id": "23b5d12ff025f15e0d91513f42e793fd", "fusion_lat": 0.0, "name": "23b5d12ff025f15e0d91513f42e793fd", "is_reserved": 0, "rental_uris": {"android": "https://dc.lft.to/lastmile_qr_scan", "ios": "https://dc.lft.to/lastmile_qr_scan"}, "fusion_lon": 0.0}, {"lat": 38.93424783333333, "is_disabled": 0, "type": "electric_scooter", "lon": -77.02845833333333, "bike_id": "84916271a0bc3582cdf6e54130776cea", "fusion_lat": 0.0, "name": "84916271a0bc3582cdf6e54130776cea", "is_reserved": 0, "rental_uris": {"android": "https://dc.lft.to/lastmile_qr_scan", "ios": "https://dc.lft.to/lastmile_qr_scan"}, "fusion_lon": 0.0}, {"lat": 38.903896833333334, "is_disabled": 0, "type": "electric_scooter", "lon": -76.98489416666666, "bike_id": "04f53589ef6d6088c978fd6d89119c1f", "fusion_lat": 0.0, "name": "04f53589ef6d6088c978fd6d89119c1f", "is_reserved": 0, "rental_uris": {"android": "https://dc.lft.to/lastmile_qr_scan", "ios": "https://dc.lft.to/lastmile_qr_scan"}, "fusion_lon": 0.0}, {"lat": 38.9238055, "is_disabled": 0, "type": "electric_scooter", "lon": -77.02762633333333, "bike_id": "c53a62e75ab5791b067fcd93f8757b1f", "fusion_lat": 0.0, "name": "c53a62e75ab5791b067fcd93f8757b1f", "is_reserved": 0, "rental_uris": {"android": "https://dc.lft.to/lastmile_qr_scan", "ios": "https://dc.lft.to/lastmile_qr_scan"}, "fusion_lon": 0.0}, {"lat": 38.94601466666667, "is_disabled": 0, "type": "electric_scooter", "lon": -77.07029483333334, "bike_id": "df553c8a0df454ecd5b7e45b75d44464", "fusion_lat": 0.0, "name": "df553c8a0df454ecd5b7e45b75d44464", "is_reserved": 0, "rental_uris": {"android": "https://dc.lft.to/lastmile_qr_scan", "ios": "https://dc.lft.to/lastmile_qr_scan"}, "fusion_lon": 0.0}, {"lat": 38.91555016666667, "is_disabled": 0, "type": "electric_scooter", "lon": -77.00978916666666, "bike_id": "db3101d739aae9bfdbcdc94cbfb73e3a", "fusion_lat": 0.0, "name": "db3101d739aae9bfdbcdc94cbfb73e3a", "is_reserved": 0, "rental_uris": {"android": "https://dc.lft.to/lastmile_qr_scan", "ios": "https://dc.lft.to/lastmile_qr_scan"}, "fusion_lon": 0.0}, {"lat": 38.9341745, "is_disabled": 0, "type": "electric_scooter", "lon": -77.028385, "bike_id": "c742a9d97bab216aac523f0e2fd4c676", "fusion_lat": 0.0, "name": "c742a9d97bab216aac523f0e2fd4c676", "is_reserved": 0, "rental_uris": {"android": "https://dc.lft.to/lastmile_qr_scan", "ios": "https://dc.lft.to/lastmile_qr_scan"}, "fusion_lon": 0.0}, {"lat": 38.8443205, "is_disabled": 0, "type": "electric_scooter", "lon": -76.998127, "bike_id": "41e978c762735ef0d9b86c296e25462f", "fusion_lat": 0.0, "name": "41e978c762735ef0d9b86c296e25462f", "is_reserved": 0, "rental_uris": {"android": "https://dc.lft.to/lastmile_qr_scan", "ios": "https://dc.lft.to/lastmile_qr_scan"}, "fusion_lon": 0.0}, {"lat": 38.92237983333333, "is_disabled": 0, "type": "electric_scooter", "lon": -77.029922, "bike_id": "f7c8eb6189c9ec6b00b27d7768136680", "fusion_lat": 0.0, "name": "f7c8eb6189c9ec6b00b27d7768136680", "is_reserved": 0, "rental_uris": {"android": "https://dc.lft.to/lastmile_qr_scan", "ios": "https://dc.lft.to/lastmile_qr_scan"}, "fusion_lon": 0.0}, {"lat": 38.93611416666667, "is_disabled": 0, "type": "electric_scooter", "lon": -77.05757666666666, "bike_id": "54b792e0654f0d13c67fcc08081d3355", "fusion_lat": 0.0, "name": "54b792e0654f0d13c67fcc08081d3355", "is_reserved": 0, "rental_uris": {"android": "https://dc.lft.to/lastmile_qr_scan", "ios": "https://dc.lft.to/lastmile_qr_scan"}, "fusion_lon": 0.0}, {"lat": 38.87991366666667, "is_disabled": 0, "type": "electric_scooter", "lon": -76.9868155, "bike_id": "298a9baeffc4743ee53a336d31556935", "fusion_lat": 0.0, "name": "298a9baeffc4743ee53a336d31556935", "is_reserved": 0, "rental_uris": {"android": "https://dc.lft.to/lastmile_qr_scan", "ios": "https://dc.lft.to/lastmile_qr_scan"}, "fusion_lon": 0.0}, {"lat": 38.86703133333334, "is_disabled": 0, "type": "electric_scooter", "lon": -76.98707916666666, "bike_id": "09ea5789c7dc1b74fd7ccda55536e23b", "fusion_lat": 0.0, "name": "09ea5789c7dc1b74fd7ccda55536e23b", "is_reserved": 0, "rental_uris": {"android": "https://dc.lft.to/lastmile_qr_scan", "ios": "https://dc.lft.to/lastmile_qr_scan"}, "fusion_lon": 0.0}, {"lat": 38.902309333333335, "is_disabled": 0, "type": "electric_scooter", "lon": -77.017736, "bike_id": "ee650ed99d7abc9116b3be5960364a64", "fusion_lat": 0.0, "name": "ee650ed99d7abc9116b3be5960364a64", "is_reserved": 0, "rental_uris": {"android": "https://dc.lft.to/lastmile_qr_scan", "ios": "https://dc.lft.to/lastmile_qr_scan"}, "fusion_lon": 0.0}, {"lat": 38.925047, "is_disabled": 0, "type": "electric_scooter", "lon": -77.07644916666666, "bike_id": "36b28c13871275f1e54c0f5a1fd536c0", "fusion_lat": 0.0, "name": "36b28c13871275f1e54c0f5a1fd536c0", "is_reserved": 0, "rental_uris": {"android": "https://dc.lft.to/lastmile_qr_scan", "ios": "https://dc.lft.to/lastmile_qr_scan"}, "fusion_lon": 0.0}, {"lat": 38.93251733333334, "is_disabled": 0, "type": "electric_scooter", "lon": -77.06652833333334, "bike_id": "d9bb10628490d7cb50f27af18a05c8c9", "fusion_lat": 0.0, "name": "d9bb10628490d7cb50f27af18a05c8c9", "is_reserved": 0, "rental_uris": {"android": "https://dc.lft.to/lastmile_qr_scan", "ios": "https://dc.lft.to/lastmile_qr_scan"}, "fusion_lon": 0.0}, {"lat": 38.903801, "is_disabled": 0, "type": "electric_scooter", "lon": -77.04464116666666, "bike_id": "cd6c850f959ddeea8f729394c343f5cf", "fusion_lat": 0.0, "name": "cd6c850f959ddeea8f729394c343f5cf", "is_reserved": 0, "rental_uris": {"android": "https://dc.lft.to/lastmile_qr_scan", "ios": "https://dc.lft.to/lastmile_qr_scan"}, "fusion_lon": 0.0}, {"lat": 38.83216133333333, "is_disabled": 0, "type": "electric_bike", "lon": -76.94627866666667, "bike_id": "959f7ad3fff22243659b60958664d069", "fusion_lat": 0.0, "name": "959f7ad3fff22243659b60958664d069", "is_reserved": 0, "rental_uris": {"android": "https://dc.lft.to/lastmile_qr_scan", "ios": "https://dc.lft.to/lastmile_qr_scan"}, "fusion_lon": 0.0}, {"lat": 38.9931315, "is_disabled": 0, "type": "electric_bike", "lon": -77.03274266666666, "bike_id": "443e31f37cd25e85aad3c87f7d04739b", "fusion_lat": 0.0, "name": "443e31f37cd25e85aad3c87f7d04739b", "is_reserved": 0, "rental_uris": {"android": "https://dc.lft.to/lastmile_qr_scan", "ios": "https://dc.lft.to/lastmile_qr_scan"}, "fusion_lon": 0.0}, {"lat": 38.873482333333335, "is_disabled": 0, "type": "electric_bike", "lon": -77.01860233333333, "bike_id": "4d31e0ecd071f3a919ef9515e0885585", "fusion_lat": 0.0, "name": "4d31e0ecd071f3a919ef9515e0885585", "is_reserved": 0, "rental_uris": {"android": "https://dc.lft.to/lastmile_qr_scan", "ios": "https://dc.lft.to/lastmile_qr_scan"}, "fusion_lon": 0.0}, {"lat": 38.899944833333336, "is_disabled": 0, "type": "electric_scooter", "lon": -77.052377, "bike_id": "75c84ad7e089bd6a5c4452c46839c5d3", "fusion_lat": 0.0, "name": "75c84ad7e089bd6a5c4452c46839c5d3", "is_reserved": 0, "rental_uris": {"android": "https://dc.lft.to/lastmile_qr_scan", "ios": "https://dc.lft.to/lastmile_qr_scan"}, "fusion_lon": 0.0}, {"lat": 38.909951666666664, "is_disabled": 0, "type": "electric_scooter", "lon": -77.026982, "bike_id": "509e89f4f43da59f08ef0c70d9244ced", "fusion_lat": 0.0, "name": "509e89f4f43da59f08ef0c70d9244ced", "is_reserved": 0, "rental_uris": {"android": "https://dc.lft.to/lastmile_qr_scan", "ios": "https://dc.lft.to/lastmile_qr_scan"}, "fusion_lon": 0.0}, {"lat": 38.9040965, "is_disabled": 0, "type": "electric_scooter", "lon": -76.99276966666666, "bike_id": "2d0463a83f905f7d70af82bcb6ddb7d6", "fusion_lat": 0.0, "name": "2d0463a83f905f7d70af82bcb6ddb7d6", "is_reserved": 0, "rental_uris": {"android": "https://dc.lft.to/lastmile_qr_scan", "ios": "https://dc.lft.to/lastmile_qr_scan"}, "fusion_lon": 0.0}, {"lat": 38.88769216666667, "is_disabled": 0, "type": "electric_scooter", "lon": -77.04350466666666, "bike_id": "f241be78b4b3bc07b8a4afc77b7a9b3d", "fusion_lat": 0.0, "name": "f241be78b4b3bc07b8a4afc77b7a9b3d", "is_reserved": 0, "rental_uris": {"android": "https://dc.lft.to/lastmile_qr_scan", "ios": "https://dc.lft.to/lastmile_qr_scan"}, "fusion_lon": 0.0}, {"lat": 38.8975985, "is_disabled": 0, "type": "electric_scooter", "lon": -76.94181883333333, "bike_id": "a99d3f293070dac9b35ab9519ce694de", "fusion_lat": 0.0, "name": "a99d3f293070dac9b35ab9519ce694de", "is_reserved": 0, "rental_uris": {"android": "https://dc.lft.to/lastmile_qr_scan", "ios": "https://dc.lft.to/lastmile_qr_scan"}, "fusion_lon": 0.0}, {"lat": 38.90531716666667, "is_disabled": 0, "type": "electric_scooter", "lon": -77.056804, "bike_id": "fc1367c1d3631a87992986a587e384c5", "fusion_lat": 0.0, "name": "fc1367c1d3631a87992986a587e384c5", "is_reserved": 0, "rental_uris": {"android": "https://dc.lft.to/lastmile_qr_scan", "ios": "https://dc.lft.to/lastmile_qr_scan"}, "fusion_lon": 0.0}, {"lat": 38.93695133333333, "is_disabled": 0, "type": "electric_scooter", "lon": -77.0326175, "bike_id": "72ba6ba9c4d0ed62a5072c0320097d3d", "fusion_lat": 0.0, "name": "72ba6ba9c4d0ed62a5072c0320097d3d", "is_reserved": 0, "rental_uris": {"android": "https://dc.lft.to/lastmile_qr_scan", "ios": "https://dc.lft.to/lastmile_qr_scan"}, "fusion_lon": 0.0}, {"lat": 38.923847333333335, "is_disabled": 0, "type": "electric_scooter", "lon": -77.03053633333333, "bike_id": "9c97c13b4c04709f72e2c131fda98194", "fusion_lat": 0.0, "name": "9c97c13b4c04709f72e2c131fda98194", "is_reserved": 0, "rental_uris": {"android": "https://dc.lft.to/lastmile_qr_scan", "ios": "https://dc.lft.to/lastmile_qr_scan"}, "fusion_lon": 0.0}, {"lat": 38.914805666666666, "is_disabled": 0, "type": "electric_scooter", "lon": -77.01372816666667, "bike_id": "6edea33cc15bfdeb746e318fbf05d788", "fusion_lat": 0.0, "name": "6edea33cc15bfdeb746e318fbf05d788", "is_reserved": 0, "rental_uris": {"android": "https://dc.lft.to/lastmile_qr_scan", "ios": "https://dc.lft.to/lastmile_qr_scan"}, "fusion_lon": 0.0}, {"lat": 38.91107383333333, "is_disabled": 0, "type": "electric_scooter", "lon": -77.0481155, "bike_id": "ef78a16515b990eeb9aa22a28ddc0f8b", "fusion_lat": 0.0, "name": "ef78a16515b990eeb9aa22a28ddc0f8b", "is_reserved": 0, "rental_uris": {"android": "https://dc.lft.to/lastmile_qr_scan", "ios": "https://dc.lft.to/lastmile_qr_scan"}, "fusion_lon": 0.0}, {"lat": 38.920378, "is_disabled": 0, "type": "electric_scooter", "lon": -77.04176566666666, "bike_id": "0eababc6ed01ad8b08994b5d308fa570", "fusion_lat": 0.0, "name": "0eababc6ed01ad8b08994b5d308fa570", "is_reserved": 0, "rental_uris": {"android": "https://dc.lft.to/lastmile_qr_scan", "ios": "https://dc.lft.to/lastmile_qr_scan"}, "fusion_lon": 0.0}, {"lat": 38.901843, "is_disabled": 0, "type": "electric_scooter", "lon": -77.01882916666666, "bike_id": "5f49dacbebc6f3e5ad34adb863ee97ef", "fusion_lat": 0.0, "name": "5f49dacbebc6f3e5ad34adb863ee97ef", "is_reserved": 0, "rental_uris": {"android": "https://dc.lft.to/lastmile_qr_scan", "ios": "https://dc.lft.to/lastmile_qr_scan"}, "fusion_lon": 0.0}, {"lat": 38.81346383333333, "is_disabled": 0, "type": "electric_bike", "lon": -77.04924883333334, "bike_id": "8f9dfe8b58b31b67a34560264b05c561", "fusion_lat": 0.0, "name": "8f9dfe8b58b31b67a34560264b05c561", "is_reserved": 0, "rental_uris": {"android": "https://dc.lft.to/lastmile_qr_scan", "ios": "https://dc.lft.to/lastmile_qr_scan"}, "fusion_lon": 0.0}, {"lat": 38.890086833333335, "is_disabled": 0, "type": "electric_scooter", "lon": -77.000623, "bike_id": "8daa4fc6831c1dad078936644e89d7bc", "fusion_lat": 0.0, "name": "8daa4fc6831c1dad078936644e89d7bc", "is_reserved": 0, "rental_uris": {"android": "https://dc.lft.to/lastmile_qr_scan", "ios": "https://dc.lft.to/lastmile_qr_scan"}, "fusion_lon": 0.0}, {"lat": 38.8843385, "is_disabled": 0, "type": "electric_scooter", "lon": -76.95757016666667, "bike_id": "f7aa993d90d89aba5a6e5e00edc7867d", "fusion_lat": 0.0, "name": "f7aa993d90d89aba5a6e5e00edc7867d", "is_reserved": 0, "rental_uris": {"android": "https://dc.lft.to/lastmile_qr_scan", "ios": "https://dc.lft.to/lastmile_qr_scan"}, "fusion_lon": 0.0}, {"lat": 38.85512633333333, "is_disabled": 0, "type": "electric_bike", "lon": -76.9839905, "bike_id": "cf4418a401b543db0434da0c37ebcd0f", "fusion_lat": 0.0, "name": "cf4418a401b543db0434da0c37ebcd0f", "is_reserved": 0, "rental_uris": {"android": "https://dc.lft.to/lastmile_qr_scan", "ios": "https://dc.lft.to/lastmile_qr_scan"}, "fusion_lon": 0.0}, {"lat": 38.9028355, "is_disabled": 0, "type": "electric_scooter", "lon": -77.0363785, "bike_id": "41d348243d167606dfa48f56a3cbb179", "fusion_lat": 0.0, "name": "41d348243d167606dfa48f56a3cbb179", "is_reserved": 0, "rental_uris": {"android": "https://dc.lft.to/lastmile_qr_scan", "ios": "https://dc.lft.to/lastmile_qr_scan"}, "fusion_lon": 0.0}, {"lat": 38.84566233333334, "is_disabled": 0, "type": "electric_bike", "lon": -77.09621983333334, "bike_id": "10eef4cd989d1b2e0ceb8756f3c19604", "fusion_lat": 0.0, "name": "10eef4cd989d1b2e0ceb8756f3c19604", "is_reserved": 0, "rental_uris": {"android": "https://dc.lft.to/lastmile_qr_scan", "ios": "https://dc.lft.to/lastmile_qr_scan"}, "fusion_lon": 0.0}, {"lat": 38.867087833333336, "is_disabled": 0, "type": "electric_scooter", "lon": -76.98726683333334, "bike_id": "d4f53005eb4930c5a1f5320b26fc2e4d", "fusion_lat": 0.0, "name": "d4f53005eb4930c5a1f5320b26fc2e4d", "is_reserved": 0, "rental_uris": {"android": "https://dc.lft.to/lastmile_qr_scan", "ios": "https://dc.lft.to/lastmile_qr_scan"}, "fusion_lon": 0.0}, {"lat": 38.92704333333333, "is_disabled": 0, "type": "electric_scooter", "lon": -77.0209435, "bike_id": "9ddd1aa8c6b30f9e04165f5c4c60d4df", "fusion_lat": 0.0, "name": "9ddd1aa8c6b30f9e04165f5c4c60d4df", "is_reserved": 0, "rental_uris": {"android": "https://dc.lft.to/lastmile_qr_scan", "ios": "https://dc.lft.to/lastmile_qr_scan"}, "fusion_lon": 0.0}, {"lat": 38.90054, "is_disabled": 0, "type": "electric_scooter", "lon": -77.05064633333333, "bike_id": "5e699c621206b7cf003461145130fa87", "fusion_lat": 0.0, "name": "5e699c621206b7cf003461145130fa87", "is_reserved": 0, "rental_uris": {"android": "https://dc.lft.to/lastmile_qr_scan", "ios": "https://dc.lft.to/lastmile_qr_scan"}, "fusion_lon": 0.0}, {"lat": 38.836957, "is_disabled": 0, "type": "electric_scooter", "lon": -77.1030655, "bike_id": "dffbabf8333653ca28bcca6a71dfff89", "fusion_lat": 0.0, "name": "dffbabf8333653ca28bcca6a71dfff89", "is_reserved": 0, "rental_uris": {"android": "https://dc.lft.to/lastmile_qr_scan", "ios": "https://dc.lft.to/lastmile_qr_scan"}, "fusion_lon": 0.0}, {"lat": 38.881059666666665, "is_disabled": 0, "type": "electric_scooter", "lon": -76.9834665, "bike_id": "bb7f0ac8f3a0d1a15e37f358cf0bf25e", "fusion_lat": 0.0, "name": "bb7f0ac8f3a0d1a15e37f358cf0bf25e", "is_reserved": 0, "rental_uris": {"android": "https://dc.lft.to/lastmile_qr_scan", "ios": "https://dc.lft.to/lastmile_qr_scan"}, "fusion_lon": 0.0}, {"lat": 38.871447, "is_disabled": 0, "type": "electric_bike", "lon": -76.93705483333333, "bike_id": "e5bb68c1a0e4e81d638c92e594b3f553", "fusion_lat": 0.0, "name": "e5bb68c1a0e4e81d638c92e594b3f553", "is_reserved": 0, "rental_uris": {"android": "https://dc.lft.to/lastmile_qr_scan", "ios": "https://dc.lft.to/lastmile_qr_scan"}, "fusion_lon": 0.0}, {"lat": 38.91633, "is_disabled": 0, "type": "electric_scooter", "lon": -77.0329315, "bike_id": "7465aaa8602ad1dd6e62fec7160117ae", "fusion_lat": 0.0, "name": "7465aaa8602ad1dd6e62fec7160117ae", "is_reserved": 0, "rental_uris": {"android": "https://dc.lft.to/lastmile_qr_scan", "ios": "https://dc.lft.to/lastmile_qr_scan"}, "fusion_lon": 0.0}, {"lat": 38.93662066666667, "is_disabled": 0, "type": "electric_scooter", "lon": -77.05931683333333, "bike_id": "7146e47d8ef45e58e2b586bd95539ccb", "fusion_lat": 0.0, "name": "7146e47d8ef45e58e2b586bd95539ccb", "is_reserved": 0, "rental_uris": {"android": "https://dc.lft.to/lastmile_qr_scan", "ios": "https://dc.lft.to/lastmile_qr_scan"}, "fusion_lon": 0.0}, {"lat": 38.90381033333333, "is_disabled": 0, "type": "electric_scooter", "lon": -77.01630316666666, "bike_id": "a247e3076145bdb9d059acb8919a8148", "fusion_lat": 0.0, "name": "a247e3076145bdb9d059acb8919a8148", "is_reserved": 0, "rental_uris": {"android": "https://dc.lft.to/lastmile_qr_scan", "ios": "https://dc.lft.to/lastmile_qr_scan"}, "fusion_lon": 0.0}, {"lat": 38.93956983333333, "is_disabled": 0, "type": "electric_bike", "lon": -77.36094983333334, "bike_id": "a72ce4a75a4f723b5d9b7dcffc5e1167", "fusion_lat": 0.0, "name": "a72ce4a75a4f723b5d9b7dcffc5e1167", "is_reserved": 0, "rental_uris": {"android": "https://dc.lft.to/lastmile_qr_scan", "ios": "https://dc.lft.to/lastmile_qr_scan"}, "fusion_lon": 0.0}, {"lat": 38.952913333333335, "is_disabled": 0, "type": "electric_bike", "lon": -76.94599183333334, "bike_id": "001770ab5aa62f9b4b45efe4576a2e03", "fusion_lat": 0.0, "name": "001770ab5aa62f9b4b45efe4576a2e03", "is_reserved": 0, "rental_uris": {"android": "https://dc.lft.to/lastmile_qr_scan", "ios": "https://dc.lft.to/lastmile_qr_scan"}, "fusion_lon": 0.0}, {"lat": 38.9565025, "is_disabled": 0, "type": "electric_bike", "lon": -77.02255166666667, "bike_id": "61f46a84298ea3b77223d441ecf754ca", "fusion_lat": 0.0, "name": "61f46a84298ea3b77223d441ecf754ca", "is_reserved": 0, "rental_uris": {"android": "https://dc.lft.to/lastmile_qr_scan", "ios": "https://dc.lft.to/lastmile_qr_scan"}, "fusion_lon": 0.0}, {"lat": 38.922670833333335, "is_disabled": 0, "type": "electric_scooter", "lon": -77.04142133333333, "bike_id": "580c84abfa1a548fabbfe3333449caf7", "fusion_lat": 0.0, "name": "580c84abfa1a548fabbfe3333449caf7", "is_reserved": 0, "rental_uris": {"android": "https://dc.lft.to/lastmile_qr_scan", "ios": "https://dc.lft.to/lastmile_qr_scan"}, "fusion_lon": 0.0}, {"lat": 38.917092333333336, "is_disabled": 0, "type": "electric_scooter", "lon": -77.0011585, "bike_id": "6076d3311dc8e07e9f35ab6cee977adf", "fusion_lat": 0.0, "name": "6076d3311dc8e07e9f35ab6cee977adf", "is_reserved": 0, "rental_uris": {"android": "https://dc.lft.to/lastmile_qr_scan", "ios": "https://dc.lft.to/lastmile_qr_scan"}, "fusion_lon": 0.0}, {"lat": 38.88492516666667, "is_disabled": 0, "type": "electric_scooter", "lon": -77.007236, "bike_id": "c655ed32e92d9727400f8ba993b01643", "fusion_lat": 0.0, "name": "c655ed32e92d9727400f8ba993b01643", "is_reserved": 0, "rental_uris": {"android": "https://dc.lft.to/lastmile_qr_scan", "ios": "https://dc.lft.to/lastmile_qr_scan"}, "fusion_lon": 0.0}, {"lat": 38.895589666666666, "is_disabled": 0, "type": "electric_scooter", "lon": -76.93077233333334, "bike_id": "803f8221a77d3f8ce3a64a1356f91fc2", "fusion_lat": 0.0, "name": "803f8221a77d3f8ce3a64a1356f91fc2", "is_reserved": 0, "rental_uris": {"android": "https://dc.lft.to/lastmile_qr_scan", "ios": "https://dc.lft.to/lastmile_qr_scan"}, "fusion_lon": 0.0}, {"lat": 38.90261183333333, "is_disabled": 0, "type": "electric_scooter", "lon": -77.00329966666666, "bike_id": "e4e30f5494f4b52cf6c68391d3ba0750", "fusion_lat": 0.0, "name": "e4e30f5494f4b52cf6c68391d3ba0750", "is_reserved": 0, "rental_uris": {"android": "https://dc.lft.to/lastmile_qr_scan", "ios": "https://dc.lft.to/lastmile_qr_scan"}, "fusion_lon": 0.0}, {"lat": 38.928203, "is_disabled": 0, "type": "electric_scooter", "lon": -77.02624066666667, "bike_id": "1c076942a673a0d05e07b6ed612cefa7", "fusion_lat": 0.0, "name": "1c076942a673a0d05e07b6ed612cefa7", "is_reserved": 0, "rental_uris": {"android": "https://dc.lft.to/lastmile_qr_scan", "ios": "https://dc.lft.to/lastmile_qr_scan"}, "fusion_lon": 0.0}, {"lat": 38.919201, "is_disabled": 0, "type": "electric_scooter", "lon": -77.03185333333333, "bike_id": "e721b44a373291f34ac981ffd637ec66", "fusion_lat": 0.0, "name": "e721b44a373291f34ac981ffd637ec66", "is_reserved": 0, "rental_uris": {"android": "https://dc.lft.to/lastmile_qr_scan", "ios": "https://dc.lft.to/lastmile_qr_scan"}, "fusion_lon": 0.0}, {"lat": 38.9027675, "is_disabled": 0, "type": "electric_scooter", "lon": -77.03883233333333, "bike_id": "7eb98936bad0be6fcf090a7e42a79efa", "fusion_lat": 0.0, "name": "7eb98936bad0be6fcf090a7e42a79efa", "is_reserved": 0, "rental_uris": {"android": "https://dc.lft.to/lastmile_qr_scan", "ios": "https://dc.lft.to/lastmile_qr_scan"}, "fusion_lon": 0.0}, {"lat": 38.884443, "is_disabled": 0, "type": "electric_scooter", "lon": -77.01761833333333, "bike_id": "5caa49400d408aaa3fa2ccea9a0be96e", "fusion_lat": 0.0, "name": "5caa49400d408aaa3fa2ccea9a0be96e", "is_reserved": 0, "rental_uris": {"android": "https://dc.lft.to/lastmile_qr_scan", "ios": "https://dc.lft.to/lastmile_qr_scan"}, "fusion_lon": 0.0}, {"lat": 38.920365333333336, "is_disabled": 0, "type": "electric_scooter", "lon": -77.02433266666667, "bike_id": "f5b3505b0f44c3e1b6f8d80fc7828df6", "fusion_lat": 0.0, "name": "f5b3505b0f44c3e1b6f8d80fc7828df6", "is_reserved": 0, "rental_uris": {"android": "https://dc.lft.to/lastmile_qr_scan", "ios": "https://dc.lft.to/lastmile_qr_scan"}, "fusion_lon": 0.0}, {"lat": 38.8706555, "is_disabled": 0, "type": "electric_scooter", "lon": -77.00841666666666, "bike_id": "261ccd183bddb8408ddee655c232e144", "fusion_lat": 0.0, "name": "261ccd183bddb8408ddee655c232e144", "is_reserved": 0, "rental_uris": {"android": "https://dc.lft.to/lastmile_qr_scan", "ios": "https://dc.lft.to/lastmile_qr_scan"}, "fusion_lon": 0.0}, {"lat": 38.902599, "is_disabled": 0, "type": "electric_scooter", "lon": -77.00327566666667, "bike_id": "3b97bfb65432519c6ea3421f0a54049f", "fusion_lat": 0.0, "name": "3b97bfb65432519c6ea3421f0a54049f", "is_reserved": 0, "rental_uris": {"android": "https://dc.lft.to/lastmile_qr_scan", "ios": "https://dc.lft.to/lastmile_qr_scan"}, "fusion_lon": 0.0}, {"lat": 38.899710166666665, "is_disabled": 0, "type": "electric_scooter", "lon": -77.02171316666667, "bike_id": "44e7505a568c6df23ec787b2680ceacd", "fusion_lat": 0.0, "name": "44e7505a568c6df23ec787b2680ceacd", "is_reserved": 0, "rental_uris": {"android": "https://dc.lft.to/lastmile_qr_scan", "ios": "https://dc.lft.to/lastmile_qr_scan"}, "fusion_lon": 0.0}, {"lat": 38.8950095, "is_disabled": 0, "type": "electric_scooter", "lon": -77.00323733333333, "bike_id": "dc6a1e55a53ef64ab54e3d80a3eec7f5", "fusion_lat": 0.0, "name": "dc6a1e55a53ef64ab54e3d80a3eec7f5", "is_reserved": 0, "rental_uris": {"android": "https://dc.lft.to/lastmile_qr_scan", "ios": "https://dc.lft.to/lastmile_qr_scan"}, "fusion_lon": 0.0}, {"lat": 38.916694666666665, "is_disabled": 0, "type": "electric_scooter", "lon": -77.02948616666667, "bike_id": "a58daa19699224dcf1b7d1586d3d754d", "fusion_lat": 0.0, "name": "a58daa19699224dcf1b7d1586d3d754d", "is_reserved": 0, "rental_uris": {"android": "https://dc.lft.to/lastmile_qr_scan", "ios": "https://dc.lft.to/lastmile_qr_scan"}, "fusion_lon": 0.0}, {"lat": 38.920375666666665, "is_disabled": 0, "type": "electric_scooter", "lon": -77.04180316666667, "bike_id": "3a608c2180f8080b75eb4c30c86c73e1", "fusion_lat": 0.0, "name": "3a608c2180f8080b75eb4c30c86c73e1", "is_reserved": 0, "rental_uris": {"android": "https://dc.lft.to/lastmile_qr_scan", "ios": "https://dc.lft.to/lastmile_qr_scan"}, "fusion_lon": 0.0}, {"lat": 38.879154666666665, "is_disabled": 0, "type": "electric_scooter", "lon": -77.0087535, "bike_id": "a143e1fdff27034dff1cb27ede52bff8", "fusion_lat": 0.0, "name": "a143e1fdff27034dff1cb27ede52bff8", "is_reserved": 0, "rental_uris": {"android": "https://dc.lft.to/lastmile_qr_scan", "ios": "https://dc.lft.to/lastmile_qr_scan"}, "fusion_lon": 0.0}, {"lat": 38.9021665, "is_disabled": 0, "type": "electric_scooter", "lon": -76.94588633333333, "bike_id": "b1f43cf4b52ebb0e21539b9654b35b82", "fusion_lat": 0.0, "name": "b1f43cf4b52ebb0e21539b9654b35b82", "is_reserved": 0, "rental_uris": {"android": "https://dc.lft.to/lastmile_qr_scan", "ios": "https://dc.lft.to/lastmile_qr_scan"}, "fusion_lon": 0.0}, {"lat": 38.9301195, "is_disabled": 0, "type": "electric_bike", "lon": -77.21645233333334, "bike_id": "19f80ad0acc3628ef4c20014973be02c", "fusion_lat": 0.0, "name": "19f80ad0acc3628ef4c20014973be02c", "is_reserved": 0, "rental_uris": {"android": "https://dc.lft.to/lastmile_qr_scan", "ios": "https://dc.lft.to/lastmile_qr_scan"}, "fusion_lon": 0.0}, {"lat": 38.897913, "is_disabled": 0, "type": "electric_scooter", "lon": -77.04359166666667, "bike_id": "4ff696c0f7216b3d5fb7d64144db3c4d", "fusion_lat": 0.0, "name": "4ff696c0f7216b3d5fb7d64144db3c4d", "is_reserved": 0, "rental_uris": {"android": "https://dc.lft.to/lastmile_qr_scan", "ios": "https://dc.lft.to/lastmile_qr_scan"}, "fusion_lon": 0.0}, {"lat": 38.92244916666667, "is_disabled": 0, "type": "electric_scooter", "lon": -77.03068316666666, "bike_id": "bf407f799d73a7c5e11eed30d02e46f4", "fusion_lat": 0.0, "name": "bf407f799d73a7c5e11eed30d02e46f4", "is_reserved": 0, "rental_uris": {"android": "https://dc.lft.to/lastmile_qr_scan", "ios": "https://dc.lft.to/lastmile_qr_scan"}, "fusion_lon": 0.0}, {"lat": 38.901503, "is_disabled": 0, "type": "electric_bike", "lon": -76.98654066666667, "bike_id": "9fd8f9ba9dff65c27da5ea2cf809ee24", "fusion_lat": 0.0, "name": "9fd8f9ba9dff65c27da5ea2cf809ee24", "is_reserved": 0, "rental_uris": {"android": "https://dc.lft.to/lastmile_qr_scan", "ios": "https://dc.lft.to/lastmile_qr_scan"}, "fusion_lon": 0.0}, {"lat": 38.91959933333333, "is_disabled": 0, "type": "electric_bike", "lon": -76.97266366666666, "bike_id": "0bb70bffba47355c48e20f4fbfd5baae", "fusion_lat": 0.0, "name": "0bb70bffba47355c48e20f4fbfd5baae", "is_reserved": 0, "rental_uris": {"android": "https://dc.lft.to/lastmile_qr_scan", "ios": "https://dc.lft.to/lastmile_qr_scan"}, "fusion_lon": 0.0}, {"lat": 38.933753833333334, "is_disabled": 0, "type": "electric_scooter", "lon": -77.03792016666667, "bike_id": "12397c483cf3c57f20a14d8c31612b73", "fusion_lat": 0.0, "name": "12397c483cf3c57f20a14d8c31612b73", "is_reserved": 0, "rental_uris": {"android": "https://dc.lft.to/lastmile_qr_scan", "ios": "https://dc.lft.to/lastmile_qr_scan"}, "fusion_lon": 0.0}, {"lat": 38.96265183333333, "is_disabled": 0, "type": "electric_bike", "lon": -77.03264183333333, "bike_id": "490cc16b6c8bb541a5bd73d798b5d4fc", "fusion_lat": 0.0, "name": "490cc16b6c8bb541a5bd73d798b5d4fc", "is_reserved": 0, "rental_uris": {"android": "https://dc.lft.to/lastmile_qr_scan", "ios": "https://dc.lft.to/lastmile_qr_scan"}, "fusion_lon": 0.0}, {"lat": 38.9196605, "is_disabled": 0, "type": "electric_scooter", "lon": -77.04883816666667, "bike_id": "f966bcafa7fdc6ca04c9950bf5819549", "fusion_lat": 0.0, "name": "f966bcafa7fdc6ca04c9950bf5819549", "is_reserved": 0, "rental_uris": {"android": "https://dc.lft.to/lastmile_qr_scan", "ios": "https://dc.lft.to/lastmile_qr_scan"}, "fusion_lon": 0.0}, {"lat": 38.900714666666666, "is_disabled": 0, "type": "electric_scooter", "lon": -77.00207083333333, "bike_id": "dc491d719f1a7cad287eeba9b715f3dc", "fusion_lat": 0.0, "name": "dc491d719f1a7cad287eeba9b715f3dc", "is_reserved": 0, "rental_uris": {"android": "https://dc.lft.to/lastmile_qr_scan", "ios": "https://dc.lft.to/lastmile_qr_scan"}, "fusion_lon": 0.0}, {"lat": 38.923330166666666, "is_disabled": 0, "type": "electric_scooter", "lon": -77.02700683333333, "bike_id": "c01ea173f8f90d3dd5dcef7756be1cc4", "fusion_lat": 0.0, "name": "c01ea173f8f90d3dd5dcef7756be1cc4", "is_reserved": 0, "rental_uris": {"android": "https://dc.lft.to/lastmile_qr_scan", "ios": "https://dc.lft.to/lastmile_qr_scan"}, "fusion_lon": 0.0}, {"lat": 38.89974866666667, "is_disabled": 0, "type": "electric_scooter", "lon": -76.92661233333334, "bike_id": "82e0b38fa8b740d8c37837c1bd7dd555", "fusion_lat": 0.0, "name": "82e0b38fa8b740d8c37837c1bd7dd555", "is_reserved": 0, "rental_uris": {"android": "https://dc.lft.to/lastmile_qr_scan", "ios": "https://dc.lft.to/lastmile_qr_scan"}, "fusion_lon": 0.0}, {"lat": 38.92316116666667, "is_disabled": 0, "type": "electric_scooter", "lon": -77.0385995, "bike_id": "b9ca8174253cbb0f7d7fee29c47d75b4", "fusion_lat": 0.0, "name": "b9ca8174253cbb0f7d7fee29c47d75b4", "is_reserved": 0, "rental_uris": {"android": "https://dc.lft.to/lastmile_qr_scan", "ios": "https://dc.lft.to/lastmile_qr_scan"}, "fusion_lon": 0.0}, {"lat": 39.05193916666666, "is_disabled": 0, "type": "electric_bike", "lon": -77.10932166666667, "bike_id": "6fa076220b0a2b44d842108203e2aaf9", "fusion_lat": 0.0, "name": "6fa076220b0a2b44d842108203e2aaf9", "is_reserved": 0, "rental_uris": {"android": "https://dc.lft.to/lastmile_qr_scan", "ios": "https://dc.lft.to/lastmile_qr_scan"}, "fusion_lon": 0.0}, {"lat": 38.90500683333333, "is_disabled": 0, "type": "electric_scooter", "lon": -77.02955233333333, "bike_id": "f6503f047abf000848fb7fd66726ad81", "fusion_lat": 0.0, "name": "f6503f047abf000848fb7fd66726ad81", "is_reserved": 0, "rental_uris": {"android": "https://dc.lft.to/lastmile_qr_scan", "ios": "https://dc.lft.to/lastmile_qr_scan"}, "fusion_lon": 0.0}, {"lat": 38.90721283333333, "is_disabled": 0, "type": "electric_scooter", "lon": -77.04822816666666, "bike_id": "75afb592fc55b64c7ab07280509aa3fa", "fusion_lat": 0.0, "name": "75afb592fc55b64c7ab07280509aa3fa", "is_reserved": 0, "rental_uris": {"android": "https://dc.lft.to/lastmile_qr_scan", "ios": "https://dc.lft.to/lastmile_qr_scan"}, "fusion_lon": 0.0}, {"lat": 38.89229316666667, "is_disabled": 0, "type": "electric_scooter", "lon": -77.05003, "bike_id": "d44e8a93ad35b116fd8b343ad034ef76", "fusion_lat": 0.0, "name": "d44e8a93ad35b116fd8b343ad034ef76", "is_reserved": 0, "rental_uris": {"android": "https://dc.lft.to/lastmile_qr_scan", "ios": "https://dc.lft.to/lastmile_qr_scan"}, "fusion_lon": 0.0}, {"lat": 38.8545125, "is_disabled": 0, "type": "electric_scooter", "lon": -76.97227083333334, "bike_id": "fa674223a2b12eb5dbc63d45f897a1bb", "fusion_lat": 0.0, "name": "fa674223a2b12eb5dbc63d45f897a1bb", "is_reserved": 0, "rental_uris": {"android": "https://dc.lft.to/lastmile_qr_scan", "ios": "https://dc.lft.to/lastmile_qr_scan"}, "fusion_lon": 0.0}, {"lat": 38.8850075, "is_disabled": 0, "type": "electric_scooter", "lon": -77.00564866666667, "bike_id": "50a1da28e9d2a4022d12cfffedf3cb05", "fusion_lat": 0.0, "name": "50a1da28e9d2a4022d12cfffedf3cb05", "is_reserved": 0, "rental_uris": {"android": "https://dc.lft.to/lastmile_qr_scan", "ios": "https://dc.lft.to/lastmile_qr_scan"}, "fusion_lon": 0.0}, {"lat": 38.97842, "is_disabled": 0, "type": "electric_bike", "lon": -77.02650166666666, "bike_id": "dc1494d2a12d3658edf4ffdc814b345f", "fusion_lat": 0.0, "name": "dc1494d2a12d3658edf4ffdc814b345f", "is_reserved": 0, "rental_uris": {"android": "https://dc.lft.to/lastmile_qr_scan", "ios": "https://dc.lft.to/lastmile_qr_scan"}, "fusion_lon": 0.0}, {"lat": 38.890015166666664, "is_disabled": 0, "type": "electric_scooter", "lon": -77.04891166666667, "bike_id": "6c064ca41db2bc925c1e5f2ffae7169f", "fusion_lat": 0.0, "name": "6c064ca41db2bc925c1e5f2ffae7169f", "is_reserved": 0, "rental_uris": {"android": "https://dc.lft.to/lastmile_qr_scan", "ios": "https://dc.lft.to/lastmile_qr_scan"}, "fusion_lon": 0.0}, {"lat": 38.91782416666667, "is_disabled": 0, "type": "electric_scooter", "lon": -77.0441835, "bike_id": "af789f1084aef67b02b9eab16651cbc5", "fusion_lat": 0.0, "name": "af789f1084aef67b02b9eab16651cbc5", "is_reserved": 0, "rental_uris": {"android": "https://dc.lft.to/lastmile_qr_scan", "ios": "https://dc.lft.to/lastmile_qr_scan"}, "fusion_lon": 0.0}, {"lat": 38.92792033333333, "is_disabled": 0, "type": "electric_bike", "lon": -76.9722015, "bike_id": "9dfc1ced02f0c3b9d19dec5d9d93fa45", "fusion_lat": 0.0, "name": "9dfc1ced02f0c3b9d19dec5d9d93fa45", "is_reserved": 0, "rental_uris": {"android": "https://dc.lft.to/lastmile_qr_scan", "ios": "https://dc.lft.to/lastmile_qr_scan"}, "fusion_lon": 0.0}, {"lat": 38.8638555, "is_disabled": 0, "type": "electric_scooter", "lon": -76.9924975, "bike_id": "3c2cb9967f911e0a312182b828d51007", "fusion_lat": 0.0, "name": "3c2cb9967f911e0a312182b828d51007", "is_reserved": 0, "rental_uris": {"android": "https://dc.lft.to/lastmile_qr_scan", "ios": "https://dc.lft.to/lastmile_qr_scan"}, "fusion_lon": 0.0}, {"lat": 38.855086166666666, "is_disabled": 0, "type": "electric_bike", "lon": -77.120332, "bike_id": "c0e556a3af6c09de818c75b7a8971c3e", "fusion_lat": 0.0, "name": "c0e556a3af6c09de818c75b7a8971c3e", "is_reserved": 0, "rental_uris": {"android": "https://dc.lft.to/lastmile_qr_scan", "ios": "https://dc.lft.to/lastmile_qr_scan"}, "fusion_lon": 0.0}, {"lat": 38.923605, "is_disabled": 0, "type": "electric_scooter", "lon": -77.04383316666667, "bike_id": "0d2d7bd6b00c717cb685d469cfa6eda8", "fusion_lat": 0.0, "name": "0d2d7bd6b00c717cb685d469cfa6eda8", "is_reserved": 0, "rental_uris": {"android": "https://dc.lft.to/lastmile_qr_scan", "ios": "https://dc.lft.to/lastmile_qr_scan"}, "fusion_lon": 0.0}, {"lat": 38.9430945, "is_disabled": 0, "type": "electric_scooter", "lon": -77.0592325, "bike_id": "5deaf99ccc49633d422d0d2866425895", "fusion_lat": 0.0, "name": "5deaf99ccc49633d422d0d2866425895", "is_reserved": 0, "rental_uris": {"android": "https://dc.lft.to/lastmile_qr_scan", "ios": "https://dc.lft.to/lastmile_qr_scan"}, "fusion_lon": 0.0}, {"lat": 38.865544166666666, "is_disabled": 0, "type": "electric_bike", "lon": -76.97355366666666, "bike_id": "178eac36dde1531abddb9a6c07dadda6", "fusion_lat": 0.0, "name": "178eac36dde1531abddb9a6c07dadda6", "is_reserved": 0, "rental_uris": {"android": "https://dc.lft.to/lastmile_qr_scan", "ios": "https://dc.lft.to/lastmile_qr_scan"}, "fusion_lon": 0.0}, {"lat": 38.924503333333334, "is_disabled": 0, "type": "electric_scooter", "lon": -77.02026483333333, "bike_id": "debbe1236fd432ef5cf8419d3fe6a4d7", "fusion_lat": 0.0, "name": "debbe1236fd432ef5cf8419d3fe6a4d7", "is_reserved": 0, "rental_uris": {"android": "https://dc.lft.to/lastmile_qr_scan", "ios": "https://dc.lft.to/lastmile_qr_scan"}, "fusion_lon": 0.0}, {"lat": 38.832265666666665, "is_disabled": 0, "type": "electric_bike", "lon": -77.049765, "bike_id": "a3f8b6af99011d38563797f1e376604c", "fusion_lat": 0.0, "name": "a3f8b6af99011d38563797f1e376604c", "is_reserved": 0, "rental_uris": {"android": "https://dc.lft.to/lastmile_qr_scan", "ios": "https://dc.lft.to/lastmile_qr_scan"}, "fusion_lon": 0.0}, {"lat": 38.89741733333334, "is_disabled": 0, "type": "electric_scooter", "lon": -77.0007435, "bike_id": "b754e47e5a832cbc9c1b652d68aa2dad", "fusion_lat": 0.0, "name": "b754e47e5a832cbc9c1b652d68aa2dad", "is_reserved": 0, "rental_uris": {"android": "https://dc.lft.to/lastmile_qr_scan", "ios": "https://dc.lft.to/lastmile_qr_scan"}, "fusion_lon": 0.0}, {"lat": 38.90013116666667, "is_disabled": 0, "type": "electric_scooter", "lon": -77.0119615, "bike_id": "a96ddd79e11d9ffb08671be466c8ce63", "fusion_lat": 0.0, "name": "a96ddd79e11d9ffb08671be466c8ce63", "is_reserved": 0, "rental_uris": {"android": "https://dc.lft.to/lastmile_qr_scan", "ios": "https://dc.lft.to/lastmile_qr_scan"}, "fusion_lon": 0.0}, {"lat": 38.917647333333335, "is_disabled": 0, "type": "electric_scooter", "lon": -77.02813816666666, "bike_id": "befc030ff20d143b0a4d8ac7eb54134e", "fusion_lat": 0.0, "name": "befc030ff20d143b0a4d8ac7eb54134e", "is_reserved": 0, "rental_uris": {"android": "https://dc.lft.to/lastmile_qr_scan", "ios": "https://dc.lft.to/lastmile_qr_scan"}, "fusion_lon": 0.0}, {"lat": 38.933152, "is_disabled": 0, "type": "electric_scooter", "lon": -77.04525566666666, "bike_id": "18731269d57c727ff26558df4ae82ad2", "fusion_lat": 0.0, "name": "18731269d57c727ff26558df4ae82ad2", "is_reserved": 0, "rental_uris": {"android": "https://dc.lft.to/lastmile_qr_scan", "ios": "https://dc.lft.to/lastmile_qr_scan"}, "fusion_lon": 0.0}, {"lat": 38.90976533333333, "is_disabled": 0, "type": "electric_scooter", "lon": -77.0394315, "bike_id": "928d76c66aea436b551c718bed0fb3c5", "fusion_lat": 0.0, "name": "928d76c66aea436b551c718bed0fb3c5", "is_reserved": 0, "rental_uris": {"android": "https://dc.lft.to/lastmile_qr_scan", "ios": "https://dc.lft.to/lastmile_qr_scan"}, "fusion_lon": 0.0}, {"lat": 38.872839166666665, "is_disabled": 0, "type": "electric_scooter", "lon": -77.00989983333334, "bike_id": "41351cbb5b457244f358a7b16087fbda", "fusion_lat": 0.0, "name": "41351cbb5b457244f358a7b16087fbda", "is_reserved": 0, "rental_uris": {"android": "https://dc.lft.to/lastmile_qr_scan", "ios": "https://dc.lft.to/lastmile_qr_scan"}, "fusion_lon": 0.0}, {"lat": 38.8787625, "is_disabled": 0, "type": "electric_scooter", "lon": -77.00742733333334, "bike_id": "6c9d857e88935d861549a5d18500490c", "fusion_lat": 0.0, "name": "6c9d857e88935d861549a5d18500490c", "is_reserved": 0, "rental_uris": {"android": "https://dc.lft.to/lastmile_qr_scan", "ios": "https://dc.lft.to/lastmile_qr_scan"}, "fusion_lon": 0.0}, {"lat": 38.8986995, "is_disabled": 0, "type": "electric_scooter", "lon": -77.02024366666667, "bike_id": "84f56da7a9ae6dc7e643083fe7308b5c", "fusion_lat": 0.0, "name": "84f56da7a9ae6dc7e643083fe7308b5c", "is_reserved": 0, "rental_uris": {"android": "https://dc.lft.to/lastmile_qr_scan", "ios": "https://dc.lft.to/lastmile_qr_scan"}, "fusion_lon": 0.0}, {"lat": 38.8772885, "is_disabled": 0, "type": "electric_bike", "lon": -76.98105933333333, "bike_id": "f85f1985288fb27aafd88227156d463a", "fusion_lat": 0.0, "name": "f85f1985288fb27aafd88227156d463a", "is_reserved": 0, "rental_uris": {"android": "https://dc.lft.to/lastmile_qr_scan", "ios": "https://dc.lft.to/lastmile_qr_scan"}, "fusion_lon": 0.0}, {"lat": 38.86677316666667, "is_disabled": 0, "type": "electric_scooter", "lon": -76.985362, "bike_id": "91781fc94f89224b23dfb6f0a246171b", "fusion_lat": 0.0, "name": "91781fc94f89224b23dfb6f0a246171b", "is_reserved": 0, "rental_uris": {"android": "https://dc.lft.to/lastmile_qr_scan", "ios": "https://dc.lft.to/lastmile_qr_scan"}, "fusion_lon": 0.0}, {"lat": 38.920656, "is_disabled": 0, "type": "electric_scooter", "lon": -77.0479815, "bike_id": "4c50acdb3321e7acfc9a23806e947bf3", "fusion_lat": 0.0, "name": "4c50acdb3321e7acfc9a23806e947bf3", "is_reserved": 0, "rental_uris": {"android": "https://dc.lft.to/lastmile_qr_scan", "ios": "https://dc.lft.to/lastmile_qr_scan"}, "fusion_lon": 0.0}, {"lat": 38.89498283333333, "is_disabled": 0, "type": "electric_scooter", "lon": -77.00210283333334, "bike_id": "796799931f2aa71ea0660b37790af62e", "fusion_lat": 0.0, "name": "796799931f2aa71ea0660b37790af62e", "is_reserved": 0, "rental_uris": {"android": "https://dc.lft.to/lastmile_qr_scan", "ios": "https://dc.lft.to/lastmile_qr_scan"}, "fusion_lon": 0.0}, {"lat": 38.89838616666667, "is_disabled": 0, "type": "electric_scooter", "lon": -76.99503766666666, "bike_id": "183810173dc27d59bd7bf32270df2261", "fusion_lat": 0.0, "name": "183810173dc27d59bd7bf32270df2261", "is_reserved": 0, "rental_uris": {"android": "https://dc.lft.to/lastmile_qr_scan", "ios": "https://dc.lft.to/lastmile_qr_scan"}, "fusion_lon": 0.0}, {"lat": 38.9224485, "is_disabled": 0, "type": "electric_scooter", "lon": -77.04344483333334, "bike_id": "25751986b0617989eec181012b1cb20f", "fusion_lat": 0.0, "name": "25751986b0617989eec181012b1cb20f", "is_reserved": 0, "rental_uris": {"android": "https://dc.lft.to/lastmile_qr_scan", "ios": "https://dc.lft.to/lastmile_qr_scan"}, "fusion_lon": 0.0}, {"lat": 38.908728333333336, "is_disabled": 0, "type": "electric_scooter", "lon": -77.00361266666667, "bike_id": "bbdf18824e06c755a06d0dbbfd493531", "fusion_lat": 0.0, "name": "bbdf18824e06c755a06d0dbbfd493531", "is_reserved": 0, "rental_uris": {"android": "https://dc.lft.to/lastmile_qr_scan", "ios": "https://dc.lft.to/lastmile_qr_scan"}, "fusion_lon": 0.0}, {"lat": 38.903956666666666, "is_disabled": 0, "type": "electric_scooter", "lon": -76.9846505, "bike_id": "b9e4e9336ed31d5edcb84a51ff82fddc", "fusion_lat": 0.0, "name": "b9e4e9336ed31d5edcb84a51ff82fddc", "is_reserved": 0, "rental_uris": {"android": "https://dc.lft.to/lastmile_qr_scan", "ios": "https://dc.lft.to/lastmile_qr_scan"}, "fusion_lon": 0.0}, {"lat": 38.96228983333334, "is_disabled": 0, "type": "electric_bike", "lon": -77.02633466666667, "bike_id": "b800c9e9af3299a476ea6b669cfec0a7", "fusion_lat": 0.0, "name": "b800c9e9af3299a476ea6b669cfec0a7", "is_reserved": 0, "rental_uris": {"android": "https://dc.lft.to/lastmile_qr_scan", "ios": "https://dc.lft.to/lastmile_qr_scan"}, "fusion_lon": 0.0}, {"lat": 38.926776, "is_disabled": 0, "type": "electric_scooter", "lon": -77.00739083333333, "bike_id": "fb444dac217a30883102319828a17ca6", "fusion_lat": 0.0, "name": "fb444dac217a30883102319828a17ca6", "is_reserved": 0, "rental_uris": {"android": "https://dc.lft.to/lastmile_qr_scan", "ios": "https://dc.lft.to/lastmile_qr_scan"}, "fusion_lon": 0.0}, {"lat": 38.8935385, "is_disabled": 0, "type": "electric_scooter", "lon": -77.03982633333334, "bike_id": "c18c706fd3bd5d54b6d2e39db4df0976", "fusion_lat": 0.0, "name": "c18c706fd3bd5d54b6d2e39db4df0976", "is_reserved": 0, "rental_uris": {"android": "https://dc.lft.to/lastmile_qr_scan", "ios": "https://dc.lft.to/lastmile_qr_scan"}, "fusion_lon": 0.0}, {"lat": 38.902372, "is_disabled": 0, "type": "electric_scooter", "lon": -77.028144, "bike_id": "986bd874690756a8f2ba06597ea28584", "fusion_lat": 0.0, "name": "986bd874690756a8f2ba06597ea28584", "is_reserved": 0, "rental_uris": {"android": "https://dc.lft.to/lastmile_qr_scan", "ios": "https://dc.lft.to/lastmile_qr_scan"}, "fusion_lon": 0.0}, {"lat": 38.8922215, "is_disabled": 0, "type": "electric_bike", "lon": -77.10778566666667, "bike_id": "82a3ceb9c5438dd3127502d29adc25e9", "fusion_lat": 0.0, "name": "82a3ceb9c5438dd3127502d29adc25e9", "is_reserved": 0, "rental_uris": {"android": "https://dc.lft.to/lastmile_qr_scan", "ios": "https://dc.lft.to/lastmile_qr_scan"}, "fusion_lon": 0.0}, {"lat": 38.913332833333335, "is_disabled": 0, "type": "electric_scooter", "lon": -77.01265766666667, "bike_id": "6969042efb8352c9c119f0adc067e9f3", "fusion_lat": 0.0, "name": "6969042efb8352c9c119f0adc067e9f3", "is_reserved": 0, "rental_uris": {"android": "https://dc.lft.to/lastmile_qr_scan", "ios": "https://dc.lft.to/lastmile_qr_scan"}, "fusion_lon": 0.0}, {"lat": 38.88696433333333, "is_disabled": 0, "type": "electric_scooter", "lon": -77.01761583333334, "bike_id": "4dbbb54a69063ec3d519c8efddddb226", "fusion_lat": 0.0, "name": "4dbbb54a69063ec3d519c8efddddb226", "is_reserved": 0, "rental_uris": {"android": "https://dc.lft.to/lastmile_qr_scan", "ios": "https://dc.lft.to/lastmile_qr_scan"}, "fusion_lon": 0.0}, {"lat": 38.931961333333334, "is_disabled": 0, "type": "electric_scooter", "lon": -77.02356083333333, "bike_id": "fff821ec92b6ff307c101b743a25e2a5", "fusion_lat": 0.0, "name": "fff821ec92b6ff307c101b743a25e2a5", "is_reserved": 0, "rental_uris": {"android": "https://dc.lft.to/lastmile_qr_scan", "ios": "https://dc.lft.to/lastmile_qr_scan"}, "fusion_lon": 0.0}, {"lat": 38.917699, "is_disabled": 0, "type": "electric_scooter", "lon": -77.02888266666666, "bike_id": "9da723ea05a44ad47d38ea5cb78da958", "fusion_lat": 0.0, "name": "9da723ea05a44ad47d38ea5cb78da958", "is_reserved": 0, "rental_uris": {"android": "https://dc.lft.to/lastmile_qr_scan", "ios": "https://dc.lft.to/lastmile_qr_scan"}, "fusion_lon": 0.0}, {"lat": 38.903260833333334, "is_disabled": 0, "type": "electric_scooter", "lon": -77.02877816666667, "bike_id": "81593fb492ec81ee752dfdcf047941fb", "fusion_lat": 0.0, "name": "81593fb492ec81ee752dfdcf047941fb", "is_reserved": 0, "rental_uris": {"android": "https://dc.lft.to/lastmile_qr_scan", "ios": "https://dc.lft.to/lastmile_qr_scan"}, "fusion_lon": 0.0}, {"lat": 38.87214183333333, "is_disabled": 0, "type": "electric_bike", "lon": -77.015269, "bike_id": "723f4079783186a5aa11efc3d7dd0b71", "fusion_lat": 0.0, "name": "723f4079783186a5aa11efc3d7dd0b71", "is_reserved": 0, "rental_uris": {"android": "https://dc.lft.to/lastmile_qr_scan", "ios": "https://dc.lft.to/lastmile_qr_scan"}, "fusion_lon": 0.0}, {"lat": 38.92859166666667, "is_disabled": 0, "type": "electric_bike", "lon": -77.22214016666666, "bike_id": "24a85cfb2b7ef00929705c3105d581a3", "fusion_lat": 0.0, "name": "24a85cfb2b7ef00929705c3105d581a3", "is_reserved": 0, "rental_uris": {"android": "https://dc.lft.to/lastmile_qr_scan", "ios": "https://dc.lft.to/lastmile_qr_scan"}, "fusion_lon": 0.0}, {"lat": 38.93136233333333, "is_disabled": 0, "type": "electric_scooter", "lon": -77.0325095, "bike_id": "72d8437002c227bb9f4e3adbcb1bbf2c", "fusion_lat": 0.0, "name": "72d8437002c227bb9f4e3adbcb1bbf2c", "is_reserved": 0, "rental_uris": {"android": "https://dc.lft.to/lastmile_qr_scan", "ios": "https://dc.lft.to/lastmile_qr_scan"}, "fusion_lon": 0.0}, {"lat": 38.965625833333334, "is_disabled": 0, "type": "electric_bike", "lon": -77.02041583333333, "bike_id": "a69a05d494f5399fcaa6991902897c32", "fusion_lat": 0.0, "name": "a69a05d494f5399fcaa6991902897c32", "is_reserved": 0, "rental_uris": {"android": "https://dc.lft.to/lastmile_qr_scan", "ios": "https://dc.lft.to/lastmile_qr_scan"}, "fusion_lon": 0.0}, {"lat": 38.902499166666665, "is_disabled": 0, "type": "electric_scooter", "lon": -77.0433615, "bike_id": "efdcc1bc365f40a9a0e9b80fdf129775", "fusion_lat": 0.0, "name": "efdcc1bc365f40a9a0e9b80fdf129775", "is_reserved": 0, "rental_uris": {"android": "https://dc.lft.to/lastmile_qr_scan", "ios": "https://dc.lft.to/lastmile_qr_scan"}, "fusion_lon": 0.0}, {"lat": 39.088559, "is_disabled": 0, "type": "electric_bike", "lon": -77.17841533333333, "bike_id": "9e495cf54fc00ebce8c3d0ff392be804", "fusion_lat": 0.0, "name": "9e495cf54fc00ebce8c3d0ff392be804", "is_reserved": 0, "rental_uris": {"android": "https://dc.lft.to/lastmile_qr_scan", "ios": "https://dc.lft.to/lastmile_qr_scan"}, "fusion_lon": 0.0}, {"lat": 38.92264016666667, "is_disabled": 0, "type": "electric_scooter", "lon": -77.0429405, "bike_id": "008788b142f4755e46e53a73aa033401", "fusion_lat": 0.0, "name": "008788b142f4755e46e53a73aa033401", "is_reserved": 0, "rental_uris": {"android": "https://dc.lft.to/lastmile_qr_scan", "ios": "https://dc.lft.to/lastmile_qr_scan"}, "fusion_lon": 0.0}, {"lat": 38.89975116666667, "is_disabled": 0, "type": "electric_scooter", "lon": -77.023048, "bike_id": "7b4365325f914dc2a0406a1cf7352a6d", "fusion_lat": 0.0, "name": "7b4365325f914dc2a0406a1cf7352a6d", "is_reserved": 0, "rental_uris": {"android": "https://dc.lft.to/lastmile_qr_scan", "ios": "https://dc.lft.to/lastmile_qr_scan"}, "fusion_lon": 0.0}, {"lat": 38.92202616666667, "is_disabled": 0, "type": "electric_scooter", "lon": -76.95661333333334, "bike_id": "ef834965ba6eb1d518e78427f34d0726", "fusion_lat": 0.0, "name": "ef834965ba6eb1d518e78427f34d0726", "is_reserved": 0, "rental_uris": {"android": "https://dc.lft.to/lastmile_qr_scan", "ios": "https://dc.lft.to/lastmile_qr_scan"}, "fusion_lon": 0.0}, {"lat": 38.906330833333335, "is_disabled": 0, "type": "electric_scooter", "lon": -77.04661566666667, "bike_id": "abe9199fd9d153e32bf1d8a475b5aeb1", "fusion_lat": 0.0, "name": "abe9199fd9d153e32bf1d8a475b5aeb1", "is_reserved": 0, "rental_uris": {"android": "https://dc.lft.to/lastmile_qr_scan", "ios": "https://dc.lft.to/lastmile_qr_scan"}, "fusion_lon": 0.0}, {"lat": 38.9079545, "is_disabled": 0, "type": "electric_scooter", "lon": -76.9969195, "bike_id": "5889887662ef62f3da96c0905844f213", "fusion_lat": 0.0, "name": "5889887662ef62f3da96c0905844f213", "is_reserved": 0, "rental_uris": {"android": "https://dc.lft.to/lastmile_qr_scan", "ios": "https://dc.lft.to/lastmile_qr_scan"}, "fusion_lon": 0.0}, {"lat": 38.894815333333334, "is_disabled": 0, "type": "electric_scooter", "lon": -77.01103566666667, "bike_id": "09ae0f73dae36e625939161263d96b91", "fusion_lat": 0.0, "name": "09ae0f73dae36e625939161263d96b91", "is_reserved": 0, "rental_uris": {"android": "https://dc.lft.to/lastmile_qr_scan", "ios": "https://dc.lft.to/lastmile_qr_scan"}, "fusion_lon": 0.0}, {"lat": 38.915308, "is_disabled": 0, "type": "electric_scooter", "lon": -77.03842983333334, "bike_id": "77e6e164dee089d86306182112b35c25", "fusion_lat": 0.0, "name": "77e6e164dee089d86306182112b35c25", "is_reserved": 0, "rental_uris": {"android": "https://dc.lft.to/lastmile_qr_scan", "ios": "https://dc.lft.to/lastmile_qr_scan"}, "fusion_lon": 0.0}, {"lat": 38.923872833333334, "is_disabled": 0, "type": "electric_scooter", "lon": -77.0365305, "bike_id": "d26686d86d40960d230c2839c2b5c956", "fusion_lat": 0.0, "name": "d26686d86d40960d230c2839c2b5c956", "is_reserved": 0, "rental_uris": {"android": "https://dc.lft.to/lastmile_qr_scan", "ios": "https://dc.lft.to/lastmile_qr_scan"}, "fusion_lon": 0.0}, {"lat": 38.93695833333334, "is_disabled": 0, "type": "electric_bike", "lon": -77.0298555, "bike_id": "80ac878b4c6b911e1d5b14dc3534f0a4", "fusion_lat": 0.0, "name": "80ac878b4c6b911e1d5b14dc3534f0a4", "is_reserved": 0, "rental_uris": {"android": "https://dc.lft.to/lastmile_qr_scan", "ios": "https://dc.lft.to/lastmile_qr_scan"}, "fusion_lon": 0.0}, {"lat": 38.91866683333333, "is_disabled": 0, "type": "electric_scooter", "lon": -77.040263, "bike_id": "64da9b2cd7d57abf17dd30702a86c1b7", "fusion_lat": 0.0, "name": "64da9b2cd7d57abf17dd30702a86c1b7", "is_reserved": 0, "rental_uris": {"android": "https://dc.lft.to/lastmile_qr_scan", "ios": "https://dc.lft.to/lastmile_qr_scan"}, "fusion_lon": 0.0}, {"lat": 38.917527666666665, "is_disabled": 0, "type": "electric_scooter", "lon": -77.036587, "bike_id": "9d30f7c1ddf32b8bbf56b2b5fa059286", "fusion_lat": 0.0, "name": "9d30f7c1ddf32b8bbf56b2b5fa059286", "is_reserved": 0, "rental_uris": {"android": "https://dc.lft.to/lastmile_qr_scan", "ios": "https://dc.lft.to/lastmile_qr_scan"}, "fusion_lon": 0.0}, {"lat": 38.91993733333334, "is_disabled": 0, "type": "electric_scooter", "lon": -77.03966816666667, "bike_id": "1a382c4a68630f3b66a65cf702c952fe", "fusion_lat": 0.0, "name": "1a382c4a68630f3b66a65cf702c952fe", "is_reserved": 0, "rental_uris": {"android": "https://dc.lft.to/lastmile_qr_scan", "ios": "https://dc.lft.to/lastmile_qr_scan"}, "fusion_lon": 0.0}, {"lat": 38.910118, "is_disabled": 0, "type": "electric_scooter", "lon": -77.02693083333334, "bike_id": "fec2b9224650040b579ed27b877e2a73", "fusion_lat": 0.0, "name": "fec2b9224650040b579ed27b877e2a73", "is_reserved": 0, "rental_uris": {"android": "https://dc.lft.to/lastmile_qr_scan", "ios": "https://dc.lft.to/lastmile_qr_scan"}, "fusion_lon": 0.0}, {"lat": 38.895136666666666, "is_disabled": 0, "type": "electric_scooter", "lon": -76.94900416666667, "bike_id": "edd9b6811c029cdea4be9007673df7cb", "fusion_lat": 0.0, "name": "edd9b6811c029cdea4be9007673df7cb", "is_reserved": 0, "rental_uris": {"android": "https://dc.lft.to/lastmile_qr_scan", "ios": "https://dc.lft.to/lastmile_qr_scan"}, "fusion_lon": 0.0}, {"lat": 38.91296116666667, "is_disabled": 0, "type": "electric_scooter", "lon": -77.040193, "bike_id": "3cc3336598a4c486b9f0120f29ba7866", "fusion_lat": 0.0, "name": "3cc3336598a4c486b9f0120f29ba7866", "is_reserved": 0, "rental_uris": {"android": "https://dc.lft.to/lastmile_qr_scan", "ios": "https://dc.lft.to/lastmile_qr_scan"}, "fusion_lon": 0.0}, {"lat": 38.91704, "is_disabled": 0, "type": "electric_scooter", "lon": -77.034586, "bike_id": "bc53b2c90e63780f0b08f891e6e29503", "fusion_lat": 0.0, "name": "bc53b2c90e63780f0b08f891e6e29503", "is_reserved": 0, "rental_uris": {"android": "https://dc.lft.to/lastmile_qr_scan", "ios": "https://dc.lft.to/lastmile_qr_scan"}, "fusion_lon": 0.0}, {"lat": 38.970897666666666, "is_disabled": 0, "type": "electric_bike", "lon": -77.069629, "bike_id": "278eb429f20a1c4e68fbcc6417a138a7", "fusion_lat": 0.0, "name": "278eb429f20a1c4e68fbcc6417a138a7", "is_reserved": 0, "rental_uris": {"android": "https://dc.lft.to/lastmile_qr_scan", "ios": "https://dc.lft.to/lastmile_qr_scan"}, "fusion_lon": 0.0}, {"lat": 38.92678633333333, "is_disabled": 0, "type": "electric_scooter", "lon": -77.02858483333333, "bike_id": "2d98a525fe04af602721d87253d981c5", "fusion_lat": 0.0, "name": "2d98a525fe04af602721d87253d981c5", "is_reserved": 0, "rental_uris": {"android": "https://dc.lft.to/lastmile_qr_scan", "ios": "https://dc.lft.to/lastmile_qr_scan"}, "fusion_lon": 0.0}, {"lat": 38.85208166666666, "is_disabled": 0, "type": "electric_bike", "lon": -77.10126166666667, "bike_id": "7382dea0658c8ffe3721ad539b390d97", "fusion_lat": 0.0, "name": "7382dea0658c8ffe3721ad539b390d97", "is_reserved": 0, "rental_uris": {"android": "https://dc.lft.to/lastmile_qr_scan", "ios": "https://dc.lft.to/lastmile_qr_scan"}, "fusion_lon": 0.0}, {"lat": 38.923473, "is_disabled": 0, "type": "electric_scooter", "lon": -77.03566966666666, "bike_id": "f3eeb90bc3b3484ccac180df908fd936", "fusion_lat": 0.0, "name": "f3eeb90bc3b3484ccac180df908fd936", "is_reserved": 0, "rental_uris": {"android": "https://dc.lft.to/lastmile_qr_scan", "ios": "https://dc.lft.to/lastmile_qr_scan"}, "fusion_lon": 0.0}, {"lat": 38.89839716666667, "is_disabled": 0, "type": "electric_scooter", "lon": -76.94464516666666, "bike_id": "91e0d7931a099758c5d7fd448e276638", "fusion_lat": 0.0, "name": "91e0d7931a099758c5d7fd448e276638", "is_reserved": 0, "rental_uris": {"android": "https://dc.lft.to/lastmile_qr_scan", "ios": "https://dc.lft.to/lastmile_qr_scan"}, "fusion_lon": 0.0}, {"lat": 39.075040333333334, "is_disabled": 0, "type": "electric_bike", "lon": -77.1189745, "bike_id": "44c8a0f800eb1d6b95a5ba5cf8f05648", "fusion_lat": 0.0, "name": "44c8a0f800eb1d6b95a5ba5cf8f05648", "is_reserved": 0, "rental_uris": {"android": "https://dc.lft.to/lastmile_qr_scan", "ios": "https://dc.lft.to/lastmile_qr_scan"}, "fusion_lon": 0.0}, {"lat": 38.905526333333334, "is_disabled": 0, "type": "electric_bike", "lon": -77.00487966666667, "bike_id": "2cada24efd409c523977e4b8af14ccbc", "fusion_lat": 0.0, "name": "2cada24efd409c523977e4b8af14ccbc", "is_reserved": 0, "rental_uris": {"android": "https://dc.lft.to/lastmile_qr_scan", "ios": "https://dc.lft.to/lastmile_qr_scan"}, "fusion_lon": 0.0}, {"lat": 38.86287216666667, "is_disabled": 0, "type": "electric_scooter", "lon": -76.99235416666667, "bike_id": "20ccd4c6638611d1d4a24942c061a42d", "fusion_lat": 0.0, "name": "20ccd4c6638611d1d4a24942c061a42d", "is_reserved": 0, "rental_uris": {"android": "https://dc.lft.to/lastmile_qr_scan", "ios": "https://dc.lft.to/lastmile_qr_scan"}, "fusion_lon": 0.0}, {"lat": 38.928007, "is_disabled": 0, "type": "electric_scooter", "lon": -77.05421466666667, "bike_id": "7486ce29f7a3e9abffb4e9b84e70d0d7", "fusion_lat": 0.0, "name": "7486ce29f7a3e9abffb4e9b84e70d0d7", "is_reserved": 0, "rental_uris": {"android": "https://dc.lft.to/lastmile_qr_scan", "ios": "https://dc.lft.to/lastmile_qr_scan"}, "fusion_lon": 0.0}, {"lat": 38.92109516666667, "is_disabled": 0, "type": "electric_scooter", "lon": -77.0456965, "bike_id": "40dd8ed296d776e3dbc2ded87df2a63f", "fusion_lat": 0.0, "name": "40dd8ed296d776e3dbc2ded87df2a63f", "is_reserved": 0, "rental_uris": {"android": "https://dc.lft.to/lastmile_qr_scan", "ios": "https://dc.lft.to/lastmile_qr_scan"}, "fusion_lon": 0.0}, {"lat": 38.925887, "is_disabled": 0, "type": "electric_scooter", "lon": -77.0527975, "bike_id": "236587921bdac72ef3b4d09ea0cf928e", "fusion_lat": 0.0, "name": "236587921bdac72ef3b4d09ea0cf928e", "is_reserved": 0, "rental_uris": {"android": "https://dc.lft.to/lastmile_qr_scan", "ios": "https://dc.lft.to/lastmile_qr_scan"}, "fusion_lon": 0.0}, {"lat": 38.91461233333333, "is_disabled": 0, "type": "electric_scooter", "lon": -77.00204666666667, "bike_id": "27b3d417e9d4a6fd6933c09c0872e65e", "fusion_lat": 0.0, "name": "27b3d417e9d4a6fd6933c09c0872e65e", "is_reserved": 0, "rental_uris": {"android": "https://dc.lft.to/lastmile_qr_scan", "ios": "https://dc.lft.to/lastmile_qr_scan"}, "fusion_lon": 0.0}, {"lat": 38.93583666666667, "is_disabled": 0, "type": "electric_bike", "lon": -77.106836, "bike_id": "21c9630f9fa817fe2777a74aebbf4c19", "fusion_lat": 0.0, "name": "21c9630f9fa817fe2777a74aebbf4c19", "is_reserved": 0, "rental_uris": {"android": "https://dc.lft.to/lastmile_qr_scan", "ios": "https://dc.lft.to/lastmile_qr_scan"}, "fusion_lon": 0.0}, {"lat": 38.9413675, "is_disabled": 0, "type": "electric_scooter", "lon": -77.07613316666666, "bike_id": "1456e1e3e273c3aaa73a4c61f96f2d14", "fusion_lat": 0.0, "name": "1456e1e3e273c3aaa73a4c61f96f2d14", "is_reserved": 0, "rental_uris": {"android": "https://dc.lft.to/lastmile_qr_scan", "ios": "https://dc.lft.to/lastmile_qr_scan"}, "fusion_lon": 0.0}, {"lat": 38.89999666666667, "is_disabled": 0, "type": "electric_scooter", "lon": -77.03300766666666, "bike_id": "7f2ab8d5eb8b6ffc1fb8869866c6852c", "fusion_lat": 0.0, "name": "7f2ab8d5eb8b6ffc1fb8869866c6852c", "is_reserved": 0, "rental_uris": {"android": "https://dc.lft.to/lastmile_qr_scan", "ios": "https://dc.lft.to/lastmile_qr_scan"}, "fusion_lon": 0.0}, {"lat": 38.909481666666665, "is_disabled": 0, "type": "electric_scooter", "lon": -77.04655983333333, "bike_id": "89ff503351255081b554afbcb15537bf", "fusion_lat": 0.0, "name": "89ff503351255081b554afbcb15537bf", "is_reserved": 0, "rental_uris": {"android": "https://dc.lft.to/lastmile_qr_scan", "ios": "https://dc.lft.to/lastmile_qr_scan"}, "fusion_lon": 0.0}, {"lat": 38.916381333333334, "is_disabled": 0, "type": "electric_scooter", "lon": -77.02692266666666, "bike_id": "2e772f699e50a4e8a0e50bf4829774ba", "fusion_lat": 0.0, "name": "2e772f699e50a4e8a0e50bf4829774ba", "is_reserved": 0, "rental_uris": {"android": "https://dc.lft.to/lastmile_qr_scan", "ios": "https://dc.lft.to/lastmile_qr_scan"}, "fusion_lon": 0.0}, {"lat": 38.89526466666667, "is_disabled": 0, "type": "electric_scooter", "lon": -77.00061833333334, "bike_id": "4ba5905929b9d089b62468dea524a21f", "fusion_lat": 0.0, "name": "4ba5905929b9d089b62468dea524a21f", "is_reserved": 0, "rental_uris": {"android": "https://dc.lft.to/lastmile_qr_scan", "ios": "https://dc.lft.to/lastmile_qr_scan"}, "fusion_lon": 0.0}, {"lat": 38.900094333333335, "is_disabled": 0, "type": "electric_scooter", "lon": -77.03350433333334, "bike_id": "5e40ef2a836aefa4f2aa1b45a03b30c9", "fusion_lat": 0.0, "name": "5e40ef2a836aefa4f2aa1b45a03b30c9", "is_reserved": 0, "rental_uris": {"android": "https://dc.lft.to/lastmile_qr_scan", "ios": "https://dc.lft.to/lastmile_qr_scan"}, "fusion_lon": 0.0}, {"lat": 38.950536, "is_disabled": 0, "type": "electric_scooter", "lon": -77.00720016666666, "bike_id": "e8075ec1a934ef6fed66fb69aff3dbbc", "fusion_lat": 0.0, "name": "e8075ec1a934ef6fed66fb69aff3dbbc", "is_reserved": 0, "rental_uris": {"android": "https://dc.lft.to/lastmile_qr_scan", "ios": "https://dc.lft.to/lastmile_qr_scan"}, "fusion_lon": 0.0}, {"lat": 38.902778833333336, "is_disabled": 0, "type": "electric_scooter", "lon": -77.0115685, "bike_id": "0f58f9cbb9514f5ad50054cfc404e6d9", "fusion_lat": 0.0, "name": "0f58f9cbb9514f5ad50054cfc404e6d9", "is_reserved": 0, "rental_uris": {"android": "https://dc.lft.to/lastmile_qr_scan", "ios": "https://dc.lft.to/lastmile_qr_scan"}, "fusion_lon": 0.0}, {"lat": 38.94835616666667, "is_disabled": 0, "type": "electric_scooter", "lon": -77.025746, "bike_id": "d72260dfd2285ddba0292ebcf07d7545", "fusion_lat": 0.0, "name": "d72260dfd2285ddba0292ebcf07d7545", "is_reserved": 0, "rental_uris": {"android": "https://dc.lft.to/lastmile_qr_scan", "ios": "https://dc.lft.to/lastmile_qr_scan"}, "fusion_lon": 0.0}, {"lat": 38.863658, "is_disabled": 0, "type": "electric_scooter", "lon": -76.990266, "bike_id": "a6deea1c7358c3cebd48cca9122dacbe", "fusion_lat": 0.0, "name": "a6deea1c7358c3cebd48cca9122dacbe", "is_reserved": 0, "rental_uris": {"android": "https://dc.lft.to/lastmile_qr_scan", "ios": "https://dc.lft.to/lastmile_qr_scan"}, "fusion_lon": 0.0}, {"lat": 38.94494133333333, "is_disabled": 0, "type": "electric_bike", "lon": -77.00682933333333, "bike_id": "f0b6855d385dd00e2e7d41f68fb5f49a", "fusion_lat": 0.0, "name": "f0b6855d385dd00e2e7d41f68fb5f49a", "is_reserved": 0, "rental_uris": {"android": "https://dc.lft.to/lastmile_qr_scan", "ios": "https://dc.lft.to/lastmile_qr_scan"}, "fusion_lon": 0.0}, {"lat": 38.96624333333333, "is_disabled": 0, "type": "electric_bike", "lon": -76.976684, "bike_id": "3f8e4ddfa51e10fddb32b79803fff9ae", "fusion_lat": 0.0, "name": "3f8e4ddfa51e10fddb32b79803fff9ae", "is_reserved": 0, "rental_uris": {"android": "https://dc.lft.to/lastmile_qr_scan", "ios": "https://dc.lft.to/lastmile_qr_scan"}, "fusion_lon": 0.0}, {"lat": 38.90993266666667, "is_disabled": 0, "type": "electric_scooter", "lon": -77.040077, "bike_id": "084456815ba69adfdf78370f8b0ccced", "fusion_lat": 0.0, "name": "084456815ba69adfdf78370f8b0ccced", "is_reserved": 0, "rental_uris": {"android": "https://dc.lft.to/lastmile_qr_scan", "ios": "https://dc.lft.to/lastmile_qr_scan"}, "fusion_lon": 0.0}, {"lat": 38.92784116666667, "is_disabled": 0, "type": "electric_scooter", "lon": -77.02685, "bike_id": "9c671ea9e2f69a6b7283c8b4da499024", "fusion_lat": 0.0, "name": "9c671ea9e2f69a6b7283c8b4da499024", "is_reserved": 0, "rental_uris": {"android": "https://dc.lft.to/lastmile_qr_scan", "ios": "https://dc.lft.to/lastmile_qr_scan"}, "fusion_lon": 0.0}, {"lat": 38.92335933333333, "is_disabled": 0, "type": "electric_scooter", "lon": -77.03490633333334, "bike_id": "6a741c0196222a752d1f9fdfc5063a99", "fusion_lat": 0.0, "name": "6a741c0196222a752d1f9fdfc5063a99", "is_reserved": 0, "rental_uris": {"android": "https://dc.lft.to/lastmile_qr_scan", "ios": "https://dc.lft.to/lastmile_qr_scan"}, "fusion_lon": 0.0}, {"lat": 38.87144116666666, "is_disabled": 0, "type": "electric_bike", "lon": -76.93667966666666, "bike_id": "f158b3f74c54a801773860cc772468de", "fusion_lat": 0.0, "name": "f158b3f74c54a801773860cc772468de", "is_reserved": 0, "rental_uris": {"android": "https://dc.lft.to/lastmile_qr_scan", "ios": "https://dc.lft.to/lastmile_qr_scan"}, "fusion_lon": 0.0}, {"lat": 38.9086815, "is_disabled": 0, "type": "electric_scooter", "lon": -77.038447, "bike_id": "012e54a31d274b1414599561de3f921a", "fusion_lat": 0.0, "name": "012e54a31d274b1414599561de3f921a", "is_reserved": 0, "rental_uris": {"android": "https://dc.lft.to/lastmile_qr_scan", "ios": "https://dc.lft.to/lastmile_qr_scan"}, "fusion_lon": 0.0}, {"lat": 38.90306616666667, "is_disabled": 0, "type": "electric_scooter", "lon": -77.05323616666666, "bike_id": "f5d6e3b44d2ddd8abf4697cd7188b737", "fusion_lat": 0.0, "name": "f5d6e3b44d2ddd8abf4697cd7188b737", "is_reserved": 0, "rental_uris": {"android": "https://dc.lft.to/lastmile_qr_scan", "ios": "https://dc.lft.to/lastmile_qr_scan"}, "fusion_lon": 0.0}, {"lat": 38.90376966666667, "is_disabled": 0, "type": "electric_scooter", "lon": -77.00888816666667, "bike_id": "9344223e7aaeea572ce95490fe8c56fa", "fusion_lat": 0.0, "name": "9344223e7aaeea572ce95490fe8c56fa", "is_reserved": 0, "rental_uris": {"android": "https://dc.lft.to/lastmile_qr_scan", "ios": "https://dc.lft.to/lastmile_qr_scan"}, "fusion_lon": 0.0}, {"lat": 38.90281983333333, "is_disabled": 0, "type": "electric_scooter", "lon": -77.0364855, "bike_id": "f86bd1df4a53ab5ab5983677589a4b85", "fusion_lat": 0.0, "name": "f86bd1df4a53ab5ab5983677589a4b85", "is_reserved": 0, "rental_uris": {"android": "https://dc.lft.to/lastmile_qr_scan", "ios": "https://dc.lft.to/lastmile_qr_scan"}, "fusion_lon": 0.0}, {"lat": 38.96096983333333, "is_disabled": 0, "type": "electric_scooter", "lon": -77.08282883333334, "bike_id": "c430c9b4de3860d6611ec453c8d40459", "fusion_lat": 0.0, "name": "c430c9b4de3860d6611ec453c8d40459", "is_reserved": 0, "rental_uris": {"android": "https://dc.lft.to/lastmile_qr_scan", "ios": "https://dc.lft.to/lastmile_qr_scan"}, "fusion_lon": 0.0}, {"lat": 38.8912465, "is_disabled": 0, "type": "electric_scooter", "lon": -76.9408675, "bike_id": "7e0865b5e5425714727cbd3c0a344469", "fusion_lat": 0.0, "name": "7e0865b5e5425714727cbd3c0a344469", "is_reserved": 0, "rental_uris": {"android": "https://dc.lft.to/lastmile_qr_scan", "ios": "https://dc.lft.to/lastmile_qr_scan"}, "fusion_lon": 0.0}, {"lat": 38.93655866666667, "is_disabled": 0, "type": "electric_bike", "lon": -77.0558745, "bike_id": "e9cd343c42d7117e8632487eb813e373", "fusion_lat": 0.0, "name": "e9cd343c42d7117e8632487eb813e373", "is_reserved": 0, "rental_uris": {"android": "https://dc.lft.to/lastmile_qr_scan", "ios": "https://dc.lft.to/lastmile_qr_scan"}, "fusion_lon": 0.0}, {"lat": 38.91969733333333, "is_disabled": 0, "type": "electric_scooter", "lon": -77.043076, "bike_id": "914637d29d12ed59824730d55d2c4337", "fusion_lat": 0.0, "name": "914637d29d12ed59824730d55d2c4337", "is_reserved": 0, "rental_uris": {"android": "https://dc.lft.to/lastmile_qr_scan", "ios": "https://dc.lft.to/lastmile_qr_scan"}, "fusion_lon": 0.0}, {"lat": 38.924507, "is_disabled": 0, "type": "electric_scooter", "lon": -77.04196116666667, "bike_id": "0848ffe2c35a8b6af2f8fa9fda6a7a46", "fusion_lat": 0.0, "name": "0848ffe2c35a8b6af2f8fa9fda6a7a46", "is_reserved": 0, "rental_uris": {"android": "https://dc.lft.to/lastmile_qr_scan", "ios": "https://dc.lft.to/lastmile_qr_scan"}, "fusion_lon": 0.0}, {"lat": 38.90138016666667, "is_disabled": 0, "type": "electric_scooter", "lon": -77.00076633333333, "bike_id": "3d062e6d6a7eb6c416b574eb5b1e0387", "fusion_lat": 0.0, "name": "3d062e6d6a7eb6c416b574eb5b1e0387", "is_reserved": 0, "rental_uris": {"android": "https://dc.lft.to/lastmile_qr_scan", "ios": "https://dc.lft.to/lastmile_qr_scan"}, "fusion_lon": 0.0}, {"lat": 38.900036666666665, "is_disabled": 0, "type": "electric_scooter", "lon": -76.99842183333334, "bike_id": "6170de06da59e77cdcc31b59d30631c0", "fusion_lat": 0.0, "name": "6170de06da59e77cdcc31b59d30631c0", "is_reserved": 0, "rental_uris": {"android": "https://dc.lft.to/lastmile_qr_scan", "ios": "https://dc.lft.to/lastmile_qr_scan"}, "fusion_lon": 0.0}, {"lat": 38.90534, "is_disabled": 0, "type": "electric_scooter", "lon": -77.027099, "bike_id": "e4113f273d1832ba8e51f81fae0309a0", "fusion_lat": 0.0, "name": "e4113f273d1832ba8e51f81fae0309a0", "is_reserved": 0, "rental_uris": {"android": "https://dc.lft.to/lastmile_qr_scan", "ios": "https://dc.lft.to/lastmile_qr_scan"}, "fusion_lon": 0.0}, {"lat": 38.922098, "is_disabled": 0, "type": "electric_scooter", "lon": -77.032781, "bike_id": "3fbf735ef75f0fd5cc92a674e8c24950", "fusion_lat": 0.0, "name": "3fbf735ef75f0fd5cc92a674e8c24950", "is_reserved": 0, "rental_uris": {"android": "https://dc.lft.to/lastmile_qr_scan", "ios": "https://dc.lft.to/lastmile_qr_scan"}, "fusion_lon": 0.0}, {"lat": 39.01590083333333, "is_disabled": 0, "type": "electric_bike", "lon": -77.04421833333333, "bike_id": "0dc7688015c307df5eb0af1feec2288d", "fusion_lat": 0.0, "name": "0dc7688015c307df5eb0af1feec2288d", "is_reserved": 0, "rental_uris": {"android": "https://dc.lft.to/lastmile_qr_scan", "ios": "https://dc.lft.to/lastmile_qr_scan"}, "fusion_lon": 0.0}, {"lat": 38.90225866666667, "is_disabled": 0, "type": "electric_scooter", "lon": -77.019463, "bike_id": "e18e2bf8c1713382c04562d8e4d394fe", "fusion_lat": 0.0, "name": "e18e2bf8c1713382c04562d8e4d394fe", "is_reserved": 0, "rental_uris": {"android": "https://dc.lft.to/lastmile_qr_scan", "ios": "https://dc.lft.to/lastmile_qr_scan"}, "fusion_lon": 0.0}, {"lat": 38.907724333333334, "is_disabled": 0, "type": "electric_scooter", "lon": -77.038549, "bike_id": "0a5e8711b4ec229e477501da630c1565", "fusion_lat": 0.0, "name": "0a5e8711b4ec229e477501da630c1565", "is_reserved": 0, "rental_uris": {"android": "https://dc.lft.to/lastmile_qr_scan", "ios": "https://dc.lft.to/lastmile_qr_scan"}, "fusion_lon": 0.0}, {"lat": 38.86889266666667, "is_disabled": 0, "type": "electric_scooter", "lon": -76.98309983333333, "bike_id": "0400d1f877720ce100267aad630d971a", "fusion_lat": 0.0, "name": "0400d1f877720ce100267aad630d971a", "is_reserved": 0, "rental_uris": {"android": "https://dc.lft.to/lastmile_qr_scan", "ios": "https://dc.lft.to/lastmile_qr_scan"}, "fusion_lon": 0.0}, {"lat": 38.88258283333333, "is_disabled": 0, "type": "electric_scooter", "lon": -77.0043175, "bike_id": "3e4a6cd14559a05340d1d352a0a819b5", "fusion_lat": 0.0, "name": "3e4a6cd14559a05340d1d352a0a819b5", "is_reserved": 0, "rental_uris": {"android": "https://dc.lft.to/lastmile_qr_scan", "ios": "https://dc.lft.to/lastmile_qr_scan"}, "fusion_lon": 0.0}, {"lat": 38.90556466666666, "is_disabled": 0, "type": "electric_scooter", "lon": -77.00841233333334, "bike_id": "75d4f623c5177e89975b6d3633645937", "fusion_lat": 0.0, "name": "75d4f623c5177e89975b6d3633645937", "is_reserved": 0, "rental_uris": {"android": "https://dc.lft.to/lastmile_qr_scan", "ios": "https://dc.lft.to/lastmile_qr_scan"}, "fusion_lon": 0.0}, {"lat": 38.90022183333333, "is_disabled": 0, "type": "electric_scooter", "lon": -77.0401735, "bike_id": "a36548d12bd92e6f38fccb777e74ccf1", "fusion_lat": 0.0, "name": "a36548d12bd92e6f38fccb777e74ccf1", "is_reserved": 0, "rental_uris": {"android": "https://dc.lft.to/lastmile_qr_scan", "ios": "https://dc.lft.to/lastmile_qr_scan"}, "fusion_lon": 0.0}, {"lat": 38.903519, "is_disabled": 0, "type": "electric_scooter", "lon": -77.016198, "bike_id": "4574a9a0076344e790f329370e523061", "fusion_lat": 0.0, "name": "4574a9a0076344e790f329370e523061", "is_reserved": 0, "rental_uris": {"android": "https://dc.lft.to/lastmile_qr_scan", "ios": "https://dc.lft.to/lastmile_qr_scan"}, "fusion_lon": 0.0}, {"lat": 38.9194905, "is_disabled": 0, "type": "electric_scooter", "lon": -77.0797975, "bike_id": "c062fa818b6e2b5f757e816e8f4c25a3", "fusion_lat": 0.0, "name": "c062fa818b6e2b5f757e816e8f4c25a3", "is_reserved": 0, "rental_uris": {"android": "https://dc.lft.to/lastmile_qr_scan", "ios": "https://dc.lft.to/lastmile_qr_scan"}, "fusion_lon": 0.0}, {"lat": 38.9004265, "is_disabled": 0, "type": "electric_scooter", "lon": -77.0133135, "bike_id": "9b44cd5d0c74f8e8fa344cbbd6f9637f", "fusion_lat": 0.0, "name": "9b44cd5d0c74f8e8fa344cbbd6f9637f", "is_reserved": 0, "rental_uris": {"android": "https://dc.lft.to/lastmile_qr_scan", "ios": "https://dc.lft.to/lastmile_qr_scan"}, "fusion_lon": 0.0}, {"lat": 38.90297666666667, "is_disabled": 0, "type": "electric_scooter", "lon": -77.00217533333333, "bike_id": "241f807f810b3deb04dfd141a09fcdf8", "fusion_lat": 0.0, "name": "241f807f810b3deb04dfd141a09fcdf8", "is_reserved": 0, "rental_uris": {"android": "https://dc.lft.to/lastmile_qr_scan", "ios": "https://dc.lft.to/lastmile_qr_scan"}, "fusion_lon": 0.0}, {"lat": 38.89893516666667, "is_disabled": 0, "type": "electric_scooter", "lon": -76.99731566666667, "bike_id": "965d4b346d5857cf7662ad2c783e8671", "fusion_lat": 0.0, "name": "965d4b346d5857cf7662ad2c783e8671", "is_reserved": 0, "rental_uris": {"android": "https://dc.lft.to/lastmile_qr_scan", "ios": "https://dc.lft.to/lastmile_qr_scan"}, "fusion_lon": 0.0}, {"lat": 38.911741666666664, "is_disabled": 0, "type": "electric_scooter", "lon": -77.00263633333333, "bike_id": "0b9c7ee9689677d85b6442d71895aaca", "fusion_lat": 0.0, "name": "0b9c7ee9689677d85b6442d71895aaca", "is_reserved": 0, "rental_uris": {"android": "https://dc.lft.to/lastmile_qr_scan", "ios": "https://dc.lft.to/lastmile_qr_scan"}, "fusion_lon": 0.0}, {"lat": 38.92589183333333, "is_disabled": 0, "type": "electric_scooter", "lon": -77.022727, "bike_id": "2b39aefe9f76433c3331ca8b2ba9664b", "fusion_lat": 0.0, "name": "2b39aefe9f76433c3331ca8b2ba9664b", "is_reserved": 0, "rental_uris": {"android": "https://dc.lft.to/lastmile_qr_scan", "ios": "https://dc.lft.to/lastmile_qr_scan"}, "fusion_lon": 0.0}, {"lat": 38.900849666666666, "is_disabled": 0, "type": "electric_scooter", "lon": -77.04942566666666, "bike_id": "2b549f121b3f1602bdd5f39bdb4f8edb", "fusion_lat": 0.0, "name": "2b549f121b3f1602bdd5f39bdb4f8edb", "is_reserved": 0, "rental_uris": {"android": "https://dc.lft.to/lastmile_qr_scan", "ios": "https://dc.lft.to/lastmile_qr_scan"}, "fusion_lon": 0.0}, {"lat": 38.93977816666667, "is_disabled": 0, "type": "electric_scooter", "lon": -77.03589166666667, "bike_id": "b4f056c8c916510939b5b20cfd92dfbf", "fusion_lat": 0.0, "name": "b4f056c8c916510939b5b20cfd92dfbf", "is_reserved": 0, "rental_uris": {"android": "https://dc.lft.to/lastmile_qr_scan", "ios": "https://dc.lft.to/lastmile_qr_scan"}, "fusion_lon": 0.0}, {"lat": 38.920247833333335, "is_disabled": 0, "type": "electric_scooter", "lon": -77.03727933333333, "bike_id": "6028352ef09c1f96c7414dd3f6f2d485", "fusion_lat": 0.0, "name": "6028352ef09c1f96c7414dd3f6f2d485", "is_reserved": 0, "rental_uris": {"android": "https://dc.lft.to/lastmile_qr_scan", "ios": "https://dc.lft.to/lastmile_qr_scan"}, "fusion_lon": 0.0}, {"lat": 38.9077895, "is_disabled": 0, "type": "electric_scooter", "lon": -77.03856783333333, "bike_id": "a102936095e4def7a8d0c84549b5f487", "fusion_lat": 0.0, "name": "a102936095e4def7a8d0c84549b5f487", "is_reserved": 0, "rental_uris": {"android": "https://dc.lft.to/lastmile_qr_scan", "ios": "https://dc.lft.to/lastmile_qr_scan"}, "fusion_lon": 0.0}, {"lat": 38.957820166666664, "is_disabled": 0, "type": "electric_scooter", "lon": -77.02756383333333, "bike_id": "b05de14de026d34f1646f501e52fa17c", "fusion_lat": 0.0, "name": "b05de14de026d34f1646f501e52fa17c", "is_reserved": 0, "rental_uris": {"android": "https://dc.lft.to/lastmile_qr_scan", "ios": "https://dc.lft.to/lastmile_qr_scan"}, "fusion_lon": 0.0}, {"lat": 38.93285483333333, "is_disabled": 0, "type": "electric_scooter", "lon": -77.035533, "bike_id": "cfc95c687d9b6d38451403e2efa930c6", "fusion_lat": 0.0, "name": "cfc95c687d9b6d38451403e2efa930c6", "is_reserved": 0, "rental_uris": {"android": "https://dc.lft.to/lastmile_qr_scan", "ios": "https://dc.lft.to/lastmile_qr_scan"}, "fusion_lon": 0.0}, {"lat": 38.908766166666666, "is_disabled": 0, "type": "electric_scooter", "lon": -77.0363485, "bike_id": "7e8baaddd34ae7def7e574997411250d", "fusion_lat": 0.0, "name": "7e8baaddd34ae7def7e574997411250d", "is_reserved": 0, "rental_uris": {"android": "https://dc.lft.to/lastmile_qr_scan", "ios": "https://dc.lft.to/lastmile_qr_scan"}, "fusion_lon": 0.0}, {"lat": 38.919682, "is_disabled": 0, "type": "electric_scooter", "lon": -77.01210933333333, "bike_id": "9b87a5ff46b46b43b99c3851bbd3578e", "fusion_lat": 0.0, "name": "9b87a5ff46b46b43b99c3851bbd3578e", "is_reserved": 0, "rental_uris": {"android": "https://dc.lft.to/lastmile_qr_scan", "ios": "https://dc.lft.to/lastmile_qr_scan"}, "fusion_lon": 0.0}, {"lat": 38.88396983333333, "is_disabled": 0, "type": "electric_bike", "lon": -76.95408716666667, "bike_id": "69dcc8c14bb846a962dc81310b92aa37", "fusion_lat": 0.0, "name": "69dcc8c14bb846a962dc81310b92aa37", "is_reserved": 0, "rental_uris": {"android": "https://dc.lft.to/lastmile_qr_scan", "ios": "https://dc.lft.to/lastmile_qr_scan"}, "fusion_lon": 0.0}, {"lat": 38.887383666666665, "is_disabled": 0, "type": "electric_scooter", "lon": -77.01532316666666, "bike_id": "6368d5d2d5fbc19c4d80d16469038583", "fusion_lat": 0.0, "name": "6368d5d2d5fbc19c4d80d16469038583", "is_reserved": 0, "rental_uris": {"android": "https://dc.lft.to/lastmile_qr_scan", "ios": "https://dc.lft.to/lastmile_qr_scan"}, "fusion_lon": 0.0}, {"lat": 38.8888775, "is_disabled": 0, "type": "electric_scooter", "lon": -76.93152866666667, "bike_id": "e7058e533008251979538ea1cf78c4a5", "fusion_lat": 0.0, "name": "e7058e533008251979538ea1cf78c4a5", "is_reserved": 0, "rental_uris": {"android": "https://dc.lft.to/lastmile_qr_scan", "ios": "https://dc.lft.to/lastmile_qr_scan"}, "fusion_lon": 0.0}, {"lat": 38.931745, "is_disabled": 0, "type": "electric_scooter", "lon": -77.0281235, "bike_id": "577c92fb52a5488342a59a3136a79738", "fusion_lat": 0.0, "name": "577c92fb52a5488342a59a3136a79738", "is_reserved": 0, "rental_uris": {"android": "https://dc.lft.to/lastmile_qr_scan", "ios": "https://dc.lft.to/lastmile_qr_scan"}, "fusion_lon": 0.0}, {"lat": 38.90717766666667, "is_disabled": 0, "type": "electric_scooter", "lon": -77.04646, "bike_id": "cc76a7928b3dc5066de87598268be02e", "fusion_lat": 0.0, "name": "cc76a7928b3dc5066de87598268be02e", "is_reserved": 0, "rental_uris": {"android": "https://dc.lft.to/lastmile_qr_scan", "ios": "https://dc.lft.to/lastmile_qr_scan"}, "fusion_lon": 0.0}, {"lat": 38.961445833333336, "is_disabled": 0, "type": "electric_scooter", "lon": -77.02815566666666, "bike_id": "4ea01a00723e27bc8527990f1ca28aba", "fusion_lat": 0.0, "name": "4ea01a00723e27bc8527990f1ca28aba", "is_reserved": 0, "rental_uris": {"android": "https://dc.lft.to/lastmile_qr_scan", "ios": "https://dc.lft.to/lastmile_qr_scan"}, "fusion_lon": 0.0}, {"lat": 38.91185316666667, "is_disabled": 0, "type": "electric_scooter", "lon": -77.04300966666666, "bike_id": "801b2d09b15fc8f699e572d53df56cc9", "fusion_lat": 0.0, "name": "801b2d09b15fc8f699e572d53df56cc9", "is_reserved": 0, "rental_uris": {"android": "https://dc.lft.to/lastmile_qr_scan", "ios": "https://dc.lft.to/lastmile_qr_scan"}, "fusion_lon": 0.0}, {"lat": 39.05633616666667, "is_disabled": 0, "type": "electric_bike", "lon": -77.12525266666667, "bike_id": "3ef86611056863c2acf79eb4f48fc036", "fusion_lat": 0.0, "name": "3ef86611056863c2acf79eb4f48fc036", "is_reserved": 0, "rental_uris": {"android": "https://dc.lft.to/lastmile_qr_scan", "ios": "https://dc.lft.to/lastmile_qr_scan"}, "fusion_lon": 0.0}, {"lat": 38.93210116666667, "is_disabled": 0, "type": "electric_scooter", "lon": -77.02244516666667, "bike_id": "f360711f56069b5e8ab341d326540d39", "fusion_lat": 0.0, "name": "f360711f56069b5e8ab341d326540d39", "is_reserved": 0, "rental_uris": {"android": "https://dc.lft.to/lastmile_qr_scan", "ios": "https://dc.lft.to/lastmile_qr_scan"}, "fusion_lon": 0.0}, {"lat": 38.890418, "is_disabled": 0, "type": "electric_scooter", "lon": -76.952469, "bike_id": "7f14dcd8dd893b15c01984a40b9999b0", "fusion_lat": 0.0, "name": "7f14dcd8dd893b15c01984a40b9999b0", "is_reserved": 0, "rental_uris": {"android": "https://dc.lft.to/lastmile_qr_scan", "ios": "https://dc.lft.to/lastmile_qr_scan"}, "fusion_lon": 0.0}, {"lat": 38.9083325, "is_disabled": 0, "type": "electric_scooter", "lon": -77.0018805, "bike_id": "e581fcf68809cd8e6e5069c73c615db0", "fusion_lat": 0.0, "name": "e581fcf68809cd8e6e5069c73c615db0", "is_reserved": 0, "rental_uris": {"android": "https://dc.lft.to/lastmile_qr_scan", "ios": "https://dc.lft.to/lastmile_qr_scan"}, "fusion_lon": 0.0}, {"lat": 38.925564333333334, "is_disabled": 0, "type": "electric_scooter", "lon": -77.033409, "bike_id": "3b8c058be4c5b720860aa0cd5a2fc42f", "fusion_lat": 0.0, "name": "3b8c058be4c5b720860aa0cd5a2fc42f", "is_reserved": 0, "rental_uris": {"android": "https://dc.lft.to/lastmile_qr_scan", "ios": "https://dc.lft.to/lastmile_qr_scan"}, "fusion_lon": 0.0}, {"lat": 38.924779666666666, "is_disabled": 0, "type": "electric_scooter", "lon": -77.028392, "bike_id": "31549207f0d411105d5d741e8e6e1b01", "fusion_lat": 0.0, "name": "31549207f0d411105d5d741e8e6e1b01", "is_reserved": 0, "rental_uris": {"android": "https://dc.lft.to/lastmile_qr_scan", "ios": "https://dc.lft.to/lastmile_qr_scan"}, "fusion_lon": 0.0}, {"lat": 38.8981695, "is_disabled": 0, "type": "electric_scooter", "lon": -76.99687066666667, "bike_id": "b6da7c4df50701415ed975647d734a8d", "fusion_lat": 0.0, "name": "b6da7c4df50701415ed975647d734a8d", "is_reserved": 0, "rental_uris": {"android": "https://dc.lft.to/lastmile_qr_scan", "ios": "https://dc.lft.to/lastmile_qr_scan"}, "fusion_lon": 0.0}, {"lat": 38.89857516666667, "is_disabled": 0, "type": "electric_bike", "lon": -76.93186733333333, "bike_id": "f91cec5fdcca08ecc0da7f28e471fa87", "fusion_lat": 0.0, "name": "f91cec5fdcca08ecc0da7f28e471fa87", "is_reserved": 0, "rental_uris": {"android": "https://dc.lft.to/lastmile_qr_scan", "ios": "https://dc.lft.to/lastmile_qr_scan"}, "fusion_lon": 0.0}, {"lat": 38.917411, "is_disabled": 0, "type": "electric_scooter", "lon": -77.02516483333333, "bike_id": "c851069d9ffcb3e1defb700c4dbfc29b", "fusion_lat": 0.0, "name": "c851069d9ffcb3e1defb700c4dbfc29b", "is_reserved": 0, "rental_uris": {"android": "https://dc.lft.to/lastmile_qr_scan", "ios": "https://dc.lft.to/lastmile_qr_scan"}, "fusion_lon": 0.0}, {"lat": 38.92152316666667, "is_disabled": 0, "type": "electric_scooter", "lon": -77.038687, "bike_id": "e371db688bcfb5f1a0ddcb05081ce154", "fusion_lat": 0.0, "name": "e371db688bcfb5f1a0ddcb05081ce154", "is_reserved": 0, "rental_uris": {"android": "https://dc.lft.to/lastmile_qr_scan", "ios": "https://dc.lft.to/lastmile_qr_scan"}, "fusion_lon": 0.0}, {"lat": 38.91517016666667, "is_disabled": 0, "type": "electric_scooter", "lon": -77.03835983333333, "bike_id": "88ab13cc85822a2389be423b941e2bc2", "fusion_lat": 0.0, "name": "88ab13cc85822a2389be423b941e2bc2", "is_reserved": 0, "rental_uris": {"android": "https://dc.lft.to/lastmile_qr_scan", "ios": "https://dc.lft.to/lastmile_qr_scan"}, "fusion_lon": 0.0}, {"lat": 38.927859, "is_disabled": 0, "type": "electric_scooter", "lon": -77.052491, "bike_id": "dde69117c8523ca99a64e2c023d61acd", "fusion_lat": 0.0, "name": "dde69117c8523ca99a64e2c023d61acd", "is_reserved": 0, "rental_uris": {"android": "https://dc.lft.to/lastmile_qr_scan", "ios": "https://dc.lft.to/lastmile_qr_scan"}, "fusion_lon": 0.0}, {"lat": 38.89607266666667, "is_disabled": 0, "type": "electric_scooter", "lon": -77.009274, "bike_id": "a9146edbf29f82e0deef96e614556540", "fusion_lat": 0.0, "name": "a9146edbf29f82e0deef96e614556540", "is_reserved": 0, "rental_uris": {"android": "https://dc.lft.to/lastmile_qr_scan", "ios": "https://dc.lft.to/lastmile_qr_scan"}, "fusion_lon": 0.0}, {"lat": 38.9175905, "is_disabled": 0, "type": "electric_scooter", "lon": -77.03662016666667, "bike_id": "1ce800fedebfd8d74d8ba090c6719767", "fusion_lat": 0.0, "name": "1ce800fedebfd8d74d8ba090c6719767", "is_reserved": 0, "rental_uris": {"android": "https://dc.lft.to/lastmile_qr_scan", "ios": "https://dc.lft.to/lastmile_qr_scan"}, "fusion_lon": 0.0}, {"lat": 38.93383383333333, "is_disabled": 0, "type": "electric_scooter", "lon": -76.9951375, "bike_id": "6f1593937791e58b885ad8df9b58916c", "fusion_lat": 0.0, "name": "6f1593937791e58b885ad8df9b58916c", "is_reserved": 0, "rental_uris": {"android": "https://dc.lft.to/lastmile_qr_scan", "ios": "https://dc.lft.to/lastmile_qr_scan"}, "fusion_lon": 0.0}, {"lat": 38.9310955, "is_disabled": 0, "type": "electric_scooter", "lon": -77.03013866666667, "bike_id": "fb130d242dffc5c58a5370c3b978f72b", "fusion_lat": 0.0, "name": "fb130d242dffc5c58a5370c3b978f72b", "is_reserved": 0, "rental_uris": {"android": "https://dc.lft.to/lastmile_qr_scan", "ios": "https://dc.lft.to/lastmile_qr_scan"}, "fusion_lon": 0.0}, {"lat": 38.935699166666666, "is_disabled": 0, "type": "electric_scooter", "lon": -77.0326395, "bike_id": "97caa29dc44f493ce623a8212d102f49", "fusion_lat": 0.0, "name": "97caa29dc44f493ce623a8212d102f49", "is_reserved": 0, "rental_uris": {"android": "https://dc.lft.to/lastmile_qr_scan", "ios": "https://dc.lft.to/lastmile_qr_scan"}, "fusion_lon": 0.0}, {"lat": 38.90561833333334, "is_disabled": 0, "type": "electric_scooter", "lon": -77.03632166666667, "bike_id": "84d6e1a61bc307606a831889b6dc0e19", "fusion_lat": 0.0, "name": "84d6e1a61bc307606a831889b6dc0e19", "is_reserved": 0, "rental_uris": {"android": "https://dc.lft.to/lastmile_qr_scan", "ios": "https://dc.lft.to/lastmile_qr_scan"}, "fusion_lon": 0.0}, {"lat": 38.915349666666664, "is_disabled": 0, "type": "electric_scooter", "lon": -77.03200266666667, "bike_id": "8fd4f24f55450dc81e80818138af2f58", "fusion_lat": 0.0, "name": "8fd4f24f55450dc81e80818138af2f58", "is_reserved": 0, "rental_uris": {"android": "https://dc.lft.to/lastmile_qr_scan", "ios": "https://dc.lft.to/lastmile_qr_scan"}, "fusion_lon": 0.0}, {"lat": 38.93705216666667, "is_disabled": 0, "type": "electric_scooter", "lon": -77.06101666666666, "bike_id": "49c28436ccb3e121f198c70b6d4a11a4", "fusion_lat": 0.0, "name": "49c28436ccb3e121f198c70b6d4a11a4", "is_reserved": 0, "rental_uris": {"android": "https://dc.lft.to/lastmile_qr_scan", "ios": "https://dc.lft.to/lastmile_qr_scan"}, "fusion_lon": 0.0}, {"lat": 38.90966133333333, "is_disabled": 0, "type": "electric_scooter", "lon": -77.03415516666666, "bike_id": "3ff7bf3386983c63bab47d048a78ece5", "fusion_lat": 0.0, "name": "3ff7bf3386983c63bab47d048a78ece5", "is_reserved": 0, "rental_uris": {"android": "https://dc.lft.to/lastmile_qr_scan", "ios": "https://dc.lft.to/lastmile_qr_scan"}, "fusion_lon": 0.0}, {"lat": 38.9167535, "is_disabled": 0, "type": "electric_scooter", "lon": -77.030552, "bike_id": "a55a775bd033b5a4951ee1a8fd6b8637", "fusion_lat": 0.0, "name": "a55a775bd033b5a4951ee1a8fd6b8637", "is_reserved": 0, "rental_uris": {"android": "https://dc.lft.to/lastmile_qr_scan", "ios": "https://dc.lft.to/lastmile_qr_scan"}, "fusion_lon": 0.0}, {"lat": 38.9443695, "is_disabled": 0, "type": "electric_scooter", "lon": -77.0234345, "bike_id": "c6290c89c11404822bc32ccb3431c85a", "fusion_lat": 0.0, "name": "c6290c89c11404822bc32ccb3431c85a", "is_reserved": 0, "rental_uris": {"android": "https://dc.lft.to/lastmile_qr_scan", "ios": "https://dc.lft.to/lastmile_qr_scan"}, "fusion_lon": 0.0}, {"lat": 38.92070283333334, "is_disabled": 0, "type": "electric_scooter", "lon": -77.0423345, "bike_id": "c67576240f5b2e60fcfd61e5239d56dd", "fusion_lat": 0.0, "name": "c67576240f5b2e60fcfd61e5239d56dd", "is_reserved": 0, "rental_uris": {"android": "https://dc.lft.to/lastmile_qr_scan", "ios": "https://dc.lft.to/lastmile_qr_scan"}, "fusion_lon": 0.0}, {"lat": 38.901460166666666, "is_disabled": 0, "type": "electric_scooter", "lon": -77.0414515, "bike_id": "d21caeaecd1364ef8a8cf6deb13ec287", "fusion_lat": 0.0, "name": "d21caeaecd1364ef8a8cf6deb13ec287", "is_reserved": 0, "rental_uris": {"android": "https://dc.lft.to/lastmile_qr_scan", "ios": "https://dc.lft.to/lastmile_qr_scan"}, "fusion_lon": 0.0}, {"lat": 38.90166933333333, "is_disabled": 0, "type": "electric_scooter", "lon": -77.02494816666666, "bike_id": "b4766e75c7f37287e34f645277d81ae8", "fusion_lat": 0.0, "name": "b4766e75c7f37287e34f645277d81ae8", "is_reserved": 0, "rental_uris": {"android": "https://dc.lft.to/lastmile_qr_scan", "ios": "https://dc.lft.to/lastmile_qr_scan"}, "fusion_lon": 0.0}, {"lat": 38.90873533333333, "is_disabled": 0, "type": "electric_bike", "lon": -77.002077, "bike_id": "a7c62cfa359e97cfd1966a3d8d73cff1", "fusion_lat": 0.0, "name": "a7c62cfa359e97cfd1966a3d8d73cff1", "is_reserved": 0, "rental_uris": {"android": "https://dc.lft.to/lastmile_qr_scan", "ios": "https://dc.lft.to/lastmile_qr_scan"}, "fusion_lon": 0.0}, {"lat": 38.8573545, "is_disabled": 0, "type": "electric_scooter", "lon": -76.99430233333334, "bike_id": "b58355bcc91d8b794a2cdf6c918ec57e", "fusion_lat": 0.0, "name": "b58355bcc91d8b794a2cdf6c918ec57e", "is_reserved": 0, "rental_uris": {"android": "https://dc.lft.to/lastmile_qr_scan", "ios": "https://dc.lft.to/lastmile_qr_scan"}, "fusion_lon": 0.0}, {"lat": 38.87731433333333, "is_disabled": 0, "type": "electric_bike", "lon": -77.11848716666667, "bike_id": "52ef875cf4235db982ba7ec34af4e3ec", "fusion_lat": 0.0, "name": "52ef875cf4235db982ba7ec34af4e3ec", "is_reserved": 0, "rental_uris": {"android": "https://dc.lft.to/lastmile_qr_scan", "ios": "https://dc.lft.to/lastmile_qr_scan"}, "fusion_lon": 0.0}, {"lat": 38.86253516666667, "is_disabled": 0, "type": "electric_scooter", "lon": -76.98694583333334, "bike_id": "04b3654d0fd4770d6b178c48ca169fd9", "fusion_lat": 0.0, "name": "04b3654d0fd4770d6b178c48ca169fd9", "is_reserved": 0, "rental_uris": {"android": "https://dc.lft.to/lastmile_qr_scan", "ios": "https://dc.lft.to/lastmile_qr_scan"}, "fusion_lon": 0.0}, {"lat": 38.910518, "is_disabled": 0, "type": "electric_scooter", "lon": -77.015189, "bike_id": "312316406aeab0ff7467a74d69cee481", "fusion_lat": 0.0, "name": "312316406aeab0ff7467a74d69cee481", "is_reserved": 0, "rental_uris": {"android": "https://dc.lft.to/lastmile_qr_scan", "ios": "https://dc.lft.to/lastmile_qr_scan"}, "fusion_lon": 0.0}, {"lat": 38.9391555, "is_disabled": 0, "type": "electric_scooter", "lon": -77.024649, "bike_id": "16a3f1fe89480f597fdabca8a54fdc58", "fusion_lat": 0.0, "name": "16a3f1fe89480f597fdabca8a54fdc58", "is_reserved": 0, "rental_uris": {"android": "https://dc.lft.to/lastmile_qr_scan", "ios": "https://dc.lft.to/lastmile_qr_scan"}, "fusion_lon": 0.0}, {"lat": 38.903616166666666, "is_disabled": 0, "type": "electric_scooter", "lon": -77.01640483333334, "bike_id": "cc6a6720465d46d2d3015ccda8ad636e", "fusion_lat": 0.0, "name": "cc6a6720465d46d2d3015ccda8ad636e", "is_reserved": 0, "rental_uris": {"android": "https://dc.lft.to/lastmile_qr_scan", "ios": "https://dc.lft.to/lastmile_qr_scan"}, "fusion_lon": 0.0}, {"lat": 38.951863833333334, "is_disabled": 0, "type": "electric_bike", "lon": -76.93539666666666, "bike_id": "76b05de70a0e2406de2f6f2f1410c3e5", "fusion_lat": 0.0, "name": "76b05de70a0e2406de2f6f2f1410c3e5", "is_reserved": 0, "rental_uris": {"android": "https://dc.lft.to/lastmile_qr_scan", "ios": "https://dc.lft.to/lastmile_qr_scan"}, "fusion_lon": 0.0}, {"lat": 38.9066345, "is_disabled": 0, "type": "electric_scooter", "lon": -77.01536033333333, "bike_id": "fad5f7e841115e16ee1bc28903632b90", "fusion_lat": 0.0, "name": "fad5f7e841115e16ee1bc28903632b90", "is_reserved": 0, "rental_uris": {"android": "https://dc.lft.to/lastmile_qr_scan", "ios": "https://dc.lft.to/lastmile_qr_scan"}, "fusion_lon": 0.0}, {"lat": 38.90743283333333, "is_disabled": 0, "type": "electric_scooter", "lon": -77.04205666666667, "bike_id": "72dc15bdaaf808d25986b6e774fac8ab", "fusion_lat": 0.0, "name": "72dc15bdaaf808d25986b6e774fac8ab", "is_reserved": 0, "rental_uris": {"android": "https://dc.lft.to/lastmile_qr_scan", "ios": "https://dc.lft.to/lastmile_qr_scan"}, "fusion_lon": 0.0}, {"lat": 38.9001085, "is_disabled": 0, "type": "electric_scooter", "lon": -77.0119975, "bike_id": "00c87399a64ac6a15a5cdf0dac435d49", "fusion_lat": 0.0, "name": "00c87399a64ac6a15a5cdf0dac435d49", "is_reserved": 0, "rental_uris": {"android": "https://dc.lft.to/lastmile_qr_scan", "ios": "https://dc.lft.to/lastmile_qr_scan"}, "fusion_lon": 0.0}, {"lat": 38.88454816666667, "is_disabled": 0, "type": "electric_scooter", "lon": -77.02425933333333, "bike_id": "311e6d6b7737da2696bcf2f2e68c6827", "fusion_lat": 0.0, "name": "311e6d6b7737da2696bcf2f2e68c6827", "is_reserved": 0, "rental_uris": {"android": "https://dc.lft.to/lastmile_qr_scan", "ios": "https://dc.lft.to/lastmile_qr_scan"}, "fusion_lon": 0.0}, {"lat": 38.900473166666664, "is_disabled": 0, "type": "electric_scooter", "lon": -77.05074716666667, "bike_id": "827b45cde9c01c1e0dc3f7ce38ff85dc", "fusion_lat": 0.0, "name": "827b45cde9c01c1e0dc3f7ce38ff85dc", "is_reserved": 0, "rental_uris": {"android": "https://dc.lft.to/lastmile_qr_scan", "ios": "https://dc.lft.to/lastmile_qr_scan"}, "fusion_lon": 0.0}, {"lat": 38.88113883333333, "is_disabled": 0, "type": "electric_scooter", "lon": -77.01631716666667, "bike_id": "4642f55fc59af0245e67b0b9fe2993a6", "fusion_lat": 0.0, "name": "4642f55fc59af0245e67b0b9fe2993a6", "is_reserved": 0, "rental_uris": {"android": "https://dc.lft.to/lastmile_qr_scan", "ios": "https://dc.lft.to/lastmile_qr_scan"}, "fusion_lon": 0.0}, {"lat": 38.867128, "is_disabled": 0, "type": "electric_scooter", "lon": -76.98723066666666, "bike_id": "104b2f44440a80d71f39b453c1539ef4", "fusion_lat": 0.0, "name": "104b2f44440a80d71f39b453c1539ef4", "is_reserved": 0, "rental_uris": {"android": "https://dc.lft.to/lastmile_qr_scan", "ios": "https://dc.lft.to/lastmile_qr_scan"}, "fusion_lon": 0.0}, {"lat": 38.8650965, "is_disabled": 0, "type": "electric_scooter", "lon": -76.99007916666666, "bike_id": "16777a1e35e37e65698580190f018257", "fusion_lat": 0.0, "name": "16777a1e35e37e65698580190f018257", "is_reserved": 0, "rental_uris": {"android": "https://dc.lft.to/lastmile_qr_scan", "ios": "https://dc.lft.to/lastmile_qr_scan"}, "fusion_lon": 0.0}, {"lat": 38.925059833333336, "is_disabled": 0, "type": "electric_scooter", "lon": -76.98226416666667, "bike_id": "87def6af93e9d3091c60ce6002e65df1", "fusion_lat": 0.0, "name": "87def6af93e9d3091c60ce6002e65df1", "is_reserved": 0, "rental_uris": {"android": "https://dc.lft.to/lastmile_qr_scan", "ios": "https://dc.lft.to/lastmile_qr_scan"}, "fusion_lon": 0.0}, {"lat": 38.90542683333334, "is_disabled": 0, "type": "electric_scooter", "lon": -77.04870433333333, "bike_id": "5e962812f3cfa1b4e0bfd8fada0128d8", "fusion_lat": 0.0, "name": "5e962812f3cfa1b4e0bfd8fada0128d8", "is_reserved": 0, "rental_uris": {"android": "https://dc.lft.to/lastmile_qr_scan", "ios": "https://dc.lft.to/lastmile_qr_scan"}, "fusion_lon": 0.0}, {"lat": 38.94922866666667, "is_disabled": 0, "type": "electric_bike", "lon": -77.00793783333333, "bike_id": "8d44ea785bf69636b261a8dcafe99348", "fusion_lat": 0.0, "name": "8d44ea785bf69636b261a8dcafe99348", "is_reserved": 0, "rental_uris": {"android": "https://dc.lft.to/lastmile_qr_scan", "ios": "https://dc.lft.to/lastmile_qr_scan"}, "fusion_lon": 0.0}, {"lat": 38.93741166666667, "is_disabled": 0, "type": "electric_scooter", "lon": -77.03469466666667, "bike_id": "1f33c38295bab85e8a9a78f56b680d63", "fusion_lat": 0.0, "name": "1f33c38295bab85e8a9a78f56b680d63", "is_reserved": 0, "rental_uris": {"android": "https://dc.lft.to/lastmile_qr_scan", "ios": "https://dc.lft.to/lastmile_qr_scan"}, "fusion_lon": 0.0}, {"lat": 38.8857705, "is_disabled": 0, "type": "electric_scooter", "lon": -76.91905833333334, "bike_id": "866bb85d59981130d4e83b6ed768f218", "fusion_lat": 0.0, "name": "866bb85d59981130d4e83b6ed768f218", "is_reserved": 0, "rental_uris": {"android": "https://dc.lft.to/lastmile_qr_scan", "ios": "https://dc.lft.to/lastmile_qr_scan"}, "fusion_lon": 0.0}, {"lat": 38.95406083333334, "is_disabled": 0, "type": "electric_scooter", "lon": -77.02746033333334, "bike_id": "d2c5a5d4da41e5a0b4602ec5c5dfc3c3", "fusion_lat": 0.0, "name": "d2c5a5d4da41e5a0b4602ec5c5dfc3c3", "is_reserved": 0, "rental_uris": {"android": "https://dc.lft.to/lastmile_qr_scan", "ios": "https://dc.lft.to/lastmile_qr_scan"}, "fusion_lon": 0.0}, {"lat": 38.922479833333334, "is_disabled": 0, "type": "electric_scooter", "lon": -77.03082933333333, "bike_id": "36fc1ea8d5b521d43c0eda91bf4c6f37", "fusion_lat": 0.0, "name": "36fc1ea8d5b521d43c0eda91bf4c6f37", "is_reserved": 0, "rental_uris": {"android": "https://dc.lft.to/lastmile_qr_scan", "ios": "https://dc.lft.to/lastmile_qr_scan"}, "fusion_lon": 0.0}, {"lat": 38.927335666666664, "is_disabled": 0, "type": "electric_scooter", "lon": -77.025949, "bike_id": "17cda8e7293ed6a751e22ac025d1db9f", "fusion_lat": 0.0, "name": "17cda8e7293ed6a751e22ac025d1db9f", "is_reserved": 0, "rental_uris": {"android": "https://dc.lft.to/lastmile_qr_scan", "ios": "https://dc.lft.to/lastmile_qr_scan"}, "fusion_lon": 0.0}, {"lat": 38.914018, "is_disabled": 0, "type": "electric_scooter", "lon": -77.02603166666667, "bike_id": "e45e45e504a84c0d4a61d0f14a4d265a", "fusion_lat": 0.0, "name": "e45e45e504a84c0d4a61d0f14a4d265a", "is_reserved": 0, "rental_uris": {"android": "https://dc.lft.to/lastmile_qr_scan", "ios": "https://dc.lft.to/lastmile_qr_scan"}, "fusion_lon": 0.0}, {"lat": 38.920922166666664, "is_disabled": 0, "type": "electric_scooter", "lon": -77.04185366666667, "bike_id": "d8578e439025f86e8eda5cf8772f480d", "fusion_lat": 0.0, "name": "d8578e439025f86e8eda5cf8772f480d", "is_reserved": 0, "rental_uris": {"android": "https://dc.lft.to/lastmile_qr_scan", "ios": "https://dc.lft.to/lastmile_qr_scan"}, "fusion_lon": 0.0}, {"lat": 38.898460166666666, "is_disabled": 0, "type": "electric_scooter", "lon": -76.98176916666667, "bike_id": "879eff502dd6c38c013dc106ec4a3ce6", "fusion_lat": 0.0, "name": "879eff502dd6c38c013dc106ec4a3ce6", "is_reserved": 0, "rental_uris": {"android": "https://dc.lft.to/lastmile_qr_scan", "ios": "https://dc.lft.to/lastmile_qr_scan"}, "fusion_lon": 0.0}, {"lat": 38.926078333333336, "is_disabled": 0, "type": "electric_scooter", "lon": -77.05687716666667, "bike_id": "a13186fc22bd0f5c48492617855b054e", "fusion_lat": 0.0, "name": "a13186fc22bd0f5c48492617855b054e", "is_reserved": 0, "rental_uris": {"android": "https://dc.lft.to/lastmile_qr_scan", "ios": "https://dc.lft.to/lastmile_qr_scan"}, "fusion_lon": 0.0}, {"lat": 38.921855, "is_disabled": 0, "type": "electric_scooter", "lon": -77.0471205, "bike_id": "fce7b2d290f6df554899ff04b569fa7a", "fusion_lat": 0.0, "name": "fce7b2d290f6df554899ff04b569fa7a", "is_reserved": 0, "rental_uris": {"android": "https://dc.lft.to/lastmile_qr_scan", "ios": "https://dc.lft.to/lastmile_qr_scan"}, "fusion_lon": 0.0}, {"lat": 38.89685733333334, "is_disabled": 0, "type": "electric_scooter", "lon": -76.93532466666667, "bike_id": "36032be38b65317db8f8d391eb3958e0", "fusion_lat": 0.0, "name": "36032be38b65317db8f8d391eb3958e0", "is_reserved": 0, "rental_uris": {"android": "https://dc.lft.to/lastmile_qr_scan", "ios": "https://dc.lft.to/lastmile_qr_scan"}, "fusion_lon": 0.0}, {"lat": 38.9007055, "is_disabled": 0, "type": "electric_scooter", "lon": -77.00224966666667, "bike_id": "266d5da2c1ef80457fe92b5ff257b6bf", "fusion_lat": 0.0, "name": "266d5da2c1ef80457fe92b5ff257b6bf", "is_reserved": 0, "rental_uris": {"android": "https://dc.lft.to/lastmile_qr_scan", "ios": "https://dc.lft.to/lastmile_qr_scan"}, "fusion_lon": 0.0}, {"lat": 38.892265333333334, "is_disabled": 0, "type": "electric_scooter", "lon": -77.04873, "bike_id": "a9fe888a97dfdac930de2acbbdda40bf", "fusion_lat": 0.0, "name": "a9fe888a97dfdac930de2acbbdda40bf", "is_reserved": 0, "rental_uris": {"android": "https://dc.lft.to/lastmile_qr_scan", "ios": "https://dc.lft.to/lastmile_qr_scan"}, "fusion_lon": 0.0}, {"lat": 38.9186595, "is_disabled": 0, "type": "electric_scooter", "lon": -77.0459265, "bike_id": "35bfeb675e1e7ddaa43cf60061a20c0b", "fusion_lat": 0.0, "name": "35bfeb675e1e7ddaa43cf60061a20c0b", "is_reserved": 0, "rental_uris": {"android": "https://dc.lft.to/lastmile_qr_scan", "ios": "https://dc.lft.to/lastmile_qr_scan"}, "fusion_lon": 0.0}, {"lat": 38.961361, "is_disabled": 0, "type": "electric_scooter", "lon": -77.02811183333333, "bike_id": "f32c8689c9dd2e1cb1bd04378ec66f27", "fusion_lat": 0.0, "name": "f32c8689c9dd2e1cb1bd04378ec66f27", "is_reserved": 0, "rental_uris": {"android": "https://dc.lft.to/lastmile_qr_scan", "ios": "https://dc.lft.to/lastmile_qr_scan"}, "fusion_lon": 0.0}, {"lat": 38.920616333333335, "is_disabled": 0, "type": "electric_scooter", "lon": -77.04348166666666, "bike_id": "b7c832bc6dbc0fc2d1c3d056850c4a77", "fusion_lat": 0.0, "name": "b7c832bc6dbc0fc2d1c3d056850c4a77", "is_reserved": 0, "rental_uris": {"android": "https://dc.lft.to/lastmile_qr_scan", "ios": "https://dc.lft.to/lastmile_qr_scan"}, "fusion_lon": 0.0},