{"data": {"bikes": [{"bike_id": "5184e71683a408d4da29f8da66e6dd56", "lon": -76.998134, "lat": 38.844272, "fusion_lon": 0.0, "rental_uris": {"ios": "https://dc.lft.to/lastmile_qr_scan", "android": "https://dc.lft.to/lastmile_qr_scan"}, "is_disabled": 0, "is_reserved": 0, "name": "5184e71683a408d4da29f8da66e6dd56", "type": "electric_scooter", "fusion_lat": 0.0}, {"bike_id": "a6ec2625421d6dc5a95d9bf062400693", "lon": -77.103537, "lat": 38.83428083333333, "fusion_lon": 0.0, "rental_uris": {"ios": "https://dc.lft.to/lastmile_qr_scan", "android": "https://dc.lft.to/lastmile_qr_scan"}, "is_disabled": 0, "is_reserved": 0, "name": "a6ec2625421d6dc5a95d9bf062400693", "type": "electric_bike", "fusion_lat": 0.0}, {"bike_id": "9d30026331eab0ca8c2bff813a4c8c6c", "lon": -77.0272245, "lat": 38.94955183333333, "fusion_lon": 0.0, "rental_uris": {"ios": "https://dc.lft.to/lastmile_qr_scan", "android": "https://dc.lft.to/lastmile_qr_scan"}, "is_disabled": 0, "is_reserved": 0, "name": "9d30026331eab0ca8c2bff813a4c8c6c", "type": "electric_scooter", "fusion_lat": 0.0}, {"bike_id": "a6cc75c6c8247de1b58adb0485960797", "lon": -77.08930066666667, "lat": 38.9137845, "fusion_lon": 0.0, "rental_uris": {"ios": "https://dc.lft.to/lastmile_qr_scan", "android": "https://dc.lft.to/lastmile_qr_scan"}, "is_disabled": 0, "is_reserved": 0, "name": "a6cc75c6c8247de1b58adb0485960797", "type": "electric_bike", "fusion_lat": 0.0}, {"bike_id": "b974af19a1cc3a8b09199593963a137b", "lon": -77.02953433333333, "lat": 38.91249066666666, "fusion_lon": 0.0, "rental_uris": {"ios": "https://dc.lft.to/lastmile_qr_scan", "android": "https://dc.lft.to/lastmile_qr_scan"}, "is_disabled": 0, "is_reserved": 0, "name": "b974af19a1cc3a8b09199593963a137b", "type": "electric_scooter", "fusion_lat": 0.0}, {"bike_id": "1c4a3227e5bf0a89a5ed8fc4e0cb925a", "lon": -77.04157066666667, "lat": 38.91880183333333, "fusion_lon": 0.0, "rental_uris": {"ios": "https://dc.lft.to/lastmile_qr_scan", "android": "https://dc.lft.to/lastmile_qr_scan"}, "is_disabled": 0, "is_reserved": 0, "name": "1c4a3227e5bf0a89a5ed8fc4e0cb925a", "type": "electric_bike", "fusion_lat": 0.0}, {"bike_id": "b113b2b1ee003b9eafbcd2fdc918762d", "lon": -77.07169083333334, "lat": 38.908754, "fusion_lon": 0.0, "rental_uris": {"ios": "https://dc.lft.to/lastmile_qr_scan", "android": "https://dc.lft.to/lastmile_qr_scan"}, "is_disabled": 0, "is_reserved": 0, "name": "b113b2b1ee003b9eafbcd2fdc918762d", "type": "electric_scooter", "fusion_lat": 0.0}, {"bike_id": "c925227035bc2ee5c1f40d3bccd6f71d", "lon": -77.01411116666667, "lat": 38.92800783333333, "fusion_lon": 0.0, "rental_uris": {"ios": "https://dc.lft.to/lastmile_qr_scan", "android": "https://dc.lft.to/lastmile_qr_scan"}, "is_disabled": 0, "is_reserved": 0, "name": "c925227035bc2ee5c1f40d3bccd6f71d", "type": "electric_scooter", "fusion_lat": 0.0}, {"bike_id": "2f52980598fc0c4d56822fb5c3ecb849", "lon": -77.04384533333334, "lat": 38.90901016666667, "fusion_lon": 0.0, "rental_uris": {"ios": "https://dc.lft.to/lastmile_qr_scan", "android": "https://dc.lft.to/lastmile_qr_scan"}, "is_disabled": 0, "is_reserved": 0, "name": "2f52980598fc0c4d56822fb5c3ecb849", "type": "electric_scooter", "fusion_lat": 0.0}, {"bike_id": "ec45ae12a4f5c4d66c2052dcd87708ee", "lon": -76.99886733333334, "lat": 38.90754416666667, "fusion_lon": 0.0, "rental_uris": {"ios": "https://dc.lft.to/lastmile_qr_scan", "android": "https://dc.lft.to/lastmile_qr_scan"}, "is_disabled": 0, "is_reserved": 0, "name": "ec45ae12a4f5c4d66c2052dcd87708ee", "type": "electric_scooter", "fusion_lat": 0.0}, {"bike_id": "67bab0ea98170e25130ab30a1f1dd9c1", "lon": -77.01945583333334, "lat": 38.924140333333334, "fusion_lon": 0.0, "rental_uris": {"ios": "https://dc.lft.to/lastmile_qr_scan", "android": "https://dc.lft.to/lastmile_qr_scan"}, "is_disabled": 0, "is_reserved": 0, "name": "67bab0ea98170e25130ab30a1f1dd9c1", "type": "electric_scooter", "fusion_lat": 0.0}, {"bike_id": "6f376e3d206a6323f2afba65aac5ac37", "lon": -77.01031466666667, "lat": 38.956635666666664, "fusion_lon": 0.0, "rental_uris": {"ios": "https://dc.lft.to/lastmile_qr_scan", "android": "https://dc.lft.to/lastmile_qr_scan"}, "is_disabled": 0, "is_reserved": 0, "name": "6f376e3d206a6323f2afba65aac5ac37", "type": "electric_scooter", "fusion_lat": 0.0}, {"bike_id": "81c340941f6340653e66e3f34f681630", "lon": -77.18563433333334, "lat": 38.92965866666667, "fusion_lon": 0.0, "rental_uris": {"ios": "https://dc.lft.to/lastmile_qr_scan", "android": "https://dc.lft.to/lastmile_qr_scan"}, "is_disabled": 0, "is_reserved": 0, "name": "81c340941f6340653e66e3f34f681630", "type": "electric_bike", "fusion_lat": 0.0}, {"bike_id": "b613db15af871d2ad1e46dde198c1e7f", "lon": -77.034352, "lat": 38.93323016666667, "fusion_lon": 0.0, "rental_uris": {"ios": "https://dc.lft.to/lastmile_qr_scan", "android": "https://dc.lft.to/lastmile_qr_scan"}, "is_disabled": 0, "is_reserved": 0, "name": "b613db15af871d2ad1e46dde198c1e7f", "type": "electric_scooter", "fusion_lat": 0.0}, {"bike_id": "e2fa3ec5324e42603c6ce529861cd2ce", "lon": -77.05795283333333, "lat": 38.90263233333334, "fusion_lon": 0.0, "rental_uris": {"ios": "https://dc.lft.to/lastmile_qr_scan", "android": "https://dc.lft.to/lastmile_qr_scan"}, "is_disabled": 0, "is_reserved": 0, "name": "e2fa3ec5324e42603c6ce529861cd2ce", "type": "electric_scooter", "fusion_lat": 0.0}, {"bike_id": "e30a07c979c65af197ac0da61a753d24", "lon": -77.04654083333334, "lat": 39.05499983333333, "fusion_lon": 0.0, "rental_uris": {"ios": "https://dc.lft.to/lastmile_qr_scan", "android": "https://dc.lft.to/lastmile_qr_scan"}, "is_disabled": 0, "is_reserved": 0, "name": "e30a07c979c65af197ac0da61a753d24", "type": "electric_bike", "fusion_lat": 0.0}, {"bike_id": "94321096e4b4a33c39a6c46e26af9ca8", "lon": -77.04241516666667, "lat": 38.92221683333333, "fusion_lon": 0.0, "rental_uris": {"ios": "https://dc.lft.to/lastmile_qr_scan", "android": "https://dc.lft.to/lastmile_qr_scan"}, "is_disabled": 0, "is_reserved": 0, "name": "94321096e4b4a33c39a6c46e26af9ca8", "type": "electric_scooter", "fusion_lat": 0.0}, {"bike_id": "f0b6d4f899e49183a53e360015661c40", "lon": -76.966109, "lat": 38.942157, "fusion_lon": 0.0, "rental_uris": {"ios": "https://dc.lft.to/lastmile_qr_scan", "android": "https://dc.lft.to/lastmile_qr_scan"}, "is_disabled": 0, "is_reserved": 0, "name": "f0b6d4f899e49183a53e360015661c40", "type": "electric_bike", "fusion_lat": 0.0}, {"bike_id": "27a79e0aa85de4a217a1c7e4bcd2d532", "lon": -77.03703933333334, "lat": 38.91403733333333, "fusion_lon": 0.0, "rental_uris": {"ios": "https://dc.lft.to/lastmile_qr_scan", "android": "https://dc.lft.to/lastmile_qr_scan"}, "is_disabled": 0, "is_reserved": 0, "name": "27a79e0aa85de4a217a1c7e4bcd2d532", "type": "electric_scooter", "fusion_lat": 0.0}, {"bike_id": "3be3221efba394802df2aba0a07c584a", "lon": -77.03984533333333, "lat": 38.9339895, "fusion_lon": 0.0, "rental_uris": {"ios": "https://dc.lft.to/lastmile_qr_scan", "android": "https://dc.lft.to/lastmile_qr_scan"}, "is_disabled": 0, "is_reserved": 0, "name": "3be3221efba394802df2aba0a07c584a", "type": "electric_scooter", "fusion_lat": 0.0}, {"bike_id": "00dd985a527c3931161a3d479470c049", "lon": -77.05001266666666, "lat": 38.89228166666667, "fusion_lon": 0.0, "rental_uris": {"ios": "https://dc.lft.to/lastmile_qr_scan", "android": "https://dc.lft.to/lastmile_qr_scan"}, "is_disabled": 0, "is_reserved": 0, "name": "00dd985a527c3931161a3d479470c049", "type": "electric_scooter", "fusion_lat": 0.0}, {"bike_id": "6260446e9b99949830c817869b711720", "lon": -76.99516316666667, "lat": 38.886095833333336, "fusion_lon": 0.0, "rental_uris": {"ios": "https://dc.lft.to/lastmile_qr_scan", "android": "https://dc.lft.to/lastmile_qr_scan"}, "is_disabled": 0, "is_reserved": 0, "name": "6260446e9b99949830c817869b711720", "type": "electric_scooter", "fusion_lat": 0.0}, {"bike_id": "f519fb8e2a0ef4d6549c668f90215ae8", "lon": -77.04196433333334, "lat": 38.906953666666666, "fusion_lon": 0.0, "rental_uris": {"ios": "https://dc.lft.to/lastmile_qr_scan", "android": "https://dc.lft.to/lastmile_qr_scan"}, "is_disabled": 0, "is_reserved": 0, "name": "f519fb8e2a0ef4d6549c668f90215ae8", "type": "electric_scooter", "fusion_lat": 0.0}, {"bike_id": "7d9703e270ac0de01d9564db20cdb241", "lon": -77.031879, "lat": 38.913227166666665, "fusion_lon": 0.0, "rental_uris": {"ios": "https://dc.lft.to/lastmile_qr_scan", "android": "https://dc.lft.to/lastmile_qr_scan"}, "is_disabled": 0, "is_reserved": 0, "name": "7d9703e270ac0de01d9564db20cdb241", "type": "electric_scooter", "fusion_lat": 0.0}, {"bike_id": "00a6d9e6fe238049fd05126626eefa18", "lon": -77.04474033333334, "lat": 38.896032166666664, "fusion_lon": 0.0, "rental_uris": {"ios": "https://dc.lft.to/lastmile_qr_scan", "android": "https://dc.lft.to/lastmile_qr_scan"}, "is_disabled": 0, "is_reserved": 0, "name": "00a6d9e6fe238049fd05126626eefa18", "type": "electric_scooter", "fusion_lat": 0.0}, {"bike_id": "592e6b38fbcb59e575e3263c6d0088cd", "lon": -77.04500783333333, "lat": 38.910056, "fusion_lon": 0.0, "rental_uris": {"ios": "https://dc.lft.to/lastmile_qr_scan", "android": "https://dc.lft.to/lastmile_qr_scan"}, "is_disabled": 0, "is_reserved": 0, "name": "592e6b38fbcb59e575e3263c6d0088cd", "type": "electric_scooter", "fusion_lat": 0.0}, {"bike_id": "80d022aec6e307f02d202b738db47a31", "lon": -77.0223115, "lat": 38.90604, "fusion_lon": 0.0, "rental_uris": {"ios": "https://dc.lft.to/lastmile_qr_scan", "android": "https://dc.lft.to/lastmile_qr_scan"}, "is_disabled": 0, "is_reserved": 0, "name": "80d022aec6e307f02d202b738db47a31", "type": "electric_scooter", "fusion_lat": 0.0}, {"bike_id": "d03fde762338d0caa55e7855b3799c04", "lon": -77.029019, "lat": 38.916891, "fusion_lon": 0.0, "rental_uris": {"ios": "https://dc.lft.to/lastmile_qr_scan", "android": "https://dc.lft.to/lastmile_qr_scan"}, "is_disabled": 0, "is_reserved": 0, "name": "d03fde762338d0caa55e7855b3799c04", "type": "electric_scooter", "fusion_lat": 0.0}, {"bike_id": "c54a845b38ce2e15b90cd7c83adfecb1", "lon": -77.02269583333333, "lat": 38.92465633333333, "fusion_lon": 0.0, "rental_uris": {"ios": "https://dc.lft.to/lastmile_qr_scan", "android": "https://dc.lft.to/lastmile_qr_scan"}, "is_disabled": 0, "is_reserved": 0, "name": "c54a845b38ce2e15b90cd7c83adfecb1", "type": "electric_scooter", "fusion_lat": 0.0}, {"bike_id": "60604691c370c74a68eefeb25d9d5725", "lon": -76.933715, "lat": 38.901823666666665, "fusion_lon": 0.0, "rental_uris": {"ios": "https://dc.lft.to/lastmile_qr_scan", "android": "https://dc.lft.to/lastmile_qr_scan"}, "is_disabled": 0, "is_reserved": 0, "name": "60604691c370c74a68eefeb25d9d5725", "type": "electric_scooter", "fusion_lat": 0.0}, {"bike_id": "c88e409f67972571de001a06bb0c52b2", "lon": -77.039588, "lat": 38.89242316666667, "fusion_lon": 0.0, "rental_uris": {"ios": "https://dc.lft.to/lastmile_qr_scan", "android": "https://dc.lft.to/lastmile_qr_scan"}, "is_disabled": 0, "is_reserved": 0, "name": "c88e409f67972571de001a06bb0c52b2", "type": "electric_scooter", "fusion_lat": 0.0}, {"bike_id": "84b6494b57b663d1f5f3be20098a01d2", "lon": -76.99848283333333, "lat": 38.90878433333334, "fusion_lon": 0.0, "rental_uris": {"ios": "https://dc.lft.to/lastmile_qr_scan", "android": "https://dc.lft.to/lastmile_qr_scan"}, "is_disabled": 0, "is_reserved": 0, "name": "84b6494b57b663d1f5f3be20098a01d2", "type": "electric_scooter", "fusion_lat": 0.0}, {"bike_id": "3ed7c0ea477b71d0d6b34d70d855b5a8", "lon": -76.98880116666666, "lat": 38.95487116666666, "fusion_lon": 0.0, "rental_uris": {"ios": "https://dc.lft.to/lastmile_qr_scan", "android": "https://dc.lft.to/lastmile_qr_scan"}, "is_disabled": 0, "is_reserved": 0, "name": "3ed7c0ea477b71d0d6b34d70d855b5a8", "type": "electric_scooter", "fusion_lat": 0.0}, {"bike_id": "ae80a8f4531cc49a7bc7d58827ab6490", "lon": -77.0441475, "lat": 38.9258695, "fusion_lon": 0.0, "rental_uris": {"ios": "https://dc.lft.to/lastmile_qr_scan", "android": "https://dc.lft.to/lastmile_qr_scan"}, "is_disabled": 0, "is_reserved": 0, "name": "ae80a8f4531cc49a7bc7d58827ab6490", "type": "electric_scooter", "fusion_lat": 0.0}, {"bike_id": "17a9999ff63c403a89627ad89b6194c2", "lon": -76.9933695, "lat": 38.9103255, "fusion_lon": 0.0, "rental_uris": {"ios": "https://dc.lft.to/lastmile_qr_scan", "android": "https://dc.lft.to/lastmile_qr_scan"}, "is_disabled": 0, "is_reserved": 0, "name": "17a9999ff63c403a89627ad89b6194c2", "type": "electric_scooter", "fusion_lat": 0.0}, {"bike_id": "329a0c4838f230889660efb5a542613e", "lon": -77.04557833333334, "lat": 38.919309, "fusion_lon": 0.0, "rental_uris": {"ios": "https://dc.lft.to/lastmile_qr_scan", "android": "https://dc.lft.to/lastmile_qr_scan"}, "is_disabled": 0, "is_reserved": 0, "name": "329a0c4838f230889660efb5a542613e", "type": "electric_scooter", "fusion_lat": 0.0}, {"bike_id": "024aac32f9f8aa754e40f7586b10a1d5", "lon": -77.01221733333334, "lat": 38.91441866666667, "fusion_lon": 0.0, "rental_uris": {"ios": "https://dc.lft.to/lastmile_qr_scan", "android": "https://dc.lft.to/lastmile_qr_scan"}, "is_disabled": 0, "is_reserved": 0, "name": "024aac32f9f8aa754e40f7586b10a1d5", "type": "electric_scooter", "fusion_lat": 0.0}, {"bike_id": "1ffb6837a31e6e873fd481ce4da8b319", "lon": -77.05612583333334, "lat": 38.931622, "fusion_lon": 0.0, "rental_uris": {"ios": "https://dc.lft.to/lastmile_qr_scan", "android": "https://dc.lft.to/lastmile_qr_scan"}, "is_disabled": 0, "is_reserved": 0, "name": "1ffb6837a31e6e873fd481ce4da8b319", "type": "electric_scooter", "fusion_lat": 0.0}, {"bike_id": "86c9e81aa8216792bd04c301b4a00881", "lon": -77.03660116666667, "lat": 38.92122666666667, "fusion_lon": 0.0, "rental_uris": {"ios": "https://dc.lft.to/lastmile_qr_scan", "android": "https://dc.lft.to/lastmile_qr_scan"}, "is_disabled": 0, "is_reserved": 0, "name": "86c9e81aa8216792bd04c301b4a00881", "type": "electric_scooter", "fusion_lat": 0.0}, {"bike_id": "0105f9edfe81ecfbc3e851070c1d31df", "lon": -77.03044116666666, "lat": 38.89588066666666, "fusion_lon": 0.0, "rental_uris": {"ios": "https://dc.lft.to/lastmile_qr_scan", "android": "https://dc.lft.to/lastmile_qr_scan"}, "is_disabled": 0, "is_reserved": 0, "name": "0105f9edfe81ecfbc3e851070c1d31df", "type": "electric_bike", "fusion_lat": 0.0}, {"bike_id": "182496ee83d5963e3c2357f412963854", "lon": -77.0298385, "lat": 38.920587, "fusion_lon": 0.0, "rental_uris": {"ios": "https://dc.lft.to/lastmile_qr_scan", "android": "https://dc.lft.to/lastmile_qr_scan"}, "is_disabled": 0, "is_reserved": 0, "name": "182496ee83d5963e3c2357f412963854", "type": "electric_scooter", "fusion_lat": 0.0}, {"bike_id": "46678bdb108e7f0cd5fa6c588207b72b", "lon": -77.02753783333333, "lat": 38.939605, "fusion_lon": 0.0, "rental_uris": {"ios": "https://dc.lft.to/lastmile_qr_scan", "android": "https://dc.lft.to/lastmile_qr_scan"}, "is_disabled": 0, "is_reserved": 0, "name": "46678bdb108e7f0cd5fa6c588207b72b", "type": "electric_scooter", "fusion_lat": 0.0}, {"bike_id": "ad6acec8d35052a2ff37054f19d3ee5a", "lon": -77.0426295, "lat": 38.892222, "fusion_lon": 0.0, "rental_uris": {"ios": "https://dc.lft.to/lastmile_qr_scan", "android": "https://dc.lft.to/lastmile_qr_scan"}, "is_disabled": 0, "is_reserved": 0, "name": "ad6acec8d35052a2ff37054f19d3ee5a", "type": "electric_scooter", "fusion_lat": 0.0}, {"bike_id": "fe7793c21c20ff6fde84289333bc7999", "lon": -76.99624333333334, "lat": 38.885788, "fusion_lon": 0.0, "rental_uris": {"ios": "https://dc.lft.to/lastmile_qr_scan", "android": "https://dc.lft.to/lastmile_qr_scan"}, "is_disabled": 0, "is_reserved": 0, "name": "fe7793c21c20ff6fde84289333bc7999", "type": "electric_scooter", "fusion_lat": 0.0}, {"bike_id": "d7e9c974b55e38ce5dafb2de9fcf0031", "lon": -77.0419245, "lat": 38.9187245, "fusion_lon": 0.0, "rental_uris": {"ios": "https://dc.lft.to/lastmile_qr_scan", "android": "https://dc.lft.to/lastmile_qr_scan"}, "is_disabled": 0, "is_reserved": 0, "name": "d7e9c974b55e38ce5dafb2de9fcf0031", "type": "electric_scooter", "fusion_lat": 0.0}, {"bike_id": "cfd7bb315a75f400b80cd8214e698158", "lon": -77.05748833333334, "lat": 38.9353745, "fusion_lon": 0.0, "rental_uris": {"ios": "https://dc.lft.to/lastmile_qr_scan", "android": "https://dc.lft.to/lastmile_qr_scan"}, "is_disabled": 0, "is_reserved": 0, "name": "cfd7bb315a75f400b80cd8214e698158", "type": "electric_scooter", "fusion_lat": 0.0}, {"bike_id": "518b2e55b92c95744c0a8c4565c84b29", "lon": -76.93083566666667, "lat": 38.87792233333333, "fusion_lon": 0.0, "rental_uris": {"ios": "https://dc.lft.to/lastmile_qr_scan", "android": "https://dc.lft.to/lastmile_qr_scan"}, "is_disabled": 0, "is_reserved": 0, "name": "518b2e55b92c95744c0a8c4565c84b29", "type": "electric_scooter", "fusion_lat": 0.0}, {"bike_id": "e1a75fa8e09d4a1f0aeefa84038dccb4", "lon": -77.02975283333333, "lat": 38.917219333333335, "fusion_lon": 0.0, "rental_uris": {"ios": "https://dc.lft.to/lastmile_qr_scan", "android": "https://dc.lft.to/lastmile_qr_scan"}, "is_disabled": 0, "is_reserved": 0, "name": "e1a75fa8e09d4a1f0aeefa84038dccb4", "type": "electric_scooter", "fusion_lat": 0.0}, {"bike_id": "bd72d384f5449eb210b39d798c5a580d", "lon": -76.99677566666666, "lat": 38.92167533333333, "fusion_lon": 0.0, "rental_uris": {"ios": "https://dc.lft.to/lastmile_qr_scan", "android": "https://dc.lft.to/lastmile_qr_scan"}, "is_disabled": 0, "is_reserved": 0, "name": "bd72d384f5449eb210b39d798c5a580d", "type": "electric_scooter", "fusion_lat": 0.0}, {"bike_id": "5c2df02ecd1a515fb5dbb522c175cd35", "lon": -77.00197083333333, "lat": 38.94148466666667, "fusion_lon": 0.0, "rental_uris": {"ios": "https://dc.lft.to/lastmile_qr_scan", "android": "https://dc.lft.to/lastmile_qr_scan"}, "is_disabled": 0, "is_reserved": 0, "name": "5c2df02ecd1a515fb5dbb522c175cd35", "type": "electric_bike", "fusion_lat": 0.0}, {"bike_id": "43e46b5209930f0ea03c72840e0a3803", "lon": -77.03243733333333, "lat": 38.904525, "fusion_lon": 0.0, "rental_uris": {"ios": "https://dc.lft.to/lastmile_qr_scan", "android": "https://dc.lft.to/lastmile_qr_scan"}, "is_disabled": 0, "is_reserved": 0, "name": "43e46b5209930f0ea03c72840e0a3803", "type": "electric_scooter", "fusion_lat": 0.0}, {"bike_id": "1b7758230c9a778c01068dfca8d99b0d", "lon": -77.0320775, "lat": 38.91679416666667, "fusion_lon": 0.0, "rental_uris": {"ios": "https://dc.lft.to/lastmile_qr_scan", "android": "https://dc.lft.to/lastmile_qr_scan"}, "is_disabled": 0, "is_reserved": 0, "name": "1b7758230c9a778c01068dfca8d99b0d", "type": "electric_scooter", "fusion_lat": 0.0}, {"bike_id": "d9ecaa6c4cfa5da787aefe2f836bb75d", "lon": -77.12738033333333, "lat": 38.895613, "fusion_lon": 0.0, "rental_uris": {"ios": "https://dc.lft.to/lastmile_qr_scan", "android": "https://dc.lft.to/lastmile_qr_scan"}, "is_disabled": 0, "is_reserved": 0, "name": "d9ecaa6c4cfa5da787aefe2f836bb75d", "type": "electric_bike", "fusion_lat": 0.0}, {"bike_id": "5f30efb44fee2ca3669bbc3081f7ce1e", "lon": -77.048625, "lat": 38.909577666666664, "fusion_lon": 0.0, "rental_uris": {"ios": "https://dc.lft.to/lastmile_qr_scan", "android": "https://dc.lft.to/lastmile_qr_scan"}, "is_disabled": 0, "is_reserved": 0, "name": "5f30efb44fee2ca3669bbc3081f7ce1e", "type": "electric_scooter", "fusion_lat": 0.0}, {"bike_id": "b4fdbe7fe49aeb610e78e83b13b9543b", "lon": -77.00877433333333, "lat": 38.922428333333336, "fusion_lon": 0.0, "rental_uris": {"ios": "https://dc.lft.to/lastmile_qr_scan", "android": "https://dc.lft.to/lastmile_qr_scan"}, "is_disabled": 0, "is_reserved": 0, "name": "b4fdbe7fe49aeb610e78e83b13b9543b", "type": "electric_scooter", "fusion_lat": 0.0}, {"bike_id": "4734ece04ebd0e2f69e32843e295c2b1", "lon": -76.98504516666667, "lat": 38.8802715, "fusion_lon": 0.0, "rental_uris": {"ios": "https://dc.lft.to/lastmile_qr_scan", "android": "https://dc.lft.to/lastmile_qr_scan"}, "is_disabled": 0, "is_reserved": 0, "name": "4734ece04ebd0e2f69e32843e295c2b1", "type": "electric_scooter", "fusion_lat": 0.0}, {"bike_id": "0f0704df963e816a44f84b040c4acf39", "lon": -77.02505616666667, "lat": 38.917265666666665, "fusion_lon": 0.0, "rental_uris": {"ios": "https://dc.lft.to/lastmile_qr_scan", "android": "https://dc.lft.to/lastmile_qr_scan"}, "is_disabled": 0, "is_reserved": 0, "name": "0f0704df963e816a44f84b040c4acf39", "type": "electric_scooter", "fusion_lat": 0.0}, {"bike_id": "9a84f718d58291e8a8e4b6be021583c7", "lon": -77.04563383333333, "lat": 38.9136495, "fusion_lon": 0.0, "rental_uris": {"ios": "https://dc.lft.to/lastmile_qr_scan", "android": "https://dc.lft.to/lastmile_qr_scan"}, "is_disabled": 0, "is_reserved": 0, "name": "9a84f718d58291e8a8e4b6be021583c7", "type": "electric_scooter", "fusion_lat": 0.0}, {"bike_id": "3cc9528db10af74caa4e38f1a5aaff77", "lon": -76.987121, "lat": 38.8669745, "fusion_lon": 0.0, "rental_uris": {"ios": "https://dc.lft.to/lastmile_qr_scan", "android": "https://dc.lft.to/lastmile_qr_scan"}, "is_disabled": 0, "is_reserved": 0, "name": "3cc9528db10af74caa4e38f1a5aaff77", "type": "electric_scooter", "fusion_lat": 0.0}, {"bike_id": "65278de21cb54944ac182b11406926fa", "lon": -77.02806933333333, "lat": 38.9113235, "fusion_lon": 0.0, "rental_uris": {"ios": "https://dc.lft.to/lastmile_qr_scan", "android": "https://dc.lft.to/lastmile_qr_scan"}, "is_disabled": 0, "is_reserved": 0, "name": "65278de21cb54944ac182b11406926fa", "type": "electric_scooter", "fusion_lat": 0.0}, {"bike_id": "4cfdef1566b9402d232b34245626f2bf", "lon": -77.01482666666666, "lat": 38.90716033333333, "fusion_lon": 0.0, "rental_uris": {"ios": "https://dc.lft.to/lastmile_qr_scan", "android": "https://dc.lft.to/lastmile_qr_scan"}, "is_disabled": 0, "is_reserved": 0, "name": "4cfdef1566b9402d232b34245626f2bf", "type": "electric_scooter", "fusion_lat": 0.0}, {"bike_id": "a96cbd9bf05b1c603e286a901d72f770", "lon": -77.04836216666666, "lat": 38.900718833333336, "fusion_lon": 0.0, "rental_uris": {"ios": "https://dc.lft.to/lastmile_qr_scan", "android": "https://dc.lft.to/lastmile_qr_scan"}, "is_disabled": 0, "is_reserved": 0, "name": "a96cbd9bf05b1c603e286a901d72f770", "type": "electric_scooter", "fusion_lat": 0.0}, {"bike_id": "c80614d44ea0f1a4267b3e8dd50488ab", "lon": -77.04244466666667, "lat": 38.922745166666665, "fusion_lon": 0.0, "rental_uris": {"ios": "https://dc.lft.to/lastmile_qr_scan", "android": "https://dc.lft.to/lastmile_qr_scan"}, "is_disabled": 0, "is_reserved": 0, "name": "c80614d44ea0f1a4267b3e8dd50488ab", "type": "electric_scooter", "fusion_lat": 0.0}, {"bike_id": "b00b9474105ef404bbcd61d806a3ab59", "lon": -77.04053483333334, "lat": 38.90893033333333, "fusion_lon": 0.0, "rental_uris": {"ios": "https://dc.lft.to/lastmile_qr_scan", "android": "https://dc.lft.to/lastmile_qr_scan"}, "is_disabled": 0, "is_reserved": 0, "name": "b00b9474105ef404bbcd61d806a3ab59", "type": "electric_scooter", "fusion_lat": 0.0}, {"bike_id": "7195f5b29a2ffc3ba32dbc00ff2e4d8d", "lon": -77.00585566666666, "lat": 38.88061066666667, "fusion_lon": 0.0, "rental_uris": {"ios": "https://dc.lft.to/lastmile_qr_scan", "android": "https://dc.lft.to/lastmile_qr_scan"}, "is_disabled": 0, "is_reserved": 0, "name": "7195f5b29a2ffc3ba32dbc00ff2e4d8d", "type": "electric_scooter", "fusion_lat": 0.0}, {"bike_id": "ae181acc7bfe7d7516af24ec716bd713", "lon": -77.01603433333334, "lat": 38.90161366666667, "fusion_lon": 0.0, "rental_uris": {"ios": "https://dc.lft.to/lastmile_qr_scan", "android": "https://dc.lft.to/lastmile_qr_scan"}, "is_disabled": 0, "is_reserved": 0, "name": "ae181acc7bfe7d7516af24ec716bd713", "type": "electric_scooter", "fusion_lat": 0.0}, {"bike_id": "08dadc0e136fe9734e4f3fe8da79279f", "lon": -77.1252645, "lat": 39.05631483333333, "fusion_lon": 0.0, "rental_uris": {"ios": "https://dc.lft.to/lastmile_qr_scan", "android": "https://dc.lft.to/lastmile_qr_scan"}, "is_disabled": 0, "is_reserved": 0, "name": "08dadc0e136fe9734e4f3fe8da79279f", "type": "electric_bike", "fusion_lat": 0.0}, {"bike_id": "ece38e76ca66df41787f2956cf126a93", "lon": -77.0350005, "lat": 38.911847, "fusion_lon": 0.0, "rental_uris": {"ios": "https://dc.lft.to/lastmile_qr_scan", "android": "https://dc.lft.to/lastmile_qr_scan"}, "is_disabled": 0, "is_reserved": 0, "name": "ece38e76ca66df41787f2956cf126a93", "type": "electric_scooter", "fusion_lat": 0.0}, {"bike_id": "d5394805d65b6dd710164e0c05e278c8", "lon": -77.03847733333333, "lat": 38.90406733333333, "fusion_lon": 0.0, "rental_uris": {"ios": "https://dc.lft.to/lastmile_qr_scan", "android": "https://dc.lft.to/lastmile_qr_scan"}, "is_disabled": 0, "is_reserved": 0, "name": "d5394805d65b6dd710164e0c05e278c8", "type": "electric_scooter", "fusion_lat": 0.0}, {"bike_id": "bb7c2b9e3da3728b451ce3757e4f3ae2", "lon": -77.04381166666667, "lat": 38.90584416666667, "fusion_lon": 0.0, "rental_uris": {"ios": "https://dc.lft.to/lastmile_qr_scan", "android": "https://dc.lft.to/lastmile_qr_scan"}, "is_disabled": 0, "is_reserved": 0, "name": "bb7c2b9e3da3728b451ce3757e4f3ae2", "type": "electric_scooter", "fusion_lat": 0.0}, {"bike_id": "3de3b9111296b692b2f7852ec59dc57f", "lon": -77.02988633333334, "lat": 38.93129116666667, "fusion_lon": 0.0, "rental_uris": {"ios": "https://dc.lft.to/lastmile_qr_scan", "android": "https://dc.lft.to/lastmile_qr_scan"}, "is_disabled": 0, "is_reserved": 0, "name": "3de3b9111296b692b2f7852ec59dc57f", "type": "electric_scooter", "fusion_lat": 0.0}, {"bike_id": "3724c1d818aeb06f8ed9c1c40f19731c", "lon": -76.99969566666667, "lat": 38.908376, "fusion_lon": 0.0, "rental_uris": {"ios": "https://dc.lft.to/lastmile_qr_scan", "android": "https://dc.lft.to/lastmile_qr_scan"}, "is_disabled": 0, "is_reserved": 0, "name": "3724c1d818aeb06f8ed9c1c40f19731c", "type": "electric_scooter", "fusion_lat": 0.0}, {"bike_id": "742f1ac48e71339abbc48bcd53b355f1", "lon": -77.04262066666666, "lat": 38.9225405, "fusion_lon": 0.0, "rental_uris": {"ios": "https://dc.lft.to/lastmile_qr_scan", "android": "https://dc.lft.to/lastmile_qr_scan"}, "is_disabled": 0, "is_reserved": 0, "name": "742f1ac48e71339abbc48bcd53b355f1", "type": "electric_scooter", "fusion_lat": 0.0}, {"bike_id": "4290df7a912e6ead2ed53f1d399b9bfb", "lon": -76.99486266666666, "lat": 38.8621725, "fusion_lon": 0.0, "rental_uris": {"ios": "https://dc.lft.to/lastmile_qr_scan", "android": "https://dc.lft.to/lastmile_qr_scan"}, "is_disabled": 0, "is_reserved": 0, "name": "4290df7a912e6ead2ed53f1d399b9bfb", "type": "electric_scooter", "fusion_lat": 0.0}, {"bike_id": "cd93a133ec6b34e308f327b0a10fcb07", "lon": -77.02974516666667, "lat": 38.9188985, "fusion_lon": 0.0, "rental_uris": {"ios": "https://dc.lft.to/lastmile_qr_scan", "android": "https://dc.lft.to/lastmile_qr_scan"}, "is_disabled": 0, "is_reserved": 0, "name": "cd93a133ec6b34e308f327b0a10fcb07", "type": "electric_scooter", "fusion_lat": 0.0}, {"bike_id": "640fc33a797abf37fde044989078e753", "lon": -76.9974175, "lat": 38.93245116666667, "fusion_lon": 0.0, "rental_uris": {"ios": "https://dc.lft.to/lastmile_qr_scan", "android": "https://dc.lft.to/lastmile_qr_scan"}, "is_disabled": 0, "is_reserved": 0, "name": "640fc33a797abf37fde044989078e753", "type": "electric_scooter", "fusion_lat": 0.0}, {"bike_id": "50007d93a8d809584c9881f8e13ca1c2", "lon": -77.00933333333333, "lat": 38.909702833333334, "fusion_lon": 0.0, "rental_uris": {"ios": "https://dc.lft.to/lastmile_qr_scan", "android": "https://dc.lft.to/lastmile_qr_scan"}, "is_disabled": 0, "is_reserved": 0, "name": "50007d93a8d809584c9881f8e13ca1c2", "type": "electric_scooter", "fusion_lat": 0.0}, {"bike_id": "df034e384ca6a7274e8e5f77444a19dc", "lon": -77.02987233333333, "lat": 38.896203, "fusion_lon": 0.0, "rental_uris": {"ios": "https://dc.lft.to/lastmile_qr_scan", "android": "https://dc.lft.to/lastmile_qr_scan"}, "is_disabled": 0, "is_reserved": 0, "name": "df034e384ca6a7274e8e5f77444a19dc", "type": "electric_scooter", "fusion_lat": 0.0}, {"bike_id": "1f91061729a94b4f3363327816be7a62", "lon": -77.00561666666667, "lat": 38.8357875, "fusion_lon": 0.0, "rental_uris": {"ios": "https://dc.lft.to/lastmile_qr_scan", "android": "https://dc.lft.to/lastmile_qr_scan"}, "is_disabled": 0, "is_reserved": 0, "name": "1f91061729a94b4f3363327816be7a62", "type": "electric_scooter", "fusion_lat": 0.0}, {"bike_id": "38519b9b9b07038718656dc9d233f54b", "lon": -77.0322415, "lat": 38.928684, "fusion_lon": 0.0, "rental_uris": {"ios": "https://dc.lft.to/lastmile_qr_scan", "android": "https://dc.lft.to/lastmile_qr_scan"}, "is_disabled": 0, "is_reserved": 0, "name": "38519b9b9b07038718656dc9d233f54b", "type": "electric_scooter", "fusion_lat": 0.0}, {"bike_id": "4a36a5743983dbf6b58578ccec9e1fac", "lon": -77.02727683333333, "lat": 38.95184033333334, "fusion_lon": 0.0, "rental_uris": {"ios": "https://dc.lft.to/lastmile_qr_scan", "android": "https://dc.lft.to/lastmile_qr_scan"}, "is_disabled": 0, "is_reserved": 0, "name": "4a36a5743983dbf6b58578ccec9e1fac", "type": "electric_scooter", "fusion_lat": 0.0}, {"bike_id": "7e676b70d0ee7bed8acf77c7bb85370d", "lon": -77.02689983333333, "lat": 38.916829166666666, "fusion_lon": 0.0, "rental_uris": {"ios": "https://dc.lft.to/lastmile_qr_scan", "android": "https://dc.lft.to/lastmile_qr_scan"}, "is_disabled": 0, "is_reserved": 0, "name": "7e676b70d0ee7bed8acf77c7bb85370d", "type": "electric_scooter", "fusion_lat": 0.0}, {"bike_id": "0c127fc71c2d8299db7123dc0c6af086", "lon": -77.024393, "lat": 38.918617166666664, "fusion_lon": 0.0, "rental_uris": {"ios": "https://dc.lft.to/lastmile_qr_scan", "android": "https://dc.lft.to/lastmile_qr_scan"}, "is_disabled": 0, "is_reserved": 0, "name": "0c127fc71c2d8299db7123dc0c6af086", "type": "electric_scooter", "fusion_lat": 0.0}, {"bike_id": "3af40852a41fdf97f186c031a4a8ca7b", "lon": -77.05233383333334, "lat": 38.92465983333334, "fusion_lon": 0.0, "rental_uris": {"ios": "https://dc.lft.to/lastmile_qr_scan", "android": "https://dc.lft.to/lastmile_qr_scan"}, "is_disabled": 0, "is_reserved": 0, "name": "3af40852a41fdf97f186c031a4a8ca7b", "type": "electric_scooter", "fusion_lat": 0.0}, {"bike_id": "84922aab2fe74ea23ebaf4868ffd5a8b", "lon": -76.98490933333333, "lat": 38.904329, "fusion_lon": 0.0, "rental_uris": {"ios": "https://dc.lft.to/lastmile_qr_scan", "android": "https://dc.lft.to/lastmile_qr_scan"}, "is_disabled": 0, "is_reserved": 0, "name": "84922aab2fe74ea23ebaf4868ffd5a8b", "type": "electric_scooter", "fusion_lat": 0.0}, {"bike_id": "76915315ca5559710a55796e0ae9add2", "lon": -77.01782133333333, "lat": 38.91192216666666, "fusion_lon": 0.0, "rental_uris": {"ios": "https://dc.lft.to/lastmile_qr_scan", "android": "https://dc.lft.to/lastmile_qr_scan"}, "is_disabled": 0, "is_reserved": 0, "name": "76915315ca5559710a55796e0ae9add2", "type": "electric_scooter", "fusion_lat": 0.0}, {"bike_id": "40ba13be418ad979f5b9100936edf52c", "lon": -77.03682833333333, "lat": 38.902705, "fusion_lon": 0.0, "rental_uris": {"ios": "https://dc.lft.to/lastmile_qr_scan", "android": "https://dc.lft.to/lastmile_qr_scan"}, "is_disabled": 0, "is_reserved": 0, "name": "40ba13be418ad979f5b9100936edf52c", "type": "electric_scooter", "fusion_lat": 0.0}, {"bike_id": "37dda65d7769fcc8d19b3775d3bed766", "lon": -77.0024905, "lat": 38.9110335, "fusion_lon": 0.0, "rental_uris": {"ios": "https://dc.lft.to/lastmile_qr_scan", "android": "https://dc.lft.to/lastmile_qr_scan"}, "is_disabled": 0, "is_reserved": 0, "name": "37dda65d7769fcc8d19b3775d3bed766", "type": "electric_scooter", "fusion_lat": 0.0}, {"bike_id": "2fe6ac018c79b1288a6b8de1f2822362", "lon": -76.98049, "lat": 38.90025166666667, "fusion_lon": 0.0, "rental_uris": {"ios": "https://dc.lft.to/lastmile_qr_scan", "android": "https://dc.lft.to/lastmile_qr_scan"}, "is_disabled": 0, "is_reserved": 0, "name": "2fe6ac018c79b1288a6b8de1f2822362", "type": "electric_scooter", "fusion_lat": 0.0}, {"bike_id": "1ca542b43ff7b4dfd76dc4f88870cf3d", "lon": -76.9998215, "lat": 38.879182166666666, "fusion_lon": 0.0, "rental_uris": {"ios": "https://dc.lft.to/lastmile_qr_scan", "android": "https://dc.lft.to/lastmile_qr_scan"}, "is_disabled": 0, "is_reserved": 0, "name": "1ca542b43ff7b4dfd76dc4f88870cf3d", "type": "electric_scooter", "fusion_lat": 0.0}, {"bike_id": "77ebb1365166f24dcb31998a31b9b860", "lon": -77.04306033333333, "lat": 38.92331383333333, "fusion_lon": 0.0, "rental_uris": {"ios": "https://dc.lft.to/lastmile_qr_scan", "android": "https://dc.lft.to/lastmile_qr_scan"}, "is_disabled": 0, "is_reserved": 0, "name": "77ebb1365166f24dcb31998a31b9b860", "type": "electric_scooter", "fusion_lat": 0.0}, {"bike_id": "cdf554b716f69bdd5e404ddb247b3c13", "lon": -76.973316, "lat": 38.9040515, "fusion_lon": 0.0, "rental_uris": {"ios": "https://dc.lft.to/lastmile_qr_scan", "android": "https://dc.lft.to/lastmile_qr_scan"}, "is_disabled": 0, "is_reserved": 0, "name": "cdf554b716f69bdd5e404ddb247b3c13", "type": "electric_scooter", "fusion_lat": 0.0}, {"bike_id": "b705c6379be90fadeb671045e5cf1cc0", "lon": -77.02972483333333, "lat": 38.9067345, "fusion_lon": 0.0, "rental_uris": {"ios": "https://dc.lft.to/lastmile_qr_scan", "android": "https://dc.lft.to/lastmile_qr_scan"}, "is_disabled": 0, "is_reserved": 0, "name": "b705c6379be90fadeb671045e5cf1cc0", "type": "electric_scooter", "fusion_lat": 0.0}, {"bike_id": "88d41779a472fb171d700b8a9644b273", "lon": -77.03841016666667, "lat": 38.92643833333333, "fusion_lon": 0.0, "rental_uris": {"ios": "https://dc.lft.to/lastmile_qr_scan", "android": "https://dc.lft.to/lastmile_qr_scan"}, "is_disabled": 0, "is_reserved": 0, "name": "88d41779a472fb171d700b8a9644b273", "type": "electric_scooter", "fusion_lat": 0.0}, {"bike_id": "3139aa5ea9140221027627d7b058a2be", "lon": -77.0382965, "lat": 38.906524166666664, "fusion_lon": 0.0, "rental_uris": {"ios": "https://dc.lft.to/lastmile_qr_scan", "android": "https://dc.lft.to/lastmile_qr_scan"}, "is_disabled": 0, "is_reserved": 0, "name": "3139aa5ea9140221027627d7b058a2be", "type": "electric_scooter", "fusion_lat": 0.0}, {"bike_id": "3a63c31bb88951932479daa452eb0f15", "lon": -77.02341933333334, "lat": 38.925147333333335, "fusion_lon": 0.0, "rental_uris": {"ios": "https://dc.lft.to/lastmile_qr_scan", "android": "https://dc.lft.to/lastmile_qr_scan"}, "is_disabled": 0, "is_reserved": 0, "name": "3a63c31bb88951932479daa452eb0f15", "type": "electric_scooter", "fusion_lat": 0.0}, {"bike_id": "53e6d7dc3e5143f3214878b789406c56", "lon": -77.05252533333334, "lat": 38.92737783333333, "fusion_lon": 0.0, "rental_uris": {"ios": "https://dc.lft.to/lastmile_qr_scan", "android": "https://dc.lft.to/lastmile_qr_scan"}, "is_disabled": 0, "is_reserved": 0, "name": "53e6d7dc3e5143f3214878b789406c56", "type": "electric_scooter", "fusion_lat": 0.0}, {"bike_id": "be5ce18a4c8da8e9c45fbcbb3ea98a89", "lon": -77.05145833333333, "lat": 39.05050416666667, "fusion_lon": 0.0, "rental_uris": {"ios": "https://dc.lft.to/lastmile_qr_scan", "android": "https://dc.lft.to/lastmile_qr_scan"}, "is_disabled": 0, "is_reserved": 0, "name": "be5ce18a4c8da8e9c45fbcbb3ea98a89", "type": "electric_bike", "fusion_lat": 0.0}, {"bike_id": "60e329d302d9ced37c754d30e6a20a54", "lon": -76.94620783333333, "lat": 38.83237833333333, "fusion_lon": 0.0, "rental_uris": {"ios": "https://dc.lft.to/lastmile_qr_scan", "android": "https://dc.lft.to/lastmile_qr_scan"}, "is_disabled": 0, "is_reserved": 0, "name": "60e329d302d9ced37c754d30e6a20a54", "type": "electric_bike", "fusion_lat": 0.0}, {"bike_id": "0de059f7239e6b4fde1d4263ad7e2673", "lon": -77.02045016666666, "lat": 38.932427, "fusion_lon": 0.0, "rental_uris": {"ios": "https://dc.lft.to/lastmile_qr_scan", "android": "https://dc.lft.to/lastmile_qr_scan"}, "is_disabled": 0, "is_reserved": 0, "name": "0de059f7239e6b4fde1d4263ad7e2673", "type": "electric_scooter", "fusion_lat": 0.0}, {"bike_id": "d3692cce82cf79a29c67241ac2cd29a2", "lon": -77.06311416666667, "lat": 38.930211666666665, "fusion_lon": 0.0, "rental_uris": {"ios": "https://dc.lft.to/lastmile_qr_scan", "android": "https://dc.lft.to/lastmile_qr_scan"}, "is_disabled": 0, "is_reserved": 0, "name": "d3692cce82cf79a29c67241ac2cd29a2", "type": "electric_scooter", "fusion_lat": 0.0}, {"bike_id": "4570a83a20929c1a21ad27ab2c42e99e", "lon": -77.04657466666667, "lat": 38.90636833333333, "fusion_lon": 0.0, "rental_uris": {"ios": "https://dc.lft.to/lastmile_qr_scan", "android": "https://dc.lft.to/lastmile_qr_scan"}, "is_disabled": 0, "is_reserved": 0, "name": "4570a83a20929c1a21ad27ab2c42e99e", "type": "electric_scooter", "fusion_lat": 0.0}, {"bike_id": "51706941b250168c0884413bb36aefe5", "lon": -77.018733, "lat": 38.874873666666666, "fusion_lon": 0.0, "rental_uris": {"ios": "https://dc.lft.to/lastmile_qr_scan", "android": "https://dc.lft.to/lastmile_qr_scan"}, "is_disabled": 0, "is_reserved": 0, "name": "51706941b250168c0884413bb36aefe5", "type": "electric_scooter", "fusion_lat": 0.0}, {"bike_id": "7350f9fb6e4b368c2f4c623d1d1a1cdc", "lon": -77.03816666666667, "lat": 38.9097615, "fusion_lon": 0.0, "rental_uris": {"ios": "https://dc.lft.to/lastmile_qr_scan", "android": "https://dc.lft.to/lastmile_qr_scan"}, "is_disabled": 0, "is_reserved": 0, "name": "7350f9fb6e4b368c2f4c623d1d1a1cdc", "type": "electric_scooter", "fusion_lat": 0.0}, {"bike_id": "17eb0e37465697a04e863fa4621f0669", "lon": -77.027965, "lat": 38.89349816666667, "fusion_lon": 0.0, "rental_uris": {"ios": "https://dc.lft.to/lastmile_qr_scan", "android": "https://dc.lft.to/lastmile_qr_scan"}, "is_disabled": 0, "is_reserved": 0, "name": "17eb0e37465697a04e863fa4621f0669", "type": "electric_scooter", "fusion_lat": 0.0}, {"bike_id": "e536245058c9d60d77579932713201e4", "lon": -77.02348416666666, "lat": 38.917852833333335, "fusion_lon": 0.0, "rental_uris": {"ios": "https://dc.lft.to/lastmile_qr_scan", "android": "https://dc.lft.to/lastmile_qr_scan"}, "is_disabled": 0, "is_reserved": 0, "name": "e536245058c9d60d77579932713201e4", "type": "electric_scooter", "fusion_lat": 0.0}, {"bike_id": "c03c31115ba6eceff57a56079fc9ba02", "lon": -76.97643366666667, "lat": 38.90093233333333, "fusion_lon": 0.0, "rental_uris": {"ios": "https://dc.lft.to/lastmile_qr_scan", "android": "https://dc.lft.to/lastmile_qr_scan"}, "is_disabled": 0, "is_reserved": 0, "name": "c03c31115ba6eceff57a56079fc9ba02", "type": "electric_scooter", "fusion_lat": 0.0}, {"bike_id": "abf048eef051f953f30005a056ad55e2", "lon": -77.032373, "lat": 38.92873933333333, "fusion_lon": 0.0, "rental_uris": {"ios": "https://dc.lft.to/lastmile_qr_scan", "android": "https://dc.lft.to/lastmile_qr_scan"}, "is_disabled": 0, "is_reserved": 0, "name": "abf048eef051f953f30005a056ad55e2", "type": "electric_scooter", "fusion_lat": 0.0}, {"bike_id": "7ebaa58e631b52f30386927a5d77c295", "lon": -77.012288, "lat": 38.893413833333334, "fusion_lon": 0.0, "rental_uris": {"ios": "https://dc.lft.to/lastmile_qr_scan", "android": "https://dc.lft.to/lastmile_qr_scan"}, "is_disabled": 0, "is_reserved": 0, "name": "7ebaa58e631b52f30386927a5d77c295", "type": "electric_scooter", "fusion_lat": 0.0}, {"bike_id": "efe2a83b9052832785bbca27bf9d53ad", "lon": -76.93369483333333, "lat": 38.899175166666666, "fusion_lon": 0.0, "rental_uris": {"ios": "https://dc.lft.to/lastmile_qr_scan", "android": "https://dc.lft.to/lastmile_qr_scan"}, "is_disabled": 0, "is_reserved": 0, "name": "efe2a83b9052832785bbca27bf9d53ad", "type": "electric_scooter", "fusion_lat": 0.0}, {"bike_id": "0e91d96055373d116706289513abffd6", "lon": -76.98926816666666, "lat": 38.88204966666667, "fusion_lon": 0.0, "rental_uris": {"ios": "https://dc.lft.to/lastmile_qr_scan", "android": "https://dc.lft.to/lastmile_qr_scan"}, "is_disabled": 0, "is_reserved": 0, "name": "0e91d96055373d116706289513abffd6", "type": "electric_scooter", "fusion_lat": 0.0}, {"bike_id": "d5d6a1a3fae4b2ff31caa936678fce3b", "lon": -76.985371, "lat": 38.90871216666667, "fusion_lon": 0.0, "rental_uris": {"ios": "https://dc.lft.to/lastmile_qr_scan", "android": "https://dc.lft.to/lastmile_qr_scan"}, "is_disabled": 0, "is_reserved": 0, "name": "d5d6a1a3fae4b2ff31caa936678fce3b", "type": "electric_bike", "fusion_lat": 0.0}, {"bike_id": "a45ff2585eb70f1307f7a1be392c30db", "lon": -77.00611833333333, "lat": 38.8717795, "fusion_lon": 0.0, "rental_uris": {"ios": "https://dc.lft.to/lastmile_qr_scan", "android": "https://dc.lft.to/lastmile_qr_scan"}, "is_disabled": 0, "is_reserved": 0, "name": "a45ff2585eb70f1307f7a1be392c30db", "type": "electric_scooter", "fusion_lat": 0.0}, {"bike_id": "950c69416a3d1fe039831bf311bd0f3e", "lon": -77.0389815, "lat": 38.918280333333335, "fusion_lon": 0.0, "rental_uris": {"ios": "https://dc.lft.to/lastmile_qr_scan", "android": "https://dc.lft.to/lastmile_qr_scan"}, "is_disabled": 0, "is_reserved": 0, "name": "950c69416a3d1fe039831bf311bd0f3e", "type": "electric_scooter", "fusion_lat": 0.0}, {"bike_id": "cc5131a27512efdb387cec13231462dd", "lon": -76.97424016666666, "lat": 38.9049845, "fusion_lon": 0.0, "rental_uris": {"ios": "https://dc.lft.to/lastmile_qr_scan", "android": "https://dc.lft.to/lastmile_qr_scan"}, "is_disabled": 0, "is_reserved": 0, "name": "cc5131a27512efdb387cec13231462dd", "type": "electric_bike", "fusion_lat": 0.0}, {"bike_id": "e62cdd1a2e6a5f6980796ba382a213ac", "lon": -77.0334285, "lat": 38.92873916666667, "fusion_lon": 0.0, "rental_uris": {"ios": "https://dc.lft.to/lastmile_qr_scan", "android": "https://dc.lft.to/lastmile_qr_scan"}, "is_disabled": 0, "is_reserved": 0, "name": "e62cdd1a2e6a5f6980796ba382a213ac", "type": "electric_scooter", "fusion_lat": 0.0}, {"bike_id": "eb00aef902bbcf1f11bda794dcf4c113", "lon": -76.99595883333333, "lat": 38.885160666666664, "fusion_lon": 0.0, "rental_uris": {"ios": "https://dc.lft.to/lastmile_qr_scan", "android": "https://dc.lft.to/lastmile_qr_scan"}, "is_disabled": 0, "is_reserved": 0, "name": "eb00aef902bbcf1f11bda794dcf4c113", "type": "electric_scooter", "fusion_lat": 0.0}, {"bike_id": "cf8ce65e44bffaedead846958e3af34e", "lon": -77.02624633333333, "lat": 38.96222783333333, "fusion_lon": 0.0, "rental_uris": {"ios": "https://dc.lft.to/lastmile_qr_scan", "android": "https://dc.lft.to/lastmile_qr_scan"}, "is_disabled": 0, "is_reserved": 0, "name": "cf8ce65e44bffaedead846958e3af34e", "type": "electric_bike", "fusion_lat": 0.0}, {"bike_id": "37abd1459530a77355235ffbe722f80e", "lon": -77.02105233333333, "lat": 38.90609366666666, "fusion_lon": 0.0, "rental_uris": {"ios": "https://dc.lft.to/lastmile_qr_scan", "android": "https://dc.lft.to/lastmile_qr_scan"}, "is_disabled": 0, "is_reserved": 0, "name": "37abd1459530a77355235ffbe722f80e", "type": "electric_scooter", "fusion_lat": 0.0}, {"bike_id": "f81dda51ef79196d100aebb0f434da5d", "lon": -76.926197, "lat": 38.884553, "fusion_lon": 0.0, "rental_uris": {"ios": "https://dc.lft.to/lastmile_qr_scan", "android": "https://dc.lft.to/lastmile_qr_scan"}, "is_disabled": 0, "is_reserved": 0, "name": "f81dda51ef79196d100aebb0f434da5d", "type": "electric_scooter", "fusion_lat": 0.0}, {"bike_id": "17bffe23c2bcb07047a667d519c5f36b", "lon": -77.0436255, "lat": 38.900959, "fusion_lon": 0.0, "rental_uris": {"ios": "https://dc.lft.to/lastmile_qr_scan", "android": "https://dc.lft.to/lastmile_qr_scan"}, "is_disabled": 0, "is_reserved": 0, "name": "17bffe23c2bcb07047a667d519c5f36b", "type": "electric_scooter", "fusion_lat": 0.0}, {"bike_id": "97d5404293324e348a83b90b9782e39e", "lon": -77.0283745, "lat": 38.903596666666665, "fusion_lon": 0.0, "rental_uris": {"ios": "https://dc.lft.to/lastmile_qr_scan", "android": "https://dc.lft.to/lastmile_qr_scan"}, "is_disabled": 0, "is_reserved": 0, "name": "97d5404293324e348a83b90b9782e39e", "type": "electric_scooter", "fusion_lat": 0.0}, {"bike_id": "0cfe143afea75d956b9652c52f9915e2", "lon": -77.02285933333333, "lat": 38.914550166666665, "fusion_lon": 0.0, "rental_uris": {"ios": "https://dc.lft.to/lastmile_qr_scan", "android": "https://dc.lft.to/lastmile_qr_scan"}, "is_disabled": 0, "is_reserved": 0, "name": "0cfe143afea75d956b9652c52f9915e2", "type": "electric_scooter", "fusion_lat": 0.0}, {"bike_id": "f3ba02b8713b038722c1572a28c00905", "lon": -77.03661666666666, "lat": 38.913108333333334, "fusion_lon": 0.0, "rental_uris": {"ios": "https://dc.lft.to/lastmile_qr_scan", "android": "https://dc.lft.to/lastmile_qr_scan"}, "is_disabled": 0, "is_reserved": 0, "name": "f3ba02b8713b038722c1572a28c00905", "type": "electric_scooter", "fusion_lat": 0.0}, {"bike_id": "ea8da2c519b08fc32971bfb59e669bfb", "lon": -77.03208666666667, "lat": 38.89236733333333, "fusion_lon": 0.0, "rental_uris": {"ios": "https://dc.lft.to/lastmile_qr_scan", "android": "https://dc.lft.to/lastmile_qr_scan"}, "is_disabled": 0, "is_reserved": 0, "name": "ea8da2c519b08fc32971bfb59e669bfb", "type": "electric_scooter", "fusion_lat": 0.0}, {"bike_id": "f040d7c7723f2e41c8f513d46a1bd5ee", "lon": -77.01182566666667, "lat": 38.91569066666667, "fusion_lon": 0.0, "rental_uris": {"ios": "https://dc.lft.to/lastmile_qr_scan", "android": "https://dc.lft.to/lastmile_qr_scan"}, "is_disabled": 0, "is_reserved": 0, "name": "f040d7c7723f2e41c8f513d46a1bd5ee", "type": "electric_scooter", "fusion_lat": 0.0}, {"bike_id": "8f896603eecca9065b9c45dfad78d1cf", "lon": -77.10832533333334, "lat": 38.81199866666667, "fusion_lon": 0.0, "rental_uris": {"ios": "https://dc.lft.to/lastmile_qr_scan", "android": "https://dc.lft.to/lastmile_qr_scan"}, "is_disabled": 0, "is_reserved": 0, "name": "8f896603eecca9065b9c45dfad78d1cf", "type": "electric_bike", "fusion_lat": 0.0}, {"bike_id": "32e8c7e37d3dc587f9323c62b416ba4f", "lon": -77.04532966666666, "lat": 38.9131285, "fusion_lon": 0.0, "rental_uris": {"ios": "https://dc.lft.to/lastmile_qr_scan", "android": "https://dc.lft.to/lastmile_qr_scan"}, "is_disabled": 0, "is_reserved": 0, "name": "32e8c7e37d3dc587f9323c62b416ba4f", "type": "electric_scooter", "fusion_lat": 0.0}, {"bike_id": "0884ffa734868a1af07b74a150504cdb", "lon": -77.01363216666667, "lat": 38.870855, "fusion_lon": 0.0, "rental_uris": {"ios": "https://dc.lft.to/lastmile_qr_scan", "android": "https://dc.lft.to/lastmile_qr_scan"}, "is_disabled": 0, "is_reserved": 0, "name": "0884ffa734868a1af07b74a150504cdb", "type": "electric_scooter", "fusion_lat": 0.0}, {"bike_id": "f2bcd62e01cb869101792fa135dde782", "lon": -76.9951075, "lat": 38.88607233333333, "fusion_lon": 0.0, "rental_uris": {"ios": "https://dc.lft.to/lastmile_qr_scan", "android": "https://dc.lft.to/lastmile_qr_scan"}, "is_disabled": 0, "is_reserved": 0, "name": "f2bcd62e01cb869101792fa135dde782", "type": "electric_scooter", "fusion_lat": 0.0}, {"bike_id": "851601797f71f08d88ad1e3d2fa48164", "lon": -76.975932, "lat": 38.869993666666666, "fusion_lon": 0.0, "rental_uris": {"ios": "https://dc.lft.to/lastmile_qr_scan", "android": "https://dc.lft.to/lastmile_qr_scan"}, "is_disabled": 0, "is_reserved": 0, "name": "851601797f71f08d88ad1e3d2fa48164", "type": "electric_scooter", "fusion_lat": 0.0}, {"bike_id": "6d1de2e248fbdf5446c59e4c67981fba", "lon": -77.02697533333334, "lat": 38.91592283333333, "fusion_lon": 0.0, "rental_uris": {"ios": "https://dc.lft.to/lastmile_qr_scan", "android": "https://dc.lft.to/lastmile_qr_scan"}, "is_disabled": 0, "is_reserved": 0, "name": "6d1de2e248fbdf5446c59e4c67981fba", "type": "electric_scooter", "fusion_lat": 0.0}, {"bike_id": "e9ecb76ff4a19d4faaa8c61240806be1", "lon": -76.9888125, "lat": 38.866568, "fusion_lon": 0.0, "rental_uris": {"ios": "https://dc.lft.to/lastmile_qr_scan", "android": "https://dc.lft.to/lastmile_qr_scan"}, "is_disabled": 0, "is_reserved": 0, "name": "e9ecb76ff4a19d4faaa8c61240806be1", "type": "electric_scooter", "fusion_lat": 0.0}, {"bike_id": "cdb11bc49d47c39b122412944c0d66f3", "lon": -77.014691, "lat": 38.914962, "fusion_lon": 0.0, "rental_uris": {"ios": "https://dc.lft.to/lastmile_qr_scan", "android": "https://dc.lft.to/lastmile_qr_scan"}, "is_disabled": 0, "is_reserved": 0, "name": "cdb11bc49d47c39b122412944c0d66f3", "type": "electric_scooter", "fusion_lat": 0.0}, {"bike_id": "cb7d9f36a9930bfb163d98fb951985bb", "lon": -77.080689, "lat": 39.052781333333336, "fusion_lon": 0.0, "rental_uris": {"ios": "https://dc.lft.to/lastmile_qr_scan", "android": "https://dc.lft.to/lastmile_qr_scan"}, "is_disabled": 0, "is_reserved": 0, "name": "cb7d9f36a9930bfb163d98fb951985bb", "type": "electric_bike", "fusion_lat": 0.0}, {"bike_id": "94731d994b31193f249b80aadb5fa60f", "lon": -77.03206983333334, "lat": 38.915699000000004, "fusion_lon": 0.0, "rental_uris": {"ios": "https://dc.lft.to/lastmile_qr_scan", "android": "https://dc.lft.to/lastmile_qr_scan"}, "is_disabled": 0, "is_reserved": 0, "name": "94731d994b31193f249b80aadb5fa60f", "type": "electric_scooter", "fusion_lat": 0.0}, {"bike_id": "53e24664b7d7047de4b98f88aed7424e", "lon": -76.96298333333333, "lat": 38.878319, "fusion_lon": 0.0, "rental_uris": {"ios": "https://dc.lft.to/lastmile_qr_scan", "android": "https://dc.lft.to/lastmile_qr_scan"}, "is_disabled": 0, "is_reserved": 0, "name": "53e24664b7d7047de4b98f88aed7424e", "type": "electric_scooter", "fusion_lat": 0.0}, {"bike_id": "f5904005cd422469a0964f5d1403ce6b", "lon": -76.987165, "lat": 38.86696, "fusion_lon": 0.0, "rental_uris": {"ios": "https://dc.lft.to/lastmile_qr_scan", "android": "https://dc.lft.to/lastmile_qr_scan"}, "is_disabled": 0, "is_reserved": 0, "name": "f5904005cd422469a0964f5d1403ce6b", "type": "electric_scooter", "fusion_lat": 0.0}, {"bike_id": "a59c4da896ae66c47baeb546d6faef65", "lon": -76.98409333333333, "lat": 38.91466416666667, "fusion_lon": 0.0, "rental_uris": {"ios": "https://dc.lft.to/lastmile_qr_scan", "android": "https://dc.lft.to/lastmile_qr_scan"}, "is_disabled": 0, "is_reserved": 0, "name": "a59c4da896ae66c47baeb546d6faef65", "type": "electric_scooter", "fusion_lat": 0.0}, {"bike_id": "bd5154681483cef6dafb4512d5b74bb5", "lon": -77.04362666666667, "lat": 38.9315175, "fusion_lon": 0.0, "rental_uris": {"ios": "https://dc.lft.to/lastmile_qr_scan", "android": "https://dc.lft.to/lastmile_qr_scan"}, "is_disabled": 0, "is_reserved": 0, "name": "bd5154681483cef6dafb4512d5b74bb5", "type": "electric_scooter", "fusion_lat": 0.0}, {"bike_id": "ea335630efd5dd92ba5aa39aa5611a1c", "lon": -77.0802325, "lat": 38.947909333333335, "fusion_lon": 0.0, "rental_uris": {"ios": "https://dc.lft.to/lastmile_qr_scan", "android": "https://dc.lft.to/lastmile_qr_scan"}, "is_disabled": 0, "is_reserved": 0, "name": "ea335630efd5dd92ba5aa39aa5611a1c", "type": "electric_scooter", "fusion_lat": 0.0}, {"bike_id": "81c43b44042ae650de44b7d069a4f551", "lon": -77.02825366666667, "lat": 38.887286833333334, "fusion_lon": 0.0, "rental_uris": {"ios": "https://dc.lft.to/lastmile_qr_scan", "android": "https://dc.lft.to/lastmile_qr_scan"}, "is_disabled": 0, "is_reserved": 0, "name": "81c43b44042ae650de44b7d069a4f551", "type": "electric_scooter", "fusion_lat": 0.0}, {"bike_id": "593e44bb5eb26756e1b5f023fc7f7bf8", "lon": -77.03436516666666, "lat": 38.9169115, "fusion_lon": 0.0, "rental_uris": {"ios": "https://dc.lft.to/lastmile_qr_scan", "android": "https://dc.lft.to/lastmile_qr_scan"}, "is_disabled": 0, "is_reserved": 0, "name": "593e44bb5eb26756e1b5f023fc7f7bf8", "type": "electric_scooter", "fusion_lat": 0.0}, {"bike_id": "6e8214444caf2618005eb1e1a89d9272", "lon": -76.968911, "lat": 38.8607825, "fusion_lon": 0.0, "rental_uris": {"ios": "https://dc.lft.to/lastmile_qr_scan", "android": "https://dc.lft.to/lastmile_qr_scan"}, "is_disabled": 0, "is_reserved": 0, "name": "6e8214444caf2618005eb1e1a89d9272", "type": "electric_scooter", "fusion_lat": 0.0}, {"bike_id": "2fc1cdf5daf11f8de2b41dfc829cabe3", "lon": -77.01777966666667, "lat": 38.9026255, "fusion_lon": 0.0, "rental_uris": {"ios": "https://dc.lft.to/lastmile_qr_scan", "android": "https://dc.lft.to/lastmile_qr_scan"}, "is_disabled": 0, "is_reserved": 0, "name": "2fc1cdf5daf11f8de2b41dfc829cabe3", "type": "electric_scooter", "fusion_lat": 0.0}, {"bike_id": "851372e8ced3ad053d2bd6b8246e600d", "lon": -77.015764, "lat": 38.915070666666665, "fusion_lon": 0.0, "rental_uris": {"ios": "https://dc.lft.to/lastmile_qr_scan", "android": "https://dc.lft.to/lastmile_qr_scan"}, "is_disabled": 0, "is_reserved": 0, "name": "851372e8ced3ad053d2bd6b8246e600d", "type": "electric_scooter", "fusion_lat": 0.0}, {"bike_id": "99637b50531f461d2ca9da39c0ba1c2f", "lon": -77.02335316666667, "lat": 38.922330333333335, "fusion_lon": 0.0, "rental_uris": {"ios": "https://dc.lft.to/lastmile_qr_scan", "android": "https://dc.lft.to/lastmile_qr_scan"}, "is_disabled": 0, "is_reserved": 0, "name": "99637b50531f461d2ca9da39c0ba1c2f", "type": "electric_scooter", "fusion_lat": 0.0}, {"bike_id": "a1e7dadd204f0638344cc30ebbb1edcd", "lon": -77.044691, "lat": 38.90543066666667, "fusion_lon": 0.0, "rental_uris": {"ios": "https://dc.lft.to/lastmile_qr_scan", "android": "https://dc.lft.to/lastmile_qr_scan"}, "is_disabled": 0, "is_reserved": 0, "name": "a1e7dadd204f0638344cc30ebbb1edcd", "type": "electric_scooter", "fusion_lat": 0.0}, {"bike_id": "274b4c6ee0f40614a483d46a36c7acec", "lon": -77.029365, "lat": 38.91257, "fusion_lon": 0.0, "rental_uris": {"ios": "https://dc.lft.to/lastmile_qr_scan", "android": "https://dc.lft.to/lastmile_qr_scan"}, "is_disabled": 0, "is_reserved": 0, "name": "274b4c6ee0f40614a483d46a36c7acec", "type": "electric_scooter", "fusion_lat": 0.0}, {"bike_id": "98ebb1d4400d46f43c5a8643a68ae34a", "lon": -77.034374, "lat": 38.92544383333333, "fusion_lon": 0.0, "rental_uris": {"ios": "https://dc.lft.to/lastmile_qr_scan", "android": "https://dc.lft.to/lastmile_qr_scan"}, "is_disabled": 0, "is_reserved": 0, "name": "98ebb1d4400d46f43c5a8643a68ae34a", "type": "electric_scooter", "fusion_lat": 0.0}, {"bike_id": "71f166da1dafeced5fdc14cd5a8a4390", "lon": -76.97437816666667, "lat": 38.86417733333333, "fusion_lon": 0.0, "rental_uris": {"ios": "https://dc.lft.to/lastmile_qr_scan", "android": "https://dc.lft.to/lastmile_qr_scan"}, "is_disabled": 0, "is_reserved": 0, "name": "71f166da1dafeced5fdc14cd5a8a4390", "type": "electric_scooter", "fusion_lat": 0.0}, {"bike_id": "dc4b6628801a50e5949d95d64a7066a0", "lon": -77.13100833333333, "lat": 39.02437666666667, "fusion_lon": 0.0, "rental_uris": {"ios": "https://dc.lft.to/lastmile_qr_scan", "android": "https://dc.lft.to/lastmile_qr_scan"}, "is_disabled": 0, "is_reserved": 0, "name": "dc4b6628801a50e5949d95d64a7066a0", "type": "electric_bike", "fusion_lat": 0.0}, {"bike_id": "8770da713f31df850311b007706733e4", "lon": -77.04670116666667, "lat": 38.90552516666666, "fusion_lon": 0.0, "rental_uris": {"ios": "https://dc.lft.to/lastmile_qr_scan", "android": "https://dc.lft.to/lastmile_qr_scan"}, "is_disabled": 0, "is_reserved": 0, "name": "8770da713f31df850311b007706733e4", "type": "electric_scooter", "fusion_lat": 0.0}, {"bike_id": "f2c56650f375d9f9b6860133337b9f8a", "lon": -77.12493833333333, "lat": 39.05807866666667, "fusion_lon": 0.0, "rental_uris": {"ios": "https://dc.lft.to/lastmile_qr_scan", "android": "https://dc.lft.to/lastmile_qr_scan"}, "is_disabled": 0, "is_reserved": 0, "name": "f2c56650f375d9f9b6860133337b9f8a", "type": "electric_bike", "fusion_lat": 0.0}, {"bike_id": "66b67e89ca9c58013d60a667bc349cd3", "lon": -76.97207533333334, "lat": 38.947823166666666, "fusion_lon": 0.0, "rental_uris": {"ios": "https://dc.lft.to/lastmile_qr_scan", "android": "https://dc.lft.to/lastmile_qr_scan"}, "is_disabled": 0, "is_reserved": 0, "name": "66b67e89ca9c58013d60a667bc349cd3", "type": "electric_bike", "fusion_lat": 0.0}, {"bike_id": "04f48ee689d47c2694b75a33975a2af3", "lon": -76.95598366666667, "lat": 38.8875985, "fusion_lon": 0.0, "rental_uris": {"ios": "https://dc.lft.to/lastmile_qr_scan", "android": "https://dc.lft.to/lastmile_qr_scan"}, "is_disabled": 0, "is_reserved": 0, "name": "04f48ee689d47c2694b75a33975a2af3", "type": "electric_scooter", "fusion_lat": 0.0}, {"bike_id": "f293a989c06e7328ff694cfd02cc7b69", "lon": -77.0400985, "lat": 38.9077245, "fusion_lon": 0.0, "rental_uris": {"ios": "https://dc.lft.to/lastmile_qr_scan", "android": "https://dc.lft.to/lastmile_qr_scan"}, "is_disabled": 0, "is_reserved": 0, "name": "f293a989c06e7328ff694cfd02cc7b69", "type": "electric_scooter", "fusion_lat": 0.0}, {"bike_id": "3b8d9e93543d4c502873e25ea77b1a66", "lon": -77.03476116666667, "lat": 38.929140833333335, "fusion_lon": 0.0, "rental_uris": {"ios": "https://dc.lft.to/lastmile_qr_scan", "android": "https://dc.lft.to/lastmile_qr_scan"}, "is_disabled": 0, "is_reserved": 0, "name": "3b8d9e93543d4c502873e25ea77b1a66", "type": "electric_scooter", "fusion_lat": 0.0}, {"bike_id": "9fcf3a6ea92cfdd0292741add1f013fc", "lon": -77.03262966666667, "lat": 38.92909783333333, "fusion_lon": 0.0, "rental_uris": {"ios": "https://dc.lft.to/lastmile_qr_scan", "android": "https://dc.lft.to/lastmile_qr_scan"}, "is_disabled": 0, "is_reserved": 0, "name": "9fcf3a6ea92cfdd0292741add1f013fc", "type": "electric_scooter", "fusion_lat": 0.0}, {"bike_id": "81038a4cf2b1e59d70d7331f180bfa42", "lon": -77.02139233333334, "lat": 38.89298566666667, "fusion_lon": 0.0, "rental_uris": {"ios": "https://dc.lft.to/lastmile_qr_scan", "android": "https://dc.lft.to/lastmile_qr_scan"}, "is_disabled": 0, "is_reserved": 0, "name": "81038a4cf2b1e59d70d7331f180bfa42", "type": "electric_scooter", "fusion_lat": 0.0}, {"bike_id": "118d143795b66095108df45dcee4d12c", "lon": -76.92575783333334, "lat": 38.89779983333333, "fusion_lon": 0.0, "rental_uris": {"ios": "https://dc.lft.to/lastmile_qr_scan", "android": "https://dc.lft.to/lastmile_qr_scan"}, "is_disabled": 0, "is_reserved": 0, "name": "118d143795b66095108df45dcee4d12c", "type": "electric_scooter", "fusion_lat": 0.0}, {"bike_id": "2734a53e871647a97d63ec6d711c2252", "lon": -77.03993383333334, "lat": 38.924619, "fusion_lon": 0.0, "rental_uris": {"ios": "https://dc.lft.to/lastmile_qr_scan", "android": "https://dc.lft.to/lastmile_qr_scan"}, "is_disabled": 0, "is_reserved": 0, "name": "2734a53e871647a97d63ec6d711c2252", "type": "electric_scooter", "fusion_lat": 0.0}, {"bike_id": "26d6831da4d909e06ba6cc6398cdd260", "lon": -77.00335566666666, "lat": 38.893504, "fusion_lon": 0.0, "rental_uris": {"ios": "https://dc.lft.to/lastmile_qr_scan", "android": "https://dc.lft.to/lastmile_qr_scan"}, "is_disabled": 0, "is_reserved": 0, "name": "26d6831da4d909e06ba6cc6398cdd260", "type": "electric_scooter", "fusion_lat": 0.0}, {"bike_id": "8b349ac22f38483ea86fd80c0106d770", "lon": -77.03471316666666, "lat": 38.91694666666667, "fusion_lon": 0.0, "rental_uris": {"ios": "https://dc.lft.to/lastmile_qr_scan", "android": "https://dc.lft.to/lastmile_qr_scan"}, "is_disabled": 0, "is_reserved": 0, "name": "8b349ac22f38483ea86fd80c0106d770", "type": "electric_scooter", "fusion_lat": 0.0}, {"bike_id": "0ccf2482e38acaf6e8dd68216e32f1a2", "lon": -77.03171883333333, "lat": 38.89375666666667, "fusion_lon": 0.0, "rental_uris": {"ios": "https://dc.lft.to/lastmile_qr_scan", "android": "https://dc.lft.to/lastmile_qr_scan"}, "is_disabled": 0, "is_reserved": 0, "name": "0ccf2482e38acaf6e8dd68216e32f1a2", "type": "electric_scooter", "fusion_lat": 0.0}, {"bike_id": "28890e2515760fac9bf1983b41aa7501", "lon": -77.01946816666667, "lat": 38.92421983333333, "fusion_lon": 0.0, "rental_uris": {"ios": "https://dc.lft.to/lastmile_qr_scan", "android": "https://dc.lft.to/lastmile_qr_scan"}, "is_disabled": 0, "is_reserved": 0, "name": "28890e2515760fac9bf1983b41aa7501", "type": "electric_scooter", "fusion_lat": 0.0}, {"bike_id": "fb996cf67a613ae6046ada689e09cf56", "lon": -76.98424716666666, "lat": 38.8605765, "fusion_lon": 0.0, "rental_uris": {"ios": "https://dc.lft.to/lastmile_qr_scan", "android": "https://dc.lft.to/lastmile_qr_scan"}, "is_disabled": 0, "is_reserved": 0, "name": "fb996cf67a613ae6046ada689e09cf56", "type": "electric_scooter", "fusion_lat": 0.0}, {"bike_id": "33de8456bf0ff05d9cdfee9144a8fcd6", "lon": -76.9901905, "lat": 38.86513633333333, "fusion_lon": 0.0, "rental_uris": {"ios": "https://dc.lft.to/lastmile_qr_scan", "android": "https://dc.lft.to/lastmile_qr_scan"}, "is_disabled": 0, "is_reserved": 0, "name": "33de8456bf0ff05d9cdfee9144a8fcd6", "type": "electric_scooter", "fusion_lat": 0.0}, {"bike_id": "155b7600aa956c2df38d7695cc162d09", "lon": -77.0045565, "lat": 38.87640183333333, "fusion_lon": 0.0, "rental_uris": {"ios": "https://dc.lft.to/lastmile_qr_scan", "android": "https://dc.lft.to/lastmile_qr_scan"}, "is_disabled": 0, "is_reserved": 0, "name": "155b7600aa956c2df38d7695cc162d09", "type": "electric_scooter", "fusion_lat": 0.0}, {"bike_id": "7a52cdda10fb1e0d16532af05e521fc0", "lon": -77.12019533333333, "lat": 38.8578525, "fusion_lon": 0.0, "rental_uris": {"ios": "https://dc.lft.to/lastmile_qr_scan", "android": "https://dc.lft.to/lastmile_qr_scan"}, "is_disabled": 0, "is_reserved": 0, "name": "7a52cdda10fb1e0d16532af05e521fc0", "type": "electric_bike", "fusion_lat": 0.0}, {"bike_id": "a80d6b97491966c5363e23fd73339452", "lon": -77.0533235, "lat": 38.92696883333333, "fusion_lon": 0.0, "rental_uris": {"ios": "https://dc.lft.to/lastmile_qr_scan", "android": "https://dc.lft.to/lastmile_qr_scan"}, "is_disabled": 0, "is_reserved": 0, "name": "a80d6b97491966c5363e23fd73339452", "type": "electric_scooter", "fusion_lat": 0.0}, {"bike_id": "6e0e83874255f07d56845582a56a73bd", "lon": -77.04671366666666, "lat": 38.9064375, "fusion_lon": 0.0, "rental_uris": {"ios": "https://dc.lft.to/lastmile_qr_scan", "android": "https://dc.lft.to/lastmile_qr_scan"}, "is_disabled": 0, "is_reserved": 0, "name": "6e0e83874255f07d56845582a56a73bd", "type": "electric_scooter", "fusion_lat": 0.0}, {"bike_id": "ea95774781952f69eca8f5afcf543c75", "lon": -77.032929, "lat": 38.930456666666664, "fusion_lon": 0.0, "rental_uris": {"ios": "https://dc.lft.to/lastmile_qr_scan", "android": "https://dc.lft.to/lastmile_qr_scan"}, "is_disabled": 0, "is_reserved": 0, "name": "ea95774781952f69eca8f5afcf543c75", "type": "electric_scooter", "fusion_lat": 0.0}, {"bike_id": "a5738ec096cc6b76dbe11b588b789181", "lon": -77.04906816666667, "lat": 38.90089783333333, "fusion_lon": 0.0, "rental_uris": {"ios": "https://dc.lft.to/lastmile_qr_scan", "android": "https://dc.lft.to/lastmile_qr_scan"}, "is_disabled": 0, "is_reserved": 0, "name": "a5738ec096cc6b76dbe11b588b789181", "type": "electric_scooter", "fusion_lat": 0.0}, {"bike_id": "bf510b71ae0e4b8af1292e77dee2df0a", "lon": -77.0315375, "lat": 38.91120433333333, "fusion_lon": 0.0, "rental_uris": {"ios": "https://dc.lft.to/lastmile_qr_scan", "android": "https://dc.lft.to/lastmile_qr_scan"}, "is_disabled": 0, "is_reserved": 0, "name": "bf510b71ae0e4b8af1292e77dee2df0a", "type": "electric_scooter", "fusion_lat": 0.0}, {"bike_id": "5a0243449841e20dc5befd8ccd361486", "lon": -77.03959433333333, "lat": 38.90462616666667, "fusion_lon": 0.0, "rental_uris": {"ios": "https://dc.lft.to/lastmile_qr_scan", "android": "https://dc.lft.to/lastmile_qr_scan"}, "is_disabled": 0, "is_reserved": 0, "name": "5a0243449841e20dc5befd8ccd361486", "type": "electric_scooter", "fusion_lat": 0.0}, {"bike_id": "2a7db7ea7db6276e4df618c0f93e7dee", "lon": -77.02328233333333, "lat": 38.91677816666667, "fusion_lon": 0.0, "rental_uris": {"ios": "https://dc.lft.to/lastmile_qr_scan", "android": "https://dc.lft.to/lastmile_qr_scan"}, "is_disabled": 0, "is_reserved": 0, "name": "2a7db7ea7db6276e4df618c0f93e7dee", "type": "electric_scooter", "fusion_lat": 0.0}, {"bike_id": "d7d414a72b7f098a19d8d664cae22e10", "lon": -76.98093466666667, "lat": 38.9052405, "fusion_lon": 0.0, "rental_uris": {"ios": "https://dc.lft.to/lastmile_qr_scan", "android": "https://dc.lft.to/lastmile_qr_scan"}, "is_disabled": 0, "is_reserved": 0, "name": "d7d414a72b7f098a19d8d664cae22e10", "type": "electric_scooter", "fusion_lat": 0.0}, {"bike_id": "173cc7adf60079a7a8a78cfcd1853ec8", "lon": -76.98348983333334, "lat": 38.862615166666664, "fusion_lon": 0.0, "rental_uris": {"ios": "https://dc.lft.to/lastmile_qr_scan", "android": "https://dc.lft.to/lastmile_qr_scan"}, "is_disabled": 0, "is_reserved": 0, "name": "173cc7adf60079a7a8a78cfcd1853ec8", "type": "electric_bike", "fusion_lat": 0.0}, {"bike_id": "bcb92f27d241b75460e93bb4f56b42b1", "lon": -76.92962366666667, "lat": 38.89524266666667, "fusion_lon": 0.0, "rental_uris": {"ios": "https://dc.lft.to/lastmile_qr_scan", "android": "https://dc.lft.to/lastmile_qr_scan"}, "is_disabled": 0, "is_reserved": 0, "name": "bcb92f27d241b75460e93bb4f56b42b1", "type": "electric_scooter", "fusion_lat": 0.0}, {"bike_id": "e4e8b33ccf11344619bfe58bef45a325", "lon": -77.0031305, "lat": 38.87659883333333, "fusion_lon": 0.0, "rental_uris": {"ios": "https://dc.lft.to/lastmile_qr_scan", "android": "https://dc.lft.to/lastmile_qr_scan"}, "is_disabled": 0, "is_reserved": 0, "name": "e4e8b33ccf11344619bfe58bef45a325", "type": "electric_scooter", "fusion_lat": 0.0}, {"bike_id": "dd57828042d21ae529db2a532815fb96", "lon": -77.032106, "lat": 38.892397, "fusion_lon": 0.0, "rental_uris": {"ios": "https://dc.lft.to/lastmile_qr_scan", "android": "https://dc.lft.to/lastmile_qr_scan"}, "is_disabled": 0, "is_reserved": 0, "name": "dd57828042d21ae529db2a532815fb96", "type": "electric_scooter", "fusion_lat": 0.0}, {"bike_id": "5163542141d4f9c8d61695a42a893d44", "lon": -77.04125083333334, "lat": 38.9162835, "fusion_lon": 0.0, "rental_uris": {"ios": "https://dc.lft.to/lastmile_qr_scan", "android": "https://dc.lft.to/lastmile_qr_scan"}, "is_disabled": 0, "is_reserved": 0, "name": "5163542141d4f9c8d61695a42a893d44", "type": "electric_scooter", "fusion_lat": 0.0}, {"bike_id": "3ddc13354aaf719f25adcb41fc8e7463", "lon": -76.98082233333334, "lat": 38.870067666666664, "fusion_lon": 0.0, "rental_uris": {"ios": "https://dc.lft.to/lastmile_qr_scan", "android": "https://dc.lft.to/lastmile_qr_scan"}, "is_disabled": 0, "is_reserved": 0, "name": "3ddc13354aaf719f25adcb41fc8e7463", "type": "electric_scooter", "fusion_lat": 0.0}, {"bike_id": "18fccc2266139f97a385f1f02ef7397a", "lon": -77.03175033333333, "lat": 38.924811, "fusion_lon": 0.0, "rental_uris": {"ios": "https://dc.lft.to/lastmile_qr_scan", "android": "https://dc.lft.to/lastmile_qr_scan"}, "is_disabled": 0, "is_reserved": 0, "name": "18fccc2266139f97a385f1f02ef7397a", "type": "electric_scooter", "fusion_lat": 0.0}, {"bike_id": "36ff443b380ba65f460283476c7358a4", "lon": -77.03149933333333, "lat": 38.91416733333333, "fusion_lon": 0.0, "rental_uris": {"ios": "https://dc.lft.to/lastmile_qr_scan", "android": "https://dc.lft.to/lastmile_qr_scan"}, "is_disabled": 0, "is_reserved": 0, "name": "36ff443b380ba65f460283476c7358a4", "type": "electric_scooter", "fusion_lat": 0.0}, {"bike_id": "bcab376e8bfc04ab8c23dd03e2473492", "lon": -77.01294483333334, "lat": 38.91264833333334, "fusion_lon": 0.0, "rental_uris": {"ios": "https://dc.lft.to/lastmile_qr_scan", "android": "https://dc.lft.to/lastmile_qr_scan"}, "is_disabled": 0, "is_reserved": 0, "name": "bcab376e8bfc04ab8c23dd03e2473492", "type": "electric_scooter", "fusion_lat": 0.0}, {"bike_id": "52cfecc6c7e63456d78745c96b6bafe3", "lon": -77.01855533333334, "lat": 38.9736945, "fusion_lon": 0.0, "rental_uris": {"ios": "https://dc.lft.to/lastmile_qr_scan", "android": "https://dc.lft.to/lastmile_qr_scan"}, "is_disabled": 0, "is_reserved": 0, "name": "52cfecc6c7e63456d78745c96b6bafe3", "type": "electric_scooter", "fusion_lat": 0.0}, {"bike_id": "c1e7bda644913e59a752775d061c4888", "lon": -77.03356233333334, "lat": 38.94513716666667, "fusion_lon": 0.0, "rental_uris": {"ios": "https://dc.lft.to/lastmile_qr_scan", "android": "https://dc.lft.to/lastmile_qr_scan"}, "is_disabled": 0, "is_reserved": 0, "name": "c1e7bda644913e59a752775d061c4888", "type": "electric_scooter", "fusion_lat": 0.0}, {"bike_id": "93d49d975d43e32550e996a846553ee8", "lon": -76.93342733333333, "lat": 38.8881405, "fusion_lon": 0.0, "rental_uris": {"ios": "https://dc.lft.to/lastmile_qr_scan", "android": "https://dc.lft.to/lastmile_qr_scan"}, "is_disabled": 0, "is_reserved": 0, "name": "93d49d975d43e32550e996a846553ee8", "type": "electric_scooter", "fusion_lat": 0.0}, {"bike_id": "6d6fe5d299955d2c84c1010a5203e113", "lon": -77.0419425, "lat": 38.92046083333334, "fusion_lon": 0.0, "rental_uris": {"ios": "https://dc.lft.to/lastmile_qr_scan", "android": "https://dc.lft.to/lastmile_qr_scan"}, "is_disabled": 0, "is_reserved": 0, "name": "6d6fe5d299955d2c84c1010a5203e113", "type": "electric_scooter", "fusion_lat": 0.0}, {"bike_id": "655dc96627dfe5ab270dd63ab6c6dc02", "lon": -77.0318495, "lat": 38.9179655, "fusion_lon": 0.0, "rental_uris": {"ios": "https://dc.lft.to/lastmile_qr_scan", "android": "https://dc.lft.to/lastmile_qr_scan"}, "is_disabled": 0, "is_reserved": 0, "name": "655dc96627dfe5ab270dd63ab6c6dc02", "type": "electric_scooter", "fusion_lat": 0.0}, {"bike_id": "1430900d4253ddb7276ae2c879667089", "lon": -77.01523833333333, "lat": 38.88490733333333, "fusion_lon": 0.0, "rental_uris": {"ios": "https://dc.lft.to/lastmile_qr_scan", "android": "https://dc.lft.to/lastmile_qr_scan"}, "is_disabled": 0, "is_reserved": 0, "name": "1430900d4253ddb7276ae2c879667089", "type": "electric_scooter", "fusion_lat": 0.0}, {"bike_id": "1a163f052b9649331924880682e7f842", "lon": -77.004259, "lat": 38.92085983333333, "fusion_lon": 0.0, "rental_uris": {"ios": "https://dc.lft.to/lastmile_qr_scan", "android": "https://dc.lft.to/lastmile_qr_scan"}, "is_disabled": 0, "is_reserved": 0, "name": "1a163f052b9649331924880682e7f842", "type": "electric_scooter", "fusion_lat": 0.0}, {"bike_id": "75d88a43ce498a9b47395eef63eeaa2f", "lon": -76.987991, "lat": 38.92205233333333, "fusion_lon": 0.0, "rental_uris": {"ios": "https://dc.lft.to/lastmile_qr_scan", "android": "https://dc.lft.to/lastmile_qr_scan"}, "is_disabled": 0, "is_reserved": 0, "name": "75d88a43ce498a9b47395eef63eeaa2f", "type": "electric_bike", "fusion_lat": 0.0}, {"bike_id": "eab9488f8b553d559a06e22fd3d3ba57", "lon": -77.03236733333334, "lat": 38.9216215, "fusion_lon": 0.0, "rental_uris": {"ios": "https://dc.lft.to/lastmile_qr_scan", "android": "https://dc.lft.to/lastmile_qr_scan"}, "is_disabled": 0, "is_reserved": 0, "name": "eab9488f8b553d559a06e22fd3d3ba57", "type": "electric_scooter", "fusion_lat": 0.0}, {"bike_id": "1116e09eb82eb678bcb708ed56c71770", "lon": -77.022051, "lat": 38.92064833333333, "fusion_lon": 0.0, "rental_uris": {"ios": "https://dc.lft.to/lastmile_qr_scan", "android": "https://dc.lft.to/lastmile_qr_scan"}, "is_disabled": 0, "is_reserved": 0, "name": "1116e09eb82eb678bcb708ed56c71770", "type": "electric_scooter", "fusion_lat": 0.0}, {"bike_id": "4e86f7e145de5f44d7d626179cf5176f", "lon": -77.09591183333333, "lat": 38.86092816666667, "fusion_lon": 0.0, "rental_uris": {"ios": "https://dc.lft.to/lastmile_qr_scan", "android": "https://dc.lft.to/lastmile_qr_scan"}, "is_disabled": 0, "is_reserved": 0, "name": "4e86f7e145de5f44d7d626179cf5176f", "type": "electric_bike", "fusion_lat": 0.0}, {"bike_id": "9d2a914343e1e01cf61f177f4484e9d8", "lon": -77.02208233333333, "lat": 38.92468233333334, "fusion_lon": 0.0, "rental_uris": {"ios": "https://dc.lft.to/lastmile_qr_scan", "android": "https://dc.lft.to/lastmile_qr_scan"}, "is_disabled": 0, "is_reserved": 0, "name": "9d2a914343e1e01cf61f177f4484e9d8", "type": "electric_scooter", "fusion_lat": 0.0}, {"bike_id": "1e4ffe79ae4307a954d094c35b89dd10", "lon": -77.0252275, "lat": 38.91683783333333, "fusion_lon": 0.0, "rental_uris": {"ios": "https://dc.lft.to/lastmile_qr_scan", "android": "https://dc.lft.to/lastmile_qr_scan"}, "is_disabled": 0, "is_reserved": 0, "name": "1e4ffe79ae4307a954d094c35b89dd10", "type": "electric_scooter", "fusion_lat": 0.0}, {"bike_id": "64c4471212e8b3341d3908d70a93535a", "lon": -77.03462266666666, "lat": 38.9024895, "fusion_lon": 0.0, "rental_uris": {"ios": "https://dc.lft.to/lastmile_qr_scan", "android": "https://dc.lft.to/lastmile_qr_scan"}, "is_disabled": 0, "is_reserved": 0, "name": "64c4471212e8b3341d3908d70a93535a", "type": "electric_scooter", "fusion_lat": 0.0}, {"bike_id": "f5a62743ba06cda1a581f04c9e76c169", "lon": -77.02303783333333, "lat": 38.91596716666667, "fusion_lon": 0.0, "rental_uris": {"ios": "https://dc.lft.to/lastmile_qr_scan", "android": "https://dc.lft.to/lastmile_qr_scan"}, "is_disabled": 0, "is_reserved": 0, "name": "f5a62743ba06cda1a581f04c9e76c169", "type": "electric_scooter", "fusion_lat": 0.0}, {"bike_id": "3818abca638e77e25af26499a5fdd1b3", "lon": -77.0468805, "lat": 38.9006285, "fusion_lon": 0.0, "rental_uris": {"ios": "https://dc.lft.to/lastmile_qr_scan", "android": "https://dc.lft.to/lastmile_qr_scan"}, "is_disabled": 0, "is_reserved": 0, "name": "3818abca638e77e25af26499a5fdd1b3", "type": "electric_scooter", "fusion_lat": 0.0}, {"bike_id": "178250d2cab7df381cd46f41f407953f", "lon": -76.98741866666667, "lat": 38.91899083333333, "fusion_lon": 0.0, "rental_uris": {"ios": "https://dc.lft.to/lastmile_qr_scan", "android": "https://dc.lft.to/lastmile_qr_scan"}, "is_disabled": 0, "is_reserved": 0, "name": "178250d2cab7df381cd46f41f407953f", "type": "electric_scooter", "fusion_lat": 0.0}, {"bike_id": "8ea2f0be8e0067294287ec398c070dc6", "lon": -77.0273695, "lat": 38.95207283333333, "fusion_lon": 0.0, "rental_uris": {"ios": "https://dc.lft.to/lastmile_qr_scan", "android": "https://dc.lft.to/lastmile_qr_scan"}, "is_disabled": 0, "is_reserved": 0, "name": "8ea2f0be8e0067294287ec398c070dc6", "type": "electric_scooter", "fusion_lat": 0.0}, {"bike_id": "1c43005d712dffc9a8baf5aa2ab9f95f", "lon": -77.071644, "lat": 38.90785016666667, "fusion_lon": 0.0, "rental_uris": {"ios": "https://dc.lft.to/lastmile_qr_scan", "android": "https://dc.lft.to/lastmile_qr_scan"}, "is_disabled": 0, "is_reserved": 0, "name": "1c43005d712dffc9a8baf5aa2ab9f95f", "type": "electric_bike", "fusion_lat": 0.0}, {"bike_id": "eefa45a4bbc417e2fedb4b57fcda7f17", "lon": -77.0239675, "lat": 38.917526333333335, "fusion_lon": 0.0, "rental_uris": {"ios": "https://dc.lft.to/lastmile_qr_scan", "android": "https://dc.lft.to/lastmile_qr_scan"}, "is_disabled": 0, "is_reserved": 0, "name": "eefa45a4bbc417e2fedb4b57fcda7f17", "type": "electric_scooter", "fusion_lat": 0.0}, {"bike_id": "a5d5cc73046ee56109d8e55c4be893ce", "lon": -77.02367983333333, "lat": 38.89223916666667, "fusion_lon": 0.0, "rental_uris": {"ios": "https://dc.lft.to/lastmile_qr_scan", "android": "https://dc.lft.to/lastmile_qr_scan"}, "is_disabled": 0, "is_reserved": 0, "name": "a5d5cc73046ee56109d8e55c4be893ce", "type": "electric_scooter", "fusion_lat": 0.0}, {"bike_id": "4b05e7f7e1fb7a23d46f4522545eecb3", "lon": -76.93160516666667, "lat": 38.90822216666667, "fusion_lon": 0.0, "rental_uris": {"ios": "https://dc.lft.to/lastmile_qr_scan", "android": "https://dc.lft.to/lastmile_qr_scan"}, "is_disabled": 0, "is_reserved": 0, "name": "4b05e7f7e1fb7a23d46f4522545eecb3", "type": "electric_scooter", "fusion_lat": 0.0}, {"bike_id": "59b95e6d14684c8f3b6c4cad5ca6c692", "lon": -77.02671633333334, "lat": 38.996001666666665, "fusion_lon": 0.0, "rental_uris": {"ios": "https://dc.lft.to/lastmile_qr_scan", "android": "https://dc.lft.to/lastmile_qr_scan"}, "is_disabled": 0, "is_reserved": 0, "name": "59b95e6d14684c8f3b6c4cad5ca6c692", "type": "electric_bike", "fusion_lat": 0.0}, {"bike_id": "39422854f4d928928dea207ca63638b7", "lon": -76.9782925, "lat": 38.9077345, "fusion_lon": 0.0, "rental_uris": {"ios": "https://dc.lft.to/lastmile_qr_scan", "android": "https://dc.lft.to/lastmile_qr_scan"}, "is_disabled": 0, "is_reserved": 0, "name": "39422854f4d928928dea207ca63638b7", "type": "electric_scooter", "fusion_lat": 0.0}, {"bike_id": "6d67e0bd0dd5483cbbcb96fb3ad39af3", "lon": -77.02311233333333, "lat": 38.909282166666664, "fusion_lon": 0.0, "rental_uris": {"ios": "https://dc.lft.to/lastmile_qr_scan", "android": "https://dc.lft.to/lastmile_qr_scan"}, "is_disabled": 0, "is_reserved": 0, "name": "6d67e0bd0dd5483cbbcb96fb3ad39af3", "type": "electric_scooter", "fusion_lat": 0.0}, {"bike_id": "6108ec56d85636456e436206288048bf", "lon": -77.03305466666667, "lat": 38.90135883333333, "fusion_lon": 0.0, "rental_uris": {"ios": "https://dc.lft.to/lastmile_qr_scan", "android": "https://dc.lft.to/lastmile_qr_scan"}, "is_disabled": 0, "is_reserved": 0, "name": "6108ec56d85636456e436206288048bf", "type": "electric_scooter", "fusion_lat": 0.0}, {"bike_id": "5787f5a405a8f92c15e483c33d0761da", "lon": -77.03371066666666, "lat": 38.902160333333335, "fusion_lon": 0.0, "rental_uris": {"ios": "https://dc.lft.to/lastmile_qr_scan", "android": "https://dc.lft.to/lastmile_qr_scan"}, "is_disabled": 0, "is_reserved": 0, "name": "5787f5a405a8f92c15e483c33d0761da", "type": "electric_scooter", "fusion_lat": 0.0}, {"bike_id": "e368de1841cdd8d7c22dbac832319e70", "lon": -77.023008, "lat": 38.9251885, "fusion_lon": 0.0, "rental_uris": {"ios": "https://dc.lft.to/lastmile_qr_scan", "android": "https://dc.lft.to/lastmile_qr_scan"}, "is_disabled": 0, "is_reserved": 0, "name": "e368de1841cdd8d7c22dbac832319e70", "type": "electric_scooter", "fusion_lat": 0.0}, {"bike_id": "46368e5a2b93177c051b763974113ff7", "lon": -77.028411, "lat": 38.88742366666666, "fusion_lon": 0.0, "rental_uris": {"ios": "https://dc.lft.to/lastmile_qr_scan", "android": "https://dc.lft.to/lastmile_qr_scan"}, "is_disabled": 0, "is_reserved": 0, "name": "46368e5a2b93177c051b763974113ff7", "type": "electric_scooter", "fusion_lat": 0.0}, {"bike_id": "5b15526a8d53071c7dadc022a2870626", "lon": -77.0210995, "lat": 38.926948833333334, "fusion_lon": 0.0, "rental_uris": {"ios": "https://dc.lft.to/lastmile_qr_scan", "android": "https://dc.lft.to/lastmile_qr_scan"}, "is_disabled": 0, "is_reserved": 0, "name": "5b15526a8d53071c7dadc022a2870626", "type": "electric_scooter", "fusion_lat": 0.0}, {"bike_id": "b37c0bf0024a140ee0fcc2fedf826a21", "lon": -77.04505166666667, "lat": 38.92235766666667, "fusion_lon": 0.0, "rental_uris": {"ios": "https://dc.lft.to/lastmile_qr_scan", "android": "https://dc.lft.to/lastmile_qr_scan"}, "is_disabled": 0, "is_reserved": 0, "name": "b37c0bf0024a140ee0fcc2fedf826a21", "type": "electric_scooter", "fusion_lat": 0.0}, {"bike_id": "8f03c71f54ddb7390fc202e8b289d7a7", "lon": -77.05256233333333, "lat": 38.92509583333333, "fusion_lon": 0.0, "rental_uris": {"ios": "https://dc.lft.to/lastmile_qr_scan", "android": "https://dc.lft.to/lastmile_qr_scan"}, "is_disabled": 0, "is_reserved": 0, "name": "8f03c71f54ddb7390fc202e8b289d7a7", "type": "electric_scooter", "fusion_lat": 0.0}, {"bike_id": "791ed16bd22104e6ad454d639a73f673", "lon": -77.04787166666667, "lat": 38.893697333333336, "fusion_lon": 0.0, "rental_uris": {"ios": "https://dc.lft.to/lastmile_qr_scan", "android": "https://dc.lft.to/lastmile_qr_scan"}, "is_disabled": 0, "is_reserved": 0, "name": "791ed16bd22104e6ad454d639a73f673", "type": "electric_scooter", "fusion_lat": 0.0}, {"bike_id": "232e908bf7ee0c68631a34bfaf3e2500", "lon": -77.03145866666667, "lat": 38.92015983333334, "fusion_lon": 0.0, "rental_uris": {"ios": "https://dc.lft.to/lastmile_qr_scan", "android": "https://dc.lft.to/lastmile_qr_scan"}, "is_disabled": 0, "is_reserved": 0, "name": "232e908bf7ee0c68631a34bfaf3e2500", "type": "electric_scooter", "fusion_lat": 0.0}, {"bike_id": "b790a00c3d4f44f1f08b5668b0ae4fda", "lon": -76.98434516666667, "lat": 38.93108483333334, "fusion_lon": 0.0, "rental_uris": {"ios": "https://dc.lft.to/lastmile_qr_scan", "android": "https://dc.lft.to/lastmile_qr_scan"}, "is_disabled": 0, "is_reserved": 0, "name": "b790a00c3d4f44f1f08b5668b0ae4fda", "type": "electric_scooter", "fusion_lat": 0.0}, {"bike_id": "ae9d8ca0e59a28f963045fd05c093bae", "lon": -77.00712583333333, "lat": 38.88487833333333, "fusion_lon": 0.0, "rental_uris": {"ios": "https://dc.lft.to/lastmile_qr_scan", "android": "https://dc.lft.to/lastmile_qr_scan"}, "is_disabled": 0, "is_reserved": 0, "name": "ae9d8ca0e59a28f963045fd05c093bae", "type": "electric_scooter", "fusion_lat": 0.0}, {"bike_id": "b685bac6d36a00e02c1a1278174d604f", "lon": -77.0111625, "lat": 38.963032166666665, "fusion_lon": 0.0, "rental_uris": {"ios": "https://dc.lft.to/lastmile_qr_scan", "android": "https://dc.lft.to/lastmile_qr_scan"}, "is_disabled": 0, "is_reserved": 0, "name": "b685bac6d36a00e02c1a1278174d604f", "type": "electric_bike", "fusion_lat": 0.0}, {"bike_id": "df54017b4e602f01a8c0cf2affa2779a", "lon": -77.02036083333333, "lat": 38.912924333333336, "fusion_lon": 0.0, "rental_uris": {"ios": "https://dc.lft.to/lastmile_qr_scan", "android": "https://dc.lft.to/lastmile_qr_scan"}, "is_disabled": 0, "is_reserved": 0, "name": "df54017b4e602f01a8c0cf2affa2779a", "type": "electric_scooter", "fusion_lat": 0.0}, {"bike_id": "12d25acd9246be026db977c14fd3f320", "lon": -77.089584, "lat": 38.91815166666667, "fusion_lon": 0.0, "rental_uris": {"ios": "https://dc.lft.to/lastmile_qr_scan", "android": "https://dc.lft.to/lastmile_qr_scan"}, "is_disabled": 0, "is_reserved": 0, "name": "12d25acd9246be026db977c14fd3f320", "type": "electric_scooter", "fusion_lat": 0.0}, {"bike_id": "c917f7204fbd2f3ae4a2eb7c9b8edd32", "lon": -77.031862, "lat": 38.914715, "fusion_lon": 0.0, "rental_uris": {"ios": "https://dc.lft.to/lastmile_qr_scan", "android": "https://dc.lft.to/lastmile_qr_scan"}, "is_disabled": 0, "is_reserved": 0, "name": "c917f7204fbd2f3ae4a2eb7c9b8edd32", "type": "electric_scooter", "fusion_lat": 0.0}, {"bike_id": "5c4f41c2dee5931c90a82598cbd2ea1d", "lon": -77.0417935, "lat": 38.91890316666667, "fusion_lon": 0.0, "rental_uris": {"ios": "https://dc.lft.to/lastmile_qr_scan", "android": "https://dc.lft.to/lastmile_qr_scan"}, "is_disabled": 0, "is_reserved": 0, "name": "5c4f41c2dee5931c90a82598cbd2ea1d", "type": "electric_scooter", "fusion_lat": 0.0}, {"bike_id": "c7a6a8bda2d185a9bd63c6dceb2a48ac", "lon": -76.97358966666667, "lat": 38.963257666666664, "fusion_lon": 0.0, "rental_uris": {"ios": "https://dc.lft.to/lastmile_qr_scan", "android": "https://dc.lft.to/lastmile_qr_scan"}, "is_disabled": 0, "is_reserved": 0, "name": "c7a6a8bda2d185a9bd63c6dceb2a48ac", "type": "electric_bike", "fusion_lat": 0.0}, {"bike_id": "168d7716bc688c0bebe3649a953a16a7", "lon": -77.04178366666666, "lat": 38.904789666666666, "fusion_lon": 0.0, "rental_uris": {"ios": "https://dc.lft.to/lastmile_qr_scan", "android": "https://dc.lft.to/lastmile_qr_scan"}, "is_disabled": 0, "is_reserved": 0, "name": "168d7716bc688c0bebe3649a953a16a7", "type": "electric_scooter", "fusion_lat": 0.0}, {"bike_id": "af7ec114110b103412bab2afb326dc25", "lon": -77.04483816666666, "lat": 38.91868816666667, "fusion_lon": 0.0, "rental_uris": {"ios": "https://dc.lft.to/lastmile_qr_scan", "android": "https://dc.lft.to/lastmile_qr_scan"}, "is_disabled": 0, "is_reserved": 0, "name": "af7ec114110b103412bab2afb326dc25", "type": "electric_scooter", "fusion_lat": 0.0}, {"bike_id": "887e03f564edaaa117accd2af21a4306", "lon": -77.0415795, "lat": 38.919602833333336, "fusion_lon": 0.0, "rental_uris": {"ios": "https://dc.lft.to/lastmile_qr_scan", "android": "https://dc.lft.to/lastmile_qr_scan"}, "is_disabled": 0, "is_reserved": 0, "name": "887e03f564edaaa117accd2af21a4306", "type": "electric_scooter", "fusion_lat": 0.0}, {"bike_id": "0bd41ef61a097941029f3c56a6ffbc62", "lon": -77.03790883333333, "lat": 38.93609416666666, "fusion_lon": 0.0, "rental_uris": {"ios": "https://dc.lft.to/lastmile_qr_scan", "android": "https://dc.lft.to/lastmile_qr_scan"}, "is_disabled": 0, "is_reserved": 0, "name": "0bd41ef61a097941029f3c56a6ffbc62", "type": "electric_scooter", "fusion_lat": 0.0}, {"bike_id": "cddfc1c161ca55a48a36ad6af3d47aac", "lon": -76.98090283333333, "lat": 38.953544666666666, "fusion_lon": 0.0, "rental_uris": {"ios": "https://dc.lft.to/lastmile_qr_scan", "android": "https://dc.lft.to/lastmile_qr_scan"}, "is_disabled": 0, "is_reserved": 0, "name": "cddfc1c161ca55a48a36ad6af3d47aac", "type": "electric_bike", "fusion_lat": 0.0}, {"bike_id": "e7b4600ad944583719f81322293c93bd", "lon": -77.07018466666666, "lat": 38.9050975, "fusion_lon": 0.0, "rental_uris": {"ios": "https://dc.lft.to/lastmile_qr_scan", "android": "https://dc.lft.to/lastmile_qr_scan"}, "is_disabled": 0, "is_reserved": 0, "name": "e7b4600ad944583719f81322293c93bd", "type": "electric_scooter", "fusion_lat": 0.0}, {"bike_id": "80348606cf690627c40298641e675d8a", "lon": -77.01221066666666, "lat": 38.93038983333334, "fusion_lon": 0.0, "rental_uris": {"ios": "https://dc.lft.to/lastmile_qr_scan", "android": "https://dc.lft.to/lastmile_qr_scan"}, "is_disabled": 0, "is_reserved": 0, "name": "80348606cf690627c40298641e675d8a", "type": "electric_scooter", "fusion_lat": 0.0}, {"bike_id": "4fd9319ca339a931ea0af080188810b7", "lon": -77.03500066666666, "lat": 38.9187025, "fusion_lon": 0.0, "rental_uris": {"ios": "https://dc.lft.to/lastmile_qr_scan", "android": "https://dc.lft.to/lastmile_qr_scan"}, "is_disabled": 0, "is_reserved": 0, "name": "4fd9319ca339a931ea0af080188810b7", "type": "electric_scooter", "fusion_lat": 0.0}, {"bike_id": "c342c7a1418c3d0ae7507d391e89241c", "lon": -77.04062883333333, "lat": 38.92395766666667, "fusion_lon": 0.0, "rental_uris": {"ios": "https://dc.lft.to/lastmile_qr_scan", "android": "https://dc.lft.to/lastmile_qr_scan"}, "is_disabled": 0, "is_reserved": 0, "name": "c342c7a1418c3d0ae7507d391e89241c", "type": "electric_scooter", "fusion_lat": 0.0}, {"bike_id": "3cdad18d52f18f79ec14836c8fc26a03", "lon": -77.04006116666666, "lat": 38.903393666666666, "fusion_lon": 0.0, "rental_uris": {"ios": "https://dc.lft.to/lastmile_qr_scan", "android": "https://dc.lft.to/lastmile_qr_scan"}, "is_disabled": 0, "is_reserved": 0, "name": "3cdad18d52f18f79ec14836c8fc26a03", "type": "electric_scooter", "fusion_lat": 0.0}, {"bike_id": "ada0f15581869b2c5ad71d014d6fe9ce", "lon": -77.04381833333333, "lat": 38.91662383333333, "fusion_lon": 0.0, "rental_uris": {"ios": "https://dc.lft.to/lastmile_qr_scan", "android": "https://dc.lft.to/lastmile_qr_scan"}, "is_disabled": 0, "is_reserved": 0, "name": "ada0f15581869b2c5ad71d014d6fe9ce", "type": "electric_scooter", "fusion_lat": 0.0}, {"bike_id": "84799301fd9c54a5b701710b0b3f36a6", "lon": -77.033187, "lat": 38.91692183333333, "fusion_lon": 0.0, "rental_uris": {"ios": "https://dc.lft.to/lastmile_qr_scan", "android": "https://dc.lft.to/lastmile_qr_scan"}, "is_disabled": 0, "is_reserved": 0, "name": "84799301fd9c54a5b701710b0b3f36a6", "type": "electric_scooter", "fusion_lat": 0.0}, {"bike_id": "57f47077677eb9efb1a601ca94bbcf1c", "lon": -77.0432735, "lat": 38.904447, "fusion_lon": 0.0, "rental_uris": {"ios": "https://dc.lft.to/lastmile_qr_scan", "android": "https://dc.lft.to/lastmile_qr_scan"}, "is_disabled": 0, "is_reserved": 0, "name": "57f47077677eb9efb1a601ca94bbcf1c", "type": "electric_scooter", "fusion_lat": 0.0}, {"bike_id": "6ae24734490b77ff9445dbb7f3268bb1", "lon": -77.02384683333334, "lat": 38.9095375, "fusion_lon": 0.0, "rental_uris": {"ios": "https://dc.lft.to/lastmile_qr_scan", "android": "https://dc.lft.to/lastmile_qr_scan"}, "is_disabled": 0, "is_reserved": 0, "name": "6ae24734490b77ff9445dbb7f3268bb1", "type": "electric_scooter", "fusion_lat": 0.0}, {"bike_id": "3aa739dfb86b74fa35bbe3000a769017", "lon": -77.0449165, "lat": 38.910494, "fusion_lon": 0.0, "rental_uris": {"ios": "https://dc.lft.to/lastmile_qr_scan", "android": "https://dc.lft.to/lastmile_qr_scan"}, "is_disabled": 0, "is_reserved": 0, "name": "3aa739dfb86b74fa35bbe3000a769017", "type": "electric_scooter", "fusion_lat": 0.0}, {"bike_id": "bdc0602d469ce58119bc49583c24b95e", "lon": -77.04333316666667, "lat": 38.911153666666664, "fusion_lon": 0.0, "rental_uris": {"ios": "https://dc.lft.to/lastmile_qr_scan", "android": "https://dc.lft.to/lastmile_qr_scan"}, "is_disabled": 0, "is_reserved": 0, "name": "bdc0602d469ce58119bc49583c24b95e", "type": "electric_scooter", "fusion_lat": 0.0}, {"bike_id": "b7552f7bbdb7ab7e6a0fb81b42713ea1", "lon": -77.09450283333334, "lat": 38.80751816666667, "fusion_lon": 0.0, "rental_uris": {"ios": "https://dc.lft.to/lastmile_qr_scan", "android": "https://dc.lft.to/lastmile_qr_scan"}, "is_disabled": 0, "is_reserved": 0, "name": "b7552f7bbdb7ab7e6a0fb81b42713ea1", "type": "electric_bike", "fusion_lat": 0.0}, {"bike_id": "9cae85f3dbe29af39b0ad97e528a5752", "lon": -77.02688133333334, "lat": 38.896066166666664, "fusion_lon": 0.0, "rental_uris": {"ios": "https://dc.lft.to/lastmile_qr_scan", "android": "https://dc.lft.to/lastmile_qr_scan"}, "is_disabled": 0, "is_reserved": 0, "name": "9cae85f3dbe29af39b0ad97e528a5752", "type": "electric_scooter", "fusion_lat": 0.0}, {"bike_id": "05bae1c29abf794532c4c166f70ffb58", "lon": -77.05060966666667, "lat": 38.924133499999996, "fusion_lon": 0.0, "rental_uris": {"ios": "https://dc.lft.to/lastmile_qr_scan", "android": "https://dc.lft.to/lastmile_qr_scan"}, "is_disabled": 0, "is_reserved": 0, "name": "05bae1c29abf794532c4c166f70ffb58", "type": "electric_scooter", "fusion_lat": 0.0}, {"bike_id": "986e9e4333d6cf77e655508d88c27d50", "lon": -77.0212125, "lat": 38.922396666666664, "fusion_lon": 0.0, "rental_uris": {"ios": "https://dc.lft.to/lastmile_qr_scan", "android": "https://dc.lft.to/lastmile_qr_scan"}, "is_disabled": 0, "is_reserved": 0, "name": "986e9e4333d6cf77e655508d88c27d50", "type": "electric_scooter", "fusion_lat": 0.0}, {"bike_id": "adb3c0b2da3ab78cb6ecfe187b341185", "lon": -76.96522, "lat": 38.87477233333333, "fusion_lon": 0.0, "rental_uris": {"ios": "https://dc.lft.to/lastmile_qr_scan", "android": "https://dc.lft.to/lastmile_qr_scan"}, "is_disabled": 0, "is_reserved": 0, "name": "adb3c0b2da3ab78cb6ecfe187b341185", "type": "electric_bike", "fusion_lat": 0.0}, {"bike_id": "f9ce99cf74be3176445fbb599bb5de27", "lon": -77.00557816666667, "lat": 38.874683833333336, "fusion_lon": 0.0, "rental_uris": {"ios": "https://dc.lft.to/lastmile_qr_scan", "android": "https://dc.lft.to/lastmile_qr_scan"}, "is_disabled": 0, "is_reserved": 0, "name": "f9ce99cf74be3176445fbb599bb5de27", "type": "electric_scooter", "fusion_lat": 0.0}, {"bike_id": "ea717e843898661a39015ae59fd00223", "lon": -76.98815233333333, "lat": 38.900627166666666, "fusion_lon": 0.0, "rental_uris": {"ios": "https://dc.lft.to/lastmile_qr_scan", "android": "https://dc.lft.to/lastmile_qr_scan"}, "is_disabled": 0, "is_reserved": 0, "name": "ea717e843898661a39015ae59fd00223", "type": "electric_scooter", "fusion_lat": 0.0}, {"bike_id": "dd725fc680e6d35de1de72e7fd659839", "lon": -77.04910766666667, "lat": 38.91416616666667, "fusion_lon": 0.0, "rental_uris": {"ios": "https://dc.lft.to/lastmile_qr_scan", "android": "https://dc.lft.to/lastmile_qr_scan"}, "is_disabled": 0, "is_reserved": 0, "name": "dd725fc680e6d35de1de72e7fd659839", "type": "electric_scooter", "fusion_lat": 0.0}, {"bike_id": "b775db79fcd3bb78dc03d4f7896dbb27", "lon": -76.98695166666667, "lat": 38.90701416666667, "fusion_lon": 0.0, "rental_uris": {"ios": "https://dc.lft.to/lastmile_qr_scan", "android": "https://dc.lft.to/lastmile_qr_scan"}, "is_disabled": 0, "is_reserved": 0, "name": "b775db79fcd3bb78dc03d4f7896dbb27", "type": "electric_scooter", "fusion_lat": 0.0}, {"bike_id": "c81d1f39dc6912fdd9941760a3db3901", "lon": -77.0230375, "lat": 38.90921733333333, "fusion_lon": 0.0, "rental_uris": {"ios": "https://dc.lft.to/lastmile_qr_scan", "android": "https://dc.lft.to/lastmile_qr_scan"}, "is_disabled": 0, "is_reserved": 0, "name": "c81d1f39dc6912fdd9941760a3db3901", "type": "electric_scooter", "fusion_lat": 0.0}, {"bike_id": "f32b9b3db46427b73a8a62cc8e147653", "lon": -77.03037066666667, "lat": 38.88386533333333, "fusion_lon": 0.0, "rental_uris": {"ios": "https://dc.lft.to/lastmile_qr_scan", "android": "https://dc.lft.to/lastmile_qr_scan"}, "is_disabled": 0, "is_reserved": 0, "name": "f32b9b3db46427b73a8a62cc8e147653", "type": "electric_scooter", "fusion_lat": 0.0}, {"bike_id": "4d712f2afdae3efe768e3eca06b54a51", "lon": -76.93022916666666, "lat": 38.90165283333333, "fusion_lon": 0.0, "rental_uris": {"ios": "https://dc.lft.to/lastmile_qr_scan", "android": "https://dc.lft.to/lastmile_qr_scan"}, "is_disabled": 0, "is_reserved": 0, "name": "4d712f2afdae3efe768e3eca06b54a51", "type": "electric_scooter", "fusion_lat": 0.0}, {"bike_id": "900cbbd8b7e8c91e13eafce0f1c320f2", "lon": -77.02124916666666, "lat": 38.93576783333334, "fusion_lon": 0.0, "rental_uris": {"ios": "https://dc.lft.to/lastmile_qr_scan", "android": "https://dc.lft.to/lastmile_qr_scan"}, "is_disabled": 0, "is_reserved": 0, "name": "900cbbd8b7e8c91e13eafce0f1c320f2", "type": "electric_scooter", "fusion_lat": 0.0}, {"bike_id": "182f7a56ab7a0055f8aec2636eeeedbd", "lon": -77.0263765, "lat": 38.936505, "fusion_lon": 0.0, "rental_uris": {"ios": "https://dc.lft.to/lastmile_qr_scan", "android": "https://dc.lft.to/lastmile_qr_scan"}, "is_disabled": 0, "is_reserved": 0, "name": "182f7a56ab7a0055f8aec2636eeeedbd", "type": "electric_scooter", "fusion_lat": 0.0}, {"bike_id": "dc382e90de0db357e99f716e2fed3edf", "lon": -77.028434, "lat": 38.8874325, "fusion_lon": 0.0, "rental_uris": {"ios": "https://dc.lft.to/lastmile_qr_scan", "android": "https://dc.lft.to/lastmile_qr_scan"}, "is_disabled": 0, "is_reserved": 0, "name": "dc382e90de0db357e99f716e2fed3edf", "type": "electric_scooter", "fusion_lat": 0.0}, {"bike_id": "3f80bd1790e3093af46ac46b57da977e", "lon": -77.02851033333333, "lat": 38.92868383333333, "fusion_lon": 0.0, "rental_uris": {"ios": "https://dc.lft.to/lastmile_qr_scan", "android": "https://dc.lft.to/lastmile_qr_scan"}, "is_disabled": 0, "is_reserved": 0, "name": "3f80bd1790e3093af46ac46b57da977e", "type": "electric_scooter", "fusion_lat": 0.0}, {"bike_id": "b3215fc2f439e2055192d842c2cabd2d", "lon": -76.9574895, "lat": 38.88460233333333, "fusion_lon": 0.0, "rental_uris": {"ios": "https://dc.lft.to/lastmile_qr_scan", "android": "https://dc.lft.to/lastmile_qr_scan"}, "is_disabled": 0, "is_reserved": 0, "name": "b3215fc2f439e2055192d842c2cabd2d", "type": "electric_scooter", "fusion_lat": 0.0}, {"bike_id": "e814d9f9e05a30fec8291cccc5f3155e", "lon": -77.02695566666667, "lat": 38.909212333333336, "fusion_lon": 0.0, "rental_uris": {"ios": "https://dc.lft.to/lastmile_qr_scan", "android": "https://dc.lft.to/lastmile_qr_scan"}, "is_disabled": 0, "is_reserved": 0, "name": "e814d9f9e05a30fec8291cccc5f3155e", "type": "electric_scooter", "fusion_lat": 0.0}, {"bike_id": "ab2f0c9111c3efc4c299f07cf6ec1327", "lon": -77.05005683333333, "lat": 38.89308366666667, "fusion_lon": 0.0, "rental_uris": {"ios": "https://dc.lft.to/lastmile_qr_scan", "android": "https://dc.lft.to/lastmile_qr_scan"}, "is_disabled": 0, "is_reserved": 0, "name": "ab2f0c9111c3efc4c299f07cf6ec1327", "type": "electric_scooter", "fusion_lat": 0.0}, {"bike_id": "943296479586574839d094f930d06405", "lon": -77.02580416666666, "lat": 38.94403966666667, "fusion_lon": 0.0, "rental_uris": {"ios": "https://dc.lft.to/lastmile_qr_scan", "android": "https://dc.lft.to/lastmile_qr_scan"}, "is_disabled": 0, "is_reserved": 0, "name": "943296479586574839d094f930d06405", "type": "electric_scooter", "fusion_lat": 0.0}, {"bike_id": "ccdd89f3573852579f9ab732eb771721", "lon": -77.00569916666667, "lat": 38.8719655, "fusion_lon": 0.0, "rental_uris": {"ios": "https://dc.lft.to/lastmile_qr_scan", "android": "https://dc.lft.to/lastmile_qr_scan"}, "is_disabled": 0, "is_reserved": 0, "name": "ccdd89f3573852579f9ab732eb771721", "type": "electric_scooter", "fusion_lat": 0.0}, {"bike_id": "3524954c53e07f33ebeb33e17338c685", "lon": -77.02409666666667, "lat": 38.911719, "fusion_lon": 0.0, "rental_uris": {"ios": "https://dc.lft.to/lastmile_qr_scan", "android": "https://dc.lft.to/lastmile_qr_scan"}, "is_disabled": 0, "is_reserved": 0, "name": "3524954c53e07f33ebeb33e17338c685", "type": "electric_bike", "fusion_lat": 0.0}, {"bike_id": "1d48d4e846c871b63e8e90abc6227533", "lon": -77.03268466666667, "lat": 38.92846683333333, "fusion_lon": 0.0, "rental_uris": {"ios": "https://dc.lft.to/lastmile_qr_scan", "android": "https://dc.lft.to/lastmile_qr_scan"}, "is_disabled": 0, "is_reserved": 0, "name": "1d48d4e846c871b63e8e90abc6227533", "type": "electric_scooter", "fusion_lat": 0.0}, {"bike_id": "7600f5fe1f52c155a8bb229490327db6", "lon": -77.024047, "lat": 38.937023, "fusion_lon": 0.0, "rental_uris": {"ios": "https://dc.lft.to/lastmile_qr_scan", "android": "https://dc.lft.to/lastmile_qr_scan"}, "is_disabled": 0, "is_reserved": 0, "name": "7600f5fe1f52c155a8bb229490327db6", "type": "electric_scooter", "fusion_lat": 0.0}, {"bike_id": "adf21b1025dd4c4dec8d1c4a60709811", "lon": -77.01632966666666, "lat": 38.928977, "fusion_lon": 0.0, "rental_uris": {"ios": "https://dc.lft.to/lastmile_qr_scan", "android": "https://dc.lft.to/lastmile_qr_scan"}, "is_disabled": 0, "is_reserved": 0, "name": "adf21b1025dd4c4dec8d1c4a60709811", "type": "electric_scooter", "fusion_lat": 0.0}, {"bike_id": "57d79561312ee312f67a308997286956", "lon": -77.03147733333333, "lat": 38.92783333333333, "fusion_lon": 0.0, "rental_uris": {"ios": "https://dc.lft.to/lastmile_qr_scan", "android": "https://dc.lft.to/lastmile_qr_scan"}, "is_disabled": 0, "is_reserved": 0, "name": "57d79561312ee312f67a308997286956", "type": "electric_scooter", "fusion_lat": 0.0}, {"bike_id": "36b978332823cb93937b18a03af48718", "lon": -77.028515, "lat": 38.90108583333333, "fusion_lon": 0.0, "rental_uris": {"ios": "https://dc.lft.to/lastmile_qr_scan", "android": "https://dc.lft.to/lastmile_qr_scan"}, "is_disabled": 0, "is_reserved": 0, "name": "36b978332823cb93937b18a03af48718", "type": "electric_scooter", "fusion_lat": 0.0}, {"bike_id": "bf7ba0de98b4bab18221c40fff52ab3b", "lon": -76.937013, "lat": 38.890169666666665, "fusion_lon": 0.0, "rental_uris": {"ios": "https://dc.lft.to/lastmile_qr_scan", "android": "https://dc.lft.to/lastmile_qr_scan"}, "is_disabled": 0, "is_reserved": 0, "name": "bf7ba0de98b4bab18221c40fff52ab3b", "type": "electric_scooter", "fusion_lat": 0.0}, {"bike_id": "77a7a987c96ad5b7edd9b06838944922", "lon": -77.02279233333333, "lat": 38.87840116666667, "fusion_lon": 0.0, "rental_uris": {"ios": "https://dc.lft.to/lastmile_qr_scan", "android": "https://dc.lft.to/lastmile_qr_scan"}, "is_disabled": 0, "is_reserved": 0, "name": "77a7a987c96ad5b7edd9b06838944922", "type": "electric_scooter", "fusion_lat": 0.0}, {"bike_id": "5073da697515a368a9f11a57f0e762a9", "lon": -77.0946965, "lat": 38.86939233333333, "fusion_lon": 0.0, "rental_uris": {"ios": "https://dc.lft.to/lastmile_qr_scan", "android": "https://dc.lft.to/lastmile_qr_scan"}, "is_disabled": 0, "is_reserved": 0, "name": "5073da697515a368a9f11a57f0e762a9", "type": "electric_bike", "fusion_lat": 0.0}, {"bike_id": "baeafede458aff93e53726192ce709b3", "lon": -77.0129685, "lat": 38.9019325, "fusion_lon": 0.0, "rental_uris": {"ios": "https://dc.lft.to/lastmile_qr_scan", "android": "https://dc.lft.to/lastmile_qr_scan"}, "is_disabled": 0, "is_reserved": 0, "name": "baeafede458aff93e53726192ce709b3", "type": "electric_scooter", "fusion_lat": 0.0}, {"bike_id": "a232b4dfcb52907dd9c5f30e4be0adc2", "lon": -77.05024483333334, "lat": 38.903636, "fusion_lon": 0.0, "rental_uris": {"ios": "https://dc.lft.to/lastmile_qr_scan", "android": "https://dc.lft.to/lastmile_qr_scan"}, "is_disabled": 0, "is_reserved": 0, "name": "a232b4dfcb52907dd9c5f30e4be0adc2", "type": "electric_scooter", "fusion_lat": 0.0}, {"bike_id": "cb59ad99e03676dff3882a1c8f81b227", "lon": -77.04189666666667, "lat": 38.920479, "fusion_lon": 0.0, "rental_uris": {"ios": "https://dc.lft.to/lastmile_qr_scan", "android": "https://dc.lft.to/lastmile_qr_scan"}, "is_disabled": 0, "is_reserved": 0, "name": "cb59ad99e03676dff3882a1c8f81b227", "type": "electric_scooter", "fusion_lat": 0.0}, {"bike_id": "fe12319744b32cb0c8989ce65a6b1149", "lon": -77.04054733333334, "lat": 38.91767766666667, "fusion_lon": 0.0, "rental_uris": {"ios": "https://dc.lft.to/lastmile_qr_scan", "android": "https://dc.lft.to/lastmile_qr_scan"}, "is_disabled": 0, "is_reserved": 0, "name": "fe12319744b32cb0c8989ce65a6b1149", "type": "electric_scooter", "fusion_lat": 0.0}, {"bike_id": "86682ae33fe4f00327eaace9d7286142", "lon": -76.94152233333334, "lat": 38.88364, "fusion_lon": 0.0, "rental_uris": {"ios": "https://dc.lft.to/lastmile_qr_scan", "android": "https://dc.lft.to/lastmile_qr_scan"}, "is_disabled": 0, "is_reserved": 0, "name": "86682ae33fe4f00327eaace9d7286142", "type": "electric_scooter", "fusion_lat": 0.0}, {"bike_id": "eed7efaabb792c9dacf732b1b99fce6b", "lon": -77.09621016666667, "lat": 38.87880783333333, "fusion_lon": 0.0, "rental_uris": {"ios": "https://dc.lft.to/lastmile_qr_scan", "android": "https://dc.lft.to/lastmile_qr_scan"}, "is_disabled": 0, "is_reserved": 0, "name": "eed7efaabb792c9dacf732b1b99fce6b", "type": "electric_bike", "fusion_lat": 0.0}, {"bike_id": "272ef73e30c763f800a3228a84e9c475", "lon": -77.02934816666667, "lat": 38.903552, "fusion_lon": 0.0, "rental_uris": {"ios": "https://dc.lft.to/lastmile_qr_scan", "android": "https://dc.lft.to/lastmile_qr_scan"}, "is_disabled": 0, "is_reserved": 0, "name": "272ef73e30c763f800a3228a84e9c475", "type": "electric_scooter", "fusion_lat": 0.0},