{"data": {"bikes": [{"lat": 38.89847483333333, "fusion_lat": 0.0, "type": "electric_scooter", "bike_id": "08e0d5e913fb06d215856235c89460c5", "rental_uris": {"ios": "https://dc.lft.to/lastmile_qr_scan", "android": "https://dc.lft.to/lastmile_qr_scan"}, "fusion_lon": 0.0, "lon": -76.94257066666667, "name": "08e0d5e913fb06d215856235c89460c5", "is_reserved": 0, "is_disabled": 0}, {"lat": 38.895627166666664, "fusion_lat": 0.0, "type": "electric_scooter", "bike_id": "fa5f3e2eb3d5b80a7dced02241a2523e", "rental_uris": {"ios": "https://dc.lft.to/lastmile_qr_scan", "android": "https://dc.lft.to/lastmile_qr_scan"}, "fusion_lon": 0.0, "lon": -76.948837, "name": "fa5f3e2eb3d5b80a7dced02241a2523e", "is_reserved": 0, "is_disabled": 0}, {"lat": 38.875354333333334, "fusion_lat": 0.0, "type": "electric_scooter", "bike_id": "afee3c128285975d2abb69b9cffb4723", "rental_uris": {"ios": "https://dc.lft.to/lastmile_qr_scan", "android": "https://dc.lft.to/lastmile_qr_scan"}, "fusion_lon": 0.0, "lon": -77.00510416666667, "name": "afee3c128285975d2abb69b9cffb4723", "is_reserved": 0, "is_disabled": 0}, {"lat": 38.89224216666667, "fusion_lat": 0.0, "type": "electric_scooter", "bike_id": "80e3a0756bbbb6c290d35ffd47b7fb14", "rental_uris": {"ios": "https://dc.lft.to/lastmile_qr_scan", "android": "https://dc.lft.to/lastmile_qr_scan"}, "fusion_lon": 0.0, "lon": -77.04200616666667, "name": "80e3a0756bbbb6c290d35ffd47b7fb14", "is_reserved": 0, "is_disabled": 0}, {"lat": 38.89540483333333, "fusion_lat": 0.0, "type": "electric_scooter", "bike_id": "ac3d2f8ac9c72ecc103bf70661296f8c", "rental_uris": {"ios": "https://dc.lft.to/lastmile_qr_scan", "android": "https://dc.lft.to/lastmile_qr_scan"}, "fusion_lon": 0.0, "lon": -76.94965416666666, "name": "ac3d2f8ac9c72ecc103bf70661296f8c", "is_reserved": 0, "is_disabled": 0}, {"lat": 38.904149, "fusion_lat": 0.0, "type": "electric_scooter", "bike_id": "77d351b50ad2ae515adf121ee722c507", "rental_uris": {"ios": "https://dc.lft.to/lastmile_qr_scan", "android": "https://dc.lft.to/lastmile_qr_scan"}, "fusion_lon": 0.0, "lon": -77.029364, "name": "77d351b50ad2ae515adf121ee722c507", "is_reserved": 0, "is_disabled": 0}, {"lat": 38.924124666666664, "fusion_lat": 0.0, "type": "electric_scooter", "bike_id": "84341a6ba0aa7d61d3b3fc2d9ff51a7c", "rental_uris": {"ios": "https://dc.lft.to/lastmile_qr_scan", "android": "https://dc.lft.to/lastmile_qr_scan"}, "fusion_lon": 0.0, "lon": -77.05167516666667, "name": "84341a6ba0aa7d61d3b3fc2d9ff51a7c", "is_reserved": 0, "is_disabled": 0}, {"lat": 38.88180833333333, "fusion_lat": 0.0, "type": "electric_scooter", "bike_id": "0a65a6fe3f6f331c6e92e5ae5b49fa4f", "rental_uris": {"ios": "https://dc.lft.to/lastmile_qr_scan", "android": "https://dc.lft.to/lastmile_qr_scan"}, "fusion_lon": 0.0, "lon": -76.99257183333333, "name": "0a65a6fe3f6f331c6e92e5ae5b49fa4f", "is_reserved": 0, "is_disabled": 0}, {"lat": 38.87825483333334, "fusion_lat": 0.0, "type": "electric_scooter", "bike_id": "072f43af70fd21f8a518775538c90e90", "rental_uris": {"ios": "https://dc.lft.to/lastmile_qr_scan", "android": "https://dc.lft.to/lastmile_qr_scan"}, "fusion_lon": 0.0, "lon": -77.02237333333333, "name": "072f43af70fd21f8a518775538c90e90", "is_reserved": 0, "is_disabled": 0}, {"lat": 38.904303666666664, "fusion_lat": 0.0, "type": "electric_scooter", "bike_id": "ecde603556711d21668e708bcd62b78c", "rental_uris": {"ios": "https://dc.lft.to/lastmile_qr_scan", "android": "https://dc.lft.to/lastmile_qr_scan"}, "fusion_lon": 0.0, "lon": -77.0199175, "name": "ecde603556711d21668e708bcd62b78c", "is_reserved": 0, "is_disabled": 0}, {"lat": 38.91177416666667, "fusion_lat": 0.0, "type": "electric_scooter", "bike_id": "440a8c1bb0fa01fe7640d48c21f5e9bb", "rental_uris": {"ios": "https://dc.lft.to/lastmile_qr_scan", "android": "https://dc.lft.to/lastmile_qr_scan"}, "fusion_lon": 0.0, "lon": -77.02828916666667, "name": "440a8c1bb0fa01fe7640d48c21f5e9bb", "is_reserved": 0, "is_disabled": 0}, {"lat": 38.908590333333336, "fusion_lat": 0.0, "type": "electric_scooter", "bike_id": "baef5fe438dd28461d5a7e3c46e354e5", "rental_uris": {"ios": "https://dc.lft.to/lastmile_qr_scan", "android": "https://dc.lft.to/lastmile_qr_scan"}, "fusion_lon": 0.0, "lon": -77.02353983333333, "name": "baef5fe438dd28461d5a7e3c46e354e5", "is_reserved": 0, "is_disabled": 0}, {"lat": 38.92484366666667, "fusion_lat": 0.0, "type": "electric_scooter", "bike_id": "53f513e509ff258718712cbc7dcb5e56", "rental_uris": {"ios": "https://dc.lft.to/lastmile_qr_scan", "android": "https://dc.lft.to/lastmile_qr_scan"}, "fusion_lon": 0.0, "lon": -77.03009083333333, "name": "53f513e509ff258718712cbc7dcb5e56", "is_reserved": 0, "is_disabled": 0}, {"lat": 38.911123, "fusion_lat": 0.0, "type": "electric_scooter", "bike_id": "d8526c6f95e6e4f4215405b4428b9235", "rental_uris": {"ios": "https://dc.lft.to/lastmile_qr_scan", "android": "https://dc.lft.to/lastmile_qr_scan"}, "fusion_lon": 0.0, "lon": -77.04534916666667, "name": "d8526c6f95e6e4f4215405b4428b9235", "is_reserved": 0, "is_disabled": 0}, {"lat": 38.92288416666667, "fusion_lat": 0.0, "type": "electric_scooter", "bike_id": "18cc43fb95bce5084c5f9dcbee04b800", "rental_uris": {"ios": "https://dc.lft.to/lastmile_qr_scan", "android": "https://dc.lft.to/lastmile_qr_scan"}, "fusion_lon": 0.0, "lon": -77.022446, "name": "18cc43fb95bce5084c5f9dcbee04b800", "is_reserved": 0, "is_disabled": 0}, {"lat": 38.80765666666667, "fusion_lat": 0.0, "type": "electric_bike", "bike_id": "32362e0d5fd149dba84f001ed10be601", "rental_uris": {"ios": "https://dc.lft.to/lastmile_qr_scan", "android": "https://dc.lft.to/lastmile_qr_scan"}, "fusion_lon": 0.0, "lon": -77.1299085, "name": "32362e0d5fd149dba84f001ed10be601", "is_reserved": 0, "is_disabled": 0}, {"lat": 38.909695, "fusion_lat": 0.0, "type": "electric_scooter", "bike_id": "2604e8a35c499a52061371c262bb38dc", "rental_uris": {"ios": "https://dc.lft.to/lastmile_qr_scan", "android": "https://dc.lft.to/lastmile_qr_scan"}, "fusion_lon": 0.0, "lon": -77.03857283333333, "name": "2604e8a35c499a52061371c262bb38dc", "is_reserved": 0, "is_disabled": 0}, {"lat": 38.90831283333333, "fusion_lat": 0.0, "type": "electric_scooter", "bike_id": "dec064f314eec0ef5d0a98ae2bc23f27", "rental_uris": {"ios": "https://dc.lft.to/lastmile_qr_scan", "android": "https://dc.lft.to/lastmile_qr_scan"}, "fusion_lon": 0.0, "lon": -77.03551, "name": "dec064f314eec0ef5d0a98ae2bc23f27", "is_reserved": 0, "is_disabled": 0}, {"lat": 38.91187216666667, "fusion_lat": 0.0, "type": "electric_scooter", "bike_id": "c0789bf1196ad9b6b681b5be7e8c96ae", "rental_uris": {"ios": "https://dc.lft.to/lastmile_qr_scan", "android": "https://dc.lft.to/lastmile_qr_scan"}, "fusion_lon": 0.0, "lon": -77.0200875, "name": "c0789bf1196ad9b6b681b5be7e8c96ae", "is_reserved": 0, "is_disabled": 0}, {"lat": 38.90826666666667, "fusion_lat": 0.0, "type": "electric_scooter", "bike_id": "9695d7dba5cb7ce2e72149a33a3baf4d", "rental_uris": {"ios": "https://dc.lft.to/lastmile_qr_scan", "android": "https://dc.lft.to/lastmile_qr_scan"}, "fusion_lon": 0.0, "lon": -77.043435, "name": "9695d7dba5cb7ce2e72149a33a3baf4d", "is_reserved": 0, "is_disabled": 0}, {"lat": 38.91100083333333, "fusion_lat": 0.0, "type": "electric_scooter", "bike_id": "46f4729cf8440bdddf3c7be622362e9f", "rental_uris": {"ios": "https://dc.lft.to/lastmile_qr_scan", "android": "https://dc.lft.to/lastmile_qr_scan"}, "fusion_lon": 0.0, "lon": -77.07359116666667, "name": "46f4729cf8440bdddf3c7be622362e9f", "is_reserved": 0, "is_disabled": 0}, {"lat": 38.92463083333333, "fusion_lat": 0.0, "type": "electric_scooter", "bike_id": "f702443cf49570b61b3c10fd092e3290", "rental_uris": {"ios": "https://dc.lft.to/lastmile_qr_scan", "android": "https://dc.lft.to/lastmile_qr_scan"}, "fusion_lon": 0.0, "lon": -77.0224805, "name": "f702443cf49570b61b3c10fd092e3290", "is_reserved": 0, "is_disabled": 0}, {"lat": 38.88730616666667, "fusion_lat": 0.0, "type": "electric_scooter", "bike_id": "6426ee9ab293f754b23168d340fbd15e", "rental_uris": {"ios": "https://dc.lft.to/lastmile_qr_scan", "android": "https://dc.lft.to/lastmile_qr_scan"}, "fusion_lon": 0.0, "lon": -76.98359666666667, "name": "6426ee9ab293f754b23168d340fbd15e", "is_reserved": 0, "is_disabled": 0}, {"lat": 38.903887, "fusion_lat": 0.0, "type": "electric_scooter", "bike_id": "c8424e6bf0900573c7161619cf62eb50", "rental_uris": {"ios": "https://dc.lft.to/lastmile_qr_scan", "android": "https://dc.lft.to/lastmile_qr_scan"}, "fusion_lon": 0.0, "lon": -76.98952366666667, "name": "c8424e6bf0900573c7161619cf62eb50", "is_reserved": 0, "is_disabled": 0}, {"lat": 38.884191333333334, "fusion_lat": 0.0, "type": "electric_scooter", "bike_id": "264ba8148117a2c3d33be19f9fb67b05", "rental_uris": {"ios": "https://dc.lft.to/lastmile_qr_scan", "android": "https://dc.lft.to/lastmile_qr_scan"}, "fusion_lon": 0.0, "lon": -76.942231, "name": "264ba8148117a2c3d33be19f9fb67b05", "is_reserved": 0, "is_disabled": 0}, {"lat": 38.92351133333333, "fusion_lat": 0.0, "type": "electric_scooter", "bike_id": "7979521ca9b5710ab39400c7b1914042", "rental_uris": {"ios": "https://dc.lft.to/lastmile_qr_scan", "android": "https://dc.lft.to/lastmile_qr_scan"}, "fusion_lon": 0.0, "lon": -77.05170016666666, "name": "7979521ca9b5710ab39400c7b1914042", "is_reserved": 0, "is_disabled": 0}, {"lat": 38.902489333333335, "fusion_lat": 0.0, "type": "electric_scooter", "bike_id": "a4fd809b57430ce160e9494286a2688b", "rental_uris": {"ios": "https://dc.lft.to/lastmile_qr_scan", "android": "https://dc.lft.to/lastmile_qr_scan"}, "fusion_lon": 0.0, "lon": -77.05345866666667, "name": "a4fd809b57430ce160e9494286a2688b", "is_reserved": 0, "is_disabled": 0}, {"lat": 38.906445, "fusion_lat": 0.0, "type": "electric_scooter", "bike_id": "a3e447ec8469a36d92d4d4ef32d0047c", "rental_uris": {"ios": "https://dc.lft.to/lastmile_qr_scan", "android": "https://dc.lft.to/lastmile_qr_scan"}, "fusion_lon": 0.0, "lon": -77.03868916666667, "name": "a3e447ec8469a36d92d4d4ef32d0047c", "is_reserved": 0, "is_disabled": 0}, {"lat": 38.91604683333333, "fusion_lat": 0.0, "type": "electric_scooter", "bike_id": "044af6ec5c7e42180d041bbe26727b08", "rental_uris": {"ios": "https://dc.lft.to/lastmile_qr_scan", "android": "https://dc.lft.to/lastmile_qr_scan"}, "fusion_lon": 0.0, "lon": -77.031933, "name": "044af6ec5c7e42180d041bbe26727b08", "is_reserved": 0, "is_disabled": 0}, {"lat": 38.910583833333334, "fusion_lat": 0.0, "type": "electric_scooter", "bike_id": "32c5cb9fd117ef86f424398879f707de", "rental_uris": {"ios": "https://dc.lft.to/lastmile_qr_scan", "android": "https://dc.lft.to/lastmile_qr_scan"}, "fusion_lon": 0.0, "lon": -77.05290416666666, "name": "32c5cb9fd117ef86f424398879f707de", "is_reserved": 0, "is_disabled": 0}, {"lat": 38.8601585, "fusion_lat": 0.0, "type": "electric_scooter", "bike_id": "ecd62cc6acc12c66d26cc5bf55d98ef1", "rental_uris": {"ios": "https://dc.lft.to/lastmile_qr_scan", "android": "https://dc.lft.to/lastmile_qr_scan"}, "fusion_lon": 0.0, "lon": -76.967068, "name": "ecd62cc6acc12c66d26cc5bf55d98ef1", "is_reserved": 0, "is_disabled": 0}, {"lat": 38.918403833333336, "fusion_lat": 0.0, "type": "electric_scooter", "bike_id": "0a9aabeb498f7ee00c5be71665878f58", "rental_uris": {"ios": "https://dc.lft.to/lastmile_qr_scan", "android": "https://dc.lft.to/lastmile_qr_scan"}, "fusion_lon": 0.0, "lon": -76.96556066666666, "name": "0a9aabeb498f7ee00c5be71665878f58", "is_reserved": 0, "is_disabled": 0}, {"lat": 38.908327166666666, "fusion_lat": 0.0, "type": "electric_scooter", "bike_id": "53ed84e27820ce940d95d9d52eedcaef", "rental_uris": {"ios": "https://dc.lft.to/lastmile_qr_scan", "android": "https://dc.lft.to/lastmile_qr_scan"}, "fusion_lon": 0.0, "lon": -77.0321925, "name": "53ed84e27820ce940d95d9d52eedcaef", "is_reserved": 0, "is_disabled": 0}, {"lat": 38.9010645, "fusion_lat": 0.0, "type": "electric_scooter", "bike_id": "11d407f4ed8671e975052e9f42a61929", "rental_uris": {"ios": "https://dc.lft.to/lastmile_qr_scan", "android": "https://dc.lft.to/lastmile_qr_scan"}, "fusion_lon": 0.0, "lon": -76.9304305, "name": "11d407f4ed8671e975052e9f42a61929", "is_reserved": 0, "is_disabled": 0}, {"lat": 38.911296166666666, "fusion_lat": 0.0, "type": "electric_scooter", "bike_id": "0b04c2ad2c28d34fcd694380b9a33ce3", "rental_uris": {"ios": "https://dc.lft.to/lastmile_qr_scan", "android": "https://dc.lft.to/lastmile_qr_scan"}, "fusion_lon": 0.0, "lon": -77.031883, "name": "0b04c2ad2c28d34fcd694380b9a33ce3", "is_reserved": 0, "is_disabled": 0}, {"lat": 38.89750216666667, "fusion_lat": 0.0, "type": "electric_scooter", "bike_id": "9aaa76b7f4a4fecbafdf85d5487daced", "rental_uris": {"ios": "https://dc.lft.to/lastmile_qr_scan", "android": "https://dc.lft.to/lastmile_qr_scan"}, "fusion_lon": 0.0, "lon": -77.02407033333333, "name": "9aaa76b7f4a4fecbafdf85d5487daced", "is_reserved": 0, "is_disabled": 0}, {"lat": 38.894945166666666, "fusion_lat": 0.0, "type": "electric_scooter", "bike_id": "8f5a51cd6960e2db443c793b9add681a", "rental_uris": {"ios": "https://dc.lft.to/lastmile_qr_scan", "android": "https://dc.lft.to/lastmile_qr_scan"}, "fusion_lon": 0.0, "lon": -77.0108775, "name": "8f5a51cd6960e2db443c793b9add681a", "is_reserved": 0, "is_disabled": 0}, {"lat": 38.936299166666664, "fusion_lat": 0.0, "type": "electric_scooter", "bike_id": "6b441b32c0f60568430cd9f56483ac78", "rental_uris": {"ios": "https://dc.lft.to/lastmile_qr_scan", "android": "https://dc.lft.to/lastmile_qr_scan"}, "fusion_lon": 0.0, "lon": -77.05876983333333, "name": "6b441b32c0f60568430cd9f56483ac78", "is_reserved": 0, "is_disabled": 0}, {"lat": 38.909464666666665, "fusion_lat": 0.0, "type": "electric_scooter", "bike_id": "31713ba559666ab80febfacec41fa58d", "rental_uris": {"ios": "https://dc.lft.to/lastmile_qr_scan", "android": "https://dc.lft.to/lastmile_qr_scan"}, "fusion_lon": 0.0, "lon": -77.03055666666667, "name": "31713ba559666ab80febfacec41fa58d", "is_reserved": 0, "is_disabled": 0}, {"lat": 38.91819783333333, "fusion_lat": 0.0, "type": "electric_scooter", "bike_id": "fd5be53200a6ba70c6929fbdd6556ba1", "rental_uris": {"ios": "https://dc.lft.to/lastmile_qr_scan", "android": "https://dc.lft.to/lastmile_qr_scan"}, "fusion_lon": 0.0, "lon": -77.02535416666667, "name": "fd5be53200a6ba70c6929fbdd6556ba1", "is_reserved": 0, "is_disabled": 0}, {"lat": 38.91566866666667, "fusion_lat": 0.0, "type": "electric_scooter", "bike_id": "04b13b5048c3d8cf1bd58f7539cc8978", "rental_uris": {"ios": "https://dc.lft.to/lastmile_qr_scan", "android": "https://dc.lft.to/lastmile_qr_scan"}, "fusion_lon": 0.0, "lon": -77.02060466666667, "name": "04b13b5048c3d8cf1bd58f7539cc8978", "is_reserved": 0, "is_disabled": 0}, {"lat": 38.8973065, "fusion_lat": 0.0, "type": "electric_scooter", "bike_id": "434455998e9761e97daf79dfb74ca5dd", "rental_uris": {"ios": "https://dc.lft.to/lastmile_qr_scan", "android": "https://dc.lft.to/lastmile_qr_scan"}, "fusion_lon": 0.0, "lon": -77.02727766666666, "name": "434455998e9761e97daf79dfb74ca5dd", "is_reserved": 0, "is_disabled": 0}, {"lat": 38.906664166666665, "fusion_lat": 0.0, "type": "electric_scooter", "bike_id": "904d291e9c73d6d4a27b7ec653ecd57a", "rental_uris": {"ios": "https://dc.lft.to/lastmile_qr_scan", "android": "https://dc.lft.to/lastmile_qr_scan"}, "fusion_lon": 0.0, "lon": -77.04632483333333, "name": "904d291e9c73d6d4a27b7ec653ecd57a", "is_reserved": 0, "is_disabled": 0}, {"lat": 38.914194, "fusion_lat": 0.0, "type": "electric_scooter", "bike_id": "f7261f8896ca19a70486cd10d49dc9c6", "rental_uris": {"ios": "https://dc.lft.to/lastmile_qr_scan", "android": "https://dc.lft.to/lastmile_qr_scan"}, "fusion_lon": 0.0, "lon": -77.03174116666666, "name": "f7261f8896ca19a70486cd10d49dc9c6", "is_reserved": 0, "is_disabled": 0}, {"lat": 38.87871333333333, "fusion_lat": 0.0, "type": "electric_scooter", "bike_id": "d5e6d0db3868fba7700a0fece42742af", "rental_uris": {"ios": "https://dc.lft.to/lastmile_qr_scan", "android": "https://dc.lft.to/lastmile_qr_scan"}, "fusion_lon": 0.0, "lon": -76.996817, "name": "d5e6d0db3868fba7700a0fece42742af", "is_reserved": 0, "is_disabled": 0}, {"lat": 38.918087166666666, "fusion_lat": 0.0, "type": "electric_scooter", "bike_id": "c633b3dd34a00cca7a6d8c76f41946db", "rental_uris": {"ios": "https://dc.lft.to/lastmile_qr_scan", "android": "https://dc.lft.to/lastmile_qr_scan"}, "fusion_lon": 0.0, "lon": -77.03438483333333, "name": "c633b3dd34a00cca7a6d8c76f41946db", "is_reserved": 0, "is_disabled": 0}, {"lat": 38.87193583333333, "fusion_lat": 0.0, "type": "electric_scooter", "bike_id": "4cfafad2a82d7c5ed2c4dc3477d8ad4d", "rental_uris": {"ios": "https://dc.lft.to/lastmile_qr_scan", "android": "https://dc.lft.to/lastmile_qr_scan"}, "fusion_lon": 0.0, "lon": -77.00713733333333, "name": "4cfafad2a82d7c5ed2c4dc3477d8ad4d", "is_reserved": 0, "is_disabled": 0}, {"lat": 38.86941983333333, "fusion_lat": 0.0, "type": "electric_scooter", "bike_id": "4347771949ae53f3d8fe31a275c49aac", "rental_uris": {"ios": "https://dc.lft.to/lastmile_qr_scan", "android": "https://dc.lft.to/lastmile_qr_scan"}, "fusion_lon": 0.0, "lon": -77.0137505, "name": "4347771949ae53f3d8fe31a275c49aac", "is_reserved": 0, "is_disabled": 0}, {"lat": 38.918161, "fusion_lat": 0.0, "type": "electric_scooter", "bike_id": "15d8361f49ea1db7078d94804e19ce67", "rental_uris": {"ios": "https://dc.lft.to/lastmile_qr_scan", "android": "https://dc.lft.to/lastmile_qr_scan"}, "fusion_lon": 0.0, "lon": -77.0227455, "name": "15d8361f49ea1db7078d94804e19ce67", "is_reserved": 0, "is_disabled": 0}, {"lat": 38.89276, "fusion_lat": 0.0, "type": "electric_scooter", "bike_id": "424b03940a54b74074058768bbf69eef", "rental_uris": {"ios": "https://dc.lft.to/lastmile_qr_scan", "android": "https://dc.lft.to/lastmile_qr_scan"}, "fusion_lon": 0.0, "lon": -77.0467465, "name": "424b03940a54b74074058768bbf69eef", "is_reserved": 0, "is_disabled": 0}, {"lat": 38.864313, "fusion_lat": 0.0, "type": "electric_scooter", "bike_id": "137ff12dfeb7bac3835dd2338bdcedb9", "rental_uris": {"ios": "https://dc.lft.to/lastmile_qr_scan", "android": "https://dc.lft.to/lastmile_qr_scan"}, "fusion_lon": 0.0, "lon": -76.97445783333333, "name": "137ff12dfeb7bac3835dd2338bdcedb9", "is_reserved": 0, "is_disabled": 0}, {"lat": 38.890421333333336, "fusion_lat": 0.0, "type": "electric_scooter", "bike_id": "9f73c5986a7b68360d061498ec0e6792", "rental_uris": {"ios": "https://dc.lft.to/lastmile_qr_scan", "android": "https://dc.lft.to/lastmile_qr_scan"}, "fusion_lon": 0.0, "lon": -76.9375585, "name": "9f73c5986a7b68360d061498ec0e6792", "is_reserved": 0, "is_disabled": 0}, {"lat": 38.9203095, "fusion_lat": 0.0, "type": "electric_scooter", "bike_id": "fb633741cad6bf428ca593c1c68e1093", "rental_uris": {"ios": "https://dc.lft.to/lastmile_qr_scan", "android": "https://dc.lft.to/lastmile_qr_scan"}, "fusion_lon": 0.0, "lon": -77.03065033333333, "name": "fb633741cad6bf428ca593c1c68e1093", "is_reserved": 0, "is_disabled": 0}, {"lat": 38.8961405, "fusion_lat": 0.0, "type": "electric_scooter", "bike_id": "d3cfd38e17204d6de4748a1fb8fd5dfd", "rental_uris": {"ios": "https://dc.lft.to/lastmile_qr_scan", "android": "https://dc.lft.to/lastmile_qr_scan"}, "fusion_lon": 0.0, "lon": -77.0427725, "name": "d3cfd38e17204d6de4748a1fb8fd5dfd", "is_reserved": 0, "is_disabled": 0}, {"lat": 38.869788, "fusion_lat": 0.0, "type": "electric_scooter", "bike_id": "8719f353ee4f09e52d6f20969157d6b2", "rental_uris": {"ios": "https://dc.lft.to/lastmile_qr_scan", "android": "https://dc.lft.to/lastmile_qr_scan"}, "fusion_lon": 0.0, "lon": -77.01231716666666, "name": "8719f353ee4f09e52d6f20969157d6b2", "is_reserved": 0, "is_disabled": 0}, {"lat": 38.89357283333333, "fusion_lat": 0.0, "type": "electric_scooter", "bike_id": "9bacfa7611f9374a276d8e4e2f293ed3", "rental_uris": {"ios": "https://dc.lft.to/lastmile_qr_scan", "android": "https://dc.lft.to/lastmile_qr_scan"}, "fusion_lon": 0.0, "lon": -77.00337683333333, "name": "9bacfa7611f9374a276d8e4e2f293ed3", "is_reserved": 0, "is_disabled": 0}, {"lat": 38.90152416666667, "fusion_lat": 0.0, "type": "electric_scooter", "bike_id": "8e25f3b9f85c13b79075c06c04102027", "rental_uris": {"ios": "https://dc.lft.to/lastmile_qr_scan", "android": "https://dc.lft.to/lastmile_qr_scan"}, "fusion_lon": 0.0, "lon": -77.0219795, "name": "8e25f3b9f85c13b79075c06c04102027", "is_reserved": 0, "is_disabled": 0}, {"lat": 38.913036, "fusion_lat": 0.0, "type": "electric_scooter", "bike_id": "aaea5860a1c69be89613bc19b97117ba", "rental_uris": {"ios": "https://dc.lft.to/lastmile_qr_scan", "android": "https://dc.lft.to/lastmile_qr_scan"}, "fusion_lon": 0.0, "lon": -77.02695566666667, "name": "aaea5860a1c69be89613bc19b97117ba", "is_reserved": 0, "is_disabled": 0}, {"lat": 38.922609333333334, "fusion_lat": 0.0, "type": "electric_scooter", "bike_id": "b7e3d390912242e0e696f7274f790427", "rental_uris": {"ios": "https://dc.lft.to/lastmile_qr_scan", "android": "https://dc.lft.to/lastmile_qr_scan"}, "fusion_lon": 0.0, "lon": -77.01953083333333, "name": "b7e3d390912242e0e696f7274f790427", "is_reserved": 0, "is_disabled": 0}, {"lat": 38.91264433333333, "fusion_lat": 0.0, "type": "electric_scooter", "bike_id": "844a72eba2f2509971e067b2197eea15", "rental_uris": {"ios": "https://dc.lft.to/lastmile_qr_scan", "android": "https://dc.lft.to/lastmile_qr_scan"}, "fusion_lon": 0.0, "lon": -77.0373695, "name": "844a72eba2f2509971e067b2197eea15", "is_reserved": 0, "is_disabled": 0}, {"lat": 38.932873, "fusion_lat": 0.0, "type": "electric_scooter", "bike_id": "2f67ef49941338931fca75fc9a1c8d91", "rental_uris": {"ios": "https://dc.lft.to/lastmile_qr_scan", "android": "https://dc.lft.to/lastmile_qr_scan"}, "fusion_lon": 0.0, "lon": -77.02502916666667, "name": "2f67ef49941338931fca75fc9a1c8d91", "is_reserved": 0, "is_disabled": 0}, {"lat": 38.90104316666667, "fusion_lat": 0.0, "type": "electric_scooter", "bike_id": "e2b2d25e0611736246e43b63b6cbbcee", "rental_uris": {"ios": "https://dc.lft.to/lastmile_qr_scan", "android": "https://dc.lft.to/lastmile_qr_scan"}, "fusion_lon": 0.0, "lon": -77.0453925, "name": "e2b2d25e0611736246e43b63b6cbbcee", "is_reserved": 0, "is_disabled": 0}, {"lat": 38.88746316666667, "fusion_lat": 0.0, "type": "electric_scooter", "bike_id": "7d26df0f3d074f65a05983390c5bd333", "rental_uris": {"ios": "https://dc.lft.to/lastmile_qr_scan", "android": "https://dc.lft.to/lastmile_qr_scan"}, "fusion_lon": 0.0, "lon": -77.02132033333334, "name": "7d26df0f3d074f65a05983390c5bd333", "is_reserved": 0, "is_disabled": 0}, {"lat": 38.96669083333333, "fusion_lat": 0.0, "type": "electric_bike", "bike_id": "5f1ca3153f89f52e51018943e9b3747f", "rental_uris": {"ios": "https://dc.lft.to/lastmile_qr_scan", "android": "https://dc.lft.to/lastmile_qr_scan"}, "fusion_lon": 0.0, "lon": -76.974488, "name": "5f1ca3153f89f52e51018943e9b3747f", "is_reserved": 0, "is_disabled": 0}, {"lat": 38.93994516666667, "fusion_lat": 0.0, "type": "electric_scooter", "bike_id": "7a8ecda0c65222b1542163940f4299d9", "rental_uris": {"ios": "https://dc.lft.to/lastmile_qr_scan", "android": "https://dc.lft.to/lastmile_qr_scan"}, "fusion_lon": 0.0, "lon": -77.0254835, "name": "7a8ecda0c65222b1542163940f4299d9", "is_reserved": 0, "is_disabled": 0}, {"lat": 38.923022333333336, "fusion_lat": 0.0, "type": "electric_bike", "bike_id": "a6ac3ad4d43df129955f666dc5e8690a", "rental_uris": {"ios": "https://dc.lft.to/lastmile_qr_scan", "android": "https://dc.lft.to/lastmile_qr_scan"}, "fusion_lon": 0.0, "lon": -76.9978025, "name": "a6ac3ad4d43df129955f666dc5e8690a", "is_reserved": 0, "is_disabled": 0}, {"lat": 38.9256285, "fusion_lat": 0.0, "type": "electric_scooter", "bike_id": "076e13f70c2c79d61ac6b6d5f41b10bf", "rental_uris": {"ios": "https://dc.lft.to/lastmile_qr_scan", "android": "https://dc.lft.to/lastmile_qr_scan"}, "fusion_lon": 0.0, "lon": -77.077885, "name": "076e13f70c2c79d61ac6b6d5f41b10bf", "is_reserved": 0, "is_disabled": 0}, {"lat": 38.9248165, "fusion_lat": 0.0, "type": "electric_bike", "bike_id": "5852314050c16b9018eaae1627214b7e", "rental_uris": {"ios": "https://dc.lft.to/lastmile_qr_scan", "android": "https://dc.lft.to/lastmile_qr_scan"}, "fusion_lon": 0.0, "lon": -77.03925716666667, "name": "5852314050c16b9018eaae1627214b7e", "is_reserved": 0, "is_disabled": 0}, {"lat": 38.871896666666665, "fusion_lat": 0.0, "type": "electric_scooter", "bike_id": "ade66e7645b07141dbdfdd057939e226", "rental_uris": {"ios": "https://dc.lft.to/lastmile_qr_scan", "android": "https://dc.lft.to/lastmile_qr_scan"}, "fusion_lon": 0.0, "lon": -77.00642866666666, "name": "ade66e7645b07141dbdfdd057939e226", "is_reserved": 0, "is_disabled": 0}, {"lat": 38.89348283333333, "fusion_lat": 0.0, "type": "electric_bike", "bike_id": "5096f687a7b47217201eb0d3b2af0f93", "rental_uris": {"ios": "https://dc.lft.to/lastmile_qr_scan", "android": "https://dc.lft.to/lastmile_qr_scan"}, "fusion_lon": 0.0, "lon": -76.992603, "name": "5096f687a7b47217201eb0d3b2af0f93", "is_reserved": 0, "is_disabled": 0}, {"lat": 38.892207166666665, "fusion_lat": 0.0, "type": "electric_scooter", "bike_id": "1a6e96419e6406fc8e8a3de4fc34b2e7", "rental_uris": {"ios": "https://dc.lft.to/lastmile_qr_scan", "android": "https://dc.lft.to/lastmile_qr_scan"}, "fusion_lon": 0.0, "lon": -77.044696, "name": "1a6e96419e6406fc8e8a3de4fc34b2e7", "is_reserved": 0, "is_disabled": 0}, {"lat": 38.907381, "fusion_lat": 0.0, "type": "electric_scooter", "bike_id": "7f68f4b2cec84a39afc4bc472e529550", "rental_uris": {"ios": "https://dc.lft.to/lastmile_qr_scan", "android": "https://dc.lft.to/lastmile_qr_scan"}, "fusion_lon": 0.0, "lon": -77.000569, "name": "7f68f4b2cec84a39afc4bc472e529550", "is_reserved": 0, "is_disabled": 0}, {"lat": 38.9098715, "fusion_lat": 0.0, "type": "electric_scooter", "bike_id": "8d21a1c2b2b76e32a3b1b9308458a4ca", "rental_uris": {"ios": "https://dc.lft.to/lastmile_qr_scan", "android": "https://dc.lft.to/lastmile_qr_scan"}, "fusion_lon": 0.0, "lon": -77.03400366666666, "name": "8d21a1c2b2b76e32a3b1b9308458a4ca", "is_reserved": 0, "is_disabled": 0}, {"lat": 38.88731416666667, "fusion_lat": 0.0, "type": "electric_scooter", "bike_id": "e53544bcf0d2e4516b6d66ba67c8786a", "rental_uris": {"ios": "https://dc.lft.to/lastmile_qr_scan", "android": "https://dc.lft.to/lastmile_qr_scan"}, "fusion_lon": 0.0, "lon": -77.03189166666667, "name": "e53544bcf0d2e4516b6d66ba67c8786a", "is_reserved": 0, "is_disabled": 0}, {"lat": 38.907801166666665, "fusion_lat": 0.0, "type": "electric_scooter", "bike_id": "bcaae50f304da5dae5c2faa63ee52546", "rental_uris": {"ios": "https://dc.lft.to/lastmile_qr_scan", "android": "https://dc.lft.to/lastmile_qr_scan"}, "fusion_lon": 0.0, "lon": -77.035282, "name": "bcaae50f304da5dae5c2faa63ee52546", "is_reserved": 0, "is_disabled": 0}, {"lat": 38.90308116666667, "fusion_lat": 0.0, "type": "electric_scooter", "bike_id": "a05c2ef30879c7c65552cc4451c6faac", "rental_uris": {"ios": "https://dc.lft.to/lastmile_qr_scan", "android": "https://dc.lft.to/lastmile_qr_scan"}, "fusion_lon": 0.0, "lon": -77.01635883333333, "name": "a05c2ef30879c7c65552cc4451c6faac", "is_reserved": 0, "is_disabled": 0}, {"lat": 38.887718166666666, "fusion_lat": 0.0, "type": "electric_scooter", "bike_id": "ab20920ed9e9d319747864b5a72e52d6", "rental_uris": {"ios": "https://dc.lft.to/lastmile_qr_scan", "android": "https://dc.lft.to/lastmile_qr_scan"}, "fusion_lon": 0.0, "lon": -77.02843133333333, "name": "ab20920ed9e9d319747864b5a72e52d6", "is_reserved": 0, "is_disabled": 0}, {"lat": 38.926404, "fusion_lat": 0.0, "type": "electric_scooter", "bike_id": "2e70ae374b87dc40ecfa2d3a13b1ce76", "rental_uris": {"ios": "https://dc.lft.to/lastmile_qr_scan", "android": "https://dc.lft.to/lastmile_qr_scan"}, "fusion_lon": 0.0, "lon": -77.02162366666667, "name": "2e70ae374b87dc40ecfa2d3a13b1ce76", "is_reserved": 0, "is_disabled": 0}, {"lat": 38.9081285, "fusion_lat": 0.0, "type": "electric_scooter", "bike_id": "bffcafabe939919c0911ce4273f90af2", "rental_uris": {"ios": "https://dc.lft.to/lastmile_qr_scan", "android": "https://dc.lft.to/lastmile_qr_scan"}, "fusion_lon": 0.0, "lon": -77.04352233333333, "name": "bffcafabe939919c0911ce4273f90af2", "is_reserved": 0, "is_disabled": 0}, {"lat": 38.84289533333333, "fusion_lat": 0.0, "type": "electric_bike", "bike_id": "30f1582d93d4fcf855bede376e12551f", "rental_uris": {"ios": "https://dc.lft.to/lastmile_qr_scan", "android": "https://dc.lft.to/lastmile_qr_scan"}, "fusion_lon": 0.0, "lon": -77.07531433333334, "name": "30f1582d93d4fcf855bede376e12551f", "is_reserved": 0, "is_disabled": 0}, {"lat": 38.897565, "fusion_lat": 0.0, "type": "electric_scooter", "bike_id": "88fb877d962cab342a196028a2e4fb7f", "rental_uris": {"ios": "https://dc.lft.to/lastmile_qr_scan", "android": "https://dc.lft.to/lastmile_qr_scan"}, "fusion_lon": 0.0, "lon": -77.04346666666666, "name": "88fb877d962cab342a196028a2e4fb7f", "is_reserved": 0, "is_disabled": 0}, {"lat": 38.917488666666664, "fusion_lat": 0.0, "type": "electric_scooter", "bike_id": "d9701d798f41f5d1351dccc381ec2e96", "rental_uris": {"ios": "https://dc.lft.to/lastmile_qr_scan", "android": "https://dc.lft.to/lastmile_qr_scan"}, "fusion_lon": 0.0, "lon": -77.03190316666667, "name": "d9701d798f41f5d1351dccc381ec2e96", "is_reserved": 0, "is_disabled": 0}, {"lat": 38.963989166666664, "fusion_lat": 0.0, "type": "electric_scooter", "bike_id": "dea38466edea12c62e4a562ed0c1aeb6", "rental_uris": {"ios": "https://dc.lft.to/lastmile_qr_scan", "android": "https://dc.lft.to/lastmile_qr_scan"}, "fusion_lon": 0.0, "lon": -77.02594516666667, "name": "dea38466edea12c62e4a562ed0c1aeb6", "is_reserved": 0, "is_disabled": 0}, {"lat": 38.89716166666667, "fusion_lat": 0.0, "type": "electric_scooter", "bike_id": "498a6ff233cca32ee21c645e37d68070", "rental_uris": {"ios": "https://dc.lft.to/lastmile_qr_scan", "android": "https://dc.lft.to/lastmile_qr_scan"}, "fusion_lon": 0.0, "lon": -77.02788966666667, "name": "498a6ff233cca32ee21c645e37d68070", "is_reserved": 0, "is_disabled": 0}, {"lat": 38.96139933333333, "fusion_lat": 0.0, "type": "electric_scooter", "bike_id": "7ae872da27b45e1c0e4ceff077955d36", "rental_uris": {"ios": "https://dc.lft.to/lastmile_qr_scan", "android": "https://dc.lft.to/lastmile_qr_scan"}, "fusion_lon": 0.0, "lon": -77.02799233333333, "name": "7ae872da27b45e1c0e4ceff077955d36", "is_reserved": 0, "is_disabled": 0}, {"lat": 38.899365333333336, "fusion_lat": 0.0, "type": "electric_scooter", "bike_id": "b3e3690cd81d28b16acf81d1ca8481e9", "rental_uris": {"ios": "https://dc.lft.to/lastmile_qr_scan", "android": "https://dc.lft.to/lastmile_qr_scan"}, "fusion_lon": 0.0, "lon": -77.012753, "name": "b3e3690cd81d28b16acf81d1ca8481e9", "is_reserved": 0, "is_disabled": 0}, {"lat": 38.89635216666667, "fusion_lat": 0.0, "type": "electric_scooter", "bike_id": "cfe140e66de9cf0aebb0a79f577ac84a", "rental_uris": {"ios": "https://dc.lft.to/lastmile_qr_scan", "android": "https://dc.lft.to/lastmile_qr_scan"}, "fusion_lon": 0.0, "lon": -77.02960383333334, "name": "cfe140e66de9cf0aebb0a79f577ac84a", "is_reserved": 0, "is_disabled": 0}, {"lat": 38.92829366666667, "fusion_lat": 0.0, "type": "electric_scooter", "bike_id": "1c09c25c96363a9736ffc61109b116f1", "rental_uris": {"ios": "https://dc.lft.to/lastmile_qr_scan", "android": "https://dc.lft.to/lastmile_qr_scan"}, "fusion_lon": 0.0, "lon": -77.037202, "name": "1c09c25c96363a9736ffc61109b116f1", "is_reserved": 0, "is_disabled": 0}, {"lat": 38.917736166666664, "fusion_lat": 0.0, "type": "electric_bike", "bike_id": "01c21004b665f0141d2722203842be88", "rental_uris": {"ios": "https://dc.lft.to/lastmile_qr_scan", "android": "https://dc.lft.to/lastmile_qr_scan"}, "fusion_lon": 0.0, "lon": -77.02303066666667, "name": "01c21004b665f0141d2722203842be88", "is_reserved": 0, "is_disabled": 0}, {"lat": 38.897042, "fusion_lat": 0.0, "type": "electric_scooter", "bike_id": "93e2c9cc5099f54d19be17194891189a", "rental_uris": {"ios": "https://dc.lft.to/lastmile_qr_scan", "android": "https://dc.lft.to/lastmile_qr_scan"}, "fusion_lon": 0.0, "lon": -76.93575866666667, "name": "93e2c9cc5099f54d19be17194891189a", "is_reserved": 0, "is_disabled": 0}, {"lat": 38.9345845, "fusion_lat": 0.0, "type": "electric_scooter", "bike_id": "10294352f8e58e1ec27bacfcc559d1cf", "rental_uris": {"ios": "https://dc.lft.to/lastmile_qr_scan", "android": "https://dc.lft.to/lastmile_qr_scan"}, "fusion_lon": 0.0, "lon": -77.02915133333333, "name": "10294352f8e58e1ec27bacfcc559d1cf", "is_reserved": 0, "is_disabled": 0}, {"lat": 38.87660616666667, "fusion_lat": 0.0, "type": "electric_scooter", "bike_id": "8b0a58f358d1949039c3692c77933f80", "rental_uris": {"ios": "https://dc.lft.to/lastmile_qr_scan", "android": "https://dc.lft.to/lastmile_qr_scan"}, "fusion_lon": 0.0, "lon": -77.00072916666667, "name": "8b0a58f358d1949039c3692c77933f80", "is_reserved": 0, "is_disabled": 0}, {"lat": 38.89962533333333, "fusion_lat": 0.0, "type": "electric_scooter", "bike_id": "fd4a95e3778c73fe6cb16755a6f6203e", "rental_uris": {"ios": "https://dc.lft.to/lastmile_qr_scan", "android": "https://dc.lft.to/lastmile_qr_scan"}, "fusion_lon": 0.0, "lon": -77.0252315, "name": "fd4a95e3778c73fe6cb16755a6f6203e", "is_reserved": 0, "is_disabled": 0}, {"lat": 38.918904, "fusion_lat": 0.0, "type": "electric_scooter", "bike_id": "f949f03039cfad7d91a11efd72c0a855", "rental_uris": {"ios": "https://dc.lft.to/lastmile_qr_scan", "android": "https://dc.lft.to/lastmile_qr_scan"}, "fusion_lon": 0.0, "lon": -77.01219283333333, "name": "f949f03039cfad7d91a11efd72c0a855", "is_reserved": 0, "is_disabled": 0}, {"lat": 38.91265883333333, "fusion_lat": 0.0, "type": "electric_scooter", "bike_id": "fc6598d72c3e34a3936bad3d15979a0d", "rental_uris": {"ios": "https://dc.lft.to/lastmile_qr_scan", "android": "https://dc.lft.to/lastmile_qr_scan"}, "fusion_lon": 0.0, "lon": -77.07433183333333, "name": "fc6598d72c3e34a3936bad3d15979a0d", "is_reserved": 0, "is_disabled": 0}, {"lat": 38.91599133333333, "fusion_lat": 0.0, "type": "electric_scooter", "bike_id": "b65c02860fd8f9e1f2bae58256828606", "rental_uris": {"ios": "https://dc.lft.to/lastmile_qr_scan", "android": "https://dc.lft.to/lastmile_qr_scan"}, "fusion_lon": 0.0, "lon": -77.03203516666666, "name": "b65c02860fd8f9e1f2bae58256828606", "is_reserved": 0, "is_disabled": 0}, {"lat": 38.980434, "fusion_lat": 0.0, "type": "electric_bike", "bike_id": "e16f0a116b61e83e8d91dbfdc6332185", "rental_uris": {"ios": "https://dc.lft.to/lastmile_qr_scan", "android": "https://dc.lft.to/lastmile_qr_scan"}, "fusion_lon": 0.0, "lon": -76.95801183333333, "name": "e16f0a116b61e83e8d91dbfdc6332185", "is_reserved": 0, "is_disabled": 0}, {"lat": 38.9202625, "fusion_lat": 0.0, "type": "electric_scooter", "bike_id": "5c85ed34f26121401bbe36cf16f2c99a", "rental_uris": {"ios": "https://dc.lft.to/lastmile_qr_scan", "android": "https://dc.lft.to/lastmile_qr_scan"}, "fusion_lon": 0.0, "lon": -77.0386535, "name": "5c85ed34f26121401bbe36cf16f2c99a", "is_reserved": 0, "is_disabled": 0}, {"lat": 38.91547033333333, "fusion_lat": 0.0, "type": "electric_scooter", "bike_id": "e080ef63f13dca3abfa2abbf212b0323", "rental_uris": {"ios": "https://dc.lft.to/lastmile_qr_scan", "android": "https://dc.lft.to/lastmile_qr_scan"}, "fusion_lon": 0.0, "lon": -77.019764, "name": "e080ef63f13dca3abfa2abbf212b0323", "is_reserved": 0, "is_disabled": 0}, {"lat": 38.91477716666667, "fusion_lat": 0.0, "type": "electric_scooter", "bike_id": "860ee489c6abb7c52eff963b8e4e0294", "rental_uris": {"ios": "https://dc.lft.to/lastmile_qr_scan", "android": "https://dc.lft.to/lastmile_qr_scan"}, "fusion_lon": 0.0, "lon": -77.0245915, "name": "860ee489c6abb7c52eff963b8e4e0294", "is_reserved": 0, "is_disabled": 0}, {"lat": 38.924503, "fusion_lat": 0.0, "type": "electric_scooter", "bike_id": "b20ae8d30f97968a9cdabfcfd1ba1ed6", "rental_uris": {"ios": "https://dc.lft.to/lastmile_qr_scan", "android": "https://dc.lft.to/lastmile_qr_scan"}, "fusion_lon": 0.0, "lon": -77.0202235, "name": "b20ae8d30f97968a9cdabfcfd1ba1ed6", "is_reserved": 0, "is_disabled": 0}, {"lat": 38.9055195, "fusion_lat": 0.0, "type": "electric_scooter", "bike_id": "c09648a2f33d48b070cea010dc63f41e", "rental_uris": {"ios": "https://dc.lft.to/lastmile_qr_scan", "android": "https://dc.lft.to/lastmile_qr_scan"}, "fusion_lon": 0.0, "lon": -76.994741, "name": "c09648a2f33d48b070cea010dc63f41e", "is_reserved": 0, "is_disabled": 0}, {"lat": 38.883846166666665, "fusion_lat": 0.0, "type": "electric_scooter", "bike_id": "e0928a633cc9372038c3e292ad70413a", "rental_uris": {"ios": "https://dc.lft.to/lastmile_qr_scan", "android": "https://dc.lft.to/lastmile_qr_scan"}, "fusion_lon": 0.0, "lon": -76.99553266666666, "name": "e0928a633cc9372038c3e292ad70413a", "is_reserved": 0, "is_disabled": 0}, {"lat": 38.907093833333334, "fusion_lat": 0.0, "type": "electric_scooter", "bike_id": "75be7255f609047e57a41f418507d498", "rental_uris": {"ios": "https://dc.lft.to/lastmile_qr_scan", "android": "https://dc.lft.to/lastmile_qr_scan"}, "fusion_lon": 0.0, "lon": -76.9870105, "name": "75be7255f609047e57a41f418507d498", "is_reserved": 0, "is_disabled": 0}, {"lat": 38.89226983333333, "fusion_lat": 0.0, "type": "electric_scooter", "bike_id": "5a83ea1df6128fb6f3dd9d874bd3a751", "rental_uris": {"ios": "https://dc.lft.to/lastmile_qr_scan", "android": "https://dc.lft.to/lastmile_qr_scan"}, "fusion_lon": 0.0, "lon": -77.02655366666667, "name": "5a83ea1df6128fb6f3dd9d874bd3a751", "is_reserved": 0, "is_disabled": 0}, {"lat": 38.900711666666666, "fusion_lat": 0.0, "type": "electric_scooter", "bike_id": "1a79187ee2b87b2c5315cfe49c74ab10", "rental_uris": {"ios": "https://dc.lft.to/lastmile_qr_scan", "android": "https://dc.lft.to/lastmile_qr_scan"}, "fusion_lon": 0.0, "lon": -77.0171255, "name": "1a79187ee2b87b2c5315cfe49c74ab10", "is_reserved": 0, "is_disabled": 0}, {"lat": 38.92092066666667, "fusion_lat": 0.0, "type": "electric_scooter", "bike_id": "081d452deef5f98ca4c258c23590e4ed", "rental_uris": {"ios": "https://dc.lft.to/lastmile_qr_scan", "android": "https://dc.lft.to/lastmile_qr_scan"}, "fusion_lon": 0.0, "lon": -77.0755835, "name": "081d452deef5f98ca4c258c23590e4ed", "is_reserved": 0, "is_disabled": 0}, {"lat": 38.900665000000004, "fusion_lat": 0.0, "type": "electric_scooter", "bike_id": "84fd4bcbe1067ac619f259bb55f8abb0", "rental_uris": {"ios": "https://dc.lft.to/lastmile_qr_scan", "android": "https://dc.lft.to/lastmile_qr_scan"}, "fusion_lon": 0.0, "lon": -77.04609116666667, "name": "84fd4bcbe1067ac619f259bb55f8abb0", "is_reserved": 0, "is_disabled": 0}, {"lat": 38.9022755, "fusion_lat": 0.0, "type": "electric_scooter", "bike_id": "493ff61d30cdd16fec51d9c17f21eff9", "rental_uris": {"ios": "https://dc.lft.to/lastmile_qr_scan", "android": "https://dc.lft.to/lastmile_qr_scan"}, "fusion_lon": 0.0, "lon": -76.94200366666666, "name": "493ff61d30cdd16fec51d9c17f21eff9", "is_reserved": 0, "is_disabled": 0}, {"lat": 38.915142333333336, "fusion_lat": 0.0, "type": "electric_scooter", "bike_id": "0b9953670bddc111cff4f1e7da55b947", "rental_uris": {"ios": "https://dc.lft.to/lastmile_qr_scan", "android": "https://dc.lft.to/lastmile_qr_scan"}, "fusion_lon": 0.0, "lon": -77.01906116666666, "name": "0b9953670bddc111cff4f1e7da55b947", "is_reserved": 0, "is_disabled": 0}, {"lat": 38.88600316666667, "fusion_lat": 0.0, "type": "electric_scooter", "bike_id": "815f260cb025bc4f95aac33570574b2c", "rental_uris": {"ios": "https://dc.lft.to/lastmile_qr_scan", "android": "https://dc.lft.to/lastmile_qr_scan"}, "fusion_lon": 0.0, "lon": -77.0218805, "name": "815f260cb025bc4f95aac33570574b2c", "is_reserved": 0, "is_disabled": 0}, {"lat": 38.9233485, "fusion_lat": 0.0, "type": "electric_scooter", "bike_id": "4268f4568ffd2bd726cbf789434cd88f", "rental_uris": {"ios": "https://dc.lft.to/lastmile_qr_scan", "android": "https://dc.lft.to/lastmile_qr_scan"}, "fusion_lon": 0.0, "lon": -77.056845, "name": "4268f4568ffd2bd726cbf789434cd88f", "is_reserved": 0, "is_disabled": 0}, {"lat": 38.906108, "fusion_lat": 0.0, "type": "electric_scooter", "bike_id": "834e764401d75801cf97011df5938861", "rental_uris": {"ios": "https://dc.lft.to/lastmile_qr_scan", "android": "https://dc.lft.to/lastmile_qr_scan"}, "fusion_lon": 0.0, "lon": -77.0398195, "name": "834e764401d75801cf97011df5938861", "is_reserved": 0, "is_disabled": 0}, {"lat": 38.93581066666667, "fusion_lat": 0.0, "type": "electric_scooter", "bike_id": "78459a3bac53ee86c76beaf4cee47181", "rental_uris": {"ios": "https://dc.lft.to/lastmile_qr_scan", "android": "https://dc.lft.to/lastmile_qr_scan"}, "fusion_lon": 0.0, "lon": -77.02131766666666, "name": "78459a3bac53ee86c76beaf4cee47181", "is_reserved": 0, "is_disabled": 0}, {"lat": 38.908112, "fusion_lat": 0.0, "type": "electric_scooter", "bike_id": "551b65ca72e9fa95427791099282f19b", "rental_uris": {"ios": "https://dc.lft.to/lastmile_qr_scan", "android": "https://dc.lft.to/lastmile_qr_scan"}, "fusion_lon": 0.0, "lon": -77.033951, "name": "551b65ca72e9fa95427791099282f19b", "is_reserved": 0, "is_disabled": 0}, {"lat": 38.904107833333335, "fusion_lat": 0.0, "type": "electric_scooter", "bike_id": "fe40c5578fbee71cbc1c000b5523a75d", "rental_uris": {"ios": "https://dc.lft.to/lastmile_qr_scan", "android": "https://dc.lft.to/lastmile_qr_scan"}, "fusion_lon": 0.0, "lon": -76.97329983333333, "name": "fe40c5578fbee71cbc1c000b5523a75d", "is_reserved": 0, "is_disabled": 0}, {"lat": 38.92462966666667, "fusion_lat": 0.0, "type": "electric_scooter", "bike_id": "296d551cdc9acc49b02682ecf7840a17", "rental_uris": {"ios": "https://dc.lft.to/lastmile_qr_scan", "android": "https://dc.lft.to/lastmile_qr_scan"}, "fusion_lon": 0.0, "lon": -77.02242616666666, "name": "296d551cdc9acc49b02682ecf7840a17", "is_reserved": 0, "is_disabled": 0}, {"lat": 38.91679833333333, "fusion_lat": 0.0, "type": "electric_scooter", "bike_id": "9fa37af0008fce7e049acba7cde5494c", "rental_uris": {"ios": "https://dc.lft.to/lastmile_qr_scan", "android": "https://dc.lft.to/lastmile_qr_scan"}, "fusion_lon": 0.0, "lon": -77.02410733333333, "name": "9fa37af0008fce7e049acba7cde5494c", "is_reserved": 0, "is_disabled": 0}, {"lat": 38.88345233333333, "fusion_lat": 0.0, "type": "electric_scooter", "bike_id": "702bf9e69d9f7ecc46ec3d5531acb550", "rental_uris": {"ios": "https://dc.lft.to/lastmile_qr_scan", "android": "https://dc.lft.to/lastmile_qr_scan"}, "fusion_lon": 0.0, "lon": -76.9350495, "name": "702bf9e69d9f7ecc46ec3d5531acb550", "is_reserved": 0, "is_disabled": 0}, {"lat": 38.932924, "fusion_lat": 0.0, "type": "electric_scooter", "bike_id": "72425cad9ccb79039c11a28a7f731be9", "rental_uris": {"ios": "https://dc.lft.to/lastmile_qr_scan", "android": "https://dc.lft.to/lastmile_qr_scan"}, "fusion_lon": 0.0, "lon": -77.02828783333334, "name": "72425cad9ccb79039c11a28a7f731be9", "is_reserved": 0, "is_disabled": 0}, {"lat": 38.917960666666666, "fusion_lat": 0.0, "type": "electric_scooter", "bike_id": "f80a978f22348a3b6b7165f53c6b3a71", "rental_uris": {"ios": "https://dc.lft.to/lastmile_qr_scan", "android": "https://dc.lft.to/lastmile_qr_scan"}, "fusion_lon": 0.0, "lon": -77.02283033333333, "name": "f80a978f22348a3b6b7165f53c6b3a71", "is_reserved": 0, "is_disabled": 0}, {"lat": 38.84344933333333, "fusion_lat": 0.0, "type": "electric_scooter", "bike_id": "4442c40572ac790c42d55ed5ff56af9b", "rental_uris": {"ios": "https://dc.lft.to/lastmile_qr_scan", "android": "https://dc.lft.to/lastmile_qr_scan"}, "fusion_lon": 0.0, "lon": -76.99913566666666, "name": "4442c40572ac790c42d55ed5ff56af9b", "is_reserved": 0, "is_disabled": 0}, {"lat": 38.91123983333333, "fusion_lat": 0.0, "type": "electric_scooter", "bike_id": "8351ce4312ad6fefe654df33d45dcea2", "rental_uris": {"ios": "https://dc.lft.to/lastmile_qr_scan", "android": "https://dc.lft.to/lastmile_qr_scan"}, "fusion_lon": 0.0, "lon": -77.04536216666666, "name": "8351ce4312ad6fefe654df33d45dcea2", "is_reserved": 0, "is_disabled": 0}, {"lat": 38.92229566666666, "fusion_lat": 0.0, "type": "electric_scooter", "bike_id": "8f13b03ec46ec03f6b6a0bba39129822", "rental_uris": {"ios": "https://dc.lft.to/lastmile_qr_scan", "android": "https://dc.lft.to/lastmile_qr_scan"}, "fusion_lon": 0.0, "lon": -77.02211383333334, "name": "8f13b03ec46ec03f6b6a0bba39129822", "is_reserved": 0, "is_disabled": 0}, {"lat": 38.904304, "fusion_lat": 0.0, "type": "electric_scooter", "bike_id": "021fab5fe7bc76d936c5b27e6395ee7d", "rental_uris": {"ios": "https://dc.lft.to/lastmile_qr_scan", "android": "https://dc.lft.to/lastmile_qr_scan"}, "fusion_lon": 0.0, "lon": -76.9994625, "name": "021fab5fe7bc76d936c5b27e6395ee7d", "is_reserved": 0, "is_disabled": 0}, {"lat": 38.918237166666664, "fusion_lat": 0.0, "type": "electric_scooter", "bike_id": "a8bdba37e2da5caeffd65a94458f1112", "rental_uris": {"ios": "https://dc.lft.to/lastmile_qr_scan", "android": "https://dc.lft.to/lastmile_qr_scan"}, "fusion_lon": 0.0, "lon": -77.024204, "name": "a8bdba37e2da5caeffd65a94458f1112", "is_reserved": 0, "is_disabled": 0}, {"lat": 38.84407383333333, "fusion_lat": 0.0, "type": "electric_scooter", "bike_id": "aac87aef650317de0be2a85f7b7c5ffc", "rental_uris": {"ios": "https://dc.lft.to/lastmile_qr_scan", "android": "https://dc.lft.to/lastmile_qr_scan"}, "fusion_lon": 0.0, "lon": -76.99150083333333, "name": "aac87aef650317de0be2a85f7b7c5ffc", "is_reserved": 0, "is_disabled": 0}, {"lat": 38.918748, "fusion_lat": 0.0, "type": "electric_scooter", "bike_id": "2b441afd8c7336116d62e75c9786b337", "rental_uris": {"ios": "https://dc.lft.to/lastmile_qr_scan", "android": "https://dc.lft.to/lastmile_qr_scan"}, "fusion_lon": 0.0, "lon": -77.04192816666666, "name": "2b441afd8c7336116d62e75c9786b337", "is_reserved": 0, "is_disabled": 0}, {"lat": 38.93439716666666, "fusion_lat": 0.0, "type": "electric_scooter", "bike_id": "b5de623afcfc0243a161777cbe0bd74d", "rental_uris": {"ios": "https://dc.lft.to/lastmile_qr_scan", "android": "https://dc.lft.to/lastmile_qr_scan"}, "fusion_lon": 0.0, "lon": -77.02107183333334, "name": "b5de623afcfc0243a161777cbe0bd74d", "is_reserved": 0, "is_disabled": 0}, {"lat": 38.921760666666664, "fusion_lat": 0.0, "type": "electric_scooter", "bike_id": "9fd4f24e28df7dafe185fb2ae127b2fe", "rental_uris": {"ios": "https://dc.lft.to/lastmile_qr_scan", "android": "https://dc.lft.to/lastmile_qr_scan"}, "fusion_lon": 0.0, "lon": -77.04230966666667, "name": "9fd4f24e28df7dafe185fb2ae127b2fe", "is_reserved": 0, "is_disabled": 0}, {"lat": 38.8922145, "fusion_lat": 0.0, "type": "electric_scooter", "bike_id": "8670a6ea4c6b8f81d8e73fd952f379cb", "rental_uris": {"ios": "https://dc.lft.to/lastmile_qr_scan", "android": "https://dc.lft.to/lastmile_qr_scan"}, "fusion_lon": 0.0, "lon": -77.02664783333333, "name": "8670a6ea4c6b8f81d8e73fd952f379cb", "is_reserved": 0, "is_disabled": 0}, {"lat": 38.9061, "fusion_lat": 0.0, "type": "electric_scooter", "bike_id": "5db4b3a2e0d3a86dc8392eb25edd6245", "rental_uris": {"ios": "https://dc.lft.to/lastmile_qr_scan", "android": "https://dc.lft.to/lastmile_qr_scan"}, "fusion_lon": 0.0, "lon": -77.06380083333333, "name": "5db4b3a2e0d3a86dc8392eb25edd6245", "is_reserved": 0, "is_disabled": 0}, {"lat": 38.9259245, "fusion_lat": 0.0, "type": "electric_bike", "bike_id": "70716914452de34bd4ec0950adc01397", "rental_uris": {"ios": "https://dc.lft.to/lastmile_qr_scan", "android": "https://dc.lft.to/lastmile_qr_scan"}, "fusion_lon": 0.0, "lon": -77.21010916666667, "name": "70716914452de34bd4ec0950adc01397", "is_reserved": 0, "is_disabled": 0}, {"lat": 38.92441733333333, "fusion_lat": 0.0, "type": "electric_scooter", "bike_id": "c7c6f4dd5073198ff8c20047ca60343e", "rental_uris": {"ios": "https://dc.lft.to/lastmile_qr_scan", "android": "https://dc.lft.to/lastmile_qr_scan"}, "fusion_lon": 0.0, "lon": -77.02035383333333, "name": "c7c6f4dd5073198ff8c20047ca60343e", "is_reserved": 0, "is_disabled": 0}, {"lat": 38.892241, "fusion_lat": 0.0, "type": "electric_scooter", "bike_id": "093e795676faa3b0d2a6b2805abe5339", "rental_uris": {"ios": "https://dc.lft.to/lastmile_qr_scan", "android": "https://dc.lft.to/lastmile_qr_scan"}, "fusion_lon": 0.0, "lon": -77.04204033333333, "name": "093e795676faa3b0d2a6b2805abe5339", "is_reserved": 0, "is_disabled": 0}, {"lat": 38.9271845, "fusion_lat": 0.0, "type": "electric_scooter", "bike_id": "cae1e12932eb76a304e672853a1184fe", "rental_uris": {"ios": "https://dc.lft.to/lastmile_qr_scan", "android": "https://dc.lft.to/lastmile_qr_scan"}, "fusion_lon": 0.0, "lon": -77.02097083333334, "name": "cae1e12932eb76a304e672853a1184fe", "is_reserved": 0, "is_disabled": 0}, {"lat": 38.871644833333335, "fusion_lat": 0.0, "type": "electric_scooter", "bike_id": "3738012c322d75fcf759ccb2f60f3911", "rental_uris": {"ios": "https://dc.lft.to/lastmile_qr_scan", "android": "https://dc.lft.to/lastmile_qr_scan"}, "fusion_lon": 0.0, "lon": -77.01351333333334, "name": "3738012c322d75fcf759ccb2f60f3911", "is_reserved": 0, "is_disabled": 0}, {"lat": 38.827880666666665, "fusion_lat": 0.0, "type": "electric_bike", "bike_id": "1e909d1473fcb94e6d2717db740204a8", "rental_uris": {"ios": "https://dc.lft.to/lastmile_qr_scan", "android": "https://dc.lft.to/lastmile_qr_scan"}, "fusion_lon": 0.0, "lon": -77.1248415, "name": "1e909d1473fcb94e6d2717db740204a8", "is_reserved": 0, "is_disabled": 0}, {"lat": 38.903928, "fusion_lat": 0.0, "type": "electric_scooter", "bike_id": "42b9e502caa5ee19880dfe2c068523dc", "rental_uris": {"ios": "https://dc.lft.to/lastmile_qr_scan", "android": "https://dc.lft.to/lastmile_qr_scan"}, "fusion_lon": 0.0, "lon": -77.00574783333333, "name": "42b9e502caa5ee19880dfe2c068523dc", "is_reserved": 0, "is_disabled": 0}, {"lat": 38.93844933333333, "fusion_lat": 0.0, "type": "electric_scooter", "bike_id": "34d73413cc658027822cc34142490639", "rental_uris": {"ios": "https://dc.lft.to/lastmile_qr_scan", "android": "https://dc.lft.to/lastmile_qr_scan"}, "fusion_lon": 0.0, "lon": -77.033968, "name": "34d73413cc658027822cc34142490639", "is_reserved": 0, "is_disabled": 0}, {"lat": 38.91510616666667, "fusion_lat": 0.0, "type": "electric_scooter", "bike_id": "45dfaa62ae5e7d95abd60a2986f157fb", "rental_uris": {"ios": "https://dc.lft.to/lastmile_qr_scan", "android": "https://dc.lft.to/lastmile_qr_scan"}, "fusion_lon": 0.0, "lon": -77.01581283333333, "name": "45dfaa62ae5e7d95abd60a2986f157fb", "is_reserved": 0, "is_disabled": 0}, {"lat": 38.90043216666667, "fusion_lat": 0.0, "type": "electric_scooter", "bike_id": "ac73677744b284726a94decee31164f1", "rental_uris": {"ios": "https://dc.lft.to/lastmile_qr_scan", "android": "https://dc.lft.to/lastmile_qr_scan"}, "fusion_lon": 0.0, "lon": -77.0019985, "name": "ac73677744b284726a94decee31164f1", "is_reserved": 0, "is_disabled": 0}, {"lat": 38.8831485, "fusion_lat": 0.0, "type": "electric_bike", "bike_id": "864c2e5ee86f937f17998ef54d9e9e9c", "rental_uris": {"ios": "https://dc.lft.to/lastmile_qr_scan", "android": "https://dc.lft.to/lastmile_qr_scan"}, "fusion_lon": 0.0, "lon": -77.10663733333334, "name": "864c2e5ee86f937f17998ef54d9e9e9c", "is_reserved": 0, "is_disabled": 0}, {"lat": 38.92268, "fusion_lat": 0.0, "type": "electric_scooter", "bike_id": "938cfd6f27df8204b7bc7201e3aa2d3e", "rental_uris": {"ios": "https://dc.lft.to/lastmile_qr_scan", "android": "https://dc.lft.to/lastmile_qr_scan"}, "fusion_lon": 0.0, "lon": -77.0819185, "name": "938cfd6f27df8204b7bc7201e3aa2d3e", "is_reserved": 0, "is_disabled": 0}, {"lat": 38.926296, "fusion_lat": 0.0, "type": "electric_scooter", "bike_id": "831185e1185735a36c095b93b8d30ba3", "rental_uris": {"ios": "https://dc.lft.to/lastmile_qr_scan", "android": "https://dc.lft.to/lastmile_qr_scan"}, "fusion_lon": 0.0, "lon": -77.03523466666667, "name": "831185e1185735a36c095b93b8d30ba3", "is_reserved": 0, "is_disabled": 0}, {"lat": 38.91900616666667, "fusion_lat": 0.0, "type": "electric_scooter", "bike_id": "8e0b9d11e45191514261871fb3895165", "rental_uris": {"ios": "https://dc.lft.to/lastmile_qr_scan", "android": "https://dc.lft.to/lastmile_qr_scan"}, "fusion_lon": 0.0, "lon": -77.02455566666667, "name": "8e0b9d11e45191514261871fb3895165", "is_reserved": 0, "is_disabled": 0}, {"lat": 38.8872445, "fusion_lat": 0.0, "type": "electric_scooter", "bike_id": "38974aa561a7855efd5df288d7b5ff36", "rental_uris": {"ios": "https://dc.lft.to/lastmile_qr_scan", "android": "https://dc.lft.to/lastmile_qr_scan"}, "fusion_lon": 0.0, "lon": -77.0282365, "name": "38974aa561a7855efd5df288d7b5ff36", "is_reserved": 0, "is_disabled": 0}, {"lat": 38.902049166666664, "fusion_lat": 0.0, "type": "electric_scooter", "bike_id": "fa8174747a19bde6be19da7139e1c273", "rental_uris": {"ios": "https://dc.lft.to/lastmile_qr_scan", "android": "https://dc.lft.to/lastmile_qr_scan"}, "fusion_lon": 0.0, "lon": -77.02345966666667, "name": "fa8174747a19bde6be19da7139e1c273", "is_reserved": 0, "is_disabled": 0}, {"lat": 38.877190666666664, "fusion_lat": 0.0, "type": "electric_scooter", "bike_id": "fd2f95b683078e3c1821ce15e50603dc", "rental_uris": {"ios": "https://dc.lft.to/lastmile_qr_scan", "android": "https://dc.lft.to/lastmile_qr_scan"}, "fusion_lon": 0.0, "lon": -77.0184575, "name": "fd2f95b683078e3c1821ce15e50603dc", "is_reserved": 0, "is_disabled": 0}, {"lat": 38.917140333333336, "fusion_lat": 0.0, "type": "electric_scooter", "bike_id": "7bf8631535477ba4c9a3de1a588b72b9", "rental_uris": {"ios": "https://dc.lft.to/lastmile_qr_scan", "android": "https://dc.lft.to/lastmile_qr_scan"}, "fusion_lon": 0.0, "lon": -76.9764795, "name": "7bf8631535477ba4c9a3de1a588b72b9", "is_reserved": 0, "is_disabled": 0}, {"lat": 38.88680133333333, "fusion_lat": 0.0, "type": "electric_scooter", "bike_id": "9c52a91f6138f918fd84af6202afa1b1", "rental_uris": {"ios": "https://dc.lft.to/lastmile_qr_scan", "android": "https://dc.lft.to/lastmile_qr_scan"}, "fusion_lon": 0.0, "lon": -77.0020345, "name": "9c52a91f6138f918fd84af6202afa1b1", "is_reserved": 0, "is_disabled": 0}, {"lat": 38.92105633333333, "fusion_lat": 0.0, "type": "electric_scooter", "bike_id": "21d004ae7a8e3890f3afde4309692cfc", "rental_uris": {"ios": "https://dc.lft.to/lastmile_qr_scan", "android": "https://dc.lft.to/lastmile_qr_scan"}, "fusion_lon": 0.0, "lon": -77.0222165, "name": "21d004ae7a8e3890f3afde4309692cfc", "is_reserved": 0, "is_disabled": 0}, {"lat": 38.902601833333335, "fusion_lat": 0.0, "type": "electric_scooter", "bike_id": "dd6ae0098620872b694b2303a2b7e948", "rental_uris": {"ios": "https://dc.lft.to/lastmile_qr_scan", "android": "https://dc.lft.to/lastmile_qr_scan"}, "fusion_lon": 0.0, "lon": -77.01613916666666, "name": "dd6ae0098620872b694b2303a2b7e948", "is_reserved": 0, "is_disabled": 0}, {"lat": 38.916228, "fusion_lat": 0.0, "type": "electric_scooter", "bike_id": "182052eddc61252927037dccfafad0d1", "rental_uris": {"ios": "https://dc.lft.to/lastmile_qr_scan", "android": "https://dc.lft.to/lastmile_qr_scan"}, "fusion_lon": 0.0, "lon": -77.03209016666666, "name": "182052eddc61252927037dccfafad0d1", "is_reserved": 0, "is_disabled": 0}, {"lat": 38.91123066666667, "fusion_lat": 0.0, "type": "electric_scooter", "bike_id": "3e32bac344336f876c5b243eb983c54f", "rental_uris": {"ios": "https://dc.lft.to/lastmile_qr_scan", "android": "https://dc.lft.to/lastmile_qr_scan"}, "fusion_lon": 0.0, "lon": -77.0448705, "name": "3e32bac344336f876c5b243eb983c54f", "is_reserved": 0, "is_disabled": 0}, {"lat": 38.91823383333333, "fusion_lat": 0.0, "type": "electric_scooter", "bike_id": "75c9af8eb7d4a52d7ca5326f241532bb", "rental_uris": {"ios": "https://dc.lft.to/lastmile_qr_scan", "android": "https://dc.lft.to/lastmile_qr_scan"}, "fusion_lon": 0.0, "lon": -77.02422816666666, "name": "75c9af8eb7d4a52d7ca5326f241532bb", "is_reserved": 0, "is_disabled": 0}, {"lat": 38.93482383333333, "fusion_lat": 0.0, "type": "electric_scooter", "bike_id": "2d85aeca673a8da6d9729885794264cc", "rental_uris": {"ios": "https://dc.lft.to/lastmile_qr_scan", "android": "https://dc.lft.to/lastmile_qr_scan"}, "fusion_lon": 0.0, "lon": -77.07349, "name": "2d85aeca673a8da6d9729885794264cc", "is_reserved": 0, "is_disabled": 0}, {"lat": 38.92720966666667, "fusion_lat": 0.0, "type": "electric_scooter", "bike_id": "5530d9dd13e0c7567a4ca8118634afdf", "rental_uris": {"ios": "https://dc.lft.to/lastmile_qr_scan", "android": "https://dc.lft.to/lastmile_qr_scan"}, "fusion_lon": 0.0, "lon": -77.04201466666666, "name": "5530d9dd13e0c7567a4ca8118634afdf", "is_reserved": 0, "is_disabled": 0}, {"lat": 38.905401833333336, "fusion_lat": 0.0, "type": "electric_scooter", "bike_id": "ae9dcb0c8670c98f55a16ac7ad444786", "rental_uris": {"ios": "https://dc.lft.to/lastmile_qr_scan", "android": "https://dc.lft.to/lastmile_qr_scan"}, "fusion_lon": 0.0, "lon": -77.050324, "name": "ae9dcb0c8670c98f55a16ac7ad444786", "is_reserved": 0, "is_disabled": 0}, {"lat": 38.87105566666666, "fusion_lat": 0.0, "type": "electric_scooter", "bike_id": "de44479d520e172b8626cd2dfcee7579", "rental_uris": {"ios": "https://dc.lft.to/lastmile_qr_scan", "android": "https://dc.lft.to/lastmile_qr_scan"}, "fusion_lon": 0.0, "lon": -76.9657755, "name": "de44479d520e172b8626cd2dfcee7579", "is_reserved": 0, "is_disabled": 0}, {"lat": 38.9106745, "fusion_lat": 0.0, "type": "electric_scooter", "bike_id": "7cc77a1bd7aaeb43fc92e22f9a73dda9", "rental_uris": {"ios": "https://dc.lft.to/lastmile_qr_scan", "android": "https://dc.lft.to/lastmile_qr_scan"}, "fusion_lon": 0.0, "lon": -77.04485366666667, "name": "7cc77a1bd7aaeb43fc92e22f9a73dda9", "is_reserved": 0, "is_disabled": 0}, {"lat": 38.917888, "fusion_lat": 0.0, "type": "electric_scooter", "bike_id": "1ac55b6c42faada81af72b01e227039c", "rental_uris": {"ios": "https://dc.lft.to/lastmile_qr_scan", "android": "https://dc.lft.to/lastmile_qr_scan"}, "fusion_lon": 0.0, "lon": -77.02291216666667, "name": "1ac55b6c42faada81af72b01e227039c", "is_reserved": 0, "is_disabled": 0}, {"lat": 38.90745366666667, "fusion_lat": 0.0, "type": "electric_scooter", "bike_id": "35d746edd9d01bf9d3325786b8b4b244", "rental_uris": {"ios": "https://dc.lft.to/lastmile_qr_scan", "android": "https://dc.lft.to/lastmile_qr_scan"}, "fusion_lon": 0.0, "lon": -77.02802316666667, "name": "35d746edd9d01bf9d3325786b8b4b244", "is_reserved": 0, "is_disabled": 0}, {"lat": 38.916149, "fusion_lat": 0.0, "type": "electric_scooter", "bike_id": "9525f15488a5fd27733bdd6f8db4dae2", "rental_uris": {"ios": "https://dc.lft.to/lastmile_qr_scan", "android": "https://dc.lft.to/lastmile_qr_scan"}, "fusion_lon": 0.0, "lon": -77.0115665, "name": "9525f15488a5fd27733bdd6f8db4dae2", "is_reserved": 0, "is_disabled": 0}, {"lat": 38.8766155, "fusion_lat": 0.0, "type": "electric_scooter", "bike_id": "42c1c68b1871177105e3aaa2cc16f4aa", "rental_uris": {"ios": "https://dc.lft.to/lastmile_qr_scan", "android": "https://dc.lft.to/lastmile_qr_scan"}, "fusion_lon": 0.0, "lon": -76.99462366666667, "name": "42c1c68b1871177105e3aaa2cc16f4aa", "is_reserved": 0, "is_disabled": 0}, {"lat": 38.89832283333333, "fusion_lat": 0.0, "type": "electric_scooter", "bike_id": "fce7c8880114f0987605eeafde9fd41e", "rental_uris": {"ios": "https://dc.lft.to/lastmile_qr_scan", "android": "https://dc.lft.to/lastmile_qr_scan"}, "fusion_lon": 0.0, "lon": -77.03063316666666, "name": "fce7c8880114f0987605eeafde9fd41e", "is_reserved": 0, "is_disabled": 0}, {"lat": 38.9264255, "fusion_lat": 0.0, "type": "electric_scooter", "bike_id": "d15e8323ca802152b907a6d226a4d790", "rental_uris": {"ios": "https://dc.lft.to/lastmile_qr_scan", "android": "https://dc.lft.to/lastmile_qr_scan"}, "fusion_lon": 0.0, "lon": -77.033966, "name": "d15e8323ca802152b907a6d226a4d790", "is_reserved": 0, "is_disabled": 0}, {"lat": 38.92415966666667, "fusion_lat": 0.0, "type": "electric_scooter", "bike_id": "12d3ee65b556369843ae8ab52a838224", "rental_uris": {"ios": "https://dc.lft.to/lastmile_qr_scan", "android": "https://dc.lft.to/lastmile_qr_scan"}, "fusion_lon": 0.0, "lon": -77.01953116666667, "name": "12d3ee65b556369843ae8ab52a838224", "is_reserved": 0, "is_disabled": 0}, {"lat": 38.92190633333333, "fusion_lat": 0.0, "type": "electric_scooter", "bike_id": "a19b5ddb67d535481396f6e561eea92d", "rental_uris": {"ios": "https://dc.lft.to/lastmile_qr_scan", "android": "https://dc.lft.to/lastmile_qr_scan"}, "fusion_lon": 0.0, "lon": -77.0378265, "name": "a19b5ddb67d535481396f6e561eea92d", "is_reserved": 0, "is_disabled": 0}, {"lat": 38.8977115, "fusion_lat": 0.0, "type": "electric_scooter", "bike_id": "81cda36afb9a55974fd29da9d4993e2b", "rental_uris": {"ios": "https://dc.lft.to/lastmile_qr_scan", "android": "https://dc.lft.to/lastmile_qr_scan"}, "fusion_lon": 0.0, "lon": -76.98460916666667, "name": "81cda36afb9a55974fd29da9d4993e2b", "is_reserved": 0, "is_disabled": 0}, {"lat": 38.923928833333335, "fusion_lat": 0.0, "type": "electric_scooter", "bike_id": "3cb2446788c3c54e9e33c273f522b94f", "rental_uris": {"ios": "https://dc.lft.to/lastmile_qr_scan", "android": "https://dc.lft.to/lastmile_qr_scan"}, "fusion_lon": 0.0, "lon": -77.02980366666667, "name": "3cb2446788c3c54e9e33c273f522b94f", "is_reserved": 0, "is_disabled": 0}, {"lat": 38.92066416666667, "fusion_lat": 0.0, "type": "electric_scooter", "bike_id": "030d79524d8a3370add12e917c7b0d1a", "rental_uris": {"ios": "https://dc.lft.to/lastmile_qr_scan", "android": "https://dc.lft.to/lastmile_qr_scan"}, "fusion_lon": 0.0, "lon": -77.04233883333333, "name": "030d79524d8a3370add12e917c7b0d1a", "is_reserved": 0, "is_disabled": 0}, {"lat": 38.86068433333333, "fusion_lat": 0.0, "type": "electric_scooter", "bike_id": "422911edafd452a1ed568736d10b784c", "rental_uris": {"ios": "https://dc.lft.to/lastmile_qr_scan", "android": "https://dc.lft.to/lastmile_qr_scan"}, "fusion_lon": 0.0, "lon": -76.96713983333333, "name": "422911edafd452a1ed568736d10b784c", "is_reserved": 0, "is_disabled": 0}, {"lat": 38.920525833333336, "fusion_lat": 0.0, "type": "electric_scooter", "bike_id": "f21370d949b3f5841c972f461ba94b7c", "rental_uris": {"ios": "https://dc.lft.to/lastmile_qr_scan", "android": "https://dc.lft.to/lastmile_qr_scan"}, "fusion_lon": 0.0, "lon": -77.01709, "name": "f21370d949b3f5841c972f461ba94b7c", "is_reserved": 0, "is_disabled": 0}, {"lat": 38.877761, "fusion_lat": 0.0, "type": "electric_scooter", "bike_id": "27b1af2653371d72ab09e057080e1a4c", "rental_uris": {"ios": "https://dc.lft.to/lastmile_qr_scan", "android": "https://dc.lft.to/lastmile_qr_scan"}, "fusion_lon": 0.0, "lon": -77.01772583333333, "name": "27b1af2653371d72ab09e057080e1a4c", "is_reserved": 0, "is_disabled": 0}, {"lat": 38.8592175, "fusion_lat": 0.0, "type": "electric_scooter", "bike_id": "50fde7c90107c5c4a22539836ce045d5", "rental_uris": {"ios": "https://dc.lft.to/lastmile_qr_scan", "android": "https://dc.lft.to/lastmile_qr_scan"}, "fusion_lon": 0.0, "lon": -76.9897935, "name": "50fde7c90107c5c4a22539836ce045d5", "is_reserved": 0, "is_disabled": 0}, {"lat": 38.921590333333334, "fusion_lat": 0.0, "type": "electric_scooter", "bike_id": "c1069c656cdc4f1394a88d28dab11d13", "rental_uris": {"ios": "https://dc.lft.to/lastmile_qr_scan", "android": "https://dc.lft.to/lastmile_qr_scan"}, "fusion_lon": 0.0, "lon": -77.03343283333334, "name": "c1069c656cdc4f1394a88d28dab11d13", "is_reserved": 0, "is_disabled": 0}, {"lat": 38.914381666666664, "fusion_lat": 0.0, "type": "electric_scooter", "bike_id": "be93ec852f1b43bb6e19e9900790c083", "rental_uris": {"ios": "https://dc.lft.to/lastmile_qr_scan", "android": "https://dc.lft.to/lastmile_qr_scan"}, "fusion_lon": 0.0, "lon": -77.02186366666666, "name": "be93ec852f1b43bb6e19e9900790c083", "is_reserved": 0, "is_disabled": 0}, {"lat": 39.039008333333335, "fusion_lat": 0.0, "type": "electric_bike", "bike_id": "3c1547c2da82ede22a320806cbe13450", "rental_uris": {"ios": "https://dc.lft.to/lastmile_qr_scan", "android": "https://dc.lft.to/lastmile_qr_scan"}, "fusion_lon": 0.0, "lon": -77.05047583333334, "name": "3c1547c2da82ede22a320806cbe13450", "is_reserved": 0, "is_disabled": 0}, {"lat": 38.90590016666667, "fusion_lat": 0.0, "type": "electric_scooter", "bike_id": "a2985218eb8a432af133d3da651c28f7", "rental_uris": {"ios": "https://dc.lft.to/lastmile_qr_scan", "android": "https://dc.lft.to/lastmile_qr_scan"}, "fusion_lon": 0.0, "lon": -77.04878816666667, "name": "a2985218eb8a432af133d3da651c28f7", "is_reserved": 0, "is_disabled": 0}, {"lat": 38.8773505, "fusion_lat": 0.0, "type": "electric_scooter", "bike_id": "101349072c4fa0daa250b9ad69f53eeb", "rental_uris": {"ios": "https://dc.lft.to/lastmile_qr_scan", "android": "https://dc.lft.to/lastmile_qr_scan"}, "fusion_lon": 0.0, "lon": -77.01763816666667, "name": "101349072c4fa0daa250b9ad69f53eeb", "is_reserved": 0, "is_disabled": 0}, {"lat": 38.831050833333336, "fusion_lat": 0.0, "type": "electric_bike", "bike_id": "5bf94e50117c5b52013dab3b771444b8", "rental_uris": {"ios": "https://dc.lft.to/lastmile_qr_scan", "android": "https://dc.lft.to/lastmile_qr_scan"}, "fusion_lon": 0.0, "lon": -77.112861, "name": "5bf94e50117c5b52013dab3b771444b8", "is_reserved": 0, "is_disabled": 0}, {"lat": 38.92883233333333, "fusion_lat": 0.0, "type": "electric_scooter", "bike_id": "1e9da8afed7725e05161c6ba9a299d6c", "rental_uris": {"ios": "https://dc.lft.to/lastmile_qr_scan", "android": "https://dc.lft.to/lastmile_qr_scan"}, "fusion_lon": 0.0, "lon": -77.032402, "name": "1e9da8afed7725e05161c6ba9a299d6c", "is_reserved": 0, "is_disabled": 0}, {"lat": 38.8765435, "fusion_lat": 0.0, "type": "electric_scooter", "bike_id": "5af2b1255290088abc56d3f385070e10", "rental_uris": {"ios": "https://dc.lft.to/lastmile_qr_scan", "android": "https://dc.lft.to/lastmile_qr_scan"}, "fusion_lon": 0.0, "lon": -77.0073845, "name": "5af2b1255290088abc56d3f385070e10", "is_reserved": 0, "is_disabled": 0}, {"lat": 38.9217135, "fusion_lat": 0.0, "type": "electric_scooter", "bike_id": "eec31ba0f3fb0b6033ae48c2c25a881b", "rental_uris": {"ios": "https://dc.lft.to/lastmile_qr_scan", "android": "https://dc.lft.to/lastmile_qr_scan"}, "fusion_lon": 0.0, "lon": -77.040217, "name": "eec31ba0f3fb0b6033ae48c2c25a881b", "is_reserved": 0, "is_disabled": 0}, {"lat": 38.906746, "fusion_lat": 0.0, "type": "electric_scooter", "bike_id": "60537aed3c48e6926a18c0c4ca2d0f6b", "rental_uris": {"ios": "https://dc.lft.to/lastmile_qr_scan", "android": "https://dc.lft.to/lastmile_qr_scan"}, "fusion_lon": 0.0, "lon": -77.0271725, "name": "60537aed3c48e6926a18c0c4ca2d0f6b", "is_reserved": 0, "is_disabled": 0}, {"lat": 38.9176815, "fusion_lat": 0.0, "type": "electric_scooter", "bike_id": "231f01179938605d32d0180e4f7c219a", "rental_uris": {"ios": "https://dc.lft.to/lastmile_qr_scan", "android": "https://dc.lft.to/lastmile_qr_scan"}, "fusion_lon": 0.0, "lon": -77.02363116666666, "name": "231f01179938605d32d0180e4f7c219a", "is_reserved": 0, "is_disabled": 0}, {"lat": 38.874490333333334, "fusion_lat": 0.0, "type": "electric_scooter", "bike_id": "2cb405b8aa9950962ed6ca55661f810d", "rental_uris": {"ios": "https://dc.lft.to/lastmile_qr_scan", "android": "https://dc.lft.to/lastmile_qr_scan"}, "fusion_lon": 0.0, "lon": -77.00120116666666, "name": "2cb405b8aa9950962ed6ca55661f810d", "is_reserved": 0, "is_disabled": 0}, {"lat": 38.910758, "fusion_lat": 0.0, "type": "electric_scooter", "bike_id": "e7269de50d11999d9300f37e78d309fd", "rental_uris": {"ios": "https://dc.lft.to/lastmile_qr_scan", "android": "https://dc.lft.to/lastmile_qr_scan"}, "fusion_lon": 0.0, "lon": -77.02722016666667, "name": "e7269de50d11999d9300f37e78d309fd", "is_reserved": 0, "is_disabled": 0}, {"lat": 38.912671, "fusion_lat": 0.0, "type": "electric_scooter", "bike_id": "8bdc556030f42b497d487599c32e03e8", "rental_uris": {"ios": "https://dc.lft.to/lastmile_qr_scan", "android": "https://dc.lft.to/lastmile_qr_scan"}, "fusion_lon": 0.0, "lon": -77.03803816666667, "name": "8bdc556030f42b497d487599c32e03e8", "is_reserved": 0, "is_disabled": 0}, {"lat": 38.918190833333334, "fusion_lat": 0.0, "type": "electric_scooter", "bike_id": "8131203c961c6939a04be71709922498", "rental_uris": {"ios": "https://dc.lft.to/lastmile_qr_scan", "android": "https://dc.lft.to/lastmile_qr_scan"}, "fusion_lon": 0.0, "lon": -77.04180816666667, "name": "8131203c961c6939a04be71709922498", "is_reserved": 0, "is_disabled": 0}, {"lat": 38.904252666666665, "fusion_lat": 0.0, "type": "electric_scooter", "bike_id": "8609bad906ccdfd61b95f35cee260bae", "rental_uris": {"ios": "https://dc.lft.to/lastmile_qr_scan", "android": "https://dc.lft.to/lastmile_qr_scan"}, "fusion_lon": 0.0, "lon": -77.0207055, "name": "8609bad906ccdfd61b95f35cee260bae", "is_reserved": 0, "is_disabled": 0}, {"lat": 38.913499, "fusion_lat": 0.0, "type": "electric_scooter", "bike_id": "3916c2aa615abc137606e762c1fca14c", "rental_uris": {"ios": "https://dc.lft.to/lastmile_qr_scan", "android": "https://dc.lft.to/lastmile_qr_scan"}, "fusion_lon": 0.0, "lon": -77.0295115, "name": "3916c2aa615abc137606e762c1fca14c", "is_reserved": 0, "is_disabled": 0}, {"lat": 38.916284833333336, "fusion_lat": 0.0, "type": "electric_scooter", "bike_id": "bfeb6a000fa56b52853f5474656be7bd", "rental_uris": {"ios": "https://dc.lft.to/lastmile_qr_scan", "android": "https://dc.lft.to/lastmile_qr_scan"}, "fusion_lon": 0.0, "lon": -77.03855966666667, "name": "bfeb6a000fa56b52853f5474656be7bd", "is_reserved": 0, "is_disabled": 0}, {"lat": 38.881388333333334, "fusion_lat": 0.0, "type": "electric_bike", "bike_id": "48feba3147925c8890117e0973fe62a5", "rental_uris": {"ios": "https://dc.lft.to/lastmile_qr_scan", "android": "https://dc.lft.to/lastmile_qr_scan"}, "fusion_lon": 0.0, "lon": -76.99840433333334, "name": "48feba3147925c8890117e0973fe62a5", "is_reserved": 0, "is_disabled": 0}, {"lat": 38.91757716666667, "fusion_lat": 0.0, "type": "electric_scooter", "bike_id": "7322ae1e758eb08de58f1e44ff3a4e1f", "rental_uris": {"ios": "https://dc.lft.to/lastmile_qr_scan", "android": "https://dc.lft.to/lastmile_qr_scan"}, "fusion_lon": 0.0, "lon": -77.0318695, "name": "7322ae1e758eb08de58f1e44ff3a4e1f", "is_reserved": 0, "is_disabled": 0}, {"lat": 38.91772683333333, "fusion_lat": 0.0, "type": "electric_scooter", "bike_id": "5ee7da42e3e96a6acb21dfe2cd6b9f73", "rental_uris": {"ios": "https://dc.lft.to/lastmile_qr_scan", "android": "https://dc.lft.to/lastmile_qr_scan"}, "fusion_lon": 0.0, "lon": -77.03185766666667, "name": "5ee7da42e3e96a6acb21dfe2cd6b9f73", "is_reserved": 0, "is_disabled": 0}, {"lat": 38.92059416666667, "fusion_lat": 0.0, "type": "electric_scooter", "bike_id": "9d2e23e00ce488d0b7282eb73a9a7443", "rental_uris": {"ios": "https://dc.lft.to/lastmile_qr_scan", "android": "https://dc.lft.to/lastmile_qr_scan"}, "fusion_lon": 0.0, "lon": -77.02914483333333, "name": "9d2e23e00ce488d0b7282eb73a9a7443", "is_reserved": 0, "is_disabled": 0}, {"lat": 38.91800683333334, "fusion_lat": 0.0, "type": "electric_scooter", "bike_id": "7a65c9856ad84f56f0ce7f26d4cff6c3", "rental_uris": {"ios": "https://dc.lft.to/lastmile_qr_scan", "android": "https://dc.lft.to/lastmile_qr_scan"}, "fusion_lon": 0.0, "lon": -77.027139, "name": "7a65c9856ad84f56f0ce7f26d4cff6c3", "is_reserved": 0, "is_disabled": 0}, {"lat": 38.93015166666667, "fusion_lat": 0.0, "type": "electric_scooter", "bike_id": "7e417f5cec239f5a77760fbdb74dbcc3", "rental_uris": {"ios": "https://dc.lft.to/lastmile_qr_scan", "android": "https://dc.lft.to/lastmile_qr_scan"}, "fusion_lon": 0.0, "lon": -77.02084033333334, "name": "7e417f5cec239f5a77760fbdb74dbcc3", "is_reserved": 0, "is_disabled": 0}, {"lat": 38.90018116666667, "fusion_lat": 0.0, "type": "electric_scooter", "bike_id": "338783c26542b66431f7ebdf2030ef38", "rental_uris": {"ios": "https://dc.lft.to/lastmile_qr_scan", "android": "https://dc.lft.to/lastmile_qr_scan"}, "fusion_lon": 0.0, "lon": -77.00137933333333, "name": "338783c26542b66431f7ebdf2030ef38", "is_reserved": 0, "is_disabled": 0}, {"lat": 38.912972333333336, "fusion_lat": 0.0, "type": "electric_scooter", "bike_id": "c780dda660adef46e17d29717bc6f548", "rental_uris": {"ios": "https://dc.lft.to/lastmile_qr_scan", "android": "https://dc.lft.to/lastmile_qr_scan"}, "fusion_lon": 0.0, "lon": -76.98474583333333, "name": "c780dda660adef46e17d29717bc6f548", "is_reserved": 0, "is_disabled": 0}, {"lat": 38.90380916666667, "fusion_lat": 0.0, "type": "electric_scooter", "bike_id": "f0bc128869ffb634bd4493148cd3624e", "rental_uris": {"ios": "https://dc.lft.to/lastmile_qr_scan", "android": "https://dc.lft.to/lastmile_qr_scan"}, "fusion_lon": 0.0, "lon": -76.97613566666666, "name": "f0bc128869ffb634bd4493148cd3624e", "is_reserved": 0, "is_disabled": 0}, {"lat": 38.961465833333335, "fusion_lat": 0.0, "type": "electric_scooter", "bike_id": "45c1ab6b7203cf545a346e7ac538e3a3", "rental_uris": {"ios": "https://dc.lft.to/lastmile_qr_scan", "android": "https://dc.lft.to/lastmile_qr_scan"}, "fusion_lon": 0.0, "lon": -77.02781566666667, "name": "45c1ab6b7203cf545a346e7ac538e3a3", "is_reserved": 0, "is_disabled": 0}, {"lat": 38.92914483333333, "fusion_lat": 0.0, "type": "electric_scooter", "bike_id": "23f8ad5d45b308ba17ad6399d5fcbe30", "rental_uris": {"ios": "https://dc.lft.to/lastmile_qr_scan", "android": "https://dc.lft.to/lastmile_qr_scan"}, "fusion_lon": 0.0, "lon": -77.07304216666667, "name": "23f8ad5d45b308ba17ad6399d5fcbe30", "is_reserved": 0, "is_disabled": 0}, {"lat": 38.921402, "fusion_lat": 0.0, "type": "electric_scooter", "bike_id": "2b624e8bf4eb73077138cbdacea73870", "rental_uris": {"ios": "https://dc.lft.to/lastmile_qr_scan", "android": "https://dc.lft.to/lastmile_qr_scan"}, "fusion_lon": 0.0, "lon": -77.00947016666667, "name": "2b624e8bf4eb73077138cbdacea73870", "is_reserved": 0, "is_disabled": 0}, {"lat": 38.89270666666667, "fusion_lat": 0.0, "type": "electric_scooter", "bike_id": "9e79e21a6d7f13ad649fa70cb5b00942", "rental_uris": {"ios": "https://dc.lft.to/lastmile_qr_scan", "android": "https://dc.lft.to/lastmile_qr_scan"}, "fusion_lon": 0.0, "lon": -77.04671366666666, "name": "9e79e21a6d7f13ad649fa70cb5b00942", "is_reserved": 0, "is_disabled": 0}, {"lat": 38.90053116666667, "fusion_lat": 0.0, "type": "electric_scooter", "bike_id": "f1cebe2c008458f73424bff89cdd2f96", "rental_uris": {"ios": "https://dc.lft.to/lastmile_qr_scan", "android": "https://dc.lft.to/lastmile_qr_scan"}, "fusion_lon": 0.0, "lon": -77.01269916666666, "name": "f1cebe2c008458f73424bff89cdd2f96", "is_reserved": 0, "is_disabled": 0}, {"lat": 38.913468333333334, "fusion_lat": 0.0, "type": "electric_scooter", "bike_id": "99082964153330de678002f04f181f60", "rental_uris": {"ios": "https://dc.lft.to/lastmile_qr_scan", "android": "https://dc.lft.to/lastmile_qr_scan"}, "fusion_lon": 0.0, "lon": -77.02763716666666, "name": "99082964153330de678002f04f181f60", "is_reserved": 0, "is_disabled": 0}, {"lat": 38.90720233333333, "fusion_lat": 0.0, "type": "electric_scooter", "bike_id": "88cb1f5a9663bcf58f839a66b8ecd04e", "rental_uris": {"ios": "https://dc.lft.to/lastmile_qr_scan", "android": "https://dc.lft.to/lastmile_qr_scan"}, "fusion_lon": 0.0, "lon": -77.01978566666666, "name": "88cb1f5a9663bcf58f839a66b8ecd04e", "is_reserved": 0, "is_disabled": 0}, {"lat": 38.91928733333334, "fusion_lat": 0.0, "type": "electric_scooter", "bike_id": "29d7bf47c787c4f5514e2308d4d239b6", "rental_uris": {"ios": "https://dc.lft.to/lastmile_qr_scan", "android": "https://dc.lft.to/lastmile_qr_scan"}, "fusion_lon": 0.0, "lon": -77.02510183333334, "name": "29d7bf47c787c4f5514e2308d4d239b6", "is_reserved": 0, "is_disabled": 0}, {"lat": 38.90161333333333, "fusion_lat": 0.0, "type": "electric_scooter", "bike_id": "c46166c5fad6532aec473bb91854cf43", "rental_uris": {"ios": "https://dc.lft.to/lastmile_qr_scan", "android": "https://dc.lft.to/lastmile_qr_scan"}, "fusion_lon": 0.0, "lon": -77.02584233333333, "name": "c46166c5fad6532aec473bb91854cf43", "is_reserved": 0, "is_disabled": 0}, {"lat": 38.942332, "fusion_lat": 0.0, "type": "electric_scooter", "bike_id": "681cb3be0add3a1de4440824b39abeb4", "rental_uris": {"ios": "https://dc.lft.to/lastmile_qr_scan", "android": "https://dc.lft.to/lastmile_qr_scan"}, "fusion_lon": 0.0, "lon": -77.03869966666667, "name": "681cb3be0add3a1de4440824b39abeb4", "is_reserved": 0, "is_disabled": 0}, {"lat": 38.900179666666666, "fusion_lat": 0.0, "type": "electric_scooter", "bike_id": "591149a469467e38fb5423c05f1c392c", "rental_uris": {"ios": "https://dc.lft.to/lastmile_qr_scan", "android": "https://dc.lft.to/lastmile_qr_scan"}, "fusion_lon": 0.0, "lon": -77.003123, "name": "591149a469467e38fb5423c05f1c392c", "is_reserved": 0, "is_disabled": 0}, {"lat": 38.95627566666667, "fusion_lat": 0.0, "type": "electric_scooter", "bike_id": "5bcc8b1c263928448b95bac737e2e1f1", "rental_uris": {"ios": "https://dc.lft.to/lastmile_qr_scan", "android": "https://dc.lft.to/lastmile_qr_scan"}, "fusion_lon": 0.0, "lon": -77.024286, "name": "5bcc8b1c263928448b95bac737e2e1f1", "is_reserved": 0, "is_disabled": 0}, {"lat": 38.90362233333333, "fusion_lat": 0.0, "type": "electric_scooter", "bike_id": "295bb57796b7bbd67920a3a4492ab273", "rental_uris": {"ios": "https://dc.lft.to/lastmile_qr_scan", "android": "https://dc.lft.to/lastmile_qr_scan"}, "fusion_lon": 0.0, "lon": -77.01747333333333, "name": "295bb57796b7bbd67920a3a4492ab273", "is_reserved": 0, "is_disabled": 0}, {"lat": 38.921297, "fusion_lat": 0.0, "type": "electric_bike", "bike_id": "2b889248a48118c9b5cb43ce0df86e09", "rental_uris": {"ios": "https://dc.lft.to/lastmile_qr_scan", "android": "https://dc.lft.to/lastmile_qr_scan"}, "fusion_lon": 0.0, "lon": -77.236785, "name": "2b889248a48118c9b5cb43ce0df86e09", "is_reserved": 0, "is_disabled": 0}, {"lat": 38.92485583333333, "fusion_lat": 0.0, "type": "electric_scooter", "bike_id": "5a0ff2da754fd031af47891242185609", "rental_uris": {"ios": "https://dc.lft.to/lastmile_qr_scan", "android": "https://dc.lft.to/lastmile_qr_scan"}, "fusion_lon": 0.0, "lon": -77.0227415, "name": "5a0ff2da754fd031af47891242185609", "is_reserved": 0, "is_disabled": 0}, {"lat": 38.9384725, "fusion_lat": 0.0, "type": "electric_scooter", "bike_id": "0d2cd60dedbbcdff1ef66b40896683c7", "rental_uris": {"ios": "https://dc.lft.to/lastmile_qr_scan", "android": "https://dc.lft.to/lastmile_qr_scan"}, "fusion_lon": 0.0, "lon": -77.0340005, "name": "0d2cd60dedbbcdff1ef66b40896683c7", "is_reserved": 0, "is_disabled": 0}, {"lat": 38.89227316666667, "fusion_lat": 0.0, "type": "electric_scooter", "bike_id": "e42acc4f9b8b992fc2e13ed1d5d17627", "rental_uris": {"ios": "https://dc.lft.to/lastmile_qr_scan", "android": "https://dc.lft.to/lastmile_qr_scan"}, "fusion_lon": 0.0, "lon": -77.04896683333334, "name": "e42acc4f9b8b992fc2e13ed1d5d17627", "is_reserved": 0, "is_disabled": 0}, {"lat": 38.90916683333333, "fusion_lat": 0.0, "type": "electric_scooter", "bike_id": "9d56ada12d497aa73db328f99225510c", "rental_uris": {"ios": "https://dc.lft.to/lastmile_qr_scan", "android": "https://dc.lft.to/lastmile_qr_scan"}, "fusion_lon": 0.0, "lon": -77.07273233333333, "name": "9d56ada12d497aa73db328f99225510c", "is_reserved": 0, "is_disabled": 0}, {"lat": 38.8656725, "fusion_lat": 0.0, "type": "electric_bike", "bike_id": "6b27461e6811ef62cbe20b2f7fe22c68", "rental_uris": {"ios": "https://dc.lft.to/lastmile_qr_scan", "android": "https://dc.lft.to/lastmile_qr_scan"}, "fusion_lon": 0.0, "lon": -76.98956533333333, "name": "6b27461e6811ef62cbe20b2f7fe22c68", "is_reserved": 0, "is_disabled": 0}, {"lat": 38.87679633333333, "fusion_lat": 0.0, "type": "electric_scooter", "bike_id": "110aa7b03909886a2c4c7162b059a9b2", "rental_uris": {"ios": "https://dc.lft.to/lastmile_qr_scan", "android": "https://dc.lft.to/lastmile_qr_scan"}, "fusion_lon": 0.0, "lon": -77.0029915, "name": "110aa7b03909886a2c4c7162b059a9b2", "is_reserved": 0, "is_disabled": 0}, {"lat": 38.92250683333333, "fusion_lat": 0.0, "type": "electric_scooter", "bike_id": "fe562263c2b10e970dd0dc40ebde14df", "rental_uris": {"ios": "https://dc.lft.to/lastmile_qr_scan", "android": "https://dc.lft.to/lastmile_qr_scan"}, "fusion_lon": 0.0, "lon": -77.03893866666667, "name": "fe562263c2b10e970dd0dc40ebde14df", "is_reserved": 0, "is_disabled": 0}, {"lat": 38.9057515, "fusion_lat": 0.0, "type": "electric_scooter", "bike_id": "e7bdcbdc2bdb404dd60f5bc4a790a959", "rental_uris": {"ios": "https://dc.lft.to/lastmile_qr_scan", "android": "https://dc.lft.to/lastmile_qr_scan"}, "fusion_lon": 0.0, "lon": -77.01857016666666, "name": "e7bdcbdc2bdb404dd60f5bc4a790a959", "is_reserved": 0, "is_disabled": 0}, {"lat": 38.89321283333334, "fusion_lat": 0.0, "type": "electric_scooter", "bike_id": "e63786fae080fd25610e5739bd0706d3", "rental_uris": {"ios": "https://dc.lft.to/lastmile_qr_scan", "android": "https://dc.lft.to/lastmile_qr_scan"}, "fusion_lon": 0.0, "lon": -77.078751, "name": "e63786fae080fd25610e5739bd0706d3", "is_reserved": 0, "is_disabled": 0}, {"lat": 38.89388616666667, "fusion_lat": 0.0, "type": "electric_scooter", "bike_id": "18cea838df93ebf6f0634fb8fc4dd2c6", "rental_uris": {"ios": "https://dc.lft.to/lastmile_qr_scan", "android": "https://dc.lft.to/lastmile_qr_scan"}, "fusion_lon": 0.0, "lon": -76.92306966666666, "name": "18cea838df93ebf6f0634fb8fc4dd2c6", "is_reserved": 0, "is_disabled": 0}, {"lat": 38.8925145, "fusion_lat": 0.0, "type": "electric_scooter", "bike_id": "bc46c3b28fe95a3162419f17e7661653", "rental_uris": {"ios": "https://dc.lft.to/lastmile_qr_scan", "android": "https://dc.lft.to/lastmile_qr_scan"}, "fusion_lon": 0.0, "lon": -77.04663233333333, "name": "bc46c3b28fe95a3162419f17e7661653", "is_reserved": 0, "is_disabled": 0}, {"lat": 38.994359833333334, "fusion_lat": 0.0, "type": "electric_bike", "bike_id": "072620c8a394ebb90bdf2f5818967465", "rental_uris": {"ios": "https://dc.lft.to/lastmile_qr_scan", "android": "https://dc.lft.to/lastmile_qr_scan"}, "fusion_lon": 0.0, "lon": -77.02662916666667, "name": "072620c8a394ebb90bdf2f5818967465", "is_reserved": 0, "is_disabled": 0}, {"lat": 38.868920833333334, "fusion_lat": 0.0, "type": "electric_bike", "bike_id": "a489ada9bc72157fcadaaa2e2a678ca2", "rental_uris": {"ios": "https://dc.lft.to/lastmile_qr_scan", "android": "https://dc.lft.to/lastmile_qr_scan"}, "fusion_lon": 0.0, "lon": -76.98514933333334, "name": "a489ada9bc72157fcadaaa2e2a678ca2", "is_reserved": 0, "is_disabled": 0}, {"lat": 38.84755966666667, "fusion_lat": 0.0, "type": "electric_scooter", "bike_id": "d01b6b66604298f67d67065eeb0c68f0", "rental_uris": {"ios": "https://dc.lft.to/lastmile_qr_scan", "android": "https://dc.lft.to/lastmile_qr_scan"}, "fusion_lon": 0.0, "lon": -76.99501066666667, "name": "d01b6b66604298f67d67065eeb0c68f0", "is_reserved": 0, "is_disabled": 0}, {"lat": 39.0525775, "fusion_lat": 0.0, "type": "electric_bike", "bike_id": "d19652b978572aca5a44c7d8d08258a9", "rental_uris": {"ios": "https://dc.lft.to/lastmile_qr_scan", "android": "https://dc.lft.to/lastmile_qr_scan"}, "fusion_lon": 0.0, "lon": -77.08068883333334, "name": "d19652b978572aca5a44c7d8d08258a9", "is_reserved": 0, "is_disabled": 0}, {"lat": 38.896415833333336, "fusion_lat": 0.0, "type": "electric_scooter", "bike_id": "2876349c8948d6b6431d93a291f652e1", "rental_uris": {"ios": "https://dc.lft.to/lastmile_qr_scan", "android": "https://dc.lft.to/lastmile_qr_scan"}, "fusion_lon": 0.0, "lon": -77.02398983333333, "name": "2876349c8948d6b6431d93a291f652e1", "is_reserved": 0, "is_disabled": 0}, {"lat": 38.949768166666665, "fusion_lat": 0.0, "type": "electric_scooter", "bike_id": "b8a621fa6718351b856588acd6dc33e9", "rental_uris": {"ios": "https://dc.lft.to/lastmile_qr_scan", "android": "https://dc.lft.to/lastmile_qr_scan"}, "fusion_lon": 0.0, "lon": -77.09966933333334, "name": "b8a621fa6718351b856588acd6dc33e9", "is_reserved": 0, "is_disabled": 0}, {"lat": 38.91276216666667, "fusion_lat": 0.0, "type": "electric_scooter", "bike_id": "f129d0ccdbe960a14b026276e2d745f1", "rental_uris": {"ios": "https://dc.lft.to/lastmile_qr_scan", "android": "https://dc.lft.to/lastmile_qr_scan"}, "fusion_lon": 0.0, "lon": -77.03853516666666, "name": "f129d0ccdbe960a14b026276e2d745f1", "is_reserved": 0, "is_disabled": 0}, {"lat": 38.91562416666667, "fusion_lat": 0.0, "type": "electric_scooter", "bike_id": "91429d2453c4514d48b8b8c4cb45b373", "rental_uris": {"ios": "https://dc.lft.to/lastmile_qr_scan", "android": "https://dc.lft.to/lastmile_qr_scan"}, "fusion_lon": 0.0, "lon": -77.03143466666667, "name": "91429d2453c4514d48b8b8c4cb45b373", "is_reserved": 0, "is_disabled": 0}, {"lat": 38.87888133333333, "fusion_lat": 0.0, "type": "electric_scooter", "bike_id": "76332920056b65cb961f5dd9cd84f084", "rental_uris": {"ios": "https://dc.lft.to/lastmile_qr_scan", "android": "https://dc.lft.to/lastmile_qr_scan"}, "fusion_lon": 0.0, "lon": -77.02315, "name": "76332920056b65cb961f5dd9cd84f084", "is_reserved": 0, "is_disabled": 0}, {"lat": 38.9169325, "fusion_lat": 0.0, "type": "electric_scooter", "bike_id": "0b4e0414a3a7863e06e6d0bdf59540a7", "rental_uris": {"ios": "https://dc.lft.to/lastmile_qr_scan", "android": "https://dc.lft.to/lastmile_qr_scan"}, "fusion_lon": 0.0, "lon": -77.012298, "name": "0b4e0414a3a7863e06e6d0bdf59540a7", "is_reserved": 0, "is_disabled": 0}, {"lat": 38.899714, "fusion_lat": 0.0, "type": "electric_scooter", "bike_id": "5e849358f9f598f130bc23afbd66a1e0", "rental_uris": {"ios": "https://dc.lft.to/lastmile_qr_scan", "android": "https://dc.lft.to/lastmile_qr_scan"}, "fusion_lon": 0.0, "lon": -76.98559666666667, "name": "5e849358f9f598f130bc23afbd66a1e0", "is_reserved": 0, "is_disabled": 0}, {"lat": 38.908150666666664, "fusion_lat": 0.0, "type": "electric_scooter", "bike_id": "19b602c64b68c459c41badcf945813bc", "rental_uris": {"ios": "https://dc.lft.to/lastmile_qr_scan", "android": "https://dc.lft.to/lastmile_qr_scan"}, "fusion_lon": 0.0, "lon": -77.02536216666667, "name": "19b602c64b68c459c41badcf945813bc", "is_reserved": 0, "is_disabled": 0}, {"lat": 38.924469, "fusion_lat": 0.0, "type": "electric_scooter", "bike_id": "905a8f72ebdac47657eeefa951129c98", "rental_uris": {"ios": "https://dc.lft.to/lastmile_qr_scan", "android": "https://dc.lft.to/lastmile_qr_scan"}, "fusion_lon": 0.0, "lon": -76.98988583333333, "name": "905a8f72ebdac47657eeefa951129c98", "is_reserved": 0, "is_disabled": 0}, {"lat": 38.897015833333334, "fusion_lat": 0.0, "type": "electric_bike", "bike_id": "2697a05b543c79ac350dee4b96431b8e", "rental_uris": {"ios": "https://dc.lft.to/lastmile_qr_scan", "android": "https://dc.lft.to/lastmile_qr_scan"}, "fusion_lon": 0.0, "lon": -76.96306783333333, "name": "2697a05b543c79ac350dee4b96431b8e", "is_reserved": 0, "is_disabled": 0}, {"lat": 38.907241666666664, "fusion_lat": 0.0, "type": "electric_scooter", "bike_id": "f1e046aab9e98231e09747ca525ea317", "rental_uris": {"ios": "https://dc.lft.to/lastmile_qr_scan", "android": "https://dc.lft.to/lastmile_qr_scan"}, "fusion_lon": 0.0, "lon": -77.0762995, "name": "f1e046aab9e98231e09747ca525ea317", "is_reserved": 0, "is_disabled": 0}, {"lat": 38.92358466666667, "fusion_lat": 0.0, "type": "electric_scooter", "bike_id": "36806093bb42f66d99de31e37b548441", "rental_uris": {"ios": "https://dc.lft.to/lastmile_qr_scan", "android": "https://dc.lft.to/lastmile_qr_scan"}, "fusion_lon": 0.0, "lon": -77.03401033333333, "name": "36806093bb42f66d99de31e37b548441", "is_reserved": 0, "is_disabled": 0}, {"lat": 38.911506333333335, "fusion_lat": 0.0, "type": "electric_scooter", "bike_id": "0169c559edfc07bc5b669ca405b63241", "rental_uris": {"ios": "https://dc.lft.to/lastmile_qr_scan", "android": "https://dc.lft.to/lastmile_qr_scan"}, "fusion_lon": 0.0, "lon": -77.0088485, "name": "0169c559edfc07bc5b669ca405b63241", "is_reserved": 0, "is_disabled": 0}, {"lat": 38.89879366666667, "fusion_lat": 0.0, "type": "electric_scooter", "bike_id": "18859c943bfb95add50facd128c33314", "rental_uris": {"ios": "https://dc.lft.to/lastmile_qr_scan", "android": "https://dc.lft.to/lastmile_qr_scan"}, "fusion_lon": 0.0, "lon": -76.93189233333334, "name": "18859c943bfb95add50facd128c33314", "is_reserved": 0, "is_disabled": 0}, {"lat": 38.898624833333336, "fusion_lat": 0.0, "type": "electric_scooter", "bike_id": "36b5631027f56f53639dd4d151453b67", "rental_uris": {"ios": "https://dc.lft.to/lastmile_qr_scan", "android": "https://dc.lft.to/lastmile_qr_scan"}, "fusion_lon": 0.0, "lon": -77.01378783333334, "name": "36b5631027f56f53639dd4d151453b67", "is_reserved": 0, "is_disabled": 0}, {"lat": 38.8893755, "fusion_lat": 0.0, "type": "electric_scooter", "bike_id": "ac685f5cfda960fb329a808e7e7fb4ab", "rental_uris": {"ios": "https://dc.lft.to/lastmile_qr_scan", "android": "https://dc.lft.to/lastmile_qr_scan"}, "fusion_lon": 0.0, "lon": -76.99369766666666, "name": "ac685f5cfda960fb329a808e7e7fb4ab", "is_reserved": 0, "is_disabled": 0}, {"lat": 38.899669, "fusion_lat": 0.0, "type": "electric_scooter", "bike_id": "05bfdc2e7c94ed968fdb1b175f850c08", "rental_uris": {"ios": "https://dc.lft.to/lastmile_qr_scan", "android": "https://dc.lft.to/lastmile_qr_scan"}, "fusion_lon": 0.0, "lon": -77.04649883333333, "name": "05bfdc2e7c94ed968fdb1b175f850c08", "is_reserved": 0, "is_disabled": 0}, {"lat": 38.91271483333333, "fusion_lat": 0.0, "type": "electric_scooter", "bike_id": "6274ff33b50bfc8da4ddacb71caf713e", "rental_uris": {"ios": "https://dc.lft.to/lastmile_qr_scan", "android": "https://dc.lft.to/lastmile_qr_scan"}, "fusion_lon": 0.0, "lon": -77.031801, "name": "6274ff33b50bfc8da4ddacb71caf713e", "is_reserved": 0, "is_disabled": 0}, {"lat": 38.898376166666665, "fusion_lat": 0.0, "type": "electric_scooter", "bike_id": "1eef8d212fbbe291c1af6eaabb4dab89", "rental_uris": {"ios": "https://dc.lft.to/lastmile_qr_scan", "android": "https://dc.lft.to/lastmile_qr_scan"}, "fusion_lon": 0.0, "lon": -77.02857166666666, "name": "1eef8d212fbbe291c1af6eaabb4dab89", "is_reserved": 0, "is_disabled": 0}, {"lat": 38.90735566666667, "fusion_lat": 0.0, "type": "electric_scooter", "bike_id": "50daf7d4f97a01e1db6fc9f4c49a4ddd", "rental_uris": {"ios": "https://dc.lft.to/lastmile_qr_scan", "android": "https://dc.lft.to/lastmile_qr_scan"}, "fusion_lon": 0.0, "lon": -77.0130985, "name": "50daf7d4f97a01e1db6fc9f4c49a4ddd", "is_reserved": 0, "is_disabled": 0}, {"lat": 38.9244385, "fusion_lat": 0.0, "type": "electric_scooter", "bike_id": "1aba434a668e8977695a2f8600cc4c5b", "rental_uris": {"ios": "https://dc.lft.to/lastmile_qr_scan", "android": "https://dc.lft.to/lastmile_qr_scan"}, "fusion_lon": 0.0, "lon": -77.02028866666667, "name": "1aba434a668e8977695a2f8600cc4c5b", "is_reserved": 0, "is_disabled": 0}, {"lat": 38.847437166666666, "fusion_lat": 0.0, "type": "electric_scooter", "bike_id": "9114705c0ccdb477805971b089771952", "rental_uris": {"ios": "https://dc.lft.to/lastmile_qr_scan", "android": "https://dc.lft.to/lastmile_qr_scan"}, "fusion_lon": 0.0, "lon": -76.9951275, "name": "9114705c0ccdb477805971b089771952", "is_reserved": 0, "is_disabled": 0}, {"lat": 38.91202, "fusion_lat": 0.0, "type": "electric_scooter", "bike_id": "50c32c3958802c52a6e0ec7233f46f1f", "rental_uris": {"ios": "https://dc.lft.to/lastmile_qr_scan", "android": "https://dc.lft.to/lastmile_qr_scan"}, "fusion_lon": 0.0, "lon": -76.98776983333333, "name": "50c32c3958802c52a6e0ec7233f46f1f", "is_reserved": 0, "is_disabled": 0}, {"lat": 38.90589816666667, "fusion_lat": 0.0, "type": "electric_scooter", "bike_id": "e17abc04ed9e5a8cf2c6887da8a5a6a9", "rental_uris": {"ios": "https://dc.lft.to/lastmile_qr_scan", "android": "https://dc.lft.to/lastmile_qr_scan"}, "fusion_lon": 0.0, "lon": -77.00296933333334, "name": "e17abc04ed9e5a8cf2c6887da8a5a6a9", "is_reserved": 0, "is_disabled": 0}, {"lat": 38.9156105, "fusion_lat": 0.0, "type": "electric_scooter", "bike_id": "2d6ce22da80c68bfead540ea51085bf3", "rental_uris": {"ios": "https://dc.lft.to/lastmile_qr_scan", "android": "https://dc.lft.to/lastmile_qr_scan"}, "fusion_lon": 0.0, "lon": -77.03868916666667, "name": "2d6ce22da80c68bfead540ea51085bf3", "is_reserved": 0, "is_disabled": 0}, {"lat": 38.884325833333335, "fusion_lat": 0.0, "type": "electric_scooter", "bike_id": "860b358e674de7a304925991e0ac36d7", "rental_uris": {"ios": "https://dc.lft.to/lastmile_qr_scan", "android": "https://dc.lft.to/lastmile_qr_scan"}, "fusion_lon": 0.0, "lon": -77.01778033333333, "name": "860b358e674de7a304925991e0ac36d7", "is_reserved": 0, "is_disabled": 0}, {"lat": 38.92763733333334, "fusion_lat": 0.0, "type": "electric_scooter", "bike_id": "a0e4c57a844d289d5536c7c98e156389", "rental_uris": {"ios": "https://dc.lft.to/lastmile_qr_scan", "android": "https://dc.lft.to/lastmile_qr_scan"}, "fusion_lon": 0.0, "lon": -77.052732, "name": "a0e4c57a844d289d5536c7c98e156389", "is_reserved": 0, "is_disabled": 0}, {"lat": 38.91602066666667, "fusion_lat": 0.0, "type": "electric_scooter", "bike_id": "6dc6f8af69621c7e46508ecac6ec5218", "rental_uris": {"ios": "https://dc.lft.to/lastmile_qr_scan", "android": "https://dc.lft.to/lastmile_qr_scan"}, "fusion_lon": 0.0, "lon": -77.03192716666666, "name": "6dc6f8af69621c7e46508ecac6ec5218", "is_reserved": 0, "is_disabled": 0}, {"lat": 38.923727166666666, "fusion_lat": 0.0, "type": "electric_scooter", "bike_id": "f18d528262293d22a77b735d965a9473", "rental_uris": {"ios": "https://dc.lft.to/lastmile_qr_scan", "android": "https://dc.lft.to/lastmile_qr_scan"}, "fusion_lon": 0.0, "lon": -77.021183, "name": "f18d528262293d22a77b735d965a9473", "is_reserved": 0, "is_disabled": 0}, {"lat": 38.93935916666667, "fusion_lat": 0.0, "type": "electric_scooter", "bike_id": "8d05c256f59f542fca8db2185e70fc47", "rental_uris": {"ios": "https://dc.lft.to/lastmile_qr_scan", "android": "https://dc.lft.to/lastmile_qr_scan"}, "fusion_lon": 0.0, "lon": -77.015869, "name": "8d05c256f59f542fca8db2185e70fc47", "is_reserved": 0, "is_disabled": 0}, {"lat": 38.81974316666667, "fusion_lat": 0.0, "type": "electric_bike", "bike_id": "d03a9a5921443620635f6b6dfc348049", "rental_uris": {"ios": "https://dc.lft.to/lastmile_qr_scan", "android": "https://dc.lft.to/lastmile_qr_scan"}, "fusion_lon": 0.0, "lon": -76.9981835, "name": "d03a9a5921443620635f6b6dfc348049", "is_reserved": 0, "is_disabled": 0}, {"lat": 38.9219085, "fusion_lat": 0.0, "type": "electric_scooter", "bike_id": "2960037a6a912a20d019e1f1a55e7fd2", "rental_uris": {"ios": "https://dc.lft.to/lastmile_qr_scan", "android": "https://dc.lft.to/lastmile_qr_scan"}, "fusion_lon": 0.0, "lon": -77.04257816666667, "name": "2960037a6a912a20d019e1f1a55e7fd2", "is_reserved": 0, "is_disabled": 0}, {"lat": 38.89225666666667, "fusion_lat": 0.0, "type": "electric_scooter", "bike_id": "76fa72fb8a7b53baaca8faf62b7271be", "rental_uris": {"ios": "https://dc.lft.to/lastmile_qr_scan", "android": "https://dc.lft.to/lastmile_qr_scan"}, "fusion_lon": 0.0, "lon": -77.04327983333333, "name": "76fa72fb8a7b53baaca8faf62b7271be", "is_reserved": 0, "is_disabled": 0}, {"lat": 38.90335316666667, "fusion_lat": 0.0, "type": "electric_scooter", "bike_id": "0bff5a621abf1c4d3792ab4153d61022", "rental_uris": {"ios": "https://dc.lft.to/lastmile_qr_scan", "android": "https://dc.lft.to/lastmile_qr_scan"}, "fusion_lon": 0.0, "lon": -77.03987816666667, "name": "0bff5a621abf1c4d3792ab4153d61022", "is_reserved": 0, "is_disabled": 0}, {"lat": 38.9244565, "fusion_lat": 0.0, "type": "electric_scooter", "bike_id": "ca1d270d31d11dea17258895709b1ba4", "rental_uris": {"ios": "https://dc.lft.to/lastmile_qr_scan", "android": "https://dc.lft.to/lastmile_qr_scan"}, "fusion_lon": 0.0, "lon": -76.989857, "name": "ca1d270d31d11dea17258895709b1ba4", "is_reserved": 0, "is_disabled": 0}, {"lat": 38.891793666666665, "fusion_lat": 0.0, "type": "electric_scooter", "bike_id": "67bc8c3476ea7529502fa59ebf6ef68b", "rental_uris": {"ios": "https://dc.lft.to/lastmile_qr_scan", "android": "https://dc.lft.to/lastmile_qr_scan"}, "fusion_lon": 0.0, "lon": -76.92650733333333, "name": "67bc8c3476ea7529502fa59ebf6ef68b", "is_reserved": 0, "is_disabled": 0}, {"lat": 38.920709333333335, "fusion_lat": 0.0, "type": "electric_scooter", "bike_id": "0b600f00833f88cee62f4caebcfff5fe", "rental_uris": {"ios": "https://dc.lft.to/lastmile_qr_scan", "android": "https://dc.lft.to/lastmile_qr_scan"}, "fusion_lon": 0.0, "lon": -77.04566516666667, "name": "0b600f00833f88cee62f4caebcfff5fe", "is_reserved": 0, "is_disabled": 0}, {"lat": 38.909445166666664, "fusion_lat": 0.0, "type": "electric_scooter", "bike_id": "c6d97d048b17babd7e31b97889009b46", "rental_uris": {"ios": "https://dc.lft.to/lastmile_qr_scan", "android": "https://dc.lft.to/lastmile_qr_scan"}, "fusion_lon": 0.0, "lon": -77.03451583333333, "name": "c6d97d048b17babd7e31b97889009b46", "is_reserved": 0, "is_disabled": 0}, {"lat": 38.91028383333333, "fusion_lat": 0.0, "type": "electric_scooter", "bike_id": "4d5c12a5682dd7c656b7a605dfa5d263", "rental_uris": {"ios": "https://dc.lft.to/lastmile_qr_scan", "android": "https://dc.lft.to/lastmile_qr_scan"}, "fusion_lon": 0.0, "lon": -77.0293465, "name": "4d5c12a5682dd7c656b7a605dfa5d263", "is_reserved": 0, "is_disabled": 0}, {"lat": 38.92522183333333, "fusion_lat": 0.0, "type": "electric_scooter", "bike_id": "91f352b71d29521f7874127b831fbd2c", "rental_uris": {"ios": "https://dc.lft.to/lastmile_qr_scan", "android": "https://dc.lft.to/lastmile_qr_scan"}, "fusion_lon": 0.0, "lon": -77.0503435, "name": "91f352b71d29521f7874127b831fbd2c", "is_reserved": 0, "is_disabled": 0}, {"lat": 38.9341915, "fusion_lat": 0.0, "type": "electric_bike", "bike_id": "c5f91011f9675f4820e6c77e804b0172", "rental_uris": {"ios": "https://dc.lft.to/lastmile_qr_scan", "android": "https://dc.lft.to/lastmile_qr_scan"}, "fusion_lon": 0.0, "lon": -77.04309066666667, "name": "c5f91011f9675f4820e6c77e804b0172", "is_reserved": 0, "is_disabled": 0}, {"lat": 38.91109133333333, "fusion_lat": 0.0, "type": "electric_scooter", "bike_id": "c4df184934c4dfa29f5b555994f8e2b2", "rental_uris": {"ios": "https://dc.lft.to/lastmile_qr_scan", "android": "https://dc.lft.to/lastmile_qr_scan"}, "fusion_lon": 0.0, "lon": -77.02419783333333, "name": "c4df184934c4dfa29f5b555994f8e2b2", "is_reserved": 0, "is_disabled": 0}, {"lat": 38.91018066666667, "fusion_lat": 0.0, "type": "electric_scooter", "bike_id": "33cb6ed54a1c94e443b4b20514836965", "rental_uris": {"ios": "https://dc.lft.to/lastmile_qr_scan", "android": "https://dc.lft.to/lastmile_qr_scan"}, "fusion_lon": 0.0, "lon": -77.03856516666667, "name": "33cb6ed54a1c94e443b4b20514836965", "is_reserved": 0, "is_disabled": 0}, {"lat": 38.867258166666666, "fusion_lat": 0.0, "type": "electric_scooter", "bike_id": "e7c45b14e4af34c3b290f315551500fb", "rental_uris": {"ios": "https://dc.lft.to/lastmile_qr_scan", "android": "https://dc.lft.to/lastmile_qr_scan"}, "fusion_lon": 0.0, "lon": -77.0135105, "name": "e7c45b14e4af34c3b290f315551500fb", "is_reserved": 0, "is_disabled": 0}, {"lat": 38.91478683333333, "fusion_lat": 0.0, "type": "electric_scooter", "bike_id": "7b86c716887df0d83cf0b3fe58526d5d", "rental_uris": {"ios": "https://dc.lft.to/lastmile_qr_scan", "android": "https://dc.lft.to/lastmile_qr_scan"}, "fusion_lon": 0.0, "lon": -77.0323155, "name": "7b86c716887df0d83cf0b3fe58526d5d", "is_reserved": 0, "is_disabled": 0}, {"lat": 38.89851566666667, "fusion_lat": 0.0, "type": "electric_scooter", "bike_id": "c88cc78c1cf2162f20dc3e714f3ea84d", "rental_uris": {"ios": "https://dc.lft.to/lastmile_qr_scan", "android": "https://dc.lft.to/lastmile_qr_scan"}, "fusion_lon": 0.0, "lon": -77.04001933333333, "name": "c88cc78c1cf2162f20dc3e714f3ea84d", "is_reserved": 0, "is_disabled": 0}, {"lat": 38.91865983333334, "fusion_lat": 0.0, "type": "electric_scooter", "bike_id": "898f3faba15f1a5608aa925d8a2fe950", "rental_uris": {"ios": "https://dc.lft.to/lastmile_qr_scan", "android": "https://dc.lft.to/lastmile_qr_scan"}, "fusion_lon": 0.0, "lon": -77.01561466666666, "name": "898f3faba15f1a5608aa925d8a2fe950", "is_reserved": 0, "is_disabled": 0}, {"lat": 38.898792, "fusion_lat": 0.0, "type": "electric_scooter", "bike_id": "8904ff8e967c55c2364324e4b72fabd0", "rental_uris": {"ios": "https://dc.lft.to/lastmile_qr_scan", "android": "https://dc.lft.to/lastmile_qr_scan"}, "fusion_lon": 0.0, "lon": -76.93194483333333, "name": "8904ff8e967c55c2364324e4b72fabd0", "is_reserved": 0, "is_disabled": 0}, {"lat": 38.9036545, "fusion_lat": 0.0, "type": "electric_scooter", "bike_id": "bcde3e8e724920b4b35f17ee70683d87", "rental_uris": {"ios": "https://dc.lft.to/lastmile_qr_scan", "android": "https://dc.lft.to/lastmile_qr_scan"}, "fusion_lon": 0.0, "lon": -77.02200183333333, "name": "bcde3e8e724920b4b35f17ee70683d87", "is_reserved": 0, "is_disabled": 0}, {"lat": 38.9224, "fusion_lat": 0.0, "type": "electric_scooter", "bike_id": "5014771c866c6c085e668c2d9fb8d012", "rental_uris": {"ios": "https://dc.lft.to/lastmile_qr_scan", "android": "https://dc.lft.to/lastmile_qr_scan"}, "fusion_lon": 0.0, "lon": -77.021993, "name": "5014771c866c6c085e668c2d9fb8d012", "is_reserved": 0, "is_disabled": 0},