{"data": {"bikes": [{"bike_id": "202a7712ad7c2abc4187b25180f350c0", "is_reserved": 0, "fusion_lon": 0.0, "lat": 38.89264, "is_disabled": 0, "name": "202a7712ad7c2abc4187b25180f350c0", "fusion_lat": 0.0, "rental_uris": {"ios": "https://dc.lft.to/lastmile_qr_scan", "android": "https://dc.lft.to/lastmile_qr_scan"}, "lon": -77.02205966666666, "type": "electric_bike"}, {"bike_id": "f35489ec98f80f06060bfaa3fefb03ed", "is_reserved": 0, "fusion_lon": 0.0, "lat": 38.91278616666666, "is_disabled": 0, "name": "f35489ec98f80f06060bfaa3fefb03ed", "fusion_lat": 0.0, "rental_uris": {"ios": "https://dc.lft.to/lastmile_qr_scan", "android": "https://dc.lft.to/lastmile_qr_scan"}, "lon": -77.013526, "type": "electric_scooter"}, {"bike_id": "29339618951b4dd27bb6227556bb9e4b", "is_reserved": 0, "fusion_lon": 0.0, "lat": 38.9062685, "is_disabled": 0, "name": "29339618951b4dd27bb6227556bb9e4b", "fusion_lat": 0.0, "rental_uris": {"ios": "https://dc.lft.to/lastmile_qr_scan", "android": "https://dc.lft.to/lastmile_qr_scan"}, "lon": -77.04140516666666, "type": "electric_scooter"}, {"bike_id": "c246fb9938396e810a2f92578d6832ca", "is_reserved": 0, "fusion_lon": 0.0, "lat": 38.90092416666667, "is_disabled": 0, "name": "c246fb9938396e810a2f92578d6832ca", "fusion_lat": 0.0, "rental_uris": {"ios": "https://dc.lft.to/lastmile_qr_scan", "android": "https://dc.lft.to/lastmile_qr_scan"}, "lon": -76.97467383333333, "type": "electric_scooter"}, {"bike_id": "6384672a8eac1797f8d8c7a9b06d5ad5", "is_reserved": 0, "fusion_lon": 0.0, "lat": 38.9310495, "is_disabled": 0, "name": "6384672a8eac1797f8d8c7a9b06d5ad5", "fusion_lat": 0.0, "rental_uris": {"ios": "https://dc.lft.to/lastmile_qr_scan", "android": "https://dc.lft.to/lastmile_qr_scan"}, "lon": -77.03813066666666, "type": "electric_scooter"}, {"bike_id": "086f65b0af9786b4caed5083a4546410", "is_reserved": 0, "fusion_lon": 0.0, "lat": 38.9096645, "is_disabled": 0, "name": "086f65b0af9786b4caed5083a4546410", "fusion_lat": 0.0, "rental_uris": {"ios": "https://dc.lft.to/lastmile_qr_scan", "android": "https://dc.lft.to/lastmile_qr_scan"}, "lon": -77.02551283333334, "type": "electric_scooter"}, {"bike_id": "8fef857634c98559131bfa2f699fc311", "is_reserved": 0, "fusion_lon": 0.0, "lat": 38.90723333333333, "is_disabled": 0, "name": "8fef857634c98559131bfa2f699fc311", "fusion_lat": 0.0, "rental_uris": {"ios": "https://dc.lft.to/lastmile_qr_scan", "android": "https://dc.lft.to/lastmile_qr_scan"}, "lon": -77.03211616666667, "type": "electric_scooter"}, {"bike_id": "f06d8ae53595f7caf0ec15a87aeeed04", "is_reserved": 0, "fusion_lon": 0.0, "lat": 38.900030666666666, "is_disabled": 0, "name": "f06d8ae53595f7caf0ec15a87aeeed04", "fusion_lat": 0.0, "rental_uris": {"ios": "https://dc.lft.to/lastmile_qr_scan", "android": "https://dc.lft.to/lastmile_qr_scan"}, "lon": -77.0405565, "type": "electric_scooter"}, {"bike_id": "c23eac7aa2b416dc7ab6c0b4b5f8a9d4", "is_reserved": 0, "fusion_lon": 0.0, "lat": 38.8973235, "is_disabled": 0, "name": "c23eac7aa2b416dc7ab6c0b4b5f8a9d4", "fusion_lat": 0.0, "rental_uris": {"ios": "https://dc.lft.to/lastmile_qr_scan", "android": "https://dc.lft.to/lastmile_qr_scan"}, "lon": -77.04353966666666, "type": "electric_scooter"}, {"bike_id": "e376232651fbfb5267e1f08451bd705b", "is_reserved": 0, "fusion_lon": 0.0, "lat": 38.8784895, "is_disabled": 0, "name": "e376232651fbfb5267e1f08451bd705b", "fusion_lat": 0.0, "rental_uris": {"ios": "https://dc.lft.to/lastmile_qr_scan", "android": "https://dc.lft.to/lastmile_qr_scan"}, "lon": -76.9884265, "type": "electric_scooter"}, {"bike_id": "eaae0b7ce28e56fa4904815d77a84c47", "is_reserved": 0, "fusion_lon": 0.0, "lat": 38.91584533333333, "is_disabled": 0, "name": "eaae0b7ce28e56fa4904815d77a84c47", "fusion_lat": 0.0, "rental_uris": {"ios": "https://dc.lft.to/lastmile_qr_scan", "android": "https://dc.lft.to/lastmile_qr_scan"}, "lon": -77.050274, "type": "electric_bike"}, {"bike_id": "ee019ad1730cf6666701d4eead79568d", "is_reserved": 0, "fusion_lon": 0.0, "lat": 38.909736, "is_disabled": 0, "name": "ee019ad1730cf6666701d4eead79568d", "fusion_lat": 0.0, "rental_uris": {"ios": "https://dc.lft.to/lastmile_qr_scan", "android": "https://dc.lft.to/lastmile_qr_scan"}, "lon": -77.04872533333334, "type": "electric_scooter"}, {"bike_id": "fa3348d9fd1794429cf983c9e5bb346c", "is_reserved": 0, "fusion_lon": 0.0, "lat": 38.914878, "is_disabled": 0, "name": "fa3348d9fd1794429cf983c9e5bb346c", "fusion_lat": 0.0, "rental_uris": {"ios": "https://dc.lft.to/lastmile_qr_scan", "android": "https://dc.lft.to/lastmile_qr_scan"}, "lon": -77.04091566666666, "type": "electric_scooter"}, {"bike_id": "82532027055e8339b50efad5d5806087", "is_reserved": 0, "fusion_lon": 0.0, "lat": 38.88421066666667, "is_disabled": 0, "name": "82532027055e8339b50efad5d5806087", "fusion_lat": 0.0, "rental_uris": {"ios": "https://dc.lft.to/lastmile_qr_scan", "android": "https://dc.lft.to/lastmile_qr_scan"}, "lon": -77.026252, "type": "electric_scooter"}, {"bike_id": "d1fd88de0b703e2c00b303849e459cb6", "is_reserved": 0, "fusion_lon": 0.0, "lat": 38.900331, "is_disabled": 0, "name": "d1fd88de0b703e2c00b303849e459cb6", "fusion_lat": 0.0, "rental_uris": {"ios": "https://dc.lft.to/lastmile_qr_scan", "android": "https://dc.lft.to/lastmile_qr_scan"}, "lon": -76.99066566666667, "type": "electric_scooter"}, {"bike_id": "709554e16999ff72011e4dbc52cecef4", "is_reserved": 0, "fusion_lon": 0.0, "lat": 38.907183833333335, "is_disabled": 0, "name": "709554e16999ff72011e4dbc52cecef4", "fusion_lat": 0.0, "rental_uris": {"ios": "https://dc.lft.to/lastmile_qr_scan", "android": "https://dc.lft.to/lastmile_qr_scan"}, "lon": -77.03514633333333, "type": "electric_scooter"}, {"bike_id": "151e0bdb12999d517c270200a565f573", "is_reserved": 0, "fusion_lon": 0.0, "lat": 38.8768945, "is_disabled": 0, "name": "151e0bdb12999d517c270200a565f573", "fusion_lat": 0.0, "rental_uris": {"ios": "https://dc.lft.to/lastmile_qr_scan", "android": "https://dc.lft.to/lastmile_qr_scan"}, "lon": -77.00738916666667, "type": "electric_scooter"}, {"bike_id": "ce56e6de92ff467b9985cc3e863bc241", "is_reserved": 0, "fusion_lon": 0.0, "lat": 38.94211516666667, "is_disabled": 0, "name": "ce56e6de92ff467b9985cc3e863bc241", "fusion_lat": 0.0, "rental_uris": {"ios": "https://dc.lft.to/lastmile_qr_scan", "android": "https://dc.lft.to/lastmile_qr_scan"}, "lon": -77.0359205, "type": "electric_scooter"}, {"bike_id": "cae24a37031681fd0921ce2384c9ab53", "is_reserved": 0, "fusion_lon": 0.0, "lat": 38.9212475, "is_disabled": 0, "name": "cae24a37031681fd0921ce2384c9ab53", "fusion_lat": 0.0, "rental_uris": {"ios": "https://dc.lft.to/lastmile_qr_scan", "android": "https://dc.lft.to/lastmile_qr_scan"}, "lon": -77.036444, "type": "electric_scooter"}, {"bike_id": "0b7469d9a0d7bf00a69292597fb8ce0f", "is_reserved": 0, "fusion_lon": 0.0, "lat": 38.93791566666667, "is_disabled": 0, "name": "0b7469d9a0d7bf00a69292597fb8ce0f", "fusion_lat": 0.0, "rental_uris": {"ios": "https://dc.lft.to/lastmile_qr_scan", "android": "https://dc.lft.to/lastmile_qr_scan"}, "lon": -77.02335866666667, "type": "electric_scooter"}, {"bike_id": "d4b6dac50ca518ffd47e0518f2346129", "is_reserved": 0, "fusion_lon": 0.0, "lat": 38.900309, "is_disabled": 0, "name": "d4b6dac50ca518ffd47e0518f2346129", "fusion_lat": 0.0, "rental_uris": {"ios": "https://dc.lft.to/lastmile_qr_scan", "android": "https://dc.lft.to/lastmile_qr_scan"}, "lon": -76.9879565, "type": "electric_scooter"}, {"bike_id": "db7139ac5a52a2565f6f9daf10895012", "is_reserved": 0, "fusion_lon": 0.0, "lat": 38.901865, "is_disabled": 0, "name": "db7139ac5a52a2565f6f9daf10895012", "fusion_lat": 0.0, "rental_uris": {"ios": "https://dc.lft.to/lastmile_qr_scan", "android": "https://dc.lft.to/lastmile_qr_scan"}, "lon": -76.93000216666667, "type": "electric_scooter"}, {"bike_id": "bf48c251a4e4c279b69dd69c9d1d967b", "is_reserved": 0, "fusion_lon": 0.0, "lat": 38.908412166666665, "is_disabled": 0, "name": "bf48c251a4e4c279b69dd69c9d1d967b", "fusion_lat": 0.0, "rental_uris": {"ios": "https://dc.lft.to/lastmile_qr_scan", "android": "https://dc.lft.to/lastmile_qr_scan"}, "lon": -77.025953, "type": "electric_scooter"}, {"bike_id": "c4588f84012c8bcc6daa9d718cbf6bc3", "is_reserved": 0, "fusion_lon": 0.0, "lat": 38.890944166666664, "is_disabled": 0, "name": "c4588f84012c8bcc6daa9d718cbf6bc3", "fusion_lat": 0.0, "rental_uris": {"ios": "https://dc.lft.to/lastmile_qr_scan", "android": "https://dc.lft.to/lastmile_qr_scan"}, "lon": -76.9874515, "type": "electric_scooter"}, {"bike_id": "236479437c31cf6186790ea27ff757eb", "is_reserved": 0, "fusion_lon": 0.0, "lat": 38.9133275, "is_disabled": 0, "name": "236479437c31cf6186790ea27ff757eb", "fusion_lat": 0.0, "rental_uris": {"ios": "https://dc.lft.to/lastmile_qr_scan", "android": "https://dc.lft.to/lastmile_qr_scan"}, "lon": -77.04840183333333, "type": "electric_scooter"}, {"bike_id": "4e21f36b5e6a342a144f23b3583f9d7f", "is_reserved": 0, "fusion_lon": 0.0, "lat": 38.86354216666667, "is_disabled": 0, "name": "4e21f36b5e6a342a144f23b3583f9d7f", "fusion_lat": 0.0, "rental_uris": {"ios": "https://dc.lft.to/lastmile_qr_scan", "android": "https://dc.lft.to/lastmile_qr_scan"}, "lon": -76.99070216666667, "type": "electric_scooter"}, {"bike_id": "18467f714571802b02412ed0bd186445", "is_reserved": 0, "fusion_lon": 0.0, "lat": 38.89754466666667, "is_disabled": 0, "name": "18467f714571802b02412ed0bd186445", "fusion_lat": 0.0, "rental_uris": {"ios": "https://dc.lft.to/lastmile_qr_scan", "android": "https://dc.lft.to/lastmile_qr_scan"}, "lon": -76.94181916666666, "type": "electric_scooter"}, {"bike_id": "369ace2d73e533d251f0944c52a42196", "is_reserved": 0, "fusion_lon": 0.0, "lat": 38.920932666666666, "is_disabled": 0, "name": "369ace2d73e533d251f0944c52a42196", "fusion_lat": 0.0, "rental_uris": {"ios": "https://dc.lft.to/lastmile_qr_scan", "android": "https://dc.lft.to/lastmile_qr_scan"}, "lon": -77.02594383333333, "type": "electric_scooter"}, {"bike_id": "5966e6f3727d49d44a4bacbf918d5db8", "is_reserved": 0, "fusion_lon": 0.0, "lat": 38.92476083333333, "is_disabled": 0, "name": "5966e6f3727d49d44a4bacbf918d5db8", "fusion_lat": 0.0, "rental_uris": {"ios": "https://dc.lft.to/lastmile_qr_scan", "android": "https://dc.lft.to/lastmile_qr_scan"}, "lon": -77.03544566666666, "type": "electric_scooter"}, {"bike_id": "10117415994f56ede25e15fbe9c4b2d2", "is_reserved": 0, "fusion_lon": 0.0, "lat": 38.90448833333333, "is_disabled": 0, "name": "10117415994f56ede25e15fbe9c4b2d2", "fusion_lat": 0.0, "rental_uris": {"ios": "https://dc.lft.to/lastmile_qr_scan", "android": "https://dc.lft.to/lastmile_qr_scan"}, "lon": -77.04893566666667, "type": "electric_scooter"}, {"bike_id": "503814670dd88953107271956cbc5f9c", "is_reserved": 0, "fusion_lon": 0.0, "lat": 38.88434983333333, "is_disabled": 0, "name": "503814670dd88953107271956cbc5f9c", "fusion_lat": 0.0, "rental_uris": {"ios": "https://dc.lft.to/lastmile_qr_scan", "android": "https://dc.lft.to/lastmile_qr_scan"}, "lon": -76.95755583333333, "type": "electric_scooter"}, {"bike_id": "3794eb35803051570251c2b45a5bd408", "is_reserved": 0, "fusion_lon": 0.0, "lat": 38.90739133333334, "is_disabled": 0, "name": "3794eb35803051570251c2b45a5bd408", "fusion_lat": 0.0, "rental_uris": {"ios": "https://dc.lft.to/lastmile_qr_scan", "android": "https://dc.lft.to/lastmile_qr_scan"}, "lon": -77.0356435, "type": "electric_scooter"}, {"bike_id": "7b61ee290a7e020c3fb35073d323479f", "is_reserved": 0, "fusion_lon": 0.0, "lat": 38.91678916666667, "is_disabled": 0, "name": "7b61ee290a7e020c3fb35073d323479f", "fusion_lat": 0.0, "rental_uris": {"ios": "https://dc.lft.to/lastmile_qr_scan", "android": "https://dc.lft.to/lastmile_qr_scan"}, "lon": -77.02715683333334, "type": "electric_scooter"}, {"bike_id": "27946c211945eb966aaab2ba04e04991", "is_reserved": 0, "fusion_lon": 0.0, "lat": 38.92594366666667, "is_disabled": 0, "name": "27946c211945eb966aaab2ba04e04991", "fusion_lat": 0.0, "rental_uris": {"ios": "https://dc.lft.to/lastmile_qr_scan", "android": "https://dc.lft.to/lastmile_qr_scan"}, "lon": -77.00484916666667, "type": "electric_scooter"}, {"bike_id": "573bd6deab45dede3463f80c317f2201", "is_reserved": 0, "fusion_lon": 0.0, "lat": 38.91330833333333, "is_disabled": 0, "name": "573bd6deab45dede3463f80c317f2201", "fusion_lat": 0.0, "rental_uris": {"ios": "https://dc.lft.to/lastmile_qr_scan", "android": "https://dc.lft.to/lastmile_qr_scan"}, "lon": -77.00225083333333, "type": "electric_scooter"}, {"bike_id": "c81cc78fbc7f5a7ac8aa6172323a4bc1", "is_reserved": 0, "fusion_lon": 0.0, "lat": 38.95484533333333, "is_disabled": 0, "name": "c81cc78fbc7f5a7ac8aa6172323a4bc1", "fusion_lat": 0.0, "rental_uris": {"ios": "https://dc.lft.to/lastmile_qr_scan", "android": "https://dc.lft.to/lastmile_qr_scan"}, "lon": -77.08244983333333, "type": "electric_bike"}, {"bike_id": "4d1a183c29bf3804fb38464688253235", "is_reserved": 0, "fusion_lon": 0.0, "lat": 38.9206635, "is_disabled": 0, "name": "4d1a183c29bf3804fb38464688253235", "fusion_lat": 0.0, "rental_uris": {"ios": "https://dc.lft.to/lastmile_qr_scan", "android": "https://dc.lft.to/lastmile_qr_scan"}, "lon": -77.04263733333333, "type": "electric_scooter"}, {"bike_id": "88a1d0ae6e4b320e77d45b6520d22a52", "is_reserved": 0, "fusion_lon": 0.0, "lat": 38.92061916666667, "is_disabled": 0, "name": "88a1d0ae6e4b320e77d45b6520d22a52", "fusion_lat": 0.0, "rental_uris": {"ios": "https://dc.lft.to/lastmile_qr_scan", "android": "https://dc.lft.to/lastmile_qr_scan"}, "lon": -77.04257983333333, "type": "electric_scooter"}, {"bike_id": "472f3581ee9e48a8e72a959f6057b34a", "is_reserved": 0, "fusion_lon": 0.0, "lat": 38.9439875, "is_disabled": 0, "name": "472f3581ee9e48a8e72a959f6057b34a", "fusion_lat": 0.0, "rental_uris": {"ios": "https://dc.lft.to/lastmile_qr_scan", "android": "https://dc.lft.to/lastmile_qr_scan"}, "lon": -77.03895783333333, "type": "electric_scooter"}, {"bike_id": "b4bb7965ae3e6559c2c1dc601548696b", "is_reserved": 0, "fusion_lon": 0.0, "lat": 38.9257565, "is_disabled": 0, "name": "b4bb7965ae3e6559c2c1dc601548696b", "fusion_lat": 0.0, "rental_uris": {"ios": "https://dc.lft.to/lastmile_qr_scan", "android": "https://dc.lft.to/lastmile_qr_scan"}, "lon": -77.02570366666667, "type": "electric_scooter"}, {"bike_id": "0ecb42b1b4dd21f2a5b78e725527f890", "is_reserved": 0, "fusion_lon": 0.0, "lat": 38.89872183333333, "is_disabled": 0, "name": "0ecb42b1b4dd21f2a5b78e725527f890", "fusion_lat": 0.0, "rental_uris": {"ios": "https://dc.lft.to/lastmile_qr_scan", "android": "https://dc.lft.to/lastmile_qr_scan"}, "lon": -76.931607, "type": "electric_scooter"}, {"bike_id": "8a97b50ae3f85fae4280c127e27c58dd", "is_reserved": 0, "fusion_lon": 0.0, "lat": 38.921662833333336, "is_disabled": 0, "name": "8a97b50ae3f85fae4280c127e27c58dd", "fusion_lat": 0.0, "rental_uris": {"ios": "https://dc.lft.to/lastmile_qr_scan", "android": "https://dc.lft.to/lastmile_qr_scan"}, "lon": -77.03290966666667, "type": "electric_scooter"}, {"bike_id": "473211b5b2997ddc8d09f2faa3012ea1", "is_reserved": 0, "fusion_lon": 0.0, "lat": 38.90119516666667, "is_disabled": 0, "name": "473211b5b2997ddc8d09f2faa3012ea1", "fusion_lat": 0.0, "rental_uris": {"ios": "https://dc.lft.to/lastmile_qr_scan", "android": "https://dc.lft.to/lastmile_qr_scan"}, "lon": -77.04375983333334, "type": "electric_scooter"}, {"bike_id": "caf0a424f85be3d433fcf95a539e3581", "is_reserved": 0, "fusion_lon": 0.0, "lat": 38.91795466666667, "is_disabled": 0, "name": "caf0a424f85be3d433fcf95a539e3581", "fusion_lat": 0.0, "rental_uris": {"ios": "https://dc.lft.to/lastmile_qr_scan", "android": "https://dc.lft.to/lastmile_qr_scan"}, "lon": -77.02336283333334, "type": "electric_scooter"}, {"bike_id": "47a2a64bbe989c75831cf45aba1122a0", "is_reserved": 0, "fusion_lon": 0.0, "lat": 38.924474000000004, "is_disabled": 0, "name": "47a2a64bbe989c75831cf45aba1122a0", "fusion_lat": 0.0, "rental_uris": {"ios": "https://dc.lft.to/lastmile_qr_scan", "android": "https://dc.lft.to/lastmile_qr_scan"}, "lon": -76.99336383333333, "type": "electric_scooter"}, {"bike_id": "456507a855915189fa8a06f38f9e907f", "is_reserved": 0, "fusion_lon": 0.0, "lat": 38.91405266666666, "is_disabled": 0, "name": "456507a855915189fa8a06f38f9e907f", "fusion_lat": 0.0, "rental_uris": {"ios": "https://dc.lft.to/lastmile_qr_scan", "android": "https://dc.lft.to/lastmile_qr_scan"}, "lon": -77.0015415, "type": "electric_scooter"}, {"bike_id": "35a36f5cf0fd888d20bb2441f36a7e2a", "is_reserved": 0, "fusion_lon": 0.0, "lat": 38.917353, "is_disabled": 0, "name": "35a36f5cf0fd888d20bb2441f36a7e2a", "fusion_lat": 0.0, "rental_uris": {"ios": "https://dc.lft.to/lastmile_qr_scan", "android": "https://dc.lft.to/lastmile_qr_scan"}, "lon": -77.01032833333333, "type": "electric_scooter"}, {"bike_id": "1a044557f2bd098bc72961fd46d796a1", "is_reserved": 0, "fusion_lon": 0.0, "lat": 38.9127, "is_disabled": 0, "name": "1a044557f2bd098bc72961fd46d796a1", "fusion_lat": 0.0, "rental_uris": {"ios": "https://dc.lft.to/lastmile_qr_scan", "android": "https://dc.lft.to/lastmile_qr_scan"}, "lon": -77.02215566666666, "type": "electric_scooter"}, {"bike_id": "49a9e5c368f8ba0f34dd1dfa52886f52", "is_reserved": 0, "fusion_lon": 0.0, "lat": 38.92082466666667, "is_disabled": 0, "name": "49a9e5c368f8ba0f34dd1dfa52886f52", "fusion_lat": 0.0, "rental_uris": {"ios": "https://dc.lft.to/lastmile_qr_scan", "android": "https://dc.lft.to/lastmile_qr_scan"}, "lon": -77.0243565, "type": "electric_scooter"}, {"bike_id": "cb565428e305ef375d61b8a7929a9729", "is_reserved": 0, "fusion_lon": 0.0, "lat": 38.92637933333334, "is_disabled": 0, "name": "cb565428e305ef375d61b8a7929a9729", "fusion_lat": 0.0, "rental_uris": {"ios": "https://dc.lft.to/lastmile_qr_scan", "android": "https://dc.lft.to/lastmile_qr_scan"}, "lon": -77.0331355, "type": "electric_bike"}, {"bike_id": "85fb30a61cd2487d2a8350d1ccb6ff23", "is_reserved": 0, "fusion_lon": 0.0, "lat": 38.91721116666667, "is_disabled": 0, "name": "85fb30a61cd2487d2a8350d1ccb6ff23", "fusion_lat": 0.0, "rental_uris": {"ios": "https://dc.lft.to/lastmile_qr_scan", "android": "https://dc.lft.to/lastmile_qr_scan"}, "lon": -77.03842533333334, "type": "electric_scooter"}, {"bike_id": "5df8b00a8ca67c281200ffbaf6c8f478", "is_reserved": 0, "fusion_lon": 0.0, "lat": 38.90972583333333, "is_disabled": 0, "name": "5df8b00a8ca67c281200ffbaf6c8f478", "fusion_lat": 0.0, "rental_uris": {"ios": "https://dc.lft.to/lastmile_qr_scan", "android": "https://dc.lft.to/lastmile_qr_scan"}, "lon": -77.02723166666667, "type": "electric_scooter"}, {"bike_id": "a03235879d26582cf67a28373f38a4f4", "is_reserved": 0, "fusion_lon": 0.0, "lat": 38.921876, "is_disabled": 0, "name": "a03235879d26582cf67a28373f38a4f4", "fusion_lat": 0.0, "rental_uris": {"ios": "https://dc.lft.to/lastmile_qr_scan", "android": "https://dc.lft.to/lastmile_qr_scan"}, "lon": -77.04285033333333, "type": "electric_scooter"}, {"bike_id": "b8f115e4da8385bf94daa0c093468ed1", "is_reserved": 0, "fusion_lon": 0.0, "lat": 38.910406333333334, "is_disabled": 0, "name": "b8f115e4da8385bf94daa0c093468ed1", "fusion_lat": 0.0, "rental_uris": {"ios": "https://dc.lft.to/lastmile_qr_scan", "android": "https://dc.lft.to/lastmile_qr_scan"}, "lon": -77.02814283333333, "type": "electric_scooter"}, {"bike_id": "b2777d3bd845380e6e3432a7077c1ded", "is_reserved": 0, "fusion_lon": 0.0, "lat": 38.89898183333333, "is_disabled": 0, "name": "b2777d3bd845380e6e3432a7077c1ded", "fusion_lat": 0.0, "rental_uris": {"ios": "https://dc.lft.to/lastmile_qr_scan", "android": "https://dc.lft.to/lastmile_qr_scan"}, "lon": -77.044792, "type": "electric_scooter"}, {"bike_id": "ec4795b2f51e921d35014f32b6c26252", "is_reserved": 0, "fusion_lon": 0.0, "lat": 38.907188166666664, "is_disabled": 0, "name": "ec4795b2f51e921d35014f32b6c26252", "fusion_lat": 0.0, "rental_uris": {"ios": "https://dc.lft.to/lastmile_qr_scan", "android": "https://dc.lft.to/lastmile_qr_scan"}, "lon": -77.026592, "type": "electric_scooter"}, {"bike_id": "0e9d545dcf85ed6a89efacdbed7a5d00", "is_reserved": 0, "fusion_lon": 0.0, "lat": 38.935001166666666, "is_disabled": 0, "name": "0e9d545dcf85ed6a89efacdbed7a5d00", "fusion_lat": 0.0, "rental_uris": {"ios": "https://dc.lft.to/lastmile_qr_scan", "android": "https://dc.lft.to/lastmile_qr_scan"}, "lon": -77.0352305, "type": "electric_scooter"}, {"bike_id": "6b0f9b1861b18b36b8c27a75992b7c1b", "is_reserved": 0, "fusion_lon": 0.0, "lat": 38.915645, "is_disabled": 0, "name": "6b0f9b1861b18b36b8c27a75992b7c1b", "fusion_lat": 0.0, "rental_uris": {"ios": "https://dc.lft.to/lastmile_qr_scan", "android": "https://dc.lft.to/lastmile_qr_scan"}, "lon": -77.03916766666667, "type": "electric_scooter"}, {"bike_id": "f6924e89724b3d388e112d8ebd59d955", "is_reserved": 0, "fusion_lon": 0.0, "lat": 38.95088416666667, "is_disabled": 0, "name": "f6924e89724b3d388e112d8ebd59d955", "fusion_lat": 0.0, "rental_uris": {"ios": "https://dc.lft.to/lastmile_qr_scan", "android": "https://dc.lft.to/lastmile_qr_scan"}, "lon": -77.02837633333333, "type": "electric_scooter"}, {"bike_id": "c4850456eab2ba59b9d684129f4a6785", "is_reserved": 0, "fusion_lon": 0.0, "lat": 38.93060066666666, "is_disabled": 0, "name": "c4850456eab2ba59b9d684129f4a6785", "fusion_lat": 0.0, "rental_uris": {"ios": "https://dc.lft.to/lastmile_qr_scan", "android": "https://dc.lft.to/lastmile_qr_scan"}, "lon": -77.029643, "type": "electric_scooter"}, {"bike_id": "5b6e7edde16a194d0c2959d3a0e93f44", "is_reserved": 0, "fusion_lon": 0.0, "lat": 38.92572583333333, "is_disabled": 0, "name": "5b6e7edde16a194d0c2959d3a0e93f44", "fusion_lat": 0.0, "rental_uris": {"ios": "https://dc.lft.to/lastmile_qr_scan", "android": "https://dc.lft.to/lastmile_qr_scan"}, "lon": -77.07306883333334, "type": "electric_scooter"}, {"bike_id": "c3fe744a4f69eb72053baf236b1dab60", "is_reserved": 0, "fusion_lon": 0.0, "lat": 38.92194, "is_disabled": 0, "name": "c3fe744a4f69eb72053baf236b1dab60", "fusion_lat": 0.0, "rental_uris": {"ios": "https://dc.lft.to/lastmile_qr_scan", "android": "https://dc.lft.to/lastmile_qr_scan"}, "lon": -77.04261316666667, "type": "electric_scooter"}, {"bike_id": "1ca17f0135f09275c3a72d4b1cb6ea53", "is_reserved": 0, "fusion_lon": 0.0, "lat": 38.9096055, "is_disabled": 0, "name": "1ca17f0135f09275c3a72d4b1cb6ea53", "fusion_lat": 0.0, "rental_uris": {"ios": "https://dc.lft.to/lastmile_qr_scan", "android": "https://dc.lft.to/lastmile_qr_scan"}, "lon": -77.01999, "type": "electric_scooter"}, {"bike_id": "21849c73b7c632bad7c1252c0f293662", "is_reserved": 0, "fusion_lon": 0.0, "lat": 38.8980445, "is_disabled": 0, "name": "21849c73b7c632bad7c1252c0f293662", "fusion_lat": 0.0, "rental_uris": {"ios": "https://dc.lft.to/lastmile_qr_scan", "android": "https://dc.lft.to/lastmile_qr_scan"}, "lon": -76.991673, "type": "electric_scooter"}, {"bike_id": "522a4edce1854b85b261c03f41b12a54", "is_reserved": 0, "fusion_lon": 0.0, "lat": 38.81048633333333, "is_disabled": 0, "name": "522a4edce1854b85b261c03f41b12a54", "fusion_lat": 0.0, "rental_uris": {"ios": "https://dc.lft.to/lastmile_qr_scan", "android": "https://dc.lft.to/lastmile_qr_scan"}, "lon": -77.08508616666667, "type": "electric_bike"}, {"bike_id": "cf13c0d804ba7bd5c098440f1b1f90cf", "is_reserved": 0, "fusion_lon": 0.0, "lat": 38.931537, "is_disabled": 0, "name": "cf13c0d804ba7bd5c098440f1b1f90cf", "fusion_lat": 0.0, "rental_uris": {"ios": "https://dc.lft.to/lastmile_qr_scan", "android": "https://dc.lft.to/lastmile_qr_scan"}, "lon": -77.04368066666666, "type": "electric_scooter"}, {"bike_id": "13aff0638cbe2f8bc049398e40d279e9", "is_reserved": 0, "fusion_lon": 0.0, "lat": 38.911829833333336, "is_disabled": 0, "name": "13aff0638cbe2f8bc049398e40d279e9", "fusion_lat": 0.0, "rental_uris": {"ios": "https://dc.lft.to/lastmile_qr_scan", "android": "https://dc.lft.to/lastmile_qr_scan"}, "lon": -77.045422, "type": "electric_scooter"}, {"bike_id": "f2b372cdb7ee814539f5f97611b830df", "is_reserved": 0, "fusion_lon": 0.0, "lat": 38.854271833333335, "is_disabled": 0, "name": "f2b372cdb7ee814539f5f97611b830df", "fusion_lat": 0.0, "rental_uris": {"ios": "https://dc.lft.to/lastmile_qr_scan", "android": "https://dc.lft.to/lastmile_qr_scan"}, "lon": -76.9097225, "type": "electric_bike"}, {"bike_id": "2473248229dbc1acae04ba7598d43e11", "is_reserved": 0, "fusion_lon": 0.0, "lat": 38.93502066666667, "is_disabled": 0, "name": "2473248229dbc1acae04ba7598d43e11", "fusion_lat": 0.0, "rental_uris": {"ios": "https://dc.lft.to/lastmile_qr_scan", "android": "https://dc.lft.to/lastmile_qr_scan"}, "lon": -77.02847333333334, "type": "electric_scooter"}, {"bike_id": "9aa15c8d51777d3f54edcec12d5ca47a", "is_reserved": 0, "fusion_lon": 0.0, "lat": 38.9032985, "is_disabled": 0, "name": "9aa15c8d51777d3f54edcec12d5ca47a", "fusion_lat": 0.0, "rental_uris": {"ios": "https://dc.lft.to/lastmile_qr_scan", "android": "https://dc.lft.to/lastmile_qr_scan"}, "lon": -77.0332155, "type": "electric_scooter"}, {"bike_id": "5e773d255d54f46924d744c5d7843d8b", "is_reserved": 0, "fusion_lon": 0.0, "lat": 38.946066333333334, "is_disabled": 0, "name": "5e773d255d54f46924d744c5d7843d8b", "fusion_lat": 0.0, "rental_uris": {"ios": "https://dc.lft.to/lastmile_qr_scan", "android": "https://dc.lft.to/lastmile_qr_scan"}, "lon": -77.02978733333333, "type": "electric_scooter"}, {"bike_id": "115524551dffb5cf3214ed239fe2c380", "is_reserved": 0, "fusion_lon": 0.0, "lat": 38.9115305, "is_disabled": 0, "name": "115524551dffb5cf3214ed239fe2c380", "fusion_lat": 0.0, "rental_uris": {"ios": "https://dc.lft.to/lastmile_qr_scan", "android": "https://dc.lft.to/lastmile_qr_scan"}, "lon": -77.00301666666667, "type": "electric_bike"}, {"bike_id": "12099e3aafcd6156cb58fe58361c189b", "is_reserved": 0, "fusion_lon": 0.0, "lat": 38.9002875, "is_disabled": 0, "name": "12099e3aafcd6156cb58fe58361c189b", "fusion_lat": 0.0, "rental_uris": {"ios": "https://dc.lft.to/lastmile_qr_scan", "android": "https://dc.lft.to/lastmile_qr_scan"}, "lon": -76.99530516666667, "type": "electric_scooter"}, {"bike_id": "97d4e3d44ff0636a715cd704606785de", "is_reserved": 0, "fusion_lon": 0.0, "lat": 38.8442265, "is_disabled": 0, "name": "97d4e3d44ff0636a715cd704606785de", "fusion_lat": 0.0, "rental_uris": {"ios": "https://dc.lft.to/lastmile_qr_scan", "android": "https://dc.lft.to/lastmile_qr_scan"}, "lon": -76.99776266666667, "type": "electric_scooter"}, {"bike_id": "2ca0eac57203febb96ac6a8bc669316b", "is_reserved": 0, "fusion_lon": 0.0, "lat": 38.88599583333333, "is_disabled": 0, "name": "2ca0eac57203febb96ac6a8bc669316b", "fusion_lat": 0.0, "rental_uris": {"ios": "https://dc.lft.to/lastmile_qr_scan", "android": "https://dc.lft.to/lastmile_qr_scan"}, "lon": -77.0057805, "type": "electric_scooter"}, {"bike_id": "67a0b109ddfb324de082d96ee6a4172a", "is_reserved": 0, "fusion_lon": 0.0, "lat": 38.8922285, "is_disabled": 0, "name": "67a0b109ddfb324de082d96ee6a4172a", "fusion_lat": 0.0, "rental_uris": {"ios": "https://dc.lft.to/lastmile_qr_scan", "android": "https://dc.lft.to/lastmile_qr_scan"}, "lon": -77.04863983333334, "type": "electric_scooter"}, {"bike_id": "fca13391f0aa54112815d50ec6738442", "is_reserved": 0, "fusion_lon": 0.0, "lat": 38.914506333333335, "is_disabled": 0, "name": "fca13391f0aa54112815d50ec6738442", "fusion_lat": 0.0, "rental_uris": {"ios": "https://dc.lft.to/lastmile_qr_scan", "android": "https://dc.lft.to/lastmile_qr_scan"}, "lon": -77.0347615, "type": "electric_scooter"}, {"bike_id": "b4c99377c95cd24e3d5ed76da5856bc3", "is_reserved": 0, "fusion_lon": 0.0, "lat": 38.9119265, "is_disabled": 0, "name": "b4c99377c95cd24e3d5ed76da5856bc3", "fusion_lat": 0.0, "rental_uris": {"ios": "https://dc.lft.to/lastmile_qr_scan", "android": "https://dc.lft.to/lastmile_qr_scan"}, "lon": -77.06088366666667, "type": "electric_scooter"}, {"bike_id": "cf545a57dd7c72336857502570722d8c", "is_reserved": 0, "fusion_lon": 0.0, "lat": 38.89226983333333, "is_disabled": 0, "name": "cf545a57dd7c72336857502570722d8c", "fusion_lat": 0.0, "rental_uris": {"ios": "https://dc.lft.to/lastmile_qr_scan", "android": "https://dc.lft.to/lastmile_qr_scan"}, "lon": -77.02631433333333, "type": "electric_scooter"}, {"bike_id": "5c60fe499b5ac043ce897f2601805825", "is_reserved": 0, "fusion_lon": 0.0, "lat": 38.90422616666667, "is_disabled": 0, "name": "5c60fe499b5ac043ce897f2601805825", "fusion_lat": 0.0, "rental_uris": {"ios": "https://dc.lft.to/lastmile_qr_scan", "android": "https://dc.lft.to/lastmile_qr_scan"}, "lon": -77.03268233333333, "type": "electric_scooter"}, {"bike_id": "0fa1ef4d6e10405ac19e90c440083927", "is_reserved": 0, "fusion_lon": 0.0, "lat": 38.9157185, "is_disabled": 0, "name": "0fa1ef4d6e10405ac19e90c440083927", "fusion_lat": 0.0, "rental_uris": {"ios": "https://dc.lft.to/lastmile_qr_scan", "android": "https://dc.lft.to/lastmile_qr_scan"}, "lon": -77.01269633333334, "type": "electric_scooter"}, {"bike_id": "d89d65fd746b309f3d58e502b57e42fa", "is_reserved": 0, "fusion_lon": 0.0, "lat": 38.90511716666666, "is_disabled": 0, "name": "d89d65fd746b309f3d58e502b57e42fa", "fusion_lat": 0.0, "rental_uris": {"ios": "https://dc.lft.to/lastmile_qr_scan", "android": "https://dc.lft.to/lastmile_qr_scan"}, "lon": -77.06387416666666, "type": "electric_bike"}, {"bike_id": "7ccdaf813c4cb3b88768970d0740a721", "is_reserved": 0, "fusion_lon": 0.0, "lat": 38.92483566666667, "is_disabled": 0, "name": "7ccdaf813c4cb3b88768970d0740a721", "fusion_lat": 0.0, "rental_uris": {"ios": "https://dc.lft.to/lastmile_qr_scan", "android": "https://dc.lft.to/lastmile_qr_scan"}, "lon": -77.03190533333333, "type": "electric_scooter"}, {"bike_id": "30975b15e445762437c3130728c6f499", "is_reserved": 0, "fusion_lon": 0.0, "lat": 38.92082816666667, "is_disabled": 0, "name": "30975b15e445762437c3130728c6f499", "fusion_lat": 0.0, "rental_uris": {"ios": "https://dc.lft.to/lastmile_qr_scan", "android": "https://dc.lft.to/lastmile_qr_scan"}, "lon": -77.0243295, "type": "electric_scooter"}, {"bike_id": "ab49696d9061655cbf350cf1156a38f7", "is_reserved": 0, "fusion_lon": 0.0, "lat": 38.9212625, "is_disabled": 0, "name": "ab49696d9061655cbf350cf1156a38f7", "fusion_lat": 0.0, "rental_uris": {"ios": "https://dc.lft.to/lastmile_qr_scan", "android": "https://dc.lft.to/lastmile_qr_scan"}, "lon": -77.01094866666666, "type": "electric_bike"}, {"bike_id": "13a9f83fd8cdd4b6381b36be8d2e4a8f", "is_reserved": 0, "fusion_lon": 0.0, "lat": 38.903772000000004, "is_disabled": 0, "name": "13a9f83fd8cdd4b6381b36be8d2e4a8f", "fusion_lat": 0.0, "rental_uris": {"ios": "https://dc.lft.to/lastmile_qr_scan", "android": "https://dc.lft.to/lastmile_qr_scan"}, "lon": -77.04478766666666, "type": "electric_scooter"}, {"bike_id": "0b4600cfdeb8115f5727da3cc561f1c7", "is_reserved": 0, "fusion_lon": 0.0, "lat": 38.9050965, "is_disabled": 0, "name": "0b4600cfdeb8115f5727da3cc561f1c7", "fusion_lat": 0.0, "rental_uris": {"ios": "https://dc.lft.to/lastmile_qr_scan", "android": "https://dc.lft.to/lastmile_qr_scan"}, "lon": -76.990162, "type": "electric_scooter"}, {"bike_id": "6ddfe4fde3513affe3ede07fa940a7a2", "is_reserved": 0, "fusion_lon": 0.0, "lat": 38.88503866666667, "is_disabled": 0, "name": "6ddfe4fde3513affe3ede07fa940a7a2", "fusion_lat": 0.0, "rental_uris": {"ios": "https://dc.lft.to/lastmile_qr_scan", "android": "https://dc.lft.to/lastmile_qr_scan"}, "lon": -77.00575083333334, "type": "electric_scooter"}, {"bike_id": "d70e0aad820d4f5f267fadfdb989bc17", "is_reserved": 0, "fusion_lon": 0.0, "lat": 38.92245616666666, "is_disabled": 0, "name": "d70e0aad820d4f5f267fadfdb989bc17", "fusion_lat": 0.0, "rental_uris": {"ios": "https://dc.lft.to/lastmile_qr_scan", "android": "https://dc.lft.to/lastmile_qr_scan"}, "lon": -77.0308895, "type": "electric_scooter"}, {"bike_id": "d55ba9ae9a1b9235b18f3ceb7936695f", "is_reserved": 0, "fusion_lon": 0.0, "lat": 38.91358066666667, "is_disabled": 0, "name": "d55ba9ae9a1b9235b18f3ceb7936695f", "fusion_lat": 0.0, "rental_uris": {"ios": "https://dc.lft.to/lastmile_qr_scan", "android": "https://dc.lft.to/lastmile_qr_scan"}, "lon": -77.01761833333333, "type": "electric_scooter"}, {"bike_id": "71674e0c165b04ed326ece7731cbc6f4", "is_reserved": 0, "fusion_lon": 0.0, "lat": 38.91406683333334, "is_disabled": 0, "name": "71674e0c165b04ed326ece7731cbc6f4", "fusion_lat": 0.0, "rental_uris": {"ios": "https://dc.lft.to/lastmile_qr_scan", "android": "https://dc.lft.to/lastmile_qr_scan"}, "lon": -77.03178216666667, "type": "electric_scooter"}, {"bike_id": "9f34a69ce0ffa0b60a8b1d59eb62be2d", "is_reserved": 0, "fusion_lon": 0.0, "lat": 38.91773583333333, "is_disabled": 0, "name": "9f34a69ce0ffa0b60a8b1d59eb62be2d", "fusion_lat": 0.0, "rental_uris": {"ios": "https://dc.lft.to/lastmile_qr_scan", "android": "https://dc.lft.to/lastmile_qr_scan"}, "lon": -77.04757133333334, "type": "electric_scooter"}, {"bike_id": "689a1578c135f4cb9796ab186d7675be", "is_reserved": 0, "fusion_lon": 0.0, "lat": 38.90727233333333, "is_disabled": 0, "name": "689a1578c135f4cb9796ab186d7675be", "fusion_lat": 0.0, "rental_uris": {"ios": "https://dc.lft.to/lastmile_qr_scan", "android": "https://dc.lft.to/lastmile_qr_scan"}, "lon": -77.0294885, "type": "electric_scooter"}, {"bike_id": "bfb7ddffba065b9a5df9b2a091b0956c", "is_reserved": 0, "fusion_lon": 0.0, "lat": 38.90186666666666, "is_disabled": 0, "name": "bfb7ddffba065b9a5df9b2a091b0956c", "fusion_lat": 0.0, "rental_uris": {"ios": "https://dc.lft.to/lastmile_qr_scan", "android": "https://dc.lft.to/lastmile_qr_scan"}, "lon": -76.980824, "type": "electric_scooter"}, {"bike_id": "44483f89f2761db95ae2f07bb4b9fc4f", "is_reserved": 0, "fusion_lon": 0.0, "lat": 38.915488333333336, "is_disabled": 0, "name": "44483f89f2761db95ae2f07bb4b9fc4f", "fusion_lat": 0.0, "rental_uris": {"ios": "https://dc.lft.to/lastmile_qr_scan", "android": "https://dc.lft.to/lastmile_qr_scan"}, "lon": -77.03859, "type": "electric_scooter"}, {"bike_id": "2d7e5f045c9cfe3781a5e18be44a79b0", "is_reserved": 0, "fusion_lon": 0.0, "lat": 38.89980966666667, "is_disabled": 0, "name": "2d7e5f045c9cfe3781a5e18be44a79b0", "fusion_lat": 0.0, "rental_uris": {"ios": "https://dc.lft.to/lastmile_qr_scan", "android": "https://dc.lft.to/lastmile_qr_scan"}, "lon": -76.9914595, "type": "electric_scooter"}, {"bike_id": "f23238c0e6691f144f1195f81f2e030b", "is_reserved": 0, "fusion_lon": 0.0, "lat": 38.906729166666665, "is_disabled": 0, "name": "f23238c0e6691f144f1195f81f2e030b", "fusion_lat": 0.0, "rental_uris": {"ios": "https://dc.lft.to/lastmile_qr_scan", "android": "https://dc.lft.to/lastmile_qr_scan"}, "lon": -77.0376795, "type": "electric_scooter"}, {"bike_id": "88192d8ebb027e25d7467d61eb8e77a0", "is_reserved": 0, "fusion_lon": 0.0, "lat": 38.911022333333335, "is_disabled": 0, "name": "88192d8ebb027e25d7467d61eb8e77a0", "fusion_lat": 0.0, "rental_uris": {"ios": "https://dc.lft.to/lastmile_qr_scan", "android": "https://dc.lft.to/lastmile_qr_scan"}, "lon": -77.00276366666667, "type": "electric_scooter"}, {"bike_id": "fecdf9681cf24117a4432d139c7e418a", "is_reserved": 0, "fusion_lon": 0.0, "lat": 38.9036885, "is_disabled": 0, "name": "fecdf9681cf24117a4432d139c7e418a", "fusion_lat": 0.0, "rental_uris": {"ios": "https://dc.lft.to/lastmile_qr_scan", "android": "https://dc.lft.to/lastmile_qr_scan"}, "lon": -77.04349166666667, "type": "electric_scooter"}, {"bike_id": "43599bfcfa31c582c5d2ea7bd8d9645a", "is_reserved": 0, "fusion_lon": 0.0, "lat": 38.876302, "is_disabled": 0, "name": "43599bfcfa31c582c5d2ea7bd8d9645a", "fusion_lat": 0.0, "rental_uris": {"ios": "https://dc.lft.to/lastmile_qr_scan", "android": "https://dc.lft.to/lastmile_qr_scan"}, "lon": -76.965309, "type": "electric_scooter"}, {"bike_id": "a72db4d848e1303448fb0b22317f99a4", "is_reserved": 0, "fusion_lon": 0.0, "lat": 38.893274, "is_disabled": 0, "name": "a72db4d848e1303448fb0b22317f99a4", "fusion_lat": 0.0, "rental_uris": {"ios": "https://dc.lft.to/lastmile_qr_scan", "android": "https://dc.lft.to/lastmile_qr_scan"}, "lon": -76.92993416666667, "type": "electric_scooter"}, {"bike_id": "e7cf77e45bd9401d78be6892643eb83b", "is_reserved": 0, "fusion_lon": 0.0, "lat": 38.911239333333334, "is_disabled": 0, "name": "e7cf77e45bd9401d78be6892643eb83b", "fusion_lat": 0.0, "rental_uris": {"ios": "https://dc.lft.to/lastmile_qr_scan", "android": "https://dc.lft.to/lastmile_qr_scan"}, "lon": -77.02191683333334, "type": "electric_scooter"}, {"bike_id": "0a062b5bb2c1c834ac3aa027179709d1", "is_reserved": 0, "fusion_lon": 0.0, "lat": 38.9071785, "is_disabled": 0, "name": "0a062b5bb2c1c834ac3aa027179709d1", "fusion_lat": 0.0, "rental_uris": {"ios": "https://dc.lft.to/lastmile_qr_scan", "android": "https://dc.lft.to/lastmile_qr_scan"}, "lon": -77.03217416666666, "type": "electric_scooter"}, {"bike_id": "88e5a2fa7532aaa1b15bcbeb12425a06", "is_reserved": 0, "fusion_lon": 0.0, "lat": 38.907317666666664, "is_disabled": 0, "name": "88e5a2fa7532aaa1b15bcbeb12425a06", "fusion_lat": 0.0, "rental_uris": {"ios": "https://dc.lft.to/lastmile_qr_scan", "android": "https://dc.lft.to/lastmile_qr_scan"}, "lon": -77.03212783333333, "type": "electric_scooter"}, {"bike_id": "e1301fb8955d44a28b49c2e3d8a83843", "is_reserved": 0, "fusion_lon": 0.0, "lat": 38.922875166666664, "is_disabled": 0, "name": "e1301fb8955d44a28b49c2e3d8a83843", "fusion_lat": 0.0, "rental_uris": {"ios": "https://dc.lft.to/lastmile_qr_scan", "android": "https://dc.lft.to/lastmile_qr_scan"}, "lon": -77.03661433333333, "type": "electric_scooter"}, {"bike_id": "18f966f9f18033d99832428acccc8a2c", "is_reserved": 0, "fusion_lon": 0.0, "lat": 38.90574, "is_disabled": 0, "name": "18f966f9f18033d99832428acccc8a2c", "fusion_lat": 0.0, "rental_uris": {"ios": "https://dc.lft.to/lastmile_qr_scan", "android": "https://dc.lft.to/lastmile_qr_scan"}, "lon": -77.0385265, "type": "electric_scooter"}, {"bike_id": "7c97cd759d55bfe1b3d8085ad613f6b9", "is_reserved": 0, "fusion_lon": 0.0, "lat": 38.90415866666667, "is_disabled": 0, "name": "7c97cd759d55bfe1b3d8085ad613f6b9", "fusion_lat": 0.0, "rental_uris": {"ios": "https://dc.lft.to/lastmile_qr_scan", "android": "https://dc.lft.to/lastmile_qr_scan"}, "lon": -77.04338533333333, "type": "electric_scooter"}, {"bike_id": "33c9286df31b06e44cdf537b3d112bf0", "is_reserved": 0, "fusion_lon": 0.0, "lat": 38.89655533333333, "is_disabled": 0, "name": "33c9286df31b06e44cdf537b3d112bf0", "fusion_lat": 0.0, "rental_uris": {"ios": "https://dc.lft.to/lastmile_qr_scan", "android": "https://dc.lft.to/lastmile_qr_scan"}, "lon": -77.0323095, "type": "electric_scooter"}, {"bike_id": "a867577fd6b5b2057a47f1d194b3ac86", "is_reserved": 0, "fusion_lon": 0.0, "lat": 38.920998166666664, "is_disabled": 0, "name": "a867577fd6b5b2057a47f1d194b3ac86", "fusion_lat": 0.0, "rental_uris": {"ios": "https://dc.lft.to/lastmile_qr_scan", "android": "https://dc.lft.to/lastmile_qr_scan"}, "lon": -77.0316585, "type": "electric_scooter"}, {"bike_id": "31d85658c9d84df9ff51f156dbd0e2d3", "is_reserved": 0, "fusion_lon": 0.0, "lat": 38.9059265, "is_disabled": 0, "name": "31d85658c9d84df9ff51f156dbd0e2d3", "fusion_lat": 0.0, "rental_uris": {"ios": "https://dc.lft.to/lastmile_qr_scan", "android": "https://dc.lft.to/lastmile_qr_scan"}, "lon": -77.00281116666666, "type": "electric_scooter"}, {"bike_id": "5f29fd7fdd86bd2cc120787d79c9f46b", "is_reserved": 0, "fusion_lon": 0.0, "lat": 38.930960166666665, "is_disabled": 0, "name": "5f29fd7fdd86bd2cc120787d79c9f46b", "fusion_lat": 0.0, "rental_uris": {"ios": "https://dc.lft.to/lastmile_qr_scan", "android": "https://dc.lft.to/lastmile_qr_scan"}, "lon": -77.02513933333333, "type": "electric_scooter"}, {"bike_id": "b5636ba8748f25861b59aa20b2bb6288", "is_reserved": 0, "fusion_lon": 0.0, "lat": 38.90042033333334, "is_disabled": 0, "name": "b5636ba8748f25861b59aa20b2bb6288", "fusion_lat": 0.0, "rental_uris": {"ios": "https://dc.lft.to/lastmile_qr_scan", "android": "https://dc.lft.to/lastmile_qr_scan"}, "lon": -77.04692316666667, "type": "electric_scooter"}, {"bike_id": "6ee09821346963d05087a85542ce9e4a", "is_reserved": 0, "fusion_lon": 0.0, "lat": 38.95266566666667, "is_disabled": 0, "name": "6ee09821346963d05087a85542ce9e4a", "fusion_lat": 0.0, "rental_uris": {"ios": "https://dc.lft.to/lastmile_qr_scan", "android": "https://dc.lft.to/lastmile_qr_scan"}, "lon": -77.069919, "type": "electric_bike"}, {"bike_id": "a4ef339596ea878eb6b73e54c5d8f421", "is_reserved": 0, "fusion_lon": 0.0, "lat": 38.866101666666665, "is_disabled": 0, "name": "a4ef339596ea878eb6b73e54c5d8f421", "fusion_lat": 0.0, "rental_uris": {"ios": "https://dc.lft.to/lastmile_qr_scan", "android": "https://dc.lft.to/lastmile_qr_scan"}, "lon": -76.98915216666667, "type": "electric_scooter"}, {"bike_id": "f9237d41973e6592ae54a969005afc91", "is_reserved": 0, "fusion_lon": 0.0, "lat": 38.922497666666665, "is_disabled": 0, "name": "f9237d41973e6592ae54a969005afc91", "fusion_lat": 0.0, "rental_uris": {"ios": "https://dc.lft.to/lastmile_qr_scan", "android": "https://dc.lft.to/lastmile_qr_scan"}, "lon": -77.0182755, "type": "electric_scooter"}, {"bike_id": "e5a171046fcb1de7b15cd80814cb7e07", "is_reserved": 0, "fusion_lon": 0.0, "lat": 38.90574016666667, "is_disabled": 0, "name": "e5a171046fcb1de7b15cd80814cb7e07", "fusion_lat": 0.0, "rental_uris": {"ios": "https://dc.lft.to/lastmile_qr_scan", "android": "https://dc.lft.to/lastmile_qr_scan"}, "lon": -77.02174916666667, "type": "electric_scooter"}, {"bike_id": "2a2d013d1d87961ab9ce159c686e8afe", "is_reserved": 0, "fusion_lon": 0.0, "lat": 38.9236265, "is_disabled": 0, "name": "2a2d013d1d87961ab9ce159c686e8afe", "fusion_lat": 0.0, "rental_uris": {"ios": "https://dc.lft.to/lastmile_qr_scan", "android": "https://dc.lft.to/lastmile_qr_scan"}, "lon": -77.05028466666667, "type": "electric_scooter"}, {"bike_id": "5bccb7a869d94d528c3347c718edb715", "is_reserved": 0, "fusion_lon": 0.0, "lat": 38.905839666666665, "is_disabled": 0, "name": "5bccb7a869d94d528c3347c718edb715", "fusion_lat": 0.0, "rental_uris": {"ios": "https://dc.lft.to/lastmile_qr_scan", "android": "https://dc.lft.to/lastmile_qr_scan"}, "lon": -77.00894316666667, "type": "electric_scooter"}, {"bike_id": "80685303dd393a7789b28007b6808801", "is_reserved": 0, "fusion_lon": 0.0, "lat": 38.90847733333333, "is_disabled": 0, "name": "80685303dd393a7789b28007b6808801", "fusion_lat": 0.0, "rental_uris": {"ios": "https://dc.lft.to/lastmile_qr_scan", "android": "https://dc.lft.to/lastmile_qr_scan"}, "lon": -77.085363, "type": "electric_scooter"}, {"bike_id": "e7f053f955a5b6675ea0de218562f038", "is_reserved": 0, "fusion_lon": 0.0, "lat": 38.9209215, "is_disabled": 0, "name": "e7f053f955a5b6675ea0de218562f038", "fusion_lat": 0.0, "rental_uris": {"ios": "https://dc.lft.to/lastmile_qr_scan", "android": "https://dc.lft.to/lastmile_qr_scan"}, "lon": -77.02514433333333, "type": "electric_scooter"}, {"bike_id": "d27379648a916779b1118ef747482ad9", "is_reserved": 0, "fusion_lon": 0.0, "lat": 38.880008, "is_disabled": 0, "name": "d27379648a916779b1118ef747482ad9", "fusion_lat": 0.0, "rental_uris": {"ios": "https://dc.lft.to/lastmile_qr_scan", "android": "https://dc.lft.to/lastmile_qr_scan"}, "lon": -76.99505483333333, "type": "electric_scooter"}, {"bike_id": "453c24c00e58b26c60c4b7da7ff736d0", "is_reserved": 0, "fusion_lon": 0.0, "lat": 38.90365, "is_disabled": 0, "name": "453c24c00e58b26c60c4b7da7ff736d0", "fusion_lat": 0.0, "rental_uris": {"ios": "https://dc.lft.to/lastmile_qr_scan", "android": "https://dc.lft.to/lastmile_qr_scan"}, "lon": -77.04348583333334, "type": "electric_scooter"}, {"bike_id": "5fa347d009cdba0d76d14b203b8720bb", "is_reserved": 0, "fusion_lon": 0.0, "lat": 38.86624316666666, "is_disabled": 0, "name": "5fa347d009cdba0d76d14b203b8720bb", "fusion_lat": 0.0, "rental_uris": {"ios": "https://dc.lft.to/lastmile_qr_scan", "android": "https://dc.lft.to/lastmile_qr_scan"}, "lon": -76.98715083333333, "type": "electric_scooter"}, {"bike_id": "723d8bf27cd28c374da94b563b51c672", "is_reserved": 0, "fusion_lon": 0.0, "lat": 38.9288575, "is_disabled": 0, "name": "723d8bf27cd28c374da94b563b51c672", "fusion_lat": 0.0, "rental_uris": {"ios": "https://dc.lft.to/lastmile_qr_scan", "android": "https://dc.lft.to/lastmile_qr_scan"}, "lon": -77.05455316666666, "type": "electric_scooter"}, {"bike_id": "90d8742d38599e4ec0ae7da4f063ef86", "is_reserved": 0, "fusion_lon": 0.0, "lat": 38.909877333333334, "is_disabled": 0, "name": "90d8742d38599e4ec0ae7da4f063ef86", "fusion_lat": 0.0, "rental_uris": {"ios": "https://dc.lft.to/lastmile_qr_scan", "android": "https://dc.lft.to/lastmile_qr_scan"}, "lon": -77.02386083333333, "type": "electric_scooter"}, {"bike_id": "58017958ba6ae16890d53af361725045", "is_reserved": 0, "fusion_lon": 0.0, "lat": 38.90020666666667, "is_disabled": 0, "name": "58017958ba6ae16890d53af361725045", "fusion_lat": 0.0, "rental_uris": {"ios": "https://dc.lft.to/lastmile_qr_scan", "android": "https://dc.lft.to/lastmile_qr_scan"}, "lon": -76.97312966666667, "type": "electric_scooter"}, {"bike_id": "e4c1383f9a4c0acf2534c3684fd04583", "is_reserved": 0, "fusion_lon": 0.0, "lat": 38.90808616666666, "is_disabled": 0, "name": "e4c1383f9a4c0acf2534c3684fd04583", "fusion_lat": 0.0, "rental_uris": {"ios": "https://dc.lft.to/lastmile_qr_scan", "android": "https://dc.lft.to/lastmile_qr_scan"}, "lon": -77.0345355, "type": "electric_scooter"}, {"bike_id": "01f3ca1b0bb5f6e1d366c07954208342", "is_reserved": 0, "fusion_lon": 0.0, "lat": 38.899580666666665, "is_disabled": 0, "name": "01f3ca1b0bb5f6e1d366c07954208342", "fusion_lat": 0.0, "rental_uris": {"ios": "https://dc.lft.to/lastmile_qr_scan", "android": "https://dc.lft.to/lastmile_qr_scan"}, "lon": -77.0034255, "type": "electric_scooter"}, {"bike_id": "b2dd5aecf7e6c8923be72e70b5649f46", "is_reserved": 0, "fusion_lon": 0.0, "lat": 38.902300333333336, "is_disabled": 0, "name": "b2dd5aecf7e6c8923be72e70b5649f46", "fusion_lat": 0.0, "rental_uris": {"ios": "https://dc.lft.to/lastmile_qr_scan", "android": "https://dc.lft.to/lastmile_qr_scan"}, "lon": -77.06072216666666, "type": "electric_scooter"}, {"bike_id": "7f39d9e0686e37c1b6286c10874dee53", "is_reserved": 0, "fusion_lon": 0.0, "lat": 38.9050225, "is_disabled": 0, "name": "7f39d9e0686e37c1b6286c10874dee53", "fusion_lat": 0.0, "rental_uris": {"ios": "https://dc.lft.to/lastmile_qr_scan", "android": "https://dc.lft.to/lastmile_qr_scan"}, "lon": -77.02960433333334, "type": "electric_scooter"}, {"bike_id": "af42b5773ae041e607ece6da8f434ac3", "is_reserved": 0, "fusion_lon": 0.0, "lat": 38.990921166666666, "is_disabled": 0, "name": "af42b5773ae041e607ece6da8f434ac3", "fusion_lat": 0.0, "rental_uris": {"ios": "https://dc.lft.to/lastmile_qr_scan", "android": "https://dc.lft.to/lastmile_qr_scan"}, "lon": -76.874942, "type": "electric_bike"}, {"bike_id": "59d4533241aeca7b64b45cc8358507dd", "is_reserved": 0, "fusion_lon": 0.0, "lat": 38.93606833333333, "is_disabled": 0, "name": "59d4533241aeca7b64b45cc8358507dd", "fusion_lat": 0.0, "rental_uris": {"ios": "https://dc.lft.to/lastmile_qr_scan", "android": "https://dc.lft.to/lastmile_qr_scan"}, "lon": -77.05860466666667, "type": "electric_scooter"}, {"bike_id": "67cf4d6b625095032b825e43608fc629", "is_reserved": 0, "fusion_lon": 0.0, "lat": 38.917956, "is_disabled": 0, "name": "67cf4d6b625095032b825e43608fc629", "fusion_lat": 0.0, "rental_uris": {"ios": "https://dc.lft.to/lastmile_qr_scan", "android": "https://dc.lft.to/lastmile_qr_scan"}, "lon": -77.0345475, "type": "electric_scooter"}, {"bike_id": "8a1f44ce21ef20d1db9692fe71c07257", "is_reserved": 0, "fusion_lon": 0.0, "lat": 38.900205, "is_disabled": 0, "name": "8a1f44ce21ef20d1db9692fe71c07257", "fusion_lat": 0.0, "rental_uris": {"ios": "https://dc.lft.to/lastmile_qr_scan", "android": "https://dc.lft.to/lastmile_qr_scan"}, "lon": -77.013516, "type": "electric_scooter"}, {"bike_id": "d9d891500a2fcddd7485366b6cad8d97", "is_reserved": 0, "fusion_lon": 0.0, "lat": 38.90096466666667, "is_disabled": 0, "name": "d9d891500a2fcddd7485366b6cad8d97", "fusion_lat": 0.0, "rental_uris": {"ios": "https://dc.lft.to/lastmile_qr_scan", "android": "https://dc.lft.to/lastmile_qr_scan"}, "lon": -77.04868416666666, "type": "electric_scooter"}, {"bike_id": "45d98f7116c1e387e7cac630e4aeccfb", "is_reserved": 0, "fusion_lon": 0.0, "lat": 38.828781, "is_disabled": 0, "name": "45d98f7116c1e387e7cac630e4aeccfb", "fusion_lat": 0.0, "rental_uris": {"ios": "https://dc.lft.to/lastmile_qr_scan", "android": "https://dc.lft.to/lastmile_qr_scan"}, "lon": -77.11216766666666, "type": "electric_bike"}, {"bike_id": "fd817b1ff968e77f44c4c2d746a1f5c2", "is_reserved": 0, "fusion_lon": 0.0, "lat": 38.87834766666667, "is_disabled": 0, "name": "fd817b1ff968e77f44c4c2d746a1f5c2", "fusion_lat": 0.0, "rental_uris": {"ios": "https://dc.lft.to/lastmile_qr_scan", "android": "https://dc.lft.to/lastmile_qr_scan"}, "lon": -77.02277883333333, "type": "electric_scooter"}, {"bike_id": "5faadab1884f255cf8699cbc3c7cf988", "is_reserved": 0, "fusion_lon": 0.0, "lat": 38.884181166666664, "is_disabled": 0, "name": "5faadab1884f255cf8699cbc3c7cf988", "fusion_lat": 0.0, "rental_uris": {"ios": "https://dc.lft.to/lastmile_qr_scan", "android": "https://dc.lft.to/lastmile_qr_scan"}, "lon": -77.0153875, "type": "electric_scooter"}, {"bike_id": "74dd01b3d07f5bbb209d8f6ae76ea412", "is_reserved": 0, "fusion_lon": 0.0, "lat": 38.910960833333334, "is_disabled": 0, "name": "74dd01b3d07f5bbb209d8f6ae76ea412", "fusion_lat": 0.0, "rental_uris": {"ios": "https://dc.lft.to/lastmile_qr_scan", "android": "https://dc.lft.to/lastmile_qr_scan"}, "lon": -77.03441816666667, "type": "electric_scooter"}, {"bike_id": "5fd73dfdf623e14da3a94541eb9bf147", "is_reserved": 0, "fusion_lon": 0.0, "lat": 38.919838666666664, "is_disabled": 0, "name": "5fd73dfdf623e14da3a94541eb9bf147", "fusion_lat": 0.0, "rental_uris": {"ios": "https://dc.lft.to/lastmile_qr_scan", "android": "https://dc.lft.to/lastmile_qr_scan"}, "lon": -77.0237875, "type": "electric_scooter"}, {"bike_id": "153d87f0be8a32a6ce65f7f321004dfa", "is_reserved": 0, "fusion_lon": 0.0, "lat": 38.916753666666665, "is_disabled": 0, "name": "153d87f0be8a32a6ce65f7f321004dfa", "fusion_lat": 0.0, "rental_uris": {"ios": "https://dc.lft.to/lastmile_qr_scan", "android": "https://dc.lft.to/lastmile_qr_scan"}, "lon": -77.0364635, "type": "electric_scooter"}, {"bike_id": "8f05a0f5937152785711887d0469e06d", "is_reserved": 0, "fusion_lon": 0.0, "lat": 38.919967166666666, "is_disabled": 0, "name": "8f05a0f5937152785711887d0469e06d", "fusion_lat": 0.0, "rental_uris": {"ios": "https://dc.lft.to/lastmile_qr_scan", "android": "https://dc.lft.to/lastmile_qr_scan"}, "lon": -77.03230083333334, "type": "electric_scooter"}, {"bike_id": "059c4d72101f1a0179a9b280fc57e301", "is_reserved": 0, "fusion_lon": 0.0, "lat": 38.90678966666667, "is_disabled": 0, "name": "059c4d72101f1a0179a9b280fc57e301", "fusion_lat": 0.0, "rental_uris": {"ios": "https://dc.lft.to/lastmile_qr_scan", "android": "https://dc.lft.to/lastmile_qr_scan"}, "lon": -77.02407433333333, "type": "electric_scooter"}, {"bike_id": "aa0e2df1a820e06a4a6d788d0c5e67f8", "is_reserved": 0, "fusion_lon": 0.0, "lat": 38.90026533333333, "is_disabled": 0, "name": "aa0e2df1a820e06a4a6d788d0c5e67f8", "fusion_lat": 0.0, "rental_uris": {"ios": "https://dc.lft.to/lastmile_qr_scan", "android": "https://dc.lft.to/lastmile_qr_scan"}, "lon": -76.99551516666666, "type": "electric_scooter"}, {"bike_id": "eb6ebdcd3db102b8aaf3dd18474cdd4d", "is_reserved": 0, "fusion_lon": 0.0, "lat": 38.906756, "is_disabled": 0, "name": "eb6ebdcd3db102b8aaf3dd18474cdd4d", "fusion_lat": 0.0, "rental_uris": {"ios": "https://dc.lft.to/lastmile_qr_scan", "android": "https://dc.lft.to/lastmile_qr_scan"}, "lon": -77.02708983333333, "type": "electric_scooter"}, {"bike_id": "8ee3cfc7100c8a769261e7117d6e988c", "is_reserved": 0, "fusion_lon": 0.0, "lat": 38.9285645, "is_disabled": 0, "name": "8ee3cfc7100c8a769261e7117d6e988c", "fusion_lat": 0.0, "rental_uris": {"ios": "https://dc.lft.to/lastmile_qr_scan", "android": "https://dc.lft.to/lastmile_qr_scan"}, "lon": -77.03610766666667, "type": "electric_scooter"}, {"bike_id": "09294709b2dcc2d207f9dd66a948abdb", "is_reserved": 0, "fusion_lon": 0.0, "lat": 38.867195833333334, "is_disabled": 0, "name": "09294709b2dcc2d207f9dd66a948abdb", "fusion_lat": 0.0, "rental_uris": {"ios": "https://dc.lft.to/lastmile_qr_scan", "android": "https://dc.lft.to/lastmile_qr_scan"}, "lon": -76.987699, "type": "electric_scooter"}, {"bike_id": "437ffe7d9e46cfd2af045835554c0676", "is_reserved": 0, "fusion_lon": 0.0, "lat": 38.956330333333334, "is_disabled": 0, "name": "437ffe7d9e46cfd2af045835554c0676", "fusion_lat": 0.0, "rental_uris": {"ios": "https://dc.lft.to/lastmile_qr_scan", "android": "https://dc.lft.to/lastmile_qr_scan"}, "lon": -76.93891683333334, "type": "electric_bike"}, {"bike_id": "8f0a6da8cfd3b2b0fcc7ab429247b58d", "is_reserved": 0, "fusion_lon": 0.0, "lat": 38.89942716666667, "is_disabled": 0, "name": "8f0a6da8cfd3b2b0fcc7ab429247b58d", "fusion_lat": 0.0, "rental_uris": {"ios": "https://dc.lft.to/lastmile_qr_scan", "android": "https://dc.lft.to/lastmile_qr_scan"}, "lon": -77.03197566666667, "type": "electric_scooter"}, {"bike_id": "fe3fb274c66fa5dc4ad1dab199ea9c78", "is_reserved": 0, "fusion_lon": 0.0, "lat": 38.89805833333333, "is_disabled": 0, "name": "fe3fb274c66fa5dc4ad1dab199ea9c78", "fusion_lat": 0.0, "rental_uris": {"ios": "https://dc.lft.to/lastmile_qr_scan", "android": "https://dc.lft.to/lastmile_qr_scan"}, "lon": -76.9916755, "type": "electric_scooter"}, {"bike_id": "185240d205c89614cb381a0b46288852", "is_reserved": 0, "fusion_lon": 0.0, "lat": 38.918403166666664, "is_disabled": 0, "name": "185240d205c89614cb381a0b46288852", "fusion_lat": 0.0, "rental_uris": {"ios": "https://dc.lft.to/lastmile_qr_scan", "android": "https://dc.lft.to/lastmile_qr_scan"}, "lon": -77.03901183333333, "type": "electric_scooter"}, {"bike_id": "60199ec07f335b075c12b07807e7717f", "is_reserved": 0, "fusion_lon": 0.0, "lat": 38.89768883333333, "is_disabled": 0, "name": "60199ec07f335b075c12b07807e7717f", "fusion_lat": 0.0, "rental_uris": {"ios": "https://dc.lft.to/lastmile_qr_scan", "android": "https://dc.lft.to/lastmile_qr_scan"}, "lon": -77.02684416666666, "type": "electric_scooter"}, {"bike_id": "52168a44a2a936a456a89b4f85d7fc5c", "is_reserved": 0, "fusion_lon": 0.0, "lat": 38.8834855, "is_disabled": 0, "name": "52168a44a2a936a456a89b4f85d7fc5c", "fusion_lat": 0.0, "rental_uris": {"ios": "https://dc.lft.to/lastmile_qr_scan", "android": "https://dc.lft.to/lastmile_qr_scan"}, "lon": -77.01751333333333, "type": "electric_scooter"}, {"bike_id": "74fcbb35ba240eb75b900ac62d2708e8", "is_reserved": 0, "fusion_lon": 0.0, "lat": 38.928853333333336, "is_disabled": 0, "name": "74fcbb35ba240eb75b900ac62d2708e8", "fusion_lat": 0.0, "rental_uris": {"ios": "https://dc.lft.to/lastmile_qr_scan", "android": "https://dc.lft.to/lastmile_qr_scan"}, "lon": -77.0331595, "type": "electric_scooter"}, {"bike_id": "825e7e2b81239565d1c162857ff53c38", "is_reserved": 0, "fusion_lon": 0.0, "lat": 38.934458166666666, "is_disabled": 0, "name": "825e7e2b81239565d1c162857ff53c38", "fusion_lat": 0.0, "rental_uris": {"ios": "https://dc.lft.to/lastmile_qr_scan", "android": "https://dc.lft.to/lastmile_qr_scan"}, "lon": -77.02847283333334, "type": "electric_scooter"}, {"bike_id": "8c36ce0e128b15604d388bb776bd2876", "is_reserved": 0, "fusion_lon": 0.0, "lat": 38.89763816666667, "is_disabled": 0, "name": "8c36ce0e128b15604d388bb776bd2876", "fusion_lat": 0.0, "rental_uris": {"ios": "https://dc.lft.to/lastmile_qr_scan", "android": "https://dc.lft.to/lastmile_qr_scan"}, "lon": -76.90441916666667, "type": "electric_bike"}, {"bike_id": "1a21c739ddc1bc74a40ceb44826c7fef", "is_reserved": 0, "fusion_lon": 0.0, "lat": 38.924744833333335, "is_disabled": 0, "name": "1a21c739ddc1bc74a40ceb44826c7fef", "fusion_lat": 0.0, "rental_uris": {"ios": "https://dc.lft.to/lastmile_qr_scan", "android": "https://dc.lft.to/lastmile_qr_scan"}, "lon": -77.03768883333333, "type": "electric_scooter"}, {"bike_id": "6246f78337eb8ca78dc696c140b51b2d", "is_reserved": 0, "fusion_lon": 0.0, "lat": 38.92837, "is_disabled": 0, "name": "6246f78337eb8ca78dc696c140b51b2d", "fusion_lat": 0.0, "rental_uris": {"ios": "https://dc.lft.to/lastmile_qr_scan", "android": "https://dc.lft.to/lastmile_qr_scan"}, "lon": -77.05524616666666, "type": "electric_scooter"}, {"bike_id": "538afd9aa982abd45db2279278f73798", "is_reserved": 0, "fusion_lon": 0.0, "lat": 38.91713083333333, "is_disabled": 0, "name": "538afd9aa982abd45db2279278f73798", "fusion_lat": 0.0, "rental_uris": {"ios": "https://dc.lft.to/lastmile_qr_scan", "android": "https://dc.lft.to/lastmile_qr_scan"}, "lon": -77.02292166666666, "type": "electric_scooter"}, {"bike_id": "8a9ecf5b092e92a5509c7e3a1c29f1f9", "is_reserved": 0, "fusion_lon": 0.0, "lat": 38.88503716666666, "is_disabled": 0, "name": "8a9ecf5b092e92a5509c7e3a1c29f1f9", "fusion_lat": 0.0, "rental_uris": {"ios": "https://dc.lft.to/lastmile_qr_scan", "android": "https://dc.lft.to/lastmile_qr_scan"}, "lon": -77.005692, "type": "electric_scooter"}, {"bike_id": "021a3d2abcb5bdde802ebafdddec843f", "is_reserved": 0, "fusion_lon": 0.0, "lat": 38.86627816666667, "is_disabled": 0, "name": "021a3d2abcb5bdde802ebafdddec843f", "fusion_lat": 0.0, "rental_uris": {"ios": "https://dc.lft.to/lastmile_qr_scan", "android": "https://dc.lft.to/lastmile_qr_scan"}, "lon": -76.9871805, "type": "electric_scooter"}, {"bike_id": "839f2c2f156fd3b76f8e5195581b0a79", "is_reserved": 0, "fusion_lon": 0.0, "lat": 38.85923783333333, "is_disabled": 0, "name": "839f2c2f156fd3b76f8e5195581b0a79", "fusion_lat": 0.0, "rental_uris": {"ios": "https://dc.lft.to/lastmile_qr_scan", "android": "https://dc.lft.to/lastmile_qr_scan"}, "lon": -76.989792, "type": "electric_scooter"}, {"bike_id": "c44c65b7b4affd3ec59e99c144a69710", "is_reserved": 0, "fusion_lon": 0.0, "lat": 38.89103466666667, "is_disabled": 0, "name": "c44c65b7b4affd3ec59e99c144a69710", "fusion_lat": 0.0, "rental_uris": {"ios": "https://dc.lft.to/lastmile_qr_scan", "android": "https://dc.lft.to/lastmile_qr_scan"}, "lon": -76.98706433333334, "type": "electric_scooter"}, {"bike_id": "3b47d52062aa5ff044674e5d20daadba", "is_reserved": 0, "fusion_lon": 0.0, "lat": 38.9062625, "is_disabled": 0, "name": "3b47d52062aa5ff044674e5d20daadba", "fusion_lat": 0.0, "rental_uris": {"ios": "https://dc.lft.to/lastmile_qr_scan", "android": "https://dc.lft.to/lastmile_qr_scan"}, "lon": -76.98616166666666, "type": "electric_bike"}, {"bike_id": "f56a095f0856df720e685f0e95b2f93d", "is_reserved": 0, "fusion_lon": 0.0, "lat": 38.87088633333333, "is_disabled": 0, "name": "f56a095f0856df720e685f0e95b2f93d", "fusion_lat": 0.0, "rental_uris": {"ios": "https://dc.lft.to/lastmile_qr_scan", "android": "https://dc.lft.to/lastmile_qr_scan"}, "lon": -77.01207283333333, "type": "electric_bike"}, {"bike_id": "3a2bf0c3cacda8aedfc2618783c4408e", "is_reserved": 0, "fusion_lon": 0.0, "lat": 38.90984266666667, "is_disabled": 0, "name": "3a2bf0c3cacda8aedfc2618783c4408e", "fusion_lat": 0.0, "rental_uris": {"ios": "https://dc.lft.to/lastmile_qr_scan", "android": "https://dc.lft.to/lastmile_qr_scan"}, "lon": -77.023964, "type": "electric_scooter"}, {"bike_id": "6fa83e3a5bbe8b5c199668ea4f404459", "is_reserved": 0, "fusion_lon": 0.0, "lat": 38.8968555, "is_disabled": 0, "name": "6fa83e3a5bbe8b5c199668ea4f404459", "fusion_lat": 0.0, "rental_uris": {"ios": "https://dc.lft.to/lastmile_qr_scan", "android": "https://dc.lft.to/lastmile_qr_scan"}, "lon": -76.99630516666667, "type": "electric_scooter"}, {"bike_id": "90e750af3a98c31c0a6b5fe3ed2d38dd", "is_reserved": 0, "fusion_lon": 0.0, "lat": 38.92249116666667, "is_disabled": 0, "name": "90e750af3a98c31c0a6b5fe3ed2d38dd", "fusion_lat": 0.0, "rental_uris": {"ios": "https://dc.lft.to/lastmile_qr_scan", "android": "https://dc.lft.to/lastmile_qr_scan"}, "lon": -77.0308395, "type": "electric_scooter"}, {"bike_id": "0e83d853eebc2ee819924d0be32cd065", "is_reserved": 0, "fusion_lon": 0.0, "lat": 38.87908183333333, "is_disabled": 0, "name": "0e83d853eebc2ee819924d0be32cd065", "fusion_lat": 0.0, "rental_uris": {"ios": "https://dc.lft.to/lastmile_qr_scan", "android": "https://dc.lft.to/lastmile_qr_scan"}, "lon": -77.02205583333334, "type": "electric_scooter"}, {"bike_id": "6c31fe455183dd1cb821a48468a95f38", "is_reserved": 0, "fusion_lon": 0.0, "lat": 38.91807766666667, "is_disabled": 0, "name": "6c31fe455183dd1cb821a48468a95f38", "fusion_lat": 0.0, "rental_uris": {"ios": "https://dc.lft.to/lastmile_qr_scan", "android": "https://dc.lft.to/lastmile_qr_scan"}, "lon": -77.0356635, "type": "electric_scooter"}, {"bike_id": "18b738285959b6dd91c88587a4145328", "is_reserved": 0, "fusion_lon": 0.0, "lat": 38.9003065, "is_disabled": 0, "name": "18b738285959b6dd91c88587a4145328", "fusion_lat": 0.0, "rental_uris": {"ios": "https://dc.lft.to/lastmile_qr_scan", "android": "https://dc.lft.to/lastmile_qr_scan"}, "lon": -76.9875855, "type": "electric_scooter"}, {"bike_id": "f5154942f4df941caa21a5c10ab5829f", "is_reserved": 0, "fusion_lon": 0.0, "lat": 38.88064383333333, "is_disabled": 0, "name": "f5154942f4df941caa21a5c10ab5829f", "fusion_lat": 0.0, "rental_uris": {"ios": "https://dc.lft.to/lastmile_qr_scan", "android": "https://dc.lft.to/lastmile_qr_scan"}, "lon": -77.02558366666666, "type": "electric_scooter"}, {"bike_id": "c4b124316b1bcb59c2c7fa445ce89f8c", "is_reserved": 0, "fusion_lon": 0.0, "lat": 38.91254466666667, "is_disabled": 0, "name": "c4b124316b1bcb59c2c7fa445ce89f8c", "fusion_lat": 0.0, "rental_uris": {"ios": "https://dc.lft.to/lastmile_qr_scan", "android": "https://dc.lft.to/lastmile_qr_scan"}, "lon": -77.037674, "type": "electric_scooter"}, {"bike_id": "59dd2a3f96847e1edd5c936a667c5116", "is_reserved": 0, "fusion_lon": 0.0, "lat": 38.937493, "is_disabled": 0, "name": "59dd2a3f96847e1edd5c936a667c5116", "fusion_lat": 0.0, "rental_uris": {"ios": "https://dc.lft.to/lastmile_qr_scan", "android": "https://dc.lft.to/lastmile_qr_scan"}, "lon": -77.0328825, "type": "electric_scooter"}, {"bike_id": "321dd2510d64fb90bf494e096df661a8", "is_reserved": 0, "fusion_lon": 0.0, "lat": 38.863720666666666, "is_disabled": 0, "name": "321dd2510d64fb90bf494e096df661a8", "fusion_lat": 0.0, "rental_uris": {"ios": "https://dc.lft.to/lastmile_qr_scan", "android": "https://dc.lft.to/lastmile_qr_scan"}, "lon": -77.01365266666667, "type": "electric_scooter"}, {"bike_id": "84c278b5bd2e524a71d663a01722c8eb", "is_reserved": 0, "fusion_lon": 0.0, "lat": 38.905376333333336, "is_disabled": 0, "name": "84c278b5bd2e524a71d663a01722c8eb", "fusion_lat": 0.0, "rental_uris": {"ios": "https://dc.lft.to/lastmile_qr_scan", "android": "https://dc.lft.to/lastmile_qr_scan"}, "lon": -77.05768816666667, "type": "electric_scooter"}, {"bike_id": "88330885374470271b318e8f911f43d1", "is_reserved": 0, "fusion_lon": 0.0, "lat": 38.92962083333333, "is_disabled": 0, "name": "88330885374470271b318e8f911f43d1", "fusion_lat": 0.0, "rental_uris": {"ios": "https://dc.lft.to/lastmile_qr_scan", "android": "https://dc.lft.to/lastmile_qr_scan"}, "lon": -77.01148733333333, "type": "electric_scooter"}, {"bike_id": "48e4419b28c04a17eabbf8dcf74c5d1c", "is_reserved": 0, "fusion_lon": 0.0, "lat": 38.927455, "is_disabled": 0, "name": "48e4419b28c04a17eabbf8dcf74c5d1c", "fusion_lat": 0.0, "rental_uris": {"ios": "https://dc.lft.to/lastmile_qr_scan", "android": "https://dc.lft.to/lastmile_qr_scan"}, "lon": -77.0363965, "type": "electric_bike"}, {"bike_id": "dfb360f3f313f43080a6528631fd6462", "is_reserved": 0, "fusion_lon": 0.0, "lat": 38.917968, "is_disabled": 0, "name": "dfb360f3f313f43080a6528631fd6462", "fusion_lat": 0.0, "rental_uris": {"ios": "https://dc.lft.to/lastmile_qr_scan", "android": "https://dc.lft.to/lastmile_qr_scan"}, "lon": -77.03439066666667, "type": "electric_scooter"}, {"bike_id": "ad7f451153b783bbb7b3994f2abaad81", "is_reserved": 0, "fusion_lon": 0.0, "lat": 38.845773, "is_disabled": 0, "name": "ad7f451153b783bbb7b3994f2abaad81", "fusion_lat": 0.0, "rental_uris": {"ios": "https://dc.lft.to/lastmile_qr_scan", "android": "https://dc.lft.to/lastmile_qr_scan"}, "lon": -77.09623633333334, "type": "electric_bike"}, {"bike_id": "e68d5f56b6c857631528af85fd74f6cd", "is_reserved": 0, "fusion_lon": 0.0, "lat": 38.92345383333333, "is_disabled": 0, "name": "e68d5f56b6c857631528af85fd74f6cd", "fusion_lat": 0.0, "rental_uris": {"ios": "https://dc.lft.to/lastmile_qr_scan", "android": "https://dc.lft.to/lastmile_qr_scan"}, "lon": -77.03512933333333, "type": "electric_scooter"}, {"bike_id": "97892197d975d6b02ea73ef9ac472857", "is_reserved": 0, "fusion_lon": 0.0, "lat": 38.92164433333333, "is_disabled": 0, "name": "97892197d975d6b02ea73ef9ac472857", "fusion_lat": 0.0, "rental_uris": {"ios": "https://dc.lft.to/lastmile_qr_scan", "android": "https://dc.lft.to/lastmile_qr_scan"}, "lon": -77.04696083333333, "type": "electric_scooter"}, {"bike_id": "c181b8bd53f767e5d370c5f6d01ce2b3", "is_reserved": 0, "fusion_lon": 0.0, "lat": 38.908665166666665, "is_disabled": 0, "name": "c181b8bd53f767e5d370c5f6d01ce2b3", "fusion_lat": 0.0, "rental_uris": {"ios": "https://dc.lft.to/lastmile_qr_scan", "android": "https://dc.lft.to/lastmile_qr_scan"}, "lon": -77.03306716666667, "type": "electric_scooter"}, {"bike_id": "d0f017573adbd8a3995098526cc995a0", "is_reserved": 0, "fusion_lon": 0.0, "lat": 38.915562666666666, "is_disabled": 0, "name": "d0f017573adbd8a3995098526cc995a0", "fusion_lat": 0.0, "rental_uris": {"ios": "https://dc.lft.to/lastmile_qr_scan", "android": "https://dc.lft.to/lastmile_qr_scan"}, "lon": -77.03865816666666, "type": "electric_scooter"}, {"bike_id": "06b2cbda43dec28901fa000ab817a482", "is_reserved": 0, "fusion_lon": 0.0, "lat": 38.894771166666665, "is_disabled": 0, "name": "06b2cbda43dec28901fa000ab817a482", "fusion_lat": 0.0, "rental_uris": {"ios": "https://dc.lft.to/lastmile_qr_scan", "android": "https://dc.lft.to/lastmile_qr_scan"}, "lon": -77.04998183333333, "type": "electric_scooter"}, {"bike_id": "3b2b41a3022d47385db93eac90ecb726", "is_reserved": 0, "fusion_lon": 0.0, "lat": 38.900367833333334, "is_disabled": 0, "name": "3b2b41a3022d47385db93eac90ecb726", "fusion_lat": 0.0, "rental_uris": {"ios": "https://dc.lft.to/lastmile_qr_scan", "android": "https://dc.lft.to/lastmile_qr_scan"}, "lon": -77.01165983333334, "type": "electric_scooter"}, {"bike_id": "293b7186b5f1f7025c322991298b54f2", "is_reserved": 0, "fusion_lon": 0.0, "lat": 38.935359, "is_disabled": 0, "name": "293b7186b5f1f7025c322991298b54f2", "fusion_lat": 0.0, "rental_uris": {"ios": "https://dc.lft.to/lastmile_qr_scan", "android": "https://dc.lft.to/lastmile_qr_scan"}, "lon": -77.024276, "type": "electric_scooter"}, {"bike_id": "fdf6f05503e531af07a96010c88e6ab0", "is_reserved": 0, "fusion_lon": 0.0, "lat": 38.90301983333333, "is_disabled": 0, "name": "fdf6f05503e531af07a96010c88e6ab0", "fusion_lat": 0.0, "rental_uris": {"ios": "https://dc.lft.to/lastmile_qr_scan", "android": "https://dc.lft.to/lastmile_qr_scan"}, "lon": -77.01632933333333, "type": "electric_bike"}, {"bike_id": "a3ec05ec0350c401fd184ab676643f32", "is_reserved": 0, "fusion_lon": 0.0, "lat": 38.897211166666665, "is_disabled": 0, "name": "a3ec05ec0350c401fd184ab676643f32", "fusion_lat": 0.0, "rental_uris": {"ios": "https://dc.lft.to/lastmile_qr_scan", "android": "https://dc.lft.to/lastmile_qr_scan"}, "lon": -77.04635466666667, "type": "electric_scooter"}, {"bike_id": "10ec4d671707fe61f8dd5db04e2e2601", "is_reserved": 0, "fusion_lon": 0.0, "lat": 38.9081235, "is_disabled": 0, "name": "10ec4d671707fe61f8dd5db04e2e2601", "fusion_lat": 0.0, "rental_uris": {"ios": "https://dc.lft.to/lastmile_qr_scan", "android": "https://dc.lft.to/lastmile_qr_scan"}, "lon": -77.03445916666666, "type": "electric_scooter"}, {"bike_id": "21849ae73c47e1ca1f9c98479203cea2", "is_reserved": 0, "fusion_lon": 0.0, "lat": 38.904532833333334, "is_disabled": 0, "name": "21849ae73c47e1ca1f9c98479203cea2", "fusion_lat": 0.0, "rental_uris": {"ios": "https://dc.lft.to/lastmile_qr_scan", "android": "https://dc.lft.to/lastmile_qr_scan"}, "lon": -77.02901066666666, "type": "electric_scooter"}, {"bike_id": "02a97d8acb0eee1dd21495f7bd8d87ce", "is_reserved": 0, "fusion_lon": 0.0, "lat": 38.90374966666667, "is_disabled": 0, "name": "02a97d8acb0eee1dd21495f7bd8d87ce", "fusion_lat": 0.0, "rental_uris": {"ios": "https://dc.lft.to/lastmile_qr_scan", "android": "https://dc.lft.to/lastmile_qr_scan"}, "lon": -77.01770083333334, "type": "electric_scooter"}, {"bike_id": "afac6d1b011fe7d5c3a336258a4996d2", "is_reserved": 0, "fusion_lon": 0.0, "lat": 38.896213833333334, "is_disabled": 0, "name": "afac6d1b011fe7d5c3a336258a4996d2", "fusion_lat": 0.0, "rental_uris": {"ios": "https://dc.lft.to/lastmile_qr_scan", "android": "https://dc.lft.to/lastmile_qr_scan"}, "lon": -77.00055083333334, "type": "electric_bike"}, {"bike_id": "e460f47a42897a950c70963e6bdd3090", "is_reserved": 0, "fusion_lon": 0.0, "lat": 38.935027, "is_disabled": 0, "name": "e460f47a42897a950c70963e6bdd3090", "fusion_lat": 0.0, "rental_uris": {"ios": "https://dc.lft.to/lastmile_qr_scan", "android": "https://dc.lft.to/lastmile_qr_scan"}, "lon": -77.027211, "type": "electric_scooter"}, {"bike_id": "b001cfb97cc707602feb39520ad51770", "is_reserved": 0, "fusion_lon": 0.0, "lat": 38.877377833333334, "is_disabled": 0, "name": "b001cfb97cc707602feb39520ad51770", "fusion_lat": 0.0, "rental_uris": {"ios": "https://dc.lft.to/lastmile_qr_scan", "android": "https://dc.lft.to/lastmile_qr_scan"}, "lon": -76.97283033333333, "type": "electric_scooter"}, {"bike_id": "2e0016568e682380fac1e1879aedd20b", "is_reserved": 0, "fusion_lon": 0.0, "lat": 38.862039, "is_disabled": 0, "name": "2e0016568e682380fac1e1879aedd20b", "fusion_lat": 0.0, "rental_uris": {"ios": "https://dc.lft.to/lastmile_qr_scan", "android": "https://dc.lft.to/lastmile_qr_scan"}, "lon": -76.994679, "type": "electric_scooter"}, {"bike_id": "e4a9ddbfaee6b64b2394ab92fd33d112", "is_reserved": 0, "fusion_lon": 0.0, "lat": 38.939728, "is_disabled": 0, "name": "e4a9ddbfaee6b64b2394ab92fd33d112", "fusion_lat": 0.0, "rental_uris": {"ios": "https://dc.lft.to/lastmile_qr_scan", "android": "https://dc.lft.to/lastmile_qr_scan"}, "lon": -77.03592616666667, "type": "electric_scooter"}, {"bike_id": "aabc27356771fd0b156b58b957c88ffa", "is_reserved": 0, "fusion_lon": 0.0, "lat": 38.9049995, "is_disabled": 0, "name": "aabc27356771fd0b156b58b957c88ffa", "fusion_lat": 0.0, "rental_uris": {"ios": "https://dc.lft.to/lastmile_qr_scan", "android": "https://dc.lft.to/lastmile_qr_scan"}, "lon": -77.028268, "type": "electric_scooter"}, {"bike_id": "4734609852944d809aab9b96cc5142c4", "is_reserved": 0, "fusion_lon": 0.0, "lat": 38.94628483333334, "is_disabled": 0, "name": "4734609852944d809aab9b96cc5142c4", "fusion_lat": 0.0, "rental_uris": {"ios": "https://dc.lft.to/lastmile_qr_scan", "android": "https://dc.lft.to/lastmile_qr_scan"}, "lon": -77.01845483333334, "type": "electric_scooter"}, {"bike_id": "3bd2cae8b2383ea0a3bd38b7aa011091", "is_reserved": 0, "fusion_lon": 0.0, "lat": 38.92875816666667, "is_disabled": 0, "name": "3bd2cae8b2383ea0a3bd38b7aa011091", "fusion_lat": 0.0, "rental_uris": {"ios": "https://dc.lft.to/lastmile_qr_scan", "android": "https://dc.lft.to/lastmile_qr_scan"}, "lon": -77.01379483333334, "type": "electric_scooter"}, {"bike_id": "7b0a4e9bb017ec9ba3bd8292d43d36d4", "is_reserved": 0, "fusion_lon": 0.0, "lat": 38.8652915, "is_disabled": 0, "name": "7b0a4e9bb017ec9ba3bd8292d43d36d4", "fusion_lat": 0.0, "rental_uris": {"ios": "https://dc.lft.to/lastmile_qr_scan", "android": "https://dc.lft.to/lastmile_qr_scan"}, "lon": -76.99028416666667, "type": "electric_scooter"}, {"bike_id": "152f32e78eb848c527d3cbbc92fb7b10", "is_reserved": 0, "fusion_lon": 0.0, "lat": 38.838308833333336, "is_disabled": 0, "name": "152f32e78eb848c527d3cbbc92fb7b10", "fusion_lat": 0.0, "rental_uris": {"ios": "https://dc.lft.to/lastmile_qr_scan", "android": "https://dc.lft.to/lastmile_qr_scan"}, "lon": -76.99687033333333, "type": "electric_bike"}, {"bike_id": "d019a631d23949282a663b3623b33ea1", "is_reserved": 0, "fusion_lon": 0.0, "lat": 38.8666765, "is_disabled": 0, "name": "d019a631d23949282a663b3623b33ea1", "fusion_lat": 0.0, "rental_uris": {"ios": "https://dc.lft.to/lastmile_qr_scan", "android": "https://dc.lft.to/lastmile_qr_scan"}, "lon": -76.9890845, "type": "electric_scooter"}, {"bike_id": "31f8e4349edd8fe6abe4da7fa391ed76", "is_reserved": 0, "fusion_lon": 0.0, "lat": 38.896209166666665, "is_disabled": 0, "name": "31f8e4349edd8fe6abe4da7fa391ed76", "fusion_lat": 0.0, "rental_uris": {"ios": "https://dc.lft.to/lastmile_qr_scan", "android": "https://dc.lft.to/lastmile_qr_scan"}, "lon": -77.044537, "type": "electric_scooter"}, {"bike_id": "5c4cde35741ada8d6299829b94494b26", "is_reserved": 0, "fusion_lon": 0.0, "lat": 38.93291266666667, "is_disabled": 0, "name": "5c4cde35741ada8d6299829b94494b26", "fusion_lat": 0.0, "rental_uris": {"ios": "https://dc.lft.to/lastmile_qr_scan", "android": "https://dc.lft.to/lastmile_qr_scan"}, "lon": -77.03981233333333, "type": "electric_scooter"}, {"bike_id": "bf9e17fc5d02e886a36c8c0c5f183d2b", "is_reserved": 0, "fusion_lon": 0.0, "lat": 38.933414, "is_disabled": 0, "name": "bf9e17fc5d02e886a36c8c0c5f183d2b", "fusion_lat": 0.0, "rental_uris": {"ios": "https://dc.lft.to/lastmile_qr_scan", "android": "https://dc.lft.to/lastmile_qr_scan"}, "lon": -77.03283483333334, "type": "electric_scooter"}, {"bike_id": "97a070643584bddcae07dc2e93f46400", "is_reserved": 0, "fusion_lon": 0.0, "lat": 38.87629116666667, "is_disabled": 0, "name": "97a070643584bddcae07dc2e93f46400", "fusion_lat": 0.0, "rental_uris": {"ios": "https://dc.lft.to/lastmile_qr_scan", "android": "https://dc.lft.to/lastmile_qr_scan"}, "lon": -76.96530616666666, "type": "electric_scooter"}, {"bike_id": "a7aa7ceb7c5d6fde0ac4af07a92e61e8", "is_reserved": 0, "fusion_lon": 0.0, "lat": 38.88689183333334, "is_disabled": 0, "name": "a7aa7ceb7c5d6fde0ac4af07a92e61e8", "fusion_lat": 0.0, "rental_uris": {"ios": "https://dc.lft.to/lastmile_qr_scan", "android": "https://dc.lft.to/lastmile_qr_scan"}, "lon": -76.95761216666666, "type": "electric_scooter"}, {"bike_id": "d4c08fa3ba645a077e62fcb1bb68ce25", "is_reserved": 0, "fusion_lon": 0.0, "lat": 38.92769333333333, "is_disabled": 0, "name": "d4c08fa3ba645a077e62fcb1bb68ce25", "fusion_lat": 0.0, "rental_uris": {"ios": "https://dc.lft.to/lastmile_qr_scan", "android": "https://dc.lft.to/lastmile_qr_scan"}, "lon": -77.07306933333334, "type": "electric_scooter"}, {"bike_id": "6dfccf08c8db1007a06794f41c1b15a2", "is_reserved": 0, "fusion_lon": 0.0, "lat": 38.903334, "is_disabled": 0, "name": "6dfccf08c8db1007a06794f41c1b15a2", "fusion_lat": 0.0, "rental_uris": {"ios": "https://dc.lft.to/lastmile_qr_scan", "android": "https://dc.lft.to/lastmile_qr_scan"}, "lon": -76.97596616666667, "type": "electric_scooter"}, {"bike_id": "a7618eeeda3bb4d1f64834ed1c6dada8", "is_reserved": 0, "fusion_lon": 0.0, "lat": 38.897431166666664, "is_disabled": 0, "name": "a7618eeeda3bb4d1f64834ed1c6dada8", "fusion_lat": 0.0, "rental_uris": {"ios": "https://dc.lft.to/lastmile_qr_scan", "android": "https://dc.lft.to/lastmile_qr_scan"}, "lon": -76.93841766666667, "type": "electric_scooter"}, {"bike_id": "1a63110246b7ab0ca2511b4a8c89f34b", "is_reserved": 0, "fusion_lon": 0.0, "lat": 38.92266216666667, "is_disabled": 0, "name": "1a63110246b7ab0ca2511b4a8c89f34b", "fusion_lat": 0.0, "rental_uris": {"ios": "https://dc.lft.to/lastmile_qr_scan", "android": "https://dc.lft.to/lastmile_qr_scan"}, "lon": -77.0420225, "type": "electric_scooter"}, {"bike_id": "ea7a366c99d7d21728f472e41383edaf", "is_reserved": 0, "fusion_lon": 0.0, "lat": 38.90151516666667, "is_disabled": 0, "name": "ea7a366c99d7d21728f472e41383edaf", "fusion_lat": 0.0, "rental_uris": {"ios": "https://dc.lft.to/lastmile_qr_scan", "android": "https://dc.lft.to/lastmile_qr_scan"}, "lon": -76.97517783333333, "type": "electric_scooter"}, {"bike_id": "3cd8b0a470da3f0e5b865bef540f6590", "is_reserved": 0, "fusion_lon": 0.0, "lat": 38.9008275, "is_disabled": 0, "name": "3cd8b0a470da3f0e5b865bef540f6590", "fusion_lat": 0.0, "rental_uris": {"ios": "https://dc.lft.to/lastmile_qr_scan", "android": "https://dc.lft.to/lastmile_qr_scan"}, "lon": -77.047901, "type": "electric_scooter"}, {"bike_id": "e32a7c1ec66cb28a7e1a832d3b0bbb03", "is_reserved": 0, "fusion_lon": 0.0, "lat": 38.9029925, "is_disabled": 0, "name": "e32a7c1ec66cb28a7e1a832d3b0bbb03", "fusion_lat": 0.0, "rental_uris": {"ios": "https://dc.lft.to/lastmile_qr_scan", "android": "https://dc.lft.to/lastmile_qr_scan"}, "lon": -76.94444416666667, "type": "electric_bike"}, {"bike_id": "5fc416482a8ba6787e945f3c0fa70d20", "is_reserved": 0, "fusion_lon": 0.0, "lat": 38.917133666666665, "is_disabled": 0, "name": "5fc416482a8ba6787e945f3c0fa70d20", "fusion_lat": 0.0, "rental_uris": {"ios": "https://dc.lft.to/lastmile_qr_scan", "android": "https://dc.lft.to/lastmile_qr_scan"}, "lon": -77.03055116666667, "type": "electric_scooter"}, {"bike_id": "828745aff79795c44c3ac1102e16067f", "is_reserved": 0, "fusion_lon": 0.0, "lat": 39.01591483333333, "is_disabled": 0, "name": "828745aff79795c44c3ac1102e16067f", "fusion_lat": 0.0, "rental_uris": {"ios": "https://dc.lft.to/lastmile_qr_scan", "android": "https://dc.lft.to/lastmile_qr_scan"}, "lon": -77.04427883333334, "type": "electric_bike"}, {"bike_id": "edcc09272f9867703dd9f0125240386d", "is_reserved": 0, "fusion_lon": 0.0, "lat": 38.8380435, "is_disabled": 0, "name": "edcc09272f9867703dd9f0125240386d", "fusion_lat": 0.0, "rental_uris": {"ios": "https://dc.lft.to/lastmile_qr_scan", "android": "https://dc.lft.to/lastmile_qr_scan"}, "lon": -76.99840916666666, "type": "electric_bike"}, {"bike_id": "d1096b42eaa30104fef8bf97713244d5", "is_reserved": 0, "fusion_lon": 0.0, "lat": 38.933387, "is_disabled": 0, "name": "d1096b42eaa30104fef8bf97713244d5", "fusion_lat": 0.0, "rental_uris": {"ios": "https://dc.lft.to/lastmile_qr_scan", "android": "https://dc.lft.to/lastmile_qr_scan"}, "lon": -77.03282216666666, "type": "electric_scooter"}, {"bike_id": "44509cf88a40cae2324814764242193c", "is_reserved": 0, "fusion_lon": 0.0, "lat": 38.9084985, "is_disabled": 0, "name": "44509cf88a40cae2324814764242193c", "fusion_lat": 0.0, "rental_uris": {"ios": "https://dc.lft.to/lastmile_qr_scan", "android": "https://dc.lft.to/lastmile_qr_scan"}, "lon": -77.04677033333333, "type": "electric_scooter"}, {"bike_id": "065d77305a076300d880d79301710efc", "is_reserved": 0, "fusion_lon": 0.0, "lat": 38.90534016666667, "is_disabled": 0, "name": "065d77305a076300d880d79301710efc", "fusion_lat": 0.0, "rental_uris": {"ios": "https://dc.lft.to/lastmile_qr_scan", "android": "https://dc.lft.to/lastmile_qr_scan"}, "lon": -77.002124, "type": "electric_bike"}, {"bike_id": "deee0be192ebe0375318da3c1377b232", "is_reserved": 0, "fusion_lon": 0.0, "lat": 38.9132455, "is_disabled": 0, "name": "deee0be192ebe0375318da3c1377b232", "fusion_lat": 0.0, "rental_uris": {"ios": "https://dc.lft.to/lastmile_qr_scan", "android": "https://dc.lft.to/lastmile_qr_scan"}, "lon": -77.01518516666667, "type": "electric_scooter"}, {"bike_id": "72c954d23de4bde917c6697e9b7165dd", "is_reserved": 0, "fusion_lon": 0.0, "lat": 38.906214166666665, "is_disabled": 0, "name": "72c954d23de4bde917c6697e9b7165dd", "fusion_lat": 0.0, "rental_uris": {"ios": "https://dc.lft.to/lastmile_qr_scan", "android": "https://dc.lft.to/lastmile_qr_scan"}, "lon": -77.04134983333333, "type": "electric_scooter"}, {"bike_id": "21f5d9876bbc6bf698b2bf4f45212690", "is_reserved": 0, "fusion_lon": 0.0, "lat": 38.903550333333335, "is_disabled": 0, "name": "21f5d9876bbc6bf698b2bf4f45212690", "fusion_lat": 0.0, "rental_uris": {"ios": "https://dc.lft.to/lastmile_qr_scan", "android": "https://dc.lft.to/lastmile_qr_scan"}, "lon": -77.04032783333334, "type": "electric_scooter"}, {"bike_id": "3bddf0616a182c75eeb19d5599ee6bad", "is_reserved": 0, "fusion_lon": 0.0, "lat": 38.907245833333334, "is_disabled": 0, "name": "3bddf0616a182c75eeb19d5599ee6bad", "fusion_lat": 0.0, "rental_uris": {"ios": "https://dc.lft.to/lastmile_qr_scan", "android": "https://dc.lft.to/lastmile_qr_scan"}, "lon": -76.98602016666666, "type": "electric_scooter"}, {"bike_id": "664d9553bbd9d0633b223b1223dd36e0", "is_reserved": 0, "fusion_lon": 0.0, "lat": 38.91567333333333, "is_disabled": 0, "name": "664d9553bbd9d0633b223b1223dd36e0", "fusion_lat": 0.0, "rental_uris": {"ios": "https://dc.lft.to/lastmile_qr_scan", "android": "https://dc.lft.to/lastmile_qr_scan"}, "lon": -77.03772816666667, "type": "electric_scooter"}, {"bike_id": "c20307968c9482b5037df79c8cc52d65", "is_reserved": 0, "fusion_lon": 0.0, "lat": 38.85067266666667, "is_disabled": 0, "name": "c20307968c9482b5037df79c8cc52d65", "fusion_lat": 0.0, "rental_uris": {"ios": "https://dc.lft.to/lastmile_qr_scan", "android": "https://dc.lft.to/lastmile_qr_scan"}, "lon": -76.973365, "type": "electric_bike"}, {"bike_id": "15ac05ed1eab82f5e8e1fad7702710f8", "is_reserved": 0, "fusion_lon": 0.0, "lat": 38.9246585, "is_disabled": 0, "name": "15ac05ed1eab82f5e8e1fad7702710f8", "fusion_lat": 0.0, "rental_uris": {"ios": "https://dc.lft.to/lastmile_qr_scan", "android": "https://dc.lft.to/lastmile_qr_scan"}, "lon": -77.03773083333333, "type": "electric_scooter"}, {"bike_id": "90bbd14fd8062dbb1d6d582065761bc1", "is_reserved": 0, "fusion_lon": 0.0, "lat": 38.940154166666666, "is_disabled": 0, "name": "90bbd14fd8062dbb1d6d582065761bc1", "fusion_lat": 0.0, "rental_uris": {"ios": "https://dc.lft.to/lastmile_qr_scan", "android": "https://dc.lft.to/lastmile_qr_scan"}, "lon": -77.0717075, "type": "electric_scooter"}, {"bike_id": "18237b8e8b00597e92579f4a5a45e35f", "is_reserved": 0, "fusion_lon": 0.0, "lat": 38.903842166666664, "is_disabled": 0, "name": "18237b8e8b00597e92579f4a5a45e35f", "fusion_lat": 0.0, "rental_uris": {"ios": "https://dc.lft.to/lastmile_qr_scan", "android": "https://dc.lft.to/lastmile_qr_scan"}, "lon": -77.04483516666667, "type": "electric_scooter"}, {"bike_id": "f687a5a02c16112ad56ae5cafd2865ca", "is_reserved": 0, "fusion_lon": 0.0, "lat": 38.89829, "is_disabled": 0, "name": "f687a5a02c16112ad56ae5cafd2865ca", "fusion_lat": 0.0, "rental_uris": {"ios": "https://dc.lft.to/lastmile_qr_scan", "android": "https://dc.lft.to/lastmile_qr_scan"}, "lon": -77.00600966666667, "type": "electric_bike"}, {"bike_id": "0fe942a1a6567c56d426e16232953604", "is_reserved": 0, "fusion_lon": 0.0, "lat": 38.9309295, "is_disabled": 0, "name": "0fe942a1a6567c56d426e16232953604", "fusion_lat": 0.0, "rental_uris": {"ios": "https://dc.lft.to/lastmile_qr_scan", "android": "https://dc.lft.to/lastmile_qr_scan"}, "lon": -77.025113, "type": "electric_scooter"}, {"bike_id": "d7b03716777fddc16932570d2ee582f4", "is_reserved": 0, "fusion_lon": 0.0, "lat": 38.885333333333335, "is_disabled": 0, "name": "d7b03716777fddc16932570d2ee582f4", "fusion_lat": 0.0, "rental_uris": {"ios": "https://dc.lft.to/lastmile_qr_scan", "android": "https://dc.lft.to/lastmile_qr_scan"}, "lon": -77.00587283333333, "type": "electric_scooter"}, {"bike_id": "9737c6a60ba9a7cf6e06d8bf02ea238a", "is_reserved": 0, "fusion_lon": 0.0, "lat": 38.90288566666667, "is_disabled": 0, "name": "9737c6a60ba9a7cf6e06d8bf02ea238a", "fusion_lat": 0.0, "rental_uris": {"ios": "https://dc.lft.to/lastmile_qr_scan", "android": "https://dc.lft.to/lastmile_qr_scan"}, "lon": -77.03848733333334, "type": "electric_scooter"}, {"bike_id": "122fdca74124757631e2f897b52b32cd", "is_reserved": 0, "fusion_lon": 0.0, "lat": 38.86666, "is_disabled": 0, "name": "122fdca74124757631e2f897b52b32cd", "fusion_lat": 0.0, "rental_uris": {"ios": "https://dc.lft.to/lastmile_qr_scan", "android": "https://dc.lft.to/lastmile_qr_scan"}, "lon": -76.98909733333333, "type": "electric_scooter"}, {"bike_id": "08280241084c21e64fa70e7b0f2d759b", "is_reserved": 0, "fusion_lon": 0.0, "lat": 38.93542166666667, "is_disabled": 0, "name": "08280241084c21e64fa70e7b0f2d759b", "fusion_lat": 0.0, "rental_uris": {"ios": "https://dc.lft.to/lastmile_qr_scan", "android": "https://dc.lft.to/lastmile_qr_scan"}, "lon": -77.0342995, "type": "electric_scooter"}, {"bike_id": "07d598c716eb3d9632d2d102713a1b3f", "is_reserved": 0, "fusion_lon": 0.0, "lat": 38.899104666666666, "is_disabled": 0, "name": "07d598c716eb3d9632d2d102713a1b3f", "fusion_lat": 0.0, "rental_uris": {"ios": "https://dc.lft.to/lastmile_qr_scan", "android": "https://dc.lft.to/lastmile_qr_scan"}, "lon": -77.03936883333333, "type": "electric_scooter"}, {"bike_id": "402f157cb09485e6b42151fda1db03ed", "is_reserved": 0, "fusion_lon": 0.0, "lat": 38.89767583333333, "is_disabled": 0, "name": "402f157cb09485e6b42151fda1db03ed", "fusion_lat": 0.0, "rental_uris": {"ios": "https://dc.lft.to/lastmile_qr_scan", "android": "https://dc.lft.to/lastmile_qr_scan"}, "lon": -77.043195, "type": "electric_scooter"}, {"bike_id": "1a9249105999dde2101d2f325f0cba08", "is_reserved": 0, "fusion_lon": 0.0, "lat": 38.9335725, "is_disabled": 0, "name": "1a9249105999dde2101d2f325f0cba08", "fusion_lat": 0.0, "rental_uris": {"ios": "https://dc.lft.to/lastmile_qr_scan", "android": "https://dc.lft.to/lastmile_qr_scan"}, "lon": -77.06941883333333, "type": "electric_scooter"}, {"bike_id": "fd94fda9938421dafae3155642602171", "is_reserved": 0, "fusion_lon": 0.0, "lat": 38.911250833333334, "is_disabled": 0, "name": "fd94fda9938421dafae3155642602171", "fusion_lat": 0.0, "rental_uris": {"ios": "https://dc.lft.to/lastmile_qr_scan", "android": "https://dc.lft.to/lastmile_qr_scan"}, "lon": -77.02192766666667, "type": "electric_scooter"}, {"bike_id": "b809cee1c52a9b37c8c8ba89fd6ca843", "is_reserved": 0, "fusion_lon": 0.0, "lat": 38.90974333333333, "is_disabled": 0, "name": "b809cee1c52a9b37c8c8ba89fd6ca843", "fusion_lat": 0.0, "rental_uris": {"ios": "https://dc.lft.to/lastmile_qr_scan", "android": "https://dc.lft.to/lastmile_qr_scan"}, "lon": -77.048738, "type": "electric_scooter"}, {"bike_id": "f29f4952830e4b794bf8ba3c5b91651c", "is_reserved": 0, "fusion_lon": 0.0, "lat": 38.9167, "is_disabled": 0, "name": "f29f4952830e4b794bf8ba3c5b91651c", "fusion_lat": 0.0, "rental_uris": {"ios": "https://dc.lft.to/lastmile_qr_scan", "android": "https://dc.lft.to/lastmile_qr_scan"}, "lon": -77.00514, "type": "electric_scooter"}, {"bike_id": "931548b88e7bb909062e558994898b4f", "is_reserved": 0, "fusion_lon": 0.0, "lat": 38.91560416666667, "is_disabled": 0, "name": "931548b88e7bb909062e558994898b4f", "fusion_lat": 0.0, "rental_uris": {"ios": "https://dc.lft.to/lastmile_qr_scan", "android": "https://dc.lft.to/lastmile_qr_scan"}, "lon": -77.03938766666667, "type": "electric_scooter"}, {"bike_id": "506a371c7ef3f657f03e42c7f5c537e0", "is_reserved": 0, "fusion_lon": 0.0, "lat": 38.903669, "is_disabled": 0, "name": "506a371c7ef3f657f03e42c7f5c537e0", "fusion_lat": 0.0, "rental_uris": {"ios": "https://dc.lft.to/lastmile_qr_scan", "android": "https://dc.lft.to/lastmile_qr_scan"}, "lon": -77.0301345, "type": "electric_scooter"}, {"bike_id": "07a671b885017ccb60e89e1d3573f426", "is_reserved": 0, "fusion_lon": 0.0, "lat": 38.909625166666665, "is_disabled": 0, "name": "07a671b885017ccb60e89e1d3573f426", "fusion_lat": 0.0, "rental_uris": {"ios": "https://dc.lft.to/lastmile_qr_scan", "android": "https://dc.lft.to/lastmile_qr_scan"}, "lon": -77.03465633333333, "type": "electric_scooter"}, {"bike_id": "633bc683bbe199bc49dfca3ab3372b3a", "is_reserved": 0, "fusion_lon": 0.0, "lat": 38.916466166666666, "is_disabled": 0, "name": "633bc683bbe199bc49dfca3ab3372b3a", "fusion_lat": 0.0, "rental_uris": {"ios": "https://dc.lft.to/lastmile_qr_scan", "android": "https://dc.lft.to/lastmile_qr_scan"}, "lon": -77.03187433333333, "type": "electric_scooter"}, {"bike_id": "b768f998db736fcb4ecf1ca62602fb9f", "is_reserved": 0, "fusion_lon": 0.0, "lat": 38.914158, "is_disabled": 0, "name": "b768f998db736fcb4ecf1ca62602fb9f", "fusion_lat": 0.0, "rental_uris": {"ios": "https://dc.lft.to/lastmile_qr_scan", "android": "https://dc.lft.to/lastmile_qr_scan"}, "lon": -77.02677566666667, "type": "electric_scooter"}, {"bike_id": "8a0403f95b4794af097602a4352a427d", "is_reserved": 0, "fusion_lon": 0.0, "lat": 38.92417566666666, "is_disabled": 0, "name": "8a0403f95b4794af097602a4352a427d", "fusion_lat": 0.0, "rental_uris": {"ios": "https://dc.lft.to/lastmile_qr_scan", "android": "https://dc.lft.to/lastmile_qr_scan"}, "lon": -77.03550583333333, "type": "electric_scooter"}, {"bike_id": "e21b8b72a7a56b3903b996eef3a85633", "is_reserved": 0, "fusion_lon": 0.0, "lat": 38.918043, "is_disabled": 0, "name": "e21b8b72a7a56b3903b996eef3a85633", "fusion_lat": 0.0, "rental_uris": {"ios": "https://dc.lft.to/lastmile_qr_scan", "android": "https://dc.lft.to/lastmile_qr_scan"}, "lon": -77.03440766666667, "type": "electric_scooter"}, {"bike_id": "e57e91a5ab36ac80bbae4418bf9b7ade", "is_reserved": 0, "fusion_lon": 0.0, "lat": 38.939521, "is_disabled": 0, "name": "e57e91a5ab36ac80bbae4418bf9b7ade", "fusion_lat": 0.0, "rental_uris": {"ios": "https://dc.lft.to/lastmile_qr_scan", "android": "https://dc.lft.to/lastmile_qr_scan"}, "lon": -77.03267033333333, "type": "electric_scooter"}, {"bike_id": "e2e6c70ec71110a6e63db5bc40bbf96f", "is_reserved": 0, "fusion_lon": 0.0, "lat": 38.9906265, "is_disabled": 0, "name": "e2e6c70ec71110a6e63db5bc40bbf96f", "fusion_lat": 0.0, "rental_uris": {"ios": "https://dc.lft.to/lastmile_qr_scan", "android": "https://dc.lft.to/lastmile_qr_scan"}, "lon": -77.1002995, "type": "electric_bike"}, {"bike_id": "e6090d59ee74b05074a8aa2445251381", "is_reserved": 0, "fusion_lon": 0.0, "lat": 38.93396366666666, "is_disabled": 0, "name": "e6090d59ee74b05074a8aa2445251381", "fusion_lat": 0.0, "rental_uris": {"ios": "https://dc.lft.to/lastmile_qr_scan", "android": "https://dc.lft.to/lastmile_qr_scan"}, "lon": -77.02067883333333, "type": "electric_scooter"}, {"bike_id": "9e948e52e14face992f82dd3a4ad5293", "is_reserved": 0, "fusion_lon": 0.0, "lat": 38.90017133333333, "is_disabled": 0, "name": "9e948e52e14face992f82dd3a4ad5293", "fusion_lat": 0.0, "rental_uris": {"ios": "https://dc.lft.to/lastmile_qr_scan", "android": "https://dc.lft.to/lastmile_qr_scan"}, "lon": -77.00201366666667, "type": "electric_scooter"}, {"bike_id": "3b63aae698ac2f9e2b3ffe54b1af52bd", "is_reserved": 0, "fusion_lon": 0.0, "lat": 38.9527995, "is_disabled": 0, "name": "3b63aae698ac2f9e2b3ffe54b1af52bd", "fusion_lat": 0.0, "rental_uris": {"ios": "https://dc.lft.to/lastmile_qr_scan", "android": "https://dc.lft.to/lastmile_qr_scan"}, "lon": -77.00792783333333, "type": "electric_scooter"}, {"bike_id": "93593af6646deaa06c8059da9e475d8e", "is_reserved": 0, "fusion_lon": 0.0, "lat": 38.87229633333333, "is_disabled": 0, "name": "93593af6646deaa06c8059da9e475d8e", "fusion_lat": 0.0, "rental_uris": {"ios": "https://dc.lft.to/lastmile_qr_scan", "android": "https://dc.lft.to/lastmile_qr_scan"}, "lon": -77.011764, "type": "electric_bike"}, {"bike_id": "d3ac11de176aab0333e537fcaa92cb3e", "is_reserved": 0, "fusion_lon": 0.0, "lat": 38.85325666666667, "is_disabled": 0, "name": "d3ac11de176aab0333e537fcaa92cb3e", "fusion_lat": 0.0, "rental_uris": {"ios": "https://dc.lft.to/lastmile_qr_scan", "android": "https://dc.lft.to/lastmile_qr_scan"}, "lon": -76.98006766666667, "type": "electric_scooter"}, {"bike_id": "a8b1d37363fb4f5ac3a39dc360a6178a", "is_reserved": 0, "fusion_lon": 0.0, "lat": 38.90021316666667, "is_disabled": 0, "name": "a8b1d37363fb4f5ac3a39dc360a6178a", "fusion_lat": 0.0, "rental_uris": {"ios": "https://dc.lft.to/lastmile_qr_scan", "android": "https://dc.lft.to/lastmile_qr_scan"}, "lon": -76.997877, "type": "electric_scooter"}, {"bike_id": "5ffb3eeb0ea5388e239dd5ea4c6267e6", "is_reserved": 0, "fusion_lon": 0.0, "lat": 38.940512166666664, "is_disabled": 0, "name": "5ffb3eeb0ea5388e239dd5ea4c6267e6", "fusion_lat": 0.0, "rental_uris": {"ios": "https://dc.lft.to/lastmile_qr_scan", "android": "https://dc.lft.to/lastmile_qr_scan"}, "lon": -77.02984583333334, "type": "electric_scooter"}, {"bike_id": "5127c7edb2059b9b63092548ed218b49", "is_reserved": 0, "fusion_lon": 0.0, "lat": 38.924358833333336, "is_disabled": 0, "name": "5127c7edb2059b9b63092548ed218b49", "fusion_lat": 0.0, "rental_uris": {"ios": "https://dc.lft.to/lastmile_qr_scan", "android": "https://dc.lft.to/lastmile_qr_scan"}, "lon": -77.04001816666667, "type": "electric_scooter"}, {"bike_id": "0a8850b939f92e758ff1e607bd5c4185", "is_reserved": 0, "fusion_lon": 0.0, "lat": 38.922677666666665, "is_disabled": 0, "name": "0a8850b939f92e758ff1e607bd5c4185", "fusion_lat": 0.0, "rental_uris": {"ios": "https://dc.lft.to/lastmile_qr_scan", "android": "https://dc.lft.to/lastmile_qr_scan"}, "lon": -77.04126416666666, "type": "electric_scooter"}, {"bike_id": "57c5597c1bcff9c4e7c61c33f9817a77", "is_reserved": 0, "fusion_lon": 0.0, "lat": 38.92088116666667, "is_disabled": 0, "name": "57c5597c1bcff9c4e7c61c33f9817a77", "fusion_lat": 0.0, "rental_uris": {"ios": "https://dc.lft.to/lastmile_qr_scan", "android": "https://dc.lft.to/lastmile_qr_scan"}, "lon": -76.99914283333334, "type": "electric_scooter"}, {"bike_id": "1ade1b4ac6a2454373dbe0ef2d98f343", "is_reserved": 0, "fusion_lon": 0.0, "lat": 38.91880066666667, "is_disabled": 0, "name": "1ade1b4ac6a2454373dbe0ef2d98f343", "fusion_lat": 0.0, "rental_uris": {"ios": "https://dc.lft.to/lastmile_qr_scan", "android": "https://dc.lft.to/lastmile_qr_scan"}, "lon": -77.035102, "type": "electric_scooter"}, {"bike_id": "a028a8474205060bcec63a6d11cd0bec", "is_reserved": 0, "fusion_lon": 0.0, "lat": 38.920501333333334, "is_disabled": 0, "name": "a028a8474205060bcec63a6d11cd0bec", "fusion_lat": 0.0, "rental_uris": {"ios": "https://dc.lft.to/lastmile_qr_scan", "android": "https://dc.lft.to/lastmile_qr_scan"}, "lon": -76.99821883333334, "type": "electric_scooter"}, {"bike_id": "85bdf277786ccd5cd417e84562e3801b", "is_reserved": 0, "fusion_lon": 0.0, "lat": 39.003798, "is_disabled": 0, "name": "85bdf277786ccd5cd417e84562e3801b", "fusion_lat": 0.0, "rental_uris": {"ios": "https://dc.lft.to/lastmile_qr_scan", "android": "https://dc.lft.to/lastmile_qr_scan"}, "lon": -77.01296716666667, "type": "electric_bike"}, {"bike_id": "e284939e4bccacbded53bd07133bb3f5", "is_reserved": 0, "fusion_lon": 0.0, "lat": 38.90525383333333, "is_disabled": 0, "name": "e284939e4bccacbded53bd07133bb3f5", "fusion_lat": 0.0, "rental_uris": {"ios": "https://dc.lft.to/lastmile_qr_scan", "android": "https://dc.lft.to/lastmile_qr_scan"}, "lon": -77.06789033333334, "type": "electric_bike"}, {"bike_id": "31eb4b5bee50f87c2faeef22fda7a428", "is_reserved": 0, "fusion_lon": 0.0, "lat": 38.901075, "is_disabled": 0, "name": "31eb4b5bee50f87c2faeef22fda7a428", "fusion_lat": 0.0, "rental_uris": {"ios": "https://dc.lft.to/lastmile_qr_scan", "android": "https://dc.lft.to/lastmile_qr_scan"}, "lon": -77.04805466666667, "type": "electric_scooter"}, {"bike_id": "0639b8f6e5bf16d5d4ab584d8314132b", "is_reserved": 0, "fusion_lon": 0.0, "lat": 38.916102333333335, "is_disabled": 0, "name": "0639b8f6e5bf16d5d4ab584d8314132b", "fusion_lat": 0.0, "rental_uris": {"ios": "https://dc.lft.to/lastmile_qr_scan", "android": "https://dc.lft.to/lastmile_qr_scan"}, "lon": -77.02405583333334, "type": "electric_scooter"}, {"bike_id": "0dca3412154a26688653bcb5134e02d8", "is_reserved": 0, "fusion_lon": 0.0, "lat": 38.956456833333334, "is_disabled": 0, "name": "0dca3412154a26688653bcb5134e02d8", "fusion_lat": 0.0, "rental_uris": {"ios": "https://dc.lft.to/lastmile_qr_scan", "android": "https://dc.lft.to/lastmile_qr_scan"}, "lon": -77.032855, "type": "electric_scooter"}, {"bike_id": "5cad68a83519453c322d2a0f15a4fd7c", "is_reserved": 0, "fusion_lon": 0.0, "lat": 38.900536833333334, "is_disabled": 0, "name": "5cad68a83519453c322d2a0f15a4fd7c", "fusion_lat": 0.0, "rental_uris": {"ios": "https://dc.lft.to/lastmile_qr_scan", "android": "https://dc.lft.to/lastmile_qr_scan"}, "lon": -77.00737316666667, "type": "electric_scooter"}, {"bike_id": "52ebd08c5904935716a14bc4e13a12a4", "is_reserved": 0, "fusion_lon": 0.0, "lat": 38.827883, "is_disabled": 0, "name": "52ebd08c5904935716a14bc4e13a12a4", "fusion_lat": 0.0, "rental_uris": {"ios": "https://dc.lft.to/lastmile_qr_scan", "android": "https://dc.lft.to/lastmile_qr_scan"}, "lon": -77.00924266666667, "type": "electric_bike"}, {"bike_id": "0fd1bd4442034f7214d943ce5ce09c36", "is_reserved": 0, "fusion_lon": 0.0, "lat": 38.884926666666665, "is_disabled": 0, "name": "0fd1bd4442034f7214d943ce5ce09c36", "fusion_lat": 0.0, "rental_uris": {"ios": "https://dc.lft.to/lastmile_qr_scan", "android": "https://dc.lft.to/lastmile_qr_scan"}, "lon": -77.00724183333334, "type": "electric_scooter"}, {"bike_id": "81a50840e4d8ce9a6f363829eca1c0d4", "is_reserved": 0, "fusion_lon": 0.0, "lat": 38.89227666666667, "is_disabled": 0, "name": "81a50840e4d8ce9a6f363829eca1c0d4", "fusion_lat": 0.0, "rental_uris": {"ios": "https://dc.lft.to/lastmile_qr_scan", "android": "https://dc.lft.to/lastmile_qr_scan"}, "lon": -77.02446966666666, "type": "electric_scooter"}, {"bike_id": "8166b1ebba5a7146cc248a8ac67a812f", "is_reserved": 0, "fusion_lon": 0.0, "lat": 38.914304333333334, "is_disabled": 0, "name": "8166b1ebba5a7146cc248a8ac67a812f", "fusion_lat": 0.0, "rental_uris": {"ios": "https://dc.lft.to/lastmile_qr_scan", "android": "https://dc.lft.to/lastmile_qr_scan"}, "lon": -77.0448475, "type": "electric_scooter"}, {"bike_id": "da46e83ab5c3f244674e7789f09a6548", "is_reserved": 0, "fusion_lon": 0.0, "lat": 38.90618666666667, "is_disabled": 0, "name": "da46e83ab5c3f244674e7789f09a6548", "fusion_lat": 0.0, "rental_uris": {"ios": "https://dc.lft.to/lastmile_qr_scan", "android": "https://dc.lft.to/lastmile_qr_scan"}, "lon": -77.07486716666666, "type": "electric_scooter"}, {"bike_id": "f7ee73e338a369abbe05ad6454c1e746", "is_reserved": 0, "fusion_lon": 0.0, "lat": 38.93954466666667, "is_disabled": 0, "name": "f7ee73e338a369abbe05ad6454c1e746", "fusion_lat": 0.0, "rental_uris": {"ios": "https://dc.lft.to/lastmile_qr_scan", "android": "https://dc.lft.to/lastmile_qr_scan"}, "lon": -77.07260416666666, "type": "electric_scooter"}, {"bike_id": "559f12bf42d52e2123baee8f97b2a358", "is_reserved": 0, "fusion_lon": 0.0, "lat": 38.9026565, "is_disabled": 0, "name": "559f12bf42d52e2123baee8f97b2a358", "fusion_lat": 0.0, "rental_uris": {"ios": "https://dc.lft.to/lastmile_qr_scan", "android": "https://dc.lft.to/lastmile_qr_scan"}, "lon": -77.02814233333334, "type": "electric_scooter"}, {"bike_id": "f5ad80e89ba3551b48139fceac45607e", "is_reserved": 0, "fusion_lon": 0.0, "lat": 38.901110833333334, "is_disabled": 0, "name": "f5ad80e89ba3551b48139fceac45607e", "fusion_lat": 0.0, "rental_uris": {"ios": "https://dc.lft.to/lastmile_qr_scan", "android": "https://dc.lft.to/lastmile_qr_scan"}, "lon": -77.04348116666667, "type": "electric_scooter"}, {"bike_id": "34fb716b79bd5d1b8d7ea8c158e2826b", "is_reserved": 0, "fusion_lon": 0.0, "lat": 38.909563, "is_disabled": 0, "name": "34fb716b79bd5d1b8d7ea8c158e2826b", "fusion_lat": 0.0, "rental_uris": {"ios": "https://dc.lft.to/lastmile_qr_scan", "android": "https://dc.lft.to/lastmile_qr_scan"}, "lon": -77.0486245, "type": "electric_scooter"}, {"bike_id": "00f2835ae0775994faa8c0ac4b108080", "is_reserved": 0, "fusion_lon": 0.0, "lat": 38.878887, "is_disabled": 0, "name": "00f2835ae0775994faa8c0ac4b108080", "fusion_lat": 0.0, "rental_uris": {"ios": "https://dc.lft.to/lastmile_qr_scan", "android": "https://dc.lft.to/lastmile_qr_scan"}, "lon": -77.0227935, "type": "electric_scooter"}, {"bike_id": "b878b7ca4b3471acd6b2ab14167eb9e3", "is_reserved": 0, "fusion_lon": 0.0, "lat": 39.03882566666667, "is_disabled": 0, "name": "b878b7ca4b3471acd6b2ab14167eb9e3", "fusion_lat": 0.0, "rental_uris": {"ios": "https://dc.lft.to/lastmile_qr_scan", "android": "https://dc.lft.to/lastmile_qr_scan"}, "lon": -76.9904205, "type": "electric_bike"}, {"bike_id": "48f9089e19a659f400fee798b5c87e73", "is_reserved": 0, "fusion_lon": 0.0, "lat": 38.940950666666666, "is_disabled": 0, "name": "48f9089e19a659f400fee798b5c87e73", "fusion_lat": 0.0, "rental_uris": {"ios": "https://dc.lft.to/lastmile_qr_scan", "android": "https://dc.lft.to/lastmile_qr_scan"}, "lon": -77.0328225, "type": "electric_scooter"}, {"bike_id": "73587e448f1b15a9edbde64129f3e0eb", "is_reserved": 0, "fusion_lon": 0.0, "lat": 38.97237066666667, "is_disabled": 0, "name": "73587e448f1b15a9edbde64129f3e0eb", "fusion_lat": 0.0, "rental_uris": {"ios": "https://dc.lft.to/lastmile_qr_scan", "android": "https://dc.lft.to/lastmile_qr_scan"}, "lon": -77.0271775, "type": "electric_scooter"},