{"data": {"bikes": [{"type": "electric_scooter", "rental_uris": {"ios": "https://dc.lft.to/lastmile_qr_scan", "android": "https://dc.lft.to/lastmile_qr_scan"}, "lon": -77.02627366666667, "fusion_lon": 0.0, "is_disabled": 0, "lat": 38.887415, "bike_id": "6626a3ab01500019655ed999b57bdc8b", "name": "6626a3ab01500019655ed999b57bdc8b", "is_reserved": 0, "fusion_lat": 0.0}, {"type": "electric_scooter", "rental_uris": {"ios": "https://dc.lft.to/lastmile_qr_scan", "android": "https://dc.lft.to/lastmile_qr_scan"}, "lon": -77.02690066666666, "fusion_lon": 0.0, "is_disabled": 0, "lat": 38.9068005, "bike_id": "8bf695d1ae961fd138f552ec485a60f6", "name": "8bf695d1ae961fd138f552ec485a60f6", "is_reserved": 0, "fusion_lat": 0.0}, {"type": "electric_scooter", "rental_uris": {"ios": "https://dc.lft.to/lastmile_qr_scan", "android": "https://dc.lft.to/lastmile_qr_scan"}, "lon": -77.02491366666666, "fusion_lon": 0.0, "is_disabled": 0, "lat": 38.941856666666666, "bike_id": "0d5993d042f955055573cc8868725cc2", "name": "0d5993d042f955055573cc8868725cc2", "is_reserved": 0, "fusion_lat": 0.0}, {"type": "electric_bike", "rental_uris": {"ios": "https://dc.lft.to/lastmile_qr_scan", "android": "https://dc.lft.to/lastmile_qr_scan"}, "lon": -76.97184583333333, "fusion_lon": 0.0, "is_disabled": 0, "lat": 38.917891, "bike_id": "46e582451cf51e412b54e46241c39b51", "name": "46e582451cf51e412b54e46241c39b51", "is_reserved": 0, "fusion_lat": 0.0}, {"type": "electric_scooter", "rental_uris": {"ios": "https://dc.lft.to/lastmile_qr_scan", "android": "https://dc.lft.to/lastmile_qr_scan"}, "lon": -76.98704833333333, "fusion_lon": 0.0, "is_disabled": 0, "lat": 38.86537083333333, "bike_id": "3d8cd5f0b245b55cc728e3a70e851481", "name": "3d8cd5f0b245b55cc728e3a70e851481", "is_reserved": 0, "fusion_lat": 0.0}, {"type": "electric_scooter", "rental_uris": {"ios": "https://dc.lft.to/lastmile_qr_scan", "android": "https://dc.lft.to/lastmile_qr_scan"}, "lon": -77.01133983333334, "fusion_lon": 0.0, "is_disabled": 0, "lat": 38.88527283333333, "bike_id": "133d470844367f4f29e8ffe149b9613c", "name": "133d470844367f4f29e8ffe149b9613c", "is_reserved": 0, "fusion_lat": 0.0}, {"type": "electric_scooter", "rental_uris": {"ios": "https://dc.lft.to/lastmile_qr_scan", "android": "https://dc.lft.to/lastmile_qr_scan"}, "lon": -77.04158683333333, "fusion_lon": 0.0, "is_disabled": 0, "lat": 38.916167333333334, "bike_id": "f83c48b3265326d223d4511bd7e5bdac", "name": "f83c48b3265326d223d4511bd7e5bdac", "is_reserved": 0, "fusion_lat": 0.0}, {"type": "electric_scooter", "rental_uris": {"ios": "https://dc.lft.to/lastmile_qr_scan", "android": "https://dc.lft.to/lastmile_qr_scan"}, "lon": -77.0294455, "fusion_lon": 0.0, "is_disabled": 0, "lat": 38.934670833333335, "bike_id": "fc16a5df2e72108c93d4fe68563cf2c0", "name": "fc16a5df2e72108c93d4fe68563cf2c0", "is_reserved": 0, "fusion_lat": 0.0}, {"type": "electric_scooter", "rental_uris": {"ios": "https://dc.lft.to/lastmile_qr_scan", "android": "https://dc.lft.to/lastmile_qr_scan"}, "lon": -77.03509066666666, "fusion_lon": 0.0, "is_disabled": 0, "lat": 38.921546166666666, "bike_id": "236025a4bf0f6094cf6b6e57e9a68015", "name": "236025a4bf0f6094cf6b6e57e9a68015", "is_reserved": 0, "fusion_lat": 0.0}, {"type": "electric_scooter", "rental_uris": {"ios": "https://dc.lft.to/lastmile_qr_scan", "android": "https://dc.lft.to/lastmile_qr_scan"}, "lon": -77.0177005, "fusion_lon": 0.0, "is_disabled": 0, "lat": 38.905622666666666, "bike_id": "6e68c1081b7a5dfb45dc504ede7f808b", "name": "6e68c1081b7a5dfb45dc504ede7f808b", "is_reserved": 0, "fusion_lat": 0.0}, {"type": "electric_scooter", "rental_uris": {"ios": "https://dc.lft.to/lastmile_qr_scan", "android": "https://dc.lft.to/lastmile_qr_scan"}, "lon": -77.0241415, "fusion_lon": 0.0, "is_disabled": 0, "lat": 38.89197016666667, "bike_id": "51ff5a8a441fecc9fefe73b067128744", "name": "51ff5a8a441fecc9fefe73b067128744", "is_reserved": 0, "fusion_lat": 0.0}, {"type": "electric_bike", "rental_uris": {"ios": "https://dc.lft.to/lastmile_qr_scan", "android": "https://dc.lft.to/lastmile_qr_scan"}, "lon": -77.13146033333334, "fusion_lon": 0.0, "is_disabled": 0, "lat": 38.86171233333334, "bike_id": "7b6d48ab13fe9dbcf203d53010f8666d", "name": "7b6d48ab13fe9dbcf203d53010f8666d", "is_reserved": 0, "fusion_lat": 0.0}, {"type": "electric_bike", "rental_uris": {"ios": "https://dc.lft.to/lastmile_qr_scan", "android": "https://dc.lft.to/lastmile_qr_scan"}, "lon": -77.02781233333333, "fusion_lon": 0.0, "is_disabled": 0, "lat": 38.92929683333333, "bike_id": "32b1cc7d586ceca0a05fe993ea0a4c79", "name": "32b1cc7d586ceca0a05fe993ea0a4c79", "is_reserved": 0, "fusion_lat": 0.0}, {"type": "electric_bike", "rental_uris": {"ios": "https://dc.lft.to/lastmile_qr_scan", "android": "https://dc.lft.to/lastmile_qr_scan"}, "lon": -76.98532933333334, "fusion_lon": 0.0, "is_disabled": 0, "lat": 38.88080466666667, "bike_id": "b0ae3a3f0469aafbbca7dc52b3d9a0a3", "name": "b0ae3a3f0469aafbbca7dc52b3d9a0a3", "is_reserved": 0, "fusion_lat": 0.0}, {"type": "electric_scooter", "rental_uris": {"ios": "https://dc.lft.to/lastmile_qr_scan", "android": "https://dc.lft.to/lastmile_qr_scan"}, "lon": -77.05497916666667, "fusion_lon": 0.0, "is_disabled": 0, "lat": 38.936664666666665, "bike_id": "0953716229fbcb95653d0964b537c726", "name": "0953716229fbcb95653d0964b537c726", "is_reserved": 0, "fusion_lat": 0.0}, {"type": "electric_scooter", "rental_uris": {"ios": "https://dc.lft.to/lastmile_qr_scan", "android": "https://dc.lft.to/lastmile_qr_scan"}, "lon": -77.0258785, "fusion_lon": 0.0, "is_disabled": 0, "lat": 38.907364, "bike_id": "1dbd6e04e044265223e95d0cd7dc2b69", "name": "1dbd6e04e044265223e95d0cd7dc2b69", "is_reserved": 0, "fusion_lat": 0.0}, {"type": "electric_scooter", "rental_uris": {"ios": "https://dc.lft.to/lastmile_qr_scan", "android": "https://dc.lft.to/lastmile_qr_scan"}, "lon": -77.0306975, "fusion_lon": 0.0, "is_disabled": 0, "lat": 38.8861305, "bike_id": "bcf643135f402e25baf722830906dcd2", "name": "bcf643135f402e25baf722830906dcd2", "is_reserved": 0, "fusion_lat": 0.0}, {"type": "electric_scooter", "rental_uris": {"ios": "https://dc.lft.to/lastmile_qr_scan", "android": "https://dc.lft.to/lastmile_qr_scan"}, "lon": -77.03200883333334, "fusion_lon": 0.0, "is_disabled": 0, "lat": 38.91571966666667, "bike_id": "4d87140e30f214a77cf5c1435de5c326", "name": "4d87140e30f214a77cf5c1435de5c326", "is_reserved": 0, "fusion_lat": 0.0}, {"type": "electric_scooter", "rental_uris": {"ios": "https://dc.lft.to/lastmile_qr_scan", "android": "https://dc.lft.to/lastmile_qr_scan"}, "lon": -77.03445983333333, "fusion_lon": 0.0, "is_disabled": 0, "lat": 38.9067665, "bike_id": "c32f63f59d059f404707ff4c99cbee06", "name": "c32f63f59d059f404707ff4c99cbee06", "is_reserved": 0, "fusion_lat": 0.0}, {"type": "electric_scooter", "rental_uris": {"ios": "https://dc.lft.to/lastmile_qr_scan", "android": "https://dc.lft.to/lastmile_qr_scan"}, "lon": -77.03456733333333, "fusion_lon": 0.0, "is_disabled": 0, "lat": 38.918198, "bike_id": "1f11484cf86ca7f4b44b284d9af6814c", "name": "1f11484cf86ca7f4b44b284d9af6814c", "is_reserved": 0, "fusion_lat": 0.0}, {"type": "electric_scooter", "rental_uris": {"ios": "https://dc.lft.to/lastmile_qr_scan", "android": "https://dc.lft.to/lastmile_qr_scan"}, "lon": -77.04466466666666, "fusion_lon": 0.0, "is_disabled": 0, "lat": 38.91120766666667, "bike_id": "63cd52aefb4cb0ccce525634d6cce7db", "name": "63cd52aefb4cb0ccce525634d6cce7db", "is_reserved": 0, "fusion_lat": 0.0}, {"type": "electric_scooter", "rental_uris": {"ios": "https://dc.lft.to/lastmile_qr_scan", "android": "https://dc.lft.to/lastmile_qr_scan"}, "lon": -77.029684, "fusion_lon": 0.0, "is_disabled": 0, "lat": 38.9325615, "bike_id": "3dc46eda3d1702f7bcd0ef2016b12799", "name": "3dc46eda3d1702f7bcd0ef2016b12799", "is_reserved": 0, "fusion_lat": 0.0}, {"type": "electric_scooter", "rental_uris": {"ios": "https://dc.lft.to/lastmile_qr_scan", "android": "https://dc.lft.to/lastmile_qr_scan"}, "lon": -77.02212766666666, "fusion_lon": 0.0, "is_disabled": 0, "lat": 38.8874715, "bike_id": "5cfa0e5a5e234d0a5908a4ff74a5b314", "name": "5cfa0e5a5e234d0a5908a4ff74a5b314", "is_reserved": 0, "fusion_lat": 0.0}, {"type": "electric_scooter", "rental_uris": {"ios": "https://dc.lft.to/lastmile_qr_scan", "android": "https://dc.lft.to/lastmile_qr_scan"}, "lon": -77.01749633333333, "fusion_lon": 0.0, "is_disabled": 0, "lat": 38.902681333333334, "bike_id": "3d41d36823b51daa46b19a701a6aa0d9", "name": "3d41d36823b51daa46b19a701a6aa0d9", "is_reserved": 0, "fusion_lat": 0.0}, {"type": "electric_scooter", "rental_uris": {"ios": "https://dc.lft.to/lastmile_qr_scan", "android": "https://dc.lft.to/lastmile_qr_scan"}, "lon": -76.97632266666666, "fusion_lon": 0.0, "is_disabled": 0, "lat": 38.85198616666667, "bike_id": "31807433864975794665fa8dd7f870c1", "name": "31807433864975794665fa8dd7f870c1", "is_reserved": 0, "fusion_lat": 0.0}, {"type": "electric_scooter", "rental_uris": {"ios": "https://dc.lft.to/lastmile_qr_scan", "android": "https://dc.lft.to/lastmile_qr_scan"}, "lon": -77.04361, "fusion_lon": 0.0, "is_disabled": 0, "lat": 38.920667333333334, "bike_id": "3a1372beda485270ee02b2e0d532639d", "name": "3a1372beda485270ee02b2e0d532639d", "is_reserved": 0, "fusion_lat": 0.0}, {"type": "electric_scooter", "rental_uris": {"ios": "https://dc.lft.to/lastmile_qr_scan", "android": "https://dc.lft.to/lastmile_qr_scan"}, "lon": -77.03071216666666, "fusion_lon": 0.0, "is_disabled": 0, "lat": 38.899567833333336, "bike_id": "e1260f05582c1abf12c8115bef7456e9", "name": "e1260f05582c1abf12c8115bef7456e9", "is_reserved": 0, "fusion_lat": 0.0}, {"type": "electric_scooter", "rental_uris": {"ios": "https://dc.lft.to/lastmile_qr_scan", "android": "https://dc.lft.to/lastmile_qr_scan"}, "lon": -77.03788283333333, "fusion_lon": 0.0, "is_disabled": 0, "lat": 38.90963683333333, "bike_id": "3d52ce7c76d03d592134208445864d84", "name": "3d52ce7c76d03d592134208445864d84", "is_reserved": 0, "fusion_lat": 0.0}, {"type": "electric_scooter", "rental_uris": {"ios": "https://dc.lft.to/lastmile_qr_scan", "android": "https://dc.lft.to/lastmile_qr_scan"}, "lon": -77.028066, "fusion_lon": 0.0, "is_disabled": 0, "lat": 38.902606166666665, "bike_id": "ce8ec01ed23480b2b3a8da37c0826497", "name": "ce8ec01ed23480b2b3a8da37c0826497", "is_reserved": 0, "fusion_lat": 0.0}, {"type": "electric_scooter", "rental_uris": {"ios": "https://dc.lft.to/lastmile_qr_scan", "android": "https://dc.lft.to/lastmile_qr_scan"}, "lon": -76.98980633333333, "fusion_lon": 0.0, "is_disabled": 0, "lat": 38.86505733333333, "bike_id": "411ab7a9f21d0a829b533b4b9a298ef4", "name": "411ab7a9f21d0a829b533b4b9a298ef4", "is_reserved": 0, "fusion_lat": 0.0}, {"type": "electric_scooter", "rental_uris": {"ios": "https://dc.lft.to/lastmile_qr_scan", "android": "https://dc.lft.to/lastmile_qr_scan"}, "lon": -77.04141666666666, "fusion_lon": 0.0, "is_disabled": 0, "lat": 38.893495, "bike_id": "e18e6088dc884b36b97f1c07642f64cf", "name": "e18e6088dc884b36b97f1c07642f64cf", "is_reserved": 0, "fusion_lat": 0.0}, {"type": "electric_bike", "rental_uris": {"ios": "https://dc.lft.to/lastmile_qr_scan", "android": "https://dc.lft.to/lastmile_qr_scan"}, "lon": -76.89537783333333, "fusion_lon": 0.0, "is_disabled": 0, "lat": 38.9455495, "bike_id": "9dd40f4f56bd86ee83042a7d8e5ca19d", "name": "9dd40f4f56bd86ee83042a7d8e5ca19d", "is_reserved": 0, "fusion_lat": 0.0}, {"type": "electric_scooter", "rental_uris": {"ios": "https://dc.lft.to/lastmile_qr_scan", "android": "https://dc.lft.to/lastmile_qr_scan"}, "lon": -77.04465866666666, "fusion_lon": 0.0, "is_disabled": 0, "lat": 38.8961335, "bike_id": "3c83fde36da3ce522e484a3ca1cbef99", "name": "3c83fde36da3ce522e484a3ca1cbef99", "is_reserved": 0, "fusion_lat": 0.0}, {"type": "electric_bike", "rental_uris": {"ios": "https://dc.lft.to/lastmile_qr_scan", "android": "https://dc.lft.to/lastmile_qr_scan"}, "lon": -76.97975866666667, "fusion_lon": 0.0, "is_disabled": 0, "lat": 38.953739, "bike_id": "be2e0b654a242eb704116da9f920afb6", "name": "be2e0b654a242eb704116da9f920afb6", "is_reserved": 0, "fusion_lat": 0.0}, {"type": "electric_scooter", "rental_uris": {"ios": "https://dc.lft.to/lastmile_qr_scan", "android": "https://dc.lft.to/lastmile_qr_scan"}, "lon": -77.04436733333333, "fusion_lon": 0.0, "is_disabled": 0, "lat": 38.921180666666665, "bike_id": "a15ba368cc69d650e4b9fd0c553222bb", "name": "a15ba368cc69d650e4b9fd0c553222bb", "is_reserved": 0, "fusion_lat": 0.0}, {"type": "electric_bike", "rental_uris": {"ios": "https://dc.lft.to/lastmile_qr_scan", "android": "https://dc.lft.to/lastmile_qr_scan"}, "lon": -77.0493125, "fusion_lon": 0.0, "is_disabled": 0, "lat": 39.029326166666664, "bike_id": "447eec3e4dad8eef3fb046ef52f192ea", "name": "447eec3e4dad8eef3fb046ef52f192ea", "is_reserved": 0, "fusion_lat": 0.0}, {"type": "electric_scooter", "rental_uris": {"ios": "https://dc.lft.to/lastmile_qr_scan", "android": "https://dc.lft.to/lastmile_qr_scan"}, "lon": -77.03510133333333, "fusion_lon": 0.0, "is_disabled": 0, "lat": 38.92157316666667, "bike_id": "2b6eabd78d9135041114fbaa78dcbc52", "name": "2b6eabd78d9135041114fbaa78dcbc52", "is_reserved": 0, "fusion_lat": 0.0}, {"type": "electric_scooter", "rental_uris": {"ios": "https://dc.lft.to/lastmile_qr_scan", "android": "https://dc.lft.to/lastmile_qr_scan"}, "lon": -77.03865866666666, "fusion_lon": 0.0, "is_disabled": 0, "lat": 38.90972983333333, "bike_id": "db5d109ae55f53ce70fe48b19aa243c3", "name": "db5d109ae55f53ce70fe48b19aa243c3", "is_reserved": 0, "fusion_lat": 0.0}, {"type": "electric_scooter", "rental_uris": {"ios": "https://dc.lft.to/lastmile_qr_scan", "android": "https://dc.lft.to/lastmile_qr_scan"}, "lon": -77.03877883333334, "fusion_lon": 0.0, "is_disabled": 0, "lat": 38.902666333333336, "bike_id": "0f4464b7df0410abca3ac858030b4127", "name": "0f4464b7df0410abca3ac858030b4127", "is_reserved": 0, "fusion_lat": 0.0}, {"type": "electric_bike", "rental_uris": {"ios": "https://dc.lft.to/lastmile_qr_scan", "android": "https://dc.lft.to/lastmile_qr_scan"}, "lon": -77.02775066666666, "fusion_lon": 0.0, "is_disabled": 0, "lat": 38.929065666666666, "bike_id": "c63f580802b967566a9fbe3639c7fdf5", "name": "c63f580802b967566a9fbe3639c7fdf5", "is_reserved": 0, "fusion_lat": 0.0}, {"type": "electric_bike", "rental_uris": {"ios": "https://dc.lft.to/lastmile_qr_scan", "android": "https://dc.lft.to/lastmile_qr_scan"}, "lon": -77.0390735, "fusion_lon": 0.0, "is_disabled": 0, "lat": 38.923361666666665, "bike_id": "06d5fa25767a09816849526f7c3dcc3e", "name": "06d5fa25767a09816849526f7c3dcc3e", "is_reserved": 0, "fusion_lat": 0.0}, {"type": "electric_scooter", "rental_uris": {"ios": "https://dc.lft.to/lastmile_qr_scan", "android": "https://dc.lft.to/lastmile_qr_scan"}, "lon": -77.02690983333333, "fusion_lon": 0.0, "is_disabled": 0, "lat": 38.90601766666666, "bike_id": "802c2a1b8b769c5923f5c7f4e653cbf0", "name": "802c2a1b8b769c5923f5c7f4e653cbf0", "is_reserved": 0, "fusion_lat": 0.0}, {"type": "electric_scooter", "rental_uris": {"ios": "https://dc.lft.to/lastmile_qr_scan", "android": "https://dc.lft.to/lastmile_qr_scan"}, "lon": -77.04358966666666, "fusion_lon": 0.0, "is_disabled": 0, "lat": 38.91350833333333, "bike_id": "b12d90a74ce1367de44c0d1b84866eab", "name": "b12d90a74ce1367de44c0d1b84866eab", "is_reserved": 0, "fusion_lat": 0.0}, {"type": "electric_scooter", "rental_uris": {"ios": "https://dc.lft.to/lastmile_qr_scan", "android": "https://dc.lft.to/lastmile_qr_scan"}, "lon": -77.07710216666666, "fusion_lon": 0.0, "is_disabled": 0, "lat": 38.9438555, "bike_id": "8c90773419611404a1682db39699ea79", "name": "8c90773419611404a1682db39699ea79", "is_reserved": 0, "fusion_lat": 0.0}, {"type": "electric_scooter", "rental_uris": {"ios": "https://dc.lft.to/lastmile_qr_scan", "android": "https://dc.lft.to/lastmile_qr_scan"}, "lon": -76.99822316666666, "fusion_lon": 0.0, "is_disabled": 0, "lat": 38.90007766666667, "bike_id": "57d9442f10ee8e5851085826a6fdfd78", "name": "57d9442f10ee8e5851085826a6fdfd78", "is_reserved": 0, "fusion_lat": 0.0}, {"type": "electric_scooter", "rental_uris": {"ios": "https://dc.lft.to/lastmile_qr_scan", "android": "https://dc.lft.to/lastmile_qr_scan"}, "lon": -77.0207895, "fusion_lon": 0.0, "is_disabled": 0, "lat": 38.87574133333333, "bike_id": "f444e8487d11a22c6fb6417dac4ba5db", "name": "f444e8487d11a22c6fb6417dac4ba5db", "is_reserved": 0, "fusion_lat": 0.0}, {"type": "electric_scooter", "rental_uris": {"ios": "https://dc.lft.to/lastmile_qr_scan", "android": "https://dc.lft.to/lastmile_qr_scan"}, "lon": -77.0320305, "fusion_lon": 0.0, "is_disabled": 0, "lat": 38.915667666666664, "bike_id": "18c1a4b08b03b158d52a5eca9363b80e", "name": "18c1a4b08b03b158d52a5eca9363b80e", "is_reserved": 0, "fusion_lat": 0.0}, {"type": "electric_scooter", "rental_uris": {"ios": "https://dc.lft.to/lastmile_qr_scan", "android": "https://dc.lft.to/lastmile_qr_scan"}, "lon": -77.048903, "fusion_lon": 0.0, "is_disabled": 0, "lat": 38.913405833333336, "bike_id": "a9f519e33742c424572bba243a0363a7", "name": "a9f519e33742c424572bba243a0363a7", "is_reserved": 0, "fusion_lat": 0.0}, {"type": "electric_scooter", "rental_uris": {"ios": "https://dc.lft.to/lastmile_qr_scan", "android": "https://dc.lft.to/lastmile_qr_scan"}, "lon": -77.02973, "fusion_lon": 0.0, "is_disabled": 0, "lat": 38.91684033333333, "bike_id": "f26b751a59d1ae670e6595c259d2956a", "name": "f26b751a59d1ae670e6595c259d2956a", "is_reserved": 0, "fusion_lat": 0.0}, {"type": "electric_scooter", "rental_uris": {"ios": "https://dc.lft.to/lastmile_qr_scan", "android": "https://dc.lft.to/lastmile_qr_scan"}, "lon": -77.04774066666667, "fusion_lon": 0.0, "is_disabled": 0, "lat": 38.902361166666665, "bike_id": "6c7dc0d5760f97f1000f17d44bd5c5e7", "name": "6c7dc0d5760f97f1000f17d44bd5c5e7", "is_reserved": 0, "fusion_lat": 0.0}, {"type": "electric_scooter", "rental_uris": {"ios": "https://dc.lft.to/lastmile_qr_scan", "android": "https://dc.lft.to/lastmile_qr_scan"}, "lon": -77.04039283333333, "fusion_lon": 0.0, "is_disabled": 0, "lat": 38.904094, "bike_id": "5b9592d3dc297bfb70c0c824fcf6677a", "name": "5b9592d3dc297bfb70c0c824fcf6677a", "is_reserved": 0, "fusion_lat": 0.0}, {"type": "electric_scooter", "rental_uris": {"ios": "https://dc.lft.to/lastmile_qr_scan", "android": "https://dc.lft.to/lastmile_qr_scan"}, "lon": -77.07298933333334, "fusion_lon": 0.0, "is_disabled": 0, "lat": 38.92154133333333, "bike_id": "2f5c7bd278a65fe680e5568dc10c31ad", "name": "2f5c7bd278a65fe680e5568dc10c31ad", "is_reserved": 0, "fusion_lat": 0.0}, {"type": "electric_scooter", "rental_uris": {"ios": "https://dc.lft.to/lastmile_qr_scan", "android": "https://dc.lft.to/lastmile_qr_scan"}, "lon": -77.0012385, "fusion_lon": 0.0, "is_disabled": 0, "lat": 38.878003166666666, "bike_id": "97bd07a9933482274c6a18e501a9977f", "name": "97bd07a9933482274c6a18e501a9977f", "is_reserved": 0, "fusion_lat": 0.0}, {"type": "electric_scooter", "rental_uris": {"ios": "https://dc.lft.to/lastmile_qr_scan", "android": "https://dc.lft.to/lastmile_qr_scan"}, "lon": -76.972311, "fusion_lon": 0.0, "is_disabled": 0, "lat": 38.85453366666667, "bike_id": "d5b7bf50a86a70018fc6f392c5c0e895", "name": "d5b7bf50a86a70018fc6f392c5c0e895", "is_reserved": 0, "fusion_lat": 0.0}, {"type": "electric_scooter", "rental_uris": {"ios": "https://dc.lft.to/lastmile_qr_scan", "android": "https://dc.lft.to/lastmile_qr_scan"}, "lon": -77.06318016666667, "fusion_lon": 0.0, "is_disabled": 0, "lat": 38.902818, "bike_id": "8b8f38fe860449c82a338fcc990b3630", "name": "8b8f38fe860449c82a338fcc990b3630", "is_reserved": 0, "fusion_lat": 0.0}, {"type": "electric_scooter", "rental_uris": {"ios": "https://dc.lft.to/lastmile_qr_scan", "android": "https://dc.lft.to/lastmile_qr_scan"}, "lon": -77.00063533333334, "fusion_lon": 0.0, "is_disabled": 0, "lat": 38.905732666666665, "bike_id": "8114968983654c8c114ed8ec7ee40daf", "name": "8114968983654c8c114ed8ec7ee40daf", "is_reserved": 0, "fusion_lat": 0.0}, {"type": "electric_scooter", "rental_uris": {"ios": "https://dc.lft.to/lastmile_qr_scan", "android": "https://dc.lft.to/lastmile_qr_scan"}, "lon": -77.050098, "fusion_lon": 0.0, "is_disabled": 0, "lat": 38.903289666666666, "bike_id": "633984af7947a281f1b8ed43ff88167a", "name": "633984af7947a281f1b8ed43ff88167a", "is_reserved": 0, "fusion_lat": 0.0}, {"type": "electric_bike", "rental_uris": {"ios": "https://dc.lft.to/lastmile_qr_scan", "android": "https://dc.lft.to/lastmile_qr_scan"}, "lon": -77.03631016666667, "fusion_lon": 0.0, "is_disabled": 0, "lat": 38.93289, "bike_id": "f3e0f78b9616bf9aea6d5a34373eddec", "name": "f3e0f78b9616bf9aea6d5a34373eddec", "is_reserved": 0, "fusion_lat": 0.0}, {"type": "electric_scooter", "rental_uris": {"ios": "https://dc.lft.to/lastmile_qr_scan", "android": "https://dc.lft.to/lastmile_qr_scan"}, "lon": -76.97328916666666, "fusion_lon": 0.0, "is_disabled": 0, "lat": 38.90408633333333, "bike_id": "f436288277e32f542b210dca0c5fe606", "name": "f436288277e32f542b210dca0c5fe606", "is_reserved": 0, "fusion_lat": 0.0}, {"type": "electric_scooter", "rental_uris": {"ios": "https://dc.lft.to/lastmile_qr_scan", "android": "https://dc.lft.to/lastmile_qr_scan"}, "lon": -77.01077516666666, "fusion_lon": 0.0, "is_disabled": 0, "lat": 38.9163595, "bike_id": "6e764999eee32c5c741067913d20110a", "name": "6e764999eee32c5c741067913d20110a", "is_reserved": 0, "fusion_lat": 0.0}, {"type": "electric_bike", "rental_uris": {"ios": "https://dc.lft.to/lastmile_qr_scan", "android": "https://dc.lft.to/lastmile_qr_scan"}, "lon": -77.09481816666667, "fusion_lon": 0.0, "is_disabled": 0, "lat": 39.03048966666667, "bike_id": "d153d27812aed2fa8ba13f4c8c0eda5d", "name": "d153d27812aed2fa8ba13f4c8c0eda5d", "is_reserved": 0, "fusion_lat": 0.0}, {"type": "electric_scooter", "rental_uris": {"ios": "https://dc.lft.to/lastmile_qr_scan", "android": "https://dc.lft.to/lastmile_qr_scan"}, "lon": -77.03039116666666, "fusion_lon": 0.0, "is_disabled": 0, "lat": 38.8843475, "bike_id": "7f48267e3566db9b3ba88821639c04c6", "name": "7f48267e3566db9b3ba88821639c04c6", "is_reserved": 0, "fusion_lat": 0.0}, {"type": "electric_scooter", "rental_uris": {"ios": "https://dc.lft.to/lastmile_qr_scan", "android": "https://dc.lft.to/lastmile_qr_scan"}, "lon": -77.03162083333333, "fusion_lon": 0.0, "is_disabled": 0, "lat": 38.896249166666664, "bike_id": "71ee9b0d76863ad514a9e9f47dcf2897", "name": "71ee9b0d76863ad514a9e9f47dcf2897", "is_reserved": 0, "fusion_lat": 0.0}, {"type": "electric_scooter", "rental_uris": {"ios": "https://dc.lft.to/lastmile_qr_scan", "android": "https://dc.lft.to/lastmile_qr_scan"}, "lon": -77.00600683333333, "fusion_lon": 0.0, "is_disabled": 0, "lat": 38.90628316666667, "bike_id": "b0fbc43f727e5bfa6bda6762fda6babc", "name": "b0fbc43f727e5bfa6bda6762fda6babc", "is_reserved": 0, "fusion_lat": 0.0}, {"type": "electric_scooter", "rental_uris": {"ios": "https://dc.lft.to/lastmile_qr_scan", "android": "https://dc.lft.to/lastmile_qr_scan"}, "lon": -77.0328095, "fusion_lon": 0.0, "is_disabled": 0, "lat": 38.92945783333333, "bike_id": "e176f5e8c21857f4a07cc2e028c560b3", "name": "e176f5e8c21857f4a07cc2e028c560b3", "is_reserved": 0, "fusion_lat": 0.0}, {"type": "electric_scooter", "rental_uris": {"ios": "https://dc.lft.to/lastmile_qr_scan", "android": "https://dc.lft.to/lastmile_qr_scan"}, "lon": -77.01162683333334, "fusion_lon": 0.0, "is_disabled": 0, "lat": 38.90308233333333, "bike_id": "f199b0e277c014a6203866eaf1edeaf3", "name": "f199b0e277c014a6203866eaf1edeaf3", "is_reserved": 0, "fusion_lat": 0.0}, {"type": "electric_scooter", "rental_uris": {"ios": "https://dc.lft.to/lastmile_qr_scan", "android": "https://dc.lft.to/lastmile_qr_scan"}, "lon": -77.01368383333333, "fusion_lon": 0.0, "is_disabled": 0, "lat": 38.892282333333334, "bike_id": "0fd0e9b1af86501dceae200198847ec0", "name": "0fd0e9b1af86501dceae200198847ec0", "is_reserved": 0, "fusion_lat": 0.0}, {"type": "electric_scooter", "rental_uris": {"ios": "https://dc.lft.to/lastmile_qr_scan", "android": "https://dc.lft.to/lastmile_qr_scan"}, "lon": -77.00608233333334, "fusion_lon": 0.0, "is_disabled": 0, "lat": 38.9055745, "bike_id": "7a9f40e0e212904cd97e9f0a6ef09cbe", "name": "7a9f40e0e212904cd97e9f0a6ef09cbe", "is_reserved": 0, "fusion_lat": 0.0}, {"type": "electric_scooter", "rental_uris": {"ios": "https://dc.lft.to/lastmile_qr_scan", "android": "https://dc.lft.to/lastmile_qr_scan"}, "lon": -77.01799233333334, "fusion_lon": 0.0, "is_disabled": 0, "lat": 38.920519666666664, "bike_id": "40f488de3e7e76e62d4cf3e0fdbc8c42", "name": "40f488de3e7e76e62d4cf3e0fdbc8c42", "is_reserved": 0, "fusion_lat": 0.0}, {"type": "electric_bike", "rental_uris": {"ios": "https://dc.lft.to/lastmile_qr_scan", "android": "https://dc.lft.to/lastmile_qr_scan"}, "lon": -77.0498135, "fusion_lon": 0.0, "is_disabled": 0, "lat": 39.06300233333333, "bike_id": "7a5754c625a6ff94c6ea71d8ced07f14", "name": "7a5754c625a6ff94c6ea71d8ced07f14", "is_reserved": 0, "fusion_lat": 0.0}, {"type": "electric_scooter", "rental_uris": {"ios": "https://dc.lft.to/lastmile_qr_scan", "android": "https://dc.lft.to/lastmile_qr_scan"}, "lon": -77.03734866666667, "fusion_lon": 0.0, "is_disabled": 0, "lat": 38.9285, "bike_id": "eadeca93e8f6e386cfaabacfcad5ed76", "name": "eadeca93e8f6e386cfaabacfcad5ed76", "is_reserved": 0, "fusion_lat": 0.0}, {"type": "electric_scooter", "rental_uris": {"ios": "https://dc.lft.to/lastmile_qr_scan", "android": "https://dc.lft.to/lastmile_qr_scan"}, "lon": -77.03144533333334, "fusion_lon": 0.0, "is_disabled": 0, "lat": 38.91561183333334, "bike_id": "2f107650a19b6300fc819233eb23fc42", "name": "2f107650a19b6300fc819233eb23fc42", "is_reserved": 0, "fusion_lat": 0.0}, {"type": "electric_scooter", "rental_uris": {"ios": "https://dc.lft.to/lastmile_qr_scan", "android": "https://dc.lft.to/lastmile_qr_scan"}, "lon": -77.03964233333333, "fusion_lon": 0.0, "is_disabled": 0, "lat": 38.919829666666665, "bike_id": "c6674f037f74b51b6520bd0ae8380603", "name": "c6674f037f74b51b6520bd0ae8380603", "is_reserved": 0, "fusion_lat": 0.0}, {"type": "electric_scooter", "rental_uris": {"ios": "https://dc.lft.to/lastmile_qr_scan", "android": "https://dc.lft.to/lastmile_qr_scan"}, "lon": -77.0751785, "fusion_lon": 0.0, "is_disabled": 0, "lat": 38.93941216666666, "bike_id": "e35ec584e31ee3188d8ebc4485b9c673", "name": "e35ec584e31ee3188d8ebc4485b9c673", "is_reserved": 0, "fusion_lat": 0.0}, {"type": "electric_scooter", "rental_uris": {"ios": "https://dc.lft.to/lastmile_qr_scan", "android": "https://dc.lft.to/lastmile_qr_scan"}, "lon": -77.02165333333333, "fusion_lon": 0.0, "is_disabled": 0, "lat": 38.9306945, "bike_id": "3ffae0e97da6fa8286533798b8cbb11c", "name": "3ffae0e97da6fa8286533798b8cbb11c", "is_reserved": 0, "fusion_lat": 0.0}, {"type": "electric_scooter", "rental_uris": {"ios": "https://dc.lft.to/lastmile_qr_scan", "android": "https://dc.lft.to/lastmile_qr_scan"}, "lon": -77.00919433333334, "fusion_lon": 0.0, "is_disabled": 0, "lat": 38.89552366666667, "bike_id": "9156c2aeb9b36f43669209d7dc997c51", "name": "9156c2aeb9b36f43669209d7dc997c51", "is_reserved": 0, "fusion_lat": 0.0}, {"type": "electric_scooter", "rental_uris": {"ios": "https://dc.lft.to/lastmile_qr_scan", "android": "https://dc.lft.to/lastmile_qr_scan"}, "lon": -77.0268405, "fusion_lon": 0.0, "is_disabled": 0, "lat": 38.925951166666664, "bike_id": "2d6781b5630255b5c62f914d290afa92", "name": "2d6781b5630255b5c62f914d290afa92", "is_reserved": 0, "fusion_lat": 0.0}, {"type": "electric_scooter", "rental_uris": {"ios": "https://dc.lft.to/lastmile_qr_scan", "android": "https://dc.lft.to/lastmile_qr_scan"}, "lon": -76.99211916666667, "fusion_lon": 0.0, "is_disabled": 0, "lat": 38.90366983333333, "bike_id": "38fcfdb513fb692b5df59f67305672d3", "name": "38fcfdb513fb692b5df59f67305672d3", "is_reserved": 0, "fusion_lat": 0.0}, {"type": "electric_scooter", "rental_uris": {"ios": "https://dc.lft.to/lastmile_qr_scan", "android": "https://dc.lft.to/lastmile_qr_scan"}, "lon": -77.04446833333333, "fusion_lon": 0.0, "is_disabled": 0, "lat": 38.92421266666667, "bike_id": "ae50af487c7a8f0693f0bc329d27a8de", "name": "ae50af487c7a8f0693f0bc329d27a8de", "is_reserved": 0, "fusion_lat": 0.0}, {"type": "electric_scooter", "rental_uris": {"ios": "https://dc.lft.to/lastmile_qr_scan", "android": "https://dc.lft.to/lastmile_qr_scan"}, "lon": -77.03183366666667, "fusion_lon": 0.0, "is_disabled": 0, "lat": 38.91747066666667, "bike_id": "e9cae9237a05f0acbcbbc1ff9a6392fe", "name": "e9cae9237a05f0acbcbbc1ff9a6392fe", "is_reserved": 0, "fusion_lat": 0.0}, {"type": "electric_scooter", "rental_uris": {"ios": "https://dc.lft.to/lastmile_qr_scan", "android": "https://dc.lft.to/lastmile_qr_scan"}, "lon": -76.99902966666667, "fusion_lon": 0.0, "is_disabled": 0, "lat": 38.9482895, "bike_id": "1188f152e9014ad51c5191f0224fceb5", "name": "1188f152e9014ad51c5191f0224fceb5", "is_reserved": 0, "fusion_lat": 0.0}, {"type": "electric_scooter", "rental_uris": {"ios": "https://dc.lft.to/lastmile_qr_scan", "android": "https://dc.lft.to/lastmile_qr_scan"}, "lon": -77.021265, "fusion_lon": 0.0, "is_disabled": 0, "lat": 38.887428666666665, "bike_id": "3bad2b41dc43fb6b3357a7af67708e40", "name": "3bad2b41dc43fb6b3357a7af67708e40", "is_reserved": 0, "fusion_lat": 0.0}, {"type": "electric_scooter", "rental_uris": {"ios": "https://dc.lft.to/lastmile_qr_scan", "android": "https://dc.lft.to/lastmile_qr_scan"}, "lon": -77.021895, "fusion_lon": 0.0, "is_disabled": 0, "lat": 38.91487516666667, "bike_id": "a3ff8c29b696e7eaa0889d4e837540dd", "name": "a3ff8c29b696e7eaa0889d4e837540dd", "is_reserved": 0, "fusion_lat": 0.0}, {"type": "electric_scooter", "rental_uris": {"ios": "https://dc.lft.to/lastmile_qr_scan", "android": "https://dc.lft.to/lastmile_qr_scan"}, "lon": -77.0602965, "fusion_lon": 0.0, "is_disabled": 0, "lat": 38.94458483333333, "bike_id": "b10b579b966be6cc4e136c96d2378d15", "name": "b10b579b966be6cc4e136c96d2378d15", "is_reserved": 0, "fusion_lat": 0.0}, {"type": "electric_scooter", "rental_uris": {"ios": "https://dc.lft.to/lastmile_qr_scan", "android": "https://dc.lft.to/lastmile_qr_scan"}, "lon": -77.0604915, "fusion_lon": 0.0, "is_disabled": 0, "lat": 38.90231433333334, "bike_id": "875ffb4ebe9ea30543d4195fedbe2977", "name": "875ffb4ebe9ea30543d4195fedbe2977", "is_reserved": 0, "fusion_lat": 0.0}, {"type": "electric_scooter", "rental_uris": {"ios": "https://dc.lft.to/lastmile_qr_scan", "android": "https://dc.lft.to/lastmile_qr_scan"}, "lon": -77.04684666666667, "fusion_lon": 0.0, "is_disabled": 0, "lat": 38.89730933333333, "bike_id": "050336f05c1039d7a288f88522a8b1f5", "name": "050336f05c1039d7a288f88522a8b1f5", "is_reserved": 0, "fusion_lat": 0.0}, {"type": "electric_scooter", "rental_uris": {"ios": "https://dc.lft.to/lastmile_qr_scan", "android": "https://dc.lft.to/lastmile_qr_scan"}, "lon": -77.03242433333334, "fusion_lon": 0.0, "is_disabled": 0, "lat": 38.908757666666666, "bike_id": "8a16a7d66f5d64cef73c2dc370e1dcc7", "name": "8a16a7d66f5d64cef73c2dc370e1dcc7", "is_reserved": 0, "fusion_lat": 0.0}, {"type": "electric_scooter", "rental_uris": {"ios": "https://dc.lft.to/lastmile_qr_scan", "android": "https://dc.lft.to/lastmile_qr_scan"}, "lon": -77.0271885, "fusion_lon": 0.0, "is_disabled": 0, "lat": 38.901787666666664, "bike_id": "8a909a13a77f9a4ebb1e5876eb4da14f", "name": "8a909a13a77f9a4ebb1e5876eb4da14f", "is_reserved": 0, "fusion_lat": 0.0}, {"type": "electric_scooter", "rental_uris": {"ios": "https://dc.lft.to/lastmile_qr_scan", "android": "https://dc.lft.to/lastmile_qr_scan"}, "lon": -77.04850583333334, "fusion_lon": 0.0, "is_disabled": 0, "lat": 38.90475416666666, "bike_id": "65fc8d7f2734fa767c05fb9829d39834", "name": "65fc8d7f2734fa767c05fb9829d39834", "is_reserved": 0, "fusion_lat": 0.0}, {"type": "electric_scooter", "rental_uris": {"ios": "https://dc.lft.to/lastmile_qr_scan", "android": "https://dc.lft.to/lastmile_qr_scan"}, "lon": -77.03212833333333, "fusion_lon": 0.0, "is_disabled": 0, "lat": 38.909768166666666, "bike_id": "45a110ac2dbec0305a8ee4b95f067a54", "name": "45a110ac2dbec0305a8ee4b95f067a54", "is_reserved": 0, "fusion_lat": 0.0}, {"type": "electric_scooter", "rental_uris": {"ios": "https://dc.lft.to/lastmile_qr_scan", "android": "https://dc.lft.to/lastmile_qr_scan"}, "lon": -77.05217166666667, "fusion_lon": 0.0, "is_disabled": 0, "lat": 38.924949833333336, "bike_id": "c73c40619787fd11ad8927e39a8603d1", "name": "c73c40619787fd11ad8927e39a8603d1", "is_reserved": 0, "fusion_lat": 0.0}, {"type": "electric_scooter", "rental_uris": {"ios": "https://dc.lft.to/lastmile_qr_scan", "android": "https://dc.lft.to/lastmile_qr_scan"}, "lon": -76.93605816666667, "fusion_lon": 0.0, "is_disabled": 0, "lat": 38.896839666666665, "bike_id": "b8a268301e0aa4e6403399b957471d34", "name": "b8a268301e0aa4e6403399b957471d34", "is_reserved": 0, "fusion_lat": 0.0}, {"type": "electric_scooter", "rental_uris": {"ios": "https://dc.lft.to/lastmile_qr_scan", "android": "https://dc.lft.to/lastmile_qr_scan"}, "lon": -77.031847, "fusion_lon": 0.0, "is_disabled": 0, "lat": 38.907955333333334, "bike_id": "e60e223c3c00e4cc2e8a9053306309c4", "name": "e60e223c3c00e4cc2e8a9053306309c4", "is_reserved": 0, "fusion_lat": 0.0}, {"type": "electric_bike", "rental_uris": {"ios": "https://dc.lft.to/lastmile_qr_scan", "android": "https://dc.lft.to/lastmile_qr_scan"}, "lon": -76.93648883333333, "fusion_lon": 0.0, "is_disabled": 0, "lat": 38.871486, "bike_id": "ab734d6a297a38a597e4ccec0e53005a", "name": "ab734d6a297a38a597e4ccec0e53005a", "is_reserved": 0, "fusion_lat": 0.0}, {"type": "electric_scooter", "rental_uris": {"ios": "https://dc.lft.to/lastmile_qr_scan", "android": "https://dc.lft.to/lastmile_qr_scan"}, "lon": -77.02975866666667, "fusion_lon": 0.0, "is_disabled": 0, "lat": 38.916838, "bike_id": "aecb13efa421cc74593f253dd1b6aac3", "name": "aecb13efa421cc74593f253dd1b6aac3", "is_reserved": 0, "fusion_lat": 0.0}, {"type": "electric_scooter", "rental_uris": {"ios": "https://dc.lft.to/lastmile_qr_scan", "android": "https://dc.lft.to/lastmile_qr_scan"}, "lon": -76.97431483333334, "fusion_lon": 0.0, "is_disabled": 0, "lat": 38.864288333333334, "bike_id": "27429bf216acb48a612510f61945e5aa", "name": "27429bf216acb48a612510f61945e5aa", "is_reserved": 0, "fusion_lat": 0.0}, {"type": "electric_scooter", "rental_uris": {"ios": "https://dc.lft.to/lastmile_qr_scan", "android": "https://dc.lft.to/lastmile_qr_scan"}, "lon": -77.02654283333334, "fusion_lon": 0.0, "is_disabled": 0, "lat": 38.892204166666666, "bike_id": "63ba19c9fbf35a28a6ec9c2a981b63f6", "name": "63ba19c9fbf35a28a6ec9c2a981b63f6", "is_reserved": 0, "fusion_lat": 0.0}, {"type": "electric_scooter", "rental_uris": {"ios": "https://dc.lft.to/lastmile_qr_scan", "android": "https://dc.lft.to/lastmile_qr_scan"}, "lon": -77.02099433333333, "fusion_lon": 0.0, "is_disabled": 0, "lat": 38.931206833333334, "bike_id": "7894d72c92893671cd4dbb1022c56712", "name": "7894d72c92893671cd4dbb1022c56712", "is_reserved": 0, "fusion_lat": 0.0}, {"type": "electric_scooter", "rental_uris": {"ios": "https://dc.lft.to/lastmile_qr_scan", "android": "https://dc.lft.to/lastmile_qr_scan"}, "lon": -76.9262115, "fusion_lon": 0.0, "is_disabled": 0, "lat": 38.88460416666667, "bike_id": "a859318946666eedcc2bdf698d588892", "name": "a859318946666eedcc2bdf698d588892", "is_reserved": 0, "fusion_lat": 0.0}, {"type": "electric_scooter", "rental_uris": {"ios": "https://dc.lft.to/lastmile_qr_scan", "android": "https://dc.lft.to/lastmile_qr_scan"}, "lon": -77.04658816666667, "fusion_lon": 0.0, "is_disabled": 0, "lat": 38.892404666666664, "bike_id": "a39e2f46ee52985e905d0d8c82fb10b6", "name": "a39e2f46ee52985e905d0d8c82fb10b6", "is_reserved": 0, "fusion_lat": 0.0}, {"type": "electric_scooter", "rental_uris": {"ios": "https://dc.lft.to/lastmile_qr_scan", "android": "https://dc.lft.to/lastmile_qr_scan"}, "lon": -77.02337316666667, "fusion_lon": 0.0, "is_disabled": 0, "lat": 38.9166785, "bike_id": "4df67bda8745973096ce49660e407ff8", "name": "4df67bda8745973096ce49660e407ff8", "is_reserved": 0, "fusion_lat": 0.0}, {"type": "electric_scooter", "rental_uris": {"ios": "https://dc.lft.to/lastmile_qr_scan", "android": "https://dc.lft.to/lastmile_qr_scan"}, "lon": -77.045253, "fusion_lon": 0.0, "is_disabled": 0, "lat": 38.918228, "bike_id": "1425cb345da296e32c70a7c735501629", "name": "1425cb345da296e32c70a7c735501629", "is_reserved": 0, "fusion_lat": 0.0}, {"type": "electric_scooter", "rental_uris": {"ios": "https://dc.lft.to/lastmile_qr_scan", "android": "https://dc.lft.to/lastmile_qr_scan"}, "lon": -76.968673, "fusion_lon": 0.0, "is_disabled": 0, "lat": 38.87096366666667, "bike_id": "f452e43c3b35a6592ebbe99de8edd11c", "name": "f452e43c3b35a6592ebbe99de8edd11c", "is_reserved": 0, "fusion_lat": 0.0}, {"type": "electric_scooter", "rental_uris": {"ios": "https://dc.lft.to/lastmile_qr_scan", "android": "https://dc.lft.to/lastmile_qr_scan"}, "lon": -77.0400345, "fusion_lon": 0.0, "is_disabled": 0, "lat": 38.921686333333334, "bike_id": "d3bd19f62d700feb24a58997ce3a3c6c", "name": "d3bd19f62d700feb24a58997ce3a3c6c", "is_reserved": 0, "fusion_lat": 0.0}, {"type": "electric_scooter", "rental_uris": {"ios": "https://dc.lft.to/lastmile_qr_scan", "android": "https://dc.lft.to/lastmile_qr_scan"}, "lon": -77.03364866666666, "fusion_lon": 0.0, "is_disabled": 0, "lat": 38.887572, "bike_id": "d6f5c657d65b29a9614e77eabd3381fc", "name": "d6f5c657d65b29a9614e77eabd3381fc", "is_reserved": 0, "fusion_lat": 0.0}, {"type": "electric_scooter", "rental_uris": {"ios": "https://dc.lft.to/lastmile_qr_scan", "android": "https://dc.lft.to/lastmile_qr_scan"}, "lon": -76.99501466666666, "fusion_lon": 0.0, "is_disabled": 0, "lat": 38.89488016666667, "bike_id": "8776c1a934b07146c843299d70ffd087", "name": "8776c1a934b07146c843299d70ffd087", "is_reserved": 0, "fusion_lat": 0.0}, {"type": "electric_scooter", "rental_uris": {"ios": "https://dc.lft.to/lastmile_qr_scan", "android": "https://dc.lft.to/lastmile_qr_scan"}, "lon": -77.045059, "fusion_lon": 0.0, "is_disabled": 0, "lat": 38.89223616666666, "bike_id": "f377d2329d98dcf74c15cb61cd63d6c8", "name": "f377d2329d98dcf74c15cb61cd63d6c8", "is_reserved": 0, "fusion_lat": 0.0}, {"type": "electric_scooter", "rental_uris": {"ios": "https://dc.lft.to/lastmile_qr_scan", "android": "https://dc.lft.to/lastmile_qr_scan"}, "lon": -76.96603816666666, "fusion_lon": 0.0, "is_disabled": 0, "lat": 38.873907, "bike_id": "246de4a40ccedb9b0994e425112386dd", "name": "246de4a40ccedb9b0994e425112386dd", "is_reserved": 0, "fusion_lat": 0.0}, {"type": "electric_scooter", "rental_uris": {"ios": "https://dc.lft.to/lastmile_qr_scan", "android": "https://dc.lft.to/lastmile_qr_scan"}, "lon": -77.03795516666666, "fusion_lon": 0.0, "is_disabled": 0, "lat": 38.92625916666667, "bike_id": "39b2b5419eb2c2c1ea2eeb46dcb969a8", "name": "39b2b5419eb2c2c1ea2eeb46dcb969a8", "is_reserved": 0, "fusion_lat": 0.0}, {"type": "electric_scooter", "rental_uris": {"ios": "https://dc.lft.to/lastmile_qr_scan", "android": "https://dc.lft.to/lastmile_qr_scan"}, "lon": -77.0337265, "fusion_lon": 0.0, "is_disabled": 0, "lat": 38.92153033333334, "bike_id": "8703b52bcbefcb6ca236d4c6c84d736a", "name": "8703b52bcbefcb6ca236d4c6c84d736a", "is_reserved": 0, "fusion_lat": 0.0}, {"type": "electric_scooter", "rental_uris": {"ios": "https://dc.lft.to/lastmile_qr_scan", "android": "https://dc.lft.to/lastmile_qr_scan"}, "lon": -77.043756, "fusion_lon": 0.0, "is_disabled": 0, "lat": 38.921161, "bike_id": "1c430c20be521370e088215ae64fe129", "name": "1c430c20be521370e088215ae64fe129", "is_reserved": 0, "fusion_lat": 0.0}, {"type": "electric_scooter", "rental_uris": {"ios": "https://dc.lft.to/lastmile_qr_scan", "android": "https://dc.lft.to/lastmile_qr_scan"}, "lon": -77.02775316666667, "fusion_lon": 0.0, "is_disabled": 0, "lat": 38.89218416666667, "bike_id": "33d83d004a2559b01b543d0f67ab4533", "name": "33d83d004a2559b01b543d0f67ab4533", "is_reserved": 0, "fusion_lat": 0.0}, {"type": "electric_scooter", "rental_uris": {"ios": "https://dc.lft.to/lastmile_qr_scan", "android": "https://dc.lft.to/lastmile_qr_scan"}, "lon": -77.03846183333333, "fusion_lon": 0.0, "is_disabled": 0, "lat": 38.932529, "bike_id": "57ff0182c6d66a47e004d77326da0476", "name": "57ff0182c6d66a47e004d77326da0476", "is_reserved": 0, "fusion_lat": 0.0}, {"type": "electric_scooter", "rental_uris": {"ios": "https://dc.lft.to/lastmile_qr_scan", "android": "https://dc.lft.to/lastmile_qr_scan"}, "lon": -77.03474666666666, "fusion_lon": 0.0, "is_disabled": 0, "lat": 38.909622666666664, "bike_id": "645b44ca7ca28a15ddc354b4fb852ee6", "name": "645b44ca7ca28a15ddc354b4fb852ee6", "is_reserved": 0, "fusion_lat": 0.0}, {"type": "electric_scooter", "rental_uris": {"ios": "https://dc.lft.to/lastmile_qr_scan", "android": "https://dc.lft.to/lastmile_qr_scan"}, "lon": -77.001173, "fusion_lon": 0.0, "is_disabled": 0, "lat": 38.917102666666665, "bike_id": "98a337697ffac67296dd61b3415a8c52", "name": "98a337697ffac67296dd61b3415a8c52", "is_reserved": 0, "fusion_lat": 0.0}, {"type": "electric_scooter", "rental_uris": {"ios": "https://dc.lft.to/lastmile_qr_scan", "android": "https://dc.lft.to/lastmile_qr_scan"}, "lon": -77.040037, "fusion_lon": 0.0, "is_disabled": 0, "lat": 38.90778066666667, "bike_id": "611d8e35ae6455b8378decf92319a4d9", "name": "611d8e35ae6455b8378decf92319a4d9", "is_reserved": 0, "fusion_lat": 0.0}, {"type": "electric_scooter", "rental_uris": {"ios": "https://dc.lft.to/lastmile_qr_scan", "android": "https://dc.lft.to/lastmile_qr_scan"}, "lon": -77.02494166666666, "fusion_lon": 0.0, "is_disabled": 0, "lat": 38.918064, "bike_id": "0c2d407b9c657e79e95cf4fb50176f5f", "name": "0c2d407b9c657e79e95cf4fb50176f5f", "is_reserved": 0, "fusion_lat": 0.0}, {"type": "electric_scooter", "rental_uris": {"ios": "https://dc.lft.to/lastmile_qr_scan", "android": "https://dc.lft.to/lastmile_qr_scan"}, "lon": -77.0227865, "fusion_lon": 0.0, "is_disabled": 0, "lat": 38.916475, "bike_id": "adecb743934e8248b41a7e2c3b87b44f", "name": "adecb743934e8248b41a7e2c3b87b44f", "is_reserved": 0, "fusion_lat": 0.0}, {"type": "electric_scooter", "rental_uris": {"ios": "https://dc.lft.to/lastmile_qr_scan", "android": "https://dc.lft.to/lastmile_qr_scan"}, "lon": -77.03408966666667, "fusion_lon": 0.0, "is_disabled": 0, "lat": 38.9193305, "bike_id": "651f7fb0ab2db0d23e475dd7669a7ce7", "name": "651f7fb0ab2db0d23e475dd7669a7ce7", "is_reserved": 0, "fusion_lat": 0.0}, {"type": "electric_scooter", "rental_uris": {"ios": "https://dc.lft.to/lastmile_qr_scan", "android": "https://dc.lft.to/lastmile_qr_scan"}, "lon": -77.03179066666667, "fusion_lon": 0.0, "is_disabled": 0, "lat": 38.919196, "bike_id": "5f71c656428274d05e0e9f6935a270b4", "name": "5f71c656428274d05e0e9f6935a270b4", "is_reserved": 0, "fusion_lat": 0.0}, {"type": "electric_scooter", "rental_uris": {"ios": "https://dc.lft.to/lastmile_qr_scan", "android": "https://dc.lft.to/lastmile_qr_scan"}, "lon": -77.03362316666667, "fusion_lon": 0.0, "is_disabled": 0, "lat": 38.887637166666664, "bike_id": "93bcf3ae91af522644cc78d10bd95c22", "name": "93bcf3ae91af522644cc78d10bd95c22", "is_reserved": 0, "fusion_lat": 0.0}, {"type": "electric_scooter", "rental_uris": {"ios": "https://dc.lft.to/lastmile_qr_scan", "android": "https://dc.lft.to/lastmile_qr_scan"}, "lon": -77.03857733333334, "fusion_lon": 0.0, "is_disabled": 0, "lat": 38.910190666666665, "bike_id": "c39d96a24b796cf73a9acf039093c142", "name": "c39d96a24b796cf73a9acf039093c142", "is_reserved": 0, "fusion_lat": 0.0}, {"type": "electric_scooter", "rental_uris": {"ios": "https://dc.lft.to/lastmile_qr_scan", "android": "https://dc.lft.to/lastmile_qr_scan"}, "lon": -77.03209416666667, "fusion_lon": 0.0, "is_disabled": 0, "lat": 38.90893066666667, "bike_id": "607249380607bbbe5d228a9db36b3d68", "name": "607249380607bbbe5d228a9db36b3d68", "is_reserved": 0, "fusion_lat": 0.0}, {"type": "electric_bike", "rental_uris": {"ios": "https://dc.lft.to/lastmile_qr_scan", "android": "https://dc.lft.to/lastmile_qr_scan"}, "lon": -77.1345775, "fusion_lon": 0.0, "is_disabled": 0, "lat": 38.8535575, "bike_id": "cb56c733cf45bd2ac4cf4b837592d7ec", "name": "cb56c733cf45bd2ac4cf4b837592d7ec", "is_reserved": 0, "fusion_lat": 0.0}, {"type": "electric_scooter", "rental_uris": {"ios": "https://dc.lft.to/lastmile_qr_scan", "android": "https://dc.lft.to/lastmile_qr_scan"}, "lon": -77.03253783333334, "fusion_lon": 0.0, "is_disabled": 0, "lat": 38.907271333333334, "bike_id": "4884e1df3c70b1e3717b7e482c0c7d08", "name": "4884e1df3c70b1e3717b7e482c0c7d08", "is_reserved": 0, "fusion_lat": 0.0}, {"type": "electric_bike", "rental_uris": {"ios": "https://dc.lft.to/lastmile_qr_scan", "android": "https://dc.lft.to/lastmile_qr_scan"}, "lon": -76.92496033333333, "fusion_lon": 0.0, "is_disabled": 0, "lat": 38.958809, "bike_id": "81f200d7f92080b072fa22d2abce6a89", "name": "81f200d7f92080b072fa22d2abce6a89", "is_reserved": 0, "fusion_lat": 0.0}, {"type": "electric_scooter", "rental_uris": {"ios": "https://dc.lft.to/lastmile_qr_scan", "android": "https://dc.lft.to/lastmile_qr_scan"}, "lon": -77.016541, "fusion_lon": 0.0, "is_disabled": 0, "lat": 38.91056483333333, "bike_id": "8dc98cae73984cf265c9eed645482e29", "name": "8dc98cae73984cf265c9eed645482e29", "is_reserved": 0, "fusion_lat": 0.0}, {"type": "electric_scooter", "rental_uris": {"ios": "https://dc.lft.to/lastmile_qr_scan", "android": "https://dc.lft.to/lastmile_qr_scan"}, "lon": -76.93179716666667, "fusion_lon": 0.0, "is_disabled": 0, "lat": 38.8988405, "bike_id": "a427339d15c05a824074aad796765b52", "name": "a427339d15c05a824074aad796765b52", "is_reserved": 0, "fusion_lat": 0.0}, {"type": "electric_bike", "rental_uris": {"ios": "https://dc.lft.to/lastmile_qr_scan", "android": "https://dc.lft.to/lastmile_qr_scan"}, "lon": -76.980208, "fusion_lon": 0.0, "is_disabled": 0, "lat": 38.957535166666666, "bike_id": "2fc93fa44233d63af6558d4616ec291a", "name": "2fc93fa44233d63af6558d4616ec291a", "is_reserved": 0, "fusion_lat": 0.0}, {"type": "electric_scooter", "rental_uris": {"ios": "https://dc.lft.to/lastmile_qr_scan", "android": "https://dc.lft.to/lastmile_qr_scan"}, "lon": -77.03399316666666, "fusion_lon": 0.0, "is_disabled": 0, "lat": 38.931294, "bike_id": "65ec7d9519547b6f52316c7becd8266d", "name": "65ec7d9519547b6f52316c7becd8266d", "is_reserved": 0, "fusion_lat": 0.0}, {"type": "electric_scooter", "rental_uris": {"ios": "https://dc.lft.to/lastmile_qr_scan", "android": "https://dc.lft.to/lastmile_qr_scan"}, "lon": -77.0122715, "fusion_lon": 0.0, "is_disabled": 0, "lat": 38.91501783333333, "bike_id": "6a85133dceedefce2ab25c30356692f8", "name": "6a85133dceedefce2ab25c30356692f8", "is_reserved": 0, "fusion_lat": 0.0}, {"type": "electric_scooter", "rental_uris": {"ios": "https://dc.lft.to/lastmile_qr_scan", "android": "https://dc.lft.to/lastmile_qr_scan"}, "lon": -77.057625, "fusion_lon": 0.0, "is_disabled": 0, "lat": 38.92459383333333, "bike_id": "344cb565744e5dd5ac7ffc3f627f7da3", "name": "344cb565744e5dd5ac7ffc3f627f7da3", "is_reserved": 0, "fusion_lat": 0.0}, {"type": "electric_scooter", "rental_uris": {"ios": "https://dc.lft.to/lastmile_qr_scan", "android": "https://dc.lft.to/lastmile_qr_scan"}, "lon": -77.03635733333333, "fusion_lon": 0.0, "is_disabled": 0, "lat": 38.916860166666666, "bike_id": "3874a87dc4de360a57e2eb3a9c071c00", "name": "3874a87dc4de360a57e2eb3a9c071c00", "is_reserved": 0, "fusion_lat": 0.0}, {"type": "electric_scooter", "rental_uris": {"ios": "https://dc.lft.to/lastmile_qr_scan", "android": "https://dc.lft.to/lastmile_qr_scan"}, "lon": -77.03870283333333, "fusion_lon": 0.0, "is_disabled": 0, "lat": 38.91033083333333, "bike_id": "47105580d76e4c208e79a8b8150405e9", "name": "47105580d76e4c208e79a8b8150405e9", "is_reserved": 0, "fusion_lat": 0.0}, {"type": "electric_scooter", "rental_uris": {"ios": "https://dc.lft.to/lastmile_qr_scan", "android": "https://dc.lft.to/lastmile_qr_scan"}, "lon": -76.9852145, "fusion_lon": 0.0, "is_disabled": 0, "lat": 38.915458666666666, "bike_id": "54be97556ad6fc98fec03f25b2fd9bb5", "name": "54be97556ad6fc98fec03f25b2fd9bb5", "is_reserved": 0, "fusion_lat": 0.0}, {"type": "electric_scooter", "rental_uris": {"ios": "https://dc.lft.to/lastmile_qr_scan", "android": "https://dc.lft.to/lastmile_qr_scan"}, "lon": -77.02983516666667, "fusion_lon": 0.0, "is_disabled": 0, "lat": 38.90512183333333, "bike_id": "0c15939e44531950177f858b487adb70", "name": "0c15939e44531950177f858b487adb70", "is_reserved": 0, "fusion_lat": 0.0}, {"type": "electric_bike", "rental_uris": {"ios": "https://dc.lft.to/lastmile_qr_scan", "android": "https://dc.lft.to/lastmile_qr_scan"}, "lon": -77.03729616666666, "fusion_lon": 0.0, "is_disabled": 0, "lat": 38.9202905, "bike_id": "1b2794dc72a861706c297a08754378a3", "name": "1b2794dc72a861706c297a08754378a3", "is_reserved": 0, "fusion_lat": 0.0}, {"type": "electric_scooter", "rental_uris": {"ios": "https://dc.lft.to/lastmile_qr_scan", "android": "https://dc.lft.to/lastmile_qr_scan"}, "lon": -77.05025316666666, "fusion_lon": 0.0, "is_disabled": 0, "lat": 38.90661633333333, "bike_id": "acf5af8121e3ff102c670c82a5f6c617", "name": "acf5af8121e3ff102c670c82a5f6c617", "is_reserved": 0, "fusion_lat": 0.0}, {"type": "electric_scooter", "rental_uris": {"ios": "https://dc.lft.to/lastmile_qr_scan", "android": "https://dc.lft.to/lastmile_qr_scan"}, "lon": -77.01770616666667, "fusion_lon": 0.0, "is_disabled": 0, "lat": 38.881437, "bike_id": "0dac8fc8252ae1687f00dd7bff14fe56", "name": "0dac8fc8252ae1687f00dd7bff14fe56", "is_reserved": 0, "fusion_lat": 0.0}, {"type": "electric_scooter", "rental_uris": {"ios": "https://dc.lft.to/lastmile_qr_scan", "android": "https://dc.lft.to/lastmile_qr_scan"}, "lon": -77.02828033333333, "fusion_lon": 0.0, "is_disabled": 0, "lat": 38.88731966666667, "bike_id": "6fd92619503e7289a0ea1861c236345f", "name": "6fd92619503e7289a0ea1861c236345f", "is_reserved": 0, "fusion_lat": 0.0}, {"type": "electric_scooter", "rental_uris": {"ios": "https://dc.lft.to/lastmile_qr_scan", "android": "https://dc.lft.to/lastmile_qr_scan"}, "lon": -77.04644533333334, "fusion_lon": 0.0, "is_disabled": 0, "lat": 38.89225316666667, "bike_id": "e7e9c5a9b56d3d3a9904869b576b0cfc", "name": "e7e9c5a9b56d3d3a9904869b576b0cfc", "is_reserved": 0, "fusion_lat": 0.0}, {"type": "electric_scooter", "rental_uris": {"ios": "https://dc.lft.to/lastmile_qr_scan", "android": "https://dc.lft.to/lastmile_qr_scan"}, "lon": -77.0386405, "fusion_lon": 0.0, "is_disabled": 0, "lat": 38.9116715, "bike_id": "ba9e467b9b9454848e6f8cfc6e51a7aa", "name": "ba9e467b9b9454848e6f8cfc6e51a7aa", "is_reserved": 0, "fusion_lat": 0.0}, {"type": "electric_scooter", "rental_uris": {"ios": "https://dc.lft.to/lastmile_qr_scan", "android": "https://dc.lft.to/lastmile_qr_scan"}, "lon": -77.05470083333333, "fusion_lon": 0.0, "is_disabled": 0, "lat": 38.89610183333333, "bike_id": "9a91d05fd153e848e761e3513fba97ce", "name": "9a91d05fd153e848e761e3513fba97ce", "is_reserved": 0, "fusion_lat": 0.0}, {"type": "electric_scooter", "rental_uris": {"ios": "https://dc.lft.to/lastmile_qr_scan", "android": "https://dc.lft.to/lastmile_qr_scan"}, "lon": -77.0256815, "fusion_lon": 0.0, "is_disabled": 0, "lat": 38.9242375, "bike_id": "dcdc58c10e617417b6929673c55cbdb6", "name": "dcdc58c10e617417b6929673c55cbdb6", "is_reserved": 0, "fusion_lat": 0.0}, {"type": "electric_scooter", "rental_uris": {"ios": "https://dc.lft.to/lastmile_qr_scan", "android": "https://dc.lft.to/lastmile_qr_scan"}, "lon": -77.04893183333333, "fusion_lon": 0.0, "is_disabled": 0, "lat": 38.892289833333336, "bike_id": "91bbf41a77242c27acdc7f76a29dd654", "name": "91bbf41a77242c27acdc7f76a29dd654", "is_reserved": 0, "fusion_lat": 0.0}, {"type": "electric_scooter", "rental_uris": {"ios": "https://dc.lft.to/lastmile_qr_scan", "android": "https://dc.lft.to/lastmile_qr_scan"}, "lon": -77.01219483333334, "fusion_lon": 0.0, "is_disabled": 0, "lat": 38.91497433333333, "bike_id": "ac87a151f3aadc7c90f9e1fe4256cba9", "name": "ac87a151f3aadc7c90f9e1fe4256cba9", "is_reserved": 0, "fusion_lat": 0.0}, {"type": "electric_scooter", "rental_uris": {"ios": "https://dc.lft.to/lastmile_qr_scan", "android": "https://dc.lft.to/lastmile_qr_scan"}, "lon": -77.022871, "fusion_lon": 0.0, "is_disabled": 0, "lat": 38.924225666666665, "bike_id": "76f0b8d5781b85de7fca41d6ec39c0df", "name": "76f0b8d5781b85de7fca41d6ec39c0df", "is_reserved": 0, "fusion_lat": 0.0}, {"type": "electric_scooter", "rental_uris": {"ios": "https://dc.lft.to/lastmile_qr_scan", "android": "https://dc.lft.to/lastmile_qr_scan"}, "lon": -77.02499416666667, "fusion_lon": 0.0, "is_disabled": 0, "lat": 38.919741, "bike_id": "575e886e87b39b04a60caaeac8be7ac6", "name": "575e886e87b39b04a60caaeac8be7ac6", "is_reserved": 0, "fusion_lat": 0.0}, {"type": "electric_scooter", "rental_uris": {"ios": "https://dc.lft.to/lastmile_qr_scan", "android": "https://dc.lft.to/lastmile_qr_scan"}, "lon": -77.03916033333333, "fusion_lon": 0.0, "is_disabled": 0, "lat": 38.92476933333333, "bike_id": "7b445beb1d8afc76a77b44a606038ac1", "name": "7b445beb1d8afc76a77b44a606038ac1", "is_reserved": 0, "fusion_lat": 0.0}, {"type": "electric_scooter", "rental_uris": {"ios": "https://dc.lft.to/lastmile_qr_scan", "android": "https://dc.lft.to/lastmile_qr_scan"}, "lon": -77.024145, "fusion_lon": 0.0, "is_disabled": 0, "lat": 38.91911066666667, "bike_id": "e643bb758ed927166f754d1d54ccf78c", "name": "e643bb758ed927166f754d1d54ccf78c", "is_reserved": 0, "fusion_lat": 0.0}, {"type": "electric_bike", "rental_uris": {"ios": "https://dc.lft.to/lastmile_qr_scan", "android": "https://dc.lft.to/lastmile_qr_scan"}, "lon": -76.93701616666667, "fusion_lon": 0.0, "is_disabled": 0, "lat": 38.87148783333333, "bike_id": "c0f2146c2ae010149f8fbb4296c15052", "name": "c0f2146c2ae010149f8fbb4296c15052", "is_reserved": 0, "fusion_lat": 0.0}, {"type": "electric_scooter", "rental_uris": {"ios": "https://dc.lft.to/lastmile_qr_scan", "android": "https://dc.lft.to/lastmile_qr_scan"}, "lon": -76.95752716666667, "fusion_lon": 0.0, "is_disabled": 0, "lat": 38.88427516666667, "bike_id": "4b74c59197fcedf0f6321ea0aada2007", "name": "4b74c59197fcedf0f6321ea0aada2007", "is_reserved": 0, "fusion_lat": 0.0}, {"type": "electric_scooter", "rental_uris": {"ios": "https://dc.lft.to/lastmile_qr_scan", "android": "https://dc.lft.to/lastmile_qr_scan"}, "lon": -77.022348, "fusion_lon": 0.0, "is_disabled": 0, "lat": 38.961365, "bike_id": "7bc7fe0c8455782b1ed98ec73ac2b072", "name": "7bc7fe0c8455782b1ed98ec73ac2b072", "is_reserved": 0, "fusion_lat": 0.0}, {"type": "electric_bike", "rental_uris": {"ios": "https://dc.lft.to/lastmile_qr_scan", "android": "https://dc.lft.to/lastmile_qr_scan"}, "lon": -76.97089583333333, "fusion_lon": 0.0, "is_disabled": 0, "lat": 38.857254, "bike_id": "ac5f2de0bae6e1a38bb5e78c3bf6edc8", "name": "ac5f2de0bae6e1a38bb5e78c3bf6edc8", "is_reserved": 0, "fusion_lat": 0.0}, {"type": "electric_scooter", "rental_uris": {"ios": "https://dc.lft.to/lastmile_qr_scan", "android": "https://dc.lft.to/lastmile_qr_scan"}, "lon": -76.99774366666666, "fusion_lon": 0.0, "is_disabled": 0, "lat": 38.844370833333336, "bike_id": "06737ef57a188f010381c4375c16f226", "name": "06737ef57a188f010381c4375c16f226", "is_reserved": 0, "fusion_lat": 0.0}, {"type": "electric_scooter", "rental_uris": {"ios": "https://dc.lft.to/lastmile_qr_scan", "android": "https://dc.lft.to/lastmile_qr_scan"}, "lon": -77.04768933333334, "fusion_lon": 0.0, "is_disabled": 0, "lat": 38.917698333333334, "bike_id": "98bf98ad54f08f228dca9e4ef08ffac0", "name": "98bf98ad54f08f228dca9e4ef08ffac0", "is_reserved": 0, "fusion_lat": 0.0}, {"type": "electric_scooter", "rental_uris": {"ios": "https://dc.lft.to/lastmile_qr_scan", "android": "https://dc.lft.to/lastmile_qr_scan"}, "lon": -76.93987766666666, "fusion_lon": 0.0, "is_disabled": 0, "lat": 38.8998, "bike_id": "0b84b113e8cf1428bdcedfd3bd915da3", "name": "0b84b113e8cf1428bdcedfd3bd915da3", "is_reserved": 0, "fusion_lat": 0.0}, {"type": "electric_scooter", "rental_uris": {"ios": "https://dc.lft.to/lastmile_qr_scan", "android": "https://dc.lft.to/lastmile_qr_scan"}, "lon": -77.03371833333334, "fusion_lon": 0.0, "is_disabled": 0, "lat": 38.89230383333334, "bike_id": "bc931671545a57a7ac3bbcc932c6b100", "name": "bc931671545a57a7ac3bbcc932c6b100", "is_reserved": 0, "fusion_lat": 0.0}, {"type": "electric_scooter", "rental_uris": {"ios": "https://dc.lft.to/lastmile_qr_scan", "android": "https://dc.lft.to/lastmile_qr_scan"}, "lon": -77.0301095, "fusion_lon": 0.0, "is_disabled": 0, "lat": 38.9224775, "bike_id": "ed8b13378cea6c4789ae18f6c35727b3", "name": "ed8b13378cea6c4789ae18f6c35727b3", "is_reserved": 0, "fusion_lat": 0.0}, {"type": "electric_scooter", "rental_uris": {"ios": "https://dc.lft.to/lastmile_qr_scan", "android": "https://dc.lft.to/lastmile_qr_scan"}, "lon": -77.01894616666667, "fusion_lon": 0.0, "is_disabled": 0, "lat": 38.923773, "bike_id": "d7750e8aee1fd7a629a1ff4a382372c4", "name": "d7750e8aee1fd7a629a1ff4a382372c4", "is_reserved": 0, "fusion_lat": 0.0}, {"type": "electric_scooter", "rental_uris": {"ios": "https://dc.lft.to/lastmile_qr_scan", "android": "https://dc.lft.to/lastmile_qr_scan"}, "lon": -76.99775683333333, "fusion_lon": 0.0, "is_disabled": 0, "lat": 38.84426, "bike_id": "dd8f88ed4915125dbb2d51fcc81adb6e", "name": "dd8f88ed4915125dbb2d51fcc81adb6e", "is_reserved": 0, "fusion_lat": 0.0}, {"type": "electric_scooter", "rental_uris": {"ios": "https://dc.lft.to/lastmile_qr_scan", "android": "https://dc.lft.to/lastmile_qr_scan"}, "lon": -76.94640316666667, "fusion_lon": 0.0, "is_disabled": 0, "lat": 38.898477166666666, "bike_id": "700c30172549a3cc82864f866d550909", "name": "700c30172549a3cc82864f866d550909", "is_reserved": 0, "fusion_lat": 0.0}, {"type": "electric_scooter", "rental_uris": {"ios": "https://dc.lft.to/lastmile_qr_scan", "android": "https://dc.lft.to/lastmile_qr_scan"}, "lon": -77.05115233333333, "fusion_lon": 0.0, "is_disabled": 0, "lat": 38.902186666666665, "bike_id": "ae62895d1435df0a1dbde67864a01fea", "name": "ae62895d1435df0a1dbde67864a01fea", "is_reserved": 0, "fusion_lat": 0.0}, {"type": "electric_scooter", "rental_uris": {"ios": "https://dc.lft.to/lastmile_qr_scan", "android": "https://dc.lft.to/lastmile_qr_scan"}, "lon": -77.0232125, "fusion_lon": 0.0, "is_disabled": 0, "lat": 38.91679533333333, "bike_id": "9b4df4dab89e29c594e96bb74b83355e", "name": "9b4df4dab89e29c594e96bb74b83355e", "is_reserved": 0, "fusion_lat": 0.0}, {"type": "electric_bike", "rental_uris": {"ios": "https://dc.lft.to/lastmile_qr_scan", "android": "https://dc.lft.to/lastmile_qr_scan"}, "lon": -77.06568283333333, "fusion_lon": 0.0, "is_disabled": 0, "lat": 38.869975833333335, "bike_id": "05fa648be354e2878daa0e717fac5106", "name": "05fa648be354e2878daa0e717fac5106", "is_reserved": 0, "fusion_lat": 0.0}, {"type": "electric_scooter", "rental_uris": {"ios": "https://dc.lft.to/lastmile_qr_scan", "android": "https://dc.lft.to/lastmile_qr_scan"}, "lon": -77.01531783333333, "fusion_lon": 0.0, "is_disabled": 0, "lat": 38.887377666666666, "bike_id": "a62d4ceeb7e7948ac2108d517f65fef6", "name": "a62d4ceeb7e7948ac2108d517f65fef6", "is_reserved": 0, "fusion_lat": 0.0}, {"type": "electric_scooter", "rental_uris": {"ios": "https://dc.lft.to/lastmile_qr_scan", "android": "https://dc.lft.to/lastmile_qr_scan"}, "lon": -77.01522933333334, "fusion_lon": 0.0, "is_disabled": 0, "lat": 38.884129333333334, "bike_id": "94603bd302a9a144ca25667c6b164148", "name": "94603bd302a9a144ca25667c6b164148", "is_reserved": 0, "fusion_lat": 0.0}, {"type": "electric_scooter", "rental_uris": {"ios": "https://dc.lft.to/lastmile_qr_scan", "android": "https://dc.lft.to/lastmile_qr_scan"}, "lon": -77.03169266666667, "fusion_lon": 0.0, "is_disabled": 0, "lat": 38.8977555, "bike_id": "8cfdc369ec09c78b746be7b361de4f84", "name": "8cfdc369ec09c78b746be7b361de4f84", "is_reserved": 0, "fusion_lat": 0.0}, {"type": "electric_scooter", "rental_uris": {"ios": "https://dc.lft.to/lastmile_qr_scan", "android": "https://dc.lft.to/lastmile_qr_scan"}, "lon": -77.02534483333334, "fusion_lon": 0.0, "is_disabled": 0, "lat": 38.9126845, "bike_id": "35e8c3e7c33aa7dca1b6064d4e1f268b", "name": "35e8c3e7c33aa7dca1b6064d4e1f268b", "is_reserved": 0, "fusion_lat": 0.0}, {"type": "electric_scooter", "rental_uris": {"ios": "https://dc.lft.to/lastmile_qr_scan", "android": "https://dc.lft.to/lastmile_qr_scan"}, "lon": -77.03657366666667, "fusion_lon": 0.0, "is_disabled": 0, "lat": 38.92137683333333, "bike_id": "5ef5a9746ae969b1406360b65598b281", "name": "5ef5a9746ae969b1406360b65598b281", "is_reserved": 0, "fusion_lat": 0.0}, {"type": "electric_scooter", "rental_uris": {"ios": "https://dc.lft.to/lastmile_qr_scan", "android": "https://dc.lft.to/lastmile_qr_scan"}, "lon": -77.02417266666667, "fusion_lon": 0.0, "is_disabled": 0, "lat": 38.92754766666667, "bike_id": "8af4c9e4458457d0b67555cf80732f33", "name": "8af4c9e4458457d0b67555cf80732f33", "is_reserved": 0, "fusion_lat": 0.0}, {"type": "electric_scooter", "rental_uris": {"ios": "https://dc.lft.to/lastmile_qr_scan", "android": "https://dc.lft.to/lastmile_qr_scan"}, "lon": -77.03644633333333, "fusion_lon": 0.0, "is_disabled": 0, "lat": 38.9177995, "bike_id": "93c7df81179745bad045244e0a9682a3", "name": "93c7df81179745bad045244e0a9682a3", "is_reserved": 0, "fusion_lat": 0.0}, {"type": "electric_scooter", "rental_uris": {"ios": "https://dc.lft.to/lastmile_qr_scan", "android": "https://dc.lft.to/lastmile_qr_scan"}, "lon": -77.04347933333334, "fusion_lon": 0.0, "is_disabled": 0, "lat": 38.901574333333336, "bike_id": "4a18a3f579de6548b977508891371c97", "name": "4a18a3f579de6548b977508891371c97", "is_reserved": 0, "fusion_lat": 0.0}, {"type": "electric_scooter", "rental_uris": {"ios": "https://dc.lft.to/lastmile_qr_scan", "android": "https://dc.lft.to/lastmile_qr_scan"}, "lon": -77.04376433333333, "fusion_lon": 0.0, "is_disabled": 0, "lat": 38.92103016666667, "bike_id": "d03d33ac599636cf506ec6c3b163de75", "name": "d03d33ac599636cf506ec6c3b163de75", "is_reserved": 0, "fusion_lat": 0.0}, {"type": "electric_scooter", "rental_uris": {"ios": "https://dc.lft.to/lastmile_qr_scan", "android": "https://dc.lft.to/lastmile_qr_scan"}, "lon": -77.0319275, "fusion_lon": 0.0, "is_disabled": 0, "lat": 38.930718, "bike_id": "c9ee84608e93f502e196c2ea106d27ae", "name": "c9ee84608e93f502e196c2ea106d27ae", "is_reserved": 0, "fusion_lat": 0.0}, {"type": "electric_bike", "rental_uris": {"ios": "https://dc.lft.to/lastmile_qr_scan", "android": "https://dc.lft.to/lastmile_qr_scan"}, "lon": -77.187405, "fusion_lon": 0.0, "is_disabled": 0, "lat": 38.893545833333334, "bike_id": "7283ffd8c4ca3ee3d13efd4e7bb4bdd2", "name": "7283ffd8c4ca3ee3d13efd4e7bb4bdd2", "is_reserved": 0, "fusion_lat": 0.0}, {"type": "electric_scooter", "rental_uris": {"ios": "https://dc.lft.to/lastmile_qr_scan", "android": "https://dc.lft.to/lastmile_qr_scan"}, "lon": -77.02606233333333, "fusion_lon": 0.0, "is_disabled": 0, "lat": 38.914157833333334, "bike_id": "afc6912b1223c3e1db23665e5035a8ea", "name": "afc6912b1223c3e1db23665e5035a8ea", "is_reserved": 0, "fusion_lat": 0.0}, {"type": "electric_bike", "rental_uris": {"ios": "https://dc.lft.to/lastmile_qr_scan", "android": "https://dc.lft.to/lastmile_qr_scan"}, "lon": -77.04416816666667, "fusion_lon": 0.0, "is_disabled": 0, "lat": 39.01572316666667, "bike_id": "322316c1290e7a4a29209d56ee3ccafc", "name": "322316c1290e7a4a29209d56ee3ccafc", "is_reserved": 0, "fusion_lat": 0.0}, {"type": "electric_bike", "rental_uris": {"ios": "https://dc.lft.to/lastmile_qr_scan", "android": "https://dc.lft.to/lastmile_qr_scan"}, "lon": -77.0381875, "fusion_lon": 0.0, "is_disabled": 0, "lat": 38.9141465, "bike_id": "63a7eab834acd7af46392e66651a35ca", "name": "63a7eab834acd7af46392e66651a35ca", "is_reserved": 0, "fusion_lat": 0.0}, {"type": "electric_scooter", "rental_uris": {"ios": "https://dc.lft.to/lastmile_qr_scan", "android": "https://dc.lft.to/lastmile_qr_scan"}, "lon": -77.0402455, "fusion_lon": 0.0, "is_disabled": 0, "lat": 38.918083333333335, "bike_id": "011f789f123cb5efa157cd3a2c33eece", "name": "011f789f123cb5efa157cd3a2c33eece", "is_reserved": 0, "fusion_lat": 0.0}, {"type": "electric_scooter", "rental_uris": {"ios": "https://dc.lft.to/lastmile_qr_scan", "android": "https://dc.lft.to/lastmile_qr_scan"}, "lon": -77.0129635, "fusion_lon": 0.0, "is_disabled": 0, "lat": 38.881549, "bike_id": "ffedf9ce6d6b76e3280d815215de0270", "name": "ffedf9ce6d6b76e3280d815215de0270", "is_reserved": 0, "fusion_lat": 0.0}, {"type": "electric_scooter", "rental_uris": {"ios": "https://dc.lft.to/lastmile_qr_scan", "android": "https://dc.lft.to/lastmile_qr_scan"}, "lon": -77.02604233333334, "fusion_lon": 0.0, "is_disabled": 0, "lat": 38.905344166666666, "bike_id": "b8726bd61f8809504ecf58b085bf7e71", "name": "b8726bd61f8809504ecf58b085bf7e71", "is_reserved": 0, "fusion_lat": 0.0}, {"type": "electric_scooter", "rental_uris": {"ios": "https://dc.lft.to/lastmile_qr_scan", "android": "https://dc.lft.to/lastmile_qr_scan"}, "lon": -77.02687216666666, "fusion_lon": 0.0, "is_disabled": 0, "lat": 38.899335, "bike_id": "cf1ecf81bf10091ca38e15afaa244243", "name": "cf1ecf81bf10091ca38e15afaa244243", "is_reserved": 0, "fusion_lat": 0.0}, {"type": "electric_scooter", "rental_uris": {"ios": "https://dc.lft.to/lastmile_qr_scan", "android": "https://dc.lft.to/lastmile_qr_scan"}, "lon": -77.02688466666666, "fusion_lon": 0.0, "is_disabled": 0, "lat": 38.916894, "bike_id": "79a06691cc424b3f864b21e86f404969", "name": "79a06691cc424b3f864b21e86f404969", "is_reserved": 0, "fusion_lat": 0.0}, {"type": "electric_scooter", "rental_uris": {"ios": "https://dc.lft.to/lastmile_qr_scan", "android": "https://dc.lft.to/lastmile_qr_scan"}, "lon": -77.04363583333334, "fusion_lon": 0.0, "is_disabled": 0, "lat": 38.89223583333333, "bike_id": "cb442da835bd584f57569b41d3fb1f5e", "name": "cb442da835bd584f57569b41d3fb1f5e", "is_reserved": 0, "fusion_lat": 0.0}, {"type": "electric_scooter", "rental_uris": {"ios": "https://dc.lft.to/lastmile_qr_scan", "android": "https://dc.lft.to/lastmile_qr_scan"}, "lon": -77.040019, "fusion_lon": 0.0, "is_disabled": 0, "lat": 38.922051333333336, "bike_id": "354be1b343938a0d90ef009cf6f450d3", "name": "354be1b343938a0d90ef009cf6f450d3", "is_reserved": 0, "fusion_lat": 0.0}, {"type": "electric_scooter", "rental_uris": {"ios": "https://dc.lft.to/lastmile_qr_scan", "android": "https://dc.lft.to/lastmile_qr_scan"}, "lon": -77.02793566666666, "fusion_lon": 0.0, "is_disabled": 0, "lat": 38.96131283333333, "bike_id": "92842b8ce71b06ad9fad52bb820547b2", "name": "92842b8ce71b06ad9fad52bb820547b2", "is_reserved": 0, "fusion_lat": 0.0}, {"type": "electric_scooter", "rental_uris": {"ios": "https://dc.lft.to/lastmile_qr_scan", "android": "https://dc.lft.to/lastmile_qr_scan"}, "lon": -77.0233525, "fusion_lon": 0.0, "is_disabled": 0, "lat": 38.917725, "bike_id": "027a564476a4034ea2058f228840eddf", "name": "027a564476a4034ea2058f228840eddf", "is_reserved": 0, "fusion_lat": 0.0}, {"type": "electric_scooter", "rental_uris": {"ios": "https://dc.lft.to/lastmile_qr_scan", "android": "https://dc.lft.to/lastmile_qr_scan"}, "lon": -77.04470566666667, "fusion_lon": 0.0, "is_disabled": 0, "lat": 38.915349666666664, "bike_id": "ed8000d1c89db58b32e6ae10458b3d48", "name": "ed8000d1c89db58b32e6ae10458b3d48", "is_reserved": 0, "fusion_lat": 0.0}, {"type": "electric_scooter", "rental_uris": {"ios": "https://dc.lft.to/lastmile_qr_scan", "android": "https://dc.lft.to/lastmile_qr_scan"}, "lon": -77.03513933333333, "fusion_lon": 0.0, "is_disabled": 0, "lat": 38.923494833333336, "bike_id": "fdd73868c4a57c323f8689ca286c3769", "name": "fdd73868c4a57c323f8689ca286c3769", "is_reserved": 0, "fusion_lat": 0.0}, {"type": "electric_scooter", "rental_uris": {"ios": "https://dc.lft.to/lastmile_qr_scan", "android": "https://dc.lft.to/lastmile_qr_scan"}, "lon": -77.0307215, "fusion_lon": 0.0, "is_disabled": 0, "lat": 38.911131833333336, "bike_id": "b734efcc174ec8cccae6475375384bea", "name": "b734efcc174ec8cccae6475375384bea", "is_reserved": 0, "fusion_lat": 0.0}, {"type": "electric_scooter", "rental_uris": {"ios": "https://dc.lft.to/lastmile_qr_scan", "android": "https://dc.lft.to/lastmile_qr_scan"}, "lon": -77.04236383333334, "fusion_lon": 0.0, "is_disabled": 0, "lat": 38.90782466666667, "bike_id": "55dd994dfe06426c66bf73942b3650d4", "name": "55dd994dfe06426c66bf73942b3650d4", "is_reserved": 0, "fusion_lat": 0.0}, {"type": "electric_scooter", "rental_uris": {"ios": "https://dc.lft.to/lastmile_qr_scan", "android": "https://dc.lft.to/lastmile_qr_scan"}, "lon": -76.9463195, "fusion_lon": 0.0, "is_disabled": 0, "lat": 38.898444833333336, "bike_id": "7d1f72e3e95293c6b31a9a634512cfc2", "name": "7d1f72e3e95293c6b31a9a634512cfc2", "is_reserved": 0, "fusion_lat": 0.0}, {"type": "electric_scooter", "rental_uris": {"ios": "https://dc.lft.to/lastmile_qr_scan", "android": "https://dc.lft.to/lastmile_qr_scan"}, "lon": -77.0327905, "fusion_lon": 0.0, "is_disabled": 0, "lat": 38.899162, "bike_id": "30b1cbbf27dfeed4f4e6ec5973a95b49", "name": "30b1cbbf27dfeed4f4e6ec5973a95b49", "is_reserved": 0, "fusion_lat": 0.0}, {"type": "electric_scooter", "rental_uris": {"ios": "https://dc.lft.to/lastmile_qr_scan", "android": "https://dc.lft.to/lastmile_qr_scan"}, "lon": -77.03659583333334, "fusion_lon": 0.0, "is_disabled": 0, "lat": 38.917279666666666, "bike_id": "df36e7344d39a9231473979eeb839e07", "name": "df36e7344d39a9231473979eeb839e07", "is_reserved": 0, "fusion_lat": 0.0}, {"type": "electric_scooter", "rental_uris": {"ios": "https://dc.lft.to/lastmile_qr_scan", "android": "https://dc.lft.to/lastmile_qr_scan"}, "lon": -77.03181016666667, "fusion_lon": 0.0, "is_disabled": 0, "lat": 38.9174705, "bike_id": "04b2f41c447fa8af3e4eba91102cde09", "name": "04b2f41c447fa8af3e4eba91102cde09", "is_reserved": 0, "fusion_lat": 0.0}, {"type": "electric_scooter", "rental_uris": {"ios": "https://dc.lft.to/lastmile_qr_scan", "android": "https://dc.lft.to/lastmile_qr_scan"}, "lon": -76.98882916666666, "fusion_lon": 0.0, "is_disabled": 0, "lat": 38.86655066666667, "bike_id": "061fd7f5d042a9dd1b6a9c76a941fda2", "name": "061fd7f5d042a9dd1b6a9c76a941fda2", "is_reserved": 0, "fusion_lat": 0.0}, {"type": "electric_scooter", "rental_uris": {"ios": "https://dc.lft.to/lastmile_qr_scan", "android": "https://dc.lft.to/lastmile_qr_scan"}, "lon": -77.04352233333333, "fusion_lon": 0.0, "is_disabled": 0, "lat": 38.91302183333333, "bike_id": "4fcb68544073c651ee739ce9002af3b9", "name": "4fcb68544073c651ee739ce9002af3b9", "is_reserved": 0, "fusion_lat": 0.0}, {"type": "electric_scooter", "rental_uris": {"ios": "https://dc.lft.to/lastmile_qr_scan", "android": "https://dc.lft.to/lastmile_qr_scan"}, "lon": -76.93361983333334, "fusion_lon": 0.0, "is_disabled": 0, "lat": 38.899067333333335, "bike_id": "cce1d69ea626903e14a80cdc96bd4c5f", "name": "cce1d69ea626903e14a80cdc96bd4c5f", "is_reserved": 0, "fusion_lat": 0.0}, {"type": "electric_scooter", "rental_uris": {"ios": "https://dc.lft.to/lastmile_qr_scan", "android": "https://dc.lft.to/lastmile_qr_scan"}, "lon": -77.032309, "fusion_lon": 0.0, "is_disabled": 0, "lat": 38.923574333333335, "bike_id": "de308d4fc1bf4a6a9eec57d6e177826a", "name": "de308d4fc1bf4a6a9eec57d6e177826a", "is_reserved": 0, "fusion_lat": 0.0}, {"type": "electric_scooter", "rental_uris": {"ios": "https://dc.lft.to/lastmile_qr_scan", "android": "https://dc.lft.to/lastmile_qr_scan"}, "lon": -77.02495016666667, "fusion_lon": 0.0, "is_disabled": 0, "lat": 38.9180825, "bike_id": "1a22c2037eb85c6b9dd18677c1341d35", "name": "1a22c2037eb85c6b9dd18677c1341d35", "is_reserved": 0, "fusion_lat": 0.0}, {"type": "electric_scooter", "rental_uris": {"ios": "https://dc.lft.to/lastmile_qr_scan", "android": "https://dc.lft.to/lastmile_qr_scan"}, "lon": -77.02435983333334, "fusion_lon": 0.0, "is_disabled": 0, "lat": 38.956294166666666, "bike_id": "0271de9ba8040e9e5843e807db5330f3", "name": "0271de9ba8040e9e5843e807db5330f3", "is_reserved": 0, "fusion_lat": 0.0}, {"type": "electric_scooter", "rental_uris": {"ios": "https://dc.lft.to/lastmile_qr_scan", "android": "https://dc.lft.to/lastmile_qr_scan"}, "lon": -77.0730815, "fusion_lon": 0.0, "is_disabled": 0, "lat": 38.92880733333333, "bike_id": "190f5e21c2aa055d0387a4ffde5dd29d", "name": "190f5e21c2aa055d0387a4ffde5dd29d", "is_reserved": 0, "fusion_lat": 0.0}, {"type": "electric_scooter", "rental_uris": {"ios": "https://dc.lft.to/lastmile_qr_scan", "android": "https://dc.lft.to/lastmile_qr_scan"}, "lon": -77.028445, "fusion_lon": 0.0, "is_disabled": 0, "lat": 38.9171055, "bike_id": "bc8c3a4eeedb757711c48c925ad2081b", "name": "bc8c3a4eeedb757711c48c925ad2081b", "is_reserved": 0, "fusion_lat": 0.0}, {"type": "electric_scooter", "rental_uris": {"ios": "https://dc.lft.to/lastmile_qr_scan", "android": "https://dc.lft.to/lastmile_qr_scan"}, "lon": -77.03748433333334, "fusion_lon": 0.0, "is_disabled": 0, "lat": 38.9125485, "bike_id": "af3bb8135c6d9fdd3c7bb945c4a78f65", "name": "af3bb8135c6d9fdd3c7bb945c4a78f65", "is_reserved": 0, "fusion_lat": 0.0}, {"type": "electric_scooter", "rental_uris": {"ios": "https://dc.lft.to/lastmile_qr_scan", "android": "https://dc.lft.to/lastmile_qr_scan"}, "lon": -77.02338216666666, "fusion_lon": 0.0, "is_disabled": 0, "lat": 38.917792666666664, "bike_id": "16d71f320d6600ce079978b3ec738ca3", "name": "16d71f320d6600ce079978b3ec738ca3", "is_reserved": 0, "fusion_lat": 0.0}, {"type": "electric_bike", "rental_uris": {"ios": "https://dc.lft.to/lastmile_qr_scan", "android": "https://dc.lft.to/lastmile_qr_scan"}, "lon": -77.2221585, "fusion_lon": 0.0, "is_disabled": 0, "lat": 38.92854716666667, "bike_id": "ba00aead8a97e89d750ab78016845b3b", "name": "ba00aead8a97e89d750ab78016845b3b", "is_reserved": 0, "fusion_lat": 0.0}, {"type": "electric_scooter", "rental_uris": {"ios": "https://dc.lft.to/lastmile_qr_scan", "android": "https://dc.lft.to/lastmile_qr_scan"}, "lon": -76.93988916666666, "fusion_lon": 0.0, "is_disabled": 0, "lat": 38.899807333333335, "bike_id": "3234737fbbc75e31170754247502950a", "name": "3234737fbbc75e31170754247502950a", "is_reserved": 0, "fusion_lat": 0.0}, {"type": "electric_scooter", "rental_uris": {"ios": "https://dc.lft.to/lastmile_qr_scan", "android": "https://dc.lft.to/lastmile_qr_scan"}, "lon": -77.0396705, "fusion_lon": 0.0, "is_disabled": 0, "lat": 38.89894866666667, "bike_id": "f12936a6d94cb3908d9f721113777962", "name": "f12936a6d94cb3908d9f721113777962", "is_reserved": 0, "fusion_lat": 0.0}, {"type": "electric_bike", "rental_uris": {"ios": "https://dc.lft.to/lastmile_qr_scan", "android": "https://dc.lft.to/lastmile_qr_scan"}, "lon": -76.9652975, "fusion_lon": 0.0, "is_disabled": 0, "lat": 38.874786666666665, "bike_id": "5dce6899c147ab6d575636fe84532845", "name": "5dce6899c147ab6d575636fe84532845", "is_reserved": 0, "fusion_lat": 0.0}, {"type": "electric_scooter", "rental_uris": {"ios": "https://dc.lft.to/lastmile_qr_scan", "android": "https://dc.lft.to/lastmile_qr_scan"}, "lon": -77.03278683333333, "fusion_lon": 0.0, "is_disabled": 0, "lat": 38.92743016666667, "bike_id": "bc79b6da2017f16cf1588f74d53de933", "name": "bc79b6da2017f16cf1588f74d53de933", "is_reserved": 0, "fusion_lat": 0.0}, {"type": "electric_scooter", "rental_uris": {"ios": "https://dc.lft.to/lastmile_qr_scan", "android": "https://dc.lft.to/lastmile_qr_scan"}, "lon": -77.05040066666666, "fusion_lon": 0.0, "is_disabled": 0, "lat": 38.89275583333333, "bike_id": "e1fbec26814dede5706b29dc5fbe7268", "name": "e1fbec26814dede5706b29dc5fbe7268", "is_reserved": 0, "fusion_lat": 0.0}, {"type": "electric_scooter", "rental_uris": {"ios": "https://dc.lft.to/lastmile_qr_scan", "android": "https://dc.lft.to/lastmile_qr_scan"}, "lon": -77.026934, "fusion_lon": 0.0, "is_disabled": 0, "lat": 38.906823, "bike_id": "deb3924b7ff6f3373b5254e0f85f5505", "name": "deb3924b7ff6f3373b5254e0f85f5505", "is_reserved": 0, "fusion_lat": 0.0}, {"type": "electric_bike", "rental_uris": {"ios": "https://dc.lft.to/lastmile_qr_scan", "android": "https://dc.lft.to/lastmile_qr_scan"}, "lon": -77.0398645, "fusion_lon": 0.0, "is_disabled": 0, "lat": 38.93330683333333, "bike_id": "e651a87187d41a2fc9899c96970f5507", "name": "e651a87187d41a2fc9899c96970f5507", "is_reserved": 0, "fusion_lat": 0.0}, {"type": "electric_bike", "rental_uris": {"ios": "https://dc.lft.to/lastmile_qr_scan", "android": "https://dc.lft.to/lastmile_qr_scan"}, "lon": -77.178404, "fusion_lon": 0.0, "is_disabled": 0, "lat": 39.0885685, "bike_id": "179af616ec02ccc6134e71e1a6f4f0ff", "name": "179af616ec02ccc6134e71e1a6f4f0ff", "is_reserved": 0, "fusion_lat": 0.0}, {"type": "electric_bike", "rental_uris": {"ios": "https://dc.lft.to/lastmile_qr_scan", "android": "https://dc.lft.to/lastmile_qr_scan"}, "lon": -77.0121055, "fusion_lon": 0.0, "is_disabled": 0, "lat": 38.872586166666665, "bike_id": "6f9e7da1c86fec818aa1c099c0c379ea", "name": "6f9e7da1c86fec818aa1c099c0c379ea", "is_reserved": 0, "fusion_lat": 0.0}, {"type": "electric_scooter", "rental_uris": {"ios": "https://dc.lft.to/lastmile_qr_scan", "android": "https://dc.lft.to/lastmile_qr_scan"}, "lon": -77.02387216666666, "fusion_lon": 0.0, "is_disabled": 0, "lat": 38.906287666666664, "bike_id": "9e60fc8bce9fcf486804b92150c4714e", "name": "9e60fc8bce9fcf486804b92150c4714e", "is_reserved": 0, "fusion_lat": 0.0}, {"type": "electric_scooter", "rental_uris": {"ios": "https://dc.lft.to/lastmile_qr_scan", "android": "https://dc.lft.to/lastmile_qr_scan"}, "lon": -77.02199316666666, "fusion_lon": 0.0, "is_disabled": 0, "lat": 38.91661766666667, "bike_id": "e138b97f67b5a706c4f07d63623affe8", "name": "e138b97f67b5a706c4f07d63623affe8", "is_reserved": 0, "fusion_lat": 0.0}, {"type": "electric_scooter", "rental_uris": {"ios": "https://dc.lft.to/lastmile_qr_scan", "android": "https://dc.lft.to/lastmile_qr_scan"}, "lon": -76.99251833333334, "fusion_lon": 0.0, "is_disabled": 0, "lat": 38.863869333333334, "bike_id": "5db1b7dfd0a750ffab887cfba65da684", "name": "5db1b7dfd0a750ffab887cfba65da684", "is_reserved": 0, "fusion_lat": 0.0}, {"type": "electric_scooter", "rental_uris": {"ios": "https://dc.lft.to/lastmile_qr_scan", "android": "https://dc.lft.to/lastmile_qr_scan"}, "lon": -77.01758766666667, "fusion_lon": 0.0, "is_disabled": 0, "lat": 38.877216833333335, "bike_id": "80854c6714fdcbd4fd714261f5e7c2e7", "name": "80854c6714fdcbd4fd714261f5e7c2e7", "is_reserved": 0, "fusion_lat": 0.0}, {"type": "electric_scooter", "rental_uris": {"ios": "https://dc.lft.to/lastmile_qr_scan", "android": "https://dc.lft.to/lastmile_qr_scan"}, "lon": -77.02204866666666, "fusion_lon": 0.0, "is_disabled": 0, "lat": 38.9154945, "bike_id": "df04670529f4d5f165b946a260d5f1f2", "name": "df04670529f4d5f165b946a260d5f1f2", "is_reserved": 0, "fusion_lat": 0.0}, {"type": "electric_scooter", "rental_uris": {"ios": "https://dc.lft.to/lastmile_qr_scan", "android": "https://dc.lft.to/lastmile_qr_scan"}, "lon": -77.02798583333333, "fusion_lon": 0.0, "is_disabled": 0, "lat": 38.930986, "bike_id": "355e36f93508bc5e232ade7d1aefca05", "name": "355e36f93508bc5e232ade7d1aefca05", "is_reserved": 0, "fusion_lat": 0.0}, {"type": "electric_scooter", "rental_uris": {"ios": "https://dc.lft.to/lastmile_qr_scan", "android": "https://dc.lft.to/lastmile_qr_scan"}, "lon": -77.034774, "fusion_lon": 0.0, "is_disabled": 0, "lat": 38.9096255, "bike_id": "4f356b3a38d43a5f021df6a8f291ad2d", "name": "4f356b3a38d43a5f021df6a8f291ad2d", "is_reserved": 0, "fusion_lat": 0.0}, {"type": "electric_scooter", "rental_uris": {"ios": "https://dc.lft.to/lastmile_qr_scan", "android": "https://dc.lft.to/lastmile_qr_scan"}, "lon": -77.0325575, "fusion_lon": 0.0, "is_disabled": 0, "lat": 38.939711333333335, "bike_id": "5f8750a4e581075fda42cdf07e26df2c", "name": "5f8750a4e581075fda42cdf07e26df2c", "is_reserved": 0, "fusion_lat": 0.0}, {"type": "electric_scooter", "rental_uris": {"ios": "https://dc.lft.to/lastmile_qr_scan", "android": "https://dc.lft.to/lastmile_qr_scan"}, "lon": -76.98372433333333, "fusion_lon": 0.0, "is_disabled": 0, "lat": 38.86113783333333, "bike_id": "647e417da0b6f8999808fcdab77fbaeb", "name": "647e417da0b6f8999808fcdab77fbaeb", "is_reserved": 0, "fusion_lat": 0.0}, {"type": "electric_scooter", "rental_uris": {"ios": "https://dc.lft.to/lastmile_qr_scan", "android": "https://dc.lft.to/lastmile_qr_scan"}, "lon": -77.03439383333334, "fusion_lon": 0.0, "is_disabled": 0, "lat": 38.906188, "bike_id": "e4d267dc0349686280fd1eece143352f", "name": "e4d267dc0349686280fd1eece143352f", "is_reserved": 0, "fusion_lat": 0.0}, {"type": "electric_scooter", "rental_uris": {"ios": "https://dc.lft.to/lastmile_qr_scan", "android": "https://dc.lft.to/lastmile_qr_scan"}, "lon": -77.02635233333334, "fusion_lon": 0.0, "is_disabled": 0, "lat": 38.91064633333333, "bike_id": "7d50bee7f644c1b8827310557b3e3dbd", "name": "7d50bee7f644c1b8827310557b3e3dbd", "is_reserved": 0, "fusion_lat": 0.0}, {"type": "electric_scooter", "rental_uris": {"ios": "https://dc.lft.to/lastmile_qr_scan", "android": "https://dc.lft.to/lastmile_qr_scan"}, "lon": -77.04038633333333, "fusion_lon": 0.0, "is_disabled": 0, "lat": 38.91860666666667, "bike_id": "09bf5373206d2405e9dbad79dc23098c", "name": "09bf5373206d2405e9dbad79dc23098c", "is_reserved": 0, "fusion_lat": 0.0}, {"type": "electric_scooter", "rental_uris": {"ios": "https://dc.lft.to/lastmile_qr_scan", "android": "https://dc.lft.to/lastmile_qr_scan"}, "lon": -77.0341725, "fusion_lon": 0.0, "is_disabled": 0, "lat": 38.935463666666664, "bike_id": "d9962ea2bc611264365d210b203fa0f3", "name": "d9962ea2bc611264365d210b203fa0f3", "is_reserved": 0, "fusion_lat": 0.0}, {"type": "electric_bike", "rental_uris": {"ios": "https://dc.lft.to/lastmile_qr_scan", "android": "https://dc.lft.to/lastmile_qr_scan"}, "lon": -77.02630116666667, "fusion_lon": 0.0, "is_disabled": 0, "lat": 38.962283, "bike_id": "042962fe8c3336413d8e402613481c93", "name": "042962fe8c3336413d8e402613481c93", "is_reserved": 0, "fusion_lat": 0.0}, {"type": "electric_scooter", "rental_uris": {"ios": "https://dc.lft.to/lastmile_qr_scan", "android": "https://dc.lft.to/lastmile_qr_scan"}, "lon": -77.03659583333334, "fusion_lon": 0.0, "is_disabled": 0, "lat": 38.922863, "bike_id": "14b77c27fe4727bd3034017bf4f802ba", "name": "14b77c27fe4727bd3034017bf4f802ba", "is_reserved": 0, "fusion_lat": 0.0}, {"type": "electric_scooter", "rental_uris": {"ios": "https://dc.lft.to/lastmile_qr_scan", "android": "https://dc.lft.to/lastmile_qr_scan"}, "lon": -76.99937083333333, "fusion_lon": 0.0, "is_disabled": 0, "lat": 38.889764166666666, "bike_id": "ec3f3b33a2e6c3494334c75f1eaae3cd", "name": "ec3f3b33a2e6c3494334c75f1eaae3cd", "is_reserved": 0, "fusion_lat": 0.0}, {"type": "electric_scooter", "rental_uris": {"ios": "https://dc.lft.to/lastmile_qr_scan", "android": "https://dc.lft.to/lastmile_qr_scan"}, "lon": -76.9857425, "fusion_lon": 0.0, "is_disabled": 0, "lat": 38.85451466666667, "bike_id": "381b701f08396ad61a1f4ef8fc458dc3", "name": "381b701f08396ad61a1f4ef8fc458dc3", "is_reserved": 0, "fusion_lat": 0.0}, {"type": "electric_scooter", "rental_uris": {"ios": "https://dc.lft.to/lastmile_qr_scan", "android": "https://dc.lft.to/lastmile_qr_scan"}, "lon": -77.0575345, "fusion_lon": 0.0, "is_disabled": 0, "lat": 38.92381616666667, "bike_id": "f4d79d43e5a953337244abc3f486f3c3", "name": "f4d79d43e5a953337244abc3f486f3c3", "is_reserved": 0, "fusion_lat": 0.0}, {"type": "electric_bike", "rental_uris": {"ios": "https://dc.lft.to/lastmile_qr_scan", "android": "https://dc.lft.to/lastmile_qr_scan"}, "lon": -77.10782816666666, "fusion_lon": 0.0, "is_disabled": 0, "lat": 38.892225, "bike_id": "7d7bf14fea53f6b26aa60df034ea1845", "name": "7d7bf14fea53f6b26aa60df034ea1845", "is_reserved": 0, "fusion_lat": 0.0}, {"type": "electric_scooter", "rental_uris": {"ios": "https://dc.lft.to/lastmile_qr_scan", "android": "https://dc.lft.to/lastmile_qr_scan"}, "lon": -77.02008616666667, "fusion_lon": 0.0, "is_disabled": 0, "lat": 38.92423183333333, "bike_id": "b7f1bc284024de447afcaab7336f8735", "name": "b7f1bc284024de447afcaab7336f8735", "is_reserved": 0, "fusion_lat": 0.0}, {"type": "electric_scooter", "rental_uris": {"ios": "https://dc.lft.to/lastmile_qr_scan", "android": "https://dc.lft.to/lastmile_qr_scan"}, "lon": -77.0127945, "fusion_lon": 0.0, "is_disabled": 0, "lat": 38.88665683333333, "bike_id": "4991a51ec80dad5d405272f69bb425cc", "name": "4991a51ec80dad5d405272f69bb425cc", "is_reserved": 0, "fusion_lat": 0.0}, {"type": "electric_scooter", "rental_uris": {"ios": "https://dc.lft.to/lastmile_qr_scan", "android": "https://dc.lft.to/lastmile_qr_scan"}, "lon": -77.03663, "fusion_lon": 0.0, "is_disabled": 0, "lat": 38.92254616666666, "bike_id": "f93e5792dafbf9c3a35ba11b071ff05f", "name": "f93e5792dafbf9c3a35ba11b071ff05f", "is_reserved": 0, "fusion_lat": 0.0}, {"type": "electric_scooter", "rental_uris": {"ios": "https://dc.lft.to/lastmile_qr_scan", "android": "https://dc.lft.to/lastmile_qr_scan"}, "lon": -77.02242966666667, "fusion_lon": 0.0, "is_disabled": 0, "lat": 38.87866183333333, "bike_id": "857faba6e34186e6b8dab24160012d7e", "name": "857faba6e34186e6b8dab24160012d7e", "is_reserved": 0, "fusion_lat": 0.0}, {"type": "electric_scooter", "rental_uris": {"ios": "https://dc.lft.to/lastmile_qr_scan", "android": "https://dc.lft.to/lastmile_qr_scan"}, "lon": -76.9652645, "fusion_lon": 0.0, "is_disabled": 0, "lat": 38.87626516666667, "bike_id": "fc8f0ea9cf30f2fb0e0cfd6443ea59b6", "name": "fc8f0ea9cf30f2fb0e0cfd6443ea59b6", "is_reserved": 0, "fusion_lat": 0.0}, {"type": "electric_scooter", "rental_uris": {"ios": "https://dc.lft.to/lastmile_qr_scan", "android": "https://dc.lft.to/lastmile_qr_scan"}, "lon": -76.93141533333333, "fusion_lon": 0.0, "is_disabled": 0, "lat": 38.89340516666667, "bike_id": "2e8cf99772b1c4524317c05087f05924", "name": "2e8cf99772b1c4524317c05087f05924", "is_reserved": 0, "fusion_lat": 0.0}, {"type": "electric_bike", "rental_uris": {"ios": "https://dc.lft.to/lastmile_qr_scan", "android": "https://dc.lft.to/lastmile_qr_scan"}, "lon": -77.033491, "fusion_lon": 0.0, "is_disabled": 0, "lat": 38.9694225, "bike_id": "090228997e82fa07c4a8dee7fa1157f1", "name": "090228997e82fa07c4a8dee7fa1157f1", "is_reserved": 0, "fusion_lat": 0.0}, {"type": "electric_scooter", "rental_uris": {"ios": "https://dc.lft.to/lastmile_qr_scan", "android": "https://dc.lft.to/lastmile_qr_scan"}, "lon": -77.00458916666666, "fusion_lon": 0.0, "is_disabled": 0, "lat": 38.911395666666664, "bike_id": "b0f3f7b2d0fdbd2d169988e3a326aaa0", "name": "b0f3f7b2d0fdbd2d169988e3a326aaa0", "is_reserved": 0, "fusion_lat": 0.0}, {"type": "electric_scooter", "rental_uris": {"ios": "https://dc.lft.to/lastmile_qr_scan", "android": "https://dc.lft.to/lastmile_qr_scan"}, "lon": -77.00587166666666, "fusion_lon": 0.0, "is_disabled": 0, "lat": 38.90654516666667, "bike_id": "93e8bdd87df4d04bcbdc0e46d4409051", "name": "93e8bdd87df4d04bcbdc0e46d4409051", "is_reserved": 0, "fusion_lat": 0.0}, {"type": "electric_scooter", "rental_uris": {"ios": "https://dc.lft.to/lastmile_qr_scan", "android": "https://dc.lft.to/lastmile_qr_scan"}, "lon": -77.00576216666667, "fusion_lon": 0.0, "is_disabled": 0, "lat": 38.908834666666664, "bike_id": "04ec89bc652cce3107cb19c34c8210ef", "name": "04ec89bc652cce3107cb19c34c8210ef", "is_reserved": 0, "fusion_lat": 0.0}, {"type": "electric_scooter", "rental_uris": {"ios": "https://dc.lft.to/lastmile_qr_scan", "android": "https://dc.lft.to/lastmile_qr_scan"}, "lon": -77.02318433333333, "fusion_lon": 0.0, "is_disabled": 0, "lat": 38.902090333333334, "bike_id": "0c989046edee7e6f23a03cddde5a5722", "name": "0c989046edee7e6f23a03cddde5a5722", "is_reserved": 0, "fusion_lat": 0.0}, {"type": "electric_scooter", "rental_uris": {"ios": "https://dc.lft.to/lastmile_qr_scan", "android": "https://dc.lft.to/lastmile_qr_scan"}, "lon": -77.0217655, "fusion_lon": 0.0, "is_disabled": 0, "lat": 38.94292933333333, "bike_id": "139762ef754eeb45fb0d6451244df73b", "name": "139762ef754eeb45fb0d6451244df73b", "is_reserved": 0, "fusion_lat": 0.0}, {"type": "electric_scooter", "rental_uris": {"ios": "https://dc.lft.to/lastmile_qr_scan", "android": "https://dc.lft.to/lastmile_qr_scan"}, "lon": -77.0401025, "fusion_lon": 0.0, "is_disabled": 0, "lat": 38.924336833333335, "bike_id": "1b4057db4d24b74722326786f8d285b8", "name": "1b4057db4d24b74722326786f8d285b8", "is_reserved": 0, "fusion_lat": 0.0}, {"type": "electric_scooter", "rental_uris": {"ios": "https://dc.lft.to/lastmile_qr_scan", "android": "https://dc.lft.to/lastmile_qr_scan"}, "lon": -77.05563083333334, "fusion_lon": 0.0, "is_disabled": 0, "lat": 38.90014, "bike_id": "93d6b8600e0ac59ec94e6a189692fbb4", "name": "93d6b8600e0ac59ec94e6a189692fbb4", "is_reserved": 0, "fusion_lat": 0.0}, {"type": "electric_scooter", "rental_uris": {"ios": "https://dc.lft.to/lastmile_qr_scan", "android": "https://dc.lft.to/lastmile_qr_scan"}, "lon": -77.03736983333333, "fusion_lon": 0.0, "is_disabled": 0, "lat": 38.92712816666667, "bike_id": "5440d676234969caf628664a17165e5f", "name": "5440d676234969caf628664a17165e5f", "is_reserved": 0, "fusion_lat": 0.0}, {"type": "electric_scooter", "rental_uris": {"ios": "https://dc.lft.to/lastmile_qr_scan", "android": "https://dc.lft.to/lastmile_qr_scan"}, "lon": -77.02696566666667, "fusion_lon": 0.0, "is_disabled": 0, "lat": 38.925633, "bike_id": "c78a903589ed38ad2a0fa23400b7434c", "name": "c78a903589ed38ad2a0fa23400b7434c", "is_reserved": 0, "fusion_lat": 0.0}, {"type": "electric_scooter", "rental_uris": {"ios": "https://dc.lft.to/lastmile_qr_scan", "android": "https://dc.lft.to/lastmile_qr_scan"}, "lon": -77.0322605, "fusion_lon": 0.0, "is_disabled": 0, "lat": 38.918575833333335, "bike_id": "dd461e896f42d76b5ab539b5e0603bf6", "name": "dd461e896f42d76b5ab539b5e0603bf6", "is_reserved": 0, "fusion_lat": 0.0}, {"type": "electric_scooter", "rental_uris": {"ios": "https://dc.lft.to/lastmile_qr_scan", "android": "https://dc.lft.to/lastmile_qr_scan"}, "lon": -77.00461266666667, "fusion_lon": 0.0, "is_disabled": 0, "lat": 38.87665366666667, "bike_id": "f2257c92e41458e0199dbcea9466e801", "name": "f2257c92e41458e0199dbcea9466e801", "is_reserved": 0, "fusion_lat": 0.0}, {"type": "electric_scooter", "rental_uris": {"ios": "https://dc.lft.to/lastmile_qr_scan", "android": "https://dc.lft.to/lastmile_qr_scan"}, "lon": -77.031801, "fusion_lon": 0.0, "is_disabled": 0, "lat": 38.90983833333333, "bike_id": "949621c99ea327807fc8482bad382dc8", "name": "949621c99ea327807fc8482bad382dc8", "is_reserved": 0, "fusion_lat": 0.0}, {"type": "electric_bike", "rental_uris": {"ios": "https://dc.lft.to/lastmile_qr_scan", "android": "https://dc.lft.to/lastmile_qr_scan"}, "lon": -77.081193, "fusion_lon": 0.0, "is_disabled": 0, "lat": 38.806846166666666, "bike_id": "43f62ee9d5675c01e6f9d5c42c3415c8", "name": "43f62ee9d5675c01e6f9d5c42c3415c8", "is_reserved": 0, "fusion_lat": 0.0}, {"type": "electric_scooter", "rental_uris": {"ios": "https://dc.lft.to/lastmile_qr_scan", "android": "https://dc.lft.to/lastmile_qr_scan"}, "lon": -77.03641266666666, "fusion_lon": 0.0, "is_disabled": 0, "lat": 38.9130715, "bike_id": "69ddb6d69dfda96e4f8862615342b20a", "name": "69ddb6d69dfda96e4f8862615342b20a", "is_reserved": 0, "fusion_lat": 0.0}, {"type": "electric_bike", "rental_uris": {"ios": "https://dc.lft.to/lastmile_qr_scan", "android": "https://dc.lft.to/lastmile_qr_scan"}, "lon": -76.9160265, "fusion_lon": 0.0, "is_disabled": 0, "lat": 38.879712833333336, "bike_id": "690f8277d21141da82dc0a3b49904976", "name": "690f8277d21141da82dc0a3b49904976", "is_reserved": 0, "fusion_lat": 0.0}, {"type": "electric_scooter", "rental_uris": {"ios": "https://dc.lft.to/lastmile_qr_scan", "android": "https://dc.lft.to/lastmile_qr_scan"}, "lon": -77.02342333333333, "fusion_lon": 0.0, "is_disabled": 0, "lat": 38.917875, "bike_id": "c751a5177980e2a865a48e093ab50aa4", "name": "c751a5177980e2a865a48e093ab50aa4", "is_reserved": 0, "fusion_lat": 0.0}, {"type": "electric_scooter", "rental_uris": {"ios": "https://dc.lft.to/lastmile_qr_scan", "android": "https://dc.lft.to/lastmile_qr_scan"}, "lon": -77.04902666666666, "fusion_lon": 0.0, "is_disabled": 0, "lat": 38.8923095, "bike_id": "4c325209afdbe0a535a02cea4a840427", "name": "4c325209afdbe0a535a02cea4a840427", "is_reserved": 0, "fusion_lat": 0.0}, {"type": "electric_scooter", "rental_uris": {"ios": "https://dc.lft.to/lastmile_qr_scan", "android": "https://dc.lft.to/lastmile_qr_scan"}, "lon": -76.9800815, "fusion_lon": 0.0, "is_disabled": 0, "lat": 38.9008475, "bike_id": "1b4ce1c8ac81373f3dedeef7f70fb115", "name": "1b4ce1c8ac81373f3dedeef7f70fb115", "is_reserved": 0, "fusion_lat": 0.0}, {"type": "electric_bike", "rental_uris": {"ios": "https://dc.lft.to/lastmile_qr_scan", "android": "https://dc.lft.to/lastmile_qr_scan"}, "lon": -77.01220183333334, "fusion_lon": 0.0, "is_disabled": 0, "lat": 38.87098266666667, "bike_id": "44836c226fef64d1288d8863549bb121", "name": "44836c226fef64d1288d8863549bb121", "is_reserved": 0, "fusion_lat": 0.0}, {"type": "electric_scooter", "rental_uris": {"ios": "https://dc.lft.to/lastmile_qr_scan", "android": "https://dc.lft.to/lastmile_qr_scan"}, "lon": -77.02728683333333, "fusion_lon": 0.0, "is_disabled": 0, "lat": 38.95188483333333, "bike_id": "9b6037edbb2015716037babb6bdcbeb9", "name": "9b6037edbb2015716037babb6bdcbeb9", "is_reserved": 0, "fusion_lat": 0.0}, {"type": "electric_scooter", "rental_uris": {"ios": "https://dc.lft.to/lastmile_qr_scan", "android": "https://dc.lft.to/lastmile_qr_scan"}, "lon": -77.03662733333333, "fusion_lon": 0.0, "is_disabled": 0, "lat": 38.91721733333333, "bike_id": "1e6ef017d194d4aceffd3aa6b60b8b3b", "name": "1e6ef017d194d4aceffd3aa6b60b8b3b", "is_reserved": 0, "fusion_lat": 0.0}, {"type": "electric_scooter", "rental_uris": {"ios": "https://dc.lft.to/lastmile_qr_scan", "android": "https://dc.lft.to/lastmile_qr_scan"}, "lon": -77.0403625, "fusion_lon": 0.0, "is_disabled": 0, "lat": 38.898950666666664, "bike_id": "6b38bdf8fbbd0246a4557c3246777e05", "name": "6b38bdf8fbbd0246a4557c3246777e05", "is_reserved": 0, "fusion_lat": 0.0}, {"type": "electric_scooter", "rental_uris": {"ios": "https://dc.lft.to/lastmile_qr_scan", "android": "https://dc.lft.to/lastmile_qr_scan"}, "lon": -77.0393455, "fusion_lon": 0.0, "is_disabled": 0, "lat": 38.9155955, "bike_id": "5ea3aec499d1031e09b1cd81d2d4db5d", "name": "5ea3aec499d1031e09b1cd81d2d4db5d", "is_reserved": 0, "fusion_lat": 0.0}, {"type": "electric_scooter", "rental_uris": {"ios": "https://dc.lft.to/lastmile_qr_scan", "android": "https://dc.lft.to/lastmile_qr_scan"}, "lon": -77.003407, "fusion_lon": 0.0, "is_disabled": 0, "lat": 38.887457833333336, "bike_id": "32b19fb202bcebe19f5df5f9a27f4659", "name": "32b19fb202bcebe19f5df5f9a27f4659", "is_reserved": 0, "fusion_lat": 0.0}, {"type": "electric_scooter", "rental_uris": {"ios": "https://dc.lft.to/lastmile_qr_scan", "android": "https://dc.lft.to/lastmile_qr_scan"}, "lon": -77.0367435, "fusion_lon": 0.0, "is_disabled": 0, "lat": 38.902904666666664, "bike_id": "ec4cd1c689e6875bba455a2e998b964d", "name": "ec4cd1c689e6875bba455a2e998b964d", "is_reserved": 0, "fusion_lat": 0.0}, {"type": "electric_scooter", "rental_uris": {"ios": "https://dc.lft.to/lastmile_qr_scan", "android": "https://dc.lft.to/lastmile_qr_scan"}, "lon": -77.0732535, "fusion_lon": 0.0, "is_disabled": 0, "lat": 38.9249685, "bike_id": "70dfed94e9e80739e534f055d26c3385", "name": "70dfed94e9e80739e534f055d26c3385", "is_reserved": 0, "fusion_lat": 0.0}, {"type": "electric_scooter", "rental_uris": {"ios": "https://dc.lft.to/lastmile_qr_scan", "android": "https://dc.lft.to/lastmile_qr_scan"}, "lon": -77.0318575, "fusion_lon": 0.0, "is_disabled": 0, "lat": 38.91332333333333, "bike_id": "4a33dac6e8609d8e4bf563a519a9ced9", "name": "4a33dac6e8609d8e4bf563a519a9ced9", "is_reserved": 0, "fusion_lat": 0.0}, {"type": "electric_scooter", "rental_uris": {"ios": "https://dc.lft.to/lastmile_qr_scan", "android": "https://dc.lft.to/lastmile_qr_scan"}, "lon": -77.02795833333333, "fusion_lon": 0.0, "is_disabled": 0, "lat": 38.91711266666667, "bike_id": "def6aada8ed657d84c4fa7c42b78fc69", "name": "def6aada8ed657d84c4fa7c42b78fc69", "is_reserved": 0, "fusion_lat": 0.0}, {"type": "electric_scooter", "rental_uris": {"ios": "https://dc.lft.to/lastmile_qr_scan", "android": "https://dc.lft.to/lastmile_qr_scan"}, "lon": -77.05148366666667, "fusion_lon": 0.0, "is_disabled": 0, "lat": 38.90060116666667, "bike_id": "fd568bd858ca65e0fa872336deb80632", "name": "fd568bd858ca65e0fa872336deb80632", "is_reserved": 0, "fusion_lat": 0.0}, {"type": "electric_scooter", "rental_uris": {"ios": "https://dc.lft.to/lastmile_qr_scan", "android": "https://dc.lft.to/lastmile_qr_scan"}, "lon": -77.02661033333334, "fusion_lon": 0.0, "is_disabled": 0, "lat": 38.91692833333333, "bike_id": "ce32affc3c3c2989070ba705d198ec38", "name": "ce32affc3c3c2989070ba705d198ec38", "is_reserved": 0, "fusion_lat": 0.0}, {"type": "electric_scooter", "rental_uris": {"ios": "https://dc.lft.to/lastmile_qr_scan", "android": "https://dc.lft.to/lastmile_qr_scan"}, "lon": -76.93613833333333, "fusion_lon": 0.0, "is_disabled": 0, "lat": 38.886807166666664, "bike_id": "c25012777abc337db29fae19693ada73", "name": "c25012777abc337db29fae19693ada73", "is_reserved": 0, "fusion_lat": 0.0}, {"type": "electric_scooter", "rental_uris": {"ios": "https://dc.lft.to/lastmile_qr_scan", "android": "https://dc.lft.to/lastmile_qr_scan"}, "lon": -77.03338016666666, "fusion_lon": 0.0, "is_disabled": 0, "lat": 38.928796166666665, "bike_id": "741d55ba4460cbbe04ad6312937e2781", "name": "741d55ba4460cbbe04ad6312937e2781", "is_reserved": 0, "fusion_lat": 0.0}, {"type": "electric_scooter", "rental_uris": {"ios": "https://dc.lft.to/lastmile_qr_scan", "android": "https://dc.lft.to/lastmile_qr_scan"}, "lon": -77.02904216666667, "fusion_lon": 0.0, "is_disabled": 0, "lat": 38.902686, "bike_id": "24013fc16075f9fc276d9288b4e944d8", "name": "24013fc16075f9fc276d9288b4e944d8", "is_reserved": 0, "fusion_lat": 0.0}, {"type": "electric_scooter", "rental_uris": {"ios": "https://dc.lft.to/lastmile_qr_scan", "android": "https://dc.lft.to/lastmile_qr_scan"}, "lon": -77.03237583333333, "fusion_lon": 0.0, "is_disabled": 0, "lat": 38.928087833333336, "bike_id": "3087bf41140e95bc108191d68a4997e6", "name": "3087bf41140e95bc108191d68a4997e6", "is_reserved": 0, "fusion_lat": 0.0}, {"type": "electric_scooter", "rental_uris": {"ios": "https://dc.lft.to/lastmile_qr_scan", "android": "https://dc.lft.to/lastmile_qr_scan"}, "lon": -77.031951, "fusion_lon": 0.0, "is_disabled": 0, "lat": 38.921251, "bike_id": "bcf30ddf3eb3652c8b2ed7918e7f55ba", "name": "bcf30ddf3eb3652c8b2ed7918e7f55ba", "is_reserved": 0, "fusion_lat": 0.0}, {"type": "electric_scooter", "rental_uris": {"ios": "https://dc.lft.to/lastmile_qr_scan", "android": "https://dc.lft.to/lastmile_qr_scan"}, "lon": -77.02978983333334, "fusion_lon": 0.0, "is_disabled": 0, "lat": 38.9169205, "bike_id": "6693244204063647e500964b9a98df0e", "name": "6693244204063647e500964b9a98df0e", "is_reserved": 0, "fusion_lat": 0.0}, {"type": "electric_scooter", "rental_uris": {"ios": "https://dc.lft.to/lastmile_qr_scan", "android": "https://dc.lft.to/lastmile_qr_scan"}, "lon": -77.03214333333334, "fusion_lon": 0.0, "is_disabled": 0, "lat": 38.892256, "bike_id": "50e99e6825db2a0232c417c262b09f9a", "name": "50e99e6825db2a0232c417c262b09f9a", "is_reserved": 0, "fusion_lat": 0.0}, {"type": "electric_scooter", "rental_uris": {"ios": "https://dc.lft.to/lastmile_qr_scan", "android": "https://dc.lft.to/lastmile_qr_scan"}, "lon": -77.03142216666667, "fusion_lon": 0.0, "is_disabled": 0, "lat": 38.91699066666666, "bike_id": "173747b5ebabe9b72c6590f67afb2f2d", "name": "173747b5ebabe9b72c6590f67afb2f2d", "is_reserved": 0, "fusion_lat": 0.0}, {"type": "electric_scooter", "rental_uris": {"ios": "https://dc.lft.to/lastmile_qr_scan", "android": "https://dc.lft.to/lastmile_qr_scan"}, "lon": -77.04156583333334, "fusion_lon": 0.0, "is_disabled": 0, "lat": 38.91415666666666, "bike_id": "4d9173248ec6de741c127e3c86f58f4c", "name": "4d9173248ec6de741c127e3c86f58f4c", "is_reserved": 0, "fusion_lat": 0.0}, {"type": "electric_scooter", "rental_uris": {"ios": "https://dc.lft.to/lastmile_qr_scan", "android": "https://dc.lft.to/lastmile_qr_scan"}, "lon": -77.02241183333334, "fusion_lon": 0.0, "is_disabled": 0, "lat": 38.922407666666665, "bike_id": "c3349ca93abcaef55e0bc6e16705ea37", "name": "c3349ca93abcaef55e0bc6e16705ea37", "is_reserved": 0, "fusion_lat": 0.0},