{"data": {"bikes": [{"lat": 38.89818016666667, "is_disabled": 0, "type": "electric_scooter", "lon": -77.03100283333333, "bike_id": "504815ad1251bf30cc6980a0914fa3bf", "fusion_lat": 0.0, "name": "504815ad1251bf30cc6980a0914fa3bf", "is_reserved": 0, "rental_uris": {"android": "https://dc.lft.to/lastmile_qr_scan", "ios": "https://dc.lft.to/lastmile_qr_scan"}, "fusion_lon": 0.0}, {"lat": 38.955624666666665, "is_disabled": 0, "type": "electric_scooter", "lon": -77.0223335, "bike_id": "ba784faeebb03647038fdd81a861a910", "fusion_lat": 0.0, "name": "ba784faeebb03647038fdd81a861a910", "is_reserved": 0, "rental_uris": {"android": "https://dc.lft.to/lastmile_qr_scan", "ios": "https://dc.lft.to/lastmile_qr_scan"}, "fusion_lon": 0.0}, {"lat": 39.056334666666665, "is_disabled": 0, "type": "electric_bike", "lon": -77.1252365, "bike_id": "e5a4c1e31d4b15fba885dc212276f1a8", "fusion_lat": 0.0, "name": "e5a4c1e31d4b15fba885dc212276f1a8", "is_reserved": 0, "rental_uris": {"android": "https://dc.lft.to/lastmile_qr_scan", "ios": "https://dc.lft.to/lastmile_qr_scan"}, "fusion_lon": 0.0}, {"lat": 38.932118, "is_disabled": 0, "type": "electric_scooter", "lon": -77.02241916666667, "bike_id": "86defbcded9d830b8a1c19ccc5f89600", "fusion_lat": 0.0, "name": "86defbcded9d830b8a1c19ccc5f89600", "is_reserved": 0, "rental_uris": {"android": "https://dc.lft.to/lastmile_qr_scan", "ios": "https://dc.lft.to/lastmile_qr_scan"}, "fusion_lon": 0.0}, {"lat": 38.9027185, "is_disabled": 0, "type": "electric_scooter", "lon": -77.04383066666666, "bike_id": "e2197a7b74eb5adae32ad65d33349df4", "fusion_lat": 0.0, "name": "e2197a7b74eb5adae32ad65d33349df4", "is_reserved": 0, "rental_uris": {"android": "https://dc.lft.to/lastmile_qr_scan", "ios": "https://dc.lft.to/lastmile_qr_scan"}, "fusion_lon": 0.0}, {"lat": 38.89041783333333, "is_disabled": 0, "type": "electric_scooter", "lon": -76.95245083333333, "bike_id": "f0266e3ae53241ccf7830e20b10a73dd", "fusion_lat": 0.0, "name": "f0266e3ae53241ccf7830e20b10a73dd", "is_reserved": 0, "rental_uris": {"android": "https://dc.lft.to/lastmile_qr_scan", "ios": "https://dc.lft.to/lastmile_qr_scan"}, "fusion_lon": 0.0}, {"lat": 38.911176833333336, "is_disabled": 0, "type": "electric_scooter", "lon": -77.03833883333333, "bike_id": "800fc019d9a5f15d4409c33144ab37e7", "fusion_lat": 0.0, "name": "800fc019d9a5f15d4409c33144ab37e7", "is_reserved": 0, "rental_uris": {"android": "https://dc.lft.to/lastmile_qr_scan", "ios": "https://dc.lft.to/lastmile_qr_scan"}, "fusion_lon": 0.0}, {"lat": 38.88884083333333, "is_disabled": 0, "type": "electric_scooter", "lon": -76.93154983333334, "bike_id": "bb1cec8f935b8e864c6718f161c1d365", "fusion_lat": 0.0, "name": "bb1cec8f935b8e864c6718f161c1d365", "is_reserved": 0, "rental_uris": {"android": "https://dc.lft.to/lastmile_qr_scan", "ios": "https://dc.lft.to/lastmile_qr_scan"}, "fusion_lon": 0.0}, {"lat": 38.88736033333333, "is_disabled": 0, "type": "electric_scooter", "lon": -77.015294, "bike_id": "fe6272ddafe13f91076a1b543d03c2ee", "fusion_lat": 0.0, "name": "fe6272ddafe13f91076a1b543d03c2ee", "is_reserved": 0, "rental_uris": {"android": "https://dc.lft.to/lastmile_qr_scan", "ios": "https://dc.lft.to/lastmile_qr_scan"}, "fusion_lon": 0.0}, {"lat": 38.884100833333335, "is_disabled": 0, "type": "electric_bike", "lon": -76.954122, "bike_id": "c60b911ba014f8a61c5bc72a5be67fa7", "fusion_lat": 0.0, "name": "c60b911ba014f8a61c5bc72a5be67fa7", "is_reserved": 0, "rental_uris": {"android": "https://dc.lft.to/lastmile_qr_scan", "ios": "https://dc.lft.to/lastmile_qr_scan"}, "fusion_lon": 0.0}, {"lat": 38.91192483333333, "is_disabled": 0, "type": "electric_scooter", "lon": -77.04296433333333, "bike_id": "67d24551a5e237cbdb98ea4299067007", "fusion_lat": 0.0, "name": "67d24551a5e237cbdb98ea4299067007", "is_reserved": 0, "rental_uris": {"android": "https://dc.lft.to/lastmile_qr_scan", "ios": "https://dc.lft.to/lastmile_qr_scan"}, "fusion_lon": 0.0}, {"lat": 38.919674666666666, "is_disabled": 0, "type": "electric_scooter", "lon": -77.01220033333334, "bike_id": "b30bcb5b0a0bc872fac6ddd2136a90c9", "fusion_lat": 0.0, "name": "b30bcb5b0a0bc872fac6ddd2136a90c9", "is_reserved": 0, "rental_uris": {"android": "https://dc.lft.to/lastmile_qr_scan", "ios": "https://dc.lft.to/lastmile_qr_scan"}, "fusion_lon": 0.0}, {"lat": 38.911702, "is_disabled": 0, "type": "electric_scooter", "lon": -77.04663633333334, "bike_id": "e10e4bdc3c74cf30b03b5292c92979dc", "fusion_lat": 0.0, "name": "e10e4bdc3c74cf30b03b5292c92979dc", "is_reserved": 0, "rental_uris": {"android": "https://dc.lft.to/lastmile_qr_scan", "ios": "https://dc.lft.to/lastmile_qr_scan"}, "fusion_lon": 0.0}, {"lat": 38.911901, "is_disabled": 0, "type": "electric_scooter", "lon": -77.0342795, "bike_id": "c32067c6e27f9a98f1094a0f817ac514", "fusion_lat": 0.0, "name": "c32067c6e27f9a98f1094a0f817ac514", "is_reserved": 0, "rental_uris": {"android": "https://dc.lft.to/lastmile_qr_scan", "ios": "https://dc.lft.to/lastmile_qr_scan"}, "fusion_lon": 0.0}, {"lat": 38.934981, "is_disabled": 0, "type": "electric_scooter", "lon": -77.02731883333334, "bike_id": "025144c6e241db97fc8bd6408fb5b437", "fusion_lat": 0.0, "name": "025144c6e241db97fc8bd6408fb5b437", "is_reserved": 0, "rental_uris": {"android": "https://dc.lft.to/lastmile_qr_scan", "ios": "https://dc.lft.to/lastmile_qr_scan"}, "fusion_lon": 0.0}, {"lat": 38.91636866666666, "is_disabled": 0, "type": "electric_scooter", "lon": -77.02553083333333, "bike_id": "aef59619460d07ce8d938a69c4a9a53a", "fusion_lat": 0.0, "name": "aef59619460d07ce8d938a69c4a9a53a", "is_reserved": 0, "rental_uris": {"android": "https://dc.lft.to/lastmile_qr_scan", "ios": "https://dc.lft.to/lastmile_qr_scan"}, "fusion_lon": 0.0}, {"lat": 38.9548915, "is_disabled": 0, "type": "electric_scooter", "lon": -77.06559283333333, "bike_id": "ad289a50c11e2dbdc11cd1001d69d158", "fusion_lat": 0.0, "name": "ad289a50c11e2dbdc11cd1001d69d158", "is_reserved": 0, "rental_uris": {"android": "https://dc.lft.to/lastmile_qr_scan", "ios": "https://dc.lft.to/lastmile_qr_scan"}, "fusion_lon": 0.0}, {"lat": 38.90509816666667, "is_disabled": 0, "type": "electric_scooter", "lon": -77.04823933333333, "bike_id": "7542861fc296470dfafc84bfd60e9693", "fusion_lat": 0.0, "name": "7542861fc296470dfafc84bfd60e9693", "is_reserved": 0, "rental_uris": {"android": "https://dc.lft.to/lastmile_qr_scan", "ios": "https://dc.lft.to/lastmile_qr_scan"}, "fusion_lon": 0.0}, {"lat": 38.918777166666665, "is_disabled": 0, "type": "electric_scooter", "lon": -77.0318945, "bike_id": "dabc8ea38f7f57a306dbea567a65176f", "fusion_lat": 0.0, "name": "dabc8ea38f7f57a306dbea567a65176f", "is_reserved": 0, "rental_uris": {"android": "https://dc.lft.to/lastmile_qr_scan", "ios": "https://dc.lft.to/lastmile_qr_scan"}, "fusion_lon": 0.0}, {"lat": 38.922894666666664, "is_disabled": 0, "type": "electric_scooter", "lon": -77.029612, "bike_id": "1f57c3fa00c2d1199f5dda8edd1fd438", "fusion_lat": 0.0, "name": "1f57c3fa00c2d1199f5dda8edd1fd438", "is_reserved": 0, "rental_uris": {"android": "https://dc.lft.to/lastmile_qr_scan", "ios": "https://dc.lft.to/lastmile_qr_scan"}, "fusion_lon": 0.0}, {"lat": 38.91621083333333, "is_disabled": 0, "type": "electric_scooter", "lon": -77.03642616666667, "bike_id": "39081e29658509125ba0ee9ae678b6b5", "fusion_lat": 0.0, "name": "39081e29658509125ba0ee9ae678b6b5", "is_reserved": 0, "rental_uris": {"android": "https://dc.lft.to/lastmile_qr_scan", "ios": "https://dc.lft.to/lastmile_qr_scan"}, "fusion_lon": 0.0}, {"lat": 38.912015, "is_disabled": 0, "type": "electric_scooter", "lon": -77.0146195, "bike_id": "2edd8df1268ee51e7a6d995c927afa94", "fusion_lat": 0.0, "name": "2edd8df1268ee51e7a6d995c927afa94", "is_reserved": 0, "rental_uris": {"android": "https://dc.lft.to/lastmile_qr_scan", "ios": "https://dc.lft.to/lastmile_qr_scan"}, "fusion_lon": 0.0}, {"lat": 38.893518666666665, "is_disabled": 0, "type": "electric_scooter", "lon": -77.04151783333333, "bike_id": "7182df1b885c8459a9de12263e8b0a60", "fusion_lat": 0.0, "name": "7182df1b885c8459a9de12263e8b0a60", "is_reserved": 0, "rental_uris": {"android": "https://dc.lft.to/lastmile_qr_scan", "ios": "https://dc.lft.to/lastmile_qr_scan"}, "fusion_lon": 0.0}, {"lat": 38.9028035, "is_disabled": 0, "type": "electric_scooter", "lon": -77.036632, "bike_id": "a0673bdfab7db4019c772183eeeb2991", "fusion_lat": 0.0, "name": "a0673bdfab7db4019c772183eeeb2991", "is_reserved": 0, "rental_uris": {"android": "https://dc.lft.to/lastmile_qr_scan", "ios": "https://dc.lft.to/lastmile_qr_scan"}, "fusion_lon": 0.0}, {"lat": 38.90098033333334, "is_disabled": 0, "type": "electric_scooter", "lon": -77.0504085, "bike_id": "175d101a09c964383cbe905afd7195ba", "fusion_lat": 0.0, "name": "175d101a09c964383cbe905afd7195ba", "is_reserved": 0, "rental_uris": {"android": "https://dc.lft.to/lastmile_qr_scan", "ios": "https://dc.lft.to/lastmile_qr_scan"}, "fusion_lon": 0.0}, {"lat": 38.900786333333336, "is_disabled": 0, "type": "electric_scooter", "lon": -77.04940316666666, "bike_id": "f44cdfb2dc5075c3772031ec45ef34c6", "fusion_lat": 0.0, "name": "f44cdfb2dc5075c3772031ec45ef34c6", "is_reserved": 0, "rental_uris": {"android": "https://dc.lft.to/lastmile_qr_scan", "ios": "https://dc.lft.to/lastmile_qr_scan"}, "fusion_lon": 0.0}, {"lat": 38.915417833333336, "is_disabled": 0, "type": "electric_scooter", "lon": -77.0219895, "bike_id": "507c0b572b84b075e358df170781287a", "fusion_lat": 0.0, "name": "507c0b572b84b075e358df170781287a", "is_reserved": 0, "rental_uris": {"android": "https://dc.lft.to/lastmile_qr_scan", "ios": "https://dc.lft.to/lastmile_qr_scan"}, "fusion_lon": 0.0}, {"lat": 38.9149865, "is_disabled": 0, "type": "electric_scooter", "lon": -77.01216666666667, "bike_id": "c6028bdc1dd37aa758941dd69e00cfcc", "fusion_lat": 0.0, "name": "c6028bdc1dd37aa758941dd69e00cfcc", "is_reserved": 0, "rental_uris": {"android": "https://dc.lft.to/lastmile_qr_scan", "ios": "https://dc.lft.to/lastmile_qr_scan"}, "fusion_lon": 0.0}, {"lat": 38.95639766666667, "is_disabled": 0, "type": "electric_bike", "lon": -76.93879866666667, "bike_id": "412b78ff6837f77566ec9f53f0284405", "fusion_lat": 0.0, "name": "412b78ff6837f77566ec9f53f0284405", "is_reserved": 0, "rental_uris": {"android": "https://dc.lft.to/lastmile_qr_scan", "ios": "https://dc.lft.to/lastmile_qr_scan"}, "fusion_lon": 0.0}, {"lat": 38.842742666666666, "is_disabled": 0, "type": "electric_bike", "lon": -76.9884025, "bike_id": "cf6c023dac0f87e4d2b93a69e086461b", "fusion_lat": 0.0, "name": "cf6c023dac0f87e4d2b93a69e086461b", "is_reserved": 0, "rental_uris": {"android": "https://dc.lft.to/lastmile_qr_scan", "ios": "https://dc.lft.to/lastmile_qr_scan"}, "fusion_lon": 0.0}, {"lat": 38.92668883333333, "is_disabled": 0, "type": "electric_scooter", "lon": -76.99536883333333, "bike_id": "46a3bc17a5c38ab77d8752509c13aae7", "fusion_lat": 0.0, "name": "46a3bc17a5c38ab77d8752509c13aae7", "is_reserved": 0, "rental_uris": {"android": "https://dc.lft.to/lastmile_qr_scan", "ios": "https://dc.lft.to/lastmile_qr_scan"}, "fusion_lon": 0.0}, {"lat": 38.925779166666665, "is_disabled": 0, "type": "electric_scooter", "lon": -77.05751366666667, "bike_id": "a649a7aac2502c19f96f482197ccd96d", "fusion_lat": 0.0, "name": "a649a7aac2502c19f96f482197ccd96d", "is_reserved": 0, "rental_uris": {"android": "https://dc.lft.to/lastmile_qr_scan", "ios": "https://dc.lft.to/lastmile_qr_scan"}, "fusion_lon": 0.0}, {"lat": 38.898054333333334, "is_disabled": 0, "type": "electric_scooter", "lon": -77.00056066666667, "bike_id": "43ed540fee0dd76cb44c628d809f668f", "fusion_lat": 0.0, "name": "43ed540fee0dd76cb44c628d809f668f", "is_reserved": 0, "rental_uris": {"android": "https://dc.lft.to/lastmile_qr_scan", "ios": "https://dc.lft.to/lastmile_qr_scan"}, "fusion_lon": 0.0}, {"lat": 38.914597, "is_disabled": 0, "type": "electric_scooter", "lon": -77.04150016666667, "bike_id": "858501df9016b68a06d79cd1df150f51", "fusion_lat": 0.0, "name": "858501df9016b68a06d79cd1df150f51", "is_reserved": 0, "rental_uris": {"android": "https://dc.lft.to/lastmile_qr_scan", "ios": "https://dc.lft.to/lastmile_qr_scan"}, "fusion_lon": 0.0}, {"lat": 38.897824666666665, "is_disabled": 0, "type": "electric_bike", "lon": -76.90437483333334, "bike_id": "eedc21f4a42173d6f34971ddf9dbcad9", "fusion_lat": 0.0, "name": "eedc21f4a42173d6f34971ddf9dbcad9", "is_reserved": 0, "rental_uris": {"android": "https://dc.lft.to/lastmile_qr_scan", "ios": "https://dc.lft.to/lastmile_qr_scan"}, "fusion_lon": 0.0}, {"lat": 38.930890166666664, "is_disabled": 0, "type": "electric_scooter", "lon": -77.031253, "bike_id": "79e04a0fb9576f9647ca755b67141c02", "fusion_lat": 0.0, "name": "79e04a0fb9576f9647ca755b67141c02", "is_reserved": 0, "rental_uris": {"android": "https://dc.lft.to/lastmile_qr_scan", "ios": "https://dc.lft.to/lastmile_qr_scan"}, "fusion_lon": 0.0}, {"lat": 38.913175, "is_disabled": 0, "type": "electric_scooter", "lon": -77.031846, "bike_id": "9906ef671ab1f8fb77cff60ff736808e", "fusion_lat": 0.0, "name": "9906ef671ab1f8fb77cff60ff736808e", "is_reserved": 0, "rental_uris": {"android": "https://dc.lft.to/lastmile_qr_scan", "ios": "https://dc.lft.to/lastmile_qr_scan"}, "fusion_lon": 0.0}, {"lat": 38.999938666666665, "is_disabled": 0, "type": "electric_bike", "lon": -76.92497283333333, "bike_id": "af46cbda2938d4ee977b830ad2a4d431", "fusion_lat": 0.0, "name": "af46cbda2938d4ee977b830ad2a4d431", "is_reserved": 0, "rental_uris": {"android": "https://dc.lft.to/lastmile_qr_scan", "ios": "https://dc.lft.to/lastmile_qr_scan"}, "fusion_lon": 0.0}, {"lat": 38.916330333333335, "is_disabled": 0, "type": "electric_scooter", "lon": -77.02241916666667, "bike_id": "718b5abf82b07dd43ca8d2b1db5236c8", "fusion_lat": 0.0, "name": "718b5abf82b07dd43ca8d2b1db5236c8", "is_reserved": 0, "rental_uris": {"android": "https://dc.lft.to/lastmile_qr_scan", "ios": "https://dc.lft.to/lastmile_qr_scan"}, "fusion_lon": 0.0}, {"lat": 38.890905833333335, "is_disabled": 0, "type": "electric_scooter", "lon": -76.95265983333333, "bike_id": "6777e37f0fd0e650acf71bedc070c2dd", "fusion_lat": 0.0, "name": "6777e37f0fd0e650acf71bedc070c2dd", "is_reserved": 0, "rental_uris": {"android": "https://dc.lft.to/lastmile_qr_scan", "ios": "https://dc.lft.to/lastmile_qr_scan"}, "fusion_lon": 0.0}, {"lat": 38.911133666666665, "is_disabled": 0, "type": "electric_scooter", "lon": -77.0371785, "bike_id": "66c910fdd3aa45cf5bbd8bbccf557383", "fusion_lat": 0.0, "name": "66c910fdd3aa45cf5bbd8bbccf557383", "is_reserved": 0, "rental_uris": {"android": "https://dc.lft.to/lastmile_qr_scan", "ios": "https://dc.lft.to/lastmile_qr_scan"}, "fusion_lon": 0.0}, {"lat": 38.95214133333333, "is_disabled": 0, "type": "electric_scooter", "lon": -77.08595516666666, "bike_id": "22aeb1b3fb630e35eb26c0c832902bd2", "fusion_lat": 0.0, "name": "22aeb1b3fb630e35eb26c0c832902bd2", "is_reserved": 0, "rental_uris": {"android": "https://dc.lft.to/lastmile_qr_scan", "ios": "https://dc.lft.to/lastmile_qr_scan"}, "fusion_lon": 0.0}, {"lat": 38.915419, "is_disabled": 0, "type": "electric_scooter", "lon": -77.03199166666667, "bike_id": "40da188ce2c64c01737028ec1cc5a236", "fusion_lat": 0.0, "name": "40da188ce2c64c01737028ec1cc5a236", "is_reserved": 0, "rental_uris": {"android": "https://dc.lft.to/lastmile_qr_scan", "ios": "https://dc.lft.to/lastmile_qr_scan"}, "fusion_lon": 0.0}, {"lat": 38.9205545, "is_disabled": 0, "type": "electric_scooter", "lon": -77.03475166666666, "bike_id": "2c535df666bc8178e133bd4066df75e8", "fusion_lat": 0.0, "name": "2c535df666bc8178e133bd4066df75e8", "is_reserved": 0, "rental_uris": {"android": "https://dc.lft.to/lastmile_qr_scan", "ios": "https://dc.lft.to/lastmile_qr_scan"}, "fusion_lon": 0.0}, {"lat": 38.93143233333333, "is_disabled": 0, "type": "electric_scooter", "lon": -77.021436, "bike_id": "a01eab95a3e3f16e0b3e6f397742a1c7", "fusion_lat": 0.0, "name": "a01eab95a3e3f16e0b3e6f397742a1c7", "is_reserved": 0, "rental_uris": {"android": "https://dc.lft.to/lastmile_qr_scan", "ios": "https://dc.lft.to/lastmile_qr_scan"}, "fusion_lon": 0.0}, {"lat": 38.90559183333333, "is_disabled": 0, "type": "electric_scooter", "lon": -77.01306866666667, "bike_id": "6d2c1d29ced12ea3d08dcb57691dc08d", "fusion_lat": 0.0, "name": "6d2c1d29ced12ea3d08dcb57691dc08d", "is_reserved": 0, "rental_uris": {"android": "https://dc.lft.to/lastmile_qr_scan", "ios": "https://dc.lft.to/lastmile_qr_scan"}, "fusion_lon": 0.0}, {"lat": 38.906744833333335, "is_disabled": 0, "type": "electric_scooter", "lon": -77.02388166666667, "bike_id": "9c9d689d763a6a3dd2421c111b02e5c1", "fusion_lat": 0.0, "name": "9c9d689d763a6a3dd2421c111b02e5c1", "is_reserved": 0, "rental_uris": {"android": "https://dc.lft.to/lastmile_qr_scan", "ios": "https://dc.lft.to/lastmile_qr_scan"}, "fusion_lon": 0.0}, {"lat": 38.90845516666667, "is_disabled": 0, "type": "electric_bike", "lon": -77.0402265, "bike_id": "99967cd4cae3c44b74f5dba7e6f8efbf", "fusion_lat": 0.0, "name": "99967cd4cae3c44b74f5dba7e6f8efbf", "is_reserved": 0, "rental_uris": {"android": "https://dc.lft.to/lastmile_qr_scan", "ios": "https://dc.lft.to/lastmile_qr_scan"}, "fusion_lon": 0.0}, {"lat": 38.917449166666664, "is_disabled": 0, "type": "electric_scooter", "lon": -77.03172383333333, "bike_id": "90696a6857dcee65d4c747b30921d4fd", "fusion_lat": 0.0, "name": "90696a6857dcee65d4c747b30921d4fd", "is_reserved": 0, "rental_uris": {"android": "https://dc.lft.to/lastmile_qr_scan", "ios": "https://dc.lft.to/lastmile_qr_scan"}, "fusion_lon": 0.0}, {"lat": 38.902764833333336, "is_disabled": 0, "type": "electric_scooter", "lon": -77.05261716666666, "bike_id": "f0a363f5b00da45fd7a924b63a786b89", "fusion_lat": 0.0, "name": "f0a363f5b00da45fd7a924b63a786b89", "is_reserved": 0, "rental_uris": {"android": "https://dc.lft.to/lastmile_qr_scan", "ios": "https://dc.lft.to/lastmile_qr_scan"}, "fusion_lon": 0.0}, {"lat": 38.88479483333333, "is_disabled": 0, "type": "electric_scooter", "lon": -76.945268, "bike_id": "8f8d404565df9ea8d853d2296d3a81ba", "fusion_lat": 0.0, "name": "8f8d404565df9ea8d853d2296d3a81ba", "is_reserved": 0, "rental_uris": {"android": "https://dc.lft.to/lastmile_qr_scan", "ios": "https://dc.lft.to/lastmile_qr_scan"}, "fusion_lon": 0.0}, {"lat": 38.930747333333336, "is_disabled": 0, "type": "electric_scooter", "lon": -77.0775895, "bike_id": "70a9c7b287b4fce23b978fbcc1c35962", "fusion_lat": 0.0, "name": "70a9c7b287b4fce23b978fbcc1c35962", "is_reserved": 0, "rental_uris": {"android": "https://dc.lft.to/lastmile_qr_scan", "ios": "https://dc.lft.to/lastmile_qr_scan"}, "fusion_lon": 0.0}, {"lat": 38.900274333333336, "is_disabled": 0, "type": "electric_scooter", "lon": -76.98364366666667, "bike_id": "102bdcdd969af469c43462fc8312e9f5", "fusion_lat": 0.0, "name": "102bdcdd969af469c43462fc8312e9f5", "is_reserved": 0, "rental_uris": {"android": "https://dc.lft.to/lastmile_qr_scan", "ios": "https://dc.lft.to/lastmile_qr_scan"}, "fusion_lon": 0.0}, {"lat": 38.9177205, "is_disabled": 0, "type": "electric_scooter", "lon": -77.02233966666667, "bike_id": "8f6b60b1b3129c92e78435b84962ff14", "fusion_lat": 0.0, "name": "8f6b60b1b3129c92e78435b84962ff14", "is_reserved": 0, "rental_uris": {"android": "https://dc.lft.to/lastmile_qr_scan", "ios": "https://dc.lft.to/lastmile_qr_scan"}, "fusion_lon": 0.0}, {"lat": 38.917428, "is_disabled": 0, "type": "electric_scooter", "lon": -77.031858, "bike_id": "2a5f7a91be1d72445d700db5a71d6bee", "fusion_lat": 0.0, "name": "2a5f7a91be1d72445d700db5a71d6bee", "is_reserved": 0, "rental_uris": {"android": "https://dc.lft.to/lastmile_qr_scan", "ios": "https://dc.lft.to/lastmile_qr_scan"}, "fusion_lon": 0.0}, {"lat": 38.934272166666666, "is_disabled": 0, "type": "electric_scooter", "lon": -76.99344633333334, "bike_id": "313505c1598a745d8b31093942bd5074", "fusion_lat": 0.0, "name": "313505c1598a745d8b31093942bd5074", "is_reserved": 0, "rental_uris": {"android": "https://dc.lft.to/lastmile_qr_scan", "ios": "https://dc.lft.to/lastmile_qr_scan"}, "fusion_lon": 0.0}, {"lat": 38.954114833333335, "is_disabled": 0, "type": "electric_bike", "lon": -76.980582, "bike_id": "602396b03d0ff3aa1579b5e659a1a682", "fusion_lat": 0.0, "name": "602396b03d0ff3aa1579b5e659a1a682", "is_reserved": 0, "rental_uris": {"android": "https://dc.lft.to/lastmile_qr_scan", "ios": "https://dc.lft.to/lastmile_qr_scan"}, "fusion_lon": 0.0}, {"lat": 38.90126933333333, "is_disabled": 0, "type": "electric_scooter", "lon": -77.03307916666667, "bike_id": "3fe4c63930acea5fbdceaba1deeddca3", "fusion_lat": 0.0, "name": "3fe4c63930acea5fbdceaba1deeddca3", "is_reserved": 0, "rental_uris": {"android": "https://dc.lft.to/lastmile_qr_scan", "ios": "https://dc.lft.to/lastmile_qr_scan"}, "fusion_lon": 0.0}, {"lat": 38.8734435, "is_disabled": 0, "type": "electric_scooter", "lon": -76.99166083333333, "bike_id": "38ec739b16dfef18e579971786527626", "fusion_lat": 0.0, "name": "38ec739b16dfef18e579971786527626", "is_reserved": 0, "rental_uris": {"android": "https://dc.lft.to/lastmile_qr_scan", "ios": "https://dc.lft.to/lastmile_qr_scan"}, "fusion_lon": 0.0}, {"lat": 38.8762945, "is_disabled": 0, "type": "electric_scooter", "lon": -76.96521883333334, "bike_id": "373f8b556ebbbd577339b206224edef3", "fusion_lat": 0.0, "name": "373f8b556ebbbd577339b206224edef3", "is_reserved": 0, "rental_uris": {"android": "https://dc.lft.to/lastmile_qr_scan", "ios": "https://dc.lft.to/lastmile_qr_scan"}, "fusion_lon": 0.0}, {"lat": 38.907207666666665, "is_disabled": 0, "type": "electric_scooter", "lon": -77.02749666666666, "bike_id": "661f59922f4acab4326c61d44ded6b9b", "fusion_lat": 0.0, "name": "661f59922f4acab4326c61d44ded6b9b", "is_reserved": 0, "rental_uris": {"android": "https://dc.lft.to/lastmile_qr_scan", "ios": "https://dc.lft.to/lastmile_qr_scan"}, "fusion_lon": 0.0}, {"lat": 38.919210666666665, "is_disabled": 0, "type": "electric_scooter", "lon": -77.02470666666666, "bike_id": "35d64a71f4d93c301a690336196d70c6", "fusion_lat": 0.0, "name": "35d64a71f4d93c301a690336196d70c6", "is_reserved": 0, "rental_uris": {"android": "https://dc.lft.to/lastmile_qr_scan", "ios": "https://dc.lft.to/lastmile_qr_scan"}, "fusion_lon": 0.0}, {"lat": 38.90627466666667, "is_disabled": 0, "type": "electric_scooter", "lon": -77.02182216666667, "bike_id": "72802015edf4907ee60f0d49547b273f", "fusion_lat": 0.0, "name": "72802015edf4907ee60f0d49547b273f", "is_reserved": 0, "rental_uris": {"android": "https://dc.lft.to/lastmile_qr_scan", "ios": "https://dc.lft.to/lastmile_qr_scan"}, "fusion_lon": 0.0}, {"lat": 38.91567516666667, "is_disabled": 0, "type": "electric_scooter", "lon": -77.020012, "bike_id": "8e2e2442bb0b7c4802157d753fb7f0a0", "fusion_lat": 0.0, "name": "8e2e2442bb0b7c4802157d753fb7f0a0", "is_reserved": 0, "rental_uris": {"android": "https://dc.lft.to/lastmile_qr_scan", "ios": "https://dc.lft.to/lastmile_qr_scan"}, "fusion_lon": 0.0}, {"lat": 38.900319, "is_disabled": 0, "type": "electric_scooter", "lon": -77.04418366666667, "bike_id": "0c60f3f146cbc45242517b5e9bd15d0f", "fusion_lat": 0.0, "name": "0c60f3f146cbc45242517b5e9bd15d0f", "is_reserved": 0, "rental_uris": {"android": "https://dc.lft.to/lastmile_qr_scan", "ios": "https://dc.lft.to/lastmile_qr_scan"}, "fusion_lon": 0.0}, {"lat": 38.90137933333333, "is_disabled": 0, "type": "electric_bike", "lon": -77.02281833333333, "bike_id": "1e844e7a6df6d55eb572f0a914f5319f", "fusion_lat": 0.0, "name": "1e844e7a6df6d55eb572f0a914f5319f", "is_reserved": 0, "rental_uris": {"android": "https://dc.lft.to/lastmile_qr_scan", "ios": "https://dc.lft.to/lastmile_qr_scan"}, "fusion_lon": 0.0}, {"lat": 38.9164225, "is_disabled": 0, "type": "electric_scooter", "lon": -77.02078366666667, "bike_id": "f0684eb012a3c32dbdc3a46a27f90046", "fusion_lat": 0.0, "name": "f0684eb012a3c32dbdc3a46a27f90046", "is_reserved": 0, "rental_uris": {"android": "https://dc.lft.to/lastmile_qr_scan", "ios": "https://dc.lft.to/lastmile_qr_scan"}, "fusion_lon": 0.0}, {"lat": 38.87579516666667, "is_disabled": 0, "type": "electric_bike", "lon": -77.10557166666666, "bike_id": "134340cbc46dcb9172ee058069e99a4a", "fusion_lat": 0.0, "name": "134340cbc46dcb9172ee058069e99a4a", "is_reserved": 0, "rental_uris": {"android": "https://dc.lft.to/lastmile_qr_scan", "ios": "https://dc.lft.to/lastmile_qr_scan"}, "fusion_lon": 0.0}, {"lat": 38.893626166666664, "is_disabled": 0, "type": "electric_scooter", "lon": -76.9482285, "bike_id": "6f4b40be67e41851214335bfdc5c8aa5", "fusion_lat": 0.0, "name": "6f4b40be67e41851214335bfdc5c8aa5", "is_reserved": 0, "rental_uris": {"android": "https://dc.lft.to/lastmile_qr_scan", "ios": "https://dc.lft.to/lastmile_qr_scan"}, "fusion_lon": 0.0}, {"lat": 38.9261325, "is_disabled": 0, "type": "electric_scooter", "lon": -76.99603816666666, "bike_id": "b0712fb075a3e56869442c91406eba77", "fusion_lat": 0.0, "name": "b0712fb075a3e56869442c91406eba77", "is_reserved": 0, "rental_uris": {"android": "https://dc.lft.to/lastmile_qr_scan", "ios": "https://dc.lft.to/lastmile_qr_scan"}, "fusion_lon": 0.0}, {"lat": 38.884893166666664, "is_disabled": 0, "type": "electric_scooter", "lon": -77.007068, "bike_id": "a453ec63619390de61b0b24fa64c6e48", "fusion_lat": 0.0, "name": "a453ec63619390de61b0b24fa64c6e48", "is_reserved": 0, "rental_uris": {"android": "https://dc.lft.to/lastmile_qr_scan", "ios": "https://dc.lft.to/lastmile_qr_scan"}, "fusion_lon": 0.0}, {"lat": 38.9072945, "is_disabled": 0, "type": "electric_scooter", "lon": -77.03715266666667, "bike_id": "a02b1aef60e7d2bf62df2a00eff425b3", "fusion_lat": 0.0, "name": "a02b1aef60e7d2bf62df2a00eff425b3", "is_reserved": 0, "rental_uris": {"android": "https://dc.lft.to/lastmile_qr_scan", "ios": "https://dc.lft.to/lastmile_qr_scan"}, "fusion_lon": 0.0}, {"lat": 38.94290383333333, "is_disabled": 0, "type": "electric_scooter", "lon": -77.02166383333333, "bike_id": "5bcc545698e451e0ddf8aadb6a1bcf28", "fusion_lat": 0.0, "name": "5bcc545698e451e0ddf8aadb6a1bcf28", "is_reserved": 0, "rental_uris": {"android": "https://dc.lft.to/lastmile_qr_scan", "ios": "https://dc.lft.to/lastmile_qr_scan"}, "fusion_lon": 0.0}, {"lat": 38.866284666666665, "is_disabled": 0, "type": "electric_scooter", "lon": -76.9869405, "bike_id": "9f4e3cfc368609ed3e40a2a4faffc2a5", "fusion_lat": 0.0, "name": "9f4e3cfc368609ed3e40a2a4faffc2a5", "is_reserved": 0, "rental_uris": {"android": "https://dc.lft.to/lastmile_qr_scan", "ios": "https://dc.lft.to/lastmile_qr_scan"}, "fusion_lon": 0.0}, {"lat": 38.895276833333334, "is_disabled": 0, "type": "electric_scooter", "lon": -77.00201083333333, "bike_id": "535c7fd6dbabd3cab9e5590c3b23d943", "fusion_lat": 0.0, "name": "535c7fd6dbabd3cab9e5590c3b23d943", "is_reserved": 0, "rental_uris": {"android": "https://dc.lft.to/lastmile_qr_scan", "ios": "https://dc.lft.to/lastmile_qr_scan"}, "fusion_lon": 0.0}, {"lat": 38.9248905, "is_disabled": 0, "type": "electric_scooter", "lon": -77.02131333333334, "bike_id": "ca41e8caae77d0a04ed3a29f6bb35dee", "fusion_lat": 0.0, "name": "ca41e8caae77d0a04ed3a29f6bb35dee", "is_reserved": 0, "rental_uris": {"android": "https://dc.lft.to/lastmile_qr_scan", "ios": "https://dc.lft.to/lastmile_qr_scan"}, "fusion_lon": 0.0}, {"lat": 38.896197, "is_disabled": 0, "type": "electric_scooter", "lon": -77.0219615, "bike_id": "2260f4a9d025cc2373505804b0778dce", "fusion_lat": 0.0, "name": "2260f4a9d025cc2373505804b0778dce", "is_reserved": 0, "rental_uris": {"android": "https://dc.lft.to/lastmile_qr_scan", "ios": "https://dc.lft.to/lastmile_qr_scan"}, "fusion_lon": 0.0}, {"lat": 38.8427685, "is_disabled": 0, "type": "electric_bike", "lon": -76.98838966666666, "bike_id": "c8826b6edc90b0bbaccd4fde235e4cdf", "fusion_lat": 0.0, "name": "c8826b6edc90b0bbaccd4fde235e4cdf", "is_reserved": 0, "rental_uris": {"android": "https://dc.lft.to/lastmile_qr_scan", "ios": "https://dc.lft.to/lastmile_qr_scan"}, "fusion_lon": 0.0}, {"lat": 38.927475666666666, "is_disabled": 0, "type": "electric_scooter", "lon": -77.0241705, "bike_id": "9539aac00a8b6b65a64f1f84794765d0", "fusion_lat": 0.0, "name": "9539aac00a8b6b65a64f1f84794765d0", "is_reserved": 0, "rental_uris": {"android": "https://dc.lft.to/lastmile_qr_scan", "ios": "https://dc.lft.to/lastmile_qr_scan"}, "fusion_lon": 0.0}, {"lat": 38.905288, "is_disabled": 0, "type": "electric_scooter", "lon": -77.05155566666667, "bike_id": "cff017bed2c1e120fcb45275547ade11", "fusion_lat": 0.0, "name": "cff017bed2c1e120fcb45275547ade11", "is_reserved": 0, "rental_uris": {"android": "https://dc.lft.to/lastmile_qr_scan", "ios": "https://dc.lft.to/lastmile_qr_scan"}, "fusion_lon": 0.0}, {"lat": 38.897303, "is_disabled": 0, "type": "electric_scooter", "lon": -77.04906583333333, "bike_id": "c6d684643cf81d9e3d270839bf630d02", "fusion_lat": 0.0, "name": "c6d684643cf81d9e3d270839bf630d02", "is_reserved": 0, "rental_uris": {"android": "https://dc.lft.to/lastmile_qr_scan", "ios": "https://dc.lft.to/lastmile_qr_scan"}, "fusion_lon": 0.0}, {"lat": 38.921773, "is_disabled": 0, "type": "electric_scooter", "lon": -77.0470235, "bike_id": "fcd9fcaa42362f203d329978a75af9c3", "fusion_lat": 0.0, "name": "fcd9fcaa42362f203d329978a75af9c3", "is_reserved": 0, "rental_uris": {"android": "https://dc.lft.to/lastmile_qr_scan", "ios": "https://dc.lft.to/lastmile_qr_scan"}, "fusion_lon": 0.0}, {"lat": 38.91412733333333, "is_disabled": 0, "type": "electric_scooter", "lon": -77.01323583333334, "bike_id": "3351c150e4aadb857da5cea3ab6c8889", "fusion_lat": 0.0, "name": "3351c150e4aadb857da5cea3ab6c8889", "is_reserved": 0, "rental_uris": {"android": "https://dc.lft.to/lastmile_qr_scan", "ios": "https://dc.lft.to/lastmile_qr_scan"}, "fusion_lon": 0.0}, {"lat": 38.947919166666665, "is_disabled": 0, "type": "electric_scooter", "lon": -77.021707, "bike_id": "819651855e462d9bf6186534c4a1db27", "fusion_lat": 0.0, "name": "819651855e462d9bf6186534c4a1db27", "is_reserved": 0, "rental_uris": {"android": "https://dc.lft.to/lastmile_qr_scan", "ios": "https://dc.lft.to/lastmile_qr_scan"}, "fusion_lon": 0.0}, {"lat": 38.926107333333334, "is_disabled": 0, "type": "electric_scooter", "lon": -77.05693033333333, "bike_id": "24e03ab298e0590dfd1f2e711659a38a", "fusion_lat": 0.0, "name": "24e03ab298e0590dfd1f2e711659a38a", "is_reserved": 0, "rental_uris": {"android": "https://dc.lft.to/lastmile_qr_scan", "ios": "https://dc.lft.to/lastmile_qr_scan"}, "fusion_lon": 0.0}, {"lat": 38.93744216666666, "is_disabled": 0, "type": "electric_scooter", "lon": -77.03470483333334, "bike_id": "104c284c6565dfcf02294197c0567db1", "fusion_lat": 0.0, "name": "104c284c6565dfcf02294197c0567db1", "is_reserved": 0, "rental_uris": {"android": "https://dc.lft.to/lastmile_qr_scan", "ios": "https://dc.lft.to/lastmile_qr_scan"}, "fusion_lon": 0.0}, {"lat": 38.916498833333335, "is_disabled": 0, "type": "electric_scooter", "lon": -77.02179916666667, "bike_id": "e45695821d843b7fbbce7cc0ee99d3b7", "fusion_lat": 0.0, "name": "e45695821d843b7fbbce7cc0ee99d3b7", "is_reserved": 0, "rental_uris": {"android": "https://dc.lft.to/lastmile_qr_scan", "ios": "https://dc.lft.to/lastmile_qr_scan"}, "fusion_lon": 0.0}, {"lat": 38.90109416666667, "is_disabled": 0, "type": "electric_scooter", "lon": -76.9961885, "bike_id": "95d495203ba411870c52df966648f5e9", "fusion_lat": 0.0, "name": "95d495203ba411870c52df966648f5e9", "is_reserved": 0, "rental_uris": {"android": "https://dc.lft.to/lastmile_qr_scan", "ios": "https://dc.lft.to/lastmile_qr_scan"}, "fusion_lon": 0.0}, {"lat": 38.8858045, "is_disabled": 0, "type": "electric_scooter", "lon": -76.9191, "bike_id": "4fb18f64f49918bbb4e1cd9b2c445f9c", "fusion_lat": 0.0, "name": "4fb18f64f49918bbb4e1cd9b2c445f9c", "is_reserved": 0, "rental_uris": {"android": "https://dc.lft.to/lastmile_qr_scan", "ios": "https://dc.lft.to/lastmile_qr_scan"}, "fusion_lon": 0.0}, {"lat": 38.914154833333335, "is_disabled": 0, "type": "electric_scooter", "lon": -77.022144, "bike_id": "c2ce447e48d212c2b55b543776a14114", "fusion_lat": 0.0, "name": "c2ce447e48d212c2b55b543776a14114", "is_reserved": 0, "rental_uris": {"android": "https://dc.lft.to/lastmile_qr_scan", "ios": "https://dc.lft.to/lastmile_qr_scan"}, "fusion_lon": 0.0}, {"lat": 38.920911333333336, "is_disabled": 0, "type": "electric_scooter", "lon": -77.0253845, "bike_id": "baba20c0a7e43fb2f0657fb81ceceb76", "fusion_lat": 0.0, "name": "baba20c0a7e43fb2f0657fb81ceceb76", "is_reserved": 0, "rental_uris": {"android": "https://dc.lft.to/lastmile_qr_scan", "ios": "https://dc.lft.to/lastmile_qr_scan"}, "fusion_lon": 0.0}, {"lat": 38.9097855, "is_disabled": 0, "type": "electric_scooter", "lon": -77.03287766666666, "bike_id": "73aca6395095aeb0d834816e38278037", "fusion_lat": 0.0, "name": "73aca6395095aeb0d834816e38278037", "is_reserved": 0, "rental_uris": {"android": "https://dc.lft.to/lastmile_qr_scan", "ios": "https://dc.lft.to/lastmile_qr_scan"}, "fusion_lon": 0.0}, {"lat": 38.948259166666666, "is_disabled": 0, "type": "electric_scooter", "lon": -76.999066, "bike_id": "e236afbbce8830d0e212ececb22915bb", "fusion_lat": 0.0, "name": "e236afbbce8830d0e212ececb22915bb", "is_reserved": 0, "rental_uris": {"android": "https://dc.lft.to/lastmile_qr_scan", "ios": "https://dc.lft.to/lastmile_qr_scan"}, "fusion_lon": 0.0}, {"lat": 38.90206633333333, "is_disabled": 0, "type": "electric_scooter", "lon": -76.99939533333334, "bike_id": "d2ffa9795dbf5e114ad99cfd17a5e8c9", "fusion_lat": 0.0, "name": "d2ffa9795dbf5e114ad99cfd17a5e8c9", "is_reserved": 0, "rental_uris": {"android": "https://dc.lft.to/lastmile_qr_scan", "ios": "https://dc.lft.to/lastmile_qr_scan"}, "fusion_lon": 0.0}, {"lat": 38.88043566666666, "is_disabled": 0, "type": "electric_scooter", "lon": -76.98630683333333, "bike_id": "20ba7efe6daae2415e41436ef3dbcdac", "fusion_lat": 0.0, "name": "20ba7efe6daae2415e41436ef3dbcdac", "is_reserved": 0, "rental_uris": {"android": "https://dc.lft.to/lastmile_qr_scan", "ios": "https://dc.lft.to/lastmile_qr_scan"}, "fusion_lon": 0.0}, {"lat": 38.9166885, "is_disabled": 0, "type": "electric_scooter", "lon": -77.03207683333333, "bike_id": "a7889bd391a8fc34212f75a2f423aab3", "fusion_lat": 0.0, "name": "a7889bd391a8fc34212f75a2f423aab3", "is_reserved": 0, "rental_uris": {"android": "https://dc.lft.to/lastmile_qr_scan", "ios": "https://dc.lft.to/lastmile_qr_scan"}, "fusion_lon": 0.0}, {"lat": 38.96225966666667, "is_disabled": 0, "type": "electric_bike", "lon": -77.02621983333333, "bike_id": "ba8e31920ce466381cd8969a376a2265", "fusion_lat": 0.0, "name": "ba8e31920ce466381cd8969a376a2265", "is_reserved": 0, "rental_uris": {"android": "https://dc.lft.to/lastmile_qr_scan", "ios": "https://dc.lft.to/lastmile_qr_scan"}, "fusion_lon": 0.0}, {"lat": 38.914041166666664, "is_disabled": 0, "type": "electric_scooter", "lon": -77.0210575, "bike_id": "8318d9fc0bb2bc6c3ab412aed10f99d6", "fusion_lat": 0.0, "name": "8318d9fc0bb2bc6c3ab412aed10f99d6", "is_reserved": 0, "rental_uris": {"android": "https://dc.lft.to/lastmile_qr_scan", "ios": "https://dc.lft.to/lastmile_qr_scan"}, "fusion_lon": 0.0}, {"lat": 38.949707, "is_disabled": 0, "type": "electric_scooter", "lon": -77.06557816666667, "bike_id": "a74272bf2524e34406a57f7780254925", "fusion_lat": 0.0, "name": "a74272bf2524e34406a57f7780254925", "is_reserved": 0, "rental_uris": {"android": "https://dc.lft.to/lastmile_qr_scan", "ios": "https://dc.lft.to/lastmile_qr_scan"}, "fusion_lon": 0.0}, {"lat": 38.901326166666664, "is_disabled": 0, "type": "electric_scooter", "lon": -77.02884233333333, "bike_id": "1f3b346edc85d52323a5740326478d04", "fusion_lat": 0.0, "name": "1f3b346edc85d52323a5740326478d04", "is_reserved": 0, "rental_uris": {"android": "https://dc.lft.to/lastmile_qr_scan", "ios": "https://dc.lft.to/lastmile_qr_scan"}, "fusion_lon": 0.0}, {"lat": 38.99816533333333, "is_disabled": 0, "type": "electric_bike", "lon": -76.88370516666667, "bike_id": "6bd589a46ddb7c8db32d800eb1c9aee1", "fusion_lat": 0.0, "name": "6bd589a46ddb7c8db32d800eb1c9aee1", "is_reserved": 0, "rental_uris": {"android": "https://dc.lft.to/lastmile_qr_scan", "ios": "https://dc.lft.to/lastmile_qr_scan"}, "fusion_lon": 0.0}, {"lat": 39.030467, "is_disabled": 0, "type": "electric_bike", "lon": -77.09477633333333, "bike_id": "0ea91c1d4c5685b4a0c6f675a6fe0356", "fusion_lat": 0.0, "name": "0ea91c1d4c5685b4a0c6f675a6fe0356", "is_reserved": 0, "rental_uris": {"android": "https://dc.lft.to/lastmile_qr_scan", "ios": "https://dc.lft.to/lastmile_qr_scan"}, "fusion_lon": 0.0}, {"lat": 38.89204466666666, "is_disabled": 0, "type": "electric_scooter", "lon": -76.98561133333334, "bike_id": "910554d531f80de44c940f8447f9f48d", "fusion_lat": 0.0, "name": "910554d531f80de44c940f8447f9f48d", "is_reserved": 0, "rental_uris": {"android": "https://dc.lft.to/lastmile_qr_scan", "ios": "https://dc.lft.to/lastmile_qr_scan"}, "fusion_lon": 0.0}, {"lat": 38.93861016666666, "is_disabled": 0, "type": "electric_scooter", "lon": -77.03092833333334, "bike_id": "d3f972f01a17a03d0d9e3e5f3df83db8", "fusion_lat": 0.0, "name": "d3f972f01a17a03d0d9e3e5f3df83db8", "is_reserved": 0, "rental_uris": {"android": "https://dc.lft.to/lastmile_qr_scan", "ios": "https://dc.lft.to/lastmile_qr_scan"}, "fusion_lon": 0.0}, {"lat": 38.913158833333334, "is_disabled": 0, "type": "electric_scooter", "lon": -76.986428, "bike_id": "53af310692b6c3143684347afc302a97", "fusion_lat": 0.0, "name": "53af310692b6c3143684347afc302a97", "is_reserved": 0, "rental_uris": {"android": "https://dc.lft.to/lastmile_qr_scan", "ios": "https://dc.lft.to/lastmile_qr_scan"}, "fusion_lon": 0.0}, {"lat": 38.917418166666664, "is_disabled": 0, "type": "electric_scooter", "lon": -77.0318585, "bike_id": "685d3ddc3b676c1271f44f7f80080ebb", "fusion_lat": 0.0, "name": "685d3ddc3b676c1271f44f7f80080ebb", "is_reserved": 0, "rental_uris": {"android": "https://dc.lft.to/lastmile_qr_scan", "ios": "https://dc.lft.to/lastmile_qr_scan"}, "fusion_lon": 0.0}, {"lat": 38.917023666666665, "is_disabled": 0, "type": "electric_scooter", "lon": -77.02731616666667, "bike_id": "fc11b65793b4c94a11476f8f3994b4bc", "fusion_lat": 0.0, "name": "fc11b65793b4c94a11476f8f3994b4bc", "is_reserved": 0, "rental_uris": {"android": "https://dc.lft.to/lastmile_qr_scan", "ios": "https://dc.lft.to/lastmile_qr_scan"}, "fusion_lon": 0.0}, {"lat": 39.02431983333334, "is_disabled": 0, "type": "electric_bike", "lon": -77.1309875, "bike_id": "67a0b0dd225a14fe7b1d3db7742e5951", "fusion_lat": 0.0, "name": "67a0b0dd225a14fe7b1d3db7742e5951", "is_reserved": 0, "rental_uris": {"android": "https://dc.lft.to/lastmile_qr_scan", "ios": "https://dc.lft.to/lastmile_qr_scan"}, "fusion_lon": 0.0}, {"lat": 38.90720816666666, "is_disabled": 0, "type": "electric_scooter", "lon": -77.02974633333334, "bike_id": "5fdf7caf59857ecc1a5bfc6353f0a35f", "fusion_lat": 0.0, "name": "5fdf7caf59857ecc1a5bfc6353f0a35f", "is_reserved": 0, "rental_uris": {"android": "https://dc.lft.to/lastmile_qr_scan", "ios": "https://dc.lft.to/lastmile_qr_scan"}, "fusion_lon": 0.0}, {"lat": 38.92959, "is_disabled": 0, "type": "electric_scooter", "lon": -77.02343216666667, "bike_id": "1d11b7dd5276111d46ea9fa86e380f8f", "fusion_lat": 0.0, "name": "1d11b7dd5276111d46ea9fa86e380f8f", "is_reserved": 0, "rental_uris": {"android": "https://dc.lft.to/lastmile_qr_scan", "ios": "https://dc.lft.to/lastmile_qr_scan"}, "fusion_lon": 0.0}, {"lat": 38.877319166666666, "is_disabled": 0, "type": "electric_bike", "lon": -77.11849133333334, "bike_id": "040dee0ea94b18df6a1176d761996832", "fusion_lat": 0.0, "name": "040dee0ea94b18df6a1176d761996832", "is_reserved": 0, "rental_uris": {"android": "https://dc.lft.to/lastmile_qr_scan", "ios": "https://dc.lft.to/lastmile_qr_scan"}, "fusion_lon": 0.0}, {"lat": 38.94633916666667, "is_disabled": 0, "type": "electric_scooter", "lon": -77.01847166666667, "bike_id": "ec02aaffa21559fbb3e982d892c8775a", "fusion_lat": 0.0, "name": "ec02aaffa21559fbb3e982d892c8775a", "is_reserved": 0, "rental_uris": {"android": "https://dc.lft.to/lastmile_qr_scan", "ios": "https://dc.lft.to/lastmile_qr_scan"}, "fusion_lon": 0.0}, {"lat": 38.86745416666667, "is_disabled": 0, "type": "electric_scooter", "lon": -76.976615, "bike_id": "d31cab2740312e1c3a16a00d83a3cae3", "fusion_lat": 0.0, "name": "d31cab2740312e1c3a16a00d83a3cae3", "is_reserved": 0, "rental_uris": {"android": "https://dc.lft.to/lastmile_qr_scan", "ios": "https://dc.lft.to/lastmile_qr_scan"}, "fusion_lon": 0.0}, {"lat": 38.95185383333333, "is_disabled": 0, "type": "electric_bike", "lon": -76.93543033333333, "bike_id": "687a71a8e5689958cb48e45974654f24", "fusion_lat": 0.0, "name": "687a71a8e5689958cb48e45974654f24", "is_reserved": 0, "rental_uris": {"android": "https://dc.lft.to/lastmile_qr_scan", "ios": "https://dc.lft.to/lastmile_qr_scan"}, "fusion_lon": 0.0}, {"lat": 38.862572166666666, "is_disabled": 0, "type": "electric_scooter", "lon": -76.986946, "bike_id": "f496d260bfcc4f996b19416a8e4910c8", "fusion_lat": 0.0, "name": "f496d260bfcc4f996b19416a8e4910c8", "is_reserved": 0, "rental_uris": {"android": "https://dc.lft.to/lastmile_qr_scan", "ios": "https://dc.lft.to/lastmile_qr_scan"}, "fusion_lon": 0.0}, {"lat": 38.902520333333335, "is_disabled": 0, "type": "electric_scooter", "lon": -77.0183385, "bike_id": "44179a7e68fd629ff6103341323d4101", "fusion_lat": 0.0, "name": "44179a7e68fd629ff6103341323d4101", "is_reserved": 0, "rental_uris": {"android": "https://dc.lft.to/lastmile_qr_scan", "ios": "https://dc.lft.to/lastmile_qr_scan"}, "fusion_lon": 0.0}, {"lat": 38.9321, "is_disabled": 0, "type": "electric_scooter", "lon": -77.08490516666667, "bike_id": "c0115ee6d08dc65148cc70f9ce3f16e4", "fusion_lat": 0.0, "name": "c0115ee6d08dc65148cc70f9ce3f16e4", "is_reserved": 0, "rental_uris": {"android": "https://dc.lft.to/lastmile_qr_scan", "ios": "https://dc.lft.to/lastmile_qr_scan"}, "fusion_lon": 0.0}, {"lat": 38.90704783333334, "is_disabled": 0, "type": "electric_scooter", "lon": -76.98696966666667, "bike_id": "344424f0158abbb8ee29fb32e8254356", "fusion_lat": 0.0, "name": "344424f0158abbb8ee29fb32e8254356", "is_reserved": 0, "rental_uris": {"android": "https://dc.lft.to/lastmile_qr_scan", "ios": "https://dc.lft.to/lastmile_qr_scan"}, "fusion_lon": 0.0}, {"lat": 38.893548333333335, "is_disabled": 0, "type": "electric_scooter", "lon": -77.04136583333333, "bike_id": "021e0b8e436760453be6ebd871e4a8e9", "fusion_lat": 0.0, "name": "021e0b8e436760453be6ebd871e4a8e9", "is_reserved": 0, "rental_uris": {"android": "https://dc.lft.to/lastmile_qr_scan", "ios": "https://dc.lft.to/lastmile_qr_scan"}, "fusion_lon": 0.0}, {"lat": 38.92851116666667, "is_disabled": 0, "type": "electric_bike", "lon": -77.10675366666666, "bike_id": "841078a846e654864ad01f668b87ce01", "fusion_lat": 0.0, "name": "841078a846e654864ad01f668b87ce01", "is_reserved": 0, "rental_uris": {"android": "https://dc.lft.to/lastmile_qr_scan", "ios": "https://dc.lft.to/lastmile_qr_scan"}, "fusion_lon": 0.0}, {"lat": 38.91486533333333, "is_disabled": 0, "type": "electric_scooter", "lon": -77.03257816666667, "bike_id": "46b639a15af73924b8c24bf7eb4d2e60", "fusion_lat": 0.0, "name": "46b639a15af73924b8c24bf7eb4d2e60", "is_reserved": 0, "rental_uris": {"android": "https://dc.lft.to/lastmile_qr_scan", "ios": "https://dc.lft.to/lastmile_qr_scan"}, "fusion_lon": 0.0}, {"lat": 38.89924633333333, "is_disabled": 0, "type": "electric_scooter", "lon": -77.00357583333333, "bike_id": "f7cd9cb9784fcd53e11e1b8cdb1f7cce", "fusion_lat": 0.0, "name": "f7cd9cb9784fcd53e11e1b8cdb1f7cce", "is_reserved": 0, "rental_uris": {"android": "https://dc.lft.to/lastmile_qr_scan", "ios": "https://dc.lft.to/lastmile_qr_scan"}, "fusion_lon": 0.0}, {"lat": 38.925271, "is_disabled": 0, "type": "electric_scooter", "lon": -77.04430983333333, "bike_id": "7e55623f0398feb88a1159e9ab63a255", "fusion_lat": 0.0, "name": "7e55623f0398feb88a1159e9ab63a255", "is_reserved": 0, "rental_uris": {"android": "https://dc.lft.to/lastmile_qr_scan", "ios": "https://dc.lft.to/lastmile_qr_scan"}, "fusion_lon": 0.0}, {"lat": 38.91692916666667, "is_disabled": 0, "type": "electric_scooter", "lon": -77.03716566666667, "bike_id": "3ee1b76fcc8daacb08afe46904be3c8c", "fusion_lat": 0.0, "name": "3ee1b76fcc8daacb08afe46904be3c8c", "is_reserved": 0, "rental_uris": {"android": "https://dc.lft.to/lastmile_qr_scan", "ios": "https://dc.lft.to/lastmile_qr_scan"}, "fusion_lon": 0.0}, {"lat": 38.932044833333336, "is_disabled": 0, "type": "electric_scooter", "lon": -77.03655716666667, "bike_id": "20c0c2a476e84973e4cdb87eb210b08c", "fusion_lat": 0.0, "name": "20c0c2a476e84973e4cdb87eb210b08c", "is_reserved": 0, "rental_uris": {"android": "https://dc.lft.to/lastmile_qr_scan", "ios": "https://dc.lft.to/lastmile_qr_scan"}, "fusion_lon": 0.0}, {"lat": 38.900324499999996, "is_disabled": 0, "type": "electric_scooter", "lon": -76.99372433333333, "bike_id": "104937a21acebd842037d4d659eed696", "fusion_lat": 0.0, "name": "104937a21acebd842037d4d659eed696", "is_reserved": 0, "rental_uris": {"android": "https://dc.lft.to/lastmile_qr_scan", "ios": "https://dc.lft.to/lastmile_qr_scan"}, "fusion_lon": 0.0}, {"lat": 38.92257733333334, "is_disabled": 0, "type": "electric_scooter", "lon": -77.0429565, "bike_id": "b24c168474987e3751818d40733f45c6", "fusion_lat": 0.0, "name": "b24c168474987e3751818d40733f45c6", "is_reserved": 0, "rental_uris": {"android": "https://dc.lft.to/lastmile_qr_scan", "ios": "https://dc.lft.to/lastmile_qr_scan"}, "fusion_lon": 0.0}, {"lat": 38.93643433333333, "is_disabled": 0, "type": "electric_scooter", "lon": -77.02483883333333, "bike_id": "4e624e9b3b6724f24c229fe998f46d28", "fusion_lat": 0.0, "name": "4e624e9b3b6724f24c229fe998f46d28", "is_reserved": 0, "rental_uris": {"android": "https://dc.lft.to/lastmile_qr_scan", "ios": "https://dc.lft.to/lastmile_qr_scan"}, "fusion_lon": 0.0}, {"lat": 38.880151166666664, "is_disabled": 0, "type": "electric_scooter", "lon": -77.0247685, "bike_id": "f7df4d22366f8c2adc2b7c1af35d6f80", "fusion_lat": 0.0, "name": "f7df4d22366f8c2adc2b7c1af35d6f80", "is_reserved": 0, "rental_uris": {"android": "https://dc.lft.to/lastmile_qr_scan", "ios": "https://dc.lft.to/lastmile_qr_scan"}, "fusion_lon": 0.0}, {"lat": 38.88471466666667, "is_disabled": 0, "type": "electric_scooter", "lon": -77.02407033333333, "bike_id": "57f54d5b38b41f43ca0f69e7b6ad07b9", "fusion_lat": 0.0, "name": "57f54d5b38b41f43ca0f69e7b6ad07b9", "is_reserved": 0, "rental_uris": {"android": "https://dc.lft.to/lastmile_qr_scan", "ios": "https://dc.lft.to/lastmile_qr_scan"}, "fusion_lon": 0.0}, {"lat": 38.865073333333335, "is_disabled": 0, "type": "electric_scooter", "lon": -76.99006066666666, "bike_id": "d98ef2cb531da6d8e9bba4bc4aa20b78", "fusion_lat": 0.0, "name": "d98ef2cb531da6d8e9bba4bc4aa20b78", "is_reserved": 0, "rental_uris": {"android": "https://dc.lft.to/lastmile_qr_scan", "ios": "https://dc.lft.to/lastmile_qr_scan"}, "fusion_lon": 0.0}, {"lat": 38.9055955, "is_disabled": 0, "type": "electric_scooter", "lon": -76.99872783333333, "bike_id": "31c2fdf9993bca62fc655c40eca1ea6c", "fusion_lat": 0.0, "name": "31c2fdf9993bca62fc655c40eca1ea6c", "is_reserved": 0, "rental_uris": {"android": "https://dc.lft.to/lastmile_qr_scan", "ios": "https://dc.lft.to/lastmile_qr_scan"}, "fusion_lon": 0.0}, {"lat": 38.90369583333333, "is_disabled": 0, "type": "electric_scooter", "lon": -77.02897816666666, "bike_id": "36e1750bbbf3bff6b034a027ff8a843d", "fusion_lat": 0.0, "name": "36e1750bbbf3bff6b034a027ff8a843d", "is_reserved": 0, "rental_uris": {"android": "https://dc.lft.to/lastmile_qr_scan", "ios": "https://dc.lft.to/lastmile_qr_scan"}, "fusion_lon": 0.0}, {"lat": 38.867109666666664, "is_disabled": 0, "type": "electric_scooter", "lon": -76.9872355, "bike_id": "ddd68ee0c4f86f05d58447ffd31a4974", "fusion_lat": 0.0, "name": "ddd68ee0c4f86f05d58447ffd31a4974", "is_reserved": 0, "rental_uris": {"android": "https://dc.lft.to/lastmile_qr_scan", "ios": "https://dc.lft.to/lastmile_qr_scan"}, "fusion_lon": 0.0}, {"lat": 38.90234916666667, "is_disabled": 0, "type": "electric_scooter", "lon": -77.00063733333333, "bike_id": "98d2f0ac5f9aac77112ccfeb75ff09ec", "fusion_lat": 0.0, "name": "98d2f0ac5f9aac77112ccfeb75ff09ec", "is_reserved": 0, "rental_uris": {"android": "https://dc.lft.to/lastmile_qr_scan", "ios": "https://dc.lft.to/lastmile_qr_scan"}, "fusion_lon": 0.0}, {"lat": 38.90772783333333, "is_disabled": 0, "type": "electric_scooter", "lon": -77.03860033333333, "bike_id": "43f4ef392aab4109d2eafa842de247e5", "fusion_lat": 0.0, "name": "43f4ef392aab4109d2eafa842de247e5", "is_reserved": 0, "rental_uris": {"android": "https://dc.lft.to/lastmile_qr_scan", "ios": "https://dc.lft.to/lastmile_qr_scan"}, "fusion_lon": 0.0}, {"lat": 38.90578883333333, "is_disabled": 0, "type": "electric_scooter", "lon": -77.0088255, "bike_id": "f280315ccd969ffd9f5ab774454cc0d7", "fusion_lat": 0.0, "name": "f280315ccd969ffd9f5ab774454cc0d7", "is_reserved": 0, "rental_uris": {"android": "https://dc.lft.to/lastmile_qr_scan", "ios": "https://dc.lft.to/lastmile_qr_scan"}, "fusion_lon": 0.0}, {"lat": 38.90649483333333, "is_disabled": 0, "type": "electric_scooter", "lon": -77.05317983333333, "bike_id": "b6ff53df4cc3c38171ee2bf28129431d", "fusion_lat": 0.0, "name": "b6ff53df4cc3c38171ee2bf28129431d", "is_reserved": 0, "rental_uris": {"android": "https://dc.lft.to/lastmile_qr_scan", "ios": "https://dc.lft.to/lastmile_qr_scan"}, "fusion_lon": 0.0}, {"lat": 38.885343, "is_disabled": 0, "type": "electric_scooter", "lon": -76.99822416666666, "bike_id": "b053b1a1b2c7966ce0bcabf7eb2732c8", "fusion_lat": 0.0, "name": "b053b1a1b2c7966ce0bcabf7eb2732c8", "is_reserved": 0, "rental_uris": {"android": "https://dc.lft.to/lastmile_qr_scan", "ios": "https://dc.lft.to/lastmile_qr_scan"}, "fusion_lon": 0.0}, {"lat": 38.9068325, "is_disabled": 0, "type": "electric_scooter", "lon": -77.03846066666667, "bike_id": "807994c4aa58d4216bb7ba48180d7694", "fusion_lat": 0.0, "name": "807994c4aa58d4216bb7ba48180d7694", "is_reserved": 0, "rental_uris": {"android": "https://dc.lft.to/lastmile_qr_scan", "ios": "https://dc.lft.to/lastmile_qr_scan"}, "fusion_lon": 0.0}, {"lat": 38.86892616666667, "is_disabled": 0, "type": "electric_scooter", "lon": -76.983128, "bike_id": "32bad8bec117368bf0a26665f9c4929b", "fusion_lat": 0.0, "name": "32bad8bec117368bf0a26665f9c4929b", "is_reserved": 0, "rental_uris": {"android": "https://dc.lft.to/lastmile_qr_scan", "ios": "https://dc.lft.to/lastmile_qr_scan"}, "fusion_lon": 0.0}, {"lat": 38.898952333333334, "is_disabled": 0, "type": "electric_scooter", "lon": -76.99727, "bike_id": "b3fdaa1642e1d954adbaad9e8889b79e", "fusion_lat": 0.0, "name": "b3fdaa1642e1d954adbaad9e8889b79e", "is_reserved": 0, "rental_uris": {"android": "https://dc.lft.to/lastmile_qr_scan", "ios": "https://dc.lft.to/lastmile_qr_scan"}, "fusion_lon": 0.0}, {"lat": 38.90293333333334, "is_disabled": 0, "type": "electric_scooter", "lon": -77.002105, "bike_id": "02ac2455b2b85cc59e57081be2bcdaaa", "fusion_lat": 0.0, "name": "02ac2455b2b85cc59e57081be2bcdaaa", "is_reserved": 0, "rental_uris": {"android": "https://dc.lft.to/lastmile_qr_scan", "ios": "https://dc.lft.to/lastmile_qr_scan"}, "fusion_lon": 0.0}, {"lat": 38.902176833333336, "is_disabled": 0, "type": "electric_scooter", "lon": -76.9459005, "bike_id": "27cc348aa3236c403badde6f26f4b849", "fusion_lat": 0.0, "name": "27cc348aa3236c403badde6f26f4b849", "is_reserved": 0, "rental_uris": {"android": "https://dc.lft.to/lastmile_qr_scan", "ios": "https://dc.lft.to/lastmile_qr_scan"}, "fusion_lon": 0.0}, {"lat": 38.90144016666667, "is_disabled": 0, "type": "electric_scooter", "lon": -77.0398755, "bike_id": "f0205cb893cc35d49333f9c13c5fd078", "fusion_lat": 0.0, "name": "f0205cb893cc35d49333f9c13c5fd078", "is_reserved": 0, "rental_uris": {"android": "https://dc.lft.to/lastmile_qr_scan", "ios": "https://dc.lft.to/lastmile_qr_scan"}, "fusion_lon": 0.0}, {"lat": 38.923693666666665, "is_disabled": 0, "type": "electric_scooter", "lon": -77.0517535, "bike_id": "e38b6e49e534ab283c5ef52cf1691934", "fusion_lat": 0.0, "name": "e38b6e49e534ab283c5ef52cf1691934", "is_reserved": 0, "rental_uris": {"android": "https://dc.lft.to/lastmile_qr_scan", "ios": "https://dc.lft.to/lastmile_qr_scan"}, "fusion_lon": 0.0}, {"lat": 38.9472035, "is_disabled": 0, "type": "electric_scooter", "lon": -77.022609, "bike_id": "4c734a7504cc338488ac061b3d40019e", "fusion_lat": 0.0, "name": "4c734a7504cc338488ac061b3d40019e", "is_reserved": 0, "rental_uris": {"android": "https://dc.lft.to/lastmile_qr_scan", "ios": "https://dc.lft.to/lastmile_qr_scan"}, "fusion_lon": 0.0}, {"lat": 38.9196125, "is_disabled": 0, "type": "electric_bike", "lon": -76.97267316666667, "bike_id": "55e5116726abfa744d79c2c08baaac82", "fusion_lat": 0.0, "name": "55e5116726abfa744d79c2c08baaac82", "is_reserved": 0, "rental_uris": {"android": "https://dc.lft.to/lastmile_qr_scan", "ios": "https://dc.lft.to/lastmile_qr_scan"}, "fusion_lon": 0.0}, {"lat": 38.93011083333333, "is_disabled": 0, "type": "electric_bike", "lon": -77.21649316666667, "bike_id": "d812a39ef5e035ef2ff4b8bd8cab37e9", "fusion_lat": 0.0, "name": "d812a39ef5e035ef2ff4b8bd8cab37e9", "is_reserved": 0, "rental_uris": {"android": "https://dc.lft.to/lastmile_qr_scan", "ios": "https://dc.lft.to/lastmile_qr_scan"}, "fusion_lon": 0.0}, {"lat": 38.9120365, "is_disabled": 0, "type": "electric_scooter", "lon": -77.02757533333333, "bike_id": "9bb82d2c0ccd825b2d3e22535f5d95d1", "fusion_lat": 0.0, "name": "9bb82d2c0ccd825b2d3e22535f5d95d1", "is_reserved": 0, "rental_uris": {"android": "https://dc.lft.to/lastmile_qr_scan", "ios": "https://dc.lft.to/lastmile_qr_scan"}, "fusion_lon": 0.0}, {"lat": 38.91425983333333, "is_disabled": 0, "type": "electric_scooter", "lon": -77.00504583333333, "bike_id": "cfbd11c25e4320724298b77b2421b785", "fusion_lat": 0.0, "name": "cfbd11c25e4320724298b77b2421b785", "is_reserved": 0, "rental_uris": {"android": "https://dc.lft.to/lastmile_qr_scan", "ios": "https://dc.lft.to/lastmile_qr_scan"}, "fusion_lon": 0.0}, {"lat": 38.928531166666666, "is_disabled": 0, "type": "electric_scooter", "lon": -77.03728866666667, "bike_id": "fd55a97c9b5a13f8e931e50a50c7ddc8", "fusion_lat": 0.0, "name": "fd55a97c9b5a13f8e931e50a50c7ddc8", "is_reserved": 0, "rental_uris": {"android": "https://dc.lft.to/lastmile_qr_scan", "ios": "https://dc.lft.to/lastmile_qr_scan"}, "fusion_lon": 0.0}, {"lat": 38.897096833333336, "is_disabled": 0, "type": "electric_scooter", "lon": -77.0084205, "bike_id": "9d015f6541fb5ad1d457d09938ff4761", "fusion_lat": 0.0, "name": "9d015f6541fb5ad1d457d09938ff4761", "is_reserved": 0, "rental_uris": {"android": "https://dc.lft.to/lastmile_qr_scan", "ios": "https://dc.lft.to/lastmile_qr_scan"}, "fusion_lon": 0.0}, {"lat": 38.932567166666665, "is_disabled": 0, "type": "electric_scooter", "lon": -77.03461833333333, "bike_id": "24495f45607d60af2675cf79a804b0ec", "fusion_lat": 0.0, "name": "24495f45607d60af2675cf79a804b0ec", "is_reserved": 0, "rental_uris": {"android": "https://dc.lft.to/lastmile_qr_scan", "ios": "https://dc.lft.to/lastmile_qr_scan"}, "fusion_lon": 0.0}, {"lat": 38.930175, "is_disabled": 0, "type": "electric_scooter", "lon": -77.04451083333333, "bike_id": "a7a6049b058a13cf9e5e3fcb200a43f4", "fusion_lat": 0.0, "name": "a7a6049b058a13cf9e5e3fcb200a43f4", "is_reserved": 0, "rental_uris": {"android": "https://dc.lft.to/lastmile_qr_scan", "ios": "https://dc.lft.to/lastmile_qr_scan"}, "fusion_lon": 0.0}, {"lat": 38.91117666666667, "is_disabled": 0, "type": "electric_scooter", "lon": -77.03724566666666, "bike_id": "bf8a8ae722776947a69335192a4ac0ae", "fusion_lat": 0.0, "name": "bf8a8ae722776947a69335192a4ac0ae", "is_reserved": 0, "rental_uris": {"android": "https://dc.lft.to/lastmile_qr_scan", "ios": "https://dc.lft.to/lastmile_qr_scan"}, "fusion_lon": 0.0}, {"lat": 38.91406933333333, "is_disabled": 0, "type": "electric_scooter", "lon": -77.03155116666667, "bike_id": "035f018a6fd2a6e74289446dbdc4bb64", "fusion_lat": 0.0, "name": "035f018a6fd2a6e74289446dbdc4bb64", "is_reserved": 0, "rental_uris": {"android": "https://dc.lft.to/lastmile_qr_scan", "ios": "https://dc.lft.to/lastmile_qr_scan"}, "fusion_lon": 0.0}, {"lat": 38.89699383333333, "is_disabled": 0, "type": "electric_scooter", "lon": -77.04877883333333, "bike_id": "47414f89625cc1e405dc150faabc443c", "fusion_lat": 0.0, "name": "47414f89625cc1e405dc150faabc443c", "is_reserved": 0, "rental_uris": {"android": "https://dc.lft.to/lastmile_qr_scan", "ios": "https://dc.lft.to/lastmile_qr_scan"}, "fusion_lon": 0.0}, {"lat": 38.94351366666667, "is_disabled": 0, "type": "electric_scooter", "lon": -77.00213783333334, "bike_id": "c8a4391d7076cc789aafc4b664a5887e", "fusion_lat": 0.0, "name": "c8a4391d7076cc789aafc4b664a5887e", "is_reserved": 0, "rental_uris": {"android": "https://dc.lft.to/lastmile_qr_scan", "ios": "https://dc.lft.to/lastmile_qr_scan"}, "fusion_lon": 0.0}, {"lat": 38.90858633333333, "is_disabled": 0, "type": "electric_scooter", "lon": -76.99788033333333, "bike_id": "70c6105713fe2b0b8cd8542781f760e3", "fusion_lat": 0.0, "name": "70c6105713fe2b0b8cd8542781f760e3", "is_reserved": 0, "rental_uris": {"android": "https://dc.lft.to/lastmile_qr_scan", "ios": "https://dc.lft.to/lastmile_qr_scan"}, "fusion_lon": 0.0}, {"lat": 38.895527333333334, "is_disabled": 0, "type": "electric_scooter", "lon": -77.00918433333334, "bike_id": "2b0135b6a66e6455ff1701597280b22b", "fusion_lat": 0.0, "name": "2b0135b6a66e6455ff1701597280b22b", "is_reserved": 0, "rental_uris": {"android": "https://dc.lft.to/lastmile_qr_scan", "ios": "https://dc.lft.to/lastmile_qr_scan"}, "fusion_lon": 0.0}, {"lat": 38.93115483333333, "is_disabled": 0, "type": "electric_scooter", "lon": -77.030256, "bike_id": "a0e15a87df2c25a8335e618d2d0b761b", "fusion_lat": 0.0, "name": "a0e15a87df2c25a8335e618d2d0b761b", "is_reserved": 0, "rental_uris": {"android": "https://dc.lft.to/lastmile_qr_scan", "ios": "https://dc.lft.to/lastmile_qr_scan"}, "fusion_lon": 0.0}, {"lat": 38.915305833333335, "is_disabled": 0, "type": "electric_scooter", "lon": -77.03192616666666, "bike_id": "101b46df730aeb76c9b0fbe1e3d00bea", "fusion_lat": 0.0, "name": "101b46df730aeb76c9b0fbe1e3d00bea", "is_reserved": 0, "rental_uris": {"android": "https://dc.lft.to/lastmile_qr_scan", "ios": "https://dc.lft.to/lastmile_qr_scan"}, "fusion_lon": 0.0}, {"lat": 38.93569883333333, "is_disabled": 0, "type": "electric_scooter", "lon": -77.03260283333333, "bike_id": "d2ec08676126668c2ba5cb43ba23ef81", "fusion_lat": 0.0, "name": "d2ec08676126668c2ba5cb43ba23ef81", "is_reserved": 0, "rental_uris": {"android": "https://dc.lft.to/lastmile_qr_scan", "ios": "https://dc.lft.to/lastmile_qr_scan"}, "fusion_lon": 0.0}, {"lat": 38.8773295, "is_disabled": 0, "type": "electric_scooter", "lon": -77.002921, "bike_id": "1073ab869686ba28c7df6fde5a56e8b6", "fusion_lat": 0.0, "name": "1073ab869686ba28c7df6fde5a56e8b6", "is_reserved": 0, "rental_uris": {"android": "https://dc.lft.to/lastmile_qr_scan", "ios": "https://dc.lft.to/lastmile_qr_scan"}, "fusion_lon": 0.0}, {"lat": 38.9329585, "is_disabled": 0, "type": "electric_scooter", "lon": -77.04532766666667, "bike_id": "9ace6092ae9197c7514867a51b2cde0a", "fusion_lat": 0.0, "name": "9ace6092ae9197c7514867a51b2cde0a", "is_reserved": 0, "rental_uris": {"android": "https://dc.lft.to/lastmile_qr_scan", "ios": "https://dc.lft.to/lastmile_qr_scan"}, "fusion_lon": 0.0}, {"lat": 38.914614666666665, "is_disabled": 0, "type": "electric_scooter", "lon": -77.01428483333333, "bike_id": "49b5f4018abc487d0b9bce9f66a0814b", "fusion_lat": 0.0, "name": "49b5f4018abc487d0b9bce9f66a0814b", "is_reserved": 0, "rental_uris": {"android": "https://dc.lft.to/lastmile_qr_scan", "ios": "https://dc.lft.to/lastmile_qr_scan"}, "fusion_lon": 0.0}, {"lat": 38.882079166666664, "is_disabled": 0, "type": "electric_scooter", "lon": -76.98922283333333, "bike_id": "03608ab525b13f1fe9f65bd3269df46d", "fusion_lat": 0.0, "name": "03608ab525b13f1fe9f65bd3269df46d", "is_reserved": 0, "rental_uris": {"android": "https://dc.lft.to/lastmile_qr_scan", "ios": "https://dc.lft.to/lastmile_qr_scan"}, "fusion_lon": 0.0}, {"lat": 38.87075933333333, "is_disabled": 0, "type": "electric_bike", "lon": -76.9783515, "bike_id": "89bd77f3f90b8b2a3193c648a399e4c2", "fusion_lat": 0.0, "name": "89bd77f3f90b8b2a3193c648a399e4c2", "is_reserved": 0, "rental_uris": {"android": "https://dc.lft.to/lastmile_qr_scan", "ios": "https://dc.lft.to/lastmile_qr_scan"}, "fusion_lon": 0.0}, {"lat": 38.88802333333334, "is_disabled": 0, "type": "electric_scooter", "lon": -76.9336055, "bike_id": "11bd01edff93041a23a1f0253d34702d", "fusion_lat": 0.0, "name": "11bd01edff93041a23a1f0253d34702d", "is_reserved": 0, "rental_uris": {"android": "https://dc.lft.to/lastmile_qr_scan", "ios": "https://dc.lft.to/lastmile_qr_scan"}, "fusion_lon": 0.0}, {"lat": 38.94893966666667, "is_disabled": 0, "type": "electric_scooter", "lon": -77.03045616666667, "bike_id": "ccc271b84e4dae48bd22d5efbf251429", "fusion_lat": 0.0, "name": "ccc271b84e4dae48bd22d5efbf251429", "is_reserved": 0, "rental_uris": {"android": "https://dc.lft.to/lastmile_qr_scan", "ios": "https://dc.lft.to/lastmile_qr_scan"}, "fusion_lon": 0.0}, {"lat": 38.972281333333335, "is_disabled": 0, "type": "electric_bike", "lon": -76.99343833333333, "bike_id": "63a50639f4a4a110ff823e02b882cb94", "fusion_lat": 0.0, "name": "63a50639f4a4a110ff823e02b882cb94", "is_reserved": 0, "rental_uris": {"android": "https://dc.lft.to/lastmile_qr_scan", "ios": "https://dc.lft.to/lastmile_qr_scan"}, "fusion_lon": 0.0}, {"lat": 38.903209, "is_disabled": 0, "type": "electric_scooter", "lon": -77.037602, "bike_id": "86e93fe50c23c24f3ff71d36ee055e3b", "fusion_lat": 0.0, "name": "86e93fe50c23c24f3ff71d36ee055e3b", "is_reserved": 0, "rental_uris": {"android": "https://dc.lft.to/lastmile_qr_scan", "ios": "https://dc.lft.to/lastmile_qr_scan"}, "fusion_lon": 0.0}, {"lat": 38.9224025, "is_disabled": 0, "type": "electric_scooter", "lon": -77.04569683333334, "bike_id": "a9686c67e2fb7ced3b4a577c584b89de", "fusion_lat": 0.0, "name": "a9686c67e2fb7ced3b4a577c584b89de", "is_reserved": 0, "rental_uris": {"android": "https://dc.lft.to/lastmile_qr_scan", "ios": "https://dc.lft.to/lastmile_qr_scan"}, "fusion_lon": 0.0}, {"lat": 38.9083535, "is_disabled": 0, "type": "electric_scooter", "lon": -76.9968605, "bike_id": "b6abba129a578eaf319ff033d8f8bbcc", "fusion_lat": 0.0, "name": "b6abba129a578eaf319ff033d8f8bbcc", "is_reserved": 0, "rental_uris": {"android": "https://dc.lft.to/lastmile_qr_scan", "ios": "https://dc.lft.to/lastmile_qr_scan"}, "fusion_lon": 0.0}, {"lat": 38.93319866666667, "is_disabled": 0, "type": "electric_scooter", "lon": -77.0452385, "bike_id": "c51bd124d7a1ae27e281cc8902311b0c", "fusion_lat": 0.0, "name": "c51bd124d7a1ae27e281cc8902311b0c", "is_reserved": 0, "rental_uris": {"android": "https://dc.lft.to/lastmile_qr_scan", "ios": "https://dc.lft.to/lastmile_qr_scan"}, "fusion_lon": 0.0}, {"lat": 38.894986, "is_disabled": 0, "type": "electric_scooter", "lon": -77.00209916666667, "bike_id": "62ae0514dd7406462bac45a00d4c204e", "fusion_lat": 0.0, "name": "62ae0514dd7406462bac45a00d4c204e", "is_reserved": 0, "rental_uris": {"android": "https://dc.lft.to/lastmile_qr_scan", "ios": "https://dc.lft.to/lastmile_qr_scan"}, "fusion_lon": 0.0}, {"lat": 38.94421, "is_disabled": 0, "type": "electric_scooter", "lon": -77.06265983333333, "bike_id": "f80a008d357593a1a1c59c7f5332fbe1", "fusion_lat": 0.0, "name": "f80a008d357593a1a1c59c7f5332fbe1", "is_reserved": 0, "rental_uris": {"android": "https://dc.lft.to/lastmile_qr_scan", "ios": "https://dc.lft.to/lastmile_qr_scan"}, "fusion_lon": 0.0}, {"lat": 38.920312, "is_disabled": 0, "type": "electric_scooter", "lon": -77.01323833333333, "bike_id": "57851b291f8e6d711cae3a2d66c1705e", "fusion_lat": 0.0, "name": "57851b291f8e6d711cae3a2d66c1705e", "is_reserved": 0, "rental_uris": {"android": "https://dc.lft.to/lastmile_qr_scan", "ios": "https://dc.lft.to/lastmile_qr_scan"}, "fusion_lon": 0.0}, {"lat": 38.926207166666664, "is_disabled": 0, "type": "electric_scooter", "lon": -77.04187033333334, "bike_id": "75ed622afef8d960fb433f06adab1aa2", "fusion_lat": 0.0, "name": "75ed622afef8d960fb433f06adab1aa2", "is_reserved": 0, "rental_uris": {"android": "https://dc.lft.to/lastmile_qr_scan", "ios": "https://dc.lft.to/lastmile_qr_scan"}, "fusion_lon": 0.0}, {"lat": 38.89619883333334, "is_disabled": 0, "type": "electric_scooter", "lon": -77.044888, "bike_id": "a6a6f8b1399e9ed4be108599ab9c3c79", "fusion_lat": 0.0, "name": "a6a6f8b1399e9ed4be108599ab9c3c79", "is_reserved": 0, "rental_uris": {"android": "https://dc.lft.to/lastmile_qr_scan", "ios": "https://dc.lft.to/lastmile_qr_scan"}, "fusion_lon": 0.0}, {"lat": 38.936054166666665, "is_disabled": 0, "type": "electric_scooter", "lon": -77.03169733333333, "bike_id": "3da408e3f70d380e7b58686e44fb4cea", "fusion_lat": 0.0, "name": "3da408e3f70d380e7b58686e44fb4cea", "is_reserved": 0, "rental_uris": {"android": "https://dc.lft.to/lastmile_qr_scan", "ios": "https://dc.lft.to/lastmile_qr_scan"}, "fusion_lon": 0.0}, {"lat": 38.918049833333335, "is_disabled": 0, "type": "electric_scooter", "lon": -77.0249065, "bike_id": "a5838a4e2ad4edb1a21c87845103e4a9", "fusion_lat": 0.0, "name": "a5838a4e2ad4edb1a21c87845103e4a9", "is_reserved": 0, "rental_uris": {"android": "https://dc.lft.to/lastmile_qr_scan", "ios": "https://dc.lft.to/lastmile_qr_scan"}, "fusion_lon": 0.0}, {"lat": 38.884950333333336, "is_disabled": 0, "type": "electric_scooter", "lon": -77.00702966666667, "bike_id": "00d5ce48e2423f4f3cb52c5077a0056c", "fusion_lat": 0.0, "name": "00d5ce48e2423f4f3cb52c5077a0056c", "is_reserved": 0, "rental_uris": {"android": "https://dc.lft.to/lastmile_qr_scan", "ios": "https://dc.lft.to/lastmile_qr_scan"}, "fusion_lon": 0.0}, {"lat": 38.94038233333333, "is_disabled": 0, "type": "electric_bike", "lon": -76.9881735, "bike_id": "11ff89af2b757d3b26b368b484c955c7", "fusion_lat": 0.0, "name": "11ff89af2b757d3b26b368b484c955c7", "is_reserved": 0, "rental_uris": {"android": "https://dc.lft.to/lastmile_qr_scan", "ios": "https://dc.lft.to/lastmile_qr_scan"}, "fusion_lon": 0.0}, {"lat": 38.800564, "is_disabled": 0, "type": "electric_bike", "lon": -77.07105433333334, "bike_id": "b5f0aef8839d610782ed5c8be5cb7e08", "fusion_lat": 0.0, "name": "b5f0aef8839d610782ed5c8be5cb7e08", "is_reserved": 0, "rental_uris": {"android": "https://dc.lft.to/lastmile_qr_scan", "ios": "https://dc.lft.to/lastmile_qr_scan"}, "fusion_lon": 0.0}, {"lat": 38.908453333333334, "is_disabled": 0, "type": "electric_scooter", "lon": -77.020552, "bike_id": "16d0e14f61d21d2f6bfdee83d100f547", "fusion_lat": 0.0, "name": "16d0e14f61d21d2f6bfdee83d100f547", "is_reserved": 0, "rental_uris": {"android": "https://dc.lft.to/lastmile_qr_scan", "ios": "https://dc.lft.to/lastmile_qr_scan"}, "fusion_lon": 0.0}, {"lat": 38.9207345, "is_disabled": 0, "type": "electric_scooter", "lon": -77.02536866666667, "bike_id": "3e3e70cffcefab72be2c0e22146e9282", "fusion_lat": 0.0, "name": "3e3e70cffcefab72be2c0e22146e9282", "is_reserved": 0, "rental_uris": {"android": "https://dc.lft.to/lastmile_qr_scan", "ios": "https://dc.lft.to/lastmile_qr_scan"}, "fusion_lon": 0.0}, {"lat": 38.95629616666667, "is_disabled": 0, "type": "electric_bike", "lon": -77.02294383333333, "bike_id": "2a3024d39a221a3f44fcbdc65cd7baef", "fusion_lat": 0.0, "name": "2a3024d39a221a3f44fcbdc65cd7baef", "is_reserved": 0, "rental_uris": {"android": "https://dc.lft.to/lastmile_qr_scan", "ios": "https://dc.lft.to/lastmile_qr_scan"}, "fusion_lon": 0.0}, {"lat": 38.86658383333334, "is_disabled": 0, "type": "electric_scooter", "lon": -76.98882233333333, "bike_id": "e7d48fcdf66d8ee3fc177599846ad015", "fusion_lat": 0.0, "name": "e7d48fcdf66d8ee3fc177599846ad015", "is_reserved": 0, "rental_uris": {"android": "https://dc.lft.to/lastmile_qr_scan", "ios": "https://dc.lft.to/lastmile_qr_scan"}, "fusion_lon": 0.0}, {"lat": 38.906357, "is_disabled": 0, "type": "electric_scooter", "lon": -77.02498883333334, "bike_id": "7d7972ee491271754e8d28cfde5c2b77", "fusion_lat": 0.0, "name": "7d7972ee491271754e8d28cfde5c2b77", "is_reserved": 0, "rental_uris": {"android": "https://dc.lft.to/lastmile_qr_scan", "ios": "https://dc.lft.to/lastmile_qr_scan"}, "fusion_lon": 0.0}, {"lat": 38.92552116666667, "is_disabled": 0, "type": "electric_scooter", "lon": -77.03220483333334, "bike_id": "f4cb056c685badafa015954812ad6751", "fusion_lat": 0.0, "name": "f4cb056c685badafa015954812ad6751", "is_reserved": 0, "rental_uris": {"android": "https://dc.lft.to/lastmile_qr_scan", "ios": "https://dc.lft.to/lastmile_qr_scan"}, "fusion_lon": 0.0}, {"lat": 38.80226716666667, "is_disabled": 0, "type": "electric_bike", "lon": -77.0791235, "bike_id": "85253fde5cfc0963a7cd9c509afb399b", "fusion_lat": 0.0, "name": "85253fde5cfc0963a7cd9c509afb399b", "is_reserved": 0, "rental_uris": {"android": "https://dc.lft.to/lastmile_qr_scan", "ios": "https://dc.lft.to/lastmile_qr_scan"}, "fusion_lon": 0.0}, {"lat": 38.87373016666667, "is_disabled": 0, "type": "electric_scooter", "lon": -77.00902283333333, "bike_id": "eb354ca780cc9ea24acc65ef3d5b75cd", "fusion_lat": 0.0, "name": "eb354ca780cc9ea24acc65ef3d5b75cd", "is_reserved": 0, "rental_uris": {"android": "https://dc.lft.to/lastmile_qr_scan", "ios": "https://dc.lft.to/lastmile_qr_scan"}, "fusion_lon": 0.0}, {"lat": 38.922366, "is_disabled": 0, "type": "electric_scooter", "lon": -77.04354933333333, "bike_id": "89a33d203b275374b20b3791f18eeee0", "fusion_lat": 0.0, "name": "89a33d203b275374b20b3791f18eeee0", "is_reserved": 0, "rental_uris": {"android": "https://dc.lft.to/lastmile_qr_scan", "ios": "https://dc.lft.to/lastmile_qr_scan"}, "fusion_lon": 0.0}, {"lat": 38.90316633333333, "is_disabled": 0, "type": "electric_bike", "lon": -77.06269683333333, "bike_id": "f356ae63ffff7efdd37e043be9c68f8e", "fusion_lat": 0.0, "name": "f356ae63ffff7efdd37e043be9c68f8e", "is_reserved": 0, "rental_uris": {"android": "https://dc.lft.to/lastmile_qr_scan", "ios": "https://dc.lft.to/lastmile_qr_scan"}, "fusion_lon": 0.0}, {"lat": 38.9201475, "is_disabled": 0, "type": "electric_scooter", "lon": -77.02525066666666, "bike_id": "a32b37de17c8f0f623c60914e8dd2624", "fusion_lat": 0.0, "name": "a32b37de17c8f0f623c60914e8dd2624", "is_reserved": 0, "rental_uris": {"android": "https://dc.lft.to/lastmile_qr_scan", "ios": "https://dc.lft.to/lastmile_qr_scan"}, "fusion_lon": 0.0}, {"lat": 38.863671333333336, "is_disabled": 0, "type": "electric_scooter", "lon": -76.9903025, "bike_id": "c1da5a32d4cb390ee4bdc60c00cf0b10", "fusion_lat": 0.0, "name": "c1da5a32d4cb390ee4bdc60c00cf0b10", "is_reserved": 0, "rental_uris": {"android": "https://dc.lft.to/lastmile_qr_scan", "ios": "https://dc.lft.to/lastmile_qr_scan"}, "fusion_lon": 0.0}, {"lat": 38.91929316666667, "is_disabled": 0, "type": "electric_scooter", "lon": -76.97012766666667, "bike_id": "7ea9c63419e0c1ff24f9908035bc5af8", "fusion_lat": 0.0, "name": "7ea9c63419e0c1ff24f9908035bc5af8", "is_reserved": 0, "rental_uris": {"android": "https://dc.lft.to/lastmile_qr_scan", "ios": "https://dc.lft.to/lastmile_qr_scan"}, "fusion_lon": 0.0}, {"lat": 38.90469783333333, "is_disabled": 0, "type": "electric_scooter", "lon": -77.0390645, "bike_id": "f2154ad01124e94ddb508e8672b3f969", "fusion_lat": 0.0, "name": "f2154ad01124e94ddb508e8672b3f969", "is_reserved": 0, "rental_uris": {"android": "https://dc.lft.to/lastmile_qr_scan", "ios": "https://dc.lft.to/lastmile_qr_scan"}, "fusion_lon": 0.0}, {"lat": 38.92852233333333, "is_disabled": 0, "type": "electric_scooter", "lon": -77.01409716666667, "bike_id": "ecdc8eab5b14cb546a504a9f3333e7dd", "fusion_lat": 0.0, "name": "ecdc8eab5b14cb546a504a9f3333e7dd", "is_reserved": 0, "rental_uris": {"android": "https://dc.lft.to/lastmile_qr_scan", "ios": "https://dc.lft.to/lastmile_qr_scan"}, "fusion_lon": 0.0}, {"lat": 38.897191666666664, "is_disabled": 0, "type": "electric_scooter", "lon": -77.00795183333334, "bike_id": "7bdcfa639d9bd3166972a7f8d392ec55", "fusion_lat": 0.0, "name": "7bdcfa639d9bd3166972a7f8d392ec55", "is_reserved": 0, "rental_uris": {"android": "https://dc.lft.to/lastmile_qr_scan", "ios": "https://dc.lft.to/lastmile_qr_scan"}, "fusion_lon": 0.0}, {"lat": 38.887464333333334, "is_disabled": 0, "type": "electric_scooter", "lon": -77.025721, "bike_id": "cfabe01cb162cd1ada7eb2bea09475ed", "fusion_lat": 0.0, "name": "cfabe01cb162cd1ada7eb2bea09475ed", "is_reserved": 0, "rental_uris": {"android": "https://dc.lft.to/lastmile_qr_scan", "ios": "https://dc.lft.to/lastmile_qr_scan"}, "fusion_lon": 0.0}, {"lat": 38.8973905, "is_disabled": 0, "type": "electric_scooter", "lon": -77.04762466666666, "bike_id": "473f240bcf2340ee2d0c2693b53507de", "fusion_lat": 0.0, "name": "473f240bcf2340ee2d0c2693b53507de", "is_reserved": 0, "rental_uris": {"android": "https://dc.lft.to/lastmile_qr_scan", "ios": "https://dc.lft.to/lastmile_qr_scan"}, "fusion_lon": 0.0}, {"lat": 38.850330666666665, "is_disabled": 0, "type": "electric_bike", "lon": -76.9729285, "bike_id": "f4ecc01d3cb9c40c515258881415ef21", "fusion_lat": 0.0, "name": "f4ecc01d3cb9c40c515258881415ef21", "is_reserved": 0, "rental_uris": {"android": "https://dc.lft.to/lastmile_qr_scan", "ios": "https://dc.lft.to/lastmile_qr_scan"}, "fusion_lon": 0.0}, {"lat": 38.90267766666667, "is_disabled": 0, "type": "electric_scooter", "lon": -77.05257966666667, "bike_id": "18a9662ab622274784d00e9f1f69e59b", "fusion_lat": 0.0, "name": "18a9662ab622274784d00e9f1f69e59b", "is_reserved": 0, "rental_uris": {"android": "https://dc.lft.to/lastmile_qr_scan", "ios": "https://dc.lft.to/lastmile_qr_scan"}, "fusion_lon": 0.0}, {"lat": 38.92240616666667, "is_disabled": 0, "type": "electric_scooter", "lon": -77.0457445, "bike_id": "d60c257ca03be2c4c074fac6d5b94241", "fusion_lat": 0.0, "name": "d60c257ca03be2c4c074fac6d5b94241", "is_reserved": 0, "rental_uris": {"android": "https://dc.lft.to/lastmile_qr_scan", "ios": "https://dc.lft.to/lastmile_qr_scan"}, "fusion_lon": 0.0}, {"lat": 38.90828483333333, "is_disabled": 0, "type": "electric_scooter", "lon": -77.063855, "bike_id": "1941bd15c392e7ce5d3e8e5f83200d84", "fusion_lat": 0.0, "name": "1941bd15c392e7ce5d3e8e5f83200d84", "is_reserved": 0, "rental_uris": {"android": "https://dc.lft.to/lastmile_qr_scan", "ios": "https://dc.lft.to/lastmile_qr_scan"}, "fusion_lon": 0.0}, {"lat": 38.91933066666667, "is_disabled": 0, "type": "electric_scooter", "lon": -77.02298383333333, "bike_id": "f78c858d375fbc8e8e1d3d4106ada6bc", "fusion_lat": 0.0, "name": "f78c858d375fbc8e8e1d3d4106ada6bc", "is_reserved": 0, "rental_uris": {"android": "https://dc.lft.to/lastmile_qr_scan", "ios": "https://dc.lft.to/lastmile_qr_scan"}, "fusion_lon": 0.0}, {"lat": 38.90431616666667, "is_disabled": 0, "type": "electric_scooter", "lon": -77.03463633333334, "bike_id": "2fd52fdf4b47f28ebb4a726728bd7ca1", "fusion_lat": 0.0, "name": "2fd52fdf4b47f28ebb4a726728bd7ca1", "is_reserved": 0, "rental_uris": {"android": "https://dc.lft.to/lastmile_qr_scan", "ios": "https://dc.lft.to/lastmile_qr_scan"}, "fusion_lon": 0.0}, {"lat": 38.903429, "is_disabled": 0, "type": "electric_scooter", "lon": -77.05323866666667, "bike_id": "7e89119c60be15b7ad419754ea149637", "fusion_lat": 0.0, "name": "7e89119c60be15b7ad419754ea149637", "is_reserved": 0, "rental_uris": {"android": "https://dc.lft.to/lastmile_qr_scan", "ios": "https://dc.lft.to/lastmile_qr_scan"}, "fusion_lon": 0.0}, {"lat": 38.89043933333333, "is_disabled": 0, "type": "electric_scooter", "lon": -76.93754766666666, "bike_id": "e788b78a352e73f03f561f173d04d0f5", "fusion_lat": 0.0, "name": "e788b78a352e73f03f561f173d04d0f5", "is_reserved": 0, "rental_uris": {"android": "https://dc.lft.to/lastmile_qr_scan", "ios": "https://dc.lft.to/lastmile_qr_scan"}, "fusion_lon": 0.0}, {"lat": 38.90425, "is_disabled": 0, "type": "electric_scooter", "lon": -77.02611733333333, "bike_id": "fb6f85081dbac84a4ee4aa261472cf48", "fusion_lat": 0.0, "name": "fb6f85081dbac84a4ee4aa261472cf48", "is_reserved": 0, "rental_uris": {"android": "https://dc.lft.to/lastmile_qr_scan", "ios": "https://dc.lft.to/lastmile_qr_scan"}, "fusion_lon": 0.0}, {"lat": 38.901411333333336, "is_disabled": 0, "type": "electric_scooter", "lon": -77.00071233333334, "bike_id": "92dea0d2103fe0ff98be14e1754ae61d", "fusion_lat": 0.0, "name": "92dea0d2103fe0ff98be14e1754ae61d", "is_reserved": 0, "rental_uris": {"android": "https://dc.lft.to/lastmile_qr_scan", "ios": "https://dc.lft.to/lastmile_qr_scan"}, "fusion_lon": 0.0}, {"lat": 38.960945, "is_disabled": 0, "type": "electric_scooter", "lon": -77.0828415, "bike_id": "6b0de7a466c741ede7ccc837e4b3738f", "fusion_lat": 0.0, "name": "6b0de7a466c741ede7ccc837e4b3738f", "is_reserved": 0, "rental_uris": {"android": "https://dc.lft.to/lastmile_qr_scan", "ios": "https://dc.lft.to/lastmile_qr_scan"}, "fusion_lon": 0.0}, {"lat": 38.923495833333334, "is_disabled": 0, "type": "electric_bike", "lon": -76.992482, "bike_id": "6e5f4c07b850de599cd7c4fa5fb71c19", "fusion_lat": 0.0, "name": "6e5f4c07b850de599cd7c4fa5fb71c19", "is_reserved": 0, "rental_uris": {"android": "https://dc.lft.to/lastmile_qr_scan", "ios": "https://dc.lft.to/lastmile_qr_scan"}, "fusion_lon": 0.0}, {"lat": 38.922118, "is_disabled": 0, "type": "electric_scooter", "lon": -77.032879, "bike_id": "3c97d0429e9ba886dca0cce47201c079", "fusion_lat": 0.0, "name": "3c97d0429e9ba886dca0cce47201c079", "is_reserved": 0, "rental_uris": {"android": "https://dc.lft.to/lastmile_qr_scan", "ios": "https://dc.lft.to/lastmile_qr_scan"}, "fusion_lon": 0.0}, {"lat": 38.915505833333334, "is_disabled": 0, "type": "electric_scooter", "lon": -77.012297, "bike_id": "6535425ededc131b7ba9783758923673", "fusion_lat": 0.0, "name": "6535425ededc131b7ba9783758923673", "is_reserved": 0, "rental_uris": {"android": "https://dc.lft.to/lastmile_qr_scan", "ios": "https://dc.lft.to/lastmile_qr_scan"}, "fusion_lon": 0.0}, {"lat": 38.93739166666667, "is_disabled": 0, "type": "electric_scooter", "lon": -77.03621166666667, "bike_id": "4356cfd738500fd867c6fa0e24c52e97", "fusion_lat": 0.0, "name": "4356cfd738500fd867c6fa0e24c52e97", "is_reserved": 0, "rental_uris": {"android": "https://dc.lft.to/lastmile_qr_scan", "ios": "https://dc.lft.to/lastmile_qr_scan"}, "fusion_lon": 0.0}, {"lat": 38.890716, "is_disabled": 0, "type": "electric_scooter", "lon": -76.9883605, "bike_id": "340eabea793a19043c35425dce974f21", "fusion_lat": 0.0, "name": "340eabea793a19043c35425dce974f21", "is_reserved": 0, "rental_uris": {"android": "https://dc.lft.to/lastmile_qr_scan", "ios": "https://dc.lft.to/lastmile_qr_scan"}, "fusion_lon": 0.0}, {"lat": 38.85187783333333, "is_disabled": 0, "type": "electric_scooter", "lon": -76.97617183333334, "bike_id": "19f37fe85030f1ff5f579894db7518cf", "fusion_lat": 0.0, "name": "19f37fe85030f1ff5f579894db7518cf", "is_reserved": 0, "rental_uris": {"android": "https://dc.lft.to/lastmile_qr_scan", "ios": "https://dc.lft.to/lastmile_qr_scan"}, "fusion_lon": 0.0}, {"lat": 38.917229, "is_disabled": 0, "type": "electric_scooter", "lon": -77.0229955, "bike_id": "dfe777fbf4988c25a86d8e0f065bd26f", "fusion_lat": 0.0, "name": "dfe777fbf4988c25a86d8e0f065bd26f", "is_reserved": 0, "rental_uris": {"android": "https://dc.lft.to/lastmile_qr_scan", "ios": "https://dc.lft.to/lastmile_qr_scan"}, "fusion_lon": 0.0}, {"lat": 38.844348333333336, "is_disabled": 0, "type": "electric_scooter", "lon": -76.99654933333333, "bike_id": "0621453ac8dbb9f197624a4c3adb178e", "fusion_lat": 0.0, "name": "0621453ac8dbb9f197624a4c3adb178e", "is_reserved": 0, "rental_uris": {"android": "https://dc.lft.to/lastmile_qr_scan", "ios": "https://dc.lft.to/lastmile_qr_scan"}, "fusion_lon": 0.0}, {"lat": 38.94552683333333, "is_disabled": 0, "type": "electric_bike", "lon": -76.89537866666667, "bike_id": "3776c660a2a69e889610d44a04b9895a", "fusion_lat": 0.0, "name": "3776c660a2a69e889610d44a04b9895a", "is_reserved": 0, "rental_uris": {"android": "https://dc.lft.to/lastmile_qr_scan", "ios": "https://dc.lft.to/lastmile_qr_scan"}, "fusion_lon": 0.0}, {"lat": 38.905329, "is_disabled": 0, "type": "electric_scooter", "lon": -77.05714666666667, "bike_id": "e56e981507ebc3106bfb31d429f9af58", "fusion_lat": 0.0, "name": "e56e981507ebc3106bfb31d429f9af58", "is_reserved": 0, "rental_uris": {"android": "https://dc.lft.to/lastmile_qr_scan", "ios": "https://dc.lft.to/lastmile_qr_scan"}, "fusion_lon": 0.0}, {"lat": 38.9365565, "is_disabled": 0, "type": "electric_bike", "lon": -76.95220966666666, "bike_id": "a383cff80872589c6fe16ff2c36e9bde", "fusion_lat": 0.0, "name": "a383cff80872589c6fe16ff2c36e9bde", "is_reserved": 0, "rental_uris": {"android": "https://dc.lft.to/lastmile_qr_scan", "ios": "https://dc.lft.to/lastmile_qr_scan"}, "fusion_lon": 0.0}, {"lat": 39.034246333333336, "is_disabled": 0, "type": "electric_bike", "lon": -77.04304916666666, "bike_id": "10b1e42f6a3619b7fda361a028ef6058", "fusion_lat": 0.0, "name": "10b1e42f6a3619b7fda361a028ef6058", "is_reserved": 0, "rental_uris": {"android": "https://dc.lft.to/lastmile_qr_scan", "ios": "https://dc.lft.to/lastmile_qr_scan"}, "fusion_lon": 0.0}, {"lat": 38.90119683333333, "is_disabled": 0, "type": "electric_scooter", "lon": -77.0435975, "bike_id": "b99c8fc186885af38a344c1a9f237def", "fusion_lat": 0.0, "name": "b99c8fc186885af38a344c1a9f237def", "is_reserved": 0, "rental_uris": {"android": "https://dc.lft.to/lastmile_qr_scan", "ios": "https://dc.lft.to/lastmile_qr_scan"}, "fusion_lon": 0.0}, {"lat": 38.9110965, "is_disabled": 0, "type": "electric_scooter", "lon": -77.0435425, "bike_id": "15d1f4cb8212e050877d6cc3a8abcca8", "fusion_lat": 0.0, "name": "15d1f4cb8212e050877d6cc3a8abcca8", "is_reserved": 0, "rental_uris": {"android": "https://dc.lft.to/lastmile_qr_scan", "ios": "https://dc.lft.to/lastmile_qr_scan"}, "fusion_lon": 0.0}, {"lat": 38.90055316666667, "is_disabled": 0, "type": "electric_scooter", "lon": -77.04898783333333, "bike_id": "c1c9f059cbb527ce120b6d77ef0fe4cd", "fusion_lat": 0.0, "name": "c1c9f059cbb527ce120b6d77ef0fe4cd", "is_reserved": 0, "rental_uris": {"android": "https://dc.lft.to/lastmile_qr_scan", "ios": "https://dc.lft.to/lastmile_qr_scan"}, "fusion_lon": 0.0}, {"lat": 38.906079166666665, "is_disabled": 0, "type": "electric_scooter", "lon": -77.06346316666666, "bike_id": "21e2f1631e9c5036f1549043262ff765", "fusion_lat": 0.0, "name": "21e2f1631e9c5036f1549043262ff765", "is_reserved": 0, "rental_uris": {"android": "https://dc.lft.to/lastmile_qr_scan", "ios": "https://dc.lft.to/lastmile_qr_scan"}, "fusion_lon": 0.0}, {"lat": 38.9925805, "is_disabled": 0, "type": "electric_scooter", "lon": -77.03652766666667, "bike_id": "a1b6fbe5ef4c6232a6041dbfdeb64935", "fusion_lat": 0.0, "name": "a1b6fbe5ef4c6232a6041dbfdeb64935", "is_reserved": 0, "rental_uris": {"android": "https://dc.lft.to/lastmile_qr_scan", "ios": "https://dc.lft.to/lastmile_qr_scan"}, "fusion_lon": 0.0}, {"lat": 38.857140666666666, "is_disabled": 0, "type": "electric_scooter", "lon": -76.98672216666667, "bike_id": "971bd2eb5ce721229e753abd38fb405a", "fusion_lat": 0.0, "name": "971bd2eb5ce721229e753abd38fb405a", "is_reserved": 0, "rental_uris": {"android": "https://dc.lft.to/lastmile_qr_scan", "ios": "https://dc.lft.to/lastmile_qr_scan"}, "fusion_lon": 0.0}, {"lat": 38.925883166666665, "is_disabled": 0, "type": "electric_scooter", "lon": -77.04411166666667, "bike_id": "801380a319f331c030f3bf79c021bd06", "fusion_lat": 0.0, "name": "801380a319f331c030f3bf79c021bd06", "is_reserved": 0, "rental_uris": {"android": "https://dc.lft.to/lastmile_qr_scan", "ios": "https://dc.lft.to/lastmile_qr_scan"}, "fusion_lon": 0.0}, {"lat": 38.893552, "is_disabled": 0, "type": "electric_scooter", "lon": -77.04143816666667, "bike_id": "8502de6f44dd4a21ce2a3b50de671175", "fusion_lat": 0.0, "name": "8502de6f44dd4a21ce2a3b50de671175", "is_reserved": 0, "rental_uris": {"android": "https://dc.lft.to/lastmile_qr_scan", "ios": "https://dc.lft.to/lastmile_qr_scan"}, "fusion_lon": 0.0}, {"lat": 38.858071333333335, "is_disabled": 0, "type": "electric_scooter", "lon": -76.98651916666667, "bike_id": "0bf2b7005635bf683406ba7be35f5c84", "fusion_lat": 0.0, "name": "0bf2b7005635bf683406ba7be35f5c84", "is_reserved": 0, "rental_uris": {"android": "https://dc.lft.to/lastmile_qr_scan", "ios": "https://dc.lft.to/lastmile_qr_scan"}, "fusion_lon": 0.0}, {"lat": 38.90148816666667, "is_disabled": 0, "type": "electric_scooter", "lon": -77.0327745, "bike_id": "ae27e754770f8ddea376f1af2c169a7f", "fusion_lat": 0.0, "name": "ae27e754770f8ddea376f1af2c169a7f", "is_reserved": 0, "rental_uris": {"android": "https://dc.lft.to/lastmile_qr_scan", "ios": "https://dc.lft.to/lastmile_qr_scan"}, "fusion_lon": 0.0}, {"lat": 38.96611583333333, "is_disabled": 0, "type": "electric_scooter", "lon": -77.02050766666666, "bike_id": "8729450f6a8001e7fd2265a0cacb8c2e", "fusion_lat": 0.0, "name": "8729450f6a8001e7fd2265a0cacb8c2e", "is_reserved": 0, "rental_uris": {"android": "https://dc.lft.to/lastmile_qr_scan", "ios": "https://dc.lft.to/lastmile_qr_scan"}, "fusion_lon": 0.0}, {"lat": 38.90728983333333, "is_disabled": 0, "type": "electric_bike", "lon": -77.01068, "bike_id": "fef3acaba955bf88c9d324902af1f6b9", "fusion_lat": 0.0, "name": "fef3acaba955bf88c9d324902af1f6b9", "is_reserved": 0, "rental_uris": {"android": "https://dc.lft.to/lastmile_qr_scan", "ios": "https://dc.lft.to/lastmile_qr_scan"}, "fusion_lon": 0.0}, {"lat": 38.92101533333334, "is_disabled": 0, "type": "electric_scooter", "lon": -77.01771816666667, "bike_id": "d75ae65bcca9f9c396cd0c7b9c70675d", "fusion_lat": 0.0, "name": "d75ae65bcca9f9c396cd0c7b9c70675d", "is_reserved": 0, "rental_uris": {"android": "https://dc.lft.to/lastmile_qr_scan", "ios": "https://dc.lft.to/lastmile_qr_scan"}, "fusion_lon": 0.0}, {"lat": 38.866172, "is_disabled": 0, "type": "electric_scooter", "lon": -76.98661533333333, "bike_id": "a931640c907f565f492938cd8b41aed1", "fusion_lat": 0.0, "name": "a931640c907f565f492938cd8b41aed1", "is_reserved": 0, "rental_uris": {"android": "https://dc.lft.to/lastmile_qr_scan", "ios": "https://dc.lft.to/lastmile_qr_scan"}, "fusion_lon": 0.0}, {"lat": 38.9034945, "is_disabled": 0, "type": "electric_scooter", "lon": -77.00214283333334, "bike_id": "046ebad0ee350db34d88dfe893816440", "fusion_lat": 0.0, "name": "046ebad0ee350db34d88dfe893816440", "is_reserved": 0, "rental_uris": {"android": "https://dc.lft.to/lastmile_qr_scan", "ios": "https://dc.lft.to/lastmile_qr_scan"}, "fusion_lon": 0.0}, {"lat": 38.935791333333334, "is_disabled": 0, "type": "electric_scooter", "lon": -77.037537, "bike_id": "58ec9368c9fabea4c45d7fb5478d0f36", "fusion_lat": 0.0, "name": "58ec9368c9fabea4c45d7fb5478d0f36", "is_reserved": 0, "rental_uris": {"android": "https://dc.lft.to/lastmile_qr_scan", "ios": "https://dc.lft.to/lastmile_qr_scan"}, "fusion_lon": 0.0}, {"lat": 38.88284566666667, "is_disabled": 0, "type": "electric_bike", "lon": -76.93235866666667, "bike_id": "544029747df19fc1437076c25d8908ff", "fusion_lat": 0.0, "name": "544029747df19fc1437076c25d8908ff", "is_reserved": 0, "rental_uris": {"android": "https://dc.lft.to/lastmile_qr_scan", "ios": "https://dc.lft.to/lastmile_qr_scan"}, "fusion_lon": 0.0}, {"lat": 38.9013425, "is_disabled": 0, "type": "electric_scooter", "lon": -77.05096083333333, "bike_id": "c99e80658a20283986348f7c7f982e39", "fusion_lat": 0.0, "name": "c99e80658a20283986348f7c7f982e39", "is_reserved": 0, "rental_uris": {"android": "https://dc.lft.to/lastmile_qr_scan", "ios": "https://dc.lft.to/lastmile_qr_scan"}, "fusion_lon": 0.0}, {"lat": 38.8942355, "is_disabled": 0, "type": "electric_scooter", "lon": -77.020872, "bike_id": "914fd5b6461c28dad1f0111beb3f142d", "fusion_lat": 0.0, "name": "914fd5b6461c28dad1f0111beb3f142d", "is_reserved": 0, "rental_uris": {"android": "https://dc.lft.to/lastmile_qr_scan", "ios": "https://dc.lft.to/lastmile_qr_scan"}, "fusion_lon": 0.0}, {"lat": 38.90282666666667, "is_disabled": 0, "type": "electric_scooter", "lon": -77.04037516666666, "bike_id": "b8ccffbc51d89d67933eb2464e39da62", "fusion_lat": 0.0, "name": "b8ccffbc51d89d67933eb2464e39da62", "is_reserved": 0, "rental_uris": {"android": "https://dc.lft.to/lastmile_qr_scan", "ios": "https://dc.lft.to/lastmile_qr_scan"}, "fusion_lon": 0.0}, {"lat": 38.903348666666666, "is_disabled": 0, "type": "electric_scooter", "lon": -76.97053933333333, "bike_id": "865b70ff9c058ecba9cce40473a61919", "fusion_lat": 0.0, "name": "865b70ff9c058ecba9cce40473a61919", "is_reserved": 0, "rental_uris": {"android": "https://dc.lft.to/lastmile_qr_scan", "ios": "https://dc.lft.to/lastmile_qr_scan"}, "fusion_lon": 0.0}, {"lat": 38.94652633333333, "is_disabled": 0, "type": "electric_scooter", "lon": -77.03650966666666, "bike_id": "b97471bdb244ef688b44f0e68ffa5796", "fusion_lat": 0.0, "name": "b97471bdb244ef688b44f0e68ffa5796", "is_reserved": 0, "rental_uris": {"android": "https://dc.lft.to/lastmile_qr_scan", "ios": "https://dc.lft.to/lastmile_qr_scan"}, "fusion_lon": 0.0}, {"lat": 38.95077366666666, "is_disabled": 0, "type": "electric_bike", "lon": -77.01191166666666, "bike_id": "e5f4eacb79a7a73b0d675c19b6b76b05", "fusion_lat": 0.0, "name": "e5f4eacb79a7a73b0d675c19b6b76b05", "is_reserved": 0, "rental_uris": {"android": "https://dc.lft.to/lastmile_qr_scan", "ios": "https://dc.lft.to/lastmile_qr_scan"}, "fusion_lon": 0.0}, {"lat": 38.91463483333333, "is_disabled": 0, "type": "electric_scooter", "lon": -77.01429233333333, "bike_id": "e82bc6e838c06774faa71ec6fd4bea95", "fusion_lat": 0.0, "name": "e82bc6e838c06774faa71ec6fd4bea95", "is_reserved": 0, "rental_uris": {"android": "https://dc.lft.to/lastmile_qr_scan", "ios": "https://dc.lft.to/lastmile_qr_scan"}, "fusion_lon": 0.0}, {"lat": 38.90622066666667, "is_disabled": 0, "type": "electric_scooter", "lon": -77.02185716666666, "bike_id": "7341fd3ca99684426055b745ca0e0074", "fusion_lat": 0.0, "name": "7341fd3ca99684426055b745ca0e0074", "is_reserved": 0, "rental_uris": {"android": "https://dc.lft.to/lastmile_qr_scan", "ios": "https://dc.lft.to/lastmile_qr_scan"}, "fusion_lon": 0.0}, {"lat": 38.90749266666667, "is_disabled": 0, "type": "electric_scooter", "lon": -77.0415565, "bike_id": "05ea3cc7a01e60e210e4725ddbc8b991", "fusion_lat": 0.0, "name": "05ea3cc7a01e60e210e4725ddbc8b991", "is_reserved": 0, "rental_uris": {"android": "https://dc.lft.to/lastmile_qr_scan", "ios": "https://dc.lft.to/lastmile_qr_scan"}, "fusion_lon": 0.0}, {"lat": 38.915038, "is_disabled": 0, "type": "electric_scooter", "lon": -76.98362, "bike_id": "7abdc584fb33fa3dc2b43e7337596725", "fusion_lat": 0.0, "name": "7abdc584fb33fa3dc2b43e7337596725", "is_reserved": 0, "rental_uris": {"android": "https://dc.lft.to/lastmile_qr_scan", "ios": "https://dc.lft.to/lastmile_qr_scan"}, "fusion_lon": 0.0}, {"lat": 38.903636166666665, "is_disabled": 0, "type": "electric_scooter", "lon": -77.04463266666667, "bike_id": "e45148a7ee3f40c719b941c7b1ecda87", "fusion_lat": 0.0, "name": "e45148a7ee3f40c719b941c7b1ecda87", "is_reserved": 0, "rental_uris": {"android": "https://dc.lft.to/lastmile_qr_scan", "ios": "https://dc.lft.to/lastmile_qr_scan"}, "fusion_lon": 0.0}, {"lat": 38.952888333333334, "is_disabled": 0, "type": "electric_bike", "lon": -76.9459435, "bike_id": "8f37d08487425bb0e2a71b8fae49551e", "fusion_lat": 0.0, "name": "8f37d08487425bb0e2a71b8fae49551e", "is_reserved": 0, "rental_uris": {"android": "https://dc.lft.to/lastmile_qr_scan", "ios": "https://dc.lft.to/lastmile_qr_scan"}, "fusion_lon": 0.0}, {"lat": 38.91143366666667, "is_disabled": 0, "type": "electric_scooter", "lon": -77.0442535, "bike_id": "c6cd441e256d267b2de7c267d9e23857", "fusion_lat": 0.0, "name": "c6cd441e256d267b2de7c267d9e23857", "is_reserved": 0, "rental_uris": {"android": "https://dc.lft.to/lastmile_qr_scan", "ios": "https://dc.lft.to/lastmile_qr_scan"}, "fusion_lon": 0.0}, {"lat": 38.9055045, "is_disabled": 0, "type": "electric_scooter", "lon": -77.00304216666666, "bike_id": "db39e3becfa6642327e7545f847cd558", "fusion_lat": 0.0, "name": "db39e3becfa6642327e7545f847cd558", "is_reserved": 0, "rental_uris": {"android": "https://dc.lft.to/lastmile_qr_scan", "ios": "https://dc.lft.to/lastmile_qr_scan"}, "fusion_lon": 0.0}, {"lat": 38.99001966666667, "is_disabled": 0, "type": "electric_bike", "lon": -77.004378, "bike_id": "4fbaab0b17b61947d5f29b3d61ea30a2", "fusion_lat": 0.0, "name": "4fbaab0b17b61947d5f29b3d61ea30a2", "is_reserved": 0, "rental_uris": {"android": "https://dc.lft.to/lastmile_qr_scan", "ios": "https://dc.lft.to/lastmile_qr_scan"}, "fusion_lon": 0.0}, {"lat": 38.89557116666667, "is_disabled": 0, "type": "electric_scooter", "lon": -76.930773, "bike_id": "740180f75d3ebba7b1d3ed059fa4ca1e", "fusion_lat": 0.0, "name": "740180f75d3ebba7b1d3ed059fa4ca1e", "is_reserved": 0, "rental_uris": {"android": "https://dc.lft.to/lastmile_qr_scan", "ios": "https://dc.lft.to/lastmile_qr_scan"}, "fusion_lon": 0.0}, {"lat": 38.911313666666665, "is_disabled": 0, "type": "electric_bike", "lon": -77.00876483333333, "bike_id": "6ae2299225eec38ffa9a530a8e018c13", "fusion_lat": 0.0, "name": "6ae2299225eec38ffa9a530a8e018c13", "is_reserved": 0, "rental_uris": {"android": "https://dc.lft.to/lastmile_qr_scan", "ios": "https://dc.lft.to/lastmile_qr_scan"}, "fusion_lon": 0.0}, {"lat": 38.9359095, "is_disabled": 0, "type": "electric_scooter", "lon": -77.03742933333334, "bike_id": "33ec98cbf6f9554d08155ed5633cc329", "fusion_lat": 0.0, "name": "33ec98cbf6f9554d08155ed5633cc329", "is_reserved": 0, "rental_uris": {"android": "https://dc.lft.to/lastmile_qr_scan", "ios": "https://dc.lft.to/lastmile_qr_scan"}, "fusion_lon": 0.0}, {"lat": 38.97827183333333, "is_disabled": 0, "type": "electric_bike", "lon": -76.92887866666666, "bike_id": "31302e8be68b039f366960e78293f89d", "fusion_lat": 0.0, "name": "31302e8be68b039f366960e78293f89d", "is_reserved": 0, "rental_uris": {"android": "https://dc.lft.to/lastmile_qr_scan", "ios": "https://dc.lft.to/lastmile_qr_scan"}, "fusion_lon": 0.0}, {"lat": 38.9394795, "is_disabled": 0, "type": "electric_bike", "lon": -77.3608875, "bike_id": "a899a1fecc418f21f0a5b482a9dc90f8", "fusion_lat": 0.0, "name": "a899a1fecc418f21f0a5b482a9dc90f8", "is_reserved": 0, "rental_uris": {"android": "https://dc.lft.to/lastmile_qr_scan", "ios": "https://dc.lft.to/lastmile_qr_scan"}, "fusion_lon": 0.0}, {"lat": 38.9308595, "is_disabled": 0, "type": "electric_scooter", "lon": -77.02553516666667, "bike_id": "83eca325b6340d9e4e9aeff1f9ed64a1", "fusion_lat": 0.0, "name": "83eca325b6340d9e4e9aeff1f9ed64a1", "is_reserved": 0, "rental_uris": {"android": "https://dc.lft.to/lastmile_qr_scan", "ios": "https://dc.lft.to/lastmile_qr_scan"}, "fusion_lon": 0.0}, {"lat": 38.90283016666667, "is_disabled": 0, "type": "electric_scooter", "lon": -77.03855083333333, "bike_id": "265caf56e7413c62d1076727ed3e2eb3", "fusion_lat": 0.0, "name": "265caf56e7413c62d1076727ed3e2eb3", "is_reserved": 0, "rental_uris": {"android": "https://dc.lft.to/lastmile_qr_scan", "ios": "https://dc.lft.to/lastmile_qr_scan"}, "fusion_lon": 0.0}, {"lat": 38.88446966666667, "is_disabled": 0, "type": "electric_scooter", "lon": -77.000563, "bike_id": "ce85d4dee022565d1adc29fe44fd6b2b", "fusion_lat": 0.0, "name": "ce85d4dee022565d1adc29fe44fd6b2b", "is_reserved": 0, "rental_uris": {"android": "https://dc.lft.to/lastmile_qr_scan", "ios": "https://dc.lft.to/lastmile_qr_scan"}, "fusion_lon": 0.0}, {"lat": 38.91498083333333, "is_disabled": 0, "type": "electric_scooter", "lon": -77.06782833333334, "bike_id": "367a1294a59c5ca0a32d5ad2c9f9a28f", "fusion_lat": 0.0, "name": "367a1294a59c5ca0a32d5ad2c9f9a28f", "is_reserved": 0, "rental_uris": {"android": "https://dc.lft.to/lastmile_qr_scan", "ios": "https://dc.lft.to/lastmile_qr_scan"}, "fusion_lon": 0.0}, {"lat": 38.916196666666664, "is_disabled": 0, "type": "electric_scooter", "lon": -77.02307983333333, "bike_id": "a8b1e6f3fa9bb54501d75d2c79d96be9", "fusion_lat": 0.0, "name": "a8b1e6f3fa9bb54501d75d2c79d96be9", "is_reserved": 0, "rental_uris": {"android": "https://dc.lft.to/lastmile_qr_scan", "ios": "https://dc.lft.to/lastmile_qr_scan"}, "fusion_lon": 0.0}, {"lat": 38.86697066666667, "is_disabled": 0, "type": "electric_scooter", "lon": -76.98703333333333, "bike_id": "5f779276a20778d5c2ce4346836fbcab", "fusion_lat": 0.0, "name": "5f779276a20778d5c2ce4346836fbcab", "is_reserved": 0, "rental_uris": {"android": "https://dc.lft.to/lastmile_qr_scan", "ios": "https://dc.lft.to/lastmile_qr_scan"}, "fusion_lon": 0.0}, {"lat": 38.92848466666667, "is_disabled": 0, "type": "electric_scooter", "lon": -77.01416316666666, "bike_id": "d15716e81d85174b85c67d67929eb66d", "fusion_lat": 0.0, "name": "d15716e81d85174b85c67d67929eb66d", "is_reserved": 0, "rental_uris": {"android": "https://dc.lft.to/lastmile_qr_scan", "ios": "https://dc.lft.to/lastmile_qr_scan"}, "fusion_lon": 0.0}, {"lat": 38.898397833333334, "is_disabled": 0, "type": "electric_scooter", "lon": -76.99497666666667, "bike_id": "cfe135af6bd6249f200971d653c9b3b7", "fusion_lat": 0.0, "name": "cfe135af6bd6249f200971d653c9b3b7", "is_reserved": 0, "rental_uris": {"android": "https://dc.lft.to/lastmile_qr_scan", "ios": "https://dc.lft.to/lastmile_qr_scan"}, "fusion_lon": 0.0}, {"lat": 38.905471666666664, "is_disabled": 0, "type": "electric_scooter", "lon": -77.05699066666666, "bike_id": "294693ddc9f404e7399613326a9487a5", "fusion_lat": 0.0, "name": "294693ddc9f404e7399613326a9487a5", "is_reserved": 0, "rental_uris": {"android": "https://dc.lft.to/lastmile_qr_scan", "ios": "https://dc.lft.to/lastmile_qr_scan"}, "fusion_lon": 0.0}, {"lat": 38.894932833333336, "is_disabled": 0, "type": "electric_scooter", "lon": -77.00203983333333, "bike_id": "476f45726c2ffa19ad26b6895c700e73", "fusion_lat": 0.0, "name": "476f45726c2ffa19ad26b6895c700e73", "is_reserved": 0, "rental_uris": {"android": "https://dc.lft.to/lastmile_qr_scan", "ios": "https://dc.lft.to/lastmile_qr_scan"}, "fusion_lon": 0.0}, {"lat": 38.908865666666664, "is_disabled": 0, "type": "electric_scooter", "lon": -77.00265583333334, "bike_id": "0682088faeffc4abc03bf2838e5448e0", "fusion_lat": 0.0, "name": "0682088faeffc4abc03bf2838e5448e0", "is_reserved": 0, "rental_uris": {"android": "https://dc.lft.to/lastmile_qr_scan", "ios": "https://dc.lft.to/lastmile_qr_scan"}, "fusion_lon": 0.0}, {"lat": 38.88660333333333, "is_disabled": 0, "type": "electric_scooter", "lon": -77.013712, "bike_id": "21dd2acb3719d93b0857a195952d8aef", "fusion_lat": 0.0, "name": "21dd2acb3719d93b0857a195952d8aef", "is_reserved": 0, "rental_uris": {"android": "https://dc.lft.to/lastmile_qr_scan", "ios": "https://dc.lft.to/lastmile_qr_scan"}, "fusion_lon": 0.0}, {"lat": 38.89221166666667, "is_disabled": 0, "type": "electric_bike", "lon": -77.10777283333333, "bike_id": "e3e8d413af07208df9de59f67dbb078f", "fusion_lat": 0.0, "name": "e3e8d413af07208df9de59f67dbb078f", "is_reserved": 0, "rental_uris": {"android": "https://dc.lft.to/lastmile_qr_scan", "ios": "https://dc.lft.to/lastmile_qr_scan"}, "fusion_lon": 0.0}, {"lat": 38.962266166666666, "is_disabled": 0, "type": "electric_bike", "lon": -77.026263, "bike_id": "3775c22a1bfab4750b4c5c180c85e63f", "fusion_lat": 0.0, "name": "3775c22a1bfab4750b4c5c180c85e63f", "is_reserved": 0, "rental_uris": {"android": "https://dc.lft.to/lastmile_qr_scan", "ios": "https://dc.lft.to/lastmile_qr_scan"}, "fusion_lon": 0.0}, {"lat": 38.916068, "is_disabled": 0, "type": "electric_scooter", "lon": -77.04567983333334, "bike_id": "a940df9997c18e632f0bb02dd70cfa80", "fusion_lat": 0.0, "name": "a940df9997c18e632f0bb02dd70cfa80", "is_reserved": 0, "rental_uris": {"android": "https://dc.lft.to/lastmile_qr_scan", "ios": "https://dc.lft.to/lastmile_qr_scan"}, "fusion_lon": 0.0}, {"lat": 38.931992666666666, "is_disabled": 0, "type": "electric_scooter", "lon": -77.02353266666667, "bike_id": "1bc67164dd65b65a0e2b0d6ab0b26e32", "fusion_lat": 0.0, "name": "1bc67164dd65b65a0e2b0d6ab0b26e32", "is_reserved": 0, "rental_uris": {"android": "https://dc.lft.to/lastmile_qr_scan", "ios": "https://dc.lft.to/lastmile_qr_scan"}, "fusion_lon": 0.0}, {"lat": 38.894632, "is_disabled": 0, "type": "electric_bike", "lon": -77.07301383333333, "bike_id": "dc54a8c6c2a57677c984cf2578c11cf2", "fusion_lat": 0.0, "name": "dc54a8c6c2a57677c984cf2578c11cf2", "is_reserved": 0, "rental_uris": {"android": "https://dc.lft.to/lastmile_qr_scan", "ios": "https://dc.lft.to/lastmile_qr_scan"}, "fusion_lon": 0.0}, {"lat": 38.90719683333333, "is_disabled": 0, "type": "electric_scooter", "lon": -77.02974633333334, "bike_id": "3197d94704b7726f55f8584b3cfd0537", "fusion_lat": 0.0, "name": "3197d94704b7726f55f8584b3cfd0537", "is_reserved": 0, "rental_uris": {"android": "https://dc.lft.to/lastmile_qr_scan", "ios": "https://dc.lft.to/lastmile_qr_scan"}, "fusion_lon": 0.0},