{"data": {"bikes": [{"lon": -77.0181845, "fusion_lon": 0.0, "bike_id": "fb18d09c777409e29c41f8b71da07e84", "type": "electric_scooter", "name": "fb18d09c777409e29c41f8b71da07e84", "rental_uris": {"android": "https://dc.lft.to/lastmile_qr_scan", "ios": "https://dc.lft.to/lastmile_qr_scan"}, "is_disabled": 0, "fusion_lat": 0.0, "lat": 38.90246, "is_reserved": 0}, {"lon": -77.02931883333333, "fusion_lon": 0.0, "bike_id": "44a2b5f25952499f9c0bc2a4c94b4dff", "type": "electric_scooter", "name": "44a2b5f25952499f9c0bc2a4c94b4dff", "rental_uris": {"android": "https://dc.lft.to/lastmile_qr_scan", "ios": "https://dc.lft.to/lastmile_qr_scan"}, "is_disabled": 0, "fusion_lat": 0.0, "lat": 38.916775666666666, "is_reserved": 0}, {"lon": -77.03740466666666, "fusion_lon": 0.0, "bike_id": "0b13be6a50dea2cfe963ea3d0e2a1728", "type": "electric_scooter", "name": "0b13be6a50dea2cfe963ea3d0e2a1728", "rental_uris": {"android": "https://dc.lft.to/lastmile_qr_scan", "ios": "https://dc.lft.to/lastmile_qr_scan"}, "is_disabled": 0, "fusion_lat": 0.0, "lat": 38.91619983333333, "is_reserved": 0}, {"lon": -77.01163783333334, "fusion_lon": 0.0, "bike_id": "c9f5b784dbb5320d0810169e4869407a", "type": "electric_scooter", "name": "c9f5b784dbb5320d0810169e4869407a", "rental_uris": {"android": "https://dc.lft.to/lastmile_qr_scan", "ios": "https://dc.lft.to/lastmile_qr_scan"}, "is_disabled": 0, "fusion_lat": 0.0, "lat": 38.91108716666667, "is_reserved": 0}, {"lon": -77.03516566666667, "fusion_lon": 0.0, "bike_id": "7bea3e8e404893a9dc18d42e45dcebb8", "type": "electric_scooter", "name": "7bea3e8e404893a9dc18d42e45dcebb8", "rental_uris": {"android": "https://dc.lft.to/lastmile_qr_scan", "ios": "https://dc.lft.to/lastmile_qr_scan"}, "is_disabled": 0, "fusion_lat": 0.0, "lat": 38.9253405, "is_reserved": 0}, {"lon": -77.001128, "fusion_lon": 0.0, "bike_id": "116291cdfd5b5a5c3ca074d97badb40e", "type": "electric_scooter", "name": "116291cdfd5b5a5c3ca074d97badb40e", "rental_uris": {"android": "https://dc.lft.to/lastmile_qr_scan", "ios": "https://dc.lft.to/lastmile_qr_scan"}, "is_disabled": 0, "fusion_lat": 0.0, "lat": 38.87376916666667, "is_reserved": 0}, {"lon": -77.07654866666667, "fusion_lon": 0.0, "bike_id": "bd9055aca984728e63db4844cc7210ca", "type": "electric_scooter", "name": "bd9055aca984728e63db4844cc7210ca", "rental_uris": {"android": "https://dc.lft.to/lastmile_qr_scan", "ios": "https://dc.lft.to/lastmile_qr_scan"}, "is_disabled": 0, "fusion_lat": 0.0, "lat": 38.94324266666667, "is_reserved": 0}, {"lon": -77.04515783333333, "fusion_lon": 0.0, "bike_id": "e72c512dc9837f1336a4a9e4c33008aa", "type": "electric_scooter", "name": "e72c512dc9837f1336a4a9e4c33008aa", "rental_uris": {"android": "https://dc.lft.to/lastmile_qr_scan", "ios": "https://dc.lft.to/lastmile_qr_scan"}, "is_disabled": 0, "fusion_lat": 0.0, "lat": 38.9128845, "is_reserved": 0}, {"lon": -77.01950566666666, "fusion_lon": 0.0, "bike_id": "2829c56c46b1d2128ca7c7ec16876a51", "type": "electric_scooter", "name": "2829c56c46b1d2128ca7c7ec16876a51", "rental_uris": {"android": "https://dc.lft.to/lastmile_qr_scan", "ios": "https://dc.lft.to/lastmile_qr_scan"}, "is_disabled": 0, "fusion_lat": 0.0, "lat": 38.92418966666666, "is_reserved": 0}, {"lon": -77.03499183333334, "fusion_lon": 0.0, "bike_id": "eb6108074aa46e22673fa376ae85c00a", "type": "electric_scooter", "name": "eb6108074aa46e22673fa376ae85c00a", "rental_uris": {"android": "https://dc.lft.to/lastmile_qr_scan", "ios": "https://dc.lft.to/lastmile_qr_scan"}, "is_disabled": 0, "fusion_lat": 0.0, "lat": 38.9170685, "is_reserved": 0}, {"lon": -77.017386, "fusion_lon": 0.0, "bike_id": "99c7224e30615ad826f5b8a708429e47", "type": "electric_scooter", "name": "99c7224e30615ad826f5b8a708429e47", "rental_uris": {"android": "https://dc.lft.to/lastmile_qr_scan", "ios": "https://dc.lft.to/lastmile_qr_scan"}, "is_disabled": 0, "fusion_lat": 0.0, "lat": 38.90246633333334, "is_reserved": 0}, {"lon": -77.01909783333333, "fusion_lon": 0.0, "bike_id": "3f0060d37fb2e584e66696563331ecd5", "type": "electric_bike", "name": "3f0060d37fb2e584e66696563331ecd5", "rental_uris": {"android": "https://dc.lft.to/lastmile_qr_scan", "ios": "https://dc.lft.to/lastmile_qr_scan"}, "is_disabled": 0, "fusion_lat": 0.0, "lat": 38.93771916666667, "is_reserved": 0}, {"lon": -77.0261305, "fusion_lon": 0.0, "bike_id": "026b3770ba20233cc9079a6407a143bf", "type": "electric_scooter", "name": "026b3770ba20233cc9079a6407a143bf", "rental_uris": {"android": "https://dc.lft.to/lastmile_qr_scan", "ios": "https://dc.lft.to/lastmile_qr_scan"}, "is_disabled": 0, "fusion_lat": 0.0, "lat": 38.9141485, "is_reserved": 0}, {"lon": -77.02603666666667, "fusion_lon": 0.0, "bike_id": "5c4aa53e805e6a8202038954ddb1748a", "type": "electric_scooter", "name": "5c4aa53e805e6a8202038954ddb1748a", "rental_uris": {"android": "https://dc.lft.to/lastmile_qr_scan", "ios": "https://dc.lft.to/lastmile_qr_scan"}, "is_disabled": 0, "fusion_lat": 0.0, "lat": 38.927967, "is_reserved": 0}, {"lon": -77.02309333333334, "fusion_lon": 0.0, "bike_id": "d0b298a89bbdd3bb785ac9b221314567", "type": "electric_scooter", "name": "d0b298a89bbdd3bb785ac9b221314567", "rental_uris": {"android": "https://dc.lft.to/lastmile_qr_scan", "ios": "https://dc.lft.to/lastmile_qr_scan"}, "is_disabled": 0, "fusion_lat": 0.0, "lat": 38.91586383333333, "is_reserved": 0}, {"lon": -77.0639505, "fusion_lon": 0.0, "bike_id": "9420a3bc1eba94abd45cee30a3fc13a2", "type": "electric_scooter", "name": "9420a3bc1eba94abd45cee30a3fc13a2", "rental_uris": {"android": "https://dc.lft.to/lastmile_qr_scan", "ios": "https://dc.lft.to/lastmile_qr_scan"}, "is_disabled": 0, "fusion_lat": 0.0, "lat": 38.94417683333333, "is_reserved": 0}, {"lon": -77.022821, "fusion_lon": 0.0, "bike_id": "3253c12841d9176f24d45fbf47715b23", "type": "electric_scooter", "name": "3253c12841d9176f24d45fbf47715b23", "rental_uris": {"android": "https://dc.lft.to/lastmile_qr_scan", "ios": "https://dc.lft.to/lastmile_qr_scan"}, "is_disabled": 0, "fusion_lat": 0.0, "lat": 38.9177005, "is_reserved": 0}, {"lon": -77.01412066666667, "fusion_lon": 0.0, "bike_id": "e030407cf05305ad5e440606ac58d97f", "type": "electric_scooter", "name": "e030407cf05305ad5e440606ac58d97f", "rental_uris": {"android": "https://dc.lft.to/lastmile_qr_scan", "ios": "https://dc.lft.to/lastmile_qr_scan"}, "is_disabled": 0, "fusion_lat": 0.0, "lat": 38.91919566666667, "is_reserved": 0}, {"lon": -77.03445766666667, "fusion_lon": 0.0, "bike_id": "812c09404c3e0d008701cc38148d7bbf", "type": "electric_scooter", "name": "812c09404c3e0d008701cc38148d7bbf", "rental_uris": {"android": "https://dc.lft.to/lastmile_qr_scan", "ios": "https://dc.lft.to/lastmile_qr_scan"}, "is_disabled": 0, "fusion_lat": 0.0, "lat": 38.90980033333334, "is_reserved": 0}, {"lon": -77.04899283333333, "fusion_lon": 0.0, "bike_id": "eeafadfa6cd234f2b84cb808294ce7d0", "type": "electric_scooter", "name": "eeafadfa6cd234f2b84cb808294ce7d0", "rental_uris": {"android": "https://dc.lft.to/lastmile_qr_scan", "ios": "https://dc.lft.to/lastmile_qr_scan"}, "is_disabled": 0, "fusion_lat": 0.0, "lat": 38.899919833333335, "is_reserved": 0}, {"lon": -76.93147883333333, "fusion_lon": 0.0, "bike_id": "ddc1cadaf36e829c96e0fba7f20f58eb", "type": "electric_scooter", "name": "ddc1cadaf36e829c96e0fba7f20f58eb", "rental_uris": {"android": "https://dc.lft.to/lastmile_qr_scan", "ios": "https://dc.lft.to/lastmile_qr_scan"}, "is_disabled": 0, "fusion_lat": 0.0, "lat": 38.89768633333333, "is_reserved": 0}, {"lon": -76.98792233333333, "fusion_lon": 0.0, "bike_id": "cddbb44233c3cf3146cfb345e6572545", "type": "electric_scooter", "name": "cddbb44233c3cf3146cfb345e6572545", "rental_uris": {"android": "https://dc.lft.to/lastmile_qr_scan", "ios": "https://dc.lft.to/lastmile_qr_scan"}, "is_disabled": 0, "fusion_lat": 0.0, "lat": 38.912339333333335, "is_reserved": 0}, {"lon": -77.02136733333333, "fusion_lon": 0.0, "bike_id": "77da386a2d41c9f888f1e09890f7c28e", "type": "electric_scooter", "name": "77da386a2d41c9f888f1e09890f7c28e", "rental_uris": {"android": "https://dc.lft.to/lastmile_qr_scan", "ios": "https://dc.lft.to/lastmile_qr_scan"}, "is_disabled": 0, "fusion_lat": 0.0, "lat": 38.911157, "is_reserved": 0}, {"lon": -77.04838883333333, "fusion_lon": 0.0, "bike_id": "e5ad8633492751a823a9e95d08dbd3f0", "type": "electric_scooter", "name": "e5ad8633492751a823a9e95d08dbd3f0", "rental_uris": {"android": "https://dc.lft.to/lastmile_qr_scan", "ios": "https://dc.lft.to/lastmile_qr_scan"}, "is_disabled": 0, "fusion_lat": 0.0, "lat": 38.903719333333335, "is_reserved": 0}, {"lon": -77.026285, "fusion_lon": 0.0, "bike_id": "fdbf0f50eb7dc9adf3bff47f270d4076", "type": "electric_scooter", "name": "fdbf0f50eb7dc9adf3bff47f270d4076", "rental_uris": {"android": "https://dc.lft.to/lastmile_qr_scan", "ios": "https://dc.lft.to/lastmile_qr_scan"}, "is_disabled": 0, "fusion_lat": 0.0, "lat": 38.887702833333336, "is_reserved": 0}, {"lon": -77.02284266666666, "fusion_lon": 0.0, "bike_id": "62be81e14d366312c9289bed53aecdcc", "type": "electric_scooter", "name": "62be81e14d366312c9289bed53aecdcc", "rental_uris": {"android": "https://dc.lft.to/lastmile_qr_scan", "ios": "https://dc.lft.to/lastmile_qr_scan"}, "is_disabled": 0, "fusion_lat": 0.0, "lat": 38.91416816666667, "is_reserved": 0}, {"lon": -77.01508533333333, "fusion_lon": 0.0, "bike_id": "5e8a247e3feda56d1d50b30c230d0c35", "type": "electric_scooter", "name": "5e8a247e3feda56d1d50b30c230d0c35", "rental_uris": {"android": "https://dc.lft.to/lastmile_qr_scan", "ios": "https://dc.lft.to/lastmile_qr_scan"}, "is_disabled": 0, "fusion_lat": 0.0, "lat": 38.90238733333333, "is_reserved": 0}, {"lon": -76.98322466666667, "fusion_lon": 0.0, "bike_id": "539638b0af733ded20656cc9d7406fc4", "type": "electric_scooter", "name": "539638b0af733ded20656cc9d7406fc4", "rental_uris": {"android": "https://dc.lft.to/lastmile_qr_scan", "ios": "https://dc.lft.to/lastmile_qr_scan"}, "is_disabled": 0, "fusion_lat": 0.0, "lat": 38.904398666666665, "is_reserved": 0}, {"lon": -77.005863, "fusion_lon": 0.0, "bike_id": "bb9b9f1c8079af8c0216214f66ad3878", "type": "electric_scooter", "name": "bb9b9f1c8079af8c0216214f66ad3878", "rental_uris": {"android": "https://dc.lft.to/lastmile_qr_scan", "ios": "https://dc.lft.to/lastmile_qr_scan"}, "is_disabled": 0, "fusion_lat": 0.0, "lat": 38.9056965, "is_reserved": 0}, {"lon": -77.00347666666667, "fusion_lon": 0.0, "bike_id": "96f1183986cd48ce5e82707705d26898", "type": "electric_scooter", "name": "96f1183986cd48ce5e82707705d26898", "rental_uris": {"android": "https://dc.lft.to/lastmile_qr_scan", "ios": "https://dc.lft.to/lastmile_qr_scan"}, "is_disabled": 0, "fusion_lat": 0.0, "lat": 38.8946415, "is_reserved": 0}, {"lon": -77.005783, "fusion_lon": 0.0, "bike_id": "55c06b962b9909a71fde00d5d840ce9a", "type": "electric_scooter", "name": "55c06b962b9909a71fde00d5d840ce9a", "rental_uris": {"android": "https://dc.lft.to/lastmile_qr_scan", "ios": "https://dc.lft.to/lastmile_qr_scan"}, "is_disabled": 0, "fusion_lat": 0.0, "lat": 38.87929616666667, "is_reserved": 0}, {"lon": -77.05371816666667, "fusion_lon": 0.0, "bike_id": "5b30bb2c69586df99e021460ed2db1f3", "type": "electric_scooter", "name": "5b30bb2c69586df99e021460ed2db1f3", "rental_uris": {"android": "https://dc.lft.to/lastmile_qr_scan", "ios": "https://dc.lft.to/lastmile_qr_scan"}, "is_disabled": 0, "fusion_lat": 0.0, "lat": 38.92719266666667, "is_reserved": 0}, {"lon": -77.05132683333333, "fusion_lon": 0.0, "bike_id": "e08129718a6b4aa59bc15d4c8dff75db", "type": "electric_scooter", "name": "e08129718a6b4aa59bc15d4c8dff75db", "rental_uris": {"android": "https://dc.lft.to/lastmile_qr_scan", "ios": "https://dc.lft.to/lastmile_qr_scan"}, "is_disabled": 0, "fusion_lat": 0.0, "lat": 38.9252425, "is_reserved": 0}, {"lon": -77.06710366666667, "fusion_lon": 0.0, "bike_id": "22f45eb24c95cdcd08e6f3a16fc990e9", "type": "electric_scooter", "name": "22f45eb24c95cdcd08e6f3a16fc990e9", "rental_uris": {"android": "https://dc.lft.to/lastmile_qr_scan", "ios": "https://dc.lft.to/lastmile_qr_scan"}, "is_disabled": 0, "fusion_lat": 0.0, "lat": 38.95026933333333, "is_reserved": 0}, {"lon": -77.04798483333333, "fusion_lon": 0.0, "bike_id": "551159a70cf8cb8a03fece6821676949", "type": "electric_scooter", "name": "551159a70cf8cb8a03fece6821676949", "rental_uris": {"android": "https://dc.lft.to/lastmile_qr_scan", "ios": "https://dc.lft.to/lastmile_qr_scan"}, "is_disabled": 0, "fusion_lat": 0.0, "lat": 38.92029816666667, "is_reserved": 0}, {"lon": -77.054571, "fusion_lon": 0.0, "bike_id": "894d0db4f6618c2608340beb3ef788ce", "type": "electric_scooter", "name": "894d0db4f6618c2608340beb3ef788ce", "rental_uris": {"android": "https://dc.lft.to/lastmile_qr_scan", "ios": "https://dc.lft.to/lastmile_qr_scan"}, "is_disabled": 0, "fusion_lat": 0.0, "lat": 38.9023925, "is_reserved": 0}, {"lon": -77.03443966666667, "fusion_lon": 0.0, "bike_id": "71f78f6308633cb49b057ee7699ca01c", "type": "electric_scooter", "name": "71f78f6308633cb49b057ee7699ca01c", "rental_uris": {"android": "https://dc.lft.to/lastmile_qr_scan", "ios": "https://dc.lft.to/lastmile_qr_scan"}, "is_disabled": 0, "fusion_lat": 0.0, "lat": 38.90579183333333, "is_reserved": 0}, {"lon": -77.0730755, "fusion_lon": 0.0, "bike_id": "814b0c7dbd73361d1a5673ff1572237c", "type": "electric_scooter", "name": "814b0c7dbd73361d1a5673ff1572237c", "rental_uris": {"android": "https://dc.lft.to/lastmile_qr_scan", "ios": "https://dc.lft.to/lastmile_qr_scan"}, "is_disabled": 0, "fusion_lat": 0.0, "lat": 38.92670416666667, "is_reserved": 0}, {"lon": -77.0358705, "fusion_lon": 0.0, "bike_id": "ad50636b0df2bdac0737d1dc465d2320", "type": "electric_scooter", "name": "ad50636b0df2bdac0737d1dc465d2320", "rental_uris": {"android": "https://dc.lft.to/lastmile_qr_scan", "ios": "https://dc.lft.to/lastmile_qr_scan"}, "is_disabled": 0, "fusion_lat": 0.0, "lat": 38.9922565, "is_reserved": 0}, {"lon": -77.0259925, "fusion_lon": 0.0, "bike_id": "b63f09580c458ed31b106d316f67f0dc", "type": "electric_scooter", "name": "b63f09580c458ed31b106d316f67f0dc", "rental_uris": {"android": "https://dc.lft.to/lastmile_qr_scan", "ios": "https://dc.lft.to/lastmile_qr_scan"}, "is_disabled": 0, "fusion_lat": 0.0, "lat": 38.9042375, "is_reserved": 0}, {"lon": -76.99042083333333, "fusion_lon": 0.0, "bike_id": "8f846a67d757ec25376b23a9ebdf5c06", "type": "electric_scooter", "name": "8f846a67d757ec25376b23a9ebdf5c06", "rental_uris": {"android": "https://dc.lft.to/lastmile_qr_scan", "ios": "https://dc.lft.to/lastmile_qr_scan"}, "is_disabled": 0, "fusion_lat": 0.0, "lat": 38.86390266666667, "is_reserved": 0}, {"lon": -76.96049416666666, "fusion_lon": 0.0, "bike_id": "a72ca508ddd7b72369056ddcb0712e2a", "type": "electric_bike", "name": "a72ca508ddd7b72369056ddcb0712e2a", "rental_uris": {"android": "https://dc.lft.to/lastmile_qr_scan", "ios": "https://dc.lft.to/lastmile_qr_scan"}, "is_disabled": 0, "fusion_lat": 0.0, "lat": 38.8839725, "is_reserved": 0}, {"lon": -77.11756466666667, "fusion_lon": 0.0, "bike_id": "928bf1ee9443bcbce9510e9cce0326f1", "type": "electric_bike", "name": "928bf1ee9443bcbce9510e9cce0326f1", "rental_uris": {"android": "https://dc.lft.to/lastmile_qr_scan", "ios": "https://dc.lft.to/lastmile_qr_scan"}, "is_disabled": 0, "fusion_lat": 0.0, "lat": 39.050992, "is_reserved": 0}, {"lon": -77.03840366666667, "fusion_lon": 0.0, "bike_id": "c23e3430acfeef2f79f88e87f6108755", "type": "electric_scooter", "name": "c23e3430acfeef2f79f88e87f6108755", "rental_uris": {"android": "https://dc.lft.to/lastmile_qr_scan", "ios": "https://dc.lft.to/lastmile_qr_scan"}, "is_disabled": 0, "fusion_lat": 0.0, "lat": 38.902734333333335, "is_reserved": 0}, {"lon": -77.03976916666667, "fusion_lon": 0.0, "bike_id": "3ef1f19ee2723a9a5ee8d3bdf2bf2fd5", "type": "electric_scooter", "name": "3ef1f19ee2723a9a5ee8d3bdf2bf2fd5", "rental_uris": {"android": "https://dc.lft.to/lastmile_qr_scan", "ios": "https://dc.lft.to/lastmile_qr_scan"}, "is_disabled": 0, "fusion_lat": 0.0, "lat": 38.91814083333333, "is_reserved": 0}, {"lon": -77.04895083333334, "fusion_lon": 0.0, "bike_id": "1828b6a5b717d567b0b64f4319b9df77", "type": "electric_scooter", "name": "1828b6a5b717d567b0b64f4319b9df77", "rental_uris": {"android": "https://dc.lft.to/lastmile_qr_scan", "ios": "https://dc.lft.to/lastmile_qr_scan"}, "is_disabled": 0, "fusion_lat": 0.0, "lat": 38.890042666666666, "is_reserved": 0}, {"lon": -76.94700083333333, "fusion_lon": 0.0, "bike_id": "09d562fc26728a8d4a534ff7a74d7b21", "type": "electric_scooter", "name": "09d562fc26728a8d4a534ff7a74d7b21", "rental_uris": {"android": "https://dc.lft.to/lastmile_qr_scan", "ios": "https://dc.lft.to/lastmile_qr_scan"}, "is_disabled": 0, "fusion_lat": 0.0, "lat": 38.89728183333333, "is_reserved": 0}, {"lon": -77.05480516666667, "fusion_lon": 0.0, "bike_id": "99b0ad576f337372972aeb98b6c3ff1a", "type": "electric_scooter", "name": "99b0ad576f337372972aeb98b6c3ff1a", "rental_uris": {"android": "https://dc.lft.to/lastmile_qr_scan", "ios": "https://dc.lft.to/lastmile_qr_scan"}, "is_disabled": 0, "fusion_lat": 0.0, "lat": 38.909510833333336, "is_reserved": 0}, {"lon": -76.99039333333333, "fusion_lon": 0.0, "bike_id": "ef5f6d7ec6e576d3c225cdbdd046e37b", "type": "electric_scooter", "name": "ef5f6d7ec6e576d3c225cdbdd046e37b", "rental_uris": {"android": "https://dc.lft.to/lastmile_qr_scan", "ios": "https://dc.lft.to/lastmile_qr_scan"}, "is_disabled": 0, "fusion_lat": 0.0, "lat": 38.863925, "is_reserved": 0}, {"lon": -77.00186083333334, "fusion_lon": 0.0, "bike_id": "2be7323ec56e19fae26696c971350503", "type": "electric_scooter", "name": "2be7323ec56e19fae26696c971350503", "rental_uris": {"android": "https://dc.lft.to/lastmile_qr_scan", "ios": "https://dc.lft.to/lastmile_qr_scan"}, "is_disabled": 0, "fusion_lat": 0.0, "lat": 38.900178333333336, "is_reserved": 0}, {"lon": -77.044044, "fusion_lon": 0.0, "bike_id": "edec33cc40943313acffa16e7764e7e4", "type": "electric_scooter", "name": "edec33cc40943313acffa16e7764e7e4", "rental_uris": {"android": "https://dc.lft.to/lastmile_qr_scan", "ios": "https://dc.lft.to/lastmile_qr_scan"}, "is_disabled": 0, "fusion_lat": 0.0, "lat": 38.92952716666667, "is_reserved": 0}, {"lon": -77.00488216666666, "fusion_lon": 0.0, "bike_id": "6baab26c829b595460c7d097d1ec7dd7", "type": "electric_scooter", "name": "6baab26c829b595460c7d097d1ec7dd7", "rental_uris": {"android": "https://dc.lft.to/lastmile_qr_scan", "ios": "https://dc.lft.to/lastmile_qr_scan"}, "is_disabled": 0, "fusion_lat": 0.0, "lat": 38.87468966666667, "is_reserved": 0}, {"lon": -76.99913916666667, "fusion_lon": 0.0, "bike_id": "dfd6d102fd9a3b2f923dc378171e003e", "type": "electric_scooter", "name": "dfd6d102fd9a3b2f923dc378171e003e", "rental_uris": {"android": "https://dc.lft.to/lastmile_qr_scan", "ios": "https://dc.lft.to/lastmile_qr_scan"}, "is_disabled": 0, "fusion_lat": 0.0, "lat": 38.90921783333334, "is_reserved": 0}, {"lon": -77.02694133333334, "fusion_lon": 0.0, "bike_id": "12b06b4d27be5b9206e830d28f64ef9c", "type": "electric_scooter", "name": "12b06b4d27be5b9206e830d28f64ef9c", "rental_uris": {"android": "https://dc.lft.to/lastmile_qr_scan", "ios": "https://dc.lft.to/lastmile_qr_scan"}, "is_disabled": 0, "fusion_lat": 0.0, "lat": 38.92673166666667, "is_reserved": 0}, {"lon": -77.016283, "fusion_lon": 0.0, "bike_id": "3d5af7f63c11657962e5f54fd869943f", "type": "electric_scooter", "name": "3d5af7f63c11657962e5f54fd869943f", "rental_uris": {"android": "https://dc.lft.to/lastmile_qr_scan", "ios": "https://dc.lft.to/lastmile_qr_scan"}, "is_disabled": 0, "fusion_lat": 0.0, "lat": 38.90330866666667, "is_reserved": 0}, {"lon": -77.0352185, "fusion_lon": 0.0, "bike_id": "f75df97186bba3e30fb4edd6b7076dc8", "type": "electric_scooter", "name": "f75df97186bba3e30fb4edd6b7076dc8", "rental_uris": {"android": "https://dc.lft.to/lastmile_qr_scan", "ios": "https://dc.lft.to/lastmile_qr_scan"}, "is_disabled": 0, "fusion_lat": 0.0, "lat": 38.90352216666667, "is_reserved": 0}, {"lon": -77.084877, "fusion_lon": 0.0, "bike_id": "3dadd52621fe8f4da34977c9a6601261", "type": "electric_scooter", "name": "3dadd52621fe8f4da34977c9a6601261", "rental_uris": {"android": "https://dc.lft.to/lastmile_qr_scan", "ios": "https://dc.lft.to/lastmile_qr_scan"}, "is_disabled": 0, "fusion_lat": 0.0, "lat": 38.93904283333333, "is_reserved": 0}, {"lon": -77.04194516666666, "fusion_lon": 0.0, "bike_id": "88ddd1aa2ee7a0ac3113cad646536537", "type": "electric_scooter", "name": "88ddd1aa2ee7a0ac3113cad646536537", "rental_uris": {"android": "https://dc.lft.to/lastmile_qr_scan", "ios": "https://dc.lft.to/lastmile_qr_scan"}, "is_disabled": 0, "fusion_lat": 0.0, "lat": 38.920530166666666, "is_reserved": 0}, {"lon": -77.00231383333333, "fusion_lon": 0.0, "bike_id": "6ad18bf088ca37e211f03a8533fdc369", "type": "electric_scooter", "name": "6ad18bf088ca37e211f03a8533fdc369", "rental_uris": {"android": "https://dc.lft.to/lastmile_qr_scan", "ios": "https://dc.lft.to/lastmile_qr_scan"}, "is_disabled": 0, "fusion_lat": 0.0, "lat": 38.88513583333334, "is_reserved": 0}, {"lon": -77.01754683333333, "fusion_lon": 0.0, "bike_id": "0d8e34eef045996b5d2fb2b1f2689636", "type": "electric_scooter", "name": "0d8e34eef045996b5d2fb2b1f2689636", "rental_uris": {"android": "https://dc.lft.to/lastmile_qr_scan", "ios": "https://dc.lft.to/lastmile_qr_scan"}, "is_disabled": 0, "fusion_lat": 0.0, "lat": 38.92107266666667, "is_reserved": 0}, {"lon": -77.02481666666667, "fusion_lon": 0.0, "bike_id": "aa596d4b8d3ee15a12b6a3b614a72722", "type": "electric_scooter", "name": "aa596d4b8d3ee15a12b6a3b614a72722", "rental_uris": {"android": "https://dc.lft.to/lastmile_qr_scan", "ios": "https://dc.lft.to/lastmile_qr_scan"}, "is_disabled": 0, "fusion_lat": 0.0, "lat": 38.93965766666667, "is_reserved": 0}, {"lon": -77.0220955, "fusion_lon": 0.0, "bike_id": "4e5f57563483521c4658cd7ea7d7a83c", "type": "electric_scooter", "name": "4e5f57563483521c4658cd7ea7d7a83c", "rental_uris": {"android": "https://dc.lft.to/lastmile_qr_scan", "ios": "https://dc.lft.to/lastmile_qr_scan"}, "is_disabled": 0, "fusion_lat": 0.0, "lat": 38.9279165, "is_reserved": 0}, {"lon": -76.98544733333334, "fusion_lon": 0.0, "bike_id": "88e3fae264813400b40cf54322c1e9ba", "type": "electric_scooter", "name": "88e3fae264813400b40cf54322c1e9ba", "rental_uris": {"android": "https://dc.lft.to/lastmile_qr_scan", "ios": "https://dc.lft.to/lastmile_qr_scan"}, "is_disabled": 0, "fusion_lat": 0.0, "lat": 38.866887, "is_reserved": 0}, {"lon": -77.03859933333334, "fusion_lon": 0.0, "bike_id": "e28aa84deb28ba8a8add9ff615208c48", "type": "electric_scooter", "name": "e28aa84deb28ba8a8add9ff615208c48", "rental_uris": {"android": "https://dc.lft.to/lastmile_qr_scan", "ios": "https://dc.lft.to/lastmile_qr_scan"}, "is_disabled": 0, "fusion_lat": 0.0, "lat": 38.91301433333334, "is_reserved": 0}, {"lon": -77.00955066666667, "fusion_lon": 0.0, "bike_id": "48e5b28540f46eed6b0463d88aa424ac", "type": "electric_scooter", "name": "48e5b28540f46eed6b0463d88aa424ac", "rental_uris": {"android": "https://dc.lft.to/lastmile_qr_scan", "ios": "https://dc.lft.to/lastmile_qr_scan"}, "is_disabled": 0, "fusion_lat": 0.0, "lat": 38.897446333333335, "is_reserved": 0}, {"lon": -77.031317, "fusion_lon": 0.0, "bike_id": "d7ab12e37961cb103c7244c5b24d9cdc", "type": "electric_scooter", "name": "d7ab12e37961cb103c7244c5b24d9cdc", "rental_uris": {"android": "https://dc.lft.to/lastmile_qr_scan", "ios": "https://dc.lft.to/lastmile_qr_scan"}, "is_disabled": 0, "fusion_lat": 0.0, "lat": 38.90440983333333, "is_reserved": 0}, {"lon": -77.02229316666667, "fusion_lon": 0.0, "bike_id": "b30be6e1281fe65ba2437dcdc054493d", "type": "electric_scooter", "name": "b30be6e1281fe65ba2437dcdc054493d", "rental_uris": {"android": "https://dc.lft.to/lastmile_qr_scan", "ios": "https://dc.lft.to/lastmile_qr_scan"}, "is_disabled": 0, "fusion_lat": 0.0, "lat": 38.934704833333335, "is_reserved": 0}, {"lon": -77.04986816666667, "fusion_lon": 0.0, "bike_id": "d66d2abae8cf705343e763138f0112ab", "type": "electric_scooter", "name": "d66d2abae8cf705343e763138f0112ab", "rental_uris": {"android": "https://dc.lft.to/lastmile_qr_scan", "ios": "https://dc.lft.to/lastmile_qr_scan"}, "is_disabled": 0, "fusion_lat": 0.0, "lat": 38.90120433333333, "is_reserved": 0}, {"lon": -76.9319135, "fusion_lon": 0.0, "bike_id": "b0e94740313be68ab2092a4504a94141", "type": "electric_scooter", "name": "b0e94740313be68ab2092a4504a94141", "rental_uris": {"android": "https://dc.lft.to/lastmile_qr_scan", "ios": "https://dc.lft.to/lastmile_qr_scan"}, "is_disabled": 0, "fusion_lat": 0.0, "lat": 38.898778666666665, "is_reserved": 0}, {"lon": -76.952539, "fusion_lon": 0.0, "bike_id": "8a917f36c1286f87ababef86ee32b353", "type": "electric_bike", "name": "8a917f36c1286f87ababef86ee32b353", "rental_uris": {"android": "https://dc.lft.to/lastmile_qr_scan", "ios": "https://dc.lft.to/lastmile_qr_scan"}, "is_disabled": 0, "fusion_lat": 0.0, "lat": 38.906911, "is_reserved": 0}, {"lon": -77.20137533333333, "fusion_lon": 0.0, "bike_id": "9202535cbb057e92fc444903f9cac8f0", "type": "electric_bike", "name": "9202535cbb057e92fc444903f9cac8f0", "rental_uris": {"android": "https://dc.lft.to/lastmile_qr_scan", "ios": "https://dc.lft.to/lastmile_qr_scan"}, "is_disabled": 0, "fusion_lat": 0.0, "lat": 38.922193, "is_reserved": 0}, {"lon": -76.94635766666667, "fusion_lon": 0.0, "bike_id": "9dba7a111537588cc0ee261898732309", "type": "electric_scooter", "name": "9dba7a111537588cc0ee261898732309", "rental_uris": {"android": "https://dc.lft.to/lastmile_qr_scan", "ios": "https://dc.lft.to/lastmile_qr_scan"}, "is_disabled": 0, "fusion_lat": 0.0, "lat": 38.898653, "is_reserved": 0}, {"lon": -77.04068883333333, "fusion_lon": 0.0, "bike_id": "2305f001cf46d1a96481a52c87508720", "type": "electric_scooter", "name": "2305f001cf46d1a96481a52c87508720", "rental_uris": {"android": "https://dc.lft.to/lastmile_qr_scan", "ios": "https://dc.lft.to/lastmile_qr_scan"}, "is_disabled": 0, "fusion_lat": 0.0, "lat": 38.9038685, "is_reserved": 0}, {"lon": -77.03283833333333, "fusion_lon": 0.0, "bike_id": "f443e9911a80730835d0d220f04df1cf", "type": "electric_scooter", "name": "f443e9911a80730835d0d220f04df1cf", "rental_uris": {"android": "https://dc.lft.to/lastmile_qr_scan", "ios": "https://dc.lft.to/lastmile_qr_scan"}, "is_disabled": 0, "fusion_lat": 0.0, "lat": 38.9227415, "is_reserved": 0}, {"lon": -77.0769975, "fusion_lon": 0.0, "bike_id": "52667bc230cf4e6545f14500abf6e14a", "type": "electric_scooter", "name": "52667bc230cf4e6545f14500abf6e14a", "rental_uris": {"android": "https://dc.lft.to/lastmile_qr_scan", "ios": "https://dc.lft.to/lastmile_qr_scan"}, "is_disabled": 0, "fusion_lat": 0.0, "lat": 38.943838166666666, "is_reserved": 0}, {"lon": -77.0020025, "fusion_lon": 0.0, "bike_id": "4cbb0c8b44999fab6bdd5f52ce65c285", "type": "electric_scooter", "name": "4cbb0c8b44999fab6bdd5f52ce65c285", "rental_uris": {"android": "https://dc.lft.to/lastmile_qr_scan", "ios": "https://dc.lft.to/lastmile_qr_scan"}, "is_disabled": 0, "fusion_lat": 0.0, "lat": 38.9003085, "is_reserved": 0}, {"lon": -76.970992, "fusion_lon": 0.0, "bike_id": "18061c193156b1d6fa44a242f824ca8e", "type": "electric_scooter", "name": "18061c193156b1d6fa44a242f824ca8e", "rental_uris": {"android": "https://dc.lft.to/lastmile_qr_scan", "ios": "https://dc.lft.to/lastmile_qr_scan"}, "is_disabled": 0, "fusion_lat": 0.0, "lat": 38.87061883333333, "is_reserved": 0}, {"lon": -77.03942716666667, "fusion_lon": 0.0, "bike_id": "126358ccba6f1ba37217e9691b14a6d8", "type": "electric_scooter", "name": "126358ccba6f1ba37217e9691b14a6d8", "rental_uris": {"android": "https://dc.lft.to/lastmile_qr_scan", "ios": "https://dc.lft.to/lastmile_qr_scan"}, "is_disabled": 0, "fusion_lat": 0.0, "lat": 38.903091833333335, "is_reserved": 0}, {"lon": -77.04838033333333, "fusion_lon": 0.0, "bike_id": "06d019f79b7d9df71a4d047b6c56b62f", "type": "electric_scooter", "name": "06d019f79b7d9df71a4d047b6c56b62f", "rental_uris": {"android": "https://dc.lft.to/lastmile_qr_scan", "ios": "https://dc.lft.to/lastmile_qr_scan"}, "is_disabled": 0, "fusion_lat": 0.0, "lat": 38.911734333333335, "is_reserved": 0}, {"lon": -77.03661716666667, "fusion_lon": 0.0, "bike_id": "41a3972938e2fc0bbe006305ec0b0035", "type": "electric_scooter", "name": "41a3972938e2fc0bbe006305ec0b0035", "rental_uris": {"android": "https://dc.lft.to/lastmile_qr_scan", "ios": "https://dc.lft.to/lastmile_qr_scan"}, "is_disabled": 0, "fusion_lat": 0.0, "lat": 38.9113365, "is_reserved": 0}, {"lon": -77.021175, "fusion_lon": 0.0, "bike_id": "2923a6ea8d3646a9976f484256ca60ed", "type": "electric_bike", "name": "2923a6ea8d3646a9976f484256ca60ed", "rental_uris": {"android": "https://dc.lft.to/lastmile_qr_scan", "ios": "https://dc.lft.to/lastmile_qr_scan"}, "is_disabled": 0, "fusion_lat": 0.0, "lat": 38.93599416666667, "is_reserved": 0}, {"lon": -77.037148, "fusion_lon": 0.0, "bike_id": "54942239e5c0fea6d11ed8e145350d8d", "type": "electric_scooter", "name": "54942239e5c0fea6d11ed8e145350d8d", "rental_uris": {"android": "https://dc.lft.to/lastmile_qr_scan", "ios": "https://dc.lft.to/lastmile_qr_scan"}, "is_disabled": 0, "fusion_lat": 0.0, "lat": 38.928618166666666, "is_reserved": 0}, {"lon": -77.02466933333334, "fusion_lon": 0.0, "bike_id": "194ce7deb3bf6c05d1d035371504381f", "type": "electric_scooter", "name": "194ce7deb3bf6c05d1d035371504381f", "rental_uris": {"android": "https://dc.lft.to/lastmile_qr_scan", "ios": "https://dc.lft.to/lastmile_qr_scan"}, "is_disabled": 0, "fusion_lat": 0.0, "lat": 38.91703616666667, "is_reserved": 0}, {"lon": -77.03822466666666, "fusion_lon": 0.0, "bike_id": "7845e6c07f7dff0e5e344f91841e2e36", "type": "electric_scooter", "name": "7845e6c07f7dff0e5e344f91841e2e36", "rental_uris": {"android": "https://dc.lft.to/lastmile_qr_scan", "ios": "https://dc.lft.to/lastmile_qr_scan"}, "is_disabled": 0, "fusion_lat": 0.0, "lat": 38.9112145, "is_reserved": 0}, {"lon": -76.9871515, "fusion_lon": 0.0, "bike_id": "5b05514eefca0c7bfa68d8ce5f00597c", "type": "electric_scooter", "name": "5b05514eefca0c7bfa68d8ce5f00597c", "rental_uris": {"android": "https://dc.lft.to/lastmile_qr_scan", "ios": "https://dc.lft.to/lastmile_qr_scan"}, "is_disabled": 0, "fusion_lat": 0.0, "lat": 38.86625983333333, "is_reserved": 0}, {"lon": -77.0320745, "fusion_lon": 0.0, "bike_id": "8da9d00858a699ff228f01263eb61204", "type": "electric_scooter", "name": "8da9d00858a699ff228f01263eb61204", "rental_uris": {"android": "https://dc.lft.to/lastmile_qr_scan", "ios": "https://dc.lft.to/lastmile_qr_scan"}, "is_disabled": 0, "fusion_lat": 0.0, "lat": 38.892377, "is_reserved": 0}, {"lon": -76.998251, "fusion_lon": 0.0, "bike_id": "cbbc3d5361c5ae7763ef2a6702d9824f", "type": "electric_bike", "name": "cbbc3d5361c5ae7763ef2a6702d9824f", "rental_uris": {"android": "https://dc.lft.to/lastmile_qr_scan", "ios": "https://dc.lft.to/lastmile_qr_scan"}, "is_disabled": 0, "fusion_lat": 0.0, "lat": 38.81987133333333, "is_reserved": 0}, {"lon": -76.99063283333334, "fusion_lon": 0.0, "bike_id": "c341970d9403df8fdfe910b8ca388549", "type": "electric_scooter", "name": "c341970d9403df8fdfe910b8ca388549", "rental_uris": {"android": "https://dc.lft.to/lastmile_qr_scan", "ios": "https://dc.lft.to/lastmile_qr_scan"}, "is_disabled": 0, "fusion_lat": 0.0, "lat": 38.86375183333333, "is_reserved": 0}, {"lon": -77.0197145, "fusion_lon": 0.0, "bike_id": "cddfedbfb0b54ebfe169e68f550c2ffc", "type": "electric_scooter", "name": "cddfedbfb0b54ebfe169e68f550c2ffc", "rental_uris": {"android": "https://dc.lft.to/lastmile_qr_scan", "ios": "https://dc.lft.to/lastmile_qr_scan"}, "is_disabled": 0, "fusion_lat": 0.0, "lat": 38.9774605, "is_reserved": 0}, {"lon": -76.94962483333333, "fusion_lon": 0.0, "bike_id": "84c724cd9ea01bbed51292079873110f", "type": "electric_scooter", "name": "84c724cd9ea01bbed51292079873110f", "rental_uris": {"android": "https://dc.lft.to/lastmile_qr_scan", "ios": "https://dc.lft.to/lastmile_qr_scan"}, "is_disabled": 0, "fusion_lat": 0.0, "lat": 38.8946655, "is_reserved": 0}, {"lon": -76.99548866666666, "fusion_lon": 0.0, "bike_id": "e64717b4e8e216a92972f7debbf6a389", "type": "electric_bike", "name": "e64717b4e8e216a92972f7debbf6a389", "rental_uris": {"android": "https://dc.lft.to/lastmile_qr_scan", "ios": "https://dc.lft.to/lastmile_qr_scan"}, "is_disabled": 0, "fusion_lat": 0.0, "lat": 38.8315795, "is_reserved": 0}, {"lon": -77.02221133333333, "fusion_lon": 0.0, "bike_id": "40600c0613a665d1d5f30650e849384b", "type": "electric_scooter", "name": "40600c0613a665d1d5f30650e849384b", "rental_uris": {"android": "https://dc.lft.to/lastmile_qr_scan", "ios": "https://dc.lft.to/lastmile_qr_scan"}, "is_disabled": 0, "fusion_lat": 0.0, "lat": 38.914165833333335, "is_reserved": 0}, {"lon": -76.99265133333333, "fusion_lon": 0.0, "bike_id": "50156484692a94036f8a59573b3f5708", "type": "electric_scooter", "name": "50156484692a94036f8a59573b3f5708", "rental_uris": {"android": "https://dc.lft.to/lastmile_qr_scan", "ios": "https://dc.lft.to/lastmile_qr_scan"}, "is_disabled": 0, "fusion_lat": 0.0, "lat": 38.892747666666665, "is_reserved": 0}, {"lon": -77.0295605, "fusion_lon": 0.0, "bike_id": "4979759fa916484b4c5a33b6260dbc10", "type": "electric_scooter", "name": "4979759fa916484b4c5a33b6260dbc10", "rental_uris": {"android": "https://dc.lft.to/lastmile_qr_scan", "ios": "https://dc.lft.to/lastmile_qr_scan"}, "is_disabled": 0, "fusion_lat": 0.0, "lat": 38.902904666666664, "is_reserved": 0}, {"lon": -77.0514555, "fusion_lon": 0.0, "bike_id": "cfaef4ee75cc6786432dc6f6d809a1f7", "type": "electric_scooter", "name": "cfaef4ee75cc6786432dc6f6d809a1f7", "rental_uris": {"android": "https://dc.lft.to/lastmile_qr_scan", "ios": "https://dc.lft.to/lastmile_qr_scan"}, "is_disabled": 0, "fusion_lat": 0.0, "lat": 38.901867333333335, "is_reserved": 0}, {"lon": -77.08432183333333, "fusion_lon": 0.0, "bike_id": "3713ba21cd1beb470b879ce412fedd76", "type": "electric_scooter", "name": "3713ba21cd1beb470b879ce412fedd76", "rental_uris": {"android": "https://dc.lft.to/lastmile_qr_scan", "ios": "https://dc.lft.to/lastmile_qr_scan"}, "is_disabled": 0, "fusion_lat": 0.0, "lat": 38.939945333333334, "is_reserved": 0}, {"lon": -77.02417866666667, "fusion_lon": 0.0, "bike_id": "ffa3fab9f6e62bf874420f6b6bae3973", "type": "electric_scooter", "name": "ffa3fab9f6e62bf874420f6b6bae3973", "rental_uris": {"android": "https://dc.lft.to/lastmile_qr_scan", "ios": "https://dc.lft.to/lastmile_qr_scan"}, "is_disabled": 0, "fusion_lat": 0.0, "lat": 38.90570683333333, "is_reserved": 0}, {"lon": -77.02307316666666, "fusion_lon": 0.0, "bike_id": "1e823472609d24149c418cd4fb959af7", "type": "electric_scooter", "name": "1e823472609d24149c418cd4fb959af7", "rental_uris": {"android": "https://dc.lft.to/lastmile_qr_scan", "ios": "https://dc.lft.to/lastmile_qr_scan"}, "is_disabled": 0, "fusion_lat": 0.0, "lat": 38.895132, "is_reserved": 0}, {"lon": -77.04611933333334, "fusion_lon": 0.0, "bike_id": "2160c994eccc278539d45f67159b4b00", "type": "electric_scooter", "name": "2160c994eccc278539d45f67159b4b00", "rental_uris": {"android": "https://dc.lft.to/lastmile_qr_scan", "ios": "https://dc.lft.to/lastmile_qr_scan"}, "is_disabled": 0, "fusion_lat": 0.0, "lat": 38.916811833333334, "is_reserved": 0}, {"lon": -77.018037, "fusion_lon": 0.0, "bike_id": "1e9c2808db26f55a86d9ee8371fc2686", "type": "electric_scooter", "name": "1e9c2808db26f55a86d9ee8371fc2686", "rental_uris": {"android": "https://dc.lft.to/lastmile_qr_scan", "ios": "https://dc.lft.to/lastmile_qr_scan"}, "is_disabled": 0, "fusion_lat": 0.0, "lat": 38.900808833333336, "is_reserved": 0}, {"lon": -77.0367055, "fusion_lon": 0.0, "bike_id": "1daa2253a295610ce713aec31f3ba3e2", "type": "electric_bike", "name": "1daa2253a295610ce713aec31f3ba3e2", "rental_uris": {"android": "https://dc.lft.to/lastmile_qr_scan", "ios": "https://dc.lft.to/lastmile_qr_scan"}, "is_disabled": 0, "fusion_lat": 0.0, "lat": 38.93641183333333, "is_reserved": 0}, {"lon": -77.0049455, "fusion_lon": 0.0, "bike_id": "74650cc5bb3e76ed9bc1aa6315157071", "type": "electric_scooter", "name": "74650cc5bb3e76ed9bc1aa6315157071", "rental_uris": {"android": "https://dc.lft.to/lastmile_qr_scan", "ios": "https://dc.lft.to/lastmile_qr_scan"}, "is_disabled": 0, "fusion_lat": 0.0, "lat": 38.874601, "is_reserved": 0}, {"lon": -77.038829, "fusion_lon": 0.0, "bike_id": "a3fbb46bcd8df42d2f04fb3898c06f66", "type": "electric_scooter", "name": "a3fbb46bcd8df42d2f04fb3898c06f66", "rental_uris": {"android": "https://dc.lft.to/lastmile_qr_scan", "ios": "https://dc.lft.to/lastmile_qr_scan"}, "is_disabled": 0, "fusion_lat": 0.0, "lat": 38.914695, "is_reserved": 0}, {"lon": -77.08073616666667, "fusion_lon": 0.0, "bike_id": "8e5a8b81328404cf10e7d7ce0fc20e58", "type": "electric_bike", "name": "8e5a8b81328404cf10e7d7ce0fc20e58", "rental_uris": {"android": "https://dc.lft.to/lastmile_qr_scan", "ios": "https://dc.lft.to/lastmile_qr_scan"}, "is_disabled": 0, "fusion_lat": 0.0, "lat": 39.05252483333334, "is_reserved": 0}, {"lon": -77.03378966666666, "fusion_lon": 0.0, "bike_id": "bcb35a5dbc9f7941e65aa695067fae6f", "type": "electric_scooter", "name": "bcb35a5dbc9f7941e65aa695067fae6f", "rental_uris": {"android": "https://dc.lft.to/lastmile_qr_scan", "ios": "https://dc.lft.to/lastmile_qr_scan"}, "is_disabled": 0, "fusion_lat": 0.0, "lat": 38.92538066666667, "is_reserved": 0}, {"lon": -77.00216816666666, "fusion_lon": 0.0, "bike_id": "6d8cc8fe4e282892590609e7a880ddd1", "type": "electric_scooter", "name": "6d8cc8fe4e282892590609e7a880ddd1", "rental_uris": {"android": "https://dc.lft.to/lastmile_qr_scan", "ios": "https://dc.lft.to/lastmile_qr_scan"}, "is_disabled": 0, "fusion_lat": 0.0, "lat": 38.91460633333333, "is_reserved": 0}, {"lon": -77.04489883333333, "fusion_lon": 0.0, "bike_id": "cbf0bf022e0d7fe8f8d7b37a2ee7b812", "type": "electric_scooter", "name": "cbf0bf022e0d7fe8f8d7b37a2ee7b812", "rental_uris": {"android": "https://dc.lft.to/lastmile_qr_scan", "ios": "https://dc.lft.to/lastmile_qr_scan"}, "is_disabled": 0, "fusion_lat": 0.0, "lat": 38.8974345, "is_reserved": 0}, {"lon": -77.03852416666666, "fusion_lon": 0.0, "bike_id": "721049327b8a13f177ee51ddf5262578", "type": "electric_scooter", "name": "721049327b8a13f177ee51ddf5262578", "rental_uris": {"android": "https://dc.lft.to/lastmile_qr_scan", "ios": "https://dc.lft.to/lastmile_qr_scan"}, "is_disabled": 0, "fusion_lat": 0.0, "lat": 38.90278583333333, "is_reserved": 0}, {"lon": -76.97036983333334, "fusion_lon": 0.0, "bike_id": "f3e5df2b82be6fd1d4abfb8a0a04ba32", "type": "electric_scooter", "name": "f3e5df2b82be6fd1d4abfb8a0a04ba32", "rental_uris": {"android": "https://dc.lft.to/lastmile_qr_scan", "ios": "https://dc.lft.to/lastmile_qr_scan"}, "is_disabled": 0, "fusion_lat": 0.0, "lat": 38.87360066666667, "is_reserved": 0}, {"lon": -76.99696216666666, "fusion_lon": 0.0, "bike_id": "49d971f55bce9ee9779b642a3904a61d", "type": "electric_scooter", "name": "49d971f55bce9ee9779b642a3904a61d", "rental_uris": {"android": "https://dc.lft.to/lastmile_qr_scan", "ios": "https://dc.lft.to/lastmile_qr_scan"}, "is_disabled": 0, "fusion_lat": 0.0, "lat": 38.9108335, "is_reserved": 0}, {"lon": -77.03084433333333, "fusion_lon": 0.0, "bike_id": "66fa5e12ff935129b4aff67a247bfddb", "type": "electric_scooter", "name": "66fa5e12ff935129b4aff67a247bfddb", "rental_uris": {"android": "https://dc.lft.to/lastmile_qr_scan", "ios": "https://dc.lft.to/lastmile_qr_scan"}, "is_disabled": 0, "fusion_lat": 0.0, "lat": 38.92245783333333, "is_reserved": 0}, {"lon": -77.03734116666666, "fusion_lon": 0.0, "bike_id": "ebe0e3475dae4251692939914e339886", "type": "electric_scooter", "name": "ebe0e3475dae4251692939914e339886", "rental_uris": {"android": "https://dc.lft.to/lastmile_qr_scan", "ios": "https://dc.lft.to/lastmile_qr_scan"}, "is_disabled": 0, "fusion_lat": 0.0, "lat": 38.926612666666664, "is_reserved": 0}, {"lon": -77.05859483333333, "fusion_lon": 0.0, "bike_id": "c2aea0d97c40936cedb3e37afff04030", "type": "electric_scooter", "name": "c2aea0d97c40936cedb3e37afff04030", "rental_uris": {"android": "https://dc.lft.to/lastmile_qr_scan", "ios": "https://dc.lft.to/lastmile_qr_scan"}, "is_disabled": 0, "fusion_lat": 0.0, "lat": 38.93609566666667, "is_reserved": 0}, {"lon": -77.021536, "fusion_lon": 0.0, "bike_id": "3155e07bbb048067edd6569b269958fe", "type": "electric_scooter", "name": "3155e07bbb048067edd6569b269958fe", "rental_uris": {"android": "https://dc.lft.to/lastmile_qr_scan", "ios": "https://dc.lft.to/lastmile_qr_scan"}, "is_disabled": 0, "fusion_lat": 0.0, "lat": 38.924560166666666, "is_reserved": 0}, {"lon": -77.041152, "fusion_lon": 0.0, "bike_id": "293b0783fc668919afda9c41418a8b26", "type": "electric_scooter", "name": "293b0783fc668919afda9c41418a8b26", "rental_uris": {"android": "https://dc.lft.to/lastmile_qr_scan", "ios": "https://dc.lft.to/lastmile_qr_scan"}, "is_disabled": 0, "fusion_lat": 0.0, "lat": 38.921443833333335, "is_reserved": 0}, {"lon": -77.04491766666666, "fusion_lon": 0.0, "bike_id": "f1e61259ec20ab92d59c1b78f756720a", "type": "electric_scooter", "name": "f1e61259ec20ab92d59c1b78f756720a", "rental_uris": {"android": "https://dc.lft.to/lastmile_qr_scan", "ios": "https://dc.lft.to/lastmile_qr_scan"}, "is_disabled": 0, "fusion_lat": 0.0, "lat": 38.911028333333334, "is_reserved": 0}, {"lon": -77.02484916666667, "fusion_lon": 0.0, "bike_id": "d8ca3a51f26ecec3f5ae8454411da0a0", "type": "electric_scooter", "name": "d8ca3a51f26ecec3f5ae8454411da0a0", "rental_uris": {"android": "https://dc.lft.to/lastmile_qr_scan", "ios": "https://dc.lft.to/lastmile_qr_scan"}, "is_disabled": 0, "fusion_lat": 0.0, "lat": 38.95783133333333, "is_reserved": 0}, {"lon": -77.03808266666667, "fusion_lon": 0.0, "bike_id": "4e0b3f8d816574a5102cc3ca00fc460a", "type": "electric_scooter", "name": "4e0b3f8d816574a5102cc3ca00fc460a", "rental_uris": {"android": "https://dc.lft.to/lastmile_qr_scan", "ios": "https://dc.lft.to/lastmile_qr_scan"}, "is_disabled": 0, "fusion_lat": 0.0, "lat": 38.920618833333336, "is_reserved": 0}, {"lon": -76.946401, "fusion_lon": 0.0, "bike_id": "f35d1e1818e8c6f48186662c2ddde7bd", "type": "electric_scooter", "name": "f35d1e1818e8c6f48186662c2ddde7bd", "rental_uris": {"android": "https://dc.lft.to/lastmile_qr_scan", "ios": "https://dc.lft.to/lastmile_qr_scan"}, "is_disabled": 0, "fusion_lat": 0.0, "lat": 38.898672, "is_reserved": 0}, {"lon": -76.93728533333334, "fusion_lon": 0.0, "bike_id": "3ac8a9db56f40d18fd45c0da5fcd1262", "type": "electric_scooter", "name": "3ac8a9db56f40d18fd45c0da5fcd1262", "rental_uris": {"android": "https://dc.lft.to/lastmile_qr_scan", "ios": "https://dc.lft.to/lastmile_qr_scan"}, "is_disabled": 0, "fusion_lat": 0.0, "lat": 38.890240666666664, "is_reserved": 0}, {"lon": -77.025699, "fusion_lon": 0.0, "bike_id": "8417515acb849fe2ec63c8cef1684869", "type": "electric_scooter", "name": "8417515acb849fe2ec63c8cef1684869", "rental_uris": {"android": "https://dc.lft.to/lastmile_qr_scan", "ios": "https://dc.lft.to/lastmile_qr_scan"}, "is_disabled": 0, "fusion_lat": 0.0, "lat": 38.88745483333334, "is_reserved": 0}, {"lon": -77.04383816666666, "fusion_lon": 0.0, "bike_id": "b3e025d7cde971bbcfeda27359625bfd", "type": "electric_scooter", "name": "b3e025d7cde971bbcfeda27359625bfd", "rental_uris": {"android": "https://dc.lft.to/lastmile_qr_scan", "ios": "https://dc.lft.to/lastmile_qr_scan"}, "is_disabled": 0, "fusion_lat": 0.0, "lat": 38.90832966666667, "is_reserved": 0}, {"lon": -77.0384315, "fusion_lon": 0.0, "bike_id": "2ea1060536fd0c2ac61060b3a6e0300b", "type": "electric_scooter", "name": "2ea1060536fd0c2ac61060b3a6e0300b", "rental_uris": {"android": "https://dc.lft.to/lastmile_qr_scan", "ios": "https://dc.lft.to/lastmile_qr_scan"}, "is_disabled": 0, "fusion_lat": 0.0, "lat": 38.908535666666666, "is_reserved": 0}, {"lon": -77.01902683333333, "fusion_lon": 0.0, "bike_id": "162d587ba5dd2cbfdf9d7a026bb649a4", "type": "electric_scooter", "name": "162d587ba5dd2cbfdf9d7a026bb649a4", "rental_uris": {"android": "https://dc.lft.to/lastmile_qr_scan", "ios": "https://dc.lft.to/lastmile_qr_scan"}, "is_disabled": 0, "fusion_lat": 0.0, "lat": 38.92365933333333, "is_reserved": 0}, {"lon": -77.0382885, "fusion_lon": 0.0, "bike_id": "a4e45f1203de8e810b3ff4a0647ce489", "type": "electric_scooter", "name": "a4e45f1203de8e810b3ff4a0647ce489", "rental_uris": {"android": "https://dc.lft.to/lastmile_qr_scan", "ios": "https://dc.lft.to/lastmile_qr_scan"}, "is_disabled": 0, "fusion_lat": 0.0, "lat": 38.91268983333333, "is_reserved": 0}, {"lon": -77.02697583333334, "fusion_lon": 0.0, "bike_id": "5bc7f1b78dd1766b64d16d31d404aab7", "type": "electric_scooter", "name": "5bc7f1b78dd1766b64d16d31d404aab7", "rental_uris": {"android": "https://dc.lft.to/lastmile_qr_scan", "ios": "https://dc.lft.to/lastmile_qr_scan"}, "is_disabled": 0, "fusion_lat": 0.0, "lat": 38.908453333333334, "is_reserved": 0}, {"lon": -77.02152733333334, "fusion_lon": 0.0, "bike_id": "6a03de27e7c10c3f2a8f0fcd61d21315", "type": "electric_scooter", "name": "6a03de27e7c10c3f2a8f0fcd61d21315", "rental_uris": {"android": "https://dc.lft.to/lastmile_qr_scan", "ios": "https://dc.lft.to/lastmile_qr_scan"}, "is_disabled": 0, "fusion_lat": 0.0, "lat": 38.958030666666666, "is_reserved": 0}, {"lon": -77.01745566666666, "fusion_lon": 0.0, "bike_id": "cc663fbe840d85093811811855ffbb15", "type": "electric_scooter", "name": "cc663fbe840d85093811811855ffbb15", "rental_uris": {"android": "https://dc.lft.to/lastmile_qr_scan", "ios": "https://dc.lft.to/lastmile_qr_scan"}, "is_disabled": 0, "fusion_lat": 0.0, "lat": 38.90240766666667, "is_reserved": 0}, {"lon": -77.01848183333334, "fusion_lon": 0.0, "bike_id": "ef2c166a59488d4a8e4eabd07056c203", "type": "electric_scooter", "name": "ef2c166a59488d4a8e4eabd07056c203", "rental_uris": {"android": "https://dc.lft.to/lastmile_qr_scan", "ios": "https://dc.lft.to/lastmile_qr_scan"}, "is_disabled": 0, "fusion_lat": 0.0, "lat": 38.97370133333333, "is_reserved": 0}, {"lon": -76.9982945, "fusion_lon": 0.0, "bike_id": "93f220f63fb603d652b32e4d05ba3bb8", "type": "electric_scooter", "name": "93f220f63fb603d652b32e4d05ba3bb8", "rental_uris": {"android": "https://dc.lft.to/lastmile_qr_scan", "ios": "https://dc.lft.to/lastmile_qr_scan"}, "is_disabled": 0, "fusion_lat": 0.0, "lat": 38.90025766666667, "is_reserved": 0}, {"lon": -76.92657383333334, "fusion_lon": 0.0, "bike_id": "48c8f3acaf64b71637cd7801ccac6734", "type": "electric_scooter", "name": "48c8f3acaf64b71637cd7801ccac6734", "rental_uris": {"android": "https://dc.lft.to/lastmile_qr_scan", "ios": "https://dc.lft.to/lastmile_qr_scan"}, "is_disabled": 0, "fusion_lat": 0.0, "lat": 38.901688166666666, "is_reserved": 0}, {"lon": -77.010275, "fusion_lon": 0.0, "bike_id": "c74872b014feb098d80846064abde560", "type": "electric_scooter", "name": "c74872b014feb098d80846064abde560", "rental_uris": {"android": "https://dc.lft.to/lastmile_qr_scan", "ios": "https://dc.lft.to/lastmile_qr_scan"}, "is_disabled": 0, "fusion_lat": 0.0, "lat": 38.920307333333334, "is_reserved": 0}, {"lon": -77.01220366666666, "fusion_lon": 0.0, "bike_id": "de21213ff074f77745e306da1eb40649", "type": "electric_scooter", "name": "de21213ff074f77745e306da1eb40649", "rental_uris": {"android": "https://dc.lft.to/lastmile_qr_scan", "ios": "https://dc.lft.to/lastmile_qr_scan"}, "is_disabled": 0, "fusion_lat": 0.0, "lat": 38.9168545, "is_reserved": 0}, {"lon": -77.02932316666667, "fusion_lon": 0.0, "bike_id": "ff75144024e3c097c311588fc8ccb905", "type": "electric_scooter", "name": "ff75144024e3c097c311588fc8ccb905", "rental_uris": {"android": "https://dc.lft.to/lastmile_qr_scan", "ios": "https://dc.lft.to/lastmile_qr_scan"}, "is_disabled": 0, "fusion_lat": 0.0, "lat": 38.89821383333334, "is_reserved": 0}, {"lon": -77.0175965, "fusion_lon": 0.0, "bike_id": "740616c480915ce854df9b9375d06a89", "type": "electric_scooter", "name": "740616c480915ce854df9b9375d06a89", "rental_uris": {"android": "https://dc.lft.to/lastmile_qr_scan", "ios": "https://dc.lft.to/lastmile_qr_scan"}, "is_disabled": 0, "fusion_lat": 0.0, "lat": 38.883237333333334, "is_reserved": 0}, {"lon": -77.02792366666667, "fusion_lon": 0.0, "bike_id": "d516500d9d07e5da1714d51120c1ecfd", "type": "electric_scooter", "name": "d516500d9d07e5da1714d51120c1ecfd", "rental_uris": {"android": "https://dc.lft.to/lastmile_qr_scan", "ios": "https://dc.lft.to/lastmile_qr_scan"}, "is_disabled": 0, "fusion_lat": 0.0, "lat": 38.899447333333335, "is_reserved": 0}, {"lon": -76.9889765, "fusion_lon": 0.0, "bike_id": "36bc5add7bcc5b2569978712edb3761d", "type": "electric_scooter", "name": "36bc5add7bcc5b2569978712edb3761d", "rental_uris": {"android": "https://dc.lft.to/lastmile_qr_scan", "ios": "https://dc.lft.to/lastmile_qr_scan"}, "is_disabled": 0, "fusion_lat": 0.0, "lat": 38.86664066666667, "is_reserved": 0}, {"lon": -77.03359216666666, "fusion_lon": 0.0, "bike_id": "d3b5c25c41cbf94692fb7f6fb3702c53", "type": "electric_scooter", "name": "d3b5c25c41cbf94692fb7f6fb3702c53", "rental_uris": {"android": "https://dc.lft.to/lastmile_qr_scan", "ios": "https://dc.lft.to/lastmile_qr_scan"}, "is_disabled": 0, "fusion_lat": 0.0, "lat": 38.920392666666665, "is_reserved": 0}, {"lon": -76.98249533333333, "fusion_lon": 0.0, "bike_id": "9182329cda59e4f6bdd04daa61be678f", "type": "electric_scooter", "name": "9182329cda59e4f6bdd04daa61be678f", "rental_uris": {"android": "https://dc.lft.to/lastmile_qr_scan", "ios": "https://dc.lft.to/lastmile_qr_scan"}, "is_disabled": 0, "fusion_lat": 0.0, "lat": 38.895456, "is_reserved": 0}, {"lon": -77.00217816666667, "fusion_lon": 0.0, "bike_id": "d3f5b9e950c53f1e1431c7aeffa0773e", "type": "electric_scooter", "name": "d3f5b9e950c53f1e1431c7aeffa0773e", "rental_uris": {"android": "https://dc.lft.to/lastmile_qr_scan", "ios": "https://dc.lft.to/lastmile_qr_scan"}, "is_disabled": 0, "fusion_lat": 0.0, "lat": 38.900312166666666, "is_reserved": 0}, {"lon": -77.02458016666667, "fusion_lon": 0.0, "bike_id": "ddb387a40f44f4f72c0eea960f888c42", "type": "electric_scooter", "name": "ddb387a40f44f4f72c0eea960f888c42", "rental_uris": {"android": "https://dc.lft.to/lastmile_qr_scan", "ios": "https://dc.lft.to/lastmile_qr_scan"}, "is_disabled": 0, "fusion_lat": 0.0, "lat": 38.91703733333333, "is_reserved": 0}, {"lon": -76.97632, "fusion_lon": 0.0, "bike_id": "7cdb291cc38394f64aee48bd97eac15e", "type": "electric_scooter", "name": "7cdb291cc38394f64aee48bd97eac15e", "rental_uris": {"android": "https://dc.lft.to/lastmile_qr_scan", "ios": "https://dc.lft.to/lastmile_qr_scan"}, "is_disabled": 0, "fusion_lat": 0.0, "lat": 38.90157333333333, "is_reserved": 0}, {"lon": -77.00935983333333, "fusion_lon": 0.0, "bike_id": "c0d940bef0c42c8641351d0dfa155453", "type": "electric_scooter", "name": "c0d940bef0c42c8641351d0dfa155453", "rental_uris": {"android": "https://dc.lft.to/lastmile_qr_scan", "ios": "https://dc.lft.to/lastmile_qr_scan"}, "is_disabled": 0, "fusion_lat": 0.0, "lat": 38.87507883333333, "is_reserved": 0}, {"lon": -77.041284, "fusion_lon": 0.0, "bike_id": "ec030c0a7b5322afa71fc672bf4f98f9", "type": "electric_scooter", "name": "ec030c0a7b5322afa71fc672bf4f98f9", "rental_uris": {"android": "https://dc.lft.to/lastmile_qr_scan", "ios": "https://dc.lft.to/lastmile_qr_scan"}, "is_disabled": 0, "fusion_lat": 0.0, "lat": 38.925314, "is_reserved": 0}, {"lon": -77.01217016666666, "fusion_lon": 0.0, "bike_id": "a8bf20d5bbd4a6f5394bcd5c9aef0779", "type": "electric_scooter", "name": "a8bf20d5bbd4a6f5394bcd5c9aef0779", "rental_uris": {"android": "https://dc.lft.to/lastmile_qr_scan", "ios": "https://dc.lft.to/lastmile_qr_scan"}, "is_disabled": 0, "fusion_lat": 0.0, "lat": 38.9175775, "is_reserved": 0}, {"lon": -77.03463933333333, "fusion_lon": 0.0, "bike_id": "eb3cc83ac2b5dcf3f43c13b16b413d00", "type": "electric_scooter", "name": "eb3cc83ac2b5dcf3f43c13b16b413d00", "rental_uris": {"android": "https://dc.lft.to/lastmile_qr_scan", "ios": "https://dc.lft.to/lastmile_qr_scan"}, "is_disabled": 0, "fusion_lat": 0.0, "lat": 38.926313, "is_reserved": 0}, {"lon": -77.03597516666666, "fusion_lon": 0.0, "bike_id": "df148cbc4577657ec97453284e299fc3", "type": "electric_scooter", "name": "df148cbc4577657ec97453284e299fc3", "rental_uris": {"android": "https://dc.lft.to/lastmile_qr_scan", "ios": "https://dc.lft.to/lastmile_qr_scan"}, "is_disabled": 0, "fusion_lat": 0.0, "lat": 38.931483666666665, "is_reserved": 0}, {"lon": -77.0322495, "fusion_lon": 0.0, "bike_id": "6d22f1f6baad258d9fcbc70f9d8453e9", "type": "electric_scooter", "name": "6d22f1f6baad258d9fcbc70f9d8453e9", "rental_uris": {"android": "https://dc.lft.to/lastmile_qr_scan", "ios": "https://dc.lft.to/lastmile_qr_scan"}, "is_disabled": 0, "fusion_lat": 0.0, "lat": 38.884857833333335, "is_reserved": 0}, {"lon": -76.98742016666667, "fusion_lon": 0.0, "bike_id": "90953a35c04d7a98d34a6de651f7fa3a", "type": "electric_bike", "name": "90953a35c04d7a98d34a6de651f7fa3a", "rental_uris": {"android": "https://dc.lft.to/lastmile_qr_scan", "ios": "https://dc.lft.to/lastmile_qr_scan"}, "is_disabled": 0, "fusion_lat": 0.0, "lat": 38.896090666666666, "is_reserved": 0}, {"lon": -76.96904066666667, "fusion_lon": 0.0, "bike_id": "26822e1ec1c6862d524eb84bfc7495c0", "type": "electric_scooter", "name": "26822e1ec1c6862d524eb84bfc7495c0", "rental_uris": {"android": "https://dc.lft.to/lastmile_qr_scan", "ios": "https://dc.lft.to/lastmile_qr_scan"}, "is_disabled": 0, "fusion_lat": 0.0, "lat": 38.87296166666667, "is_reserved": 0}, {"lon": -77.04500916666667, "fusion_lon": 0.0, "bike_id": "c7d393a0ae5528bcff1afefa6001b974", "type": "electric_scooter", "name": "c7d393a0ae5528bcff1afefa6001b974", "rental_uris": {"android": "https://dc.lft.to/lastmile_qr_scan", "ios": "https://dc.lft.to/lastmile_qr_scan"}, "is_disabled": 0, "fusion_lat": 0.0, "lat": 38.898233, "is_reserved": 0}, {"lon": -77.02289133333333, "fusion_lon": 0.0, "bike_id": "efecedb95164ab2a4e752cb2e37bfc1e", "type": "electric_scooter", "name": "efecedb95164ab2a4e752cb2e37bfc1e", "rental_uris": {"android": "https://dc.lft.to/lastmile_qr_scan", "ios": "https://dc.lft.to/lastmile_qr_scan"}, "is_disabled": 0, "fusion_lat": 0.0, "lat": 38.895264, "is_reserved": 0}, {"lon": -77.032192, "fusion_lon": 0.0, "bike_id": "b13b89592f63340d70a73568c38f605c", "type": "electric_scooter", "name": "b13b89592f63340d70a73568c38f605c", "rental_uris": {"android": "https://dc.lft.to/lastmile_qr_scan", "ios": "https://dc.lft.to/lastmile_qr_scan"}, "is_disabled": 0, "fusion_lat": 0.0, "lat": 38.90953983333333, "is_reserved": 0}, {"lon": -77.00857033333334, "fusion_lon": 0.0, "bike_id": "7ac92c820a484839846d589ea594c735", "type": "electric_scooter", "name": "7ac92c820a484839846d589ea594c735", "rental_uris": {"android": "https://dc.lft.to/lastmile_qr_scan", "ios": "https://dc.lft.to/lastmile_qr_scan"}, "is_disabled": 0, "fusion_lat": 0.0, "lat": 38.8763575, "is_reserved": 0}, {"lon": -77.07017866666666, "fusion_lon": 0.0, "bike_id": "3f9dd708e95dbf5996401144c9ec402f", "type": "electric_bike", "name": "3f9dd708e95dbf5996401144c9ec402f", "rental_uris": {"android": "https://dc.lft.to/lastmile_qr_scan", "ios": "https://dc.lft.to/lastmile_qr_scan"}, "is_disabled": 0, "fusion_lat": 0.0, "lat": 38.92770333333333, "is_reserved": 0}, {"lon": -77.0110885, "fusion_lon": 0.0, "bike_id": "0b7ce30e16beaaa6de89ed02c7fa7841", "type": "electric_scooter", "name": "0b7ce30e16beaaa6de89ed02c7fa7841", "rental_uris": {"android": "https://dc.lft.to/lastmile_qr_scan", "ios": "https://dc.lft.to/lastmile_qr_scan"}, "is_disabled": 0, "fusion_lat": 0.0, "lat": 38.90968683333333, "is_reserved": 0}, {"lon": -77.032174, "fusion_lon": 0.0, "bike_id": "7e360457565e8659a7f7c3870ae47467", "type": "electric_scooter", "name": "7e360457565e8659a7f7c3870ae47467", "rental_uris": {"android": "https://dc.lft.to/lastmile_qr_scan", "ios": "https://dc.lft.to/lastmile_qr_scan"}, "is_disabled": 0, "fusion_lat": 0.0, "lat": 38.921198, "is_reserved": 0}, {"lon": -77.04997616666667, "fusion_lon": 0.0, "bike_id": "a591e90b648247cdc3fe815083d7158d", "type": "electric_scooter", "name": "a591e90b648247cdc3fe815083d7158d", "rental_uris": {"android": "https://dc.lft.to/lastmile_qr_scan", "ios": "https://dc.lft.to/lastmile_qr_scan"}, "is_disabled": 0, "fusion_lat": 0.0, "lat": 38.898375333333334, "is_reserved": 0}, {"lon": -77.05117333333334, "fusion_lon": 0.0, "bike_id": "611663c1306d482b6400cb95fa3d2694", "type": "electric_bike", "name": "611663c1306d482b6400cb95fa3d2694", "rental_uris": {"android": "https://dc.lft.to/lastmile_qr_scan", "ios": "https://dc.lft.to/lastmile_qr_scan"}, "is_disabled": 0, "fusion_lat": 0.0, "lat": 38.813309333333336, "is_reserved": 0}, {"lon": -77.063062, "fusion_lon": 0.0, "bike_id": "9e9358d15e6daf3e42f1282e343437e1", "type": "electric_bike", "name": "9e9358d15e6daf3e42f1282e343437e1", "rental_uris": {"android": "https://dc.lft.to/lastmile_qr_scan", "ios": "https://dc.lft.to/lastmile_qr_scan"}, "is_disabled": 0, "fusion_lat": 0.0, "lat": 38.79857633333334, "is_reserved": 0}, {"lon": -77.04182883333333, "fusion_lon": 0.0, "bike_id": "f7ce9d15912d6f3b2069d3a2f7b9169b", "type": "electric_scooter", "name": "f7ce9d15912d6f3b2069d3a2f7b9169b", "rental_uris": {"android": "https://dc.lft.to/lastmile_qr_scan", "ios": "https://dc.lft.to/lastmile_qr_scan"}, "is_disabled": 0, "fusion_lat": 0.0, "lat": 38.9203365, "is_reserved": 0}, {"lon": -77.04189533333333, "fusion_lon": 0.0, "bike_id": "a663182589dabc11fe4aa12d9938678d", "type": "electric_scooter", "name": "a663182589dabc11fe4aa12d9938678d", "rental_uris": {"android": "https://dc.lft.to/lastmile_qr_scan", "ios": "https://dc.lft.to/lastmile_qr_scan"}, "is_disabled": 0, "fusion_lat": 0.0, "lat": 38.9203285, "is_reserved": 0}, {"lon": -76.98889016666666, "fusion_lon": 0.0, "bike_id": "a41d1cfb545762a85608d90ae5ce325e", "type": "electric_scooter", "name": "a41d1cfb545762a85608d90ae5ce325e", "rental_uris": {"android": "https://dc.lft.to/lastmile_qr_scan", "ios": "https://dc.lft.to/lastmile_qr_scan"}, "is_disabled": 0, "fusion_lat": 0.0, "lat": 38.8666635, "is_reserved": 0}, {"lon": -77.07864366666666, "fusion_lon": 0.0, "bike_id": "0a681f4dc0171a261d6e73217bad7f34", "type": "electric_scooter", "name": "0a681f4dc0171a261d6e73217bad7f34", "rental_uris": {"android": "https://dc.lft.to/lastmile_qr_scan", "ios": "https://dc.lft.to/lastmile_qr_scan"}, "is_disabled": 0, "fusion_lat": 0.0, "lat": 38.9315675, "is_reserved": 0}, {"lon": -77.03834066666667, "fusion_lon": 0.0, "bike_id": "e1c0e3de4837ea84cc58fc93699c5c7b", "type": "electric_scooter", "name": "e1c0e3de4837ea84cc58fc93699c5c7b", "rental_uris": {"android": "https://dc.lft.to/lastmile_qr_scan", "ios": "https://dc.lft.to/lastmile_qr_scan"}, "is_disabled": 0, "fusion_lat": 0.0, "lat": 38.914126333333336, "is_reserved": 0}, {"lon": -76.99481483333334, "fusion_lon": 0.0, "bike_id": "38fa592c00ea521a829c81e8c900aacd", "type": "electric_scooter", "name": "38fa592c00ea521a829c81e8c900aacd", "rental_uris": {"android": "https://dc.lft.to/lastmile_qr_scan", "ios": "https://dc.lft.to/lastmile_qr_scan"}, "is_disabled": 0, "fusion_lat": 0.0, "lat": 38.862169, "is_reserved": 0}, {"lon": -77.0098095, "fusion_lon": 0.0, "bike_id": "850cf4e8b670791d41b943310fef4032", "type": "electric_scooter", "name": "850cf4e8b670791d41b943310fef4032", "rental_uris": {"android": "https://dc.lft.to/lastmile_qr_scan", "ios": "https://dc.lft.to/lastmile_qr_scan"}, "is_disabled": 0, "fusion_lat": 0.0, "lat": 38.919258666666664, "is_reserved": 0}, {"lon": -77.01775133333334, "fusion_lon": 0.0, "bike_id": "38781855f475b8f8543f93ee9688652f", "type": "electric_scooter", "name": "38781855f475b8f8543f93ee9688652f", "rental_uris": {"android": "https://dc.lft.to/lastmile_qr_scan", "ios": "https://dc.lft.to/lastmile_qr_scan"}, "is_disabled": 0, "fusion_lat": 0.0, "lat": 38.877535, "is_reserved": 0}, {"lon": -77.01445583333333, "fusion_lon": 0.0, "bike_id": "f53bd61214cd42fbe2ea52f055de2ed8", "type": "electric_scooter", "name": "f53bd61214cd42fbe2ea52f055de2ed8", "rental_uris": {"android": "https://dc.lft.to/lastmile_qr_scan", "ios": "https://dc.lft.to/lastmile_qr_scan"}, "is_disabled": 0, "fusion_lat": 0.0, "lat": 38.94223483333333, "is_reserved": 0}, {"lon": -77.02291866666667, "fusion_lon": 0.0, "bike_id": "9eeb5785daf8f0fef3ab3a1230f555fd", "type": "electric_scooter", "name": "9eeb5785daf8f0fef3ab3a1230f555fd", "rental_uris": {"android": "https://dc.lft.to/lastmile_qr_scan", "ios": "https://dc.lft.to/lastmile_qr_scan"}, "is_disabled": 0, "fusion_lat": 0.0, "lat": 38.89524466666667, "is_reserved": 0}, {"lon": -76.96528666666667, "fusion_lon": 0.0, "bike_id": "09a892ca704f9f44cb4f21ff01509f44", "type": "electric_bike", "name": "09a892ca704f9f44cb4f21ff01509f44", "rental_uris": {"android": "https://dc.lft.to/lastmile_qr_scan", "ios": "https://dc.lft.to/lastmile_qr_scan"}, "is_disabled": 0, "fusion_lat": 0.0, "lat": 38.874789666666665, "is_reserved": 0}, {"lon": -76.99784116666666, "fusion_lon": 0.0, "bike_id": "36723b294025364d8425757a6c45dd58", "type": "electric_scooter", "name": "36723b294025364d8425757a6c45dd58", "rental_uris": {"android": "https://dc.lft.to/lastmile_qr_scan", "ios": "https://dc.lft.to/lastmile_qr_scan"}, "is_disabled": 0, "fusion_lat": 0.0, "lat": 38.84434066666667, "is_reserved": 0}, {"lon": -77.00360733333333, "fusion_lon": 0.0, "bike_id": "2527ccf92d99dd84a694629afc3b5284", "type": "electric_scooter", "name": "2527ccf92d99dd84a694629afc3b5284", "rental_uris": {"android": "https://dc.lft.to/lastmile_qr_scan", "ios": "https://dc.lft.to/lastmile_qr_scan"}, "is_disabled": 0, "fusion_lat": 0.0, "lat": 38.899049833333336, "is_reserved": 0}, {"lon": -77.00713416666666, "fusion_lon": 0.0, "bike_id": "78ebe1039eeda7bc3ffa31e93c88126e", "type": "electric_scooter", "name": "78ebe1039eeda7bc3ffa31e93c88126e", "rental_uris": {"android": "https://dc.lft.to/lastmile_qr_scan", "ios": "https://dc.lft.to/lastmile_qr_scan"}, "is_disabled": 0, "fusion_lat": 0.0, "lat": 38.925398666666666, "is_reserved": 0}, {"lon": -77.01943166666666, "fusion_lon": 0.0, "bike_id": "ae934cd83c830dcccccaf261cbbe6d4c", "type": "electric_scooter", "name": "ae934cd83c830dcccccaf261cbbe6d4c", "rental_uris": {"android": "https://dc.lft.to/lastmile_qr_scan", "ios": "https://dc.lft.to/lastmile_qr_scan"}, "is_disabled": 0, "fusion_lat": 0.0, "lat": 38.924083833333334, "is_reserved": 0}, {"lon": -76.96833066666667, "fusion_lon": 0.0, "bike_id": "f68209b5e96bf7b638ad0c13eddb71aa", "type": "electric_scooter", "name": "f68209b5e96bf7b638ad0c13eddb71aa", "rental_uris": {"android": "https://dc.lft.to/lastmile_qr_scan", "ios": "https://dc.lft.to/lastmile_qr_scan"}, "is_disabled": 0, "fusion_lat": 0.0, "lat": 38.87335, "is_reserved": 0}, {"lon": -77.009267, "fusion_lon": 0.0, "bike_id": "bdb5710126538500621faeeeb5a2472d", "type": "electric_scooter", "name": "bdb5710126538500621faeeeb5a2472d", "rental_uris": {"android": "https://dc.lft.to/lastmile_qr_scan", "ios": "https://dc.lft.to/lastmile_qr_scan"}, "is_disabled": 0, "fusion_lat": 0.0, "lat": 38.912633, "is_reserved": 0}, {"lon": -77.04010183333334, "fusion_lon": 0.0, "bike_id": "239eb53c667a63ffcbbbae53b7ce286b", "type": "electric_scooter", "name": "239eb53c667a63ffcbbbae53b7ce286b", "rental_uris": {"android": "https://dc.lft.to/lastmile_qr_scan", "ios": "https://dc.lft.to/lastmile_qr_scan"}, "is_disabled": 0, "fusion_lat": 0.0, "lat": 38.903440333333336, "is_reserved": 0}, {"lon": -77.03857133333334, "fusion_lon": 0.0, "bike_id": "caf801b2c7626de0dbf79202b2e3df43", "type": "electric_scooter", "name": "caf801b2c7626de0dbf79202b2e3df43", "rental_uris": {"android": "https://dc.lft.to/lastmile_qr_scan", "ios": "https://dc.lft.to/lastmile_qr_scan"}, "is_disabled": 0, "fusion_lat": 0.0, "lat": 38.915446333333335, "is_reserved": 0}, {"lon": -77.02637766666666, "fusion_lon": 0.0, "bike_id": "08a06a75d950453370a5eefde1c58ad0", "type": "electric_scooter", "name": "08a06a75d950453370a5eefde1c58ad0", "rental_uris": {"android": "https://dc.lft.to/lastmile_qr_scan", "ios": "https://dc.lft.to/lastmile_qr_scan"}, "is_disabled": 0, "fusion_lat": 0.0, "lat": 38.8877055, "is_reserved": 0}, {"lon": -77.02409766666666, "fusion_lon": 0.0, "bike_id": "48fc5a3ea111e96ccfe6a439aebbe7ba", "type": "electric_scooter", "name": "48fc5a3ea111e96ccfe6a439aebbe7ba", "rental_uris": {"android": "https://dc.lft.to/lastmile_qr_scan", "ios": "https://dc.lft.to/lastmile_qr_scan"}, "is_disabled": 0, "fusion_lat": 0.0, "lat": 38.925013, "is_reserved": 0}, {"lon": -77.07433916666666, "fusion_lon": 0.0, "bike_id": "4b1bc03dccbb373365e1a01baed1ecd5", "type": "electric_scooter", "name": "4b1bc03dccbb373365e1a01baed1ecd5", "rental_uris": {"android": "https://dc.lft.to/lastmile_qr_scan", "ios": "https://dc.lft.to/lastmile_qr_scan"}, "is_disabled": 0, "fusion_lat": 0.0, "lat": 38.931102833333334, "is_reserved": 0}, {"lon": -77.0418125, "fusion_lon": 0.0, "bike_id": "553e22ed3ef6b8c0337ba3fd0aa6380b", "type": "electric_scooter", "name": "553e22ed3ef6b8c0337ba3fd0aa6380b", "rental_uris": {"android": "https://dc.lft.to/lastmile_qr_scan", "ios": "https://dc.lft.to/lastmile_qr_scan"}, "is_disabled": 0, "fusion_lat": 0.0, "lat": 38.920525166666664, "is_reserved": 0}, {"lon": -76.981381, "fusion_lon": 0.0, "bike_id": "b09773202a669cf58fcc9c5e4867d2ef", "type": "electric_scooter", "name": "b09773202a669cf58fcc9c5e4867d2ef", "rental_uris": {"android": "https://dc.lft.to/lastmile_qr_scan", "ios": "https://dc.lft.to/lastmile_qr_scan"}, "is_disabled": 0, "fusion_lat": 0.0, "lat": 38.897437, "is_reserved": 0}, {"lon": -77.02694366666667, "fusion_lon": 0.0, "bike_id": "3160b8f4b4f10d0998031e99ca7e1c5c", "type": "electric_scooter", "name": "3160b8f4b4f10d0998031e99ca7e1c5c", "rental_uris": {"android": "https://dc.lft.to/lastmile_qr_scan", "ios": "https://dc.lft.to/lastmile_qr_scan"}, "is_disabled": 0, "fusion_lat": 0.0, "lat": 38.9068265, "is_reserved": 0}, {"lon": -76.98546166666667, "fusion_lon": 0.0, "bike_id": "eb9ed89d006c5cf3137a797ace5bcb4b", "type": "electric_scooter", "name": "eb9ed89d006c5cf3137a797ace5bcb4b", "rental_uris": {"android": "https://dc.lft.to/lastmile_qr_scan", "ios": "https://dc.lft.to/lastmile_qr_scan"}, "is_disabled": 0, "fusion_lat": 0.0, "lat": 38.86689766666667, "is_reserved": 0}, {"lon": -77.0006615, "fusion_lon": 0.0, "bike_id": "dd8f105866e1dce43027018ac9db5f94", "type": "electric_scooter", "name": "dd8f105866e1dce43027018ac9db5f94", "rental_uris": {"android": "https://dc.lft.to/lastmile_qr_scan", "ios": "https://dc.lft.to/lastmile_qr_scan"}, "is_disabled": 0, "fusion_lat": 0.0, "lat": 38.9254095, "is_reserved": 0}, {"lon": -77.0396905, "fusion_lon": 0.0, "bike_id": "6b9946d89e5c3bdbcb65e8e46a0dcc20", "type": "electric_scooter", "name": "6b9946d89e5c3bdbcb65e8e46a0dcc20", "rental_uris": {"android": "https://dc.lft.to/lastmile_qr_scan", "ios": "https://dc.lft.to/lastmile_qr_scan"}, "is_disabled": 0, "fusion_lat": 0.0, "lat": 38.9170405, "is_reserved": 0}, {"lon": -77.0332175, "fusion_lon": 0.0, "bike_id": "e1e2fcf1b998fb6a56d2141fe6a715e1", "type": "electric_scooter", "name": "e1e2fcf1b998fb6a56d2141fe6a715e1", "rental_uris": {"android": "https://dc.lft.to/lastmile_qr_scan", "ios": "https://dc.lft.to/lastmile_qr_scan"}, "is_disabled": 0, "fusion_lat": 0.0, "lat": 38.89009133333333, "is_reserved": 0}, {"lon": -77.01645166666667, "fusion_lon": 0.0, "bike_id": "8e86b2f2fccd0ce62c81367eff654402", "type": "electric_scooter", "name": "8e86b2f2fccd0ce62c81367eff654402", "rental_uris": {"android": "https://dc.lft.to/lastmile_qr_scan", "ios": "https://dc.lft.to/lastmile_qr_scan"}, "is_disabled": 0, "fusion_lat": 0.0, "lat": 38.8812555, "is_reserved": 0}, {"lon": -77.03074283333333, "fusion_lon": 0.0, "bike_id": "0704dadf14e2be6d098570239deef1aa", "type": "electric_scooter", "name": "0704dadf14e2be6d098570239deef1aa", "rental_uris": {"android": "https://dc.lft.to/lastmile_qr_scan", "ios": "https://dc.lft.to/lastmile_qr_scan"}, "is_disabled": 0, "fusion_lat": 0.0, "lat": 38.922457, "is_reserved": 0}, {"lon": -77.0373335, "fusion_lon": 0.0, "bike_id": "331aa3876c065e05442411da5f38820e", "type": "electric_scooter", "name": "331aa3876c065e05442411da5f38820e", "rental_uris": {"android": "https://dc.lft.to/lastmile_qr_scan", "ios": "https://dc.lft.to/lastmile_qr_scan"}, "is_disabled": 0, "fusion_lat": 0.0, "lat": 38.9287785, "is_reserved": 0}, {"lon": -76.99693883333333, "fusion_lon": 0.0, "bike_id": "7d99eab5fcd26d85762361a78db8c5d3", "type": "electric_scooter", "name": "7d99eab5fcd26d85762361a78db8c5d3", "rental_uris": {"android": "https://dc.lft.to/lastmile_qr_scan", "ios": "https://dc.lft.to/lastmile_qr_scan"}, "is_disabled": 0, "fusion_lat": 0.0, "lat": 38.884207, "is_reserved": 0}, {"lon": -76.99733233333333, "fusion_lon": 0.0, "bike_id": "1bd3794ad95f27082dc8410d6ab02a8f", "type": "electric_scooter", "name": "1bd3794ad95f27082dc8410d6ab02a8f", "rental_uris": {"android": "https://dc.lft.to/lastmile_qr_scan", "ios": "https://dc.lft.to/lastmile_qr_scan"}, "is_disabled": 0, "fusion_lat": 0.0, "lat": 38.89938266666667, "is_reserved": 0}, {"lon": -76.94633716666667, "fusion_lon": 0.0, "bike_id": "b456537c7eb3ccde63dded7a24b0b2e7", "type": "electric_scooter", "name": "b456537c7eb3ccde63dded7a24b0b2e7", "rental_uris": {"android": "https://dc.lft.to/lastmile_qr_scan", "ios": "https://dc.lft.to/lastmile_qr_scan"}, "is_disabled": 0, "fusion_lat": 0.0, "lat": 38.89833016666667, "is_reserved": 0}, {"lon": -77.03178083333333, "fusion_lon": 0.0, "bike_id": "4bd38ec74b8037b088e78e5cbe0199c1", "type": "electric_scooter", "name": "4bd38ec74b8037b088e78e5cbe0199c1", "rental_uris": {"android": "https://dc.lft.to/lastmile_qr_scan", "ios": "https://dc.lft.to/lastmile_qr_scan"}, "is_disabled": 0, "fusion_lat": 0.0, "lat": 38.917871166666664, "is_reserved": 0}, {"lon": -77.02171716666666, "fusion_lon": 0.0, "bike_id": "90c9e630e3965b5a16f034f2bbc537d1", "type": "electric_scooter", "name": "90c9e630e3965b5a16f034f2bbc537d1", "rental_uris": {"android": "https://dc.lft.to/lastmile_qr_scan", "ios": "https://dc.lft.to/lastmile_qr_scan"}, "is_disabled": 0, "fusion_lat": 0.0, "lat": 38.94293833333333, "is_reserved": 0}, {"lon": -77.107878, "fusion_lon": 0.0, "bike_id": "c597b82d678a61cb27867fa056a3d836", "type": "electric_bike", "name": "c597b82d678a61cb27867fa056a3d836", "rental_uris": {"android": "https://dc.lft.to/lastmile_qr_scan", "ios": "https://dc.lft.to/lastmile_qr_scan"}, "is_disabled": 0, "fusion_lat": 0.0, "lat": 38.852514, "is_reserved": 0}, {"lon": -77.03171983333333, "fusion_lon": 0.0, "bike_id": "1df49419f0fd02ddcbd12bccd2eca526", "type": "electric_scooter", "name": "1df49419f0fd02ddcbd12bccd2eca526", "rental_uris": {"android": "https://dc.lft.to/lastmile_qr_scan", "ios": "https://dc.lft.to/lastmile_qr_scan"}, "is_disabled": 0, "fusion_lat": 0.0, "lat": 38.9192545, "is_reserved": 0}, {"lon": -76.99774616666667, "fusion_lon": 0.0, "bike_id": "0d6e45ca01a4b8ca60307aa44e15e305", "type": "electric_scooter", "name": "0d6e45ca01a4b8ca60307aa44e15e305", "rental_uris": {"android": "https://dc.lft.to/lastmile_qr_scan", "ios": "https://dc.lft.to/lastmile_qr_scan"}, "is_disabled": 0, "fusion_lat": 0.0, "lat": 38.90893633333334, "is_reserved": 0}, {"lon": -77.038822, "fusion_lon": 0.0, "bike_id": "824e11a1b37c6183634f9b59bd4dd5d0", "type": "electric_scooter", "name": "824e11a1b37c6183634f9b59bd4dd5d0", "rental_uris": {"android": "https://dc.lft.to/lastmile_qr_scan", "ios": "https://dc.lft.to/lastmile_qr_scan"}, "is_disabled": 0, "fusion_lat": 0.0, "lat": 38.914645, "is_reserved": 0}, {"lon": -77.03446166666667, "fusion_lon": 0.0, "bike_id": "ba7f70be202477f80dc3066f525a79b3", "type": "electric_scooter", "name": "ba7f70be202477f80dc3066f525a79b3", "rental_uris": {"android": "https://dc.lft.to/lastmile_qr_scan", "ios": "https://dc.lft.to/lastmile_qr_scan"}, "is_disabled": 0, "fusion_lat": 0.0, "lat": 38.90977183333333, "is_reserved": 0}, {"lon": -77.04490833333334, "fusion_lon": 0.0, "bike_id": "5e898456d0b97318ed9534fbee35f5a9", "type": "electric_scooter", "name": "5e898456d0b97318ed9534fbee35f5a9", "rental_uris": {"android": "https://dc.lft.to/lastmile_qr_scan", "ios": "https://dc.lft.to/lastmile_qr_scan"}, "is_disabled": 0, "fusion_lat": 0.0, "lat": 38.9110205, "is_reserved": 0}, {"lon": -77.05042416666667, "fusion_lon": 0.0, "bike_id": "cf9b15fb2a6f79962d9489b9e2926f9a", "type": "electric_scooter", "name": "cf9b15fb2a6f79962d9489b9e2926f9a", "rental_uris": {"android": "https://dc.lft.to/lastmile_qr_scan", "ios": "https://dc.lft.to/lastmile_qr_scan"}, "is_disabled": 0, "fusion_lat": 0.0, "lat": 38.9234205, "is_reserved": 0}, {"lon": -76.99515516666666, "fusion_lon": 0.0, "bike_id": "999ac61cdf6648c2af07a36b7164a94a", "type": "electric_bike", "name": "999ac61cdf6648c2af07a36b7164a94a", "rental_uris": {"android": "https://dc.lft.to/lastmile_qr_scan", "ios": "https://dc.lft.to/lastmile_qr_scan"}, "is_disabled": 0, "fusion_lat": 0.0, "lat": 38.821734666666664, "is_reserved": 0}, {"lon": -77.04501733333333, "fusion_lon": 0.0, "bike_id": "f74f5c1f5d2c0c6adb188cd1d893d4f4", "type": "electric_scooter", "name": "f74f5c1f5d2c0c6adb188cd1d893d4f4", "rental_uris": {"android": "https://dc.lft.to/lastmile_qr_scan", "ios": "https://dc.lft.to/lastmile_qr_scan"}, "is_disabled": 0, "fusion_lat": 0.0, "lat": 38.89945083333333, "is_reserved": 0}, {"lon": -76.991307, "fusion_lon": 0.0, "bike_id": "2088208d87637afa3b1e05eb0c518760", "type": "electric_scooter", "name": "2088208d87637afa3b1e05eb0c518760", "rental_uris": {"android": "https://dc.lft.to/lastmile_qr_scan", "ios": "https://dc.lft.to/lastmile_qr_scan"}, "is_disabled": 0, "fusion_lat": 0.0, "lat": 38.8464195, "is_reserved": 0}, {"lon": -76.94932033333333, "fusion_lon": 0.0, "bike_id": "706f5a8da9fcac5ce866b6fdb8e6b4c4", "type": "electric_scooter", "name": "706f5a8da9fcac5ce866b6fdb8e6b4c4", "rental_uris": {"android": "https://dc.lft.to/lastmile_qr_scan", "ios": "https://dc.lft.to/lastmile_qr_scan"}, "is_disabled": 0, "fusion_lat": 0.0, "lat": 38.89345183333333, "is_reserved": 0}, {"lon": -77.02352016666667, "fusion_lon": 0.0, "bike_id": "055fc0579f993d7e6dce0ae0ce52a76a", "type": "electric_scooter", "name": "055fc0579f993d7e6dce0ae0ce52a76a", "rental_uris": {"android": "https://dc.lft.to/lastmile_qr_scan", "ios": "https://dc.lft.to/lastmile_qr_scan"}, "is_disabled": 0, "fusion_lat": 0.0, "lat": 38.9352705, "is_reserved": 0}, {"lon": -77.017384, "fusion_lon": 0.0, "bike_id": "21830485efe28cd46d95dc331f330228", "type": "electric_scooter", "name": "21830485efe28cd46d95dc331f330228", "rental_uris": {"android": "https://dc.lft.to/lastmile_qr_scan", "ios": "https://dc.lft.to/lastmile_qr_scan"}, "is_disabled": 0, "fusion_lat": 0.0, "lat": 38.916078666666664, "is_reserved": 0}, {"lon": -77.006013, "fusion_lon": 0.0, "bike_id": "de0eb0ea09a9f16ad7fec40ace97322e", "type": "electric_scooter", "name": "de0eb0ea09a9f16ad7fec40ace97322e", "rental_uris": {"android": "https://dc.lft.to/lastmile_qr_scan", "ios": "https://dc.lft.to/lastmile_qr_scan"}, "is_disabled": 0, "fusion_lat": 0.0, "lat": 38.87559666666667, "is_reserved": 0}, {"lon": -77.02410133333333, "fusion_lon": 0.0, "bike_id": "b5a1fc686e63a4b872ac53283148abca", "type": "electric_scooter", "name": "b5a1fc686e63a4b872ac53283148abca", "rental_uris": {"android": "https://dc.lft.to/lastmile_qr_scan", "ios": "https://dc.lft.to/lastmile_qr_scan"}, "is_disabled": 0, "fusion_lat": 0.0, "lat": 38.90573, "is_reserved": 0}, {"lon": -77.04413866666667, "fusion_lon": 0.0, "bike_id": "043ad953cb7a521313f364bcfdb0e667", "type": "electric_scooter", "name": "043ad953cb7a521313f364bcfdb0e667", "rental_uris": {"android": "https://dc.lft.to/lastmile_qr_scan", "ios": "https://dc.lft.to/lastmile_qr_scan"}, "is_disabled": 0, "fusion_lat": 0.0, "lat": 38.910380833333335, "is_reserved": 0}, {"lon": -77.016416, "fusion_lon": 0.0, "bike_id": "3f3707c7540e090ca703470eac097fc3", "type": "electric_scooter", "name": "3f3707c7540e090ca703470eac097fc3", "rental_uris": {"android": "https://dc.lft.to/lastmile_qr_scan", "ios": "https://dc.lft.to/lastmile_qr_scan"}, "is_disabled": 0, "fusion_lat": 0.0, "lat": 38.8810345, "is_reserved": 0}, {"lon": -77.036332, "fusion_lon": 0.0, "bike_id": "7dc05bb4fb637c2003c81ad1f4cb8a99", "type": "electric_scooter", "name": "7dc05bb4fb637c2003c81ad1f4cb8a99", "rental_uris": {"android": "https://dc.lft.to/lastmile_qr_scan", "ios": "https://dc.lft.to/lastmile_qr_scan"}, "is_disabled": 0, "fusion_lat": 0.0, "lat": 38.927391166666666, "is_reserved": 0}, {"lon": -77.03043183333334, "fusion_lon": 0.0, "bike_id": "a28993048ca506ec1236003955a543ac", "type": "electric_scooter", "name": "a28993048ca506ec1236003955a543ac", "rental_uris": {"android": "https://dc.lft.to/lastmile_qr_scan", "ios": "https://dc.lft.to/lastmile_qr_scan"}, "is_disabled": 0, "fusion_lat": 0.0, "lat": 38.916227, "is_reserved": 0}, {"lon": -77.03408216666666, "fusion_lon": 0.0, "bike_id": "bb086f1f71a512311819e48995d66fd3", "type": "electric_scooter", "name": "bb086f1f71a512311819e48995d66fd3", "rental_uris": {"android": "https://dc.lft.to/lastmile_qr_scan", "ios": "https://dc.lft.to/lastmile_qr_scan"}, "is_disabled": 0, "fusion_lat": 0.0, "lat": 38.9220145, "is_reserved": 0}, {"lon": -77.02190883333333, "fusion_lon": 0.0, "bike_id": "16e0e84eae0cb230c8168900477b7010", "type": "electric_scooter", "name": "16e0e84eae0cb230c8168900477b7010", "rental_uris": {"android": "https://dc.lft.to/lastmile_qr_scan", "ios": "https://dc.lft.to/lastmile_qr_scan"}, "is_disabled": 0, "fusion_lat": 0.0, "lat": 38.91123, "is_reserved": 0}, {"lon": -76.98375666666666, "fusion_lon": 0.0, "bike_id": "6a6d6cadb0533dc2b81e492e051aa7b1", "type": "electric_scooter", "name": "6a6d6cadb0533dc2b81e492e051aa7b1", "rental_uris": {"android": "https://dc.lft.to/lastmile_qr_scan", "ios": "https://dc.lft.to/lastmile_qr_scan"}, "is_disabled": 0, "fusion_lat": 0.0, "lat": 38.91502633333333, "is_reserved": 0}, {"lon": -77.041522, "fusion_lon": 0.0, "bike_id": "3341cf16b41251264f48c65a44156542", "type": "electric_scooter", "name": "3341cf16b41251264f48c65a44156542", "rental_uris": {"android": "https://dc.lft.to/lastmile_qr_scan", "ios": "https://dc.lft.to/lastmile_qr_scan"}, "is_disabled": 0, "fusion_lat": 0.0, "lat": 38.919503666666664, "is_reserved": 0}, {"lon": -77.05513766666667, "fusion_lon": 0.0, "bike_id": "facf15b0db55e32f3a06ab46e316dd0b", "type": "electric_scooter", "name": "facf15b0db55e32f3a06ab46e316dd0b", "rental_uris": {"android": "https://dc.lft.to/lastmile_qr_scan", "ios": "https://dc.lft.to/lastmile_qr_scan"}, "is_disabled": 0, "fusion_lat": 0.0, "lat": 38.92946166666667, "is_reserved": 0}, {"lon": -77.00057133333334, "fusion_lon": 0.0, "bike_id": "1362d1f63cd8f71376c9627b7f1e0a4e", "type": "electric_scooter", "name": "1362d1f63cd8f71376c9627b7f1e0a4e", "rental_uris": {"android": "https://dc.lft.to/lastmile_qr_scan", "ios": "https://dc.lft.to/lastmile_qr_scan"}, "is_disabled": 0, "fusion_lat": 0.0, "lat": 38.87367666666667, "is_reserved": 0}, {"lon": -77.01548316666667, "fusion_lon": 0.0, "bike_id": "b7d1ffb0fc1ed8ff2e17d5d13ae9ba85", "type": "electric_scooter", "name": "b7d1ffb0fc1ed8ff2e17d5d13ae9ba85", "rental_uris": {"android": "https://dc.lft.to/lastmile_qr_scan", "ios": "https://dc.lft.to/lastmile_qr_scan"}, "is_disabled": 0, "fusion_lat": 0.0, "lat": 38.885746, "is_reserved": 0}, {"lon": -77.01560933333333, "fusion_lon": 0.0, "bike_id": "48aa433709307314bb61ab84621406f0", "type": "electric_scooter", "name": "48aa433709307314bb61ab84621406f0", "rental_uris": {"android": "https://dc.lft.to/lastmile_qr_scan", "ios": "https://dc.lft.to/lastmile_qr_scan"}, "is_disabled": 0, "fusion_lat": 0.0, "lat": 38.91402016666667, "is_reserved": 0}, {"lon": -77.002473, "fusion_lon": 0.0, "bike_id": "b3b4293a025a2582bf0c86ec4f7c955c", "type": "electric_scooter", "name": "b3b4293a025a2582bf0c86ec4f7c955c", "rental_uris": {"android": "https://dc.lft.to/lastmile_qr_scan", "ios": "https://dc.lft.to/lastmile_qr_scan"}, "is_disabled": 0, "fusion_lat": 0.0, "lat": 38.8748005, "is_reserved": 0}, {"lon": -77.04298133333333, "fusion_lon": 0.0, "bike_id": "06282161e3675f41f95f50e53a07551b", "type": "electric_scooter", "name": "06282161e3675f41f95f50e53a07551b", "rental_uris": {"android": "https://dc.lft.to/lastmile_qr_scan", "ios": "https://dc.lft.to/lastmile_qr_scan"}, "is_disabled": 0, "fusion_lat": 0.0, "lat": 38.931828, "is_reserved": 0}, {"lon": -77.04544766666666, "fusion_lon": 0.0, "bike_id": "f5e1bb041b4807816b03c4571afff539", "type": "electric_scooter", "name": "f5e1bb041b4807816b03c4571afff539", "rental_uris": {"android": "https://dc.lft.to/lastmile_qr_scan", "ios": "https://dc.lft.to/lastmile_qr_scan"}, "is_disabled": 0, "fusion_lat": 0.0, "lat": 38.897073666666664, "is_reserved": 0}, {"lon": -77.02801316666667, "fusion_lon": 0.0, "bike_id": "98c2a4749398a3ebad5b236bb5d3fc58", "type": "electric_scooter", "name": "98c2a4749398a3ebad5b236bb5d3fc58", "rental_uris": {"android": "https://dc.lft.to/lastmile_qr_scan", "ios": "https://dc.lft.to/lastmile_qr_scan"}, "is_disabled": 0, "fusion_lat": 0.0, "lat": 38.96042083333333, "is_reserved": 0}, {"lon": -77.07279433333333, "fusion_lon": 0.0, "bike_id": "fb3ef8a698a8235eba09337ff098cbb3", "type": "electric_scooter", "name": "fb3ef8a698a8235eba09337ff098cbb3", "rental_uris": {"android": "https://dc.lft.to/lastmile_qr_scan", "ios": "https://dc.lft.to/lastmile_qr_scan"}, "is_disabled": 0, "fusion_lat": 0.0, "lat": 38.934735, "is_reserved": 0}, {"lon": -76.95098883333333, "fusion_lon": 0.0, "bike_id": "2054478d709b1d06547bcb30fc37cfdc", "type": "electric_scooter", "name": "2054478d709b1d06547bcb30fc37cfdc", "rental_uris": {"android": "https://dc.lft.to/lastmile_qr_scan", "ios": "https://dc.lft.to/lastmile_qr_scan"}, "is_disabled": 0, "fusion_lat": 0.0, "lat": 38.8845205, "is_reserved": 0}, {"lon": -77.04488283333333, "fusion_lon": 0.0, "bike_id": "7dda8c3c89aa6a943edfc0521b9d041b", "type": "electric_scooter", "name": "7dda8c3c89aa6a943edfc0521b9d041b", "rental_uris": {"android": "https://dc.lft.to/lastmile_qr_scan", "ios": "https://dc.lft.to/lastmile_qr_scan"}, "is_disabled": 0, "fusion_lat": 0.0, "lat": 38.89957833333333, "is_reserved": 0}, {"lon": -76.93375683333333, "fusion_lon": 0.0, "bike_id": "688cc95bcca24efe1beae0f30a6353e0", "type": "electric_scooter", "name": "688cc95bcca24efe1beae0f30a6353e0", "rental_uris": {"android": "https://dc.lft.to/lastmile_qr_scan", "ios": "https://dc.lft.to/lastmile_qr_scan"}, "is_disabled": 0, "fusion_lat": 0.0, "lat": 38.899238, "is_reserved": 0}, {"lon": -77.023022, "fusion_lon": 0.0, "bike_id": "84939b1867fab384c68b23db6ac3e244", "type": "electric_scooter", "name": "84939b1867fab384c68b23db6ac3e244", "rental_uris": {"android": "https://dc.lft.to/lastmile_qr_scan", "ios": "https://dc.lft.to/lastmile_qr_scan"}, "is_disabled": 0, "fusion_lat": 0.0, "lat": 38.91710283333333, "is_reserved": 0}, {"lon": -77.036399, "fusion_lon": 0.0, "bike_id": "8f90d587e4d8a6a2f3101c9ba10a2a26", "type": "electric_scooter", "name": "8f90d587e4d8a6a2f3101c9ba10a2a26", "rental_uris": {"android": "https://dc.lft.to/lastmile_qr_scan", "ios": "https://dc.lft.to/lastmile_qr_scan"}, "is_disabled": 0, "fusion_lat": 0.0, "lat": 38.924128, "is_reserved": 0}, {"lon": -77.02718533333334, "fusion_lon": 0.0, "bike_id": "9df0a655b52843175cf04ac3f8ad6b59", "type": "electric_scooter", "name": "9df0a655b52843175cf04ac3f8ad6b59", "rental_uris": {"android": "https://dc.lft.to/lastmile_qr_scan", "ios": "https://dc.lft.to/lastmile_qr_scan"}, "is_disabled": 0, "fusion_lat": 0.0, "lat": 38.918176, "is_reserved": 0}, {"lon": -77.02552116666666, "fusion_lon": 0.0, "bike_id": "03dc68e301519935575427baa42bc919", "type": "electric_scooter", "name": "03dc68e301519935575427baa42bc919", "rental_uris": {"android": "https://dc.lft.to/lastmile_qr_scan", "ios": "https://dc.lft.to/lastmile_qr_scan"}, "is_disabled": 0, "fusion_lat": 0.0, "lat": 38.91919333333333, "is_reserved": 0}, {"lon": -77.00175866666666, "fusion_lon": 0.0, "bike_id": "899b2bc7cc0b3003c9ce84100eea629e", "type": "electric_bike", "name": "899b2bc7cc0b3003c9ce84100eea629e", "rental_uris": {"android": "https://dc.lft.to/lastmile_qr_scan", "ios": "https://dc.lft.to/lastmile_qr_scan"}, "is_disabled": 0, "fusion_lat": 0.0, "lat": 38.84454433333333, "is_reserved": 0}, {"lon": -77.01082333333333, "fusion_lon": 0.0, "bike_id": "f62aac3e4ee86c97290dabf0ed578646", "type": "electric_scooter", "name": "f62aac3e4ee86c97290dabf0ed578646", "rental_uris": {"android": "https://dc.lft.to/lastmile_qr_scan", "ios": "https://dc.lft.to/lastmile_qr_scan"}, "is_disabled": 0, "fusion_lat": 0.0, "lat": 38.9163395, "is_reserved": 0}, {"lon": -76.99746583333334, "fusion_lon": 0.0, "bike_id": "e412598a4a1e737b3390fd8164741ff3", "type": "electric_scooter", "name": "e412598a4a1e737b3390fd8164741ff3", "rental_uris": {"android": "https://dc.lft.to/lastmile_qr_scan", "ios": "https://dc.lft.to/lastmile_qr_scan"}, "is_disabled": 0, "fusion_lat": 0.0, "lat": 38.90017983333333, "is_reserved": 0}, {"lon": -77.002113, "fusion_lon": 0.0, "bike_id": "2bba6ac9937172419af77f4038b25e60", "type": "electric_scooter", "name": "2bba6ac9937172419af77f4038b25e60", "rental_uris": {"android": "https://dc.lft.to/lastmile_qr_scan", "ios": "https://dc.lft.to/lastmile_qr_scan"}, "is_disabled": 0, "fusion_lat": 0.0, "lat": 38.91104716666667, "is_reserved": 0}, {"lon": -77.02691433333334, "fusion_lon": 0.0, "bike_id": "c727be02f5e33bce9a9d8ca3ae362627", "type": "electric_scooter", "name": "c727be02f5e33bce9a9d8ca3ae362627", "rental_uris": {"android": "https://dc.lft.to/lastmile_qr_scan", "ios": "https://dc.lft.to/lastmile_qr_scan"}, "is_disabled": 0, "fusion_lat": 0.0, "lat": 38.907075666666664, "is_reserved": 0}, {"lon": -77.04133183333333, "fusion_lon": 0.0, "bike_id": "20fd64aed1b5433f98085389bd5faf00", "type": "electric_scooter", "name": "20fd64aed1b5433f98085389bd5faf00", "rental_uris": {"android": "https://dc.lft.to/lastmile_qr_scan", "ios": "https://dc.lft.to/lastmile_qr_scan"}, "is_disabled": 0, "fusion_lat": 0.0, "lat": 38.906292666666666, "is_reserved": 0}, {"lon": -77.03207733333333, "fusion_lon": 0.0, "bike_id": "b9efb049a08a9ccf79195b5312436a05", "type": "electric_scooter", "name": "b9efb049a08a9ccf79195b5312436a05", "rental_uris": {"android": "https://dc.lft.to/lastmile_qr_scan", "ios": "https://dc.lft.to/lastmile_qr_scan"}, "is_disabled": 0, "fusion_lat": 0.0, "lat": 38.918475666666666, "is_reserved": 0}, {"lon": -77.04939316666666, "fusion_lon": 0.0, "bike_id": "2ceefa585d61a9da6fb7cd4a639ef20e", "type": "electric_scooter", "name": "2ceefa585d61a9da6fb7cd4a639ef20e", "rental_uris": {"android": "https://dc.lft.to/lastmile_qr_scan", "ios": "https://dc.lft.to/lastmile_qr_scan"}, "is_disabled": 0, "fusion_lat": 0.0, "lat": 38.888270166666665, "is_reserved": 0}, {"lon": -77.02713733333333, "fusion_lon": 0.0, "bike_id": "b10239da19c20e46c6881e1a137f53c4", "type": "electric_scooter", "name": "b10239da19c20e46c6881e1a137f53c4", "rental_uris": {"android": "https://dc.lft.to/lastmile_qr_scan", "ios": "https://dc.lft.to/lastmile_qr_scan"}, "is_disabled": 0, "fusion_lat": 0.0, "lat": 38.915513, "is_reserved": 0}, {"lon": -76.98713016666666, "fusion_lon": 0.0, "bike_id": "00a1518825269350a5b35a82625a81ca", "type": "electric_scooter", "name": "00a1518825269350a5b35a82625a81ca", "rental_uris": {"android": "https://dc.lft.to/lastmile_qr_scan", "ios": "https://dc.lft.to/lastmile_qr_scan"}, "is_disabled": 0, "fusion_lat": 0.0, "lat": 38.8669915, "is_reserved": 0}, {"lon": -76.946408, "fusion_lon": 0.0, "bike_id": "2318164a12ba7f13daa4df1196dca497", "type": "electric_scooter", "name": "2318164a12ba7f13daa4df1196dca497", "rental_uris": {"android": "https://dc.lft.to/lastmile_qr_scan", "ios": "https://dc.lft.to/lastmile_qr_scan"}, "is_disabled": 0, "fusion_lat": 0.0, "lat": 38.89869016666667, "is_reserved": 0}, {"lon": -76.940462, "fusion_lon": 0.0, "bike_id": "400b4b1fa08c0245e8066fdbd07c065a", "type": "electric_bike", "name": "400b4b1fa08c0245e8066fdbd07c065a", "rental_uris": {"android": "https://dc.lft.to/lastmile_qr_scan", "ios": "https://dc.lft.to/lastmile_qr_scan"}, "is_disabled": 0, "fusion_lat": 0.0, "lat": 38.978574333333334, "is_reserved": 0}, {"lon": -77.03208666666667, "fusion_lon": 0.0, "bike_id": "50d43aeb33dfb11caece71b81b4b1e60", "type": "electric_scooter", "name": "50d43aeb33dfb11caece71b81b4b1e60", "rental_uris": {"android": "https://dc.lft.to/lastmile_qr_scan", "ios": "https://dc.lft.to/lastmile_qr_scan"}, "is_disabled": 0, "fusion_lat": 0.0, "lat": 38.914237666666665, "is_reserved": 0}, {"lon": -77.02292083333333, "fusion_lon": 0.0, "bike_id": "ced228e07cad493218c065f12da33e94", "type": "electric_scooter", "name": "ced228e07cad493218c065f12da33e94", "rental_uris": {"android": "https://dc.lft.to/lastmile_qr_scan", "ios": "https://dc.lft.to/lastmile_qr_scan"}, "is_disabled": 0, "fusion_lat": 0.0, "lat": 38.916103166666666, "is_reserved": 0}, {"lon": -77.04396166666666, "fusion_lon": 0.0, "bike_id": "d147d1e84c22460c9075ede0c6adb2ef", "type": "electric_scooter", "name": "d147d1e84c22460c9075ede0c6adb2ef", "rental_uris": {"android": "https://dc.lft.to/lastmile_qr_scan", "ios": "https://dc.lft.to/lastmile_qr_scan"}, "is_disabled": 0, "fusion_lat": 0.0, "lat": 38.919141, "is_reserved": 0}, {"lon": -76.98472133333334, "fusion_lon": 0.0, "bike_id": "ad6acba94f6c26641bb998e98304e1d3", "type": "electric_scooter", "name": "ad6acba94f6c26641bb998e98304e1d3", "rental_uris": {"android": "https://dc.lft.to/lastmile_qr_scan", "ios": "https://dc.lft.to/lastmile_qr_scan"}, "is_disabled": 0, "fusion_lat": 0.0, "lat": 38.90393533333334, "is_reserved": 0}, {"lon": -76.99737333333333, "fusion_lon": 0.0, "bike_id": "62c61053d6061197f46394983c221599", "type": "electric_bike", "name": "62c61053d6061197f46394983c221599", "rental_uris": {"android": "https://dc.lft.to/lastmile_qr_scan", "ios": "https://dc.lft.to/lastmile_qr_scan"}, "is_disabled": 0, "fusion_lat": 0.0, "lat": 39.04238133333333, "is_reserved": 0}, {"lon": -77.01162666666667, "fusion_lon": 0.0, "bike_id": "da67824aba3a06a8c1f5c6cbaaf63859", "type": "electric_scooter", "name": "da67824aba3a06a8c1f5c6cbaaf63859", "rental_uris": {"android": "https://dc.lft.to/lastmile_qr_scan", "ios": "https://dc.lft.to/lastmile_qr_scan"}, "is_disabled": 0, "fusion_lat": 0.0, "lat": 38.912644, "is_reserved": 0}, {"lon": -77.03639183333334, "fusion_lon": 0.0, "bike_id": "8788a404cc22354546bc8068161341b7", "type": "electric_scooter", "name": "8788a404cc22354546bc8068161341b7", "rental_uris": {"android": "https://dc.lft.to/lastmile_qr_scan", "ios": "https://dc.lft.to/lastmile_qr_scan"}, "is_disabled": 0, "fusion_lat": 0.0, "lat": 38.91826483333333, "is_reserved": 0}, {"lon": -77.01353433333334, "fusion_lon": 0.0, "bike_id": "e7d2fdf0743c8bc58e919c3d3e1a12fe", "type": "electric_scooter", "name": "e7d2fdf0743c8bc58e919c3d3e1a12fe", "rental_uris": {"android": "https://dc.lft.to/lastmile_qr_scan", "ios": "https://dc.lft.to/lastmile_qr_scan"}, "is_disabled": 0, "fusion_lat": 0.0, "lat": 38.871598166666665, "is_reserved": 0}, {"lon": -77.02806466666667, "fusion_lon": 0.0, "bike_id": "72f58ac68b5b48a80f36c850b8a58110", "type": "electric_scooter", "name": "72f58ac68b5b48a80f36c850b8a58110", "rental_uris": {"android": "https://dc.lft.to/lastmile_qr_scan", "ios": "https://dc.lft.to/lastmile_qr_scan"}, "is_disabled": 0, "fusion_lat": 0.0, "lat": 38.904732, "is_reserved": 0}, {"lon": -76.99635333333333, "fusion_lon": 0.0, "bike_id": "956441a204110619cbc1f0b9ffde7e11", "type": "electric_scooter", "name": "956441a204110619cbc1f0b9ffde7e11", "rental_uris": {"android": "https://dc.lft.to/lastmile_qr_scan", "ios": "https://dc.lft.to/lastmile_qr_scan"}, "is_disabled": 0, "fusion_lat": 0.0, "lat": 38.90064666666667, "is_reserved": 0}, {"lon": -77.01368266666667, "fusion_lon": 0.0, "bike_id": "94639c2d177919105f1f8f3f4102b565", "type": "electric_scooter", "name": "94639c2d177919105f1f8f3f4102b565", "rental_uris": {"android": "https://dc.lft.to/lastmile_qr_scan", "ios": "https://dc.lft.to/lastmile_qr_scan"}, "is_disabled": 0, "fusion_lat": 0.0, "lat": 38.9190925, "is_reserved": 0}, {"lon": -77.04001783333334, "fusion_lon": 0.0, "bike_id": "61c7f9e8a25504a5c2fc996b21c68982", "type": "electric_scooter", "name": "61c7f9e8a25504a5c2fc996b21c68982", "rental_uris": {"android": "https://dc.lft.to/lastmile_qr_scan", "ios": "https://dc.lft.to/lastmile_qr_scan"}, "is_disabled": 0, "fusion_lat": 0.0, "lat": 38.924597166666665, "is_reserved": 0}, {"lon": -76.97339033333333, "fusion_lon": 0.0, "bike_id": "ec157fa27b5521f254f13ee86a27e476", "type": "electric_scooter", "name": "ec157fa27b5521f254f13ee86a27e476", "rental_uris": {"android": "https://dc.lft.to/lastmile_qr_scan", "ios": "https://dc.lft.to/lastmile_qr_scan"}, "is_disabled": 0, "fusion_lat": 0.0, "lat": 38.865068666666666, "is_reserved": 0}, {"lon": -77.00907716666667, "fusion_lon": 0.0, "bike_id": "b84b1eb08f1acd0e0c0fbbe080cd0217", "type": "electric_scooter", "name": "b84b1eb08f1acd0e0c0fbbe080cd0217", "rental_uris": {"android": "https://dc.lft.to/lastmile_qr_scan", "ios": "https://dc.lft.to/lastmile_qr_scan"}, "is_disabled": 0, "fusion_lat": 0.0, "lat": 38.89616783333334, "is_reserved": 0}, {"lon": -77.01481583333333, "fusion_lon": 0.0, "bike_id": "b7660d2f48c22cce66590aa58e5981e3", "type": "electric_scooter", "name": "b7660d2f48c22cce66590aa58e5981e3", "rental_uris": {"android": "https://dc.lft.to/lastmile_qr_scan", "ios": "https://dc.lft.to/lastmile_qr_scan"}, "is_disabled": 0, "fusion_lat": 0.0, "lat": 38.917631, "is_reserved": 0}, {"lon": -76.93734116666667, "fusion_lon": 0.0, "bike_id": "8ff2b88e562981f546f607981b86d518", "type": "electric_scooter", "name": "8ff2b88e562981f546f607981b86d518", "rental_uris": {"android": "https://dc.lft.to/lastmile_qr_scan", "ios": "https://dc.lft.to/lastmile_qr_scan"}, "is_disabled": 0, "fusion_lat": 0.0, "lat": 38.89013083333333, "is_reserved": 0}, {"lon": -77.02816833333333, "fusion_lon": 0.0, "bike_id": "71b59d728ac5b675401b1c7db36a62f7", "type": "electric_scooter", "name": "71b59d728ac5b675401b1c7db36a62f7", "rental_uris": {"android": "https://dc.lft.to/lastmile_qr_scan", "ios": "https://dc.lft.to/lastmile_qr_scan"}, "is_disabled": 0, "fusion_lat": 0.0, "lat": 38.89909316666667, "is_reserved": 0}, {"lon": -76.9949625, "fusion_lon": 0.0, "bike_id": "3e22b52fd949f027e5d88a41260919ad", "type": "electric_scooter", "name": "3e22b52fd949f027e5d88a41260919ad", "rental_uris": {"android": "https://dc.lft.to/lastmile_qr_scan", "ios": "https://dc.lft.to/lastmile_qr_scan"}, "is_disabled": 0, "fusion_lat": 0.0, "lat": 38.862447833333334, "is_reserved": 0}, {"lon": -77.02525383333334, "fusion_lon": 0.0, "bike_id": "7c1f5ac02b941db3039fa12a5ac305a8", "type": "electric_scooter", "name": "7c1f5ac02b941db3039fa12a5ac305a8", "rental_uris": {"android": "https://dc.lft.to/lastmile_qr_scan", "ios": "https://dc.lft.to/lastmile_qr_scan"}, "is_disabled": 0, "fusion_lat": 0.0, "lat": 38.918504166666665, "is_reserved": 0}, {"lon": -77.01793016666667, "fusion_lon": 0.0, "bike_id": "9b9a9f67e9b91810142d50bd2006884b", "type": "electric_scooter", "name": "9b9a9f67e9b91810142d50bd2006884b", "rental_uris": {"android": "https://dc.lft.to/lastmile_qr_scan", "ios": "https://dc.lft.to/lastmile_qr_scan"}, "is_disabled": 0, "fusion_lat": 0.0, "lat": 38.9203115, "is_reserved": 0}, {"lon": -76.96115083333333, "fusion_lon": 0.0, "bike_id": "a8f3e7fbd990c4340bb4ceb1940e1a4e", "type": "electric_scooter", "name": "a8f3e7fbd990c4340bb4ceb1940e1a4e", "rental_uris": {"android": "https://dc.lft.to/lastmile_qr_scan", "ios": "https://dc.lft.to/lastmile_qr_scan"}, "is_disabled": 0, "fusion_lat": 0.0, "lat": 38.884253666666666, "is_reserved": 0}, {"lon": -77.0487075, "fusion_lon": 0.0, "bike_id": "7e4807be9e047201e45b7f3f03a5ea50", "type": "electric_scooter", "name": "7e4807be9e047201e45b7f3f03a5ea50", "rental_uris": {"android": "https://dc.lft.to/lastmile_qr_scan", "ios": "https://dc.lft.to/lastmile_qr_scan"}, "is_disabled": 0, "fusion_lat": 0.0, "lat": 38.9097575, "is_reserved": 0}, {"lon": -77.03596283333333, "fusion_lon": 0.0, "bike_id": "60a80b4b2f7c24d205d52062f584d73d", "type": "electric_scooter", "name": "60a80b4b2f7c24d205d52062f584d73d", "rental_uris": {"android": "https://dc.lft.to/lastmile_qr_scan", "ios": "https://dc.lft.to/lastmile_qr_scan"}, "is_disabled": 0, "fusion_lat": 0.0, "lat": 38.931481, "is_reserved": 0}, {"lon": -77.03082266666667, "fusion_lon": 0.0, "bike_id": "bcfe6dfccba62a39a4c24c83d70eadeb", "type": "electric_scooter", "name": "bcfe6dfccba62a39a4c24c83d70eadeb", "rental_uris": {"android": "https://dc.lft.to/lastmile_qr_scan", "ios": "https://dc.lft.to/lastmile_qr_scan"}, "is_disabled": 0, "fusion_lat": 0.0, "lat": 38.928671, "is_reserved": 0}, {"lon": -77.04202, "fusion_lon": 0.0, "bike_id": "5f21a947675687abeb466825ed60d458", "type": "electric_scooter", "name": "5f21a947675687abeb466825ed60d458", "rental_uris": {"android": "https://dc.lft.to/lastmile_qr_scan", "ios": "https://dc.lft.to/lastmile_qr_scan"}, "is_disabled": 0, "fusion_lat": 0.0, "lat": 38.926238, "is_reserved": 0}, {"lon": -77.0304375, "fusion_lon": 0.0, "bike_id": "d562fd5fe1828bc545df392162af5ee5", "type": "electric_scooter", "name": "d562fd5fe1828bc545df392162af5ee5", "rental_uris": {"android": "https://dc.lft.to/lastmile_qr_scan", "ios": "https://dc.lft.to/lastmile_qr_scan"}, "is_disabled": 0, "fusion_lat": 0.0, "lat": 38.91683466666667, "is_reserved": 0}, {"lon": -77.00883733333333, "fusion_lon": 0.0, "bike_id": "95c02fd6aa83304c83b2977485633ebf", "type": "electric_scooter", "name": "95c02fd6aa83304c83b2977485633ebf", "rental_uris": {"android": "https://dc.lft.to/lastmile_qr_scan", "ios": "https://dc.lft.to/lastmile_qr_scan"}, "is_disabled": 0, "fusion_lat": 0.0, "lat": 38.876726833333336, "is_reserved": 0}, {"lon": -77.0032645, "fusion_lon": 0.0, "bike_id": "05c08ad0fc1216accf6406290a3cf5ed", "type": "electric_scooter", "name": "05c08ad0fc1216accf6406290a3cf5ed", "rental_uris": {"android": "https://dc.lft.to/lastmile_qr_scan", "ios": "https://dc.lft.to/lastmile_qr_scan"}, "is_disabled": 0, "fusion_lat": 0.0, "lat": 38.91925883333333, "is_reserved": 0}, {"lon": -76.96983583333333, "fusion_lon": 0.0, "bike_id": "8ab4c9ec45926f828b67b08518a54892", "type": "electric_scooter", "name": "8ab4c9ec45926f828b67b08518a54892", "rental_uris": {"android": "https://dc.lft.to/lastmile_qr_scan", "ios": "https://dc.lft.to/lastmile_qr_scan"}, "is_disabled": 0, "fusion_lat": 0.0, "lat": 38.878644333333334, "is_reserved": 0}, {"lon": -77.02975783333333, "fusion_lon": 0.0, "bike_id": "26ffb1a267ac80bc1895ccd7e52a3565", "type": "electric_scooter", "name": "26ffb1a267ac80bc1895ccd7e52a3565", "rental_uris": {"android": "https://dc.lft.to/lastmile_qr_scan", "ios": "https://dc.lft.to/lastmile_qr_scan"}, "is_disabled": 0, "fusion_lat": 0.0, "lat": 38.90518983333333, "is_reserved": 0}, {"lon": -77.00066733333334, "fusion_lon": 0.0, "bike_id": "dc6716e5edc7f61ad8981eb4e45a9be6", "type": "electric_scooter", "name": "dc6716e5edc7f61ad8981eb4e45a9be6", "rental_uris": {"android": "https://dc.lft.to/lastmile_qr_scan", "ios": "https://dc.lft.to/lastmile_qr_scan"}, "is_disabled": 0, "fusion_lat": 0.0, "lat": 38.88678916666667, "is_reserved": 0}, {"lon": -76.9425835, "fusion_lon": 0.0, "bike_id": "304a91c1217c9711554d09ce3ebd1351", "type": "electric_scooter", "name": "304a91c1217c9711554d09ce3ebd1351", "rental_uris": {"android": "https://dc.lft.to/lastmile_qr_scan", "ios": "https://dc.lft.to/lastmile_qr_scan"}, "is_disabled": 0, "fusion_lat": 0.0, "lat": 38.89846283333333, "is_reserved": 0}, {"lon": -77.0197285, "fusion_lon": 0.0, "bike_id": "6ed553f6037a5216af98b01fef2fb760", "type": "electric_scooter", "name": "6ed553f6037a5216af98b01fef2fb760", "rental_uris": {"android": "https://dc.lft.to/lastmile_qr_scan", "ios": "https://dc.lft.to/lastmile_qr_scan"}, "is_disabled": 0, "fusion_lat": 0.0, "lat": 38.88404283333333, "is_reserved": 0}, {"lon": -77.04628433333333, "fusion_lon": 0.0, "bike_id": "84c0083e419a6a879fc8589e203dcdee", "type": "electric_scooter", "name": "84c0083e419a6a879fc8589e203dcdee", "rental_uris": {"android": "https://dc.lft.to/lastmile_qr_scan", "ios": "https://dc.lft.to/lastmile_qr_scan"}, "is_disabled": 0, "fusion_lat": 0.0, "lat": 38.918078666666666, "is_reserved": 0},