{"data": {"bikes": [{"name": "c845aa1f071eeb17a8a8c91a550b8f31", "fusion_lat": 0.0, "type": "electric_scooter", "lat": 38.906321, "is_reserved": 0, "is_disabled": 0, "fusion_lon": 0.0, "bike_id": "c845aa1f071eeb17a8a8c91a550b8f31", "lon": -77.03660733333334, "rental_uris": {"ios": "https://dc.lft.to/lastmile_qr_scan", "android": "https://dc.lft.to/lastmile_qr_scan"}}, {"name": "33ecd48640970e000e213b9f295844a4", "fusion_lat": 0.0, "type": "electric_scooter", "lat": 38.88034583333334, "is_reserved": 0, "is_disabled": 0, "fusion_lon": 0.0, "bike_id": "33ecd48640970e000e213b9f295844a4", "lon": -76.92723783333334, "rental_uris": {"ios": "https://dc.lft.to/lastmile_qr_scan", "android": "https://dc.lft.to/lastmile_qr_scan"}}, {"name": "1ac3726c6a8b1f51c2cdf2b99afd0dcd", "fusion_lat": 0.0, "type": "electric_scooter", "lat": 38.914071, "is_reserved": 0, "is_disabled": 0, "fusion_lon": 0.0, "bike_id": "1ac3726c6a8b1f51c2cdf2b99afd0dcd", "lon": -77.0456685, "rental_uris": {"ios": "https://dc.lft.to/lastmile_qr_scan", "android": "https://dc.lft.to/lastmile_qr_scan"}}, {"name": "0f516c8315add5a7de6ab4660bbb9f2a", "fusion_lat": 0.0, "type": "electric_scooter", "lat": 38.9114615, "is_reserved": 0, "is_disabled": 0, "fusion_lon": 0.0, "bike_id": "0f516c8315add5a7de6ab4660bbb9f2a", "lon": -77.042021, "rental_uris": {"ios": "https://dc.lft.to/lastmile_qr_scan", "android": "https://dc.lft.to/lastmile_qr_scan"}}, {"name": "10f73568167dba75b7d21bd667f98c51", "fusion_lat": 0.0, "type": "electric_bike", "lat": 38.9881745, "is_reserved": 0, "is_disabled": 0, "fusion_lon": 0.0, "bike_id": "10f73568167dba75b7d21bd667f98c51", "lon": -77.0265915, "rental_uris": {"ios": "https://dc.lft.to/lastmile_qr_scan", "android": "https://dc.lft.to/lastmile_qr_scan"}}, {"name": "376b0ad86fdd01ab96ae4dc0bc07c766", "fusion_lat": 0.0, "type": "electric_bike", "lat": 38.8804475, "is_reserved": 0, "is_disabled": 0, "fusion_lon": 0.0, "bike_id": "376b0ad86fdd01ab96ae4dc0bc07c766", "lon": -77.01321766666666, "rental_uris": {"ios": "https://dc.lft.to/lastmile_qr_scan", "android": "https://dc.lft.to/lastmile_qr_scan"}}, {"name": "606066faafc0f299317f0d2a2d979385", "fusion_lat": 0.0, "type": "electric_scooter", "lat": 38.934001333333335, "is_reserved": 0, "is_disabled": 0, "fusion_lon": 0.0, "bike_id": "606066faafc0f299317f0d2a2d979385", "lon": -77.02729666666667, "rental_uris": {"ios": "https://dc.lft.to/lastmile_qr_scan", "android": "https://dc.lft.to/lastmile_qr_scan"}}, {"name": "8023225f924f87fefefbdb8a6c33fad8", "fusion_lat": 0.0, "type": "electric_scooter", "lat": 38.902593833333334, "is_reserved": 0, "is_disabled": 0, "fusion_lon": 0.0, "bike_id": "8023225f924f87fefefbdb8a6c33fad8", "lon": -77.0459785, "rental_uris": {"ios": "https://dc.lft.to/lastmile_qr_scan", "android": "https://dc.lft.to/lastmile_qr_scan"}}, {"name": "4910198c505950a9582a98269c154452", "fusion_lat": 0.0, "type": "electric_scooter", "lat": 38.90495966666667, "is_reserved": 0, "is_disabled": 0, "fusion_lon": 0.0, "bike_id": "4910198c505950a9582a98269c154452", "lon": -77.0435285, "rental_uris": {"ios": "https://dc.lft.to/lastmile_qr_scan", "android": "https://dc.lft.to/lastmile_qr_scan"}}, {"name": "7ea33de3a8f5bdc0bb18e3ad1b8da71b", "fusion_lat": 0.0, "type": "electric_bike", "lat": 38.85228383333333, "is_reserved": 0, "is_disabled": 0, "fusion_lon": 0.0, "bike_id": "7ea33de3a8f5bdc0bb18e3ad1b8da71b", "lon": -77.10336216666667, "rental_uris": {"ios": "https://dc.lft.to/lastmile_qr_scan", "android": "https://dc.lft.to/lastmile_qr_scan"}}, {"name": "622da6360ae3c87e4aef4d8f7f210eb0", "fusion_lat": 0.0, "type": "electric_scooter", "lat": 38.90908483333333, "is_reserved": 0, "is_disabled": 0, "fusion_lon": 0.0, "bike_id": "622da6360ae3c87e4aef4d8f7f210eb0", "lon": -77.0271475, "rental_uris": {"ios": "https://dc.lft.to/lastmile_qr_scan", "android": "https://dc.lft.to/lastmile_qr_scan"}}, {"name": "e8d293604b12ec2a6205e7404461694f", "fusion_lat": 0.0, "type": "electric_scooter", "lat": 38.87886066666667, "is_reserved": 0, "is_disabled": 0, "fusion_lon": 0.0, "bike_id": "e8d293604b12ec2a6205e7404461694f", "lon": -77.00122266666666, "rental_uris": {"ios": "https://dc.lft.to/lastmile_qr_scan", "android": "https://dc.lft.to/lastmile_qr_scan"}}, {"name": "b16d79f500e2bf07c99bb10f98019093", "fusion_lat": 0.0, "type": "electric_scooter", "lat": 38.884873666666664, "is_reserved": 0, "is_disabled": 0, "fusion_lon": 0.0, "bike_id": "b16d79f500e2bf07c99bb10f98019093", "lon": -77.00710383333333, "rental_uris": {"ios": "https://dc.lft.to/lastmile_qr_scan", "android": "https://dc.lft.to/lastmile_qr_scan"}}, {"name": "fca663267115ad24c239639ede8732d7", "fusion_lat": 0.0, "type": "electric_scooter", "lat": 38.8831395, "is_reserved": 0, "is_disabled": 0, "fusion_lon": 0.0, "bike_id": "fca663267115ad24c239639ede8732d7", "lon": -77.0059925, "rental_uris": {"ios": "https://dc.lft.to/lastmile_qr_scan", "android": "https://dc.lft.to/lastmile_qr_scan"}}, {"name": "a9e9e2297e795effc8c0f6254d1bc8ce", "fusion_lat": 0.0, "type": "electric_bike", "lat": 38.999123166666664, "is_reserved": 0, "is_disabled": 0, "fusion_lon": 0.0, "bike_id": "a9e9e2297e795effc8c0f6254d1bc8ce", "lon": -77.0461625, "rental_uris": {"ios": "https://dc.lft.to/lastmile_qr_scan", "android": "https://dc.lft.to/lastmile_qr_scan"}}, {"name": "d2866f283f7842342147ec64ffe43135", "fusion_lat": 0.0, "type": "electric_scooter", "lat": 38.8666675, "is_reserved": 0, "is_disabled": 0, "fusion_lon": 0.0, "bike_id": "d2866f283f7842342147ec64ffe43135", "lon": -77.01045816666667, "rental_uris": {"ios": "https://dc.lft.to/lastmile_qr_scan", "android": "https://dc.lft.to/lastmile_qr_scan"}}, {"name": "3a0b28f04f2fb826d5bc86d86a7e1f28", "fusion_lat": 0.0, "type": "electric_scooter", "lat": 38.91265166666667, "is_reserved": 0, "is_disabled": 0, "fusion_lon": 0.0, "bike_id": "3a0b28f04f2fb826d5bc86d86a7e1f28", "lon": -77.03138833333334, "rental_uris": {"ios": "https://dc.lft.to/lastmile_qr_scan", "android": "https://dc.lft.to/lastmile_qr_scan"}}, {"name": "eed48da26e59ae440441ca02e73871af", "fusion_lat": 0.0, "type": "electric_scooter", "lat": 38.92228933333333, "is_reserved": 0, "is_disabled": 0, "fusion_lon": 0.0, "bike_id": "eed48da26e59ae440441ca02e73871af", "lon": -77.04720333333333, "rental_uris": {"ios": "https://dc.lft.to/lastmile_qr_scan", "android": "https://dc.lft.to/lastmile_qr_scan"}}, {"name": "659d47acfadb8f14d9e0933002c4f892", "fusion_lat": 0.0, "type": "electric_bike", "lat": 38.84574383333333, "is_reserved": 0, "is_disabled": 0, "fusion_lon": 0.0, "bike_id": "659d47acfadb8f14d9e0933002c4f892", "lon": -77.09623533333334, "rental_uris": {"ios": "https://dc.lft.to/lastmile_qr_scan", "android": "https://dc.lft.to/lastmile_qr_scan"}}, {"name": "71ba1303ae888bd42161b543d217beec", "fusion_lat": 0.0, "type": "electric_scooter", "lat": 38.9370395, "is_reserved": 0, "is_disabled": 0, "fusion_lon": 0.0, "bike_id": "71ba1303ae888bd42161b543d217beec", "lon": -77.061004, "rental_uris": {"ios": "https://dc.lft.to/lastmile_qr_scan", "android": "https://dc.lft.to/lastmile_qr_scan"}}, {"name": "114716a4d702a05cacb2d29d65404e26", "fusion_lat": 0.0, "type": "electric_scooter", "lat": 38.9289255, "is_reserved": 0, "is_disabled": 0, "fusion_lon": 0.0, "bike_id": "114716a4d702a05cacb2d29d65404e26", "lon": -77.03272433333333, "rental_uris": {"ios": "https://dc.lft.to/lastmile_qr_scan", "android": "https://dc.lft.to/lastmile_qr_scan"}}, {"name": "dc739140c365572d0edd803a6a42bea6", "fusion_lat": 0.0, "type": "electric_scooter", "lat": 38.9074795, "is_reserved": 0, "is_disabled": 0, "fusion_lon": 0.0, "bike_id": "dc739140c365572d0edd803a6a42bea6", "lon": -77.03437316666667, "rental_uris": {"ios": "https://dc.lft.to/lastmile_qr_scan", "android": "https://dc.lft.to/lastmile_qr_scan"}}, {"name": "6c0fa525882015e52a5fe34193d10a5d", "fusion_lat": 0.0, "type": "electric_bike", "lat": 38.97384616666667, "is_reserved": 0, "is_disabled": 0, "fusion_lon": 0.0, "bike_id": "6c0fa525882015e52a5fe34193d10a5d", "lon": -77.06474533333333, "rental_uris": {"ios": "https://dc.lft.to/lastmile_qr_scan", "android": "https://dc.lft.to/lastmile_qr_scan"}}, {"name": "c82c66fb419b5ffe83d3b91abed47411", "fusion_lat": 0.0, "type": "electric_bike", "lat": 38.84597633333333, "is_reserved": 0, "is_disabled": 0, "fusion_lon": 0.0, "bike_id": "c82c66fb419b5ffe83d3b91abed47411", "lon": -76.96883016666666, "rental_uris": {"ios": "https://dc.lft.to/lastmile_qr_scan", "android": "https://dc.lft.to/lastmile_qr_scan"}}, {"name": "ce41f7472ee51bed28c900a43f80977b", "fusion_lat": 0.0, "type": "electric_scooter", "lat": 38.89355416666667, "is_reserved": 0, "is_disabled": 0, "fusion_lon": 0.0, "bike_id": "ce41f7472ee51bed28c900a43f80977b", "lon": -77.00335066666666, "rental_uris": {"ios": "https://dc.lft.to/lastmile_qr_scan", "android": "https://dc.lft.to/lastmile_qr_scan"}}, {"name": "4ba7e42513d9de4d0b5bf3339516cdcc", "fusion_lat": 0.0, "type": "electric_scooter", "lat": 38.870859333333335, "is_reserved": 0, "is_disabled": 0, "fusion_lon": 0.0, "bike_id": "4ba7e42513d9de4d0b5bf3339516cdcc", "lon": -77.01377166666667, "rental_uris": {"ios": "https://dc.lft.to/lastmile_qr_scan", "android": "https://dc.lft.to/lastmile_qr_scan"}}, {"name": "47a8f54203c1a66f24ec1b7d392977c5", "fusion_lat": 0.0, "type": "electric_scooter", "lat": 38.90786033333333, "is_reserved": 0, "is_disabled": 0, "fusion_lon": 0.0, "bike_id": "47a8f54203c1a66f24ec1b7d392977c5", "lon": -77.07249266666666, "rental_uris": {"ios": "https://dc.lft.to/lastmile_qr_scan", "android": "https://dc.lft.to/lastmile_qr_scan"}}, {"name": "a51ccd48a50f86e10db2e26e0328f8a3", "fusion_lat": 0.0, "type": "electric_scooter", "lat": 38.91240466666667, "is_reserved": 0, "is_disabled": 0, "fusion_lon": 0.0, "bike_id": "a51ccd48a50f86e10db2e26e0328f8a3", "lon": -77.04876833333333, "rental_uris": {"ios": "https://dc.lft.to/lastmile_qr_scan", "android": "https://dc.lft.to/lastmile_qr_scan"}}, {"name": "1938e323ea7ada692d550d7a1ee7d1b6", "fusion_lat": 0.0, "type": "electric_scooter", "lat": 38.92660866666667, "is_reserved": 0, "is_disabled": 0, "fusion_lon": 0.0, "bike_id": "1938e323ea7ada692d550d7a1ee7d1b6", "lon": -77.03720616666666, "rental_uris": {"ios": "https://dc.lft.to/lastmile_qr_scan", "android": "https://dc.lft.to/lastmile_qr_scan"}}, {"name": "7cf53a1847a45dc02b64e3477e8c9b10", "fusion_lat": 0.0, "type": "electric_scooter", "lat": 38.928255166666666, "is_reserved": 0, "is_disabled": 0, "fusion_lon": 0.0, "bike_id": "7cf53a1847a45dc02b64e3477e8c9b10", "lon": -77.022565, "rental_uris": {"ios": "https://dc.lft.to/lastmile_qr_scan", "android": "https://dc.lft.to/lastmile_qr_scan"}}, {"name": "e5be4d3ae1945be5c07af7f07404c16a", "fusion_lat": 0.0, "type": "electric_bike", "lat": 38.959298, "is_reserved": 0, "is_disabled": 0, "fusion_lon": 0.0, "bike_id": "e5be4d3ae1945be5c07af7f07404c16a", "lon": -76.92531233333334, "rental_uris": {"ios": "https://dc.lft.to/lastmile_qr_scan", "android": "https://dc.lft.to/lastmile_qr_scan"}}, {"name": "7cc25a958b4e0424d873c891e83ecb57", "fusion_lat": 0.0, "type": "electric_scooter", "lat": 38.895515, "is_reserved": 0, "is_disabled": 0, "fusion_lon": 0.0, "bike_id": "7cc25a958b4e0424d873c891e83ecb57", "lon": -76.94877766666667, "rental_uris": {"ios": "https://dc.lft.to/lastmile_qr_scan", "android": "https://dc.lft.to/lastmile_qr_scan"}}, {"name": "8590f6916d53cc9d5c366191a1f94b04", "fusion_lat": 0.0, "type": "electric_scooter", "lat": 38.903717666666665, "is_reserved": 0, "is_disabled": 0, "fusion_lon": 0.0, "bike_id": "8590f6916d53cc9d5c366191a1f94b04", "lon": -77.0450355, "rental_uris": {"ios": "https://dc.lft.to/lastmile_qr_scan", "android": "https://dc.lft.to/lastmile_qr_scan"}}, {"name": "dff5ff5e3405dc8be8d49b8bc2a8aac4", "fusion_lat": 0.0, "type": "electric_scooter", "lat": 38.89915516666667, "is_reserved": 0, "is_disabled": 0, "fusion_lon": 0.0, "bike_id": "dff5ff5e3405dc8be8d49b8bc2a8aac4", "lon": -77.03282166666666, "rental_uris": {"ios": "https://dc.lft.to/lastmile_qr_scan", "android": "https://dc.lft.to/lastmile_qr_scan"}}, {"name": "a6bc9c80298dc97c2c60982660ed3a94", "fusion_lat": 0.0, "type": "electric_scooter", "lat": 38.913274666666666, "is_reserved": 0, "is_disabled": 0, "fusion_lon": 0.0, "bike_id": "a6bc9c80298dc97c2c60982660ed3a94", "lon": -77.03210216666666, "rental_uris": {"ios": "https://dc.lft.to/lastmile_qr_scan", "android": "https://dc.lft.to/lastmile_qr_scan"}}, {"name": "f35f87401f5c2b6d0966dc0a02394bf5", "fusion_lat": 0.0, "type": "electric_bike", "lat": 38.87756016666667, "is_reserved": 0, "is_disabled": 0, "fusion_lon": 0.0, "bike_id": "f35f87401f5c2b6d0966dc0a02394bf5", "lon": -76.9798165, "rental_uris": {"ios": "https://dc.lft.to/lastmile_qr_scan", "android": "https://dc.lft.to/lastmile_qr_scan"}}, {"name": "bec1a303a22cc7674a169e63e2effaa1", "fusion_lat": 0.0, "type": "electric_scooter", "lat": 38.90677083333333, "is_reserved": 0, "is_disabled": 0, "fusion_lon": 0.0, "bike_id": "bec1a303a22cc7674a169e63e2effaa1", "lon": -77.04339366666666, "rental_uris": {"ios": "https://dc.lft.to/lastmile_qr_scan", "android": "https://dc.lft.to/lastmile_qr_scan"}}, {"name": "de2ae19bb752f6156011cd3a54dcb506", "fusion_lat": 0.0, "type": "electric_scooter", "lat": 38.90821666666667, "is_reserved": 0, "is_disabled": 0, "fusion_lon": 0.0, "bike_id": "de2ae19bb752f6156011cd3a54dcb506", "lon": -77.03912183333334, "rental_uris": {"ios": "https://dc.lft.to/lastmile_qr_scan", "android": "https://dc.lft.to/lastmile_qr_scan"}}, {"name": "62e1a5104b620adcec0100a8cd8401a9", "fusion_lat": 0.0, "type": "electric_bike", "lat": 38.926913, "is_reserved": 0, "is_disabled": 0, "fusion_lon": 0.0, "bike_id": "62e1a5104b620adcec0100a8cd8401a9", "lon": -77.0078725, "rental_uris": {"ios": "https://dc.lft.to/lastmile_qr_scan", "android": "https://dc.lft.to/lastmile_qr_scan"}}, {"name": "76274e45dc4f311de6bf941f868fb1d3", "fusion_lat": 0.0, "type": "electric_bike", "lat": 38.939605666666665, "is_reserved": 0, "is_disabled": 0, "fusion_lon": 0.0, "bike_id": "76274e45dc4f311de6bf941f868fb1d3", "lon": -77.36095916666666, "rental_uris": {"ios": "https://dc.lft.to/lastmile_qr_scan", "android": "https://dc.lft.to/lastmile_qr_scan"}}, {"name": "498bb50baaa9c4b07e40638abacb5111", "fusion_lat": 0.0, "type": "electric_scooter", "lat": 38.92198783333333, "is_reserved": 0, "is_disabled": 0, "fusion_lon": 0.0, "bike_id": "498bb50baaa9c4b07e40638abacb5111", "lon": -77.04233216666667, "rental_uris": {"ios": "https://dc.lft.to/lastmile_qr_scan", "android": "https://dc.lft.to/lastmile_qr_scan"}}, {"name": "4dc5c871403af18657f45633c02be5f3", "fusion_lat": 0.0, "type": "electric_scooter", "lat": 38.90962733333333, "is_reserved": 0, "is_disabled": 0, "fusion_lon": 0.0, "bike_id": "4dc5c871403af18657f45633c02be5f3", "lon": -77.03424183333334, "rental_uris": {"ios": "https://dc.lft.to/lastmile_qr_scan", "android": "https://dc.lft.to/lastmile_qr_scan"}}, {"name": "33332b52b343113029a99c1bed72888a", "fusion_lat": 0.0, "type": "electric_scooter", "lat": 38.897316833333335, "is_reserved": 0, "is_disabled": 0, "fusion_lon": 0.0, "bike_id": "33332b52b343113029a99c1bed72888a", "lon": -77.046453, "rental_uris": {"ios": "https://dc.lft.to/lastmile_qr_scan", "android": "https://dc.lft.to/lastmile_qr_scan"}}, {"name": "563662e3e125422a45b75e408cea5e40", "fusion_lat": 0.0, "type": "electric_bike", "lat": 38.89824816666667, "is_reserved": 0, "is_disabled": 0, "fusion_lon": 0.0, "bike_id": "563662e3e125422a45b75e408cea5e40", "lon": -77.01061233333333, "rental_uris": {"ios": "https://dc.lft.to/lastmile_qr_scan", "android": "https://dc.lft.to/lastmile_qr_scan"}}, {"name": "079880c91a3d81b150be2db125b102de", "fusion_lat": 0.0, "type": "electric_scooter", "lat": 38.931929, "is_reserved": 0, "is_disabled": 0, "fusion_lon": 0.0, "bike_id": "079880c91a3d81b150be2db125b102de", "lon": -77.02577616666666, "rental_uris": {"ios": "https://dc.lft.to/lastmile_qr_scan", "android": "https://dc.lft.to/lastmile_qr_scan"}}, {"name": "e0b1dbd13bd92ec4f4d8b69addbbbc49", "fusion_lat": 0.0, "type": "electric_scooter", "lat": 38.88468133333333, "is_reserved": 0, "is_disabled": 0, "fusion_lon": 0.0, "bike_id": "e0b1dbd13bd92ec4f4d8b69addbbbc49", "lon": -77.02172383333334, "rental_uris": {"ios": "https://dc.lft.to/lastmile_qr_scan", "android": "https://dc.lft.to/lastmile_qr_scan"}}, {"name": "24523fbab3fe8d1e93fb8d4eecfbbe17", "fusion_lat": 0.0, "type": "electric_scooter", "lat": 38.897363666666664, "is_reserved": 0, "is_disabled": 0, "fusion_lon": 0.0, "bike_id": "24523fbab3fe8d1e93fb8d4eecfbbe17", "lon": -77.0327755, "rental_uris": {"ios": "https://dc.lft.to/lastmile_qr_scan", "android": "https://dc.lft.to/lastmile_qr_scan"}}, {"name": "089f44c1d72c0424af84573e5d92f494", "fusion_lat": 0.0, "type": "electric_scooter", "lat": 38.910472, "is_reserved": 0, "is_disabled": 0, "fusion_lon": 0.0, "bike_id": "089f44c1d72c0424af84573e5d92f494", "lon": -77.04357583333334, "rental_uris": {"ios": "https://dc.lft.to/lastmile_qr_scan", "android": "https://dc.lft.to/lastmile_qr_scan"}}, {"name": "3e75f9a94c77849dfd4111966a6e0202", "fusion_lat": 0.0, "type": "electric_bike", "lat": 38.8244515, "is_reserved": 0, "is_disabled": 0, "fusion_lon": 0.0, "bike_id": "3e75f9a94c77849dfd4111966a6e0202", "lon": -77.070438, "rental_uris": {"ios": "https://dc.lft.to/lastmile_qr_scan", "android": "https://dc.lft.to/lastmile_qr_scan"}}, {"name": "bbf2b3a3b430de7d727369a0abf2b391", "fusion_lat": 0.0, "type": "electric_scooter", "lat": 38.899189, "is_reserved": 0, "is_disabled": 0, "fusion_lon": 0.0, "bike_id": "bbf2b3a3b430de7d727369a0abf2b391", "lon": -76.9338275, "rental_uris": {"ios": "https://dc.lft.to/lastmile_qr_scan", "android": "https://dc.lft.to/lastmile_qr_scan"}}, {"name": "e6cce4bb62caeb2349eadddfd78ff760", "fusion_lat": 0.0, "type": "electric_scooter", "lat": 38.9231925, "is_reserved": 0, "is_disabled": 0, "fusion_lon": 0.0, "bike_id": "e6cce4bb62caeb2349eadddfd78ff760", "lon": -77.029814, "rental_uris": {"ios": "https://dc.lft.to/lastmile_qr_scan", "android": "https://dc.lft.to/lastmile_qr_scan"}}, {"name": "91f3ce2ba86daf98cb6aa271923f3cae", "fusion_lat": 0.0, "type": "electric_scooter", "lat": 38.8843155, "is_reserved": 0, "is_disabled": 0, "fusion_lon": 0.0, "bike_id": "91f3ce2ba86daf98cb6aa271923f3cae", "lon": -77.03047066666667, "rental_uris": {"ios": "https://dc.lft.to/lastmile_qr_scan", "android": "https://dc.lft.to/lastmile_qr_scan"}}, {"name": "553e6cede0c6f1464d29d5468d9995e2", "fusion_lat": 0.0, "type": "electric_scooter", "lat": 38.92209116666667, "is_reserved": 0, "is_disabled": 0, "fusion_lon": 0.0, "bike_id": "553e6cede0c6f1464d29d5468d9995e2", "lon": -77.04123616666666, "rental_uris": {"ios": "https://dc.lft.to/lastmile_qr_scan", "android": "https://dc.lft.to/lastmile_qr_scan"}}, {"name": "5f4ac9395973173ab74ff9b5f0f60a83", "fusion_lat": 0.0, "type": "electric_bike", "lat": 38.88342766666667, "is_reserved": 0, "is_disabled": 0, "fusion_lon": 0.0, "bike_id": "5f4ac9395973173ab74ff9b5f0f60a83", "lon": -77.18293166666666, "rental_uris": {"ios": "https://dc.lft.to/lastmile_qr_scan", "android": "https://dc.lft.to/lastmile_qr_scan"}}, {"name": "cfdd1e6a2070b830f5cf710faf608d77", "fusion_lat": 0.0, "type": "electric_scooter", "lat": 38.92725766666667, "is_reserved": 0, "is_disabled": 0, "fusion_lon": 0.0, "bike_id": "cfdd1e6a2070b830f5cf710faf608d77", "lon": -77.07139366666667, "rental_uris": {"ios": "https://dc.lft.to/lastmile_qr_scan", "android": "https://dc.lft.to/lastmile_qr_scan"}}, {"name": "6b84fff24da0efcfb4405fb9f4d734fe", "fusion_lat": 0.0, "type": "electric_scooter", "lat": 38.910467, "is_reserved": 0, "is_disabled": 0, "fusion_lon": 0.0, "bike_id": "6b84fff24da0efcfb4405fb9f4d734fe", "lon": -77.0437015, "rental_uris": {"ios": "https://dc.lft.to/lastmile_qr_scan", "android": "https://dc.lft.to/lastmile_qr_scan"}}, {"name": "ce10577a7d3c708eee05ce1b19a351d7", "fusion_lat": 0.0, "type": "electric_scooter", "lat": 38.89377133333333, "is_reserved": 0, "is_disabled": 0, "fusion_lon": 0.0, "bike_id": "ce10577a7d3c708eee05ce1b19a351d7", "lon": -76.949979, "rental_uris": {"ios": "https://dc.lft.to/lastmile_qr_scan", "android": "https://dc.lft.to/lastmile_qr_scan"}}, {"name": "fb09e206af56348970728be847443098", "fusion_lat": 0.0, "type": "electric_bike", "lat": 38.89723433333333, "is_reserved": 0, "is_disabled": 0, "fusion_lon": 0.0, "bike_id": "fb09e206af56348970728be847443098", "lon": -77.01909666666667, "rental_uris": {"ios": "https://dc.lft.to/lastmile_qr_scan", "android": "https://dc.lft.to/lastmile_qr_scan"}}, {"name": "52cacb694a149784231f9efbdce05469", "fusion_lat": 0.0, "type": "electric_scooter", "lat": 38.920113666666666, "is_reserved": 0, "is_disabled": 0, "fusion_lon": 0.0, "bike_id": "52cacb694a149784231f9efbdce05469", "lon": -77.081872, "rental_uris": {"ios": "https://dc.lft.to/lastmile_qr_scan", "android": "https://dc.lft.to/lastmile_qr_scan"}}, {"name": "a477b07759cdbe8dbb9135c52cf21feb", "fusion_lat": 0.0, "type": "electric_scooter", "lat": 38.885938, "is_reserved": 0, "is_disabled": 0, "fusion_lon": 0.0, "bike_id": "a477b07759cdbe8dbb9135c52cf21feb", "lon": -77.0220605, "rental_uris": {"ios": "https://dc.lft.to/lastmile_qr_scan", "android": "https://dc.lft.to/lastmile_qr_scan"}}, {"name": "692109401e04b4f0d7b7fc582c4530e2", "fusion_lat": 0.0, "type": "electric_scooter", "lat": 38.9341395, "is_reserved": 0, "is_disabled": 0, "fusion_lon": 0.0, "bike_id": "692109401e04b4f0d7b7fc582c4530e2", "lon": -77.0418495, "rental_uris": {"ios": "https://dc.lft.to/lastmile_qr_scan", "android": "https://dc.lft.to/lastmile_qr_scan"}}, {"name": "5694d3046eebde011421f8b14ffdf5d3", "fusion_lat": 0.0, "type": "electric_scooter", "lat": 38.898537, "is_reserved": 0, "is_disabled": 0, "fusion_lon": 0.0, "bike_id": "5694d3046eebde011421f8b14ffdf5d3", "lon": -77.01608433333334, "rental_uris": {"ios": "https://dc.lft.to/lastmile_qr_scan", "android": "https://dc.lft.to/lastmile_qr_scan"}}, {"name": "9e91dd0ff61f4ce2a1935140addda817", "fusion_lat": 0.0, "type": "electric_bike", "lat": 38.863890166666664, "is_reserved": 0, "is_disabled": 0, "fusion_lon": 0.0, "bike_id": "9e91dd0ff61f4ce2a1935140addda817", "lon": -76.9898825, "rental_uris": {"ios": "https://dc.lft.to/lastmile_qr_scan", "android": "https://dc.lft.to/lastmile_qr_scan"}}, {"name": "452ab74bf2fe3613483c4d61b20e68ed", "fusion_lat": 0.0, "type": "electric_scooter", "lat": 38.898752333333334, "is_reserved": 0, "is_disabled": 0, "fusion_lon": 0.0, "bike_id": "452ab74bf2fe3613483c4d61b20e68ed", "lon": -76.93158616666666, "rental_uris": {"ios": "https://dc.lft.to/lastmile_qr_scan", "android": "https://dc.lft.to/lastmile_qr_scan"}}, {"name": "9d7687c64d013cf7297c25e6cf8d44a4", "fusion_lat": 0.0, "type": "electric_scooter", "lat": 38.918483, "is_reserved": 0, "is_disabled": 0, "fusion_lon": 0.0, "bike_id": "9d7687c64d013cf7297c25e6cf8d44a4", "lon": -77.02603283333333, "rental_uris": {"ios": "https://dc.lft.to/lastmile_qr_scan", "android": "https://dc.lft.to/lastmile_qr_scan"}}, {"name": "5d1513758f856bfbf00861b81bfd23b6", "fusion_lat": 0.0, "type": "electric_scooter", "lat": 38.90842816666667, "is_reserved": 0, "is_disabled": 0, "fusion_lon": 0.0, "bike_id": "5d1513758f856bfbf00861b81bfd23b6", "lon": -77.043334, "rental_uris": {"ios": "https://dc.lft.to/lastmile_qr_scan", "android": "https://dc.lft.to/lastmile_qr_scan"}}, {"name": "8306a33f4ea1089fcc559c2fb2a28134", "fusion_lat": 0.0, "type": "electric_scooter", "lat": 38.91186033333334, "is_reserved": 0, "is_disabled": 0, "fusion_lon": 0.0, "bike_id": "8306a33f4ea1089fcc559c2fb2a28134", "lon": -77.039725, "rental_uris": {"ios": "https://dc.lft.to/lastmile_qr_scan", "android": "https://dc.lft.to/lastmile_qr_scan"}}, {"name": "c1ccded88257779d57005206c1b89ff2", "fusion_lat": 0.0, "type": "electric_scooter", "lat": 38.874236333333336, "is_reserved": 0, "is_disabled": 0, "fusion_lon": 0.0, "bike_id": "c1ccded88257779d57005206c1b89ff2", "lon": -76.971782, "rental_uris": {"ios": "https://dc.lft.to/lastmile_qr_scan", "android": "https://dc.lft.to/lastmile_qr_scan"}}, {"name": "6d11f0009daac6e7a409bd5605a1c8b2", "fusion_lat": 0.0, "type": "electric_scooter", "lat": 38.90364783333333, "is_reserved": 0, "is_disabled": 0, "fusion_lon": 0.0, "bike_id": "6d11f0009daac6e7a409bd5605a1c8b2", "lon": -77.01104283333333, "rental_uris": {"ios": "https://dc.lft.to/lastmile_qr_scan", "android": "https://dc.lft.to/lastmile_qr_scan"}}, {"name": "3df5a2fc5e78e88536879a1b329d0d27", "fusion_lat": 0.0, "type": "electric_scooter", "lat": 38.900660333333335, "is_reserved": 0, "is_disabled": 0, "fusion_lon": 0.0, "bike_id": "3df5a2fc5e78e88536879a1b329d0d27", "lon": -77.04533166666667, "rental_uris": {"ios": "https://dc.lft.to/lastmile_qr_scan", "android": "https://dc.lft.to/lastmile_qr_scan"}}, {"name": "024c03906ad63af4ede05eea65b82f7e", "fusion_lat": 0.0, "type": "electric_scooter", "lat": 38.919843166666666, "is_reserved": 0, "is_disabled": 0, "fusion_lon": 0.0, "bike_id": "024c03906ad63af4ede05eea65b82f7e", "lon": -77.033274, "rental_uris": {"ios": "https://dc.lft.to/lastmile_qr_scan", "android": "https://dc.lft.to/lastmile_qr_scan"}}, {"name": "b5627346987570e16627bb2e56148c59", "fusion_lat": 0.0, "type": "electric_bike", "lat": 38.948967333333336, "is_reserved": 0, "is_disabled": 0, "fusion_lon": 0.0, "bike_id": "b5627346987570e16627bb2e56148c59", "lon": -76.96374783333333, "rental_uris": {"ios": "https://dc.lft.to/lastmile_qr_scan", "android": "https://dc.lft.to/lastmile_qr_scan"}}, {"name": "2ee6004e1114216ce2a08dc65a194eb1", "fusion_lat": 0.0, "type": "electric_scooter", "lat": 38.941756833333336, "is_reserved": 0, "is_disabled": 0, "fusion_lon": 0.0, "bike_id": "2ee6004e1114216ce2a08dc65a194eb1", "lon": -77.04132466666667, "rental_uris": {"ios": "https://dc.lft.to/lastmile_qr_scan", "android": "https://dc.lft.to/lastmile_qr_scan"}}, {"name": "df3f2364d06a041e53c1202e69434473", "fusion_lat": 0.0, "type": "electric_scooter", "lat": 38.91486333333334, "is_reserved": 0, "is_disabled": 0, "fusion_lon": 0.0, "bike_id": "df3f2364d06a041e53c1202e69434473", "lon": -77.032567, "rental_uris": {"ios": "https://dc.lft.to/lastmile_qr_scan", "android": "https://dc.lft.to/lastmile_qr_scan"}}, {"name": "500cd288090f4d2bc884ba1043d857d3", "fusion_lat": 0.0, "type": "electric_scooter", "lat": 38.89233616666667, "is_reserved": 0, "is_disabled": 0, "fusion_lon": 0.0, "bike_id": "500cd288090f4d2bc884ba1043d857d3", "lon": -77.046399, "rental_uris": {"ios": "https://dc.lft.to/lastmile_qr_scan", "android": "https://dc.lft.to/lastmile_qr_scan"}}, {"name": "e9f1835487b3937bea6bbdaf57744c4f", "fusion_lat": 0.0, "type": "electric_scooter", "lat": 38.88741816666667, "is_reserved": 0, "is_disabled": 0, "fusion_lon": 0.0, "bike_id": "e9f1835487b3937bea6bbdaf57744c4f", "lon": -77.02361633333334, "rental_uris": {"ios": "https://dc.lft.to/lastmile_qr_scan", "android": "https://dc.lft.to/lastmile_qr_scan"}}, {"name": "059d8347a0277d63efbcadd211875947", "fusion_lat": 0.0, "type": "electric_scooter", "lat": 38.9111145, "is_reserved": 0, "is_disabled": 0, "fusion_lon": 0.0, "bike_id": "059d8347a0277d63efbcadd211875947", "lon": -77.02463116666667, "rental_uris": {"ios": "https://dc.lft.to/lastmile_qr_scan", "android": "https://dc.lft.to/lastmile_qr_scan"}}, {"name": "0002d78d0b54d4946886ae0986f9c49b", "fusion_lat": 0.0, "type": "electric_scooter", "lat": 38.896169666666665, "is_reserved": 0, "is_disabled": 0, "fusion_lon": 0.0, "bike_id": "0002d78d0b54d4946886ae0986f9c49b", "lon": -77.04463433333333, "rental_uris": {"ios": "https://dc.lft.to/lastmile_qr_scan", "android": "https://dc.lft.to/lastmile_qr_scan"}}, {"name": "931b7ce853e34f7a64a1a4b652773225", "fusion_lat": 0.0, "type": "electric_scooter", "lat": 38.907408833333335, "is_reserved": 0, "is_disabled": 0, "fusion_lon": 0.0, "bike_id": "931b7ce853e34f7a64a1a4b652773225", "lon": -77.04671816666666, "rental_uris": {"ios": "https://dc.lft.to/lastmile_qr_scan", "android": "https://dc.lft.to/lastmile_qr_scan"}}, {"name": "992133e2454d90c211dfdba58d787496", "fusion_lat": 0.0, "type": "electric_scooter", "lat": 38.912857833333334, "is_reserved": 0, "is_disabled": 0, "fusion_lon": 0.0, "bike_id": "992133e2454d90c211dfdba58d787496", "lon": -76.937469, "rental_uris": {"ios": "https://dc.lft.to/lastmile_qr_scan", "android": "https://dc.lft.to/lastmile_qr_scan"}}, {"name": "7bb680dec1830d3d4c95f3462e9221f2", "fusion_lat": 0.0, "type": "electric_scooter", "lat": 38.921208, "is_reserved": 0, "is_disabled": 0, "fusion_lon": 0.0, "bike_id": "7bb680dec1830d3d4c95f3462e9221f2", "lon": -77.0174845, "rental_uris": {"ios": "https://dc.lft.to/lastmile_qr_scan", "android": "https://dc.lft.to/lastmile_qr_scan"}}, {"name": "3108554bf835880fea133ac7881d1776", "fusion_lat": 0.0, "type": "electric_scooter", "lat": 38.909835666666666, "is_reserved": 0, "is_disabled": 0, "fusion_lon": 0.0, "bike_id": "3108554bf835880fea133ac7881d1776", "lon": -77.04261366666667, "rental_uris": {"ios": "https://dc.lft.to/lastmile_qr_scan", "android": "https://dc.lft.to/lastmile_qr_scan"}}, {"name": "e9780fda010cb665c99244fc8abcf879", "fusion_lat": 0.0, "type": "electric_scooter", "lat": 38.89221366666666, "is_reserved": 0, "is_disabled": 0, "fusion_lon": 0.0, "bike_id": "e9780fda010cb665c99244fc8abcf879", "lon": -77.03165833333334, "rental_uris": {"ios": "https://dc.lft.to/lastmile_qr_scan", "android": "https://dc.lft.to/lastmile_qr_scan"}}, {"name": "0ed343acec6685c85ba2777293631485", "fusion_lat": 0.0, "type": "electric_scooter", "lat": 38.90254016666667, "is_reserved": 0, "is_disabled": 0, "fusion_lon": 0.0, "bike_id": "0ed343acec6685c85ba2777293631485", "lon": -76.97706866666667, "rental_uris": {"ios": "https://dc.lft.to/lastmile_qr_scan", "android": "https://dc.lft.to/lastmile_qr_scan"}}, {"name": "fe903dbb74730da4b4f59c26f007d01e", "fusion_lat": 0.0, "type": "electric_scooter", "lat": 38.91691516666667, "is_reserved": 0, "is_disabled": 0, "fusion_lon": 0.0, "bike_id": "fe903dbb74730da4b4f59c26f007d01e", "lon": -77.01879, "rental_uris": {"ios": "https://dc.lft.to/lastmile_qr_scan", "android": "https://dc.lft.to/lastmile_qr_scan"}}, {"name": "eb1bd9ab764f75dcbbc5716678cb6200", "fusion_lat": 0.0, "type": "electric_scooter", "lat": 38.90798916666667, "is_reserved": 0, "is_disabled": 0, "fusion_lon": 0.0, "bike_id": "eb1bd9ab764f75dcbbc5716678cb6200", "lon": -77.018165, "rental_uris": {"ios": "https://dc.lft.to/lastmile_qr_scan", "android": "https://dc.lft.to/lastmile_qr_scan"}}, {"name": "c8c0cfe8893198f9acc4fe9769cba1ef", "fusion_lat": 0.0, "type": "electric_scooter", "lat": 38.9251575, "is_reserved": 0, "is_disabled": 0, "fusion_lon": 0.0, "bike_id": "c8c0cfe8893198f9acc4fe9769cba1ef", "lon": -77.0017175, "rental_uris": {"ios": "https://dc.lft.to/lastmile_qr_scan", "android": "https://dc.lft.to/lastmile_qr_scan"}}, {"name": "d5ced6ef91f1c16a0ea75b3c8f64ce28", "fusion_lat": 0.0, "type": "electric_scooter", "lat": 38.8757735, "is_reserved": 0, "is_disabled": 0, "fusion_lon": 0.0, "bike_id": "d5ced6ef91f1c16a0ea75b3c8f64ce28", "lon": -77.0105735, "rental_uris": {"ios": "https://dc.lft.to/lastmile_qr_scan", "android": "https://dc.lft.to/lastmile_qr_scan"}}, {"name": "ccba6d9825b0722cc332898834ecf94a", "fusion_lat": 0.0, "type": "electric_scooter", "lat": 38.92968183333333, "is_reserved": 0, "is_disabled": 0, "fusion_lon": 0.0, "bike_id": "ccba6d9825b0722cc332898834ecf94a", "lon": -77.04112716666667, "rental_uris": {"ios": "https://dc.lft.to/lastmile_qr_scan", "android": "https://dc.lft.to/lastmile_qr_scan"}}, {"name": "e3a2e49a8c7bbeccd0f890cea20bfdc6", "fusion_lat": 0.0, "type": "electric_scooter", "lat": 38.917677833333336, "is_reserved": 0, "is_disabled": 0, "fusion_lon": 0.0, "bike_id": "e3a2e49a8c7bbeccd0f890cea20bfdc6", "lon": -77.096737, "rental_uris": {"ios": "https://dc.lft.to/lastmile_qr_scan", "android": "https://dc.lft.to/lastmile_qr_scan"}}, {"name": "99bf508ac02f697ad7bf31b9c5626fb1", "fusion_lat": 0.0, "type": "electric_scooter", "lat": 38.932452166666664, "is_reserved": 0, "is_disabled": 0, "fusion_lon": 0.0, "bike_id": "99bf508ac02f697ad7bf31b9c5626fb1", "lon": -77.03851583333334, "rental_uris": {"ios": "https://dc.lft.to/lastmile_qr_scan", "android": "https://dc.lft.to/lastmile_qr_scan"}}, {"name": "77de1c5002e097f04d71285b78a62ead", "fusion_lat": 0.0, "type": "electric_scooter", "lat": 38.8954975, "is_reserved": 0, "is_disabled": 0, "fusion_lon": 0.0, "bike_id": "77de1c5002e097f04d71285b78a62ead", "lon": -76.94875833333333, "rental_uris": {"ios": "https://dc.lft.to/lastmile_qr_scan", "android": "https://dc.lft.to/lastmile_qr_scan"}}, {"name": "0a81023d6df352e4d3856b1fb20ee18b", "fusion_lat": 0.0, "type": "electric_scooter", "lat": 38.86658666666666, "is_reserved": 0, "is_disabled": 0, "fusion_lon": 0.0, "bike_id": "0a81023d6df352e4d3856b1fb20ee18b", "lon": -76.98884933333333, "rental_uris": {"ios": "https://dc.lft.to/lastmile_qr_scan", "android": "https://dc.lft.to/lastmile_qr_scan"}}, {"name": "570975284348aa022aefd5013a5671fa", "fusion_lat": 0.0, "type": "electric_scooter", "lat": 38.9073255, "is_reserved": 0, "is_disabled": 0, "fusion_lon": 0.0, "bike_id": "570975284348aa022aefd5013a5671fa", "lon": -77.01070366666667, "rental_uris": {"ios": "https://dc.lft.to/lastmile_qr_scan", "android": "https://dc.lft.to/lastmile_qr_scan"}}, {"name": "3d72b7fce5833c7f0e40b5167c1b086b", "fusion_lat": 0.0, "type": "electric_scooter", "lat": 38.885317, "is_reserved": 0, "is_disabled": 0, "fusion_lon": 0.0, "bike_id": "3d72b7fce5833c7f0e40b5167c1b086b", "lon": -76.98055066666667, "rental_uris": {"ios": "https://dc.lft.to/lastmile_qr_scan", "android": "https://dc.lft.to/lastmile_qr_scan"}}, {"name": "ccfdeaee9bd384b4bc4392484d00720a", "fusion_lat": 0.0, "type": "electric_scooter", "lat": 38.90148516666667, "is_reserved": 0, "is_disabled": 0, "fusion_lon": 0.0, "bike_id": "ccfdeaee9bd384b4bc4392484d00720a", "lon": -76.97424116666667, "rental_uris": {"ios": "https://dc.lft.to/lastmile_qr_scan", "android": "https://dc.lft.to/lastmile_qr_scan"}}, {"name": "66a368a4d16565af6079391fb83a4187", "fusion_lat": 0.0, "type": "electric_scooter", "lat": 38.90175266666667, "is_reserved": 0, "is_disabled": 0, "fusion_lon": 0.0, "bike_id": "66a368a4d16565af6079391fb83a4187", "lon": -77.02554533333333, "rental_uris": {"ios": "https://dc.lft.to/lastmile_qr_scan", "android": "https://dc.lft.to/lastmile_qr_scan"}}, {"name": "fc3ee4636b74673d6f8a6b88367a8036", "fusion_lat": 0.0, "type": "electric_scooter", "lat": 38.907693, "is_reserved": 0, "is_disabled": 0, "fusion_lon": 0.0, "bike_id": "fc3ee4636b74673d6f8a6b88367a8036", "lon": -77.03861366666666, "rental_uris": {"ios": "https://dc.lft.to/lastmile_qr_scan", "android": "https://dc.lft.to/lastmile_qr_scan"}}, {"name": "eb8867e2d8da94b9733ee3be542d84fb", "fusion_lat": 0.0, "type": "electric_scooter", "lat": 38.93738166666667, "is_reserved": 0, "is_disabled": 0, "fusion_lon": 0.0, "bike_id": "eb8867e2d8da94b9733ee3be542d84fb", "lon": -77.03272516666667, "rental_uris": {"ios": "https://dc.lft.to/lastmile_qr_scan", "android": "https://dc.lft.to/lastmile_qr_scan"}}, {"name": "170af25384a8408e5f1bf84ac0885cf4", "fusion_lat": 0.0, "type": "electric_scooter", "lat": 38.862503333333336, "is_reserved": 0, "is_disabled": 0, "fusion_lon": 0.0, "bike_id": "170af25384a8408e5f1bf84ac0885cf4", "lon": -76.99531416666667, "rental_uris": {"ios": "https://dc.lft.to/lastmile_qr_scan", "android": "https://dc.lft.to/lastmile_qr_scan"}}, {"name": "faed6b01c3784fa9b6df229c7bdf6403", "fusion_lat": 0.0, "type": "electric_scooter", "lat": 38.94253633333334, "is_reserved": 0, "is_disabled": 0, "fusion_lon": 0.0, "bike_id": "faed6b01c3784fa9b6df229c7bdf6403", "lon": -77.04132016666667, "rental_uris": {"ios": "https://dc.lft.to/lastmile_qr_scan", "android": "https://dc.lft.to/lastmile_qr_scan"}}, {"name": "0457462fc82daada1221f11b8f6f960f", "fusion_lat": 0.0, "type": "electric_scooter", "lat": 38.905231666666666, "is_reserved": 0, "is_disabled": 0, "fusion_lon": 0.0, "bike_id": "0457462fc82daada1221f11b8f6f960f", "lon": -77.05119666666667, "rental_uris": {"ios": "https://dc.lft.to/lastmile_qr_scan", "android": "https://dc.lft.to/lastmile_qr_scan"}}, {"name": "7c6ab68a9b62c561548206385f683998", "fusion_lat": 0.0, "type": "electric_scooter", "lat": 38.935229166666666, "is_reserved": 0, "is_disabled": 0, "fusion_lon": 0.0, "bike_id": "7c6ab68a9b62c561548206385f683998", "lon": -77.032631, "rental_uris": {"ios": "https://dc.lft.to/lastmile_qr_scan", "android": "https://dc.lft.to/lastmile_qr_scan"}}, {"name": "6c6df47b88da4d736c373e87a801af26", "fusion_lat": 0.0, "type": "electric_scooter", "lat": 38.96385433333333, "is_reserved": 0, "is_disabled": 0, "fusion_lon": 0.0, "bike_id": "6c6df47b88da4d736c373e87a801af26", "lon": -77.0350765, "rental_uris": {"ios": "https://dc.lft.to/lastmile_qr_scan", "android": "https://dc.lft.to/lastmile_qr_scan"}}, {"name": "98e22f0fcdd8c9d6e9d2761a46964643", "fusion_lat": 0.0, "type": "electric_bike", "lat": 38.96619, "is_reserved": 0, "is_disabled": 0, "fusion_lon": 0.0, "bike_id": "98e22f0fcdd8c9d6e9d2761a46964643", "lon": -76.94426966666667, "rental_uris": {"ios": "https://dc.lft.to/lastmile_qr_scan", "android": "https://dc.lft.to/lastmile_qr_scan"}}, {"name": "267e45498bc30601f36edd33c14e6b1a", "fusion_lat": 0.0, "type": "electric_bike", "lat": 39.02424166666667, "is_reserved": 0, "is_disabled": 0, "fusion_lon": 0.0, "bike_id": "267e45498bc30601f36edd33c14e6b1a", "lon": -77.125063, "rental_uris": {"ios": "https://dc.lft.to/lastmile_qr_scan", "android": "https://dc.lft.to/lastmile_qr_scan"}}, {"name": "2264acbcfdd094856dcdfca42e4f8772", "fusion_lat": 0.0, "type": "electric_scooter", "lat": 38.905258833333335, "is_reserved": 0, "is_disabled": 0, "fusion_lon": 0.0, "bike_id": "2264acbcfdd094856dcdfca42e4f8772", "lon": -77.06600466666667, "rental_uris": {"ios": "https://dc.lft.to/lastmile_qr_scan", "android": "https://dc.lft.to/lastmile_qr_scan"}}, {"name": "2443c7c6c140a36849f57dfaa5c64c3f", "fusion_lat": 0.0, "type": "electric_scooter", "lat": 38.900336833333334, "is_reserved": 0, "is_disabled": 0, "fusion_lon": 0.0, "bike_id": "2443c7c6c140a36849f57dfaa5c64c3f", "lon": -77.01186083333333, "rental_uris": {"ios": "https://dc.lft.to/lastmile_qr_scan", "android": "https://dc.lft.to/lastmile_qr_scan"}}, {"name": "839bfd01c24ddc8d39a4eb1f29881bc9", "fusion_lat": 0.0, "type": "electric_scooter", "lat": 38.9060845, "is_reserved": 0, "is_disabled": 0, "fusion_lon": 0.0, "bike_id": "839bfd01c24ddc8d39a4eb1f29881bc9", "lon": -77.056212, "rental_uris": {"ios": "https://dc.lft.to/lastmile_qr_scan", "android": "https://dc.lft.to/lastmile_qr_scan"}}, {"name": "023277a82114dac9873021ccab119ff1", "fusion_lat": 0.0, "type": "electric_scooter", "lat": 38.912305833333335, "is_reserved": 0, "is_disabled": 0, "fusion_lon": 0.0, "bike_id": "023277a82114dac9873021ccab119ff1", "lon": -77.05109883333333, "rental_uris": {"ios": "https://dc.lft.to/lastmile_qr_scan", "android": "https://dc.lft.to/lastmile_qr_scan"}}, {"name": "7da7b4983ef3f8c7d487b398573893a9", "fusion_lat": 0.0, "type": "electric_scooter", "lat": 38.876570666666666, "is_reserved": 0, "is_disabled": 0, "fusion_lon": 0.0, "bike_id": "7da7b4983ef3f8c7d487b398573893a9", "lon": -77.00801966666667, "rental_uris": {"ios": "https://dc.lft.to/lastmile_qr_scan", "android": "https://dc.lft.to/lastmile_qr_scan"}}, {"name": "7dce3f5d2de56177cfac73625b9a50fa", "fusion_lat": 0.0, "type": "electric_scooter", "lat": 38.89607016666667, "is_reserved": 0, "is_disabled": 0, "fusion_lon": 0.0, "bike_id": "7dce3f5d2de56177cfac73625b9a50fa", "lon": -77.0476885, "rental_uris": {"ios": "https://dc.lft.to/lastmile_qr_scan", "android": "https://dc.lft.to/lastmile_qr_scan"}}, {"name": "6fcba2b5b14df519b23e39381bb3375b", "fusion_lat": 0.0, "type": "electric_scooter", "lat": 38.91769383333333, "is_reserved": 0, "is_disabled": 0, "fusion_lon": 0.0, "bike_id": "6fcba2b5b14df519b23e39381bb3375b", "lon": -77.04056216666666, "rental_uris": {"ios": "https://dc.lft.to/lastmile_qr_scan", "android": "https://dc.lft.to/lastmile_qr_scan"}}, {"name": "bb06431f726bceafa6926e93b1fe830a", "fusion_lat": 0.0, "type": "electric_scooter", "lat": 38.9001715, "is_reserved": 0, "is_disabled": 0, "fusion_lon": 0.0, "bike_id": "bb06431f726bceafa6926e93b1fe830a", "lon": -77.04870066666666, "rental_uris": {"ios": "https://dc.lft.to/lastmile_qr_scan", "android": "https://dc.lft.to/lastmile_qr_scan"}}, {"name": "6f8caf704d730161650d995cf8a4c7d2", "fusion_lat": 0.0, "type": "electric_scooter", "lat": 38.90388883333333, "is_reserved": 0, "is_disabled": 0, "fusion_lon": 0.0, "bike_id": "6f8caf704d730161650d995cf8a4c7d2", "lon": -77.030043, "rental_uris": {"ios": "https://dc.lft.to/lastmile_qr_scan", "android": "https://dc.lft.to/lastmile_qr_scan"}}, {"name": "4b4705218dbc4f62f8ecf3d8a44734a4", "fusion_lat": 0.0, "type": "electric_scooter", "lat": 38.9270295, "is_reserved": 0, "is_disabled": 0, "fusion_lon": 0.0, "bike_id": "4b4705218dbc4f62f8ecf3d8a44734a4", "lon": -77.02072783333334, "rental_uris": {"ios": "https://dc.lft.to/lastmile_qr_scan", "android": "https://dc.lft.to/lastmile_qr_scan"}}, {"name": "edd7f07f3aa81106b7f2fc00d59e125d", "fusion_lat": 0.0, "type": "electric_scooter", "lat": 38.899714, "is_reserved": 0, "is_disabled": 0, "fusion_lon": 0.0, "bike_id": "edd7f07f3aa81106b7f2fc00d59e125d", "lon": -77.05703233333334, "rental_uris": {"ios": "https://dc.lft.to/lastmile_qr_scan", "android": "https://dc.lft.to/lastmile_qr_scan"}}, {"name": "e833e20e592aa34c89689b6d11448d69", "fusion_lat": 0.0, "type": "electric_scooter", "lat": 38.88748616666667, "is_reserved": 0, "is_disabled": 0, "fusion_lon": 0.0, "bike_id": "e833e20e592aa34c89689b6d11448d69", "lon": -77.023478, "rental_uris": {"ios": "https://dc.lft.to/lastmile_qr_scan", "android": "https://dc.lft.to/lastmile_qr_scan"}}, {"name": "d1634b47544b6f1115fcd26203a5723f", "fusion_lat": 0.0, "type": "electric_scooter", "lat": 38.90504, "is_reserved": 0, "is_disabled": 0, "fusion_lon": 0.0, "bike_id": "d1634b47544b6f1115fcd26203a5723f", "lon": -77.0408995, "rental_uris": {"ios": "https://dc.lft.to/lastmile_qr_scan", "android": "https://dc.lft.to/lastmile_qr_scan"}}, {"name": "deee2da41c82c78d625e049f76bb19b3", "fusion_lat": 0.0, "type": "electric_bike", "lat": 38.990914333333336, "is_reserved": 0, "is_disabled": 0, "fusion_lon": 0.0, "bike_id": "deee2da41c82c78d625e049f76bb19b3", "lon": -76.8749325, "rental_uris": {"ios": "https://dc.lft.to/lastmile_qr_scan", "android": "https://dc.lft.to/lastmile_qr_scan"}}, {"name": "5af1f748f39712d5d859a0a0ad009f29", "fusion_lat": 0.0, "type": "electric_bike", "lat": 38.828757333333336, "is_reserved": 0, "is_disabled": 0, "fusion_lon": 0.0, "bike_id": "5af1f748f39712d5d859a0a0ad009f29", "lon": -77.112153, "rental_uris": {"ios": "https://dc.lft.to/lastmile_qr_scan", "android": "https://dc.lft.to/lastmile_qr_scan"}}, {"name": "3846ea7a71d2ed14dbf99e79dced5059", "fusion_lat": 0.0, "type": "electric_scooter", "lat": 38.904435, "is_reserved": 0, "is_disabled": 0, "fusion_lon": 0.0, "bike_id": "3846ea7a71d2ed14dbf99e79dced5059", "lon": -77.034365, "rental_uris": {"ios": "https://dc.lft.to/lastmile_qr_scan", "android": "https://dc.lft.to/lastmile_qr_scan"}}, {"name": "07750f6dabe9c0532adc8dbfc223aeb3", "fusion_lat": 0.0, "type": "electric_scooter", "lat": 38.897396, "is_reserved": 0, "is_disabled": 0, "fusion_lon": 0.0, "bike_id": "07750f6dabe9c0532adc8dbfc223aeb3", "lon": -77.03132466666666, "rental_uris": {"ios": "https://dc.lft.to/lastmile_qr_scan", "android": "https://dc.lft.to/lastmile_qr_scan"}}, {"name": "82e9a0e4a770e7150544a125da88d09b", "fusion_lat": 0.0, "type": "electric_scooter", "lat": 38.897473833333336, "is_reserved": 0, "is_disabled": 0, "fusion_lon": 0.0, "bike_id": "82e9a0e4a770e7150544a125da88d09b", "lon": -77.02013233333334, "rental_uris": {"ios": "https://dc.lft.to/lastmile_qr_scan", "android": "https://dc.lft.to/lastmile_qr_scan"}}, {"name": "340480825ad7de9c89e4d6cddf6b7a42", "fusion_lat": 0.0, "type": "electric_scooter", "lat": 38.916058, "is_reserved": 0, "is_disabled": 0, "fusion_lon": 0.0, "bike_id": "340480825ad7de9c89e4d6cddf6b7a42", "lon": -77.03208683333334, "rental_uris": {"ios": "https://dc.lft.to/lastmile_qr_scan", "android": "https://dc.lft.to/lastmile_qr_scan"}}, {"name": "37bc8343d829674fd2ea19a592210acc", "fusion_lat": 0.0, "type": "electric_bike", "lat": 39.038815666666665, "is_reserved": 0, "is_disabled": 0, "fusion_lon": 0.0, "bike_id": "37bc8343d829674fd2ea19a592210acc", "lon": -76.9904115, "rental_uris": {"ios": "https://dc.lft.to/lastmile_qr_scan", "android": "https://dc.lft.to/lastmile_qr_scan"}}, {"name": "bf0617b53516b7dd0d5d557f66813c53", "fusion_lat": 0.0, "type": "electric_scooter", "lat": 38.91842716666667, "is_reserved": 0, "is_disabled": 0, "fusion_lon": 0.0, "bike_id": "bf0617b53516b7dd0d5d557f66813c53", "lon": -77.02313916666667, "rental_uris": {"ios": "https://dc.lft.to/lastmile_qr_scan", "android": "https://dc.lft.to/lastmile_qr_scan"}}, {"name": "9f6dbd582be6d8275dcdf77f9ed65700", "fusion_lat": 0.0, "type": "electric_scooter", "lat": 38.88503583333333, "is_reserved": 0, "is_disabled": 0, "fusion_lon": 0.0, "bike_id": "9f6dbd582be6d8275dcdf77f9ed65700", "lon": -77.022001, "rental_uris": {"ios": "https://dc.lft.to/lastmile_qr_scan", "android": "https://dc.lft.to/lastmile_qr_scan"}}, {"name": "976fb84ebd925c6d7bb807f43320d29a", "fusion_lat": 0.0, "type": "electric_bike", "lat": 38.949232333333335, "is_reserved": 0, "is_disabled": 0, "fusion_lon": 0.0, "bike_id": "976fb84ebd925c6d7bb807f43320d29a", "lon": -77.00798416666666, "rental_uris": {"ios": "https://dc.lft.to/lastmile_qr_scan", "android": "https://dc.lft.to/lastmile_qr_scan"}}, {"name": "11358b3b5c45e693f75595175cfc2766", "fusion_lat": 0.0, "type": "electric_scooter", "lat": 38.903801666666666, "is_reserved": 0, "is_disabled": 0, "fusion_lon": 0.0, "bike_id": "11358b3b5c45e693f75595175cfc2766", "lon": -77.03420716666666, "rental_uris": {"ios": "https://dc.lft.to/lastmile_qr_scan", "android": "https://dc.lft.to/lastmile_qr_scan"}}, {"name": "d605b238b49ded04bd196c2bfe06c484", "fusion_lat": 0.0, "type": "electric_scooter", "lat": 38.920747666666664, "is_reserved": 0, "is_disabled": 0, "fusion_lon": 0.0, "bike_id": "d605b238b49ded04bd196c2bfe06c484", "lon": -77.02314566666666, "rental_uris": {"ios": "https://dc.lft.to/lastmile_qr_scan", "android": "https://dc.lft.to/lastmile_qr_scan"}}, {"name": "1ac4738e1c17c62a547e94b5cc0139ab", "fusion_lat": 0.0, "type": "electric_scooter", "lat": 38.939607333333335, "is_reserved": 0, "is_disabled": 0, "fusion_lon": 0.0, "bike_id": "1ac4738e1c17c62a547e94b5cc0139ab", "lon": -77.0275115, "rental_uris": {"ios": "https://dc.lft.to/lastmile_qr_scan", "android": "https://dc.lft.to/lastmile_qr_scan"}}, {"name": "3edcc45aa7b8ff789e922fe31346cf58", "fusion_lat": 0.0, "type": "electric_scooter", "lat": 38.8923495, "is_reserved": 0, "is_disabled": 0, "fusion_lon": 0.0, "bike_id": "3edcc45aa7b8ff789e922fe31346cf58", "lon": -77.01507816666667, "rental_uris": {"ios": "https://dc.lft.to/lastmile_qr_scan", "android": "https://dc.lft.to/lastmile_qr_scan"}}, {"name": "3878d73eab690e2448cedf2f03d053ea", "fusion_lat": 0.0, "type": "electric_bike", "lat": 38.85687083333333, "is_reserved": 0, "is_disabled": 0, "fusion_lon": 0.0, "bike_id": "3878d73eab690e2448cedf2f03d053ea", "lon": -77.08536266666667, "rental_uris": {"ios": "https://dc.lft.to/lastmile_qr_scan", "android": "https://dc.lft.to/lastmile_qr_scan"}}, {"name": "e87e65c8068edb7e4b655715132855bc", "fusion_lat": 0.0, "type": "electric_scooter", "lat": 38.91636233333333, "is_reserved": 0, "is_disabled": 0, "fusion_lon": 0.0, "bike_id": "e87e65c8068edb7e4b655715132855bc", "lon": -77.000992, "rental_uris": {"ios": "https://dc.lft.to/lastmile_qr_scan", "android": "https://dc.lft.to/lastmile_qr_scan"}}, {"name": "f8d7d0f90748601928e9276e5ce4d4dd", "fusion_lat": 0.0, "type": "electric_scooter", "lat": 38.92431933333334, "is_reserved": 0, "is_disabled": 0, "fusion_lon": 0.0, "bike_id": "f8d7d0f90748601928e9276e5ce4d4dd", "lon": -77.04474583333334, "rental_uris": {"ios": "https://dc.lft.to/lastmile_qr_scan", "android": "https://dc.lft.to/lastmile_qr_scan"}}, {"name": "ab38ae24e2418674bff45ca791a07d18", "fusion_lat": 0.0, "type": "electric_bike", "lat": 39.000158, "is_reserved": 0, "is_disabled": 0, "fusion_lon": 0.0, "bike_id": "ab38ae24e2418674bff45ca791a07d18", "lon": -77.01743383333333, "rental_uris": {"ios": "https://dc.lft.to/lastmile_qr_scan", "android": "https://dc.lft.to/lastmile_qr_scan"}}, {"name": "2cb75740016fbfa373d8015efbef028d", "fusion_lat": 0.0, "type": "electric_scooter", "lat": 38.93064833333333, "is_reserved": 0, "is_disabled": 0, "fusion_lon": 0.0, "bike_id": "2cb75740016fbfa373d8015efbef028d", "lon": -77.02980416666666, "rental_uris": {"ios": "https://dc.lft.to/lastmile_qr_scan", "android": "https://dc.lft.to/lastmile_qr_scan"}}, {"name": "a1a2e111668fcfb8e1784c8475fe5300", "fusion_lat": 0.0, "type": "electric_bike", "lat": 38.81253316666667, "is_reserved": 0, "is_disabled": 0, "fusion_lon": 0.0, "bike_id": "a1a2e111668fcfb8e1784c8475fe5300", "lon": -77.11772333333333, "rental_uris": {"ios": "https://dc.lft.to/lastmile_qr_scan", "android": "https://dc.lft.to/lastmile_qr_scan"}}, {"name": "0d48abf20a64a5b8f76c9f538135d649", "fusion_lat": 0.0, "type": "electric_scooter", "lat": 38.91332116666667, "is_reserved": 0, "is_disabled": 0, "fusion_lon": 0.0, "bike_id": "0d48abf20a64a5b8f76c9f538135d649", "lon": -77.04869266666667, "rental_uris": {"ios": "https://dc.lft.to/lastmile_qr_scan", "android": "https://dc.lft.to/lastmile_qr_scan"}}, {"name": "58f9ad2b67e8bc555c8ba87916d289cd", "fusion_lat": 0.0, "type": "electric_scooter", "lat": 38.8922315, "is_reserved": 0, "is_disabled": 0, "fusion_lon": 0.0, "bike_id": "58f9ad2b67e8bc555c8ba87916d289cd", "lon": -77.03338716666667, "rental_uris": {"ios": "https://dc.lft.to/lastmile_qr_scan", "android": "https://dc.lft.to/lastmile_qr_scan"}}, {"name": "727c89123827a8acdb2b2fc4895a1023", "fusion_lat": 0.0, "type": "electric_scooter", "lat": 38.907519666666666, "is_reserved": 0, "is_disabled": 0, "fusion_lon": 0.0, "bike_id": "727c89123827a8acdb2b2fc4895a1023", "lon": -77.03440733333333, "rental_uris": {"ios": "https://dc.lft.to/lastmile_qr_scan", "android": "https://dc.lft.to/lastmile_qr_scan"}}, {"name": "c00156a662eff9e6275025e35b4725e7", "fusion_lat": 0.0, "type": "electric_scooter", "lat": 38.926260666666664, "is_reserved": 0, "is_disabled": 0, "fusion_lon": 0.0, "bike_id": "c00156a662eff9e6275025e35b4725e7", "lon": -77.03782033333333, "rental_uris": {"ios": "https://dc.lft.to/lastmile_qr_scan", "android": "https://dc.lft.to/lastmile_qr_scan"}}, {"name": "48d00f234a555293baacc6eedfff7aa2", "fusion_lat": 0.0, "type": "electric_scooter", "lat": 38.911953, "is_reserved": 0, "is_disabled": 0, "fusion_lon": 0.0, "bike_id": "48d00f234a555293baacc6eedfff7aa2", "lon": -77.04537933333333, "rental_uris": {"ios": "https://dc.lft.to/lastmile_qr_scan", "android": "https://dc.lft.to/lastmile_qr_scan"}}, {"name": "05fb5c04b74fdf6a30818297cc5e9692", "fusion_lat": 0.0, "type": "electric_scooter", "lat": 38.9014335, "is_reserved": 0, "is_disabled": 0, "fusion_lon": 0.0, "bike_id": "05fb5c04b74fdf6a30818297cc5e9692", "lon": -77.04634216666666, "rental_uris": {"ios": "https://dc.lft.to/lastmile_qr_scan", "android": "https://dc.lft.to/lastmile_qr_scan"}}, {"name": "d574011f3ba453524c09ab73b3146cfe", "fusion_lat": 0.0, "type": "electric_bike", "lat": 38.97090733333334, "is_reserved": 0, "is_disabled": 0, "fusion_lon": 0.0, "bike_id": "d574011f3ba453524c09ab73b3146cfe", "lon": -77.06966933333334, "rental_uris": {"ios": "https://dc.lft.to/lastmile_qr_scan", "android": "https://dc.lft.to/lastmile_qr_scan"}}, {"name": "11d4f47bca52227d0681b9712facdba5", "fusion_lat": 0.0, "type": "electric_scooter", "lat": 38.876655166666666, "is_reserved": 0, "is_disabled": 0, "fusion_lon": 0.0, "bike_id": "11d4f47bca52227d0681b9712facdba5", "lon": -77.00431766666667, "rental_uris": {"ios": "https://dc.lft.to/lastmile_qr_scan", "android": "https://dc.lft.to/lastmile_qr_scan"}}, {"name": "c969f674bbabb1953fec5f57760557a3", "fusion_lat": 0.0, "type": "electric_bike", "lat": 38.863765, "is_reserved": 0, "is_disabled": 0, "fusion_lon": 0.0, "bike_id": "c969f674bbabb1953fec5f57760557a3", "lon": -77.12899216666666, "rental_uris": {"ios": "https://dc.lft.to/lastmile_qr_scan", "android": "https://dc.lft.to/lastmile_qr_scan"}}, {"name": "ac1050240d49e8eb17ab22d079c40071", "fusion_lat": 0.0, "type": "electric_scooter", "lat": 38.89249483333333, "is_reserved": 0, "is_disabled": 0, "fusion_lon": 0.0, "bike_id": "ac1050240d49e8eb17ab22d079c40071", "lon": -77.015071, "rental_uris": {"ios": "https://dc.lft.to/lastmile_qr_scan", "android": "https://dc.lft.to/lastmile_qr_scan"}}, {"name": "ce4a005b66e31cd1487155efc59db6d5", "fusion_lat": 0.0, "type": "electric_scooter", "lat": 38.905650666666666, "is_reserved": 0, "is_disabled": 0, "fusion_lon": 0.0, "bike_id": "ce4a005b66e31cd1487155efc59db6d5", "lon": -77.0053615, "rental_uris": {"ios": "https://dc.lft.to/lastmile_qr_scan", "android": "https://dc.lft.to/lastmile_qr_scan"}}, {"name": "019ebaf2344e3c45019f3332a3db033e", "fusion_lat": 0.0, "type": "electric_scooter", "lat": 38.908768333333335, "is_reserved": 0, "is_disabled": 0, "fusion_lon": 0.0, "bike_id": "019ebaf2344e3c45019f3332a3db033e", "lon": -76.9980245, "rental_uris": {"ios": "https://dc.lft.to/lastmile_qr_scan", "android": "https://dc.lft.to/lastmile_qr_scan"}}, {"name": "0a95199d8a4d18794c0c3b33d4404bdd", "fusion_lat": 0.0, "type": "electric_scooter", "lat": 38.920142, "is_reserved": 0, "is_disabled": 0, "fusion_lon": 0.0, "bike_id": "0a95199d8a4d18794c0c3b33d4404bdd", "lon": -77.03120383333334, "rental_uris": {"ios": "https://dc.lft.to/lastmile_qr_scan", "android": "https://dc.lft.to/lastmile_qr_scan"}}, {"name": "5c44106e5f2d1670ba4e0df524a807f9", "fusion_lat": 0.0, "type": "electric_scooter", "lat": 38.895881, "is_reserved": 0, "is_disabled": 0, "fusion_lon": 0.0, "bike_id": "5c44106e5f2d1670ba4e0df524a807f9", "lon": -77.04264083333334, "rental_uris": {"ios": "https://dc.lft.to/lastmile_qr_scan", "android": "https://dc.lft.to/lastmile_qr_scan"}}, {"name": "d87ccea4f28f697ed3520d748916b0bf", "fusion_lat": 0.0, "type": "electric_scooter", "lat": 38.902699166666665, "is_reserved": 0, "is_disabled": 0, "fusion_lon": 0.0, "bike_id": "d87ccea4f28f697ed3520d748916b0bf", "lon": -77.05384083333334, "rental_uris": {"ios": "https://dc.lft.to/lastmile_qr_scan", "android": "https://dc.lft.to/lastmile_qr_scan"}}, {"name": "517195ad35943cc3e993c111697422e8", "fusion_lat": 0.0, "type": "electric_scooter", "lat": 38.83231583333333, "is_reserved": 0, "is_disabled": 0, "fusion_lon": 0.0, "bike_id": "517195ad35943cc3e993c111697422e8", "lon": -76.98888833333334, "rental_uris": {"ios": "https://dc.lft.to/lastmile_qr_scan", "android": "https://dc.lft.to/lastmile_qr_scan"}}, {"name": "a5ad49f1bcf7f882ea09eca72f1e3f45", "fusion_lat": 0.0, "type": "electric_scooter", "lat": 38.9054705, "is_reserved": 0, "is_disabled": 0, "fusion_lon": 0.0, "bike_id": "a5ad49f1bcf7f882ea09eca72f1e3f45", "lon": -77.047485, "rental_uris": {"ios": "https://dc.lft.to/lastmile_qr_scan", "android": "https://dc.lft.to/lastmile_qr_scan"}}, {"name": "b1d9bf12bda37f6ac298b10bac6f4205", "fusion_lat": 0.0, "type": "electric_scooter", "lat": 38.90271166666667, "is_reserved": 0, "is_disabled": 0, "fusion_lon": 0.0, "bike_id": "b1d9bf12bda37f6ac298b10bac6f4205", "lon": -77.04455783333333, "rental_uris": {"ios": "https://dc.lft.to/lastmile_qr_scan", "android": "https://dc.lft.to/lastmile_qr_scan"}}, {"name": "273b95be98b8de89129f1bfabbebefab", "fusion_lat": 0.0, "type": "electric_bike", "lat": 38.843480166666666, "is_reserved": 0, "is_disabled": 0, "fusion_lon": 0.0, "bike_id": "273b95be98b8de89129f1bfabbebefab", "lon": -77.06401983333333, "rental_uris": {"ios": "https://dc.lft.to/lastmile_qr_scan", "android": "https://dc.lft.to/lastmile_qr_scan"}}, {"name": "bbce4e1795a9280aef3b32221b64f4f2", "fusion_lat": 0.0, "type": "electric_scooter", "lat": 38.9275655, "is_reserved": 0, "is_disabled": 0, "fusion_lon": 0.0, "bike_id": "bbce4e1795a9280aef3b32221b64f4f2", "lon": -77.024194, "rental_uris": {"ios": "https://dc.lft.to/lastmile_qr_scan", "android": "https://dc.lft.to/lastmile_qr_scan"}}, {"name": "794a400116994ecfd836c732fdd3af41", "fusion_lat": 0.0, "type": "electric_scooter", "lat": 38.917115, "is_reserved": 0, "is_disabled": 0, "fusion_lon": 0.0, "bike_id": "794a400116994ecfd836c732fdd3af41", "lon": -77.03864866666666, "rental_uris": {"ios": "https://dc.lft.to/lastmile_qr_scan", "android": "https://dc.lft.to/lastmile_qr_scan"}}, {"name": "cd15e127f172a6d2e6fd0c494523870b", "fusion_lat": 0.0, "type": "electric_scooter", "lat": 38.895249666666665, "is_reserved": 0, "is_disabled": 0, "fusion_lon": 0.0, "bike_id": "cd15e127f172a6d2e6fd0c494523870b", "lon": -76.949249, "rental_uris": {"ios": "https://dc.lft.to/lastmile_qr_scan", "android": "https://dc.lft.to/lastmile_qr_scan"}}, {"name": "333629ba817ed8cdd17f9efaf45d7d40", "fusion_lat": 0.0, "type": "electric_bike", "lat": 38.886642, "is_reserved": 0, "is_disabled": 0, "fusion_lon": 0.0, "bike_id": "333629ba817ed8cdd17f9efaf45d7d40", "lon": -77.16231483333334, "rental_uris": {"ios": "https://dc.lft.to/lastmile_qr_scan", "android": "https://dc.lft.to/lastmile_qr_scan"}}, {"name": "cb7718cd2a87e9305e130357c8104577", "fusion_lat": 0.0, "type": "electric_scooter", "lat": 38.921535666666664, "is_reserved": 0, "is_disabled": 0, "fusion_lon": 0.0, "bike_id": "cb7718cd2a87e9305e130357c8104577", "lon": -77.0434405, "rental_uris": {"ios": "https://dc.lft.to/lastmile_qr_scan", "android": "https://dc.lft.to/lastmile_qr_scan"}}, {"name": "de2f688e2ca1d96b4e38a94921616c4b", "fusion_lat": 0.0, "type": "electric_scooter", "lat": 38.87649433333333, "is_reserved": 0, "is_disabled": 0, "fusion_lon": 0.0, "bike_id": "de2f688e2ca1d96b4e38a94921616c4b", "lon": -76.965081, "rental_uris": {"ios": "https://dc.lft.to/lastmile_qr_scan", "android": "https://dc.lft.to/lastmile_qr_scan"}}, {"name": "33d066bf9fb7262624026a9e40aa494a", "fusion_lat": 0.0, "type": "electric_scooter", "lat": 38.89737566666667, "is_reserved": 0, "is_disabled": 0, "fusion_lon": 0.0, "bike_id": "33d066bf9fb7262624026a9e40aa494a", "lon": -77.0464395, "rental_uris": {"ios": "https://dc.lft.to/lastmile_qr_scan", "android": "https://dc.lft.to/lastmile_qr_scan"}}, {"name": "8e17eb9bc3370ea648f7ee1b3cd7a6e1", "fusion_lat": 0.0, "type": "electric_scooter", "lat": 38.896156166666664, "is_reserved": 0, "is_disabled": 0, "fusion_lon": 0.0, "bike_id": "8e17eb9bc3370ea648f7ee1b3cd7a6e1", "lon": -77.023793, "rental_uris": {"ios": "https://dc.lft.to/lastmile_qr_scan", "android": "https://dc.lft.to/lastmile_qr_scan"}}, {"name": "057f21b9a8b0bfc74918108d8d305306", "fusion_lat": 0.0, "type": "electric_scooter", "lat": 38.90576883333333, "is_reserved": 0, "is_disabled": 0, "fusion_lon": 0.0, "bike_id": "057f21b9a8b0bfc74918108d8d305306", "lon": -77.01424233333333, "rental_uris": {"ios": "https://dc.lft.to/lastmile_qr_scan", "android": "https://dc.lft.to/lastmile_qr_scan"}}, {"name": "b0318b574bc67b63b56c9b8a2401dca6", "fusion_lat": 0.0, "type": "electric_bike", "lat": 39.10565583333333, "is_reserved": 0, "is_disabled": 0, "fusion_lon": 0.0, "bike_id": "b0318b574bc67b63b56c9b8a2401dca6", "lon": -77.15268083333333, "rental_uris": {"ios": "https://dc.lft.to/lastmile_qr_scan", "android": "https://dc.lft.to/lastmile_qr_scan"}}, {"name": "2564512962cdefa3cb8703158c59e4b9", "fusion_lat": 0.0, "type": "electric_scooter", "lat": 38.89604833333333, "is_reserved": 0, "is_disabled": 0, "fusion_lon": 0.0, "bike_id": "2564512962cdefa3cb8703158c59e4b9", "lon": -77.04117183333334, "rental_uris": {"ios": "https://dc.lft.to/lastmile_qr_scan", "android": "https://dc.lft.to/lastmile_qr_scan"}}, {"name": "19d920347fe1858a3c766e57959479f8", "fusion_lat": 0.0, "type": "electric_scooter", "lat": 38.88990666666667, "is_reserved": 0, "is_disabled": 0, "fusion_lon": 0.0, "bike_id": "19d920347fe1858a3c766e57959479f8", "lon": -77.00117566666667, "rental_uris": {"ios": "https://dc.lft.to/lastmile_qr_scan", "android": "https://dc.lft.to/lastmile_qr_scan"}}, {"name": "6f7aa525c73dfbdbe117e177b9ab91a3", "fusion_lat": 0.0, "type": "electric_bike", "lat": 38.87081933333333, "is_reserved": 0, "is_disabled": 0, "fusion_lon": 0.0, "bike_id": "6f7aa525c73dfbdbe117e177b9ab91a3", "lon": -77.11040983333334, "rental_uris": {"ios": "https://dc.lft.to/lastmile_qr_scan", "android": "https://dc.lft.to/lastmile_qr_scan"}}, {"name": "9effbae3484093632fdd128002257f82", "fusion_lat": 0.0, "type": "electric_scooter", "lat": 38.94836383333333, "is_reserved": 0, "is_disabled": 0, "fusion_lon": 0.0, "bike_id": "9effbae3484093632fdd128002257f82", "lon": -77.02550483333333, "rental_uris": {"ios": "https://dc.lft.to/lastmile_qr_scan", "android": "https://dc.lft.to/lastmile_qr_scan"}}, {"name": "c958848f12649f0c49bc15ba6d811b76", "fusion_lat": 0.0, "type": "electric_scooter", "lat": 38.902665, "is_reserved": 0, "is_disabled": 0, "fusion_lon": 0.0, "bike_id": "c958848f12649f0c49bc15ba6d811b76", "lon": -77.038523, "rental_uris": {"ios": "https://dc.lft.to/lastmile_qr_scan", "android": "https://dc.lft.to/lastmile_qr_scan"}}, {"name": "c3ad47a065f47873a4e6f5d51fd30fda", "fusion_lat": 0.0, "type": "electric_scooter", "lat": 38.9003745, "is_reserved": 0, "is_disabled": 0, "fusion_lon": 0.0, "bike_id": "c3ad47a065f47873a4e6f5d51fd30fda", "lon": -77.01186783333333, "rental_uris": {"ios": "https://dc.lft.to/lastmile_qr_scan", "android": "https://dc.lft.to/lastmile_qr_scan"}}, {"name": "09d5aa5a3e6ab2aeafe8b0dcd350cb9e", "fusion_lat": 0.0, "type": "electric_scooter", "lat": 38.915642, "is_reserved": 0, "is_disabled": 0, "fusion_lon": 0.0, "bike_id": "09d5aa5a3e6ab2aeafe8b0dcd350cb9e", "lon": -77.03236416666667, "rental_uris": {"ios": "https://dc.lft.to/lastmile_qr_scan", "android": "https://dc.lft.to/lastmile_qr_scan"}}, {"name": "a570e503a02513fdd6c808c23e6b6beb", "fusion_lat": 0.0, "type": "electric_scooter", "lat": 38.8775225, "is_reserved": 0, "is_disabled": 0, "fusion_lon": 0.0, "bike_id": "a570e503a02513fdd6c808c23e6b6beb", "lon": -76.9723835, "rental_uris": {"ios": "https://dc.lft.to/lastmile_qr_scan", "android": "https://dc.lft.to/lastmile_qr_scan"}}, {"name": "ab9547df7036f0594be08f82b8fe880c", "fusion_lat": 0.0, "type": "electric_bike", "lat": 38.87859133333333, "is_reserved": 0, "is_disabled": 0, "fusion_lon": 0.0, "bike_id": "ab9547df7036f0594be08f82b8fe880c", "lon": -77.00783566666667, "rental_uris": {"ios": "https://dc.lft.to/lastmile_qr_scan", "android": "https://dc.lft.to/lastmile_qr_scan"}}, {"name": "d07d5a9a0845d0fd2729829abb60013d", "fusion_lat": 0.0, "type": "electric_scooter", "lat": 38.89842016666667, "is_reserved": 0, "is_disabled": 0, "fusion_lon": 0.0, "bike_id": "d07d5a9a0845d0fd2729829abb60013d", "lon": -77.03955683333334, "rental_uris": {"ios": "https://dc.lft.to/lastmile_qr_scan", "android": "https://dc.lft.to/lastmile_qr_scan"}}, {"name": "a6141291ed7e9a1d86b21771477d297f", "fusion_lat": 0.0, "type": "electric_scooter", "lat": 38.9176725, "is_reserved": 0, "is_disabled": 0, "fusion_lon": 0.0, "bike_id": "a6141291ed7e9a1d86b21771477d297f", "lon": -77.01757766666667, "rental_uris": {"ios": "https://dc.lft.to/lastmile_qr_scan", "android": "https://dc.lft.to/lastmile_qr_scan"}}, {"name": "85e016b00221166adc8a6757bcb8baf2", "fusion_lat": 0.0, "type": "electric_scooter", "lat": 38.92218183333333, "is_reserved": 0, "is_disabled": 0, "fusion_lon": 0.0, "bike_id": "85e016b00221166adc8a6757bcb8baf2", "lon": -77.04234766666667, "rental_uris": {"ios": "https://dc.lft.to/lastmile_qr_scan", "android": "https://dc.lft.to/lastmile_qr_scan"}}, {"name": "8deed10394d8caa060e3ec4b2264f7ab", "fusion_lat": 0.0, "type": "electric_scooter", "lat": 38.88316983333333, "is_reserved": 0, "is_disabled": 0, "fusion_lon": 0.0, "bike_id": "8deed10394d8caa060e3ec4b2264f7ab", "lon": -77.01641566666666, "rental_uris": {"ios": "https://dc.lft.to/lastmile_qr_scan", "android": "https://dc.lft.to/lastmile_qr_scan"}}, {"name": "bddfef6f84387f613db2fab0f2baaac4", "fusion_lat": 0.0, "type": "electric_scooter", "lat": 38.898577333333336, "is_reserved": 0, "is_disabled": 0, "fusion_lon": 0.0, "bike_id": "bddfef6f84387f613db2fab0f2baaac4", "lon": -76.97669166666667, "rental_uris": {"ios": "https://dc.lft.to/lastmile_qr_scan", "android": "https://dc.lft.to/lastmile_qr_scan"}}, {"name": "44ff41ff1bb91f7c19082af0727e603a", "fusion_lat": 0.0, "type": "electric_scooter", "lat": 38.906563, "is_reserved": 0, "is_disabled": 0, "fusion_lon": 0.0, "bike_id": "44ff41ff1bb91f7c19082af0727e603a", "lon": -77.0381835, "rental_uris": {"ios": "https://dc.lft.to/lastmile_qr_scan", "android": "https://dc.lft.to/lastmile_qr_scan"}}, {"name": "de229d5e4722b7796f3ee041964063cd", "fusion_lat": 0.0, "type": "electric_scooter", "lat": 38.8463925, "is_reserved": 0, "is_disabled": 0, "fusion_lon": 0.0, "bike_id": "de229d5e4722b7796f3ee041964063cd", "lon": -76.9844035, "rental_uris": {"ios": "https://dc.lft.to/lastmile_qr_scan", "android": "https://dc.lft.to/lastmile_qr_scan"}}, {"name": "30640a291f04ddf33ec1a7e741c8e4ae", "fusion_lat": 0.0, "type": "electric_scooter", "lat": 38.8850795, "is_reserved": 0, "is_disabled": 0, "fusion_lon": 0.0, "bike_id": "30640a291f04ddf33ec1a7e741c8e4ae", "lon": -77.01575316666667, "rental_uris": {"ios": "https://dc.lft.to/lastmile_qr_scan", "android": "https://dc.lft.to/lastmile_qr_scan"}}, {"name": "14308e29a5a6df14a65ed6e40976a07e", "fusion_lat": 0.0, "type": "electric_scooter", "lat": 38.84687916666667, "is_reserved": 0, "is_disabled": 0, "fusion_lon": 0.0, "bike_id": "14308e29a5a6df14a65ed6e40976a07e", "lon": -76.99199733333333, "rental_uris": {"ios": "https://dc.lft.to/lastmile_qr_scan", "android": "https://dc.lft.to/lastmile_qr_scan"}}, {"name": "7fc8c31aab9d99bd94712c63620d1f2b", "fusion_lat": 0.0, "type": "electric_bike", "lat": 38.9906585, "is_reserved": 0, "is_disabled": 0, "fusion_lon": 0.0, "bike_id": "7fc8c31aab9d99bd94712c63620d1f2b", "lon": -77.10028433333333, "rental_uris": {"ios": "https://dc.lft.to/lastmile_qr_scan", "android": "https://dc.lft.to/lastmile_qr_scan"}}, {"name": "a29a5b402a76e7d1f17b6321b31ff842", "fusion_lat": 0.0, "type": "electric_scooter", "lat": 38.90592383333333, "is_reserved": 0, "is_disabled": 0, "fusion_lon": 0.0, "bike_id": "a29a5b402a76e7d1f17b6321b31ff842", "lon": -77.01611066666666, "rental_uris": {"ios": "https://dc.lft.to/lastmile_qr_scan", "android": "https://dc.lft.to/lastmile_qr_scan"}}, {"name": "6875e319ff6ce86f7023d2b99362b946", "fusion_lat": 0.0, "type": "electric_scooter", "lat": 38.858048333333336, "is_reserved": 0, "is_disabled": 0, "fusion_lon": 0.0, "bike_id": "6875e319ff6ce86f7023d2b99362b946", "lon": -76.98654166666667, "rental_uris": {"ios": "https://dc.lft.to/lastmile_qr_scan", "android": "https://dc.lft.to/lastmile_qr_scan"}}, {"name": "3d7a7d4353c0249d40a1c4949ebab68c", "fusion_lat": 0.0, "type": "electric_scooter", "lat": 38.9326845, "is_reserved": 0, "is_disabled": 0, "fusion_lon": 0.0, "bike_id": "3d7a7d4353c0249d40a1c4949ebab68c", "lon": -77.038969, "rental_uris": {"ios": "https://dc.lft.to/lastmile_qr_scan", "android": "https://dc.lft.to/lastmile_qr_scan"}}, {"name": "d4937b74e0c0d63c45d7641d8d9c780e", "fusion_lat": 0.0, "type": "electric_scooter", "lat": 38.93827816666666, "is_reserved": 0, "is_disabled": 0, "fusion_lon": 0.0, "bike_id": "d4937b74e0c0d63c45d7641d8d9c780e", "lon": -77.024761, "rental_uris": {"ios": "https://dc.lft.to/lastmile_qr_scan", "android": "https://dc.lft.to/lastmile_qr_scan"}}, {"name": "d018348e8658eed718479a8b9d84b14a", "fusion_lat": 0.0, "type": "electric_scooter", "lat": 38.90131866666667, "is_reserved": 0, "is_disabled": 0, "fusion_lon": 0.0, "bike_id": "d018348e8658eed718479a8b9d84b14a", "lon": -77.05000683333333, "rental_uris": {"ios": "https://dc.lft.to/lastmile_qr_scan", "android": "https://dc.lft.to/lastmile_qr_scan"}}, {"name": "21f35bb4cc9a64ad3cbafb65056da33f", "fusion_lat": 0.0, "type": "electric_scooter", "lat": 38.90278516666667, "is_reserved": 0, "is_disabled": 0, "fusion_lon": 0.0, "bike_id": "21f35bb4cc9a64ad3cbafb65056da33f", "lon": -77.04358083333334, "rental_uris": {"ios": "https://dc.lft.to/lastmile_qr_scan", "android": "https://dc.lft.to/lastmile_qr_scan"}}, {"name": "e15caeab77138642964379d4678dcf26", "fusion_lat": 0.0, "type": "electric_scooter", "lat": 38.894813, "is_reserved": 0, "is_disabled": 0, "fusion_lon": 0.0, "bike_id": "e15caeab77138642964379d4678dcf26", "lon": -77.0258195, "rental_uris": {"ios": "https://dc.lft.to/lastmile_qr_scan", "android": "https://dc.lft.to/lastmile_qr_scan"}}, {"name": "c194315f8b95b3be68a18a325ddadc28", "fusion_lat": 0.0, "type": "electric_scooter", "lat": 38.85722366666667, "is_reserved": 0, "is_disabled": 0, "fusion_lon": 0.0, "bike_id": "c194315f8b95b3be68a18a325ddadc28", "lon": -76.98085883333333, "rental_uris": {"ios": "https://dc.lft.to/lastmile_qr_scan", "android": "https://dc.lft.to/lastmile_qr_scan"}}, {"name": "5c6bfb680201ec836a80fde3970ddb0d", "fusion_lat": 0.0, "type": "electric_scooter", "lat": 38.875748, "is_reserved": 0, "is_disabled": 0, "fusion_lon": 0.0, "bike_id": "5c6bfb680201ec836a80fde3970ddb0d", "lon": -77.00590716666666, "rental_uris": {"ios": "https://dc.lft.to/lastmile_qr_scan", "android": "https://dc.lft.to/lastmile_qr_scan"}}, {"name": "1c7051de51c2567c3e2192eac4e6fc44", "fusion_lat": 0.0, "type": "electric_scooter", "lat": 38.91638566666666, "is_reserved": 0, "is_disabled": 0, "fusion_lon": 0.0, "bike_id": "1c7051de51c2567c3e2192eac4e6fc44", "lon": -77.022452, "rental_uris": {"ios": "https://dc.lft.to/lastmile_qr_scan", "android": "https://dc.lft.to/lastmile_qr_scan"}}, {"name": "645688abbb20d7ec9091119bcc3b7556", "fusion_lat": 0.0, "type": "electric_scooter", "lat": 38.917102, "is_reserved": 0, "is_disabled": 0, "fusion_lon": 0.0, "bike_id": "645688abbb20d7ec9091119bcc3b7556", "lon": -77.0386485, "rental_uris": {"ios": "https://dc.lft.to/lastmile_qr_scan", "android": "https://dc.lft.to/lastmile_qr_scan"}}, {"name": "03f21ef1b566bba4084fa7af0222984d", "fusion_lat": 0.0, "type": "electric_scooter", "lat": 38.928651333333335, "is_reserved": 0, "is_disabled": 0, "fusion_lon": 0.0, "bike_id": "03f21ef1b566bba4084fa7af0222984d", "lon": -77.01374866666667, "rental_uris": {"ios": "https://dc.lft.to/lastmile_qr_scan", "android": "https://dc.lft.to/lastmile_qr_scan"}}, {"name": "6384f266797289fe1a9b18f2e70cdd00", "fusion_lat": 0.0, "type": "electric_scooter", "lat": 38.88396483333333, "is_reserved": 0, "is_disabled": 0, "fusion_lon": 0.0, "bike_id": "6384f266797289fe1a9b18f2e70cdd00", "lon": -76.93042916666667, "rental_uris": {"ios": "https://dc.lft.to/lastmile_qr_scan", "android": "https://dc.lft.to/lastmile_qr_scan"}}, {"name": "edf67d8161e2386cb5773eff11aeb2e8", "fusion_lat": 0.0, "type": "electric_scooter", "lat": 38.93875533333333, "is_reserved": 0, "is_disabled": 0, "fusion_lon": 0.0, "bike_id": "edf67d8161e2386cb5773eff11aeb2e8", "lon": -77.02918183333334, "rental_uris": {"ios": "https://dc.lft.to/lastmile_qr_scan", "android": "https://dc.lft.to/lastmile_qr_scan"}}, {"name": "545ade4d2af0c43b8114c19797557a3f", "fusion_lat": 0.0, "type": "electric_scooter", "lat": 38.872934, "is_reserved": 0, "is_disabled": 0, "fusion_lon": 0.0, "bike_id": "545ade4d2af0c43b8114c19797557a3f", "lon": -77.00155666666667, "rental_uris": {"ios": "https://dc.lft.to/lastmile_qr_scan", "android": "https://dc.lft.to/lastmile_qr_scan"}}, {"name": "311a767047a6f8d55301d642864b5b0c", "fusion_lat": 0.0, "type": "electric_scooter", "lat": 38.89847916666667, "is_reserved": 0, "is_disabled": 0, "fusion_lon": 0.0, "bike_id": "311a767047a6f8d55301d642864b5b0c", "lon": -77.02524716666667, "rental_uris": {"ios": "https://dc.lft.to/lastmile_qr_scan", "android": "https://dc.lft.to/lastmile_qr_scan"}}, {"name": "dec518457b341dd0a70c55bc57ae7742", "fusion_lat": 0.0, "type": "electric_scooter", "lat": 38.89220266666667, "is_reserved": 0, "is_disabled": 0, "fusion_lon": 0.0, "bike_id": "dec518457b341dd0a70c55bc57ae7742", "lon": -77.0316095, "rental_uris": {"ios": "https://dc.lft.to/lastmile_qr_scan", "android": "https://dc.lft.to/lastmile_qr_scan"}}, {"name": "084944f133b29c527ac83d815627943c", "fusion_lat": 0.0, "type": "electric_scooter", "lat": 38.9297245, "is_reserved": 0, "is_disabled": 0, "fusion_lon": 0.0, "bike_id": "084944f133b29c527ac83d815627943c", "lon": -77.02958916666667, "rental_uris": {"ios": "https://dc.lft.to/lastmile_qr_scan", "android": "https://dc.lft.to/lastmile_qr_scan"}}, {"name": "c46cb2e086df8cc046ff2fd5d6c61ca9", "fusion_lat": 0.0, "type": "electric_scooter", "lat": 38.9140635, "is_reserved": 0, "is_disabled": 0, "fusion_lon": 0.0, "bike_id": "c46cb2e086df8cc046ff2fd5d6c61ca9", "lon": -77.0456425, "rental_uris": {"ios": "https://dc.lft.to/lastmile_qr_scan", "android": "https://dc.lft.to/lastmile_qr_scan"}}, {"name": "77d36bdc42257ce38cae204ef228ded2", "fusion_lat": 0.0, "type": "electric_scooter", "lat": 38.9312345, "is_reserved": 0, "is_disabled": 0, "fusion_lon": 0.0, "bike_id": "77d36bdc42257ce38cae204ef228ded2", "lon": -77.035978, "rental_uris": {"ios": "https://dc.lft.to/lastmile_qr_scan", "android": "https://dc.lft.to/lastmile_qr_scan"}}, {"name": "7214c28bb81fb573ee10d203f4d80530", "fusion_lat": 0.0, "type": "electric_bike", "lat": 38.921746666666664, "is_reserved": 0, "is_disabled": 0, "fusion_lon": 0.0, "bike_id": "7214c28bb81fb573ee10d203f4d80530", "lon": -77.02711983333333, "rental_uris": {"ios": "https://dc.lft.to/lastmile_qr_scan", "android": "https://dc.lft.to/lastmile_qr_scan"}}, {"name": "66b47a7ce68743bdcee7b520861f2afa", "fusion_lat": 0.0, "type": "electric_scooter", "lat": 38.902664333333334, "is_reserved": 0, "is_disabled": 0, "fusion_lon": 0.0, "bike_id": "66b47a7ce68743bdcee7b520861f2afa", "lon": -77.01757966666666, "rental_uris": {"ios": "https://dc.lft.to/lastmile_qr_scan", "android": "https://dc.lft.to/lastmile_qr_scan"}}, {"name": "8548d605628475bd0c8f3b564d3c9939", "fusion_lat": 0.0, "type": "electric_scooter", "lat": 38.902445, "is_reserved": 0, "is_disabled": 0, "fusion_lon": 0.0, "bike_id": "8548d605628475bd0c8f3b564d3c9939", "lon": -77.04359466666666, "rental_uris": {"ios": "https://dc.lft.to/lastmile_qr_scan", "android": "https://dc.lft.to/lastmile_qr_scan"}}, {"name": "b53679cfe8c80f45bd714cef0485b4ce", "fusion_lat": 0.0, "type": "electric_scooter", "lat": 38.89342766666667, "is_reserved": 0, "is_disabled": 0, "fusion_lon": 0.0, "bike_id": "b53679cfe8c80f45bd714cef0485b4ce", "lon": -76.99147883333333, "rental_uris": {"ios": "https://dc.lft.to/lastmile_qr_scan", "android": "https://dc.lft.to/lastmile_qr_scan"}}, {"name": "e2078b7370005db53f618a97d5344daa", "fusion_lat": 0.0, "type": "electric_scooter", "lat": 38.900102833333335, "is_reserved": 0, "is_disabled": 0, "fusion_lon": 0.0, "bike_id": "e2078b7370005db53f618a97d5344daa", "lon": -76.995598, "rental_uris": {"ios": "https://dc.lft.to/lastmile_qr_scan", "android": "https://dc.lft.to/lastmile_qr_scan"}}, {"name": "0d5ba03a4fda7eeba8ebc35fbd1cca6d", "fusion_lat": 0.0, "type": "electric_scooter", "lat": 38.89648233333333, "is_reserved": 0, "is_disabled": 0, "fusion_lon": 0.0, "bike_id": "0d5ba03a4fda7eeba8ebc35fbd1cca6d", "lon": -77.00920783333333, "rental_uris": {"ios": "https://dc.lft.to/lastmile_qr_scan", "android": "https://dc.lft.to/lastmile_qr_scan"}}, {"name": "00308a005f1f1c0667aa6177e6e8bea7", "fusion_lat": 0.0, "type": "electric_bike", "lat": 38.945523, "is_reserved": 0, "is_disabled": 0, "fusion_lon": 0.0, "bike_id": "00308a005f1f1c0667aa6177e6e8bea7", "lon": -76.89537483333334, "rental_uris": {"ios": "https://dc.lft.to/lastmile_qr_scan", "android": "https://dc.lft.to/lastmile_qr_scan"}}, {"name": "c9dac28f468346c1ca9e6c21f4be09d9", "fusion_lat": 0.0, "type": "electric_scooter", "lat": 38.90613966666667, "is_reserved": 0, "is_disabled": 0, "fusion_lon": 0.0, "bike_id": "c9dac28f468346c1ca9e6c21f4be09d9", "lon": -77.0660265, "rental_uris": {"ios": "https://dc.lft.to/lastmile_qr_scan", "android": "https://dc.lft.to/lastmile_qr_scan"}}, {"name": "5d57ab38f0ee569ec554dc113d0a8672", "fusion_lat": 0.0, "type": "electric_scooter", "lat": 38.89733483333333, "is_reserved": 0, "is_disabled": 0, "fusion_lon": 0.0, "bike_id": "5d57ab38f0ee569ec554dc113d0a8672", "lon": -77.02170566666666, "rental_uris": {"ios": "https://dc.lft.to/lastmile_qr_scan", "android": "https://dc.lft.to/lastmile_qr_scan"}}, {"name": "4afafa63c76c1be13e92dc41d4ae3de5", "fusion_lat": 0.0, "type": "electric_bike", "lat": 38.97329333333333, "is_reserved": 0, "is_disabled": 0, "fusion_lon": 0.0, "bike_id": "4afafa63c76c1be13e92dc41d4ae3de5", "lon": -77.02147583333333, "rental_uris": {"ios": "https://dc.lft.to/lastmile_qr_scan", "android": "https://dc.lft.to/lastmile_qr_scan"}}, {"name": "34041e7baa35e169eb56de69c22ae54a", "fusion_lat": 0.0, "type": "electric_scooter", "lat": 38.89479716666666, "is_reserved": 0, "is_disabled": 0, "fusion_lon": 0.0, "bike_id": "34041e7baa35e169eb56de69c22ae54a", "lon": -76.94874566666667, "rental_uris": {"ios": "https://dc.lft.to/lastmile_qr_scan", "android": "https://dc.lft.to/lastmile_qr_scan"}}, {"name": "d10414286fdf8d8b49061d210457c97f", "fusion_lat": 0.0, "type": "electric_scooter", "lat": 38.901317666666664, "is_reserved": 0, "is_disabled": 0, "fusion_lon": 0.0, "bike_id": "d10414286fdf8d8b49061d210457c97f", "lon": -77.0462135, "rental_uris": {"ios": "https://dc.lft.to/lastmile_qr_scan", "android": "https://dc.lft.to/lastmile_qr_scan"}}, {"name": "1f5b55d0fcec9656c4f40d0a59a41401", "fusion_lat": 0.0, "type": "electric_scooter", "lat": 38.91753416666667, "is_reserved": 0, "is_disabled": 0, "fusion_lon": 0.0, "bike_id": "1f5b55d0fcec9656c4f40d0a59a41401", "lon": -77.01878566666667, "rental_uris": {"ios": "https://dc.lft.to/lastmile_qr_scan", "android": "https://dc.lft.to/lastmile_qr_scan"}}, {"name": "63d723be95a25da59a90f722583adf7f", "fusion_lat": 0.0, "type": "electric_scooter", "lat": 38.904007666666665, "is_reserved": 0, "is_disabled": 0, "fusion_lon": 0.0, "bike_id": "63d723be95a25da59a90f722583adf7f", "lon": -77.06401416666667, "rental_uris": {"ios": "https://dc.lft.to/lastmile_qr_scan", "android": "https://dc.lft.to/lastmile_qr_scan"}}, {"name": "9794df71e215d5ad6018edef689ca535", "fusion_lat": 0.0, "type": "electric_scooter", "lat": 38.90882416666667, "is_reserved": 0, "is_disabled": 0, "fusion_lon": 0.0, "bike_id": "9794df71e215d5ad6018edef689ca535", "lon": -77.0057655, "rental_uris": {"ios": "https://dc.lft.to/lastmile_qr_scan", "android": "https://dc.lft.to/lastmile_qr_scan"}}, {"name": "70201e9ce11ab508ea58a035a7b8c7b7", "fusion_lat": 0.0, "type": "electric_scooter", "lat": 38.90150233333333, "is_reserved": 0, "is_disabled": 0, "fusion_lon": 0.0, "bike_id": "70201e9ce11ab508ea58a035a7b8c7b7", "lon": -77.01313933333333, "rental_uris": {"ios": "https://dc.lft.to/lastmile_qr_scan", "android": "https://dc.lft.to/lastmile_qr_scan"}}, {"name": "bfcac2da75600fc1b1acb38dabe725ca", "fusion_lat": 0.0, "type": "electric_scooter", "lat": 38.92099783333333, "is_reserved": 0, "is_disabled": 0, "fusion_lon": 0.0, "bike_id": "bfcac2da75600fc1b1acb38dabe725ca", "lon": -77.031726, "rental_uris": {"ios": "https://dc.lft.to/lastmile_qr_scan", "android": "https://dc.lft.to/lastmile_qr_scan"}}, {"name": "13441e75f43d224d2487957a6affa868", "fusion_lat": 0.0, "type": "electric_scooter", "lat": 38.9238995, "is_reserved": 0, "is_disabled": 0, "fusion_lon": 0.0, "bike_id": "13441e75f43d224d2487957a6affa868", "lon": -77.02977266666667, "rental_uris": {"ios": "https://dc.lft.to/lastmile_qr_scan", "android": "https://dc.lft.to/lastmile_qr_scan"}}, {"name": "6a25ff9fc32114885f3f74414bfe2359", "fusion_lat": 0.0, "type": "electric_scooter", "lat": 38.876655166666666, "is_reserved": 0, "is_disabled": 0, "fusion_lon": 0.0, "bike_id": "6a25ff9fc32114885f3f74414bfe2359", "lon": -77.0034105, "rental_uris": {"ios": "https://dc.lft.to/lastmile_qr_scan", "android": "https://dc.lft.to/lastmile_qr_scan"}}, {"name": "c12599fdec255d83a9cce75bbf3cee34", "fusion_lat": 0.0, "type": "electric_scooter", "lat": 38.93104233333333, "is_reserved": 0, "is_disabled": 0, "fusion_lon": 0.0, "bike_id": "c12599fdec255d83a9cce75bbf3cee34", "lon": -77.02398016666666, "rental_uris": {"ios": "https://dc.lft.to/lastmile_qr_scan", "android": "https://dc.lft.to/lastmile_qr_scan"}}, {"name": "30abb33f4601cd2e807b03123c498ee1", "fusion_lat": 0.0, "type": "electric_scooter", "lat": 38.946958, "is_reserved": 0, "is_disabled": 0, "fusion_lon": 0.0, "bike_id": "30abb33f4601cd2e807b03123c498ee1", "lon": -77.06987133333334, "rental_uris": {"ios": "https://dc.lft.to/lastmile_qr_scan", "android": "https://dc.lft.to/lastmile_qr_scan"}}, {"name": "9fcde9dfce015003c5e44120660ac360", "fusion_lat": 0.0, "type": "electric_scooter", "lat": 38.9026735, "is_reserved": 0, "is_disabled": 0, "fusion_lon": 0.0, "bike_id": "9fcde9dfce015003c5e44120660ac360", "lon": -77.03455383333333, "rental_uris": {"ios": "https://dc.lft.to/lastmile_qr_scan", "android": "https://dc.lft.to/lastmile_qr_scan"}}, {"name": "d7be6c33ad0edf290d0b93907192fed2", "fusion_lat": 0.0, "type": "electric_scooter", "lat": 38.933346, "is_reserved": 0, "is_disabled": 0, "fusion_lon": 0.0, "bike_id": "d7be6c33ad0edf290d0b93907192fed2", "lon": -77.02742066666667, "rental_uris": {"ios": "https://dc.lft.to/lastmile_qr_scan", "android": "https://dc.lft.to/lastmile_qr_scan"}}, {"name": "e838d8e87ea2031f2534dc820d31283f", "fusion_lat": 0.0, "type": "electric_scooter", "lat": 38.918197166666666, "is_reserved": 0, "is_disabled": 0, "fusion_lon": 0.0, "bike_id": "e838d8e87ea2031f2534dc820d31283f", "lon": -77.03999983333334, "rental_uris": {"ios": "https://dc.lft.to/lastmile_qr_scan", "android": "https://dc.lft.to/lastmile_qr_scan"}}, {"name": "136e58337a41e67a818b8f3af2bac8a4", "fusion_lat": 0.0, "type": "electric_scooter", "lat": 38.92328, "is_reserved": 0, "is_disabled": 0, "fusion_lon": 0.0, "bike_id": "136e58337a41e67a818b8f3af2bac8a4", "lon": -77.0430755, "rental_uris": {"ios": "https://dc.lft.to/lastmile_qr_scan", "android": "https://dc.lft.to/lastmile_qr_scan"}}, {"name": "07cd311e5d4641a94a153b4241b284c3", "fusion_lat": 0.0, "type": "electric_scooter", "lat": 38.90310016666667, "is_reserved": 0, "is_disabled": 0, "fusion_lon": 0.0, "bike_id": "07cd311e5d4641a94a153b4241b284c3", "lon": -76.98245466666667, "rental_uris": {"ios": "https://dc.lft.to/lastmile_qr_scan", "android": "https://dc.lft.to/lastmile_qr_scan"}}, {"name": "f251b57d742bf64143703c31853649c1", "fusion_lat": 0.0, "type": "electric_scooter", "lat": 38.898777333333335, "is_reserved": 0, "is_disabled": 0, "fusion_lon": 0.0, "bike_id": "f251b57d742bf64143703c31853649c1", "lon": -76.9315605, "rental_uris": {"ios": "https://dc.lft.to/lastmile_qr_scan", "android": "https://dc.lft.to/lastmile_qr_scan"}}, {"name": "307f03f79c26ef60a90b131d43bee9d7", "fusion_lat": 0.0, "type": "electric_scooter", "lat": 38.922306666666664, "is_reserved": 0, "is_disabled": 0, "fusion_lon": 0.0, "bike_id": "307f03f79c26ef60a90b131d43bee9d7", "lon": -77.023338, "rental_uris": {"ios": "https://dc.lft.to/lastmile_qr_scan", "android": "https://dc.lft.to/lastmile_qr_scan"}}, {"name": "2ad11027582afb7352dcfd97cb8d0366", "fusion_lat": 0.0, "type": "electric_scooter", "lat": 38.901414833333334, "is_reserved": 0, "is_disabled": 0, "fusion_lon": 0.0, "bike_id": "2ad11027582afb7352dcfd97cb8d0366", "lon": -77.02880833333333, "rental_uris": {"ios": "https://dc.lft.to/lastmile_qr_scan", "android": "https://dc.lft.to/lastmile_qr_scan"}}, {"name": "573530a16865bb89b648fb373c363491", "fusion_lat": 0.0, "type": "electric_scooter", "lat": 38.90321733333333, "is_reserved": 0, "is_disabled": 0, "fusion_lon": 0.0, "bike_id": "573530a16865bb89b648fb373c363491", "lon": -77.0288665, "rental_uris": {"ios": "https://dc.lft.to/lastmile_qr_scan", "android": "https://dc.lft.to/lastmile_qr_scan"}}, {"name": "9d41b21db90036921be213649b5281c4", "fusion_lat": 0.0, "type": "electric_scooter", "lat": 38.8709055, "is_reserved": 0, "is_disabled": 0, "fusion_lon": 0.0, "bike_id": "9d41b21db90036921be213649b5281c4", "lon": -76.96590566666667, "rental_uris": {"ios": "https://dc.lft.to/lastmile_qr_scan", "android": "https://dc.lft.to/lastmile_qr_scan"}}, {"name": "3efc48b76d3a517718ca8f3808bab6b8", "fusion_lat": 0.0, "type": "electric_scooter", "lat": 38.883795666666664, "is_reserved": 0, "is_disabled": 0, "fusion_lon": 0.0, "bike_id": "3efc48b76d3a517718ca8f3808bab6b8", "lon": -76.99522833333333, "rental_uris": {"ios": "https://dc.lft.to/lastmile_qr_scan", "android": "https://dc.lft.to/lastmile_qr_scan"}}, {"name": "fe1cb6a87a29ef7e5d5063fb94ca99ee", "fusion_lat": 0.0, "type": "electric_scooter", "lat": 38.896616, "is_reserved": 0, "is_disabled": 0, "fusion_lon": 0.0, "bike_id": "fe1cb6a87a29ef7e5d5063fb94ca99ee", "lon": -77.00899933333334, "rental_uris": {"ios": "https://dc.lft.to/lastmile_qr_scan", "android": "https://dc.lft.to/lastmile_qr_scan"}}, {"name": "5a781386bca8ec7753396ebe1b484c82", "fusion_lat": 0.0, "type": "electric_scooter", "lat": 38.8747725, "is_reserved": 0, "is_disabled": 0, "fusion_lon": 0.0, "bike_id": "5a781386bca8ec7753396ebe1b484c82", "lon": -77.00617283333334, "rental_uris": {"ios": "https://dc.lft.to/lastmile_qr_scan", "android": "https://dc.lft.to/lastmile_qr_scan"}}, {"name": "3aaf8e49757e2e4b5ca091ea1bf5aef0", "fusion_lat": 0.0, "type": "electric_scooter", "lat": 38.89414416666666, "is_reserved": 0, "is_disabled": 0, "fusion_lon": 0.0, "bike_id": "3aaf8e49757e2e4b5ca091ea1bf5aef0", "lon": -76.93956683333333, "rental_uris": {"ios": "https://dc.lft.to/lastmile_qr_scan", "android": "https://dc.lft.to/lastmile_qr_scan"}}, {"name": "d7d6abb7f4ade2b4c46d1b926c4c1c79", "fusion_lat": 0.0, "type": "electric_scooter", "lat": 38.896079666666665, "is_reserved": 0, "is_disabled": 0, "fusion_lon": 0.0, "bike_id": "d7d6abb7f4ade2b4c46d1b926c4c1c79", "lon": -77.02315283333333, "rental_uris": {"ios": "https://dc.lft.to/lastmile_qr_scan", "android": "https://dc.lft.to/lastmile_qr_scan"}}, {"name": "5912909cb4647961cc653ea323bfe474", "fusion_lat": 0.0, "type": "electric_bike", "lat": 38.93672266666667, "is_reserved": 0, "is_disabled": 0, "fusion_lon": 0.0, "bike_id": "5912909cb4647961cc653ea323bfe474", "lon": -76.952059, "rental_uris": {"ios": "https://dc.lft.to/lastmile_qr_scan", "android": "https://dc.lft.to/lastmile_qr_scan"}}, {"name": "2dad6eae5c778b47bd5ad65c9131c590", "fusion_lat": 0.0, "type": "electric_scooter", "lat": 38.9002885, "is_reserved": 0, "is_disabled": 0, "fusion_lon": 0.0, "bike_id": "2dad6eae5c778b47bd5ad65c9131c590", "lon": -77.0146445, "rental_uris": {"ios": "https://dc.lft.to/lastmile_qr_scan", "android": "https://dc.lft.to/lastmile_qr_scan"}}, {"name": "00ed64ba2239d6a9f4d41c8859712b09", "fusion_lat": 0.0, "type": "electric_scooter", "lat": 38.885046333333335, "is_reserved": 0, "is_disabled": 0, "fusion_lon": 0.0, "bike_id": "00ed64ba2239d6a9f4d41c8859712b09", "lon": -77.00567516666666, "rental_uris": {"ios": "https://dc.lft.to/lastmile_qr_scan", "android": "https://dc.lft.to/lastmile_qr_scan"}}, {"name": "a1f18e312d304acb03237507cbfa3506", "fusion_lat": 0.0, "type": "electric_scooter", "lat": 38.9235145, "is_reserved": 0, "is_disabled": 0, "fusion_lon": 0.0, "bike_id": "a1f18e312d304acb03237507cbfa3506", "lon": -77.03544416666666, "rental_uris": {"ios": "https://dc.lft.to/lastmile_qr_scan", "android": "https://dc.lft.to/lastmile_qr_scan"}}, {"name": "cf58656d30e685281544e54b251c2150", "fusion_lat": 0.0, "type": "electric_scooter", "lat": 38.931111, "is_reserved": 0, "is_disabled": 0, "fusion_lon": 0.0, "bike_id": "cf58656d30e685281544e54b251c2150", "lon": -77.03507833333333, "rental_uris": {"ios": "https://dc.lft.to/lastmile_qr_scan", "android": "https://dc.lft.to/lastmile_qr_scan"}}, {"name": "ea234e7645f24726f61cbf312f9fd0a4", "fusion_lat": 0.0, "type": "electric_scooter", "lat": 38.913447166666664, "is_reserved": 0, "is_disabled": 0, "fusion_lon": 0.0, "bike_id": "ea234e7645f24726f61cbf312f9fd0a4", "lon": -77.04228666666667, "rental_uris": {"ios": "https://dc.lft.to/lastmile_qr_scan", "android": "https://dc.lft.to/lastmile_qr_scan"}}, {"name": "e01c3aaf6ca454a3df9b896f2c9882ad", "fusion_lat": 0.0, "type": "electric_scooter", "lat": 38.92722766666667, "is_reserved": 0, "is_disabled": 0, "fusion_lon": 0.0, "bike_id": "e01c3aaf6ca454a3df9b896f2c9882ad", "lon": -77.03734883333334, "rental_uris": {"ios": "https://dc.lft.to/lastmile_qr_scan", "android": "https://dc.lft.to/lastmile_qr_scan"}}, {"name": "322f0ecac8bcde0a34752451bb29bca6", "fusion_lat": 0.0, "type": "electric_scooter", "lat": 38.908588, "is_reserved": 0, "is_disabled": 0, "fusion_lon": 0.0, "bike_id": "322f0ecac8bcde0a34752451bb29bca6", "lon": -76.99794933333334, "rental_uris": {"ios": "https://dc.lft.to/lastmile_qr_scan", "android": "https://dc.lft.to/lastmile_qr_scan"}}, {"name": "de9e3090cda8e8dc6e0537128d888a7c", "fusion_lat": 0.0, "type": "electric_bike", "lat": 38.85316683333333, "is_reserved": 0, "is_disabled": 0, "fusion_lon": 0.0, "bike_id": "de9e3090cda8e8dc6e0537128d888a7c", "lon": -76.98008483333334, "rental_uris": {"ios": "https://dc.lft.to/lastmile_qr_scan", "android": "https://dc.lft.to/lastmile_qr_scan"}}, {"name": "2458eece17c8f2ebd1d738e71bd2889a", "fusion_lat": 0.0, "type": "electric_scooter", "lat": 38.91126533333333, "is_reserved": 0, "is_disabled": 0, "fusion_lon": 0.0, "bike_id": "2458eece17c8f2ebd1d738e71bd2889a", "lon": -77.04771166666667, "rental_uris": {"ios": "https://dc.lft.to/lastmile_qr_scan", "android": "https://dc.lft.to/lastmile_qr_scan"}}, {"name": "4ce5e247900721fbede225c5a97dbb64", "fusion_lat": 0.0, "type": "electric_scooter", "lat": 38.8955085, "is_reserved": 0, "is_disabled": 0, "fusion_lon": 0.0, "bike_id": "4ce5e247900721fbede225c5a97dbb64", "lon": -76.948785, "rental_uris": {"ios": "https://dc.lft.to/lastmile_qr_scan", "android": "https://dc.lft.to/lastmile_qr_scan"}}, {"name": "664847e737f34cfd14f5c342193681fd", "fusion_lat": 0.0, "type": "electric_scooter", "lat": 38.927737, "is_reserved": 0, "is_disabled": 0, "fusion_lon": 0.0, "bike_id": "664847e737f34cfd14f5c342193681fd", "lon": -77.02774716666667, "rental_uris": {"ios": "https://dc.lft.to/lastmile_qr_scan", "android": "https://dc.lft.to/lastmile_qr_scan"}}, {"name": "b02f3819059c1ae9189c7a9b01a34d68", "fusion_lat": 0.0, "type": "electric_scooter", "lat": 38.897772833333335, "is_reserved": 0, "is_disabled": 0, "fusion_lon": 0.0, "bike_id": "b02f3819059c1ae9189c7a9b01a34d68", "lon": -77.02602433333334, "rental_uris": {"ios": "https://dc.lft.to/lastmile_qr_scan", "android": "https://dc.lft.to/lastmile_qr_scan"}}, {"name": "61bb3288202f05a517fb475c55064747", "fusion_lat": 0.0, "type": "electric_scooter", "lat": 38.912609, "is_reserved": 0, "is_disabled": 0, "fusion_lon": 0.0, "bike_id": "61bb3288202f05a517fb475c55064747", "lon": -77.0386435, "rental_uris": {"ios": "https://dc.lft.to/lastmile_qr_scan", "android": "https://dc.lft.to/lastmile_qr_scan"}}, {"name": "a6de21513018421a77eca3ddd97b4c36", "fusion_lat": 0.0, "type": "electric_scooter", "lat": 38.9112365, "is_reserved": 0, "is_disabled": 0, "fusion_lon": 0.0, "bike_id": "a6de21513018421a77eca3ddd97b4c36", "lon": -77.021972, "rental_uris": {"ios": "https://dc.lft.to/lastmile_qr_scan", "android": "https://dc.lft.to/lastmile_qr_scan"}}, {"name": "9794f8ec395dae7264d2802d688062dc", "fusion_lat": 0.0, "type": "electric_scooter", "lat": 38.911937, "is_reserved": 0, "is_disabled": 0, "fusion_lon": 0.0, "bike_id": "9794f8ec395dae7264d2802d688062dc", "lon": -77.03826933333333, "rental_uris": {"ios": "https://dc.lft.to/lastmile_qr_scan", "android": "https://dc.lft.to/lastmile_qr_scan"}}, {"name": "8d19c35a4907cde7df794488d5b89de0", "fusion_lat": 0.0, "type": "electric_scooter", "lat": 38.878665833333336, "is_reserved": 0, "is_disabled": 0, "fusion_lon": 0.0, "bike_id": "8d19c35a4907cde7df794488d5b89de0", "lon": -76.96526783333333, "rental_uris": {"ios": "https://dc.lft.to/lastmile_qr_scan", "android": "https://dc.lft.to/lastmile_qr_scan"}}, {"name": "f8ebfc9100a7d9106c8fb1c99a118205", "fusion_lat": 0.0, "type": "electric_scooter", "lat": 38.91806583333333, "is_reserved": 0, "is_disabled": 0, "fusion_lon": 0.0, "bike_id": "f8ebfc9100a7d9106c8fb1c99a118205", "lon": -77.02494016666667, "rental_uris": {"ios": "https://dc.lft.to/lastmile_qr_scan", "android": "https://dc.lft.to/lastmile_qr_scan"}}, {"name": "6b17030c9ca78659cbe567ccaa90503f", "fusion_lat": 0.0, "type": "electric_scooter", "lat": 38.908787333333336, "is_reserved": 0, "is_disabled": 0, "fusion_lon": 0.0, "bike_id": "6b17030c9ca78659cbe567ccaa90503f", "lon": -77.07606216666667, "rental_uris": {"ios": "https://dc.lft.to/lastmile_qr_scan", "android": "https://dc.lft.to/lastmile_qr_scan"}}, {"name": "f27a35de046748684eb299bd28570b17", "fusion_lat": 0.0, "type": "electric_scooter", "lat": 38.90343816666667, "is_reserved": 0, "is_disabled": 0, "fusion_lon": 0.0, "bike_id": "f27a35de046748684eb299bd28570b17", "lon": -77.05438533333333, "rental_uris": {"ios": "https://dc.lft.to/lastmile_qr_scan", "android": "https://dc.lft.to/lastmile_qr_scan"}}, {"name": "6bfceab11f0b50f2873d56a6569b2220", "fusion_lat": 0.0, "type": "electric_scooter", "lat": 38.89514466666667, "is_reserved": 0, "is_disabled": 0, "fusion_lon": 0.0, "bike_id": "6bfceab11f0b50f2873d56a6569b2220", "lon": -76.9921615, "rental_uris": {"ios": "https://dc.lft.to/lastmile_qr_scan", "android": "https://dc.lft.to/lastmile_qr_scan"}}, {"name": "0a2c75e980874a1498624bcc4b7b45e1", "fusion_lat": 0.0, "type": "electric_scooter", "lat": 38.89904083333333, "is_reserved": 0, "is_disabled": 0, "fusion_lon": 0.0, "bike_id": "0a2c75e980874a1498624bcc4b7b45e1", "lon": -77.03283883333333, "rental_uris": {"ios": "https://dc.lft.to/lastmile_qr_scan", "android": "https://dc.lft.to/lastmile_qr_scan"}}, {"name": "6f93569e564dfb3a9d95821320177a70", "fusion_lat": 0.0, "type": "electric_scooter", "lat": 38.900310166666664, "is_reserved": 0, "is_disabled": 0, "fusion_lon": 0.0, "bike_id": "6f93569e564dfb3a9d95821320177a70", "lon": -77.0468545, "rental_uris": {"ios": "https://dc.lft.to/lastmile_qr_scan", "android": "https://dc.lft.to/lastmile_qr_scan"}}, {"name": "05bfe6ac33a25da0214f9670d984f0d8", "fusion_lat": 0.0, "type": "electric_scooter", "lat": 38.922603, "is_reserved": 0, "is_disabled": 0, "fusion_lon": 0.0, "bike_id": "05bfe6ac33a25da0214f9670d984f0d8", "lon": -77.04144, "rental_uris": {"ios": "https://dc.lft.to/lastmile_qr_scan", "android": "https://dc.lft.to/lastmile_qr_scan"}}, {"name": "dc0d5316fc3aa6b0357cb1639d918271", "fusion_lat": 0.0, "type": "electric_scooter", "lat": 38.90202333333333, "is_reserved": 0, "is_disabled": 0, "fusion_lon": 0.0, "bike_id": "dc0d5316fc3aa6b0357cb1639d918271", "lon": -77.02221633333333, "rental_uris": {"ios": "https://dc.lft.to/lastmile_qr_scan", "android": "https://dc.lft.to/lastmile_qr_scan"}}, {"name": "7f612ab414615311d6667b7a223426c4", "fusion_lat": 0.0, "type": "electric_scooter", "lat": 38.900254333333336, "is_reserved": 0, "is_disabled": 0, "fusion_lon": 0.0, "bike_id": "7f612ab414615311d6667b7a223426c4", "lon": -76.99637516666667, "rental_uris": {"ios": "https://dc.lft.to/lastmile_qr_scan", "android": "https://dc.lft.to/lastmile_qr_scan"}}, {"name": "3f96693cd671cb1ae032737593d108a5", "fusion_lat": 0.0, "type": "electric_scooter", "lat": 38.89801516666667, "is_reserved": 0, "is_disabled": 0, "fusion_lon": 0.0, "bike_id": "3f96693cd671cb1ae032737593d108a5", "lon": -76.99162683333333, "rental_uris": {"ios": "https://dc.lft.to/lastmile_qr_scan", "android": "https://dc.lft.to/lastmile_qr_scan"}}, {"name": "367efb0619f7018e50566e278e82ad0b", "fusion_lat": 0.0, "type": "electric_bike", "lat": 38.9427435, "is_reserved": 0, "is_disabled": 0, "fusion_lon": 0.0, "bike_id": "367efb0619f7018e50566e278e82ad0b", "lon": -76.98071466666667, "rental_uris": {"ios": "https://dc.lft.to/lastmile_qr_scan", "android": "https://dc.lft.to/lastmile_qr_scan"}}, {"name": "468c8ecb89db1d4ecba7ae75f8617a6e", "fusion_lat": 0.0, "type": "electric_scooter", "lat": 38.921818333333334, "is_reserved": 0, "is_disabled": 0, "fusion_lon": 0.0, "bike_id": "468c8ecb89db1d4ecba7ae75f8617a6e", "lon": -77.026619, "rental_uris": {"ios": "https://dc.lft.to/lastmile_qr_scan", "android": "https://dc.lft.to/lastmile_qr_scan"}}, {"name": "ea97dbe6553a51d329a70786fe1747e1", "fusion_lat": 0.0, "type": "electric_scooter", "lat": 38.88628933333333, "is_reserved": 0, "is_disabled": 0, "fusion_lon": 0.0, "bike_id": "ea97dbe6553a51d329a70786fe1747e1", "lon": -77.01956316666667, "rental_uris": {"ios": "https://dc.lft.to/lastmile_qr_scan", "android": "https://dc.lft.to/lastmile_qr_scan"}}, {"name": "dcbf99172d1105b95451964ecc4ce052", "fusion_lat": 0.0, "type": "electric_scooter", "lat": 38.900339333333335, "is_reserved": 0, "is_disabled": 0, "fusion_lon": 0.0, "bike_id": "dcbf99172d1105b95451964ecc4ce052", "lon": -77.006259, "rental_uris": {"ios": "https://dc.lft.to/lastmile_qr_scan", "android": "https://dc.lft.to/lastmile_qr_scan"}}, {"name": "dbe0eca2cf310a5651a70ed451d9108c", "fusion_lat": 0.0, "type": "electric_scooter", "lat": 38.906621666666666, "is_reserved": 0, "is_disabled": 0, "fusion_lon": 0.0, "bike_id": "dbe0eca2cf310a5651a70ed451d9108c", "lon": -77.0271035, "rental_uris": {"ios": "https://dc.lft.to/lastmile_qr_scan", "android": "https://dc.lft.to/lastmile_qr_scan"}}, {"name": "94babf074e984b6a2b0ec878ad750152", "fusion_lat": 0.0, "type": "electric_scooter", "lat": 38.92058883333333, "is_reserved": 0, "is_disabled": 0, "fusion_lon": 0.0, "bike_id": "94babf074e984b6a2b0ec878ad750152", "lon": -77.042517, "rental_uris": {"ios": "https://dc.lft.to/lastmile_qr_scan", "android": "https://dc.lft.to/lastmile_qr_scan"}}, {"name": "0f43d8985415eb35f12a81817a31f502", "fusion_lat": 0.0, "type": "electric_scooter", "lat": 38.866609833333335, "is_reserved": 0, "is_disabled": 0, "fusion_lon": 0.0, "bike_id": "0f43d8985415eb35f12a81817a31f502", "lon": -76.98885033333333, "rental_uris": {"ios": "https://dc.lft.to/lastmile_qr_scan", "android": "https://dc.lft.to/lastmile_qr_scan"}}, {"name": "cb352e0b06d9ce3231e5777c9856e5f1", "fusion_lat": 0.0, "type": "electric_scooter", "lat": 38.898467333333336, "is_reserved": 0, "is_disabled": 0, "fusion_lon": 0.0, "bike_id": "cb352e0b06d9ce3231e5777c9856e5f1", "lon": -77.007523, "rental_uris": {"ios": "https://dc.lft.to/lastmile_qr_scan", "android": "https://dc.lft.to/lastmile_qr_scan"}}, {"name": "a2c1f0046cd54de28d7a4abec167d114", "fusion_lat": 0.0, "type": "electric_scooter", "lat": 38.9274835, "is_reserved": 0, "is_disabled": 0, "fusion_lon": 0.0, "bike_id": "a2c1f0046cd54de28d7a4abec167d114", "lon": -77.03474733333333, "rental_uris": {"ios": "https://dc.lft.to/lastmile_qr_scan", "android": "https://dc.lft.to/lastmile_qr_scan"}}, {"name": "c211b4fd5e2dbed3e7523c68f3289628", "fusion_lat": 0.0, "type": "electric_scooter", "lat": 38.9069905, "is_reserved": 0, "is_disabled": 0, "fusion_lon": 0.0, "bike_id": "c211b4fd5e2dbed3e7523c68f3289628", "lon": -77.02387816666666, "rental_uris": {"ios": "https://dc.lft.to/lastmile_qr_scan", "android": "https://dc.lft.to/lastmile_qr_scan"}}, {"name": "2e742d26330641c2eec415ad1f5e1c76", "fusion_lat": 0.0, "type": "electric_scooter", "lat": 38.94230233333333, "is_reserved": 0, "is_disabled": 0, "fusion_lon": 0.0, "bike_id": "2e742d26330641c2eec415ad1f5e1c76", "lon": -77.02158683333333, "rental_uris": {"ios": "https://dc.lft.to/lastmile_qr_scan", "android": "https://dc.lft.to/lastmile_qr_scan"}}, {"name": "db34ebe9734bf7a210c40329fefc35e9", "fusion_lat": 0.0, "type": "electric_scooter", "lat": 38.9180815, "is_reserved": 0, "is_disabled": 0, "fusion_lon": 0.0, "bike_id": "db34ebe9734bf7a210c40329fefc35e9", "lon": -77.028138, "rental_uris": {"ios": "https://dc.lft.to/lastmile_qr_scan", "android": "https://dc.lft.to/lastmile_qr_scan"}},