{"data": {"bikes": [{"rental_uris": {"android": "https://dc.lft.to/lastmile_qr_scan", "ios": "https://dc.lft.to/lastmile_qr_scan"}, "fusion_lat": 0.0, "is_reserved": 0, "lat": 38.880732333333334, "name": "c92453d38697e155a18e61efce4f20ef", "bike_id": "c92453d38697e155a18e61efce4f20ef", "is_disabled": 0, "fusion_lon": 0.0, "type": "electric_scooter", "lon": -77.03723133333334}, {"rental_uris": {"android": "https://dc.lft.to/lastmile_qr_scan", "ios": "https://dc.lft.to/lastmile_qr_scan"}, "fusion_lat": 0.0, "is_reserved": 0, "lat": 38.88144533333333, "name": "5622124b3488eb730e0bf04eb5ba459b", "bike_id": "5622124b3488eb730e0bf04eb5ba459b", "is_disabled": 0, "fusion_lon": 0.0, "type": "electric_scooter", "lon": -77.01765933333333}, {"rental_uris": {"android": "https://dc.lft.to/lastmile_qr_scan", "ios": "https://dc.lft.to/lastmile_qr_scan"}, "fusion_lat": 0.0, "is_reserved": 0, "lat": 38.924802666666665, "name": "df011d4438d199d1aea42abeb724b10c", "bike_id": "df011d4438d199d1aea42abeb724b10c", "is_disabled": 0, "fusion_lon": 0.0, "type": "electric_scooter", "lon": -77.05216083333333}, {"rental_uris": {"android": "https://dc.lft.to/lastmile_qr_scan", "ios": "https://dc.lft.to/lastmile_qr_scan"}, "fusion_lat": 0.0, "is_reserved": 0, "lat": 38.9214795, "name": "8f3c8e694e810cbd0450ad405acbdeef", "bike_id": "8f3c8e694e810cbd0450ad405acbdeef", "is_disabled": 0, "fusion_lon": 0.0, "type": "electric_scooter", "lon": -77.03379133333334}, {"rental_uris": {"android": "https://dc.lft.to/lastmile_qr_scan", "ios": "https://dc.lft.to/lastmile_qr_scan"}, "fusion_lat": 0.0, "is_reserved": 0, "lat": 38.899258333333336, "name": "fba3ca6aa6b4ba9c0b8b0a8063747e2d", "bike_id": "fba3ca6aa6b4ba9c0b8b0a8063747e2d", "is_disabled": 0, "fusion_lon": 0.0, "type": "electric_bike", "lon": -77.00161233333333}, {"rental_uris": {"android": "https://dc.lft.to/lastmile_qr_scan", "ios": "https://dc.lft.to/lastmile_qr_scan"}, "fusion_lat": 0.0, "is_reserved": 0, "lat": 38.893619, "name": "11d19696bd037a0d1f194171013b43bd", "bike_id": "11d19696bd037a0d1f194171013b43bd", "is_disabled": 0, "fusion_lon": 0.0, "type": "electric_scooter", "lon": -76.9846385}, {"rental_uris": {"android": "https://dc.lft.to/lastmile_qr_scan", "ios": "https://dc.lft.to/lastmile_qr_scan"}, "fusion_lat": 0.0, "is_reserved": 0, "lat": 38.95745983333333, "name": "7541641834b035dd58fd30ac14f319d4", "bike_id": "7541641834b035dd58fd30ac14f319d4", "is_disabled": 0, "fusion_lon": 0.0, "type": "electric_scooter", "lon": -77.020678}, {"rental_uris": {"android": "https://dc.lft.to/lastmile_qr_scan", "ios": "https://dc.lft.to/lastmile_qr_scan"}, "fusion_lat": 0.0, "is_reserved": 0, "lat": 38.94220766666667, "name": "d27a7cc43f4d278edd305992c9880c3e", "bike_id": "d27a7cc43f4d278edd305992c9880c3e", "is_disabled": 0, "fusion_lon": 0.0, "type": "electric_bike", "lon": -76.961325}, {"rental_uris": {"android": "https://dc.lft.to/lastmile_qr_scan", "ios": "https://dc.lft.to/lastmile_qr_scan"}, "fusion_lat": 0.0, "is_reserved": 0, "lat": 38.918360166666666, "name": "7ee7d101cc8258bec2b354ac03183ef3", "bike_id": "7ee7d101cc8258bec2b354ac03183ef3", "is_disabled": 0, "fusion_lon": 0.0, "type": "electric_scooter", "lon": -77.035228}, {"rental_uris": {"android": "https://dc.lft.to/lastmile_qr_scan", "ios": "https://dc.lft.to/lastmile_qr_scan"}, "fusion_lat": 0.0, "is_reserved": 0, "lat": 38.896142166666664, "name": "47a26753befce8ff4780a71820742bba", "bike_id": "47a26753befce8ff4780a71820742bba", "is_disabled": 0, "fusion_lon": 0.0, "type": "electric_scooter", "lon": -76.92971766666666}, {"rental_uris": {"android": "https://dc.lft.to/lastmile_qr_scan", "ios": "https://dc.lft.to/lastmile_qr_scan"}, "fusion_lat": 0.0, "is_reserved": 0, "lat": 38.903413666666665, "name": "5df095d6656c0642fcbbffb3d9416b94", "bike_id": "5df095d6656c0642fcbbffb3d9416b94", "is_disabled": 0, "fusion_lon": 0.0, "type": "electric_scooter", "lon": -77.01743816666666}, {"rental_uris": {"android": "https://dc.lft.to/lastmile_qr_scan", "ios": "https://dc.lft.to/lastmile_qr_scan"}, "fusion_lat": 0.0, "is_reserved": 0, "lat": 38.91572566666667, "name": "9600433467206eb7a91fffafdfa55d18", "bike_id": "9600433467206eb7a91fffafdfa55d18", "is_disabled": 0, "fusion_lon": 0.0, "type": "electric_scooter", "lon": -77.01891866666666}, {"rental_uris": {"android": "https://dc.lft.to/lastmile_qr_scan", "ios": "https://dc.lft.to/lastmile_qr_scan"}, "fusion_lat": 0.0, "is_reserved": 0, "lat": 38.903675666666665, "name": "ee3c74bc0518f123a164e51350bbb682", "bike_id": "ee3c74bc0518f123a164e51350bbb682", "is_disabled": 0, "fusion_lon": 0.0, "type": "electric_scooter", "lon": -77.0252205}, {"rental_uris": {"android": "https://dc.lft.to/lastmile_qr_scan", "ios": "https://dc.lft.to/lastmile_qr_scan"}, "fusion_lat": 0.0, "is_reserved": 0, "lat": 38.938543833333334, "name": "fd6af7f791807c0216029182f337f728", "bike_id": "fd6af7f791807c0216029182f337f728", "is_disabled": 0, "fusion_lon": 0.0, "type": "electric_scooter", "lon": -77.02470233333334}, {"rental_uris": {"android": "https://dc.lft.to/lastmile_qr_scan", "ios": "https://dc.lft.to/lastmile_qr_scan"}, "fusion_lat": 0.0, "is_reserved": 0, "lat": 38.93087516666667, "name": "40f7e6909e56f245ff84c2835346bd8a", "bike_id": "40f7e6909e56f245ff84c2835346bd8a", "is_disabled": 0, "fusion_lon": 0.0, "type": "electric_scooter", "lon": -77.03772916666667}, {"rental_uris": {"android": "https://dc.lft.to/lastmile_qr_scan", "ios": "https://dc.lft.to/lastmile_qr_scan"}, "fusion_lat": 0.0, "is_reserved": 0, "lat": 38.888367, "name": "625cec0d5950640f4ed461089195b725", "bike_id": "625cec0d5950640f4ed461089195b725", "is_disabled": 0, "fusion_lon": 0.0, "type": "electric_scooter", "lon": -76.98694483333334}, {"rental_uris": {"android": "https://dc.lft.to/lastmile_qr_scan", "ios": "https://dc.lft.to/lastmile_qr_scan"}, "fusion_lat": 0.0, "is_reserved": 0, "lat": 38.89620883333333, "name": "0844bff9e6dacb5ebd55d024bf42b203", "bike_id": "0844bff9e6dacb5ebd55d024bf42b203", "is_disabled": 0, "fusion_lon": 0.0, "type": "electric_scooter", "lon": -77.02596183333333}, {"rental_uris": {"android": "https://dc.lft.to/lastmile_qr_scan", "ios": "https://dc.lft.to/lastmile_qr_scan"}, "fusion_lat": 0.0, "is_reserved": 0, "lat": 38.91871166666667, "name": "fac21e1c0e236217c75fa5e136bfbea8", "bike_id": "fac21e1c0e236217c75fa5e136bfbea8", "is_disabled": 0, "fusion_lon": 0.0, "type": "electric_scooter", "lon": -77.03543716666667}, {"rental_uris": {"android": "https://dc.lft.to/lastmile_qr_scan", "ios": "https://dc.lft.to/lastmile_qr_scan"}, "fusion_lat": 0.0, "is_reserved": 0, "lat": 38.915820333333336, "name": "fae13e47e309be8c9ded91bdc5dfadc1", "bike_id": "fae13e47e309be8c9ded91bdc5dfadc1", "is_disabled": 0, "fusion_lon": 0.0, "type": "electric_scooter", "lon": -77.0123835}, {"rental_uris": {"android": "https://dc.lft.to/lastmile_qr_scan", "ios": "https://dc.lft.to/lastmile_qr_scan"}, "fusion_lat": 0.0, "is_reserved": 0, "lat": 38.804511, "name": "b81fedecb808d847c8b00265df6529ab", "bike_id": "b81fedecb808d847c8b00265df6529ab", "is_disabled": 0, "fusion_lon": 0.0, "type": "electric_bike", "lon": -77.13233466666667}, {"rental_uris": {"android": "https://dc.lft.to/lastmile_qr_scan", "ios": "https://dc.lft.to/lastmile_qr_scan"}, "fusion_lat": 0.0, "is_reserved": 0, "lat": 38.92872033333333, "name": "c240d6a75e112fe9bb17b68f909551f4", "bike_id": "c240d6a75e112fe9bb17b68f909551f4", "is_disabled": 0, "fusion_lon": 0.0, "type": "electric_scooter", "lon": -77.02711}, {"rental_uris": {"android": "https://dc.lft.to/lastmile_qr_scan", "ios": "https://dc.lft.to/lastmile_qr_scan"}, "fusion_lat": 0.0, "is_reserved": 0, "lat": 38.91959716666667, "name": "d8ab4a7956ff6897bdd8ef894bf32288", "bike_id": "d8ab4a7956ff6897bdd8ef894bf32288", "is_disabled": 0, "fusion_lon": 0.0, "type": "electric_scooter", "lon": -76.99163183333333}, {"rental_uris": {"android": "https://dc.lft.to/lastmile_qr_scan", "ios": "https://dc.lft.to/lastmile_qr_scan"}, "fusion_lat": 0.0, "is_reserved": 0, "lat": 38.908074166666665, "name": "21f1044731dbdf169876c5e8a0978a59", "bike_id": "21f1044731dbdf169876c5e8a0978a59", "is_disabled": 0, "fusion_lon": 0.0, "type": "electric_scooter", "lon": -77.04200416666667}, {"rental_uris": {"android": "https://dc.lft.to/lastmile_qr_scan", "ios": "https://dc.lft.to/lastmile_qr_scan"}, "fusion_lat": 0.0, "is_reserved": 0, "lat": 38.91772066666667, "name": "1e06456922b7dc7a1feb321c9923a848", "bike_id": "1e06456922b7dc7a1feb321c9923a848", "is_disabled": 0, "fusion_lon": 0.0, "type": "electric_scooter", "lon": -77.0475225}, {"rental_uris": {"android": "https://dc.lft.to/lastmile_qr_scan", "ios": "https://dc.lft.to/lastmile_qr_scan"}, "fusion_lat": 0.0, "is_reserved": 0, "lat": 38.905816333333334, "name": "97cd1bb2e8a78404c3a70d3e80b65ca8", "bike_id": "97cd1bb2e8a78404c3a70d3e80b65ca8", "is_disabled": 0, "fusion_lon": 0.0, "type": "electric_scooter", "lon": -77.02185266666666}, {"rental_uris": {"android": "https://dc.lft.to/lastmile_qr_scan", "ios": "https://dc.lft.to/lastmile_qr_scan"}, "fusion_lat": 0.0, "is_reserved": 0, "lat": 38.928602, "name": "77186c7363c701e383a30eaff8f1d3c4", "bike_id": "77186c7363c701e383a30eaff8f1d3c4", "is_disabled": 0, "fusion_lon": 0.0, "type": "electric_scooter", "lon": -77.034241}, {"rental_uris": {"android": "https://dc.lft.to/lastmile_qr_scan", "ios": "https://dc.lft.to/lastmile_qr_scan"}, "fusion_lat": 0.0, "is_reserved": 0, "lat": 38.915570833333334, "name": "68daa836063cbe52740766267dec4491", "bike_id": "68daa836063cbe52740766267dec4491", "is_disabled": 0, "fusion_lon": 0.0, "type": "electric_scooter", "lon": -77.04004666666667}, {"rental_uris": {"android": "https://dc.lft.to/lastmile_qr_scan", "ios": "https://dc.lft.to/lastmile_qr_scan"}, "fusion_lat": 0.0, "is_reserved": 0, "lat": 38.95356133333333, "name": "7f4aee26e6604c8714effedf8b2808e9", "bike_id": "7f4aee26e6604c8714effedf8b2808e9", "is_disabled": 0, "fusion_lon": 0.0, "type": "electric_bike", "lon": -76.98099}, {"rental_uris": {"android": "https://dc.lft.to/lastmile_qr_scan", "ios": "https://dc.lft.to/lastmile_qr_scan"}, "fusion_lat": 0.0, "is_reserved": 0, "lat": 38.9178965, "name": "771f4a1df4cee6e112e31fcd160256e4", "bike_id": "771f4a1df4cee6e112e31fcd160256e4", "is_disabled": 0, "fusion_lon": 0.0, "type": "electric_scooter", "lon": -77.023071}, {"rental_uris": {"android": "https://dc.lft.to/lastmile_qr_scan", "ios": "https://dc.lft.to/lastmile_qr_scan"}, "fusion_lat": 0.0, "is_reserved": 0, "lat": 38.90346866666667, "name": "d587eb42ac05bef20525882a70905ad0", "bike_id": "d587eb42ac05bef20525882a70905ad0", "is_disabled": 0, "fusion_lon": 0.0, "type": "electric_scooter", "lon": -76.986213}, {"rental_uris": {"android": "https://dc.lft.to/lastmile_qr_scan", "ios": "https://dc.lft.to/lastmile_qr_scan"}, "fusion_lat": 0.0, "is_reserved": 0, "lat": 38.9376175, "name": "ce766707177c4efb81eb076ac617e3be", "bike_id": "ce766707177c4efb81eb076ac617e3be", "is_disabled": 0, "fusion_lon": 0.0, "type": "electric_scooter", "lon": -77.02476133333333}, {"rental_uris": {"android": "https://dc.lft.to/lastmile_qr_scan", "ios": "https://dc.lft.to/lastmile_qr_scan"}, "fusion_lat": 0.0, "is_reserved": 0, "lat": 38.90051, "name": "a26434627241e2ad8b51468f52fc251e", "bike_id": "a26434627241e2ad8b51468f52fc251e", "is_disabled": 0, "fusion_lon": 0.0, "type": "electric_scooter", "lon": -77.02616716666667}, {"rental_uris": {"android": "https://dc.lft.to/lastmile_qr_scan", "ios": "https://dc.lft.to/lastmile_qr_scan"}, "fusion_lat": 0.0, "is_reserved": 0, "lat": 38.92212, "name": "beff818a653ef064ab0a57f6ad7b1db8", "bike_id": "beff818a653ef064ab0a57f6ad7b1db8", "is_disabled": 0, "fusion_lon": 0.0, "type": "electric_scooter", "lon": -77.037623}, {"rental_uris": {"android": "https://dc.lft.to/lastmile_qr_scan", "ios": "https://dc.lft.to/lastmile_qr_scan"}, "fusion_lat": 0.0, "is_reserved": 0, "lat": 38.899624, "name": "86014c18974ec88e69ecdc26be990801", "bike_id": "86014c18974ec88e69ecdc26be990801", "is_disabled": 0, "fusion_lon": 0.0, "type": "electric_scooter", "lon": -77.016337}, {"rental_uris": {"android": "https://dc.lft.to/lastmile_qr_scan", "ios": "https://dc.lft.to/lastmile_qr_scan"}, "fusion_lat": 0.0, "is_reserved": 0, "lat": 38.875359, "name": "ee3dffea71054906c82b8d89ff7217e6", "bike_id": "ee3dffea71054906c82b8d89ff7217e6", "is_disabled": 0, "fusion_lon": 0.0, "type": "electric_scooter", "lon": -77.01738633333333}, {"rental_uris": {"android": "https://dc.lft.to/lastmile_qr_scan", "ios": "https://dc.lft.to/lastmile_qr_scan"}, "fusion_lat": 0.0, "is_reserved": 0, "lat": 38.973702, "name": "1a3b24db2b7a7a45d2ae918b2e70e771", "bike_id": "1a3b24db2b7a7a45d2ae918b2e70e771", "is_disabled": 0, "fusion_lon": 0.0, "type": "electric_scooter", "lon": -77.02673416666667}, {"rental_uris": {"android": "https://dc.lft.to/lastmile_qr_scan", "ios": "https://dc.lft.to/lastmile_qr_scan"}, "fusion_lat": 0.0, "is_reserved": 0, "lat": 38.8930785, "name": "2c6559c182f425b0f0cd4fa94e824a09", "bike_id": "2c6559c182f425b0f0cd4fa94e824a09", "is_disabled": 0, "fusion_lon": 0.0, "type": "electric_scooter", "lon": -76.93976766666667}, {"rental_uris": {"android": "https://dc.lft.to/lastmile_qr_scan", "ios": "https://dc.lft.to/lastmile_qr_scan"}, "fusion_lat": 0.0, "is_reserved": 0, "lat": 38.912662833333336, "name": "8a52ef243c859491a06609f350107ab9", "bike_id": "8a52ef243c859491a06609f350107ab9", "is_disabled": 0, "fusion_lon": 0.0, "type": "electric_scooter", "lon": -77.022155}, {"rental_uris": {"android": "https://dc.lft.to/lastmile_qr_scan", "ios": "https://dc.lft.to/lastmile_qr_scan"}, "fusion_lat": 0.0, "is_reserved": 0, "lat": 38.955404, "name": "c011e14a52547e5a607f6e840d4d1b50", "bike_id": "c011e14a52547e5a607f6e840d4d1b50", "is_disabled": 0, "fusion_lon": 0.0, "type": "electric_scooter", "lon": -76.9957095}, {"rental_uris": {"android": "https://dc.lft.to/lastmile_qr_scan", "ios": "https://dc.lft.to/lastmile_qr_scan"}, "fusion_lat": 0.0, "is_reserved": 0, "lat": 38.905706333333335, "name": "fb7536681e6d45d7621918280113d24a", "bike_id": "fb7536681e6d45d7621918280113d24a", "is_disabled": 0, "fusion_lon": 0.0, "type": "electric_scooter", "lon": -77.022184}, {"rental_uris": {"android": "https://dc.lft.to/lastmile_qr_scan", "ios": "https://dc.lft.to/lastmile_qr_scan"}, "fusion_lat": 0.0, "is_reserved": 0, "lat": 38.900552, "name": "69b017a27e6924986c3eebaac9c91574", "bike_id": "69b017a27e6924986c3eebaac9c91574", "is_disabled": 0, "fusion_lon": 0.0, "type": "electric_scooter", "lon": -77.00216133333333}, {"rental_uris": {"android": "https://dc.lft.to/lastmile_qr_scan", "ios": "https://dc.lft.to/lastmile_qr_scan"}, "fusion_lat": 0.0, "is_reserved": 0, "lat": 38.912762, "name": "1ce26ded5e5ff83f3f69fb073ba85ee4", "bike_id": "1ce26ded5e5ff83f3f69fb073ba85ee4", "is_disabled": 0, "fusion_lon": 0.0, "type": "electric_scooter", "lon": -77.02215216666667}, {"rental_uris": {"android": "https://dc.lft.to/lastmile_qr_scan", "ios": "https://dc.lft.to/lastmile_qr_scan"}, "fusion_lat": 0.0, "is_reserved": 0, "lat": 38.895357833333335, "name": "6405660f551fdec296114c1e7361d527", "bike_id": "6405660f551fdec296114c1e7361d527", "is_disabled": 0, "fusion_lon": 0.0, "type": "electric_scooter", "lon": -77.0335715}, {"rental_uris": {"android": "https://dc.lft.to/lastmile_qr_scan", "ios": "https://dc.lft.to/lastmile_qr_scan"}, "fusion_lat": 0.0, "is_reserved": 0, "lat": 38.8571415, "name": "500c96ac7b724a9dc1b9d5fdf9869046", "bike_id": "500c96ac7b724a9dc1b9d5fdf9869046", "is_disabled": 0, "fusion_lon": 0.0, "type": "electric_scooter", "lon": -76.971822}, {"rental_uris": {"android": "https://dc.lft.to/lastmile_qr_scan", "ios": "https://dc.lft.to/lastmile_qr_scan"}, "fusion_lat": 0.0, "is_reserved": 0, "lat": 38.891022666666665, "name": "996fcb15fc21f5507287064bcc089be2", "bike_id": "996fcb15fc21f5507287064bcc089be2", "is_disabled": 0, "fusion_lon": 0.0, "type": "electric_scooter", "lon": -77.00211683333333}, {"rental_uris": {"android": "https://dc.lft.to/lastmile_qr_scan", "ios": "https://dc.lft.to/lastmile_qr_scan"}, "fusion_lat": 0.0, "is_reserved": 0, "lat": 38.94975766666667, "name": "fbc11289d231dc942bd3716e5f0d2eb1", "bike_id": "fbc11289d231dc942bd3716e5f0d2eb1", "is_disabled": 0, "fusion_lon": 0.0, "type": "electric_scooter", "lon": -77.02456933333333}, {"rental_uris": {"android": "https://dc.lft.to/lastmile_qr_scan", "ios": "https://dc.lft.to/lastmile_qr_scan"}, "fusion_lat": 0.0, "is_reserved": 0, "lat": 38.923489333333336, "name": "d0e641aa7295f6fcb4053de0e67da5df", "bike_id": "d0e641aa7295f6fcb4053de0e67da5df", "is_disabled": 0, "fusion_lon": 0.0, "type": "electric_scooter", "lon": -77.05090683333333}, {"rental_uris": {"android": "https://dc.lft.to/lastmile_qr_scan", "ios": "https://dc.lft.to/lastmile_qr_scan"}, "fusion_lat": 0.0, "is_reserved": 0, "lat": 38.901649666666664, "name": "4133e282ee379d48f700ca6a135b1734", "bike_id": "4133e282ee379d48f700ca6a135b1734", "is_disabled": 0, "fusion_lon": 0.0, "type": "electric_scooter", "lon": -77.04879666666666}, {"rental_uris": {"android": "https://dc.lft.to/lastmile_qr_scan", "ios": "https://dc.lft.to/lastmile_qr_scan"}, "fusion_lat": 0.0, "is_reserved": 0, "lat": 38.89847, "name": "084c0b5b2781ca0679fe1d214176ac6b", "bike_id": "084c0b5b2781ca0679fe1d214176ac6b", "is_disabled": 0, "fusion_lon": 0.0, "type": "electric_scooter", "lon": -77.02712933333333}, {"rental_uris": {"android": "https://dc.lft.to/lastmile_qr_scan", "ios": "https://dc.lft.to/lastmile_qr_scan"}, "fusion_lat": 0.0, "is_reserved": 0, "lat": 38.9242335, "name": "ddb4497f774ebda52343f250dcb2b82b", "bike_id": "ddb4497f774ebda52343f250dcb2b82b", "is_disabled": 0, "fusion_lon": 0.0, "type": "electric_scooter", "lon": -77.03618583333333}, {"rental_uris": {"android": "https://dc.lft.to/lastmile_qr_scan", "ios": "https://dc.lft.to/lastmile_qr_scan"}, "fusion_lat": 0.0, "is_reserved": 0, "lat": 38.943183166666664, "name": "5123800df1dc7e82ec23ffca3e873e6d", "bike_id": "5123800df1dc7e82ec23ffca3e873e6d", "is_disabled": 0, "fusion_lon": 0.0, "type": "electric_bike", "lon": -76.99019383333334}, {"rental_uris": {"android": "https://dc.lft.to/lastmile_qr_scan", "ios": "https://dc.lft.to/lastmile_qr_scan"}, "fusion_lat": 0.0, "is_reserved": 0, "lat": 38.877386333333334, "name": "c5e18eb3792a0a76ede091690345e2e1", "bike_id": "c5e18eb3792a0a76ede091690345e2e1", "is_disabled": 0, "fusion_lon": 0.0, "type": "electric_scooter", "lon": -77.006057}, {"rental_uris": {"android": "https://dc.lft.to/lastmile_qr_scan", "ios": "https://dc.lft.to/lastmile_qr_scan"}, "fusion_lat": 0.0, "is_reserved": 0, "lat": 38.920958166666665, "name": "e9a44dc3173cc675a702c99b9018da92", "bike_id": "e9a44dc3173cc675a702c99b9018da92", "is_disabled": 0, "fusion_lon": 0.0, "type": "electric_scooter", "lon": -77.021926}, {"rental_uris": {"android": "https://dc.lft.to/lastmile_qr_scan", "ios": "https://dc.lft.to/lastmile_qr_scan"}, "fusion_lat": 0.0, "is_reserved": 0, "lat": 38.897503, "name": "9466f05b058d1fa134ae409b4c294e73", "bike_id": "9466f05b058d1fa134ae409b4c294e73", "is_disabled": 0, "fusion_lon": 0.0, "type": "electric_scooter", "lon": -76.97683716666667}, {"rental_uris": {"android": "https://dc.lft.to/lastmile_qr_scan", "ios": "https://dc.lft.to/lastmile_qr_scan"}, "fusion_lat": 0.0, "is_reserved": 0, "lat": 38.9036545, "name": "dfc87adb0c91941fe02f4ba242e7d09b", "bike_id": "dfc87adb0c91941fe02f4ba242e7d09b", "is_disabled": 0, "fusion_lon": 0.0, "type": "electric_scooter", "lon": -77.03526366666667}, {"rental_uris": {"android": "https://dc.lft.to/lastmile_qr_scan", "ios": "https://dc.lft.to/lastmile_qr_scan"}, "fusion_lat": 0.0, "is_reserved": 0, "lat": 38.91262533333333, "name": "99d3bfe05998a3f5231da36bdb2dea3e", "bike_id": "99d3bfe05998a3f5231da36bdb2dea3e", "is_disabled": 0, "fusion_lon": 0.0, "type": "electric_scooter", "lon": -77.04555833333333}, {"rental_uris": {"android": "https://dc.lft.to/lastmile_qr_scan", "ios": "https://dc.lft.to/lastmile_qr_scan"}, "fusion_lat": 0.0, "is_reserved": 0, "lat": 38.89228266666667, "name": "53d0b08418905cfa9ae1de81d5db1db6", "bike_id": "53d0b08418905cfa9ae1de81d5db1db6", "is_disabled": 0, "fusion_lon": 0.0, "type": "electric_scooter", "lon": -77.03181566666666}, {"rental_uris": {"android": "https://dc.lft.to/lastmile_qr_scan", "ios": "https://dc.lft.to/lastmile_qr_scan"}, "fusion_lat": 0.0, "is_reserved": 0, "lat": 38.80674633333334, "name": "d1f8c003b0b61cea9dbd50e461021f84", "bike_id": "d1f8c003b0b61cea9dbd50e461021f84", "is_disabled": 0, "fusion_lon": 0.0, "type": "electric_bike", "lon": -77.08761533333333}, {"rental_uris": {"android": "https://dc.lft.to/lastmile_qr_scan", "ios": "https://dc.lft.to/lastmile_qr_scan"}, "fusion_lat": 0.0, "is_reserved": 0, "lat": 38.923663, "name": "548eeb144bfbf98a7fd276d4b332bb7f", "bike_id": "548eeb144bfbf98a7fd276d4b332bb7f", "is_disabled": 0, "fusion_lon": 0.0, "type": "electric_scooter", "lon": -77.0502975}, {"rental_uris": {"android": "https://dc.lft.to/lastmile_qr_scan", "ios": "https://dc.lft.to/lastmile_qr_scan"}, "fusion_lat": 0.0, "is_reserved": 0, "lat": 38.925249, "name": "f5d6ad43c74afd20bd5a91d3901a3d6b", "bike_id": "f5d6ad43c74afd20bd5a91d3901a3d6b", "is_disabled": 0, "fusion_lon": 0.0, "type": "electric_scooter", "lon": -77.05563}, {"rental_uris": {"android": "https://dc.lft.to/lastmile_qr_scan", "ios": "https://dc.lft.to/lastmile_qr_scan"}, "fusion_lat": 0.0, "is_reserved": 0, "lat": 38.9001295, "name": "970739dad675331224aca815c0ec296d", "bike_id": "970739dad675331224aca815c0ec296d", "is_disabled": 0, "fusion_lon": 0.0, "type": "electric_scooter", "lon": -77.043329}, {"rental_uris": {"android": "https://dc.lft.to/lastmile_qr_scan", "ios": "https://dc.lft.to/lastmile_qr_scan"}, "fusion_lat": 0.0, "is_reserved": 0, "lat": 38.96025933333333, "name": "331045ddf8ab97f9fa5a6ca5664d09ba", "bike_id": "331045ddf8ab97f9fa5a6ca5664d09ba", "is_disabled": 0, "fusion_lon": 0.0, "type": "electric_scooter", "lon": -77.02428}, {"rental_uris": {"android": "https://dc.lft.to/lastmile_qr_scan", "ios": "https://dc.lft.to/lastmile_qr_scan"}, "fusion_lat": 0.0, "is_reserved": 0, "lat": 38.898576166666665, "name": "6a57946d819be4740283c9e699cdfb5a", "bike_id": "6a57946d819be4740283c9e699cdfb5a", "is_disabled": 0, "fusion_lon": 0.0, "type": "electric_scooter", "lon": -77.04883416666667}, {"rental_uris": {"android": "https://dc.lft.to/lastmile_qr_scan", "ios": "https://dc.lft.to/lastmile_qr_scan"}, "fusion_lat": 0.0, "is_reserved": 0, "lat": 38.913365, "name": "1256cd99c19c7becd03e4f116a8686cc", "bike_id": "1256cd99c19c7becd03e4f116a8686cc", "is_disabled": 0, "fusion_lon": 0.0, "type": "electric_scooter", "lon": -77.032056}, {"rental_uris": {"android": "https://dc.lft.to/lastmile_qr_scan", "ios": "https://dc.lft.to/lastmile_qr_scan"}, "fusion_lat": 0.0, "is_reserved": 0, "lat": 38.93898683333333, "name": "54e449a8eb0431f93187413059e985ed", "bike_id": "54e449a8eb0431f93187413059e985ed", "is_disabled": 0, "fusion_lon": 0.0, "type": "electric_scooter", "lon": -77.01764316666667}, {"rental_uris": {"android": "https://dc.lft.to/lastmile_qr_scan", "ios": "https://dc.lft.to/lastmile_qr_scan"}, "fusion_lat": 0.0, "is_reserved": 0, "lat": 38.855941, "name": "0ae2b836d6ae0294f9987ce99c963fb2", "bike_id": "0ae2b836d6ae0294f9987ce99c963fb2", "is_disabled": 0, "fusion_lon": 0.0, "type": "electric_bike", "lon": -76.97458583333334}, {"rental_uris": {"android": "https://dc.lft.to/lastmile_qr_scan", "ios": "https://dc.lft.to/lastmile_qr_scan"}, "fusion_lat": 0.0, "is_reserved": 0, "lat": 38.90734833333333, "name": "ddb2cac5341dee69de2b00e6ed3bd73e", "bike_id": "ddb2cac5341dee69de2b00e6ed3bd73e", "is_disabled": 0, "fusion_lon": 0.0, "type": "electric_scooter", "lon": -77.02321683333334}, {"rental_uris": {"android": "https://dc.lft.to/lastmile_qr_scan", "ios": "https://dc.lft.to/lastmile_qr_scan"}, "fusion_lat": 0.0, "is_reserved": 0, "lat": 38.896002333333335, "name": "7d018959daf3b2cd0dbc52e74db56018", "bike_id": "7d018959daf3b2cd0dbc52e74db56018", "is_disabled": 0, "fusion_lon": 0.0, "type": "electric_scooter", "lon": -77.02217866666666}, {"rental_uris": {"android": "https://dc.lft.to/lastmile_qr_scan", "ios": "https://dc.lft.to/lastmile_qr_scan"}, "fusion_lat": 0.0, "is_reserved": 0, "lat": 38.87179116666667, "name": "feada262eedc0b0195807c8978d2ef01", "bike_id": "feada262eedc0b0195807c8978d2ef01", "is_disabled": 0, "fusion_lon": 0.0, "type": "electric_scooter", "lon": -77.00615366666666}, {"rental_uris": {"android": "https://dc.lft.to/lastmile_qr_scan", "ios": "https://dc.lft.to/lastmile_qr_scan"}, "fusion_lat": 0.0, "is_reserved": 0, "lat": 38.8784795, "name": "7fbbc33634bd5afedb5bbe9a962acada", "bike_id": "7fbbc33634bd5afedb5bbe9a962acada", "is_disabled": 0, "fusion_lon": 0.0, "type": "electric_scooter", "lon": -77.02235483333334}, {"rental_uris": {"android": "https://dc.lft.to/lastmile_qr_scan", "ios": "https://dc.lft.to/lastmile_qr_scan"}, "fusion_lat": 0.0, "is_reserved": 0, "lat": 38.893624833333334, "name": "eb629b3f294de1e4d6c38c4d66338ab5", "bike_id": "eb629b3f294de1e4d6c38c4d66338ab5", "is_disabled": 0, "fusion_lon": 0.0, "type": "electric_scooter", "lon": -77.003333}, {"rental_uris": {"android": "https://dc.lft.to/lastmile_qr_scan", "ios": "https://dc.lft.to/lastmile_qr_scan"}, "fusion_lat": 0.0, "is_reserved": 0, "lat": 38.907770166666666, "name": "e1ff85408cfd5e25b8de407b22a46638", "bike_id": "e1ff85408cfd5e25b8de407b22a46638", "is_disabled": 0, "fusion_lon": 0.0, "type": "electric_scooter", "lon": -77.03759033333333}, {"rental_uris": {"android": "https://dc.lft.to/lastmile_qr_scan", "ios": "https://dc.lft.to/lastmile_qr_scan"}, "fusion_lat": 0.0, "is_reserved": 0, "lat": 38.9200075, "name": "82c35b9168826275817e437fede4398d", "bike_id": "82c35b9168826275817e437fede4398d", "is_disabled": 0, "fusion_lon": 0.0, "type": "electric_scooter", "lon": -77.03221883333333}, {"rental_uris": {"android": "https://dc.lft.to/lastmile_qr_scan", "ios": "https://dc.lft.to/lastmile_qr_scan"}, "fusion_lat": 0.0, "is_reserved": 0, "lat": 38.91297616666667, "name": "8081d6b5b404b398bfd65f8f683d57c5", "bike_id": "8081d6b5b404b398bfd65f8f683d57c5", "is_disabled": 0, "fusion_lon": 0.0, "type": "electric_scooter", "lon": -76.98548516666666}, {"rental_uris": {"android": "https://dc.lft.to/lastmile_qr_scan", "ios": "https://dc.lft.to/lastmile_qr_scan"}, "fusion_lat": 0.0, "is_reserved": 0, "lat": 38.924753333333335, "name": "866d8f69d29b8001fdc3fbaac586f8b1", "bike_id": "866d8f69d29b8001fdc3fbaac586f8b1", "is_disabled": 0, "fusion_lon": 0.0, "type": "electric_scooter", "lon": -77.02216833333334}, {"rental_uris": {"android": "https://dc.lft.to/lastmile_qr_scan", "ios": "https://dc.lft.to/lastmile_qr_scan"}, "fusion_lat": 0.0, "is_reserved": 0, "lat": 38.95213233333333, "name": "827416b6a27ce60a0ffac1fddc601bb9", "bike_id": "827416b6a27ce60a0ffac1fddc601bb9", "is_disabled": 0, "fusion_lon": 0.0, "type": "electric_scooter", "lon": -77.0696595}, {"rental_uris": {"android": "https://dc.lft.to/lastmile_qr_scan", "ios": "https://dc.lft.to/lastmile_qr_scan"}, "fusion_lat": 0.0, "is_reserved": 0, "lat": 38.914164666666665, "name": "c352fe4582c67f9229a6e0e027c169a8", "bike_id": "c352fe4582c67f9229a6e0e027c169a8", "is_disabled": 0, "fusion_lon": 0.0, "type": "electric_scooter", "lon": -77.03170216666666}, {"rental_uris": {"android": "https://dc.lft.to/lastmile_qr_scan", "ios": "https://dc.lft.to/lastmile_qr_scan"}, "fusion_lat": 0.0, "is_reserved": 0, "lat": 38.91913916666667, "name": "caeb83500644e79f8c333daba6eaef03", "bike_id": "caeb83500644e79f8c333daba6eaef03", "is_disabled": 0, "fusion_lon": 0.0, "type": "electric_scooter", "lon": -77.0318375}, {"rental_uris": {"android": "https://dc.lft.to/lastmile_qr_scan", "ios": "https://dc.lft.to/lastmile_qr_scan"}, "fusion_lat": 0.0, "is_reserved": 0, "lat": 38.906429, "name": "60c3a42e0a5f98be1d8b560fa91e508d", "bike_id": "60c3a42e0a5f98be1d8b560fa91e508d", "is_disabled": 0, "fusion_lon": 0.0, "type": "electric_scooter", "lon": -77.00584066666667}, {"rental_uris": {"android": "https://dc.lft.to/lastmile_qr_scan", "ios": "https://dc.lft.to/lastmile_qr_scan"}, "fusion_lat": 0.0, "is_reserved": 0, "lat": 38.90332033333333, "name": "bdcded88a910c9847ae8a523c785036d", "bike_id": "bdcded88a910c9847ae8a523c785036d", "is_disabled": 0, "fusion_lon": 0.0, "type": "electric_scooter", "lon": -76.97591666666666}, {"rental_uris": {"android": "https://dc.lft.to/lastmile_qr_scan", "ios": "https://dc.lft.to/lastmile_qr_scan"}, "fusion_lat": 0.0, "is_reserved": 0, "lat": 38.8970805, "name": "4d86c9d1d94b4b8719e30f3e2b814e08", "bike_id": "4d86c9d1d94b4b8719e30f3e2b814e08", "is_disabled": 0, "fusion_lon": 0.0, "type": "electric_scooter", "lon": -76.99120733333334}, {"rental_uris": {"android": "https://dc.lft.to/lastmile_qr_scan", "ios": "https://dc.lft.to/lastmile_qr_scan"}, "fusion_lat": 0.0, "is_reserved": 0, "lat": 38.9003425, "name": "7df6906ecdd7adf1f5cd5244bc81c237", "bike_id": "7df6906ecdd7adf1f5cd5244bc81c237", "is_disabled": 0, "fusion_lon": 0.0, "type": "electric_scooter", "lon": -77.01193383333333}, {"rental_uris": {"android": "https://dc.lft.to/lastmile_qr_scan", "ios": "https://dc.lft.to/lastmile_qr_scan"}, "fusion_lat": 0.0, "is_reserved": 0, "lat": 38.92437266666666, "name": "28d43af06db02177ab3fc8a64f53fd7c", "bike_id": "28d43af06db02177ab3fc8a64f53fd7c", "is_disabled": 0, "fusion_lon": 0.0, "type": "electric_scooter", "lon": -77.0203415}, {"rental_uris": {"android": "https://dc.lft.to/lastmile_qr_scan", "ios": "https://dc.lft.to/lastmile_qr_scan"}, "fusion_lat": 0.0, "is_reserved": 0, "lat": 38.980830166666664, "name": "572656d90865f9d1aaab69d46641e237", "bike_id": "572656d90865f9d1aaab69d46641e237", "is_disabled": 0, "fusion_lon": 0.0, "type": "electric_bike", "lon": -77.02610616666666}, {"rental_uris": {"android": "https://dc.lft.to/lastmile_qr_scan", "ios": "https://dc.lft.to/lastmile_qr_scan"}, "fusion_lat": 0.0, "is_reserved": 0, "lat": 38.917956, "name": "d2ea90af3237929f86989a0302c4b94a", "bike_id": "d2ea90af3237929f86989a0302c4b94a", "is_disabled": 0, "fusion_lon": 0.0, "type": "electric_scooter", "lon": -77.04012583333333}, {"rental_uris": {"android": "https://dc.lft.to/lastmile_qr_scan", "ios": "https://dc.lft.to/lastmile_qr_scan"}, "fusion_lat": 0.0, "is_reserved": 0, "lat": 38.913385, "name": "e6104418f051189fbcdcbf06a92f5b70", "bike_id": "e6104418f051189fbcdcbf06a92f5b70", "is_disabled": 0, "fusion_lon": 0.0, "type": "electric_scooter", "lon": -77.03993983333334}, {"rental_uris": {"android": "https://dc.lft.to/lastmile_qr_scan", "ios": "https://dc.lft.to/lastmile_qr_scan"}, "fusion_lat": 0.0, "is_reserved": 0, "lat": 38.9378515, "name": "4664588cbe0b391582de26816b8b08fa", "bike_id": "4664588cbe0b391582de26816b8b08fa", "is_disabled": 0, "fusion_lon": 0.0, "type": "electric_scooter", "lon": -77.02255016666666}, {"rental_uris": {"android": "https://dc.lft.to/lastmile_qr_scan", "ios": "https://dc.lft.to/lastmile_qr_scan"}, "fusion_lat": 0.0, "is_reserved": 0, "lat": 38.92328033333333, "name": "f9e86c4f90fc8f37e73642ec52e97809", "bike_id": "f9e86c4f90fc8f37e73642ec52e97809", "is_disabled": 0, "fusion_lon": 0.0, "type": "electric_scooter", "lon": -77.01962483333334}, {"rental_uris": {"android": "https://dc.lft.to/lastmile_qr_scan", "ios": "https://dc.lft.to/lastmile_qr_scan"}, "fusion_lat": 0.0, "is_reserved": 0, "lat": 38.85436383333333, "name": "658f6e82e92ac9f9d84c5a125f5efd72", "bike_id": "658f6e82e92ac9f9d84c5a125f5efd72", "is_disabled": 0, "fusion_lon": 0.0, "type": "electric_bike", "lon": -77.083195}, {"rental_uris": {"android": "https://dc.lft.to/lastmile_qr_scan", "ios": "https://dc.lft.to/lastmile_qr_scan"}, "fusion_lat": 0.0, "is_reserved": 0, "lat": 38.923602, "name": "d324bc4adb8c11f3bdc6f64c198c65e5", "bike_id": "d324bc4adb8c11f3bdc6f64c198c65e5", "is_disabled": 0, "fusion_lon": 0.0, "type": "electric_scooter", "lon": -77.05236633333334}, {"rental_uris": {"android": "https://dc.lft.to/lastmile_qr_scan", "ios": "https://dc.lft.to/lastmile_qr_scan"}, "fusion_lat": 0.0, "is_reserved": 0, "lat": 38.927477833333334, "name": "e25d6f1e438dd6555c045427f626fed8", "bike_id": "e25d6f1e438dd6555c045427f626fed8", "is_disabled": 0, "fusion_lon": 0.0, "type": "electric_scooter", "lon": -77.03277366666667}, {"rental_uris": {"android": "https://dc.lft.to/lastmile_qr_scan", "ios": "https://dc.lft.to/lastmile_qr_scan"}, "fusion_lat": 0.0, "is_reserved": 0, "lat": 38.946772833333334, "name": "9daac5fb02a01414ff08bb7b6d31e0c2", "bike_id": "9daac5fb02a01414ff08bb7b6d31e0c2", "is_disabled": 0, "fusion_lon": 0.0, "type": "electric_bike", "lon": -76.99330766666667}, {"rental_uris": {"android": "https://dc.lft.to/lastmile_qr_scan", "ios": "https://dc.lft.to/lastmile_qr_scan"}, "fusion_lat": 0.0, "is_reserved": 0, "lat": 38.998816166666664, "name": "cb9f0d95ca97866bdec193bc16c3c53d", "bike_id": "cb9f0d95ca97866bdec193bc16c3c53d", "is_disabled": 0, "fusion_lon": 0.0, "type": "electric_bike", "lon": -76.90865716666667}, {"rental_uris": {"android": "https://dc.lft.to/lastmile_qr_scan", "ios": "https://dc.lft.to/lastmile_qr_scan"}, "fusion_lat": 0.0, "is_reserved": 0, "lat": 38.95910583333333, "name": "bd575e2d1ce6aac06eac278348850898", "bike_id": "bd575e2d1ce6aac06eac278348850898", "is_disabled": 0, "fusion_lon": 0.0, "type": "electric_scooter", "lon": -77.0001905}, {"rental_uris": {"android": "https://dc.lft.to/lastmile_qr_scan", "ios": "https://dc.lft.to/lastmile_qr_scan"}, "fusion_lat": 0.0, "is_reserved": 0, "lat": 38.9181835, "name": "81506d5d145198cc30cfe849775e64e1", "bike_id": "81506d5d145198cc30cfe849775e64e1", "is_disabled": 0, "fusion_lon": 0.0, "type": "electric_scooter", "lon": -77.02477683333333}, {"rental_uris": {"android": "https://dc.lft.to/lastmile_qr_scan", "ios": "https://dc.lft.to/lastmile_qr_scan"}, "fusion_lat": 0.0, "is_reserved": 0, "lat": 38.889889333333336, "name": "f999b0feaaafb4d5382f6ab075a41e99", "bike_id": "f999b0feaaafb4d5382f6ab075a41e99", "is_disabled": 0, "fusion_lon": 0.0, "type": "electric_scooter", "lon": -76.992497}, {"rental_uris": {"android": "https://dc.lft.to/lastmile_qr_scan", "ios": "https://dc.lft.to/lastmile_qr_scan"}, "fusion_lat": 0.0, "is_reserved": 0, "lat": 38.9228215, "name": "8b2e902cbbbe53367e30bf65fd4303ec", "bike_id": "8b2e902cbbbe53367e30bf65fd4303ec", "is_disabled": 0, "fusion_lon": 0.0, "type": "electric_scooter", "lon": -77.03660816666667}, {"rental_uris": {"android": "https://dc.lft.to/lastmile_qr_scan", "ios": "https://dc.lft.to/lastmile_qr_scan"}, "fusion_lat": 0.0, "is_reserved": 0, "lat": 38.904925666666664, "name": "54052dd95e50f039350156d73eb9e18c", "bike_id": "54052dd95e50f039350156d73eb9e18c", "is_disabled": 0, "fusion_lon": 0.0, "type": "electric_scooter", "lon": -76.97738716666667}, {"rental_uris": {"android": "https://dc.lft.to/lastmile_qr_scan", "ios": "https://dc.lft.to/lastmile_qr_scan"}, "fusion_lat": 0.0, "is_reserved": 0, "lat": 38.9426155, "name": "00afbe3d52ae8f2ddbc27724ea5b17a2", "bike_id": "00afbe3d52ae8f2ddbc27724ea5b17a2", "is_disabled": 0, "fusion_lon": 0.0, "type": "electric_bike", "lon": -76.99070316666666}, {"rental_uris": {"android": "https://dc.lft.to/lastmile_qr_scan", "ios": "https://dc.lft.to/lastmile_qr_scan"}, "fusion_lat": 0.0, "is_reserved": 0, "lat": 38.879933333333334, "name": "f51ff5c83a41af75802f9cf7189f0d0c", "bike_id": "f51ff5c83a41af75802f9cf7189f0d0c", "is_disabled": 0, "fusion_lon": 0.0, "type": "electric_scooter", "lon": -76.98400466666666}, {"rental_uris": {"android": "https://dc.lft.to/lastmile_qr_scan", "ios": "https://dc.lft.to/lastmile_qr_scan"}, "fusion_lat": 0.0, "is_reserved": 0, "lat": 38.903388666666665, "name": "c1a60de398abd45c177c5628155f3b9b", "bike_id": "c1a60de398abd45c177c5628155f3b9b", "is_disabled": 0, "fusion_lon": 0.0, "type": "electric_scooter", "lon": -76.98235116666666}, {"rental_uris": {"android": "https://dc.lft.to/lastmile_qr_scan", "ios": "https://dc.lft.to/lastmile_qr_scan"}, "fusion_lat": 0.0, "is_reserved": 0, "lat": 38.89468466666667, "name": "5594fd8cac6e9bd46e2d3428a916f79d", "bike_id": "5594fd8cac6e9bd46e2d3428a916f79d", "is_disabled": 0, "fusion_lon": 0.0, "type": "electric_scooter", "lon": -76.99713633333333}, {"rental_uris": {"android": "https://dc.lft.to/lastmile_qr_scan", "ios": "https://dc.lft.to/lastmile_qr_scan"}, "fusion_lat": 0.0, "is_reserved": 0, "lat": 38.866227333333335, "name": "08e1f3cf4cea84399fae1f5960170920", "bike_id": "08e1f3cf4cea84399fae1f5960170920", "is_disabled": 0, "fusion_lon": 0.0, "type": "electric_bike", "lon": -76.94572683333334}, {"rental_uris": {"android": "https://dc.lft.to/lastmile_qr_scan", "ios": "https://dc.lft.to/lastmile_qr_scan"}, "fusion_lat": 0.0, "is_reserved": 0, "lat": 38.901728166666665, "name": "36a4a2b9686a1ac43eee5b701e00ff48", "bike_id": "36a4a2b9686a1ac43eee5b701e00ff48", "is_disabled": 0, "fusion_lon": 0.0, "type": "electric_scooter", "lon": -77.02491283333333}, {"rental_uris": {"android": "https://dc.lft.to/lastmile_qr_scan", "ios": "https://dc.lft.to/lastmile_qr_scan"}, "fusion_lat": 0.0, "is_reserved": 0, "lat": 38.93067116666667, "name": "02914618c0aa3ca5c0069eede570a765", "bike_id": "02914618c0aa3ca5c0069eede570a765", "is_disabled": 0, "fusion_lon": 0.0, "type": "electric_scooter", "lon": -77.03735516666667}, {"rental_uris": {"android": "https://dc.lft.to/lastmile_qr_scan", "ios": "https://dc.lft.to/lastmile_qr_scan"}, "fusion_lat": 0.0, "is_reserved": 0, "lat": 38.91692, "name": "73a73a11047a0ca10253d833628227e5", "bike_id": "73a73a11047a0ca10253d833628227e5", "is_disabled": 0, "fusion_lon": 0.0, "type": "electric_scooter", "lon": -77.0229845}, {"rental_uris": {"android": "https://dc.lft.to/lastmile_qr_scan", "ios": "https://dc.lft.to/lastmile_qr_scan"}, "fusion_lat": 0.0, "is_reserved": 0, "lat": 38.906752166666664, "name": "667a88be2e489902e968d0c209845366", "bike_id": "667a88be2e489902e968d0c209845366", "is_disabled": 0, "fusion_lon": 0.0, "type": "electric_scooter", "lon": -77.026934}, {"rental_uris": {"android": "https://dc.lft.to/lastmile_qr_scan", "ios": "https://dc.lft.to/lastmile_qr_scan"}, "fusion_lat": 0.0, "is_reserved": 0, "lat": 38.910729333333336, "name": "5b8d6d89e607e5ff7496c02d9c4f50d0", "bike_id": "5b8d6d89e607e5ff7496c02d9c4f50d0", "is_disabled": 0, "fusion_lon": 0.0, "type": "electric_scooter", "lon": -77.02721483333333}, {"rental_uris": {"android": "https://dc.lft.to/lastmile_qr_scan", "ios": "https://dc.lft.to/lastmile_qr_scan"}, "fusion_lat": 0.0, "is_reserved": 0, "lat": 38.94910566666667, "name": "a079353dd6ad25040586696585556e61", "bike_id": "a079353dd6ad25040586696585556e61", "is_disabled": 0, "fusion_lon": 0.0, "type": "electric_scooter", "lon": -77.02070933333333}, {"rental_uris": {"android": "https://dc.lft.to/lastmile_qr_scan", "ios": "https://dc.lft.to/lastmile_qr_scan"}, "fusion_lat": 0.0, "is_reserved": 0, "lat": 38.90158783333333, "name": "b8ea99f3aea1730a249686cf73956690", "bike_id": "b8ea99f3aea1730a249686cf73956690", "is_disabled": 0, "fusion_lon": 0.0, "type": "electric_scooter", "lon": -77.024779}, {"rental_uris": {"android": "https://dc.lft.to/lastmile_qr_scan", "ios": "https://dc.lft.to/lastmile_qr_scan"}, "fusion_lat": 0.0, "is_reserved": 0, "lat": 38.912633666666665, "name": "9a6e9f05ac0a40f7c53e91e512301a90", "bike_id": "9a6e9f05ac0a40f7c53e91e512301a90", "is_disabled": 0, "fusion_lon": 0.0, "type": "electric_scooter", "lon": -77.039354}, {"rental_uris": {"android": "https://dc.lft.to/lastmile_qr_scan", "ios": "https://dc.lft.to/lastmile_qr_scan"}, "fusion_lat": 0.0, "is_reserved": 0, "lat": 38.8826655, "name": "7cecf5c28dc4ce66cffccbe954288684", "bike_id": "7cecf5c28dc4ce66cffccbe954288684", "is_disabled": 0, "fusion_lon": 0.0, "type": "electric_scooter", "lon": -76.99470083333334}, {"rental_uris": {"android": "https://dc.lft.to/lastmile_qr_scan", "ios": "https://dc.lft.to/lastmile_qr_scan"}, "fusion_lat": 0.0, "is_reserved": 0, "lat": 38.910760833333335, "name": "1c37fba7888a76df7e840cd9db347902", "bike_id": "1c37fba7888a76df7e840cd9db347902", "is_disabled": 0, "fusion_lon": 0.0, "type": "electric_scooter", "lon": -77.04612916666666}, {"rental_uris": {"android": "https://dc.lft.to/lastmile_qr_scan", "ios": "https://dc.lft.to/lastmile_qr_scan"}, "fusion_lat": 0.0, "is_reserved": 0, "lat": 38.91763483333333, "name": "f605fcc10095f3fd42e16fc17079588c", "bike_id": "f605fcc10095f3fd42e16fc17079588c", "is_disabled": 0, "fusion_lon": 0.0, "type": "electric_scooter", "lon": -77.0192955}, {"rental_uris": {"android": "https://dc.lft.to/lastmile_qr_scan", "ios": "https://dc.lft.to/lastmile_qr_scan"}, "fusion_lat": 0.0, "is_reserved": 0, "lat": 38.91999366666667, "name": "add731abf4ff398cf52227342cb3a442", "bike_id": "add731abf4ff398cf52227342cb3a442", "is_disabled": 0, "fusion_lon": 0.0, "type": "electric_scooter", "lon": -77.03221883333333}, {"rental_uris": {"android": "https://dc.lft.to/lastmile_qr_scan", "ios": "https://dc.lft.to/lastmile_qr_scan"}, "fusion_lat": 0.0, "is_reserved": 0, "lat": 38.905592666666664, "name": "518f43d675723b9753280c961ee0fef9", "bike_id": "518f43d675723b9753280c961ee0fef9", "is_disabled": 0, "fusion_lon": 0.0, "type": "electric_scooter", "lon": -77.034523}, {"rental_uris": {"android": "https://dc.lft.to/lastmile_qr_scan", "ios": "https://dc.lft.to/lastmile_qr_scan"}, "fusion_lat": 0.0, "is_reserved": 0, "lat": 38.90721083333333, "name": "1b2fc7d6d595be4383f382c95a20e5b1", "bike_id": "1b2fc7d6d595be4383f382c95a20e5b1", "is_disabled": 0, "fusion_lon": 0.0, "type": "electric_scooter", "lon": -77.02681716666666}, {"rental_uris": {"android": "https://dc.lft.to/lastmile_qr_scan", "ios": "https://dc.lft.to/lastmile_qr_scan"}, "fusion_lat": 0.0, "is_reserved": 0, "lat": 38.92680566666667, "name": "c0c019c2af459ce557d9c8cb51611f59", "bike_id": "c0c019c2af459ce557d9c8cb51611f59", "is_disabled": 0, "fusion_lon": 0.0, "type": "electric_scooter", "lon": -77.01533083333334}, {"rental_uris": {"android": "https://dc.lft.to/lastmile_qr_scan", "ios": "https://dc.lft.to/lastmile_qr_scan"}, "fusion_lat": 0.0, "is_reserved": 0, "lat": 38.936009, "name": "f4e8e36b3082c3968c4bc5e663401e80", "bike_id": "f4e8e36b3082c3968c4bc5e663401e80", "is_disabled": 0, "fusion_lon": 0.0, "type": "electric_scooter", "lon": -77.05883183333333}, {"rental_uris": {"android": "https://dc.lft.to/lastmile_qr_scan", "ios": "https://dc.lft.to/lastmile_qr_scan"}, "fusion_lat": 0.0, "is_reserved": 0, "lat": 38.901256000000004, "name": "40d8bd8334867a388862a52084fe15c8", "bike_id": "40d8bd8334867a388862a52084fe15c8", "is_disabled": 0, "fusion_lon": 0.0, "type": "electric_scooter", "lon": -77.03049783333333}, {"rental_uris": {"android": "https://dc.lft.to/lastmile_qr_scan", "ios": "https://dc.lft.to/lastmile_qr_scan"}, "fusion_lat": 0.0, "is_reserved": 0, "lat": 38.89710183333333, "name": "3c8fa9db35ce3d78b10928b9c41ff498", "bike_id": "3c8fa9db35ce3d78b10928b9c41ff498", "is_disabled": 0, "fusion_lon": 0.0, "type": "electric_scooter", "lon": -77.02182366666666}, {"rental_uris": {"android": "https://dc.lft.to/lastmile_qr_scan", "ios": "https://dc.lft.to/lastmile_qr_scan"}, "fusion_lat": 0.0, "is_reserved": 0, "lat": 38.8808005, "name": "61de716a1a1a92a3cd578a0e58ed43b4", "bike_id": "61de716a1a1a92a3cd578a0e58ed43b4", "is_disabled": 0, "fusion_lon": 0.0, "type": "electric_scooter", "lon": -76.98534516666666}, {"rental_uris": {"android": "https://dc.lft.to/lastmile_qr_scan", "ios": "https://dc.lft.to/lastmile_qr_scan"}, "fusion_lat": 0.0, "is_reserved": 0, "lat": 38.90215366666666, "name": "d1b75c862468b6660a607157e9d10cd3", "bike_id": "d1b75c862468b6660a607157e9d10cd3", "is_disabled": 0, "fusion_lon": 0.0, "type": "electric_scooter", "lon": -77.02105566666667}, {"rental_uris": {"android": "https://dc.lft.to/lastmile_qr_scan", "ios": "https://dc.lft.to/lastmile_qr_scan"}, "fusion_lat": 0.0, "is_reserved": 0, "lat": 38.901011, "name": "dec8384a5eeb4de6c76d138f25e27c3a", "bike_id": "dec8384a5eeb4de6c76d138f25e27c3a", "is_disabled": 0, "fusion_lon": 0.0, "type": "electric_scooter", "lon": -77.04991866666667}, {"rental_uris": {"android": "https://dc.lft.to/lastmile_qr_scan", "ios": "https://dc.lft.to/lastmile_qr_scan"}, "fusion_lat": 0.0, "is_reserved": 0, "lat": 38.908210833333335, "name": "1bc3084a853531e5a32ebb1abbcecf60", "bike_id": "1bc3084a853531e5a32ebb1abbcecf60", "is_disabled": 0, "fusion_lon": 0.0, "type": "electric_scooter", "lon": -77.0036375}, {"rental_uris": {"android": "https://dc.lft.to/lastmile_qr_scan", "ios": "https://dc.lft.to/lastmile_qr_scan"}, "fusion_lat": 0.0, "is_reserved": 0, "lat": 38.90691566666667, "name": "1e713550d65d5f92eb510f6025f640f3", "bike_id": "1e713550d65d5f92eb510f6025f640f3", "is_disabled": 0, "fusion_lon": 0.0, "type": "electric_scooter", "lon": -77.0359415}, {"rental_uris": {"android": "https://dc.lft.to/lastmile_qr_scan", "ios": "https://dc.lft.to/lastmile_qr_scan"}, "fusion_lat": 0.0, "is_reserved": 0, "lat": 38.912638, "name": "c8ddfe5232ef60519e3c2db08d4f3ac4", "bike_id": "c8ddfe5232ef60519e3c2db08d4f3ac4", "is_disabled": 0, "fusion_lon": 0.0, "type": "electric_scooter", "lon": -77.00800266666667}, {"rental_uris": {"android": "https://dc.lft.to/lastmile_qr_scan", "ios": "https://dc.lft.to/lastmile_qr_scan"}, "fusion_lat": 0.0, "is_reserved": 0, "lat": 38.85781716666666, "name": "50e0cd6d9b28a7a071c0c394d36e80ea", "bike_id": "50e0cd6d9b28a7a071c0c394d36e80ea", "is_disabled": 0, "fusion_lon": 0.0, "type": "electric_bike", "lon": -76.9876535}, {"rental_uris": {"android": "https://dc.lft.to/lastmile_qr_scan", "ios": "https://dc.lft.to/lastmile_qr_scan"}, "fusion_lat": 0.0, "is_reserved": 0, "lat": 38.830319333333335, "name": "a1dd177a32f79c29c4b6f83243b6f110", "bike_id": "a1dd177a32f79c29c4b6f83243b6f110", "is_disabled": 0, "fusion_lon": 0.0, "type": "electric_bike", "lon": -77.08376483333333}, {"rental_uris": {"android": "https://dc.lft.to/lastmile_qr_scan", "ios": "https://dc.lft.to/lastmile_qr_scan"}, "fusion_lat": 0.0, "is_reserved": 0, "lat": 38.92058733333333, "name": "9838535a7b6c5e48f0cb074b865ad379", "bike_id": "9838535a7b6c5e48f0cb074b865ad379", "is_disabled": 0, "fusion_lon": 0.0, "type": "electric_scooter", "lon": -77.02420616666667}, {"rental_uris": {"android": "https://dc.lft.to/lastmile_qr_scan", "ios": "https://dc.lft.to/lastmile_qr_scan"}, "fusion_lat": 0.0, "is_reserved": 0, "lat": 38.926028, "name": "e8b24f991e5235325a5de241166795c7", "bike_id": "e8b24f991e5235325a5de241166795c7", "is_disabled": 0, "fusion_lon": 0.0, "type": "electric_scooter", "lon": -77.0215465}, {"rental_uris": {"android": "https://dc.lft.to/lastmile_qr_scan", "ios": "https://dc.lft.to/lastmile_qr_scan"}, "fusion_lat": 0.0, "is_reserved": 0, "lat": 38.905018, "name": "c959ceedd3d5cb8326cc0f2b9d06adc9", "bike_id": "c959ceedd3d5cb8326cc0f2b9d06adc9", "is_disabled": 0, "fusion_lon": 0.0, "type": "electric_scooter", "lon": -76.980352}, {"rental_uris": {"android": "https://dc.lft.to/lastmile_qr_scan", "ios": "https://dc.lft.to/lastmile_qr_scan"}, "fusion_lat": 0.0, "is_reserved": 0, "lat": 38.92468183333333, "name": "16d228db0d3b4a26f2d0d3d68b743cbf", "bike_id": "16d228db0d3b4a26f2d0d3d68b743cbf", "is_disabled": 0, "fusion_lon": 0.0, "type": "electric_scooter", "lon": -77.021134}, {"rental_uris": {"android": "https://dc.lft.to/lastmile_qr_scan", "ios": "https://dc.lft.to/lastmile_qr_scan"}, "fusion_lat": 0.0, "is_reserved": 0, "lat": 38.916376166666666, "name": "9e516bde2663b7fcb82bf67c7c8a74e7", "bike_id": "9e516bde2663b7fcb82bf67c7c8a74e7", "is_disabled": 0, "fusion_lon": 0.0, "type": "electric_scooter", "lon": -77.010609}, {"rental_uris": {"android": "https://dc.lft.to/lastmile_qr_scan", "ios": "https://dc.lft.to/lastmile_qr_scan"}, "fusion_lat": 0.0, "is_reserved": 0, "lat": 38.9224785, "name": "d2a9f678afbd0f1450f4086016d77016", "bike_id": "d2a9f678afbd0f1450f4086016d77016", "is_disabled": 0, "fusion_lon": 0.0, "type": "electric_scooter", "lon": -77.03086783333333}, {"rental_uris": {"android": "https://dc.lft.to/lastmile_qr_scan", "ios": "https://dc.lft.to/lastmile_qr_scan"}, "fusion_lat": 0.0, "is_reserved": 0, "lat": 38.89607933333333, "name": "2ab5b67b7d1eba4f82466af37cf27c6c", "bike_id": "2ab5b67b7d1eba4f82466af37cf27c6c", "is_disabled": 0, "fusion_lon": 0.0, "type": "electric_scooter", "lon": -76.9728715}, {"rental_uris": {"android": "https://dc.lft.to/lastmile_qr_scan", "ios": "https://dc.lft.to/lastmile_qr_scan"}, "fusion_lat": 0.0, "is_reserved": 0, "lat": 38.923644833333334, "name": "51c96d4bbcd332a8fe9d4ef3b60ef9d3", "bike_id": "51c96d4bbcd332a8fe9d4ef3b60ef9d3", "is_disabled": 0, "fusion_lon": 0.0, "type": "electric_scooter", "lon": -77.01959666666667}, {"rental_uris": {"android": "https://dc.lft.to/lastmile_qr_scan", "ios": "https://dc.lft.to/lastmile_qr_scan"}, "fusion_lat": 0.0, "is_reserved": 0, "lat": 38.924335666666664, "name": "e961b51d2e2f697d80f9c88acf27e76d", "bike_id": "e961b51d2e2f697d80f9c88acf27e76d", "is_disabled": 0, "fusion_lon": 0.0, "type": "electric_scooter", "lon": -77.0522255}, {"rental_uris": {"android": "https://dc.lft.to/lastmile_qr_scan", "ios": "https://dc.lft.to/lastmile_qr_scan"}, "fusion_lat": 0.0, "is_reserved": 0, "lat": 38.989880666666664, "name": "d47a48e4b2af3b260c98b804d2fac19a", "bike_id": "d47a48e4b2af3b260c98b804d2fac19a", "is_disabled": 0, "fusion_lon": 0.0, "type": "electric_scooter", "lon": -77.03362683333333}, {"rental_uris": {"android": "https://dc.lft.to/lastmile_qr_scan", "ios": "https://dc.lft.to/lastmile_qr_scan"}, "fusion_lat": 0.0, "is_reserved": 0, "lat": 38.92462033333334, "name": "3e02b826435ae9c17fbe370739eb64c7", "bike_id": "3e02b826435ae9c17fbe370739eb64c7", "is_disabled": 0, "fusion_lon": 0.0, "type": "electric_scooter", "lon": -77.0269905}, {"rental_uris": {"android": "https://dc.lft.to/lastmile_qr_scan", "ios": "https://dc.lft.to/lastmile_qr_scan"}, "fusion_lat": 0.0, "is_reserved": 0, "lat": 38.8978015, "name": "ca7bfa039e58266a1d86f7b4f93211cc", "bike_id": "ca7bfa039e58266a1d86f7b4f93211cc", "is_disabled": 0, "fusion_lon": 0.0, "type": "electric_scooter", "lon": -76.99276216666667}, {"rental_uris": {"android": "https://dc.lft.to/lastmile_qr_scan", "ios": "https://dc.lft.to/lastmile_qr_scan"}, "fusion_lat": 0.0, "is_reserved": 0, "lat": 38.91540666666667, "name": "fd1973498baf98923c91235cd12c76d9", "bike_id": "fd1973498baf98923c91235cd12c76d9", "is_disabled": 0, "fusion_lon": 0.0, "type": "electric_scooter", "lon": -77.02002183333333}, {"rental_uris": {"android": "https://dc.lft.to/lastmile_qr_scan", "ios": "https://dc.lft.to/lastmile_qr_scan"}, "fusion_lat": 0.0, "is_reserved": 0, "lat": 38.88726316666666, "name": "927639b6b3e7462d19cf5933bc1a838a", "bike_id": "927639b6b3e7462d19cf5933bc1a838a", "is_disabled": 0, "fusion_lon": 0.0, "type": "electric_scooter", "lon": -76.99681083333333}, {"rental_uris": {"android": "https://dc.lft.to/lastmile_qr_scan", "ios": "https://dc.lft.to/lastmile_qr_scan"}, "fusion_lat": 0.0, "is_reserved": 0, "lat": 38.94331366666667, "name": "d033f5063dc555ad394c6a84c7fa5fd5", "bike_id": "d033f5063dc555ad394c6a84c7fa5fd5", "is_disabled": 0, "fusion_lon": 0.0, "type": "electric_scooter", "lon": -77.01554166666666}, {"rental_uris": {"android": "https://dc.lft.to/lastmile_qr_scan", "ios": "https://dc.lft.to/lastmile_qr_scan"}, "fusion_lat": 0.0, "is_reserved": 0, "lat": 38.862583, "name": "c6798ab997cab50358f690cf13dfdbd4", "bike_id": "c6798ab997cab50358f690cf13dfdbd4", "is_disabled": 0, "fusion_lon": 0.0, "type": "electric_scooter", "lon": -76.9819085}, {"rental_uris": {"android": "https://dc.lft.to/lastmile_qr_scan", "ios": "https://dc.lft.to/lastmile_qr_scan"}, "fusion_lat": 0.0, "is_reserved": 0, "lat": 38.93324616666666, "name": "b12f791d37a454481d68a53cec690719", "bike_id": "b12f791d37a454481d68a53cec690719", "is_disabled": 0, "fusion_lon": 0.0, "type": "electric_scooter", "lon": -77.03798816666666}, {"rental_uris": {"android": "https://dc.lft.to/lastmile_qr_scan", "ios": "https://dc.lft.to/lastmile_qr_scan"}, "fusion_lat": 0.0, "is_reserved": 0, "lat": 38.934867833333335, "name": "beb4f833812618d289a60eae9f5a3588", "bike_id": "beb4f833812618d289a60eae9f5a3588", "is_disabled": 0, "fusion_lon": 0.0, "type": "electric_scooter", "lon": -77.0445455}, {"rental_uris": {"android": "https://dc.lft.to/lastmile_qr_scan", "ios": "https://dc.lft.to/lastmile_qr_scan"}, "fusion_lat": 0.0, "is_reserved": 0, "lat": 38.9284505, "name": "58c98a9873cdb070f9eb73eb4b29fb28", "bike_id": "58c98a9873cdb070f9eb73eb4b29fb28", "is_disabled": 0, "fusion_lon": 0.0, "type": "electric_scooter", "lon": -77.02489133333333}, {"rental_uris": {"android": "https://dc.lft.to/lastmile_qr_scan", "ios": "https://dc.lft.to/lastmile_qr_scan"}, "fusion_lat": 0.0, "is_reserved": 0, "lat": 38.921375166666664, "name": "d95f3779a17cbef1b4f01600955559c9", "bike_id": "d95f3779a17cbef1b4f01600955559c9", "is_disabled": 0, "fusion_lon": 0.0, "type": "electric_scooter", "lon": -77.04124733333333}, {"rental_uris": {"android": "https://dc.lft.to/lastmile_qr_scan", "ios": "https://dc.lft.to/lastmile_qr_scan"}, "fusion_lat": 0.0, "is_reserved": 0, "lat": 38.90113633333333, "name": "d60d8ade8df5283cf561c642f048f2bc", "bike_id": "d60d8ade8df5283cf561c642f048f2bc", "is_disabled": 0, "fusion_lon": 0.0, "type": "electric_scooter", "lon": -77.04492833333333}, {"rental_uris": {"android": "https://dc.lft.to/lastmile_qr_scan", "ios": "https://dc.lft.to/lastmile_qr_scan"}, "fusion_lat": 0.0, "is_reserved": 0, "lat": 38.89880866666667, "name": "70a114472f4be7dc456d89caa538921e", "bike_id": "70a114472f4be7dc456d89caa538921e", "is_disabled": 0, "fusion_lon": 0.0, "type": "electric_scooter", "lon": -76.98837983333334}, {"rental_uris": {"android": "https://dc.lft.to/lastmile_qr_scan", "ios": "https://dc.lft.to/lastmile_qr_scan"}, "fusion_lat": 0.0, "is_reserved": 0, "lat": 38.926441833333335, "name": "38c90060679a945bbfe7d7248bec1091", "bike_id": "38c90060679a945bbfe7d7248bec1091", "is_disabled": 0, "fusion_lon": 0.0, "type": "electric_scooter", "lon": -77.0250865}, {"rental_uris": {"android": "https://dc.lft.to/lastmile_qr_scan", "ios": "https://dc.lft.to/lastmile_qr_scan"}, "fusion_lat": 0.0, "is_reserved": 0, "lat": 38.91599016666667, "name": "00242d15a91eb1ff0a72b9aafa446d2b", "bike_id": "00242d15a91eb1ff0a72b9aafa446d2b", "is_disabled": 0, "fusion_lon": 0.0, "type": "electric_scooter", "lon": -77.0257805}, {"rental_uris": {"android": "https://dc.lft.to/lastmile_qr_scan", "ios": "https://dc.lft.to/lastmile_qr_scan"}, "fusion_lat": 0.0, "is_reserved": 0, "lat": 38.87648216666667, "name": "7cb1ffe039fc5fb38315506228763e20", "bike_id": "7cb1ffe039fc5fb38315506228763e20", "is_disabled": 0, "fusion_lon": 0.0, "type": "electric_scooter", "lon": -77.00058383333334}, {"rental_uris": {"android": "https://dc.lft.to/lastmile_qr_scan", "ios": "https://dc.lft.to/lastmile_qr_scan"}, "fusion_lat": 0.0, "is_reserved": 0, "lat": 38.892218166666666, "name": "da33555781521e4bcf3bae2cbb9ee911", "bike_id": "da33555781521e4bcf3bae2cbb9ee911", "is_disabled": 0, "fusion_lon": 0.0, "type": "electric_scooter", "lon": -77.03995683333333}, {"rental_uris": {"android": "https://dc.lft.to/lastmile_qr_scan", "ios": "https://dc.lft.to/lastmile_qr_scan"}, "fusion_lat": 0.0, "is_reserved": 0, "lat": 38.85221633333333, "name": "b054bcc9f8d7e424e2189da2ed10e8e1", "bike_id": "b054bcc9f8d7e424e2189da2ed10e8e1", "is_disabled": 0, "fusion_lon": 0.0, "type": "electric_scooter", "lon": -76.99424666666667}, {"rental_uris": {"android": "https://dc.lft.to/lastmile_qr_scan", "ios": "https://dc.lft.to/lastmile_qr_scan"}, "fusion_lat": 0.0, "is_reserved": 0, "lat": 38.91938116666667, "name": "c11de8727ecee7274f027bee6dcbce0c", "bike_id": "c11de8727ecee7274f027bee6dcbce0c", "is_disabled": 0, "fusion_lon": 0.0, "type": "electric_scooter", "lon": -77.0489745}, {"rental_uris": {"android": "https://dc.lft.to/lastmile_qr_scan", "ios": "https://dc.lft.to/lastmile_qr_scan"}, "fusion_lat": 0.0, "is_reserved": 0, "lat": 38.923784166666664, "name": "0f154263d7555fb32ff8bb05c84e8bba", "bike_id": "0f154263d7555fb32ff8bb05c84e8bba", "is_disabled": 0, "fusion_lon": 0.0, "type": "electric_scooter", "lon": -77.02693683333334}, {"rental_uris": {"android": "https://dc.lft.to/lastmile_qr_scan", "ios": "https://dc.lft.to/lastmile_qr_scan"}, "fusion_lat": 0.0, "is_reserved": 0, "lat": 38.926123833333335, "name": "84629a37c51f29e7ed6fd2a2993d09f1", "bike_id": "84629a37c51f29e7ed6fd2a2993d09f1", "is_disabled": 0, "fusion_lon": 0.0, "type": "electric_scooter", "lon": -77.02161666666667}, {"rental_uris": {"android": "https://dc.lft.to/lastmile_qr_scan", "ios": "https://dc.lft.to/lastmile_qr_scan"}, "fusion_lat": 0.0, "is_reserved": 0, "lat": 38.89908483333333, "name": "66e9dcf9151b6a05ec0dc53c846578db", "bike_id": "66e9dcf9151b6a05ec0dc53c846578db", "is_disabled": 0, "fusion_lon": 0.0, "type": "electric_scooter", "lon": -76.98573633333334}, {"rental_uris": {"android": "https://dc.lft.to/lastmile_qr_scan", "ios": "https://dc.lft.to/lastmile_qr_scan"}, "fusion_lat": 0.0, "is_reserved": 0, "lat": 38.925217, "name": "8731520044cc35420ecd7ca145238964", "bike_id": "8731520044cc35420ecd7ca145238964", "is_disabled": 0, "fusion_lon": 0.0, "type": "electric_scooter", "lon": -77.02979466666666}, {"rental_uris": {"android": "https://dc.lft.to/lastmile_qr_scan", "ios": "https://dc.lft.to/lastmile_qr_scan"}, "fusion_lat": 0.0, "is_reserved": 0, "lat": 38.90156183333333, "name": "e1408867ae90281922d070e8a29583ba", "bike_id": "e1408867ae90281922d070e8a29583ba", "is_disabled": 0, "fusion_lon": 0.0, "type": "electric_scooter", "lon": -76.92134283333333}, {"rental_uris": {"android": "https://dc.lft.to/lastmile_qr_scan", "ios": "https://dc.lft.to/lastmile_qr_scan"}, "fusion_lat": 0.0, "is_reserved": 0, "lat": 38.93613166666667, "name": "0552f5fc5474990b974a11d8a34b6ffa", "bike_id": "0552f5fc5474990b974a11d8a34b6ffa", "is_disabled": 0, "fusion_lon": 0.0, "type": "electric_scooter", "lon": -77.03215183333333}, {"rental_uris": {"android": "https://dc.lft.to/lastmile_qr_scan", "ios": "https://dc.lft.to/lastmile_qr_scan"}, "fusion_lat": 0.0, "is_reserved": 0, "lat": 38.89966883333334, "name": "241d90ff662c134f81d436f125dd8628", "bike_id": "241d90ff662c134f81d436f125dd8628", "is_disabled": 0, "fusion_lon": 0.0, "type": "electric_scooter", "lon": -77.01623116666667}, {"rental_uris": {"android": "https://dc.lft.to/lastmile_qr_scan", "ios": "https://dc.lft.to/lastmile_qr_scan"}, "fusion_lat": 0.0, "is_reserved": 0, "lat": 38.9336505, "name": "5c4b2a34367ddb2145c180081c611eef", "bike_id": "5c4b2a34367ddb2145c180081c611eef", "is_disabled": 0, "fusion_lon": 0.0, "type": "electric_scooter", "lon": -77.04133783333333}, {"rental_uris": {"android": "https://dc.lft.to/lastmile_qr_scan", "ios": "https://dc.lft.to/lastmile_qr_scan"}, "fusion_lat": 0.0, "is_reserved": 0, "lat": 38.91415533333333, "name": "103ab3fa7d33d873e4e38509cfa20a83", "bike_id": "103ab3fa7d33d873e4e38509cfa20a83", "is_disabled": 0, "fusion_lon": 0.0, "type": "electric_scooter", "lon": -77.00183033333333}, {"rental_uris": {"android": "https://dc.lft.to/lastmile_qr_scan", "ios": "https://dc.lft.to/lastmile_qr_scan"}, "fusion_lat": 0.0, "is_reserved": 0, "lat": 38.90370033333333, "name": "ef42f076fd9723ae060db3bd3f8817b1", "bike_id": "ef42f076fd9723ae060db3bd3f8817b1", "is_disabled": 0, "fusion_lon": 0.0, "type": "electric_scooter", "lon": -77.02592816666667}, {"rental_uris": {"android": "https://dc.lft.to/lastmile_qr_scan", "ios": "https://dc.lft.to/lastmile_qr_scan"}, "fusion_lat": 0.0, "is_reserved": 0, "lat": 38.931743, "name": "65ec46f30dee7206eb700c8b6d99e2ea", "bike_id": "65ec46f30dee7206eb700c8b6d99e2ea", "is_disabled": 0, "fusion_lon": 0.0, "type": "electric_bike", "lon": -77.0202935}, {"rental_uris": {"android": "https://dc.lft.to/lastmile_qr_scan", "ios": "https://dc.lft.to/lastmile_qr_scan"}, "fusion_lat": 0.0, "is_reserved": 0, "lat": 38.92364883333333, "name": "bde6a1cc28aea276ee589bd8704f783b", "bike_id": "bde6a1cc28aea276ee589bd8704f783b", "is_disabled": 0, "fusion_lon": 0.0, "type": "electric_scooter", "lon": -77.01917916666666}, {"rental_uris": {"android": "https://dc.lft.to/lastmile_qr_scan", "ios": "https://dc.lft.to/lastmile_qr_scan"}, "fusion_lat": 0.0, "is_reserved": 0, "lat": 38.9052595, "name": "2e15953cc15b0a9e5adde59cd49bf129", "bike_id": "2e15953cc15b0a9e5adde59cd49bf129", "is_disabled": 0, "fusion_lon": 0.0, "type": "electric_scooter", "lon": -76.984093}, {"rental_uris": {"android": "https://dc.lft.to/lastmile_qr_scan", "ios": "https://dc.lft.to/lastmile_qr_scan"}, "fusion_lat": 0.0, "is_reserved": 0, "lat": 38.9156565, "name": "c52b96111e1f94d54f5efea7562778b6", "bike_id": "c52b96111e1f94d54f5efea7562778b6", "is_disabled": 0, "fusion_lon": 0.0, "type": "electric_scooter", "lon": -77.03133833333334}, {"rental_uris": {"android": "https://dc.lft.to/lastmile_qr_scan", "ios": "https://dc.lft.to/lastmile_qr_scan"}, "fusion_lat": 0.0, "is_reserved": 0, "lat": 38.9250595, "name": "2e39bd0b5e7e5d1a874978e4ab1a5938", "bike_id": "2e39bd0b5e7e5d1a874978e4ab1a5938", "is_disabled": 0, "fusion_lon": 0.0, "type": "electric_scooter", "lon": -77.02277216666667}, {"rental_uris": {"android": "https://dc.lft.to/lastmile_qr_scan", "ios": "https://dc.lft.to/lastmile_qr_scan"}, "fusion_lat": 0.0, "is_reserved": 0, "lat": 38.924568666666666, "name": "3adee9da9d307feaaadd3026d52ee9cc", "bike_id": "3adee9da9d307feaaadd3026d52ee9cc", "is_disabled": 0, "fusion_lon": 0.0, "type": "electric_scooter", "lon": -76.99915333333334}, {"rental_uris": {"android": "https://dc.lft.to/lastmile_qr_scan", "ios": "https://dc.lft.to/lastmile_qr_scan"}, "fusion_lat": 0.0, "is_reserved": 0, "lat": 38.91892633333333, "name": "37732f6f41748346ce2348bf9a15180f", "bike_id": "37732f6f41748346ce2348bf9a15180f", "is_disabled": 0, "fusion_lon": 0.0, "type": "electric_scooter", "lon": -77.003421}, {"rental_uris": {"android": "https://dc.lft.to/lastmile_qr_scan", "ios": "https://dc.lft.to/lastmile_qr_scan"}, "fusion_lat": 0.0, "is_reserved": 0, "lat": 38.86871216666667, "name": "2096b5232f90889319604fc8de98d874", "bike_id": "2096b5232f90889319604fc8de98d874", "is_disabled": 0, "fusion_lon": 0.0, "type": "electric_scooter", "lon": -76.98661}, {"rental_uris": {"android": "https://dc.lft.to/lastmile_qr_scan", "ios": "https://dc.lft.to/lastmile_qr_scan"}, "fusion_lat": 0.0, "is_reserved": 0, "lat": 38.87578766666667, "name": "19c5cb06a4ad0b285f908064efc22b0a", "bike_id": "19c5cb06a4ad0b285f908064efc22b0a", "is_disabled": 0, "fusion_lon": 0.0, "type": "electric_scooter", "lon": -77.02002416666667}, {"rental_uris": {"android": "https://dc.lft.to/lastmile_qr_scan", "ios": "https://dc.lft.to/lastmile_qr_scan"}, "fusion_lat": 0.0, "is_reserved": 0, "lat": 38.896249833333336, "name": "5251fd00375cc04b16e0903c12a2c408", "bike_id": "5251fd00375cc04b16e0903c12a2c408", "is_disabled": 0, "fusion_lon": 0.0, "type": "electric_scooter", "lon": -76.998524}, {"rental_uris": {"android": "https://dc.lft.to/lastmile_qr_scan", "ios": "https://dc.lft.to/lastmile_qr_scan"}, "fusion_lat": 0.0, "is_reserved": 0, "lat": 38.90570366666667, "name": "7d3c923c887a8dd14914fea0be2092c3", "bike_id": "7d3c923c887a8dd14914fea0be2092c3", "is_disabled": 0, "fusion_lon": 0.0, "type": "electric_scooter", "lon": -77.04554766666666}, {"rental_uris": {"android": "https://dc.lft.to/lastmile_qr_scan", "ios": "https://dc.lft.to/lastmile_qr_scan"}, "fusion_lat": 0.0, "is_reserved": 0, "lat": 38.939489, "name": "ffa89438d1848f81ab088ea392fa5bac", "bike_id": "ffa89438d1848f81ab088ea392fa5bac", "is_disabled": 0, "fusion_lon": 0.0, "type": "electric_scooter", "lon": -77.027635}, {"rental_uris": {"android": "https://dc.lft.to/lastmile_qr_scan", "ios": "https://dc.lft.to/lastmile_qr_scan"}, "fusion_lat": 0.0, "is_reserved": 0, "lat": 38.923928333333336, "name": "e3b75eec43b76c627fe257a4f2227fd7", "bike_id": "e3b75eec43b76c627fe257a4f2227fd7", "is_disabled": 0, "fusion_lon": 0.0, "type": "electric_scooter", "lon": -77.02496833333333}, {"rental_uris": {"android": "https://dc.lft.to/lastmile_qr_scan", "ios": "https://dc.lft.to/lastmile_qr_scan"}, "fusion_lat": 0.0, "is_reserved": 0, "lat": 38.919227166666666, "name": "e8bad5d958ae3e56e1be706fd966aa08", "bike_id": "e8bad5d958ae3e56e1be706fd966aa08", "is_disabled": 0, "fusion_lon": 0.0, "type": "electric_scooter", "lon": -77.03423166666667}, {"rental_uris": {"android": "https://dc.lft.to/lastmile_qr_scan", "ios": "https://dc.lft.to/lastmile_qr_scan"}, "fusion_lat": 0.0, "is_reserved": 0, "lat": 38.9246475, "name": "65642748441fb51322b74318d86ab985", "bike_id": "65642748441fb51322b74318d86ab985", "is_disabled": 0, "fusion_lon": 0.0, "type": "electric_scooter", "lon": -77.026953}, {"rental_uris": {"android": "https://dc.lft.to/lastmile_qr_scan", "ios": "https://dc.lft.to/lastmile_qr_scan"}, "fusion_lat": 0.0, "is_reserved": 0, "lat": 38.88672016666666, "name": "90bc231698eba82ae8b3d525b3b90769", "bike_id": "90bc231698eba82ae8b3d525b3b90769", "is_disabled": 0, "fusion_lon": 0.0, "type": "electric_scooter", "lon": -77.00199233333333}, {"rental_uris": {"android": "https://dc.lft.to/lastmile_qr_scan", "ios": "https://dc.lft.to/lastmile_qr_scan"}, "fusion_lat": 0.0, "is_reserved": 0, "lat": 38.917069833333336, "name": "0f9d3d2938f9719e01b75b9857edca12", "bike_id": "0f9d3d2938f9719e01b75b9857edca12", "is_disabled": 0, "fusion_lon": 0.0, "type": "electric_scooter", "lon": -77.03455566666666}, {"rental_uris": {"android": "https://dc.lft.to/lastmile_qr_scan", "ios": "https://dc.lft.to/lastmile_qr_scan"}, "fusion_lat": 0.0, "is_reserved": 0, "lat": 38.9207455, "name": "1b574a76d9722a53cef5f5a4235974e9", "bike_id": "1b574a76d9722a53cef5f5a4235974e9", "is_disabled": 0, "fusion_lon": 0.0, "type": "electric_scooter", "lon": -77.023147}, {"rental_uris": {"android": "https://dc.lft.to/lastmile_qr_scan", "ios": "https://dc.lft.to/lastmile_qr_scan"}, "fusion_lat": 0.0, "is_reserved": 0, "lat": 38.909809, "name": "db88a416fa62aa33f61e2b56832e6173", "bike_id": "db88a416fa62aa33f61e2b56832e6173", "is_disabled": 0, "fusion_lon": 0.0, "type": "electric_scooter", "lon": -77.02392166666667}, {"rental_uris": {"android": "https://dc.lft.to/lastmile_qr_scan", "ios": "https://dc.lft.to/lastmile_qr_scan"}, "fusion_lat": 0.0, "is_reserved": 0, "lat": 38.913258, "name": "ab5cfb40e7dea480bac25f52b3952d4c", "bike_id": "ab5cfb40e7dea480bac25f52b3952d4c", "is_disabled": 0, "fusion_lon": 0.0, "type": "electric_scooter", "lon": -77.047268}, {"rental_uris": {"android": "https://dc.lft.to/lastmile_qr_scan", "ios": "https://dc.lft.to/lastmile_qr_scan"}, "fusion_lat": 0.0, "is_reserved": 0, "lat": 38.905787333333336, "name": "2de815ab6be4ea851f175df6298c2996", "bike_id": "2de815ab6be4ea851f175df6298c2996", "is_disabled": 0, "fusion_lon": 0.0, "type": "electric_scooter", "lon": -77.04245483333334}, {"rental_uris": {"android": "https://dc.lft.to/lastmile_qr_scan", "ios": "https://dc.lft.to/lastmile_qr_scan"}, "fusion_lat": 0.0, "is_reserved": 0, "lat": 38.912560666666664, "name": "292126747931e4baf9df161ee39a3563", "bike_id": "292126747931e4baf9df161ee39a3563", "is_disabled": 0, "fusion_lon": 0.0, "type": "electric_scooter", "lon": -77.03512433333333}, {"rental_uris": {"android": "https://dc.lft.to/lastmile_qr_scan", "ios": "https://dc.lft.to/lastmile_qr_scan"}, "fusion_lat": 0.0, "is_reserved": 0, "lat": 38.919126, "name": "e88b50f4781bb982e7ba09ad5f37a479", "bike_id": "e88b50f4781bb982e7ba09ad5f37a479", "is_disabled": 0, "fusion_lon": 0.0, "type": "electric_scooter", "lon": -77.04182533333334}, {"rental_uris": {"android": "https://dc.lft.to/lastmile_qr_scan", "ios": "https://dc.lft.to/lastmile_qr_scan"}, "fusion_lat": 0.0, "is_reserved": 0, "lat": 38.878922, "name": "f34523a86989818c2cd6d58e9f36ba53", "bike_id": "f34523a86989818c2cd6d58e9f36ba53", "is_disabled": 0, "fusion_lon": 0.0, "type": "electric_scooter", "lon": -77.006043}, {"rental_uris": {"android": "https://dc.lft.to/lastmile_qr_scan", "ios": "https://dc.lft.to/lastmile_qr_scan"}, "fusion_lat": 0.0, "is_reserved": 0, "lat": 38.941657, "name": "4e7be815d47aa40eeaac9f8b03353bf9", "bike_id": "4e7be815d47aa40eeaac9f8b03353bf9", "is_disabled": 0, "fusion_lon": 0.0, "type": "electric_scooter", "lon": -77.0256195}, {"rental_uris": {"android": "https://dc.lft.to/lastmile_qr_scan", "ios": "https://dc.lft.to/lastmile_qr_scan"}, "fusion_lat": 0.0, "is_reserved": 0, "lat": 38.92238733333333, "name": "d22958b2bba0bca3aae40957e53134d1", "bike_id": "d22958b2bba0bca3aae40957e53134d1", "is_disabled": 0, "fusion_lon": 0.0, "type": "electric_scooter", "lon": -77.036636}, {"rental_uris": {"android": "https://dc.lft.to/lastmile_qr_scan", "ios": "https://dc.lft.to/lastmile_qr_scan"}, "fusion_lat": 0.0, "is_reserved": 0, "lat": 38.89915966666667, "name": "cc90f9ccd9db5aa69aa1b7f3dab61a96", "bike_id": "cc90f9ccd9db5aa69aa1b7f3dab61a96", "is_disabled": 0, "fusion_lon": 0.0, "type": "electric_scooter", "lon": -76.93370583333333}, {"rental_uris": {"android": "https://dc.lft.to/lastmile_qr_scan", "ios": "https://dc.lft.to/lastmile_qr_scan"}, "fusion_lat": 0.0, "is_reserved": 0, "lat": 38.885285333333336, "name": "6e37f5e4776f4c0c4e65b18205cebbb8", "bike_id": "6e37f5e4776f4c0c4e65b18205cebbb8", "is_disabled": 0, "fusion_lon": 0.0, "type": "electric_scooter", "lon": -77.021977}, {"rental_uris": {"android": "https://dc.lft.to/lastmile_qr_scan", "ios": "https://dc.lft.to/lastmile_qr_scan"}, "fusion_lat": 0.0, "is_reserved": 0, "lat": 38.9546745, "name": "667f6a3df4b12dcf646cd5c166d71698", "bike_id": "667f6a3df4b12dcf646cd5c166d71698", "is_disabled": 0, "fusion_lon": 0.0, "type": "electric_scooter", "lon": -77.077663}, {"rental_uris": {"android": "https://dc.lft.to/lastmile_qr_scan", "ios": "https://dc.lft.to/lastmile_qr_scan"}, "fusion_lat": 0.0, "is_reserved": 0, "lat": 38.92927983333333, "name": "193e90037eaa67f8bc1a4efef1924e0e", "bike_id": "193e90037eaa67f8bc1a4efef1924e0e", "is_disabled": 0, "fusion_lon": 0.0, "type": "electric_scooter", "lon": -77.02967433333333}, {"rental_uris": {"android": "https://dc.lft.to/lastmile_qr_scan", "ios": "https://dc.lft.to/lastmile_qr_scan"}, "fusion_lat": 0.0, "is_reserved": 0, "lat": 38.920663833333336, "name": "a45755dc8b756ca7d4d1f007f5c38f02", "bike_id": "a45755dc8b756ca7d4d1f007f5c38f02", "is_disabled": 0, "fusion_lon": 0.0, "type": "electric_scooter", "lon": -77.0346815}, {"rental_uris": {"android": "https://dc.lft.to/lastmile_qr_scan", "ios": "https://dc.lft.to/lastmile_qr_scan"}, "fusion_lat": 0.0, "is_reserved": 0, "lat": 38.934568666666664, "name": "d4a8e6c9858204ea2ca38ee3a352e6ee", "bike_id": "d4a8e6c9858204ea2ca38ee3a352e6ee", "is_disabled": 0, "fusion_lon": 0.0, "type": "electric_scooter", "lon": -77.02740316666667}, {"rental_uris": {"android": "https://dc.lft.to/lastmile_qr_scan", "ios": "https://dc.lft.to/lastmile_qr_scan"}, "fusion_lat": 0.0, "is_reserved": 0, "lat": 38.904152, "name": "3945fc7941668f12356b16303e2a03cc", "bike_id": "3945fc7941668f12356b16303e2a03cc", "is_disabled": 0, "fusion_lon": 0.0, "type": "electric_scooter", "lon": -77.02591316666667}, {"rental_uris": {"android": "https://dc.lft.to/lastmile_qr_scan", "ios": "https://dc.lft.to/lastmile_qr_scan"}, "fusion_lat": 0.0, "is_reserved": 0, "lat": 38.909109, "name": "ab9e937b0f69f7cfcdf3245b1109569c", "bike_id": "ab9e937b0f69f7cfcdf3245b1109569c", "is_disabled": 0, "fusion_lon": 0.0, "type": "electric_scooter", "lon": -77.03098683333333}, {"rental_uris": {"android": "https://dc.lft.to/lastmile_qr_scan", "ios": "https://dc.lft.to/lastmile_qr_scan"}, "fusion_lat": 0.0, "is_reserved": 0, "lat": 38.9239865, "name": "06b42813af36e8b98e93755d204bbd2e", "bike_id": "06b42813af36e8b98e93755d204bbd2e", "is_disabled": 0, "fusion_lon": 0.0, "type": "electric_scooter", "lon": -77.02694183333334}, {"rental_uris": {"android": "https://dc.lft.to/lastmile_qr_scan", "ios": "https://dc.lft.to/lastmile_qr_scan"}, "fusion_lat": 0.0, "is_reserved": 0, "lat": 38.91711983333333, "name": "4a9e5c453151ee4026774f4aaddc5e15", "bike_id": "4a9e5c453151ee4026774f4aaddc5e15", "is_disabled": 0, "fusion_lon": 0.0, "type": "electric_scooter", "lon": -77.03498433333333}, {"rental_uris": {"android": "https://dc.lft.to/lastmile_qr_scan", "ios": "https://dc.lft.to/lastmile_qr_scan"}, "fusion_lat": 0.0, "is_reserved": 0, "lat": 38.874796333333336, "name": "dd0fbbd10d0674a19f0e29484bae153b", "bike_id": "dd0fbbd10d0674a19f0e29484bae153b", "is_disabled": 0, "fusion_lon": 0.0, "type": "electric_bike", "lon": -76.96532783333333}, {"rental_uris": {"android": "https://dc.lft.to/lastmile_qr_scan", "ios": "https://dc.lft.to/lastmile_qr_scan"}, "fusion_lat": 0.0, "is_reserved": 0, "lat": 38.899664666666666, "name": "39119777b4f4b56bce3863ba340f82c9", "bike_id": "39119777b4f4b56bce3863ba340f82c9", "is_disabled": 0, "fusion_lon": 0.0, "type": "electric_scooter", "lon": -77.01637016666666}, {"rental_uris": {"android": "https://dc.lft.to/lastmile_qr_scan", "ios": "https://dc.lft.to/lastmile_qr_scan"}, "fusion_lat": 0.0, "is_reserved": 0, "lat": 38.939649, "name": "0435a85bfde5f70c2e8afae208a5d360", "bike_id": "0435a85bfde5f70c2e8afae208a5d360", "is_disabled": 0, "fusion_lon": 0.0, "type": "electric_scooter", "lon": -77.0328725}, {"rental_uris": {"android": "https://dc.lft.to/lastmile_qr_scan", "ios": "https://dc.lft.to/lastmile_qr_scan"}, "fusion_lat": 0.0, "is_reserved": 0, "lat": 38.887389666666664, "name": "c88bf7febb5b8d82fa753f5c9336964e", "bike_id": "c88bf7febb5b8d82fa753f5c9336964e", "is_disabled": 0, "fusion_lon": 0.0, "type": "electric_scooter", "lon": -77.00325133333334}, {"rental_uris": {"android": "https://dc.lft.to/lastmile_qr_scan", "ios": "https://dc.lft.to/lastmile_qr_scan"}, "fusion_lat": 0.0, "is_reserved": 0, "lat": 38.9235315, "name": "c24e820a62543adcea2e1fe3f99e2bfc", "bike_id": "c24e820a62543adcea2e1fe3f99e2bfc", "is_disabled": 0, "fusion_lon": 0.0, "type": "electric_scooter", "lon": -77.03371266666667}, {"rental_uris": {"android": "https://dc.lft.to/lastmile_qr_scan", "ios": "https://dc.lft.to/lastmile_qr_scan"}, "fusion_lat": 0.0, "is_reserved": 0, "lat": 38.9308585, "name": "d1740306624e3d89a2c09cdbadcddeb4", "bike_id": "d1740306624e3d89a2c09cdbadcddeb4", "is_disabled": 0, "fusion_lon": 0.0, "type": "electric_scooter", "lon": -77.03750416666666}, {"rental_uris": {"android": "https://dc.lft.to/lastmile_qr_scan", "ios": "https://dc.lft.to/lastmile_qr_scan"}, "fusion_lat": 0.0, "is_reserved": 0, "lat": 38.871559166666664, "name": "00251569d56af90550ae572cf0018c1b", "bike_id": "00251569d56af90550ae572cf0018c1b", "is_disabled": 0, "fusion_lon": 0.0, "type": "electric_scooter", "lon": -76.97467766666666}, {"rental_uris": {"android": "https://dc.lft.to/lastmile_qr_scan", "ios": "https://dc.lft.to/lastmile_qr_scan"}, "fusion_lat": 0.0, "is_reserved": 0, "lat": 38.926824, "name": "e12f7702c2f317cfec75ed79a29b1190", "bike_id": "e12f7702c2f317cfec75ed79a29b1190", "is_disabled": 0, "fusion_lon": 0.0, "type": "electric_scooter", "lon": -77.03245333333334}, {"rental_uris": {"android": "https://dc.lft.to/lastmile_qr_scan", "ios": "https://dc.lft.to/lastmile_qr_scan"}, "fusion_lat": 0.0, "is_reserved": 0, "lat": 38.932782833333334, "name": "a51569dc84b95da3d0bce11f3aec7db5", "bike_id": "a51569dc84b95da3d0bce11f3aec7db5", "is_disabled": 0, "fusion_lon": 0.0, "type": "electric_scooter", "lon": -77.0283545}, {"rental_uris": {"android": "https://dc.lft.to/lastmile_qr_scan", "ios": "https://dc.lft.to/lastmile_qr_scan"}, "fusion_lat": 0.0, "is_reserved": 0, "lat": 38.848031, "name": "fab02ea49a14741ddfb7aa10c15a8220", "bike_id": "fab02ea49a14741ddfb7aa10c15a8220", "is_disabled": 0, "fusion_lon": 0.0, "type": "electric_bike", "lon": -76.95234416666666}, {"rental_uris": {"android": "https://dc.lft.to/lastmile_qr_scan", "ios": "https://dc.lft.to/lastmile_qr_scan"}, "fusion_lat": 0.0, "is_reserved": 0, "lat": 38.92782966666667, "name": "b948f869387ea1254d3cb9efc41dc107", "bike_id": "b948f869387ea1254d3cb9efc41dc107", "is_disabled": 0, "fusion_lon": 0.0, "type": "electric_scooter", "lon": -77.02711633333334}, {"rental_uris": {"android": "https://dc.lft.to/lastmile_qr_scan", "ios": "https://dc.lft.to/lastmile_qr_scan"}, "fusion_lat": 0.0, "is_reserved": 0, "lat": 38.87778216666667, "name": "ca05e03c48073e5858c556e43d68b416", "bike_id": "ca05e03c48073e5858c556e43d68b416", "is_disabled": 0, "fusion_lon": 0.0, "type": "electric_scooter", "lon": -76.98371516666667}, {"rental_uris": {"android": "https://dc.lft.to/lastmile_qr_scan", "ios": "https://dc.lft.to/lastmile_qr_scan"}, "fusion_lat": 0.0, "is_reserved": 0, "lat": 38.89781266666667, "name": "fe38e490db058c2a3991f4f9ed6cc6f1", "bike_id": "fe38e490db058c2a3991f4f9ed6cc6f1", "is_disabled": 0, "fusion_lon": 0.0, "type": "electric_scooter", "lon": -77.016952}, {"rental_uris": {"android": "https://dc.lft.to/lastmile_qr_scan", "ios": "https://dc.lft.to/lastmile_qr_scan"}, "fusion_lat": 0.0, "is_reserved": 0, "lat": 38.933442, "name": "6c346a6d3c9c7639f3ed8b73092f0b64", "bike_id": "6c346a6d3c9c7639f3ed8b73092f0b64", "is_disabled": 0, "fusion_lon": 0.0, "type": "electric_scooter", "lon": -77.02422466666667}, {"rental_uris": {"android": "https://dc.lft.to/lastmile_qr_scan", "ios": "https://dc.lft.to/lastmile_qr_scan"}, "fusion_lat": 0.0, "is_reserved": 0, "lat": 38.95023616666667, "name": "e42686be73ebdead32887c5d84a18c7a", "bike_id": "e42686be73ebdead32887c5d84a18c7a", "is_disabled": 0, "fusion_lon": 0.0, "type": "electric_bike", "lon": -76.9709905}, {"rental_uris": {"android": "https://dc.lft.to/lastmile_qr_scan", "ios": "https://dc.lft.to/lastmile_qr_scan"}, "fusion_lat": 0.0, "is_reserved": 0, "lat": 38.919044666666665, "name": "faba11875df5d795d76d9e1c26eae9e0", "bike_id": "faba11875df5d795d76d9e1c26eae9e0", "is_disabled": 0, "fusion_lon": 0.0, "type": "electric_scooter", "lon": -77.02058733333334}, {"rental_uris": {"android": "https://dc.lft.to/lastmile_qr_scan", "ios": "https://dc.lft.to/lastmile_qr_scan"}, "fusion_lat": 0.0, "is_reserved": 0, "lat": 38.91352466666667, "name": "aa9b68285d6e8ea85057b00b9387eaf2", "bike_id": "aa9b68285d6e8ea85057b00b9387eaf2", "is_disabled": 0, "fusion_lon": 0.0, "type": "electric_scooter", "lon": -77.0335765}, {"rental_uris": {"android": "https://dc.lft.to/lastmile_qr_scan", "ios": "https://dc.lft.to/lastmile_qr_scan"}, "fusion_lat": 0.0, "is_reserved": 0, "lat": 38.91633433333333, "name": "d2ef9a8dfa1ccf76d5cd8d2dd7764bc5", "bike_id": "d2ef9a8dfa1ccf76d5cd8d2dd7764bc5", "is_disabled": 0, "fusion_lon": 0.0, "type": "electric_scooter", "lon": -77.04816416666667}, {"rental_uris": {"android": "https://dc.lft.to/lastmile_qr_scan", "ios": "https://dc.lft.to/lastmile_qr_scan"}, "fusion_lat": 0.0, "is_reserved": 0, "lat": 38.904140166666664, "name": "911919fd56988babdf8678ffd451889c", "bike_id": "911919fd56988babdf8678ffd451889c", "is_disabled": 0, "fusion_lon": 0.0, "type": "electric_scooter", "lon": -77.01788033333334}, {"rental_uris": {"android": "https://dc.lft.to/lastmile_qr_scan", "ios": "https://dc.lft.to/lastmile_qr_scan"}, "fusion_lat": 0.0, "is_reserved": 0, "lat": 38.9211885, "name": "9bb2718bd70bcc2f15a4982b72f2d4d4", "bike_id": "9bb2718bd70bcc2f15a4982b72f2d4d4", "is_disabled": 0, "fusion_lon": 0.0, "type": "electric_scooter", "lon": -77.036622}, {"rental_uris": {"android": "https://dc.lft.to/lastmile_qr_scan", "ios": "https://dc.lft.to/lastmile_qr_scan"}, "fusion_lat": 0.0, "is_reserved": 0, "lat": 38.871819, "name": "cfd93a31140a1bd2ef464ae93864990c", "bike_id": "cfd93a31140a1bd2ef464ae93864990c", "is_disabled": 0, "fusion_lon": 0.0, "type": "electric_scooter", "lon": -77.00617516666667}, {"rental_uris": {"android": "https://dc.lft.to/lastmile_qr_scan", "ios": "https://dc.lft.to/lastmile_qr_scan"}, "fusion_lat": 0.0, "is_reserved": 0, "lat": 38.91805466666667, "name": "333d513a756af6caa42a922a38ec7042", "bike_id": "333d513a756af6caa42a922a38ec7042", "is_disabled": 0, "fusion_lon": 0.0, "type": "electric_scooter", "lon": -77.0330895}, {"rental_uris": {"android": "https://dc.lft.to/lastmile_qr_scan", "ios": "https://dc.lft.to/lastmile_qr_scan"}, "fusion_lat": 0.0, "is_reserved": 0, "lat": 38.920770833333336, "name": "3c8e19d39e225a35286887b193d7085d", "bike_id": "3c8e19d39e225a35286887b193d7085d", "is_disabled": 0, "fusion_lon": 0.0, "type": "electric_scooter", "lon": -77.02314383333334}, {"rental_uris": {"android": "https://dc.lft.to/lastmile_qr_scan", "ios": "https://dc.lft.to/lastmile_qr_scan"}, "fusion_lat": 0.0, "is_reserved": 0, "lat": 38.91330516666667, "name": "7f5a0b2e427bd89221c57aaf4acbf88d", "bike_id": "7f5a0b2e427bd89221c57aaf4acbf88d", "is_disabled": 0, "fusion_lon": 0.0, "type": "electric_scooter", "lon": -77.01153733333334}, {"rental_uris": {"android": "https://dc.lft.to/lastmile_qr_scan", "ios": "https://dc.lft.to/lastmile_qr_scan"}, "fusion_lat": 0.0, "is_reserved": 0, "lat": 38.91033983333333, "name": "08be976ef445a149693b53f3fa12904d", "bike_id": "08be976ef445a149693b53f3fa12904d", "is_disabled": 0, "fusion_lon": 0.0, "type": "electric_scooter", "lon": -77.0292725}, {"rental_uris": {"android": "https://dc.lft.to/lastmile_qr_scan", "ios": "https://dc.lft.to/lastmile_qr_scan"}, "fusion_lat": 0.0, "is_reserved": 0, "lat": 38.90468583333333, "name": "7cdf8924b178040642111678034b2d7a", "bike_id": "7cdf8924b178040642111678034b2d7a", "is_disabled": 0, "fusion_lon": 0.0, "type": "electric_scooter", "lon": -77.0357695}, {"rental_uris": {"android": "https://dc.lft.to/lastmile_qr_scan", "ios": "https://dc.lft.to/lastmile_qr_scan"}, "fusion_lat": 0.0, "is_reserved": 0, "lat": 38.942014, "name": "1cb0a99e9165fe5acf240cff88dde2c6", "bike_id": "1cb0a99e9165fe5acf240cff88dde2c6", "is_disabled": 0, "fusion_lon": 0.0, "type": "electric_scooter", "lon": -77.02375916666666}, {"rental_uris": {"android": "https://dc.lft.to/lastmile_qr_scan", "ios": "https://dc.lft.to/lastmile_qr_scan"}, "fusion_lat": 0.0, "is_reserved": 0, "lat": 38.89725516666667, "name": "268c1f5e575bc736c6d2417473e07c78", "bike_id": "268c1f5e575bc736c6d2417473e07c78", "is_disabled": 0, "fusion_lon": 0.0, "type": "electric_scooter", "lon": -77.05527366666666}, {"rental_uris": {"android": "https://dc.lft.to/lastmile_qr_scan", "ios": "https://dc.lft.to/lastmile_qr_scan"}, "fusion_lat": 0.0, "is_reserved": 0, "lat": 38.9025895, "name": "a53124793b5db8160941d7cd4595137c", "bike_id": "a53124793b5db8160941d7cd4595137c", "is_disabled": 0, "fusion_lon": 0.0, "type": "electric_scooter", "lon": -77.01849416666667}, {"rental_uris": {"android": "https://dc.lft.to/lastmile_qr_scan", "ios": "https://dc.lft.to/lastmile_qr_scan"}, "fusion_lat": 0.0, "is_reserved": 0, "lat": 38.932652166666664, "name": "396172eba1fed47b95bb4a23c10a680e", "bike_id": "396172eba1fed47b95bb4a23c10a680e", "is_disabled": 0, "fusion_lon": 0.0, "type": "electric_scooter", "lon": -77.02094866666667}, {"rental_uris": {"android": "https://dc.lft.to/lastmile_qr_scan", "ios": "https://dc.lft.to/lastmile_qr_scan"}, "fusion_lat": 0.0, "is_reserved": 0, "lat": 38.905642666666665, "name": "c9dbdbef40eff51dc94d341940f0fd79", "bike_id": "c9dbdbef40eff51dc94d341940f0fd79", "is_disabled": 0, "fusion_lon": 0.0, "type": "electric_scooter", "lon": -77.04681483333333}, {"rental_uris": {"android": "https://dc.lft.to/lastmile_qr_scan", "ios": "https://dc.lft.to/lastmile_qr_scan"}, "fusion_lat": 0.0, "is_reserved": 0, "lat": 38.918204833333334, "name": "42e70e9ce4bb469e599ed2085e7c648e", "bike_id": "42e70e9ce4bb469e599ed2085e7c648e", "is_disabled": 0, "fusion_lon": 0.0, "type": "electric_scooter", "lon": -77.03157416666667}, {"rental_uris": {"android": "https://dc.lft.to/lastmile_qr_scan", "ios": "https://dc.lft.to/lastmile_qr_scan"}, "fusion_lat": 0.0, "is_reserved": 0, "lat": 38.92336016666667, "name": "2680e263de572566796b75271be9d525", "bike_id": "2680e263de572566796b75271be9d525", "is_disabled": 0, "fusion_lon": 0.0, "type": "electric_scooter", "lon": -77.036152}, {"rental_uris": {"android": "https://dc.lft.to/lastmile_qr_scan", "ios": "https://dc.lft.to/lastmile_qr_scan"}, "fusion_lat": 0.0, "is_reserved": 0, "lat": 38.904524, "name": "bf9cf6cfaa408615eb1e604fc97b9718", "bike_id": "bf9cf6cfaa408615eb1e604fc97b9718", "is_disabled": 0, "fusion_lon": 0.0, "type": "electric_scooter", "lon": -77.06010216666667}, {"rental_uris": {"android": "https://dc.lft.to/lastmile_qr_scan", "ios": "https://dc.lft.to/lastmile_qr_scan"}, "fusion_lat": 0.0, "is_reserved": 0, "lat": 38.943108333333335, "name": "6b50792f4d4f46a55d473555e250d3e6", "bike_id": "6b50792f4d4f46a55d473555e250d3e6", "is_disabled": 0, "fusion_lon": 0.0, "type": "electric_scooter", "lon": -77.0217835}, {"rental_uris": {"android": "https://dc.lft.to/lastmile_qr_scan", "ios": "https://dc.lft.to/lastmile_qr_scan"}, "fusion_lat": 0.0, "is_reserved": 0, "lat": 38.90120966666667, "name": "f03a34dbed489b138dce11e6236e93c5", "bike_id": "f03a34dbed489b138dce11e6236e93c5", "is_disabled": 0, "fusion_lon": 0.0, "type": "electric_scooter", "lon": -77.00318716666666}, {"rental_uris": {"android": "https://dc.lft.to/lastmile_qr_scan", "ios": "https://dc.lft.to/lastmile_qr_scan"}, "fusion_lat": 0.0, "is_reserved": 0, "lat": 38.925404666666665, "name": "470fe590c4850dde275a1abc45775572", "bike_id": "470fe590c4850dde275a1abc45775572", "is_disabled": 0, "fusion_lon": 0.0, "type": "electric_scooter", "lon": -77.04054}, {"rental_uris": {"android": "https://dc.lft.to/lastmile_qr_scan", "ios": "https://dc.lft.to/lastmile_qr_scan"}, "fusion_lat": 0.0, "is_reserved": 0, "lat": 38.8784975, "name": "c4ddef221c909ea1fc811286011ce2e4", "bike_id": "c4ddef221c909ea1fc811286011ce2e4", "is_disabled": 0, "fusion_lon": 0.0, "type": "electric_scooter", "lon": -76.982979}, {"rental_uris": {"android": "https://dc.lft.to/lastmile_qr_scan", "ios": "https://dc.lft.to/lastmile_qr_scan"}, "fusion_lat": 0.0, "is_reserved": 0, "lat": 38.906964, "name": "268dc75445421902d93dcf8b9ae349c7", "bike_id": "268dc75445421902d93dcf8b9ae349c7", "is_disabled": 0, "fusion_lon": 0.0, "type": "electric_scooter", "lon": -77.01113983333333}, {"rental_uris": {"android": "https://dc.lft.to/lastmile_qr_scan", "ios": "https://dc.lft.to/lastmile_qr_scan"}, "fusion_lat": 0.0, "is_reserved": 0, "lat": 38.92024133333334, "name": "97ab3a6f21c0e2076a6cec25b4304d14", "bike_id": "97ab3a6f21c0e2076a6cec25b4304d14", "is_disabled": 0, "fusion_lon": 0.0, "type": "electric_scooter", "lon": -77.01041416666666}, {"rental_uris": {"android": "https://dc.lft.to/lastmile_qr_scan", "ios": "https://dc.lft.to/lastmile_qr_scan"}, "fusion_lat": 0.0, "is_reserved": 0, "lat": 38.899312333333334, "name": "e7e2ddbbdc785d998ce4a3ba5b6a2c0e", "bike_id": "e7e2ddbbdc785d998ce4a3ba5b6a2c0e", "is_disabled": 0, "fusion_lon": 0.0, "type": "electric_scooter", "lon": -77.02693866666667}, {"rental_uris": {"android": "https://dc.lft.to/lastmile_qr_scan", "ios": "https://dc.lft.to/lastmile_qr_scan"}, "fusion_lat": 0.0, "is_reserved": 0, "lat": 38.893597666666665, "name": "5c57a443ff671c1e5b5c070c33b92646", "bike_id": "5c57a443ff671c1e5b5c070c33b92646", "is_disabled": 0, "fusion_lon": 0.0, "type": "electric_scooter", "lon": -76.9864615}, {"rental_uris": {"android": "https://dc.lft.to/lastmile_qr_scan", "ios": "https://dc.lft.to/lastmile_qr_scan"}, "fusion_lat": 0.0, "is_reserved": 0, "lat": 38.901176666666665, "name": "7d306de08a02097d01a30b8483fed422", "bike_id": "7d306de08a02097d01a30b8483fed422", "is_disabled": 0, "fusion_lon": 0.0, "type": "electric_scooter", "lon": -77.01952716666666}, {"rental_uris": {"android": "https://dc.lft.to/lastmile_qr_scan", "ios": "https://dc.lft.to/lastmile_qr_scan"}, "fusion_lat": 0.0, "is_reserved": 0, "lat": 38.99677233333333, "name": "ffbf1a2174aa21b7f408afb48fef6570", "bike_id": "ffbf1a2174aa21b7f408afb48fef6570", "is_disabled": 0, "fusion_lon": 0.0, "type": "electric_bike", "lon": -77.037985}, {"rental_uris": {"android": "https://dc.lft.to/lastmile_qr_scan", "ios": "https://dc.lft.to/lastmile_qr_scan"}, "fusion_lat": 0.0, "is_reserved": 0, "lat": 38.92159566666667, "name": "499870ad9d64bf9126ebf84701709ec4", "bike_id": "499870ad9d64bf9126ebf84701709ec4", "is_disabled": 0, "fusion_lon": 0.0, "type": "electric_scooter", "lon": -77.018787}, {"rental_uris": {"android": "https://dc.lft.to/lastmile_qr_scan", "ios": "https://dc.lft.to/lastmile_qr_scan"}, "fusion_lat": 0.0, "is_reserved": 0, "lat": 38.92619783333333, "name": "07c74df6d4772a62464ec64f12786d89", "bike_id": "07c74df6d4772a62464ec64f12786d89", "is_disabled": 0, "fusion_lon": 0.0, "type": "electric_scooter", "lon": -77.022228}, {"rental_uris": {"android": "https://dc.lft.to/lastmile_qr_scan", "ios": "https://dc.lft.to/lastmile_qr_scan"}, "fusion_lat": 0.0, "is_reserved": 0, "lat": 38.8871295, "name": "a7c6ac6bac8acc439c211959c14a9a5c", "bike_id": "a7c6ac6bac8acc439c211959c14a9a5c", "is_disabled": 0, "fusion_lon": 0.0, "type": "electric_scooter", "lon": -77.021938}, {"rental_uris": {"android": "https://dc.lft.to/lastmile_qr_scan", "ios": "https://dc.lft.to/lastmile_qr_scan"}, "fusion_lat": 0.0, "is_reserved": 0, "lat": 38.9025065, "name": "5ce5d0d6304c3effce1a6df4345e2781", "bike_id": "5ce5d0d6304c3effce1a6df4345e2781", "is_disabled": 0, "fusion_lon": 0.0, "type": "electric_scooter", "lon": -77.0174105}, {"rental_uris": {"android": "https://dc.lft.to/lastmile_qr_scan", "ios": "https://dc.lft.to/lastmile_qr_scan"}, "fusion_lat": 0.0, "is_reserved": 0, "lat": 38.89732383333333, "name": "cf22740cf3f0d0a24da98e26d7a7702e", "bike_id": "cf22740cf3f0d0a24da98e26d7a7702e", "is_disabled": 0, "fusion_lon": 0.0, "type": "electric_scooter", "lon": -77.007604}, {"rental_uris": {"android": "https://dc.lft.to/lastmile_qr_scan", "ios": "https://dc.lft.to/lastmile_qr_scan"}, "fusion_lat": 0.0, "is_reserved": 0, "lat": 38.93379, "name": "0926a591bb162886432e3b2886bf6caa", "bike_id": "0926a591bb162886432e3b2886bf6caa", "is_disabled": 0, "fusion_lon": 0.0, "type": "electric_scooter", "lon": -77.03248833333333}, {"rental_uris": {"android": "https://dc.lft.to/lastmile_qr_scan", "ios": "https://dc.lft.to/lastmile_qr_scan"}, "fusion_lat": 0.0, "is_reserved": 0, "lat": 38.92239, "name": "52826bf8204d5073fa0e7cb377b7c5ba", "bike_id": "52826bf8204d5073fa0e7cb377b7c5ba", "is_disabled": 0, "fusion_lon": 0.0, "type": "electric_scooter", "lon": -77.034659}, {"rental_uris": {"android": "https://dc.lft.to/lastmile_qr_scan", "ios": "https://dc.lft.to/lastmile_qr_scan"}, "fusion_lat": 0.0, "is_reserved": 0, "lat": 38.897941333333335, "name": "0bda89268ef9b981abd21a0042841f1c", "bike_id": "0bda89268ef9b981abd21a0042841f1c", "is_disabled": 0, "fusion_lon": 0.0, "type": "electric_scooter", "lon": -77.05481483333334}, {"rental_uris": {"android": "https://dc.lft.to/lastmile_qr_scan", "ios": "https://dc.lft.to/lastmile_qr_scan"}, "fusion_lat": 0.0, "is_reserved": 0, "lat": 38.881851, "name": "9c7eaf0d2e1f3044a16b388bf0236936", "bike_id": "9c7eaf0d2e1f3044a16b388bf0236936", "is_disabled": 0, "fusion_lon": 0.0, "type": "electric_scooter", "lon": -76.99034633333333}, {"rental_uris": {"android": "https://dc.lft.to/lastmile_qr_scan", "ios": "https://dc.lft.to/lastmile_qr_scan"}, "fusion_lat": 0.0, "is_reserved": 0, "lat": 38.91845283333333, "name": "5d4b0813f2732b17069da16935b74ecf", "bike_id": "5d4b0813f2732b17069da16935b74ecf", "is_disabled": 0, "fusion_lon": 0.0, "type": "electric_scooter", "lon": -77.021842}, {"rental_uris": {"android": "https://dc.lft.to/lastmile_qr_scan", "ios": "https://dc.lft.to/lastmile_qr_scan"}, "fusion_lat": 0.0, "is_reserved": 0, "lat": 38.909019, "name": "256f5d6fbab8de61c64decbfce191bd8", "bike_id": "256f5d6fbab8de61c64decbfce191bd8", "is_disabled": 0, "fusion_lon": 0.0, "type": "electric_scooter", "lon": -77.0441025}, {"rental_uris": {"android": "https://dc.lft.to/lastmile_qr_scan", "ios": "https://dc.lft.to/lastmile_qr_scan"}, "fusion_lat": 0.0, "is_reserved": 0, "lat": 38.9159755, "name": "997f0fdf8dbb1ad77538b343e1b56615", "bike_id": "997f0fdf8dbb1ad77538b343e1b56615", "is_disabled": 0, "fusion_lon": 0.0, "type": "electric_scooter", "lon": -77.02296816666667}, {"rental_uris": {"android": "https://dc.lft.to/lastmile_qr_scan", "ios": "https://dc.lft.to/lastmile_qr_scan"}, "fusion_lat": 0.0, "is_reserved": 0, "lat": 38.89221633333333, "name": "307a78ec3fe22f36d1ded2abc155338d", "bike_id": "307a78ec3fe22f36d1ded2abc155338d", "is_disabled": 0, "fusion_lon": 0.0, "type": "electric_scooter", "lon": -77.03988083333333}, {"rental_uris": {"android": "https://dc.lft.to/lastmile_qr_scan", "ios": "https://dc.lft.to/lastmile_qr_scan"}, "fusion_lat": 0.0, "is_reserved": 0, "lat": 38.87293966666667, "name": "a26e2a63dd8d9cb49efbcbb8506afb71", "bike_id": "a26e2a63dd8d9cb49efbcbb8506afb71", "is_disabled": 0, "fusion_lon": 0.0, "type": "electric_scooter", "lon": -77.00233533333333}, {"rental_uris": {"android": "https://dc.lft.to/lastmile_qr_scan", "ios": "https://dc.lft.to/lastmile_qr_scan"}, "fusion_lat": 0.0, "is_reserved": 0, "lat": 38.88868766666667, "name": "04ad48bfab41c8abea2d6c9f99b73a8b", "bike_id": "04ad48bfab41c8abea2d6c9f99b73a8b", "is_disabled": 0, "fusion_lon": 0.0, "type": "electric_scooter", "lon": -76.99031833333333}, {"rental_uris": {"android": "https://dc.lft.to/lastmile_qr_scan", "ios": "https://dc.lft.to/lastmile_qr_scan"}, "fusion_lat": 0.0, "is_reserved": 0, "lat": 38.907313333333335, "name": "490ad6962168244c044fcaf6e4856cab", "bike_id": "490ad6962168244c044fcaf6e4856cab", "is_disabled": 0, "fusion_lon": 0.0, "type": "electric_scooter", "lon": -77.045488}, {"rental_uris": {"android": "https://dc.lft.to/lastmile_qr_scan", "ios": "https://dc.lft.to/lastmile_qr_scan"}, "fusion_lat": 0.0, "is_reserved": 0, "lat": 38.920750166666664, "name": "4f41262e908a5487a630ad5a094eadff", "bike_id": "4f41262e908a5487a630ad5a094eadff", "is_disabled": 0, "fusion_lon": 0.0, "type": "electric_scooter", "lon": -77.023169}, {"rental_uris": {"android": "https://dc.lft.to/lastmile_qr_scan", "ios": "https://dc.lft.to/lastmile_qr_scan"}, "fusion_lat": 0.0, "is_reserved": 0, "lat": 38.9037995, "name": "599e40eb3a6facd2db3d7d7a369b0a7b", "bike_id": "599e40eb3a6facd2db3d7d7a369b0a7b", "is_disabled": 0, "fusion_lon": 0.0, "type": "electric_scooter", "lon": -77.03649516666667}, {"rental_uris": {"android": "https://dc.lft.to/lastmile_qr_scan", "ios": "https://dc.lft.to/lastmile_qr_scan"}, "fusion_lat": 0.0, "is_reserved": 0, "lat": 39.0356095, "name": "167869cd23d73cf3756008302061c077", "bike_id": "167869cd23d73cf3756008302061c077", "is_disabled": 0, "fusion_lon": 0.0, "type": "electric_bike", "lon": -77.0391745}, {"rental_uris": {"android": "https://dc.lft.to/lastmile_qr_scan", "ios": "https://dc.lft.to/lastmile_qr_scan"}, "fusion_lat": 0.0, "is_reserved": 0, "lat": 38.9053725, "name": "f566ef90dc355051d8bec8d92afd77cd", "bike_id": "f566ef90dc355051d8bec8d92afd77cd", "is_disabled": 0, "fusion_lon": 0.0, "type": "electric_bike", "lon": -77.05911133333333}, {"rental_uris": {"android": "https://dc.lft.to/lastmile_qr_scan", "ios": "https://dc.lft.to/lastmile_qr_scan"}, "fusion_lat": 0.0, "is_reserved": 0, "lat": 38.90825733333333, "name": "a53b6022cf505f1dc1f33e87909d523f", "bike_id": "a53b6022cf505f1dc1f33e87909d523f", "is_disabled": 0, "fusion_lon": 0.0, "type": "electric_bike", "lon": -76.9880425}, {"rental_uris": {"android": "https://dc.lft.to/lastmile_qr_scan", "ios": "https://dc.lft.to/lastmile_qr_scan"}, "fusion_lat": 0.0, "is_reserved": 0, "lat": 38.907158333333335, "name": "a4edd1c3d5ba0e3ce248fa338a40c6cd", "bike_id": "a4edd1c3d5ba0e3ce248fa338a40c6cd", "is_disabled": 0, "fusion_lon": 0.0, "type": "electric_scooter", "lon": -77.0080865}, {"rental_uris": {"android": "https://dc.lft.to/lastmile_qr_scan", "ios": "https://dc.lft.to/lastmile_qr_scan"}, "fusion_lat": 0.0, "is_reserved": 0, "lat": 38.935286, "name": "010c5c3b4fbae897a0b0deea7c77ae7c", "bike_id": "010c5c3b4fbae897a0b0deea7c77ae7c", "is_disabled": 0, "fusion_lon": 0.0, "type": "electric_scooter", "lon": -77.028496}, {"rental_uris": {"android": "https://dc.lft.to/lastmile_qr_scan", "ios": "https://dc.lft.to/lastmile_qr_scan"}, "fusion_lat": 0.0, "is_reserved": 0, "lat": 38.88526483333333, "name": "ee3c0369fec3d1c7413b8d5ba327e816", "bike_id": "ee3c0369fec3d1c7413b8d5ba327e816", "is_disabled": 0, "fusion_lon": 0.0, "type": "electric_scooter", "lon": -76.98538516666666}, {"rental_uris": {"android": "https://dc.lft.to/lastmile_qr_scan", "ios": "https://dc.lft.to/lastmile_qr_scan"}, "fusion_lat": 0.0, "is_reserved": 0, "lat": 38.91798, "name": "8cf5e95314acbb864227674621e3226e", "bike_id": "8cf5e95314acbb864227674621e3226e", "is_disabled": 0, "fusion_lon": 0.0, "type": "electric_scooter", "lon": -77.0401835}, {"rental_uris": {"android": "https://dc.lft.to/lastmile_qr_scan", "ios": "https://dc.lft.to/lastmile_qr_scan"}, "fusion_lat": 0.0, "is_reserved": 0, "lat": 38.962174166666664, "name": "3625575a196ea210edafa8be5122983b", "bike_id": "3625575a196ea210edafa8be5122983b", "is_disabled": 0, "fusion_lon": 0.0, "type": "electric_bike", "lon": -77.0263245}, {"rental_uris": {"android": "https://dc.lft.to/lastmile_qr_scan", "ios": "https://dc.lft.to/lastmile_qr_scan"}, "fusion_lat": 0.0, "is_reserved": 0, "lat": 38.911047, "name": "1b3ef70cd3fc827db83a203d0722a76e", "bike_id": "1b3ef70cd3fc827db83a203d0722a76e", "is_disabled": 0, "fusion_lon": 0.0, "type": "electric_scooter", "lon": -77.01722266666667}, {"rental_uris": {"android": "https://dc.lft.to/lastmile_qr_scan", "ios": "https://dc.lft.to/lastmile_qr_scan"}, "fusion_lat": 0.0, "is_reserved": 0, "lat": 38.927408166666666, "name": "2c5a91d1d1384c0d25f4638214d8b0e2", "bike_id": "2c5a91d1d1384c0d25f4638214d8b0e2", "is_disabled": 0, "fusion_lon": 0.0, "type": "electric_scooter", "lon": -77.032654}, {"rental_uris": {"android": "https://dc.lft.to/lastmile_qr_scan", "ios": "https://dc.lft.to/lastmile_qr_scan"}, "fusion_lat": 0.0, "is_reserved": 0, "lat": 38.904363333333336, "name": "5a58fe9e612076134e6cb4479e41a122", "bike_id": "5a58fe9e612076134e6cb4479e41a122", "is_disabled": 0, "fusion_lon": 0.0, "type": "electric_scooter", "lon": -77.02888066666667}, {"rental_uris": {"android": "https://dc.lft.to/lastmile_qr_scan", "ios": "https://dc.lft.to/lastmile_qr_scan"}, "fusion_lat": 0.0, "is_reserved": 0, "lat": 38.89769866666666, "name": "bb2d878fb20b1f7500614d856684cda0", "bike_id": "bb2d878fb20b1f7500614d856684cda0", "is_disabled": 0, "fusion_lon": 0.0, "type": "electric_scooter", "lon": -77.03218133333333}, {"rental_uris": {"android": "https://dc.lft.to/lastmile_qr_scan", "ios": "https://dc.lft.to/lastmile_qr_scan"}, "fusion_lat": 0.0, "is_reserved": 0, "lat": 38.9112165, "name": "45017288e031ab39cf67f63db48840f1", "bike_id": "45017288e031ab39cf67f63db48840f1", "is_disabled": 0, "fusion_lon": 0.0, "type": "electric_scooter", "lon": -77.02197516666666}, {"rental_uris": {"android": "https://dc.lft.to/lastmile_qr_scan", "ios": "https://dc.lft.to/lastmile_qr_scan"}, "fusion_lat": 0.0, "is_reserved": 0, "lat": 38.8757765, "name": "3e2de9c6f8ef1089ed2f1c0177b8d554", "bike_id": "3e2de9c6f8ef1089ed2f1c0177b8d554", "is_disabled": 0, "fusion_lon": 0.0, "type": "electric_scooter", "lon": -77.00581183333334}, {"rental_uris": {"android": "https://dc.lft.to/lastmile_qr_scan", "ios": "https://dc.lft.to/lastmile_qr_scan"}, "fusion_lat": 0.0, "is_reserved": 0, "lat": 38.89331216666667, "name": "4fc077025c1e71f3e26fe105fd6e3566", "bike_id": "4fc077025c1e71f3e26fe105fd6e3566", "is_disabled": 0, "fusion_lon": 0.0, "type": "electric_scooter", "lon": -77.0318015}, {"rental_uris": {"android": "https://dc.lft.to/lastmile_qr_scan", "ios": "https://dc.lft.to/lastmile_qr_scan"}, "fusion_lat": 0.0, "is_reserved": 0, "lat": 38.92685566666667, "name": "c6395caf092ad7135e038f6e30fd77d6", "bike_id": "c6395caf092ad7135e038f6e30fd77d6", "is_disabled": 0, "fusion_lon": 0.0, "type": "electric_scooter", "lon": -77.0151355}, {"rental_uris": {"android": "https://dc.lft.to/lastmile_qr_scan", "ios": "https://dc.lft.to/lastmile_qr_scan"}, "fusion_lat": 0.0, "is_reserved": 0, "lat": 38.90868566666666, "name": "62db2e3b58bcd76166c0d612274ed4f7", "bike_id": "62db2e3b58bcd76166c0d612274ed4f7", "is_disabled": 0, "fusion_lon": 0.0, "type": "electric_scooter", "lon": -77.07156316666666}, {"rental_uris": {"android": "https://dc.lft.to/lastmile_qr_scan", "ios": "https://dc.lft.to/lastmile_qr_scan"},