{"data": {"bikes": [{"lat": 38.91962933333333, "fusion_lat": 0.0, "type": "electric_scooter", "bike_id": "9aa6e7f3c7509f354c0b7a0f0821c878", "rental_uris": {"ios": "https://dc.lft.to/lastmile_qr_scan", "android": "https://dc.lft.to/lastmile_qr_scan"}, "fusion_lon": 0.0, "lon": -77.01487833333333, "name": "9aa6e7f3c7509f354c0b7a0f0821c878", "is_reserved": 0, "is_disabled": 0}, {"lat": 38.918176, "fusion_lat": 0.0, "type": "electric_scooter", "bike_id": "824e1776a363a8aae3679d54eacedf19", "rental_uris": {"ios": "https://dc.lft.to/lastmile_qr_scan", "android": "https://dc.lft.to/lastmile_qr_scan"}, "fusion_lon": 0.0, "lon": -77.036326, "name": "824e1776a363a8aae3679d54eacedf19", "is_reserved": 0, "is_disabled": 0}, {"lat": 38.89447116666667, "fusion_lat": 0.0, "type": "electric_scooter", "bike_id": "1f3355d1ca66598a0efaba1158c36118", "rental_uris": {"ios": "https://dc.lft.to/lastmile_qr_scan", "android": "https://dc.lft.to/lastmile_qr_scan"}, "fusion_lon": 0.0, "lon": -77.02416833333334, "name": "1f3355d1ca66598a0efaba1158c36118", "is_reserved": 0, "is_disabled": 0}, {"lat": 38.86002, "fusion_lat": 0.0, "type": "electric_bike", "bike_id": "88f1f98a8c1d6d581262e68939c7f8b5", "rental_uris": {"ios": "https://dc.lft.to/lastmile_qr_scan", "android": "https://dc.lft.to/lastmile_qr_scan"}, "fusion_lon": 0.0, "lon": -77.05753333333334, "name": "88f1f98a8c1d6d581262e68939c7f8b5", "is_reserved": 0, "is_disabled": 0}, {"lat": 38.909933333333335, "fusion_lat": 0.0, "type": "electric_scooter", "bike_id": "31abb500bf3802cd6e6ba49e2c22535d", "rental_uris": {"ios": "https://dc.lft.to/lastmile_qr_scan", "android": "https://dc.lft.to/lastmile_qr_scan"}, "fusion_lon": 0.0, "lon": -77.07349816666667, "name": "31abb500bf3802cd6e6ba49e2c22535d", "is_reserved": 0, "is_disabled": 0}, {"lat": 38.997781833333335, "fusion_lat": 0.0, "type": "electric_bike", "bike_id": "b72fcdfa083a93da948108f658b8574e", "rental_uris": {"ios": "https://dc.lft.to/lastmile_qr_scan", "android": "https://dc.lft.to/lastmile_qr_scan"}, "fusion_lon": 0.0, "lon": -77.04711433333334, "name": "b72fcdfa083a93da948108f658b8574e", "is_reserved": 0, "is_disabled": 0}, {"lat": 38.91711516666667, "fusion_lat": 0.0, "type": "electric_scooter", "bike_id": "5fff154d2ce203ce38cb76e397589acf", "rental_uris": {"ios": "https://dc.lft.to/lastmile_qr_scan", "android": "https://dc.lft.to/lastmile_qr_scan"}, "fusion_lon": 0.0, "lon": -77.03244516666666, "name": "5fff154d2ce203ce38cb76e397589acf", "is_reserved": 0, "is_disabled": 0}, {"lat": 38.901680999999996, "fusion_lat": 0.0, "type": "electric_scooter", "bike_id": "983ef322fa3ed1c2e8d8ee665c1b01aa", "rental_uris": {"ios": "https://dc.lft.to/lastmile_qr_scan", "android": "https://dc.lft.to/lastmile_qr_scan"}, "fusion_lon": 0.0, "lon": -77.04866833333334, "name": "983ef322fa3ed1c2e8d8ee665c1b01aa", "is_reserved": 0, "is_disabled": 0}, {"lat": 38.91856116666666, "fusion_lat": 0.0, "type": "electric_scooter", "bike_id": "cbd71d99b69f5d87a51ec51abfb3f2d7", "rental_uris": {"ios": "https://dc.lft.to/lastmile_qr_scan", "android": "https://dc.lft.to/lastmile_qr_scan"}, "fusion_lon": 0.0, "lon": -77.04470933333333, "name": "cbd71d99b69f5d87a51ec51abfb3f2d7", "is_reserved": 0, "is_disabled": 0}, {"lat": 38.91024933333333, "fusion_lat": 0.0, "type": "electric_scooter", "bike_id": "16e6a7b10e5d83ca26a7997d39189b2d", "rental_uris": {"ios": "https://dc.lft.to/lastmile_qr_scan", "android": "https://dc.lft.to/lastmile_qr_scan"}, "fusion_lon": 0.0, "lon": -77.031855, "name": "16e6a7b10e5d83ca26a7997d39189b2d", "is_reserved": 0, "is_disabled": 0}, {"lat": 38.9440865, "fusion_lat": 0.0, "type": "electric_bike", "bike_id": "928c58ae09f5e1cb6817666dd3e22290", "rental_uris": {"ios": "https://dc.lft.to/lastmile_qr_scan", "android": "https://dc.lft.to/lastmile_qr_scan"}, "fusion_lon": 0.0, "lon": -77.05511183333333, "name": "928c58ae09f5e1cb6817666dd3e22290", "is_reserved": 0, "is_disabled": 0}, {"lat": 38.87937083333333, "fusion_lat": 0.0, "type": "electric_bike", "bike_id": "61072a6b3f8741e75f5ee1c29483f131", "rental_uris": {"ios": "https://dc.lft.to/lastmile_qr_scan", "android": "https://dc.lft.to/lastmile_qr_scan"}, "fusion_lon": 0.0, "lon": -76.98494183333334, "name": "61072a6b3f8741e75f5ee1c29483f131", "is_reserved": 0, "is_disabled": 0}, {"lat": 38.9148815, "fusion_lat": 0.0, "type": "electric_scooter", "bike_id": "61f617813cfc641f8264cb9441559f68", "rental_uris": {"ios": "https://dc.lft.to/lastmile_qr_scan", "android": "https://dc.lft.to/lastmile_qr_scan"}, "fusion_lon": 0.0, "lon": -76.98376683333333, "name": "61f617813cfc641f8264cb9441559f68", "is_reserved": 0, "is_disabled": 0}, {"lat": 38.92024716666667, "fusion_lat": 0.0, "type": "electric_scooter", "bike_id": "2d026df9c260e1d70b9f307b058850f8", "rental_uris": {"ios": "https://dc.lft.to/lastmile_qr_scan", "android": "https://dc.lft.to/lastmile_qr_scan"}, "fusion_lon": 0.0, "lon": -77.07163133333333, "name": "2d026df9c260e1d70b9f307b058850f8", "is_reserved": 0, "is_disabled": 0}, {"lat": 38.94284066666667, "fusion_lat": 0.0, "type": "electric_scooter", "bike_id": "4ff972ea7a95b3296036cbf4fecf1947", "rental_uris": {"ios": "https://dc.lft.to/lastmile_qr_scan", "android": "https://dc.lft.to/lastmile_qr_scan"}, "fusion_lon": 0.0, "lon": -77.0293985, "name": "4ff972ea7a95b3296036cbf4fecf1947", "is_reserved": 0, "is_disabled": 0}, {"lat": 38.89239116666667, "fusion_lat": 0.0, "type": "electric_scooter", "bike_id": "d6a1a4d796b79b64de140653557ee5d0", "rental_uris": {"ios": "https://dc.lft.to/lastmile_qr_scan", "android": "https://dc.lft.to/lastmile_qr_scan"}, "fusion_lon": 0.0, "lon": -77.02614366666667, "name": "d6a1a4d796b79b64de140653557ee5d0", "is_reserved": 0, "is_disabled": 0}, {"lat": 38.886344666666666, "fusion_lat": 0.0, "type": "electric_scooter", "bike_id": "a5c3fd8b9ef0b5de422e89d67584a14c", "rental_uris": {"ios": "https://dc.lft.to/lastmile_qr_scan", "android": "https://dc.lft.to/lastmile_qr_scan"}, "fusion_lon": 0.0, "lon": -77.02828566666666, "name": "a5c3fd8b9ef0b5de422e89d67584a14c", "is_reserved": 0, "is_disabled": 0}, {"lat": 38.90538883333333, "fusion_lat": 0.0, "type": "electric_scooter", "bike_id": "9d55592a756ff62c18458c8d66f57c31", "rental_uris": {"ios": "https://dc.lft.to/lastmile_qr_scan", "android": "https://dc.lft.to/lastmile_qr_scan"}, "fusion_lon": 0.0, "lon": -77.02203916666667, "name": "9d55592a756ff62c18458c8d66f57c31", "is_reserved": 0, "is_disabled": 0}, {"lat": 39.03896116666667, "fusion_lat": 0.0, "type": "electric_bike", "bike_id": "5dc236ae0ce5ee256ced9ab9bf32290d", "rental_uris": {"ios": "https://dc.lft.to/lastmile_qr_scan", "android": "https://dc.lft.to/lastmile_qr_scan"}, "fusion_lon": 0.0, "lon": -77.05022016666666, "name": "5dc236ae0ce5ee256ced9ab9bf32290d", "is_reserved": 0, "is_disabled": 0}, {"lat": 38.904294666666665, "fusion_lat": 0.0, "type": "electric_scooter", "bike_id": "3b7e0d1796daf2c63d7aaf74480de57e", "rental_uris": {"ios": "https://dc.lft.to/lastmile_qr_scan", "android": "https://dc.lft.to/lastmile_qr_scan"}, "fusion_lon": 0.0, "lon": -77.02767616666667, "name": "3b7e0d1796daf2c63d7aaf74480de57e", "is_reserved": 0, "is_disabled": 0}, {"lat": 38.88397233333333, "fusion_lat": 0.0, "type": "electric_scooter", "bike_id": "0f49e3b1c6130fe66048be62bf3a57e5", "rental_uris": {"ios": "https://dc.lft.to/lastmile_qr_scan", "android": "https://dc.lft.to/lastmile_qr_scan"}, "fusion_lon": 0.0, "lon": -77.01767083333333, "name": "0f49e3b1c6130fe66048be62bf3a57e5", "is_reserved": 0, "is_disabled": 0}, {"lat": 38.9106595, "fusion_lat": 0.0, "type": "electric_scooter", "bike_id": "2365d73460a6a14c51806f687e9ed855", "rental_uris": {"ios": "https://dc.lft.to/lastmile_qr_scan", "android": "https://dc.lft.to/lastmile_qr_scan"}, "fusion_lon": 0.0, "lon": -77.04479483333333, "name": "2365d73460a6a14c51806f687e9ed855", "is_reserved": 0, "is_disabled": 0}, {"lat": 38.85931733333334, "fusion_lat": 0.0, "type": "electric_scooter", "bike_id": "5959c84e49eb7162b3b6cf03849364b5", "rental_uris": {"ios": "https://dc.lft.to/lastmile_qr_scan", "android": "https://dc.lft.to/lastmile_qr_scan"}, "fusion_lon": 0.0, "lon": -76.98970833333334, "name": "5959c84e49eb7162b3b6cf03849364b5", "is_reserved": 0, "is_disabled": 0}, {"lat": 38.86065083333333, "fusion_lat": 0.0, "type": "electric_scooter", "bike_id": "a6ff48f51f495ddc0fc112094531afc6", "rental_uris": {"ios": "https://dc.lft.to/lastmile_qr_scan", "android": "https://dc.lft.to/lastmile_qr_scan"}, "fusion_lon": 0.0, "lon": -76.96711333333333, "name": "a6ff48f51f495ddc0fc112094531afc6", "is_reserved": 0, "is_disabled": 0}, {"lat": 38.910464, "fusion_lat": 0.0, "type": "electric_scooter", "bike_id": "9808e174c191997fa5c12250013b2d19", "rental_uris": {"ios": "https://dc.lft.to/lastmile_qr_scan", "android": "https://dc.lft.to/lastmile_qr_scan"}, "fusion_lon": 0.0, "lon": -77.04266633333333, "name": "9808e174c191997fa5c12250013b2d19", "is_reserved": 0, "is_disabled": 0}, {"lat": 38.90675433333333, "fusion_lat": 0.0, "type": "electric_scooter", "bike_id": "64b3cc7d16e57ec5e19209870bd277f3", "rental_uris": {"ios": "https://dc.lft.to/lastmile_qr_scan", "android": "https://dc.lft.to/lastmile_qr_scan"}, "fusion_lon": 0.0, "lon": -77.05015583333333, "name": "64b3cc7d16e57ec5e19209870bd277f3", "is_reserved": 0, "is_disabled": 0}, {"lat": 38.905772, "fusion_lat": 0.0, "type": "electric_scooter", "bike_id": "9caa97f73e977cd9d69baa268d83aa49", "rental_uris": {"ios": "https://dc.lft.to/lastmile_qr_scan", "android": "https://dc.lft.to/lastmile_qr_scan"}, "fusion_lon": 0.0, "lon": -77.04865183333334, "name": "9caa97f73e977cd9d69baa268d83aa49", "is_reserved": 0, "is_disabled": 0}, {"lat": 38.920503, "fusion_lat": 0.0, "type": "electric_scooter", "bike_id": "e3c5377293aae03625357ec2debaf584", "rental_uris": {"ios": "https://dc.lft.to/lastmile_qr_scan", "android": "https://dc.lft.to/lastmile_qr_scan"}, "fusion_lon": 0.0, "lon": -77.01707483333334, "name": "e3c5377293aae03625357ec2debaf584", "is_reserved": 0, "is_disabled": 0}, {"lat": 38.92118, "fusion_lat": 0.0, "type": "electric_scooter", "bike_id": "f433a4dc3cc0449ee2a4ba4aaa0865a2", "rental_uris": {"ios": "https://dc.lft.to/lastmile_qr_scan", "android": "https://dc.lft.to/lastmile_qr_scan"}, "fusion_lon": 0.0, "lon": -77.03663616666667, "name": "f433a4dc3cc0449ee2a4ba4aaa0865a2", "is_reserved": 0, "is_disabled": 0}, {"lat": 38.92387383333333, "fusion_lat": 0.0, "type": "electric_scooter", "bike_id": "a2736fe4cf451885c6d417e393a5f1a1", "rental_uris": {"ios": "https://dc.lft.to/lastmile_qr_scan", "android": "https://dc.lft.to/lastmile_qr_scan"}, "fusion_lon": 0.0, "lon": -77.0273405, "name": "a2736fe4cf451885c6d417e393a5f1a1", "is_reserved": 0, "is_disabled": 0}, {"lat": 38.87224766666667, "fusion_lat": 0.0, "type": "electric_scooter", "bike_id": "98929c86ae0dad362880c69ea84803f5", "rental_uris": {"ios": "https://dc.lft.to/lastmile_qr_scan", "android": "https://dc.lft.to/lastmile_qr_scan"}, "fusion_lon": 0.0, "lon": -77.01573416666666, "name": "98929c86ae0dad362880c69ea84803f5", "is_reserved": 0, "is_disabled": 0}, {"lat": 38.916122666666666, "fusion_lat": 0.0, "type": "electric_scooter", "bike_id": "297576e5c1f2119390f41a2ea143cdbf", "rental_uris": {"ios": "https://dc.lft.to/lastmile_qr_scan", "android": "https://dc.lft.to/lastmile_qr_scan"}, "fusion_lon": 0.0, "lon": -77.011515, "name": "297576e5c1f2119390f41a2ea143cdbf", "is_reserved": 0, "is_disabled": 0}, {"lat": 38.900692166666666, "fusion_lat": 0.0, "type": "electric_scooter", "bike_id": "4e052c899dfa2ab32d30fbff94ba58b4", "rental_uris": {"ios": "https://dc.lft.to/lastmile_qr_scan", "android": "https://dc.lft.to/lastmile_qr_scan"}, "fusion_lon": 0.0, "lon": -77.04529916666667, "name": "4e052c899dfa2ab32d30fbff94ba58b4", "is_reserved": 0, "is_disabled": 0}, {"lat": 38.92098566666667, "fusion_lat": 0.0, "type": "electric_scooter", "bike_id": "f7335df955db2728a5b841db3a00c5b0", "rental_uris": {"ios": "https://dc.lft.to/lastmile_qr_scan", "android": "https://dc.lft.to/lastmile_qr_scan"}, "fusion_lon": 0.0, "lon": -77.02518416666666, "name": "f7335df955db2728a5b841db3a00c5b0", "is_reserved": 0, "is_disabled": 0}, {"lat": 38.8766085, "fusion_lat": 0.0, "type": "electric_scooter", "bike_id": "a69b670dac06fb3806b08003c94bae7f", "rental_uris": {"ios": "https://dc.lft.to/lastmile_qr_scan", "android": "https://dc.lft.to/lastmile_qr_scan"}, "fusion_lon": 0.0, "lon": -76.99459283333333, "name": "a69b670dac06fb3806b08003c94bae7f", "is_reserved": 0, "is_disabled": 0}, {"lat": 38.92332833333333, "fusion_lat": 0.0, "type": "electric_scooter", "bike_id": "12e579420430f31e3bb99e5763f5017e", "rental_uris": {"ios": "https://dc.lft.to/lastmile_qr_scan", "android": "https://dc.lft.to/lastmile_qr_scan"}, "fusion_lon": 0.0, "lon": -77.02280866666666, "name": "12e579420430f31e3bb99e5763f5017e", "is_reserved": 0, "is_disabled": 0}, {"lat": 38.89773783333333, "fusion_lat": 0.0, "type": "electric_scooter", "bike_id": "48d7787d69af74b9d18d49da98bdeb3d", "rental_uris": {"ios": "https://dc.lft.to/lastmile_qr_scan", "android": "https://dc.lft.to/lastmile_qr_scan"}, "fusion_lon": 0.0, "lon": -76.98458166666667, "name": "48d7787d69af74b9d18d49da98bdeb3d", "is_reserved": 0, "is_disabled": 0}, {"lat": 38.9206295, "fusion_lat": 0.0, "type": "electric_scooter", "bike_id": "3eb7aae9960a850c7e9e52dd620cc2ea", "rental_uris": {"ios": "https://dc.lft.to/lastmile_qr_scan", "android": "https://dc.lft.to/lastmile_qr_scan"}, "fusion_lon": 0.0, "lon": -77.04219, "name": "3eb7aae9960a850c7e9e52dd620cc2ea", "is_reserved": 0, "is_disabled": 0}, {"lat": 38.97353183333333, "fusion_lat": 0.0, "type": "electric_scooter", "bike_id": "8be0d9f595dfbb4d9a379fcde3c776c0", "rental_uris": {"ios": "https://dc.lft.to/lastmile_qr_scan", "android": "https://dc.lft.to/lastmile_qr_scan"}, "fusion_lon": 0.0, "lon": -77.0278415, "name": "8be0d9f595dfbb4d9a379fcde3c776c0", "is_reserved": 0, "is_disabled": 0}, {"lat": 38.90836383333333, "fusion_lat": 0.0, "type": "electric_scooter", "bike_id": "f8288cae85c98bd4db375ddd6a9edbee", "rental_uris": {"ios": "https://dc.lft.to/lastmile_qr_scan", "android": "https://dc.lft.to/lastmile_qr_scan"}, "fusion_lon": 0.0, "lon": -77.06382033333334, "name": "f8288cae85c98bd4db375ddd6a9edbee", "is_reserved": 0, "is_disabled": 0}, {"lat": 38.90413383333333, "fusion_lat": 0.0, "type": "electric_scooter", "bike_id": "e75e4e7daecd1a2621ab25b2246c8c0e", "rental_uris": {"ios": "https://dc.lft.to/lastmile_qr_scan", "android": "https://dc.lft.to/lastmile_qr_scan"}, "fusion_lon": 0.0, "lon": -77.04664833333334, "name": "e75e4e7daecd1a2621ab25b2246c8c0e", "is_reserved": 0, "is_disabled": 0}, {"lat": 38.94429316666667, "fusion_lat": 0.0, "type": "electric_scooter", "bike_id": "9d0dc3ac49097803d06a44348df6cab9", "rental_uris": {"ios": "https://dc.lft.to/lastmile_qr_scan", "android": "https://dc.lft.to/lastmile_qr_scan"}, "fusion_lon": 0.0, "lon": -77.063191, "name": "9d0dc3ac49097803d06a44348df6cab9", "is_reserved": 0, "is_disabled": 0}, {"lat": 38.88707316666667, "fusion_lat": 0.0, "type": "electric_scooter", "bike_id": "670ae8934449ea98723d6e55a80228bf", "rental_uris": {"ios": "https://dc.lft.to/lastmile_qr_scan", "android": "https://dc.lft.to/lastmile_qr_scan"}, "fusion_lon": 0.0, "lon": -77.01360716666667, "name": "670ae8934449ea98723d6e55a80228bf", "is_reserved": 0, "is_disabled": 0}, {"lat": 38.92888816666667, "fusion_lat": 0.0, "type": "electric_scooter", "bike_id": "95cf65a7b5597b0a5093e04354c5fd98", "rental_uris": {"ios": "https://dc.lft.to/lastmile_qr_scan", "android": "https://dc.lft.to/lastmile_qr_scan"}, "fusion_lon": 0.0, "lon": -77.032612, "name": "95cf65a7b5597b0a5093e04354c5fd98", "is_reserved": 0, "is_disabled": 0}, {"lat": 38.90255116666667, "fusion_lat": 0.0, "type": "electric_scooter", "bike_id": "8c549fc75cee2388ad8e44545c808ca2", "rental_uris": {"ios": "https://dc.lft.to/lastmile_qr_scan", "android": "https://dc.lft.to/lastmile_qr_scan"}, "fusion_lon": 0.0, "lon": -77.043409, "name": "8c549fc75cee2388ad8e44545c808ca2", "is_reserved": 0, "is_disabled": 0}, {"lat": 38.90123166666667, "fusion_lat": 0.0, "type": "electric_scooter", "bike_id": "1e6d07f0b7caf4c45f698cb1206c5045", "rental_uris": {"ios": "https://dc.lft.to/lastmile_qr_scan", "android": "https://dc.lft.to/lastmile_qr_scan"}, "fusion_lon": 0.0, "lon": -77.0274185, "name": "1e6d07f0b7caf4c45f698cb1206c5045", "is_reserved": 0, "is_disabled": 0}, {"lat": 38.918106333333334, "fusion_lat": 0.0, "type": "electric_scooter", "bike_id": "387460b98b199f2dadf942abb9ff4f91", "rental_uris": {"ios": "https://dc.lft.to/lastmile_qr_scan", "android": "https://dc.lft.to/lastmile_qr_scan"}, "fusion_lon": 0.0, "lon": -77.03459533333333, "name": "387460b98b199f2dadf942abb9ff4f91", "is_reserved": 0, "is_disabled": 0}, {"lat": 38.901986666666666, "fusion_lat": 0.0, "type": "electric_scooter", "bike_id": "dd000251c2fdf62d7b4153755b60bbf6", "rental_uris": {"ios": "https://dc.lft.to/lastmile_qr_scan", "android": "https://dc.lft.to/lastmile_qr_scan"}, "fusion_lon": 0.0, "lon": -77.0237415, "name": "dd000251c2fdf62d7b4153755b60bbf6", "is_reserved": 0, "is_disabled": 0}, {"lat": 38.945042666666666, "fusion_lat": 0.0, "type": "electric_scooter", "bike_id": "b3309e24ae0ae5727956d6924629f8c3", "rental_uris": {"ios": "https://dc.lft.to/lastmile_qr_scan", "android": "https://dc.lft.to/lastmile_qr_scan"}, "fusion_lon": 0.0, "lon": -77.03831083333333, "name": "b3309e24ae0ae5727956d6924629f8c3", "is_reserved": 0, "is_disabled": 0}, {"lat": 38.92036133333333, "fusion_lat": 0.0, "type": "electric_bike", "bike_id": "17a30ef1df6f565bbd2f011b149aa300", "rental_uris": {"ios": "https://dc.lft.to/lastmile_qr_scan", "android": "https://dc.lft.to/lastmile_qr_scan"}, "fusion_lon": 0.0, "lon": -76.97954183333333, "name": "17a30ef1df6f565bbd2f011b149aa300", "is_reserved": 0, "is_disabled": 0}, {"lat": 38.924621, "fusion_lat": 0.0, "type": "electric_scooter", "bike_id": "b5a0089afa725f9b1aef0a50e56161dd", "rental_uris": {"ios": "https://dc.lft.to/lastmile_qr_scan", "android": "https://dc.lft.to/lastmile_qr_scan"}, "fusion_lon": 0.0, "lon": -77.02152533333333, "name": "b5a0089afa725f9b1aef0a50e56161dd", "is_reserved": 0, "is_disabled": 0}, {"lat": 38.907393666666664, "fusion_lat": 0.0, "type": "electric_scooter", "bike_id": "81748e02220b078d39cafed1e2f55b59", "rental_uris": {"ios": "https://dc.lft.to/lastmile_qr_scan", "android": "https://dc.lft.to/lastmile_qr_scan"}, "fusion_lon": 0.0, "lon": -77.04304283333333, "name": "81748e02220b078d39cafed1e2f55b59", "is_reserved": 0, "is_disabled": 0}, {"lat": 38.92141083333333, "fusion_lat": 0.0, "type": "electric_scooter", "bike_id": "49d466063abdf2e7941381f87e5a76b9", "rental_uris": {"ios": "https://dc.lft.to/lastmile_qr_scan", "android": "https://dc.lft.to/lastmile_qr_scan"}, "fusion_lon": 0.0, "lon": -77.04347416666667, "name": "49d466063abdf2e7941381f87e5a76b9", "is_reserved": 0, "is_disabled": 0}, {"lat": 38.887393833333334, "fusion_lat": 0.0, "type": "electric_scooter", "bike_id": "336abe7b8115407acc67851a3e78eb4b", "rental_uris": {"ios": "https://dc.lft.to/lastmile_qr_scan", "android": "https://dc.lft.to/lastmile_qr_scan"}, "fusion_lon": 0.0, "lon": -77.0034055, "name": "336abe7b8115407acc67851a3e78eb4b", "is_reserved": 0, "is_disabled": 0}, {"lat": 38.90790366666667, "fusion_lat": 0.0, "type": "electric_scooter", "bike_id": "290283633b4b07f2f5957dcadc22d047", "rental_uris": {"ios": "https://dc.lft.to/lastmile_qr_scan", "android": "https://dc.lft.to/lastmile_qr_scan"}, "fusion_lon": 0.0, "lon": -77.0641575, "name": "290283633b4b07f2f5957dcadc22d047", "is_reserved": 0, "is_disabled": 0}, {"lat": 38.899351, "fusion_lat": 0.0, "type": "electric_scooter", "bike_id": "0810d1818082591d6583dc5478c11ae7", "rental_uris": {"ios": "https://dc.lft.to/lastmile_qr_scan", "android": "https://dc.lft.to/lastmile_qr_scan"}, "fusion_lon": 0.0, "lon": -77.01278083333334, "name": "0810d1818082591d6583dc5478c11ae7", "is_reserved": 0, "is_disabled": 0}, {"lat": 38.836270166666665, "fusion_lat": 0.0, "type": "electric_bike", "bike_id": "5e5bb8425854d902cca8787f5be69467", "rental_uris": {"ios": "https://dc.lft.to/lastmile_qr_scan", "android": "https://dc.lft.to/lastmile_qr_scan"}, "fusion_lon": 0.0, "lon": -77.069468, "name": "5e5bb8425854d902cca8787f5be69467", "is_reserved": 0, "is_disabled": 0}, {"lat": 38.91698133333333, "fusion_lat": 0.0, "type": "electric_scooter", "bike_id": "5cf7785ba424ff7778bfc7f475a3d3cf", "rental_uris": {"ios": "https://dc.lft.to/lastmile_qr_scan", "android": "https://dc.lft.to/lastmile_qr_scan"}, "fusion_lon": 0.0, "lon": -77.0359815, "name": "5cf7785ba424ff7778bfc7f475a3d3cf", "is_reserved": 0, "is_disabled": 0}, {"lat": 38.91711983333333, "fusion_lat": 0.0, "type": "electric_scooter", "bike_id": "d6a58fe56044a3c665c8bd569bdb291f", "rental_uris": {"ios": "https://dc.lft.to/lastmile_qr_scan", "android": "https://dc.lft.to/lastmile_qr_scan"}, "fusion_lon": 0.0, "lon": -77.02960666666667, "name": "d6a58fe56044a3c665c8bd569bdb291f", "is_reserved": 0, "is_disabled": 0}, {"lat": 38.918588166666666, "fusion_lat": 0.0, "type": "electric_bike", "bike_id": "e796fa0ab1bd46e09dbf0f19fda63fea", "rental_uris": {"ios": "https://dc.lft.to/lastmile_qr_scan", "android": "https://dc.lft.to/lastmile_qr_scan"}, "fusion_lon": 0.0, "lon": -76.96085316666667, "name": "e796fa0ab1bd46e09dbf0f19fda63fea", "is_reserved": 0, "is_disabled": 0}, {"lat": 38.906562, "fusion_lat": 0.0, "type": "electric_scooter", "bike_id": "ed648bec629e2fb47eac26386902f2ea", "rental_uris": {"ios": "https://dc.lft.to/lastmile_qr_scan", "android": "https://dc.lft.to/lastmile_qr_scan"}, "fusion_lon": 0.0, "lon": -77.00955483333334, "name": "ed648bec629e2fb47eac26386902f2ea", "is_reserved": 0, "is_disabled": 0}, {"lat": 38.907188, "fusion_lat": 0.0, "type": "electric_scooter", "bike_id": "9cc75e6fca61a153a4c72fa0bad44cd3", "rental_uris": {"ios": "https://dc.lft.to/lastmile_qr_scan", "android": "https://dc.lft.to/lastmile_qr_scan"}, "fusion_lon": 0.0, "lon": -77.01658833333333, "name": "9cc75e6fca61a153a4c72fa0bad44cd3", "is_reserved": 0, "is_disabled": 0}, {"lat": 38.9615725, "fusion_lat": 0.0, "type": "electric_scooter", "bike_id": "eb9fb3e13f69d9341a58e9a0e18b940e", "rental_uris": {"ios": "https://dc.lft.to/lastmile_qr_scan", "android": "https://dc.lft.to/lastmile_qr_scan"}, "fusion_lon": 0.0, "lon": -77.02790033333333, "name": "eb9fb3e13f69d9341a58e9a0e18b940e", "is_reserved": 0, "is_disabled": 0}, {"lat": 38.8874755, "fusion_lat": 0.0, "type": "electric_scooter", "bike_id": "45d23e5d861f03268ed670b759e2866a", "rental_uris": {"ios": "https://dc.lft.to/lastmile_qr_scan", "android": "https://dc.lft.to/lastmile_qr_scan"}, "fusion_lon": 0.0, "lon": -77.025683, "name": "45d23e5d861f03268ed670b759e2866a", "is_reserved": 0, "is_disabled": 0}, {"lat": 38.950376, "fusion_lat": 0.0, "type": "electric_scooter", "bike_id": "11866c8e13c7de33dd8a25752f426583", "rental_uris": {"ios": "https://dc.lft.to/lastmile_qr_scan", "android": "https://dc.lft.to/lastmile_qr_scan"}, "fusion_lon": 0.0, "lon": -77.02736533333334, "name": "11866c8e13c7de33dd8a25752f426583", "is_reserved": 0, "is_disabled": 0}, {"lat": 38.895996, "fusion_lat": 0.0, "type": "electric_scooter", "bike_id": "6b3d5cea3042abac3c390c71fe9b2927", "rental_uris": {"ios": "https://dc.lft.to/lastmile_qr_scan", "android": "https://dc.lft.to/lastmile_qr_scan"}, "fusion_lon": 0.0, "lon": -77.00916216666667, "name": "6b3d5cea3042abac3c390c71fe9b2927", "is_reserved": 0, "is_disabled": 0}, {"lat": 38.91280483333333, "fusion_lat": 0.0, "type": "electric_scooter", "bike_id": "af6d1ed491f026e9462d505d39a88941", "rental_uris": {"ios": "https://dc.lft.to/lastmile_qr_scan", "android": "https://dc.lft.to/lastmile_qr_scan"}, "fusion_lon": 0.0, "lon": -77.04508633333333, "name": "af6d1ed491f026e9462d505d39a88941", "is_reserved": 0, "is_disabled": 0}, {"lat": 38.901522666666665, "fusion_lat": 0.0, "type": "electric_scooter", "bike_id": "b3efdb8a7050ffef9c43291e82cc1fc6", "rental_uris": {"ios": "https://dc.lft.to/lastmile_qr_scan", "android": "https://dc.lft.to/lastmile_qr_scan"}, "fusion_lon": 0.0, "lon": -76.93067733333334, "name": "b3efdb8a7050ffef9c43291e82cc1fc6", "is_reserved": 0, "is_disabled": 0}, {"lat": 38.88505266666667, "fusion_lat": 0.0, "type": "electric_scooter", "bike_id": "ab94cc5f61ccbc317c735835f0ea436c", "rental_uris": {"ios": "https://dc.lft.to/lastmile_qr_scan", "android": "https://dc.lft.to/lastmile_qr_scan"}, "fusion_lon": 0.0, "lon": -77.00564266666666, "name": "ab94cc5f61ccbc317c735835f0ea436c", "is_reserved": 0, "is_disabled": 0}, {"lat": 38.90632983333333, "fusion_lat": 0.0, "type": "electric_bike", "bike_id": "20a7962dea5b68b5addc170744eb2e51", "rental_uris": {"ios": "https://dc.lft.to/lastmile_qr_scan", "android": "https://dc.lft.to/lastmile_qr_scan"}, "fusion_lon": 0.0, "lon": -77.0702625, "name": "20a7962dea5b68b5addc170744eb2e51", "is_reserved": 0, "is_disabled": 0}, {"lat": 38.95059966666667, "fusion_lat": 0.0, "type": "electric_scooter", "bike_id": "fc3e0ac7f452c8c19bcba12d2067cecd", "rental_uris": {"ios": "https://dc.lft.to/lastmile_qr_scan", "android": "https://dc.lft.to/lastmile_qr_scan"}, "fusion_lon": 0.0, "lon": -77.08027716666666, "name": "fc3e0ac7f452c8c19bcba12d2067cecd", "is_reserved": 0, "is_disabled": 0}, {"lat": 38.90278516666667, "fusion_lat": 0.0, "type": "electric_scooter", "bike_id": "dffcbf26a1e9304a0440d11356d626b4", "rental_uris": {"ios": "https://dc.lft.to/lastmile_qr_scan", "android": "https://dc.lft.to/lastmile_qr_scan"}, "fusion_lon": 0.0, "lon": -77.03351916666666, "name": "dffcbf26a1e9304a0440d11356d626b4", "is_reserved": 0, "is_disabled": 0}, {"lat": 38.9270655, "fusion_lat": 0.0, "type": "electric_scooter", "bike_id": "598cfeefb0858b8b5172d4c71e6f8099", "rental_uris": {"ios": "https://dc.lft.to/lastmile_qr_scan", "android": "https://dc.lft.to/lastmile_qr_scan"}, "fusion_lon": 0.0, "lon": -77.02082666666666, "name": "598cfeefb0858b8b5172d4c71e6f8099", "is_reserved": 0, "is_disabled": 0}, {"lat": 38.92236066666667, "fusion_lat": 0.0, "type": "electric_scooter", "bike_id": "9bf8f2f8381fb6b1d3b2ded027829b04", "rental_uris": {"ios": "https://dc.lft.to/lastmile_qr_scan", "android": "https://dc.lft.to/lastmile_qr_scan"}, "fusion_lon": 0.0, "lon": -77.02826483333334, "name": "9bf8f2f8381fb6b1d3b2ded027829b04", "is_reserved": 0, "is_disabled": 0}, {"lat": 38.900386166666664, "fusion_lat": 0.0, "type": "electric_scooter", "bike_id": "218a7d83c62053be01ec7fc9f3b945d4", "rental_uris": {"ios": "https://dc.lft.to/lastmile_qr_scan", "android": "https://dc.lft.to/lastmile_qr_scan"}, "fusion_lon": 0.0, "lon": -77.02405483333334, "name": "218a7d83c62053be01ec7fc9f3b945d4", "is_reserved": 0, "is_disabled": 0}, {"lat": 38.9139745, "fusion_lat": 0.0, "type": "electric_scooter", "bike_id": "3c14efd6931d9c7e2f114ef0831de850", "rental_uris": {"ios": "https://dc.lft.to/lastmile_qr_scan", "android": "https://dc.lft.to/lastmile_qr_scan"}, "fusion_lon": 0.0, "lon": -77.01647433333333, "name": "3c14efd6931d9c7e2f114ef0831de850", "is_reserved": 0, "is_disabled": 0}, {"lat": 38.916004, "fusion_lat": 0.0, "type": "electric_scooter", "bike_id": "67d46552d59bbb0b8dfe9f746c74e150", "rental_uris": {"ios": "https://dc.lft.to/lastmile_qr_scan", "android": "https://dc.lft.to/lastmile_qr_scan"}, "fusion_lon": 0.0, "lon": -77.03940233333333, "name": "67d46552d59bbb0b8dfe9f746c74e150", "is_reserved": 0, "is_disabled": 0}, {"lat": 38.91717166666667, "fusion_lat": 0.0, "type": "electric_scooter", "bike_id": "075a35f82cd2df882c42c50c853e640c", "rental_uris": {"ios": "https://dc.lft.to/lastmile_qr_scan", "android": "https://dc.lft.to/lastmile_qr_scan"}, "fusion_lon": 0.0, "lon": -77.03348716666666, "name": "075a35f82cd2df882c42c50c853e640c", "is_reserved": 0, "is_disabled": 0}, {"lat": 38.92427, "fusion_lat": 0.0, "type": "electric_scooter", "bike_id": "ee7793a96f42e6af1972c22d70b9ffdc", "rental_uris": {"ios": "https://dc.lft.to/lastmile_qr_scan", "android": "https://dc.lft.to/lastmile_qr_scan"}, "fusion_lon": 0.0, "lon": -77.051799, "name": "ee7793a96f42e6af1972c22d70b9ffdc", "is_reserved": 0, "is_disabled": 0}, {"lat": 38.8874705, "fusion_lat": 0.0, "type": "electric_scooter", "bike_id": "b349ccf78c2b3491831218fb603e851a", "rental_uris": {"ios": "https://dc.lft.to/lastmile_qr_scan", "android": "https://dc.lft.to/lastmile_qr_scan"}, "fusion_lon": 0.0, "lon": -77.02769016666667, "name": "b349ccf78c2b3491831218fb603e851a", "is_reserved": 0, "is_disabled": 0}, {"lat": 38.931026333333335, "fusion_lat": 0.0, "type": "electric_scooter", "bike_id": "cbf30f5ad9597357ad5fd786830f5283", "rental_uris": {"ios": "https://dc.lft.to/lastmile_qr_scan", "android": "https://dc.lft.to/lastmile_qr_scan"}, "fusion_lon": 0.0, "lon": -77.01226216666667, "name": "cbf30f5ad9597357ad5fd786830f5283", "is_reserved": 0, "is_disabled": 0}, {"lat": 38.905419333333334, "fusion_lat": 0.0, "type": "electric_scooter", "bike_id": "2c97eea657f58d9f3b684930b808c422", "rental_uris": {"ios": "https://dc.lft.to/lastmile_qr_scan", "android": "https://dc.lft.to/lastmile_qr_scan"}, "fusion_lon": 0.0, "lon": -77.0503435, "name": "2c97eea657f58d9f3b684930b808c422", "is_reserved": 0, "is_disabled": 0}, {"lat": 38.9289575, "fusion_lat": 0.0, "type": "electric_scooter", "bike_id": "b446eb7a2245f69ccb4150af8bced81f", "rental_uris": {"ios": "https://dc.lft.to/lastmile_qr_scan", "android": "https://dc.lft.to/lastmile_qr_scan"}, "fusion_lon": 0.0, "lon": -77.03261883333333, "name": "b446eb7a2245f69ccb4150af8bced81f", "is_reserved": 0, "is_disabled": 0}, {"lat": 38.884314833333335, "fusion_lat": 0.0, "type": "electric_scooter", "bike_id": "4eab424a6a2a8e8f15cf5393bf044885", "rental_uris": {"ios": "https://dc.lft.to/lastmile_qr_scan", "android": "https://dc.lft.to/lastmile_qr_scan"}, "fusion_lon": 0.0, "lon": -76.95756116666666, "name": "4eab424a6a2a8e8f15cf5393bf044885", "is_reserved": 0, "is_disabled": 0}, {"lat": 38.8999525, "fusion_lat": 0.0, "type": "electric_scooter", "bike_id": "38352d76c14eec9c6fe937447086fcc5", "rental_uris": {"ios": "https://dc.lft.to/lastmile_qr_scan", "android": "https://dc.lft.to/lastmile_qr_scan"}, "fusion_lon": 0.0, "lon": -77.00137883333333, "name": "38352d76c14eec9c6fe937447086fcc5", "is_reserved": 0, "is_disabled": 0}, {"lat": 38.899636666666666, "fusion_lat": 0.0, "type": "electric_scooter", "bike_id": "81cfef99d91a99ee65f1c6bc0ba6f87c", "rental_uris": {"ios": "https://dc.lft.to/lastmile_qr_scan", "android": "https://dc.lft.to/lastmile_qr_scan"}, "fusion_lon": 0.0, "lon": -77.02455666666667, "name": "81cfef99d91a99ee65f1c6bc0ba6f87c", "is_reserved": 0, "is_disabled": 0}, {"lat": 38.85772566666667, "fusion_lat": 0.0, "type": "electric_bike", "bike_id": "a9e8d3ccd8588992c4f64f3cabc40680", "rental_uris": {"ios": "https://dc.lft.to/lastmile_qr_scan", "android": "https://dc.lft.to/lastmile_qr_scan"}, "fusion_lon": 0.0, "lon": -76.98769433333334, "name": "a9e8d3ccd8588992c4f64f3cabc40680", "is_reserved": 0, "is_disabled": 0}, {"lat": 38.89926166666667, "fusion_lat": 0.0, "type": "electric_scooter", "bike_id": "cf3be2b8c436c5815574082f8070a344", "rental_uris": {"ios": "https://dc.lft.to/lastmile_qr_scan", "android": "https://dc.lft.to/lastmile_qr_scan"}, "fusion_lon": 0.0, "lon": -77.04477516666667, "name": "cf3be2b8c436c5815574082f8070a344", "is_reserved": 0, "is_disabled": 0}, {"lat": 38.910235, "fusion_lat": 0.0, "type": "electric_scooter", "bike_id": "98581bb41209dc7e4a4baefa9cdfbe21", "rental_uris": {"ios": "https://dc.lft.to/lastmile_qr_scan", "android": "https://dc.lft.to/lastmile_qr_scan"}, "fusion_lon": 0.0, "lon": -77.02933616666667, "name": "98581bb41209dc7e4a4baefa9cdfbe21", "is_reserved": 0, "is_disabled": 0}, {"lat": 38.90720783333333, "fusion_lat": 0.0, "type": "electric_scooter", "bike_id": "e7922c077d4184678d15ea2188143f1f", "rental_uris": {"ios": "https://dc.lft.to/lastmile_qr_scan", "android": "https://dc.lft.to/lastmile_qr_scan"}, "fusion_lon": 0.0, "lon": -77.00573266666666, "name": "e7922c077d4184678d15ea2188143f1f", "is_reserved": 0, "is_disabled": 0}, {"lat": 38.90123966666667, "fusion_lat": 0.0, "type": "electric_scooter", "bike_id": "26f389961d77c19eee6844cf490c0020", "rental_uris": {"ios": "https://dc.lft.to/lastmile_qr_scan", "android": "https://dc.lft.to/lastmile_qr_scan"}, "fusion_lon": 0.0, "lon": -77.03185266666667, "name": "26f389961d77c19eee6844cf490c0020", "is_reserved": 0, "is_disabled": 0}, {"lat": 38.916361333333334, "fusion_lat": 0.0, "type": "electric_scooter", "bike_id": "2238c7c3cfc19260b05ffc22c12461e2", "rental_uris": {"ios": "https://dc.lft.to/lastmile_qr_scan", "android": "https://dc.lft.to/lastmile_qr_scan"}, "fusion_lon": 0.0, "lon": -77.05069366666666, "name": "2238c7c3cfc19260b05ffc22c12461e2", "is_reserved": 0, "is_disabled": 0}, {"lat": 38.94089816666666, "fusion_lat": 0.0, "type": "electric_scooter", "bike_id": "c8d9792b737b6fe23637a818a1a08057", "rental_uris": {"ios": "https://dc.lft.to/lastmile_qr_scan", "android": "https://dc.lft.to/lastmile_qr_scan"}, "fusion_lon": 0.0, "lon": -77.02720016666666, "name": "c8d9792b737b6fe23637a818a1a08057", "is_reserved": 0, "is_disabled": 0}, {"lat": 38.8899695, "fusion_lat": 0.0, "type": "electric_scooter", "bike_id": "cb06d4dafcef1b3daaed9a9bfa4ab1fc", "rental_uris": {"ios": "https://dc.lft.to/lastmile_qr_scan", "android": "https://dc.lft.to/lastmile_qr_scan"}, "fusion_lon": 0.0, "lon": -76.98370583333333, "name": "cb06d4dafcef1b3daaed9a9bfa4ab1fc", "is_reserved": 0, "is_disabled": 0}, {"lat": 38.902311, "fusion_lat": 0.0, "type": "electric_scooter", "bike_id": "3c336aa026fd6acc2d7d81dcb425d4cc", "rental_uris": {"ios": "https://dc.lft.to/lastmile_qr_scan", "android": "https://dc.lft.to/lastmile_qr_scan"}, "fusion_lon": 0.0, "lon": -77.03465283333334, "name": "3c336aa026fd6acc2d7d81dcb425d4cc", "is_reserved": 0, "is_disabled": 0}, {"lat": 38.8952395, "fusion_lat": 0.0, "type": "electric_scooter", "bike_id": "b7b4922a2dc0155e02b0326ebe69d981", "rental_uris": {"ios": "https://dc.lft.to/lastmile_qr_scan", "android": "https://dc.lft.to/lastmile_qr_scan"}, "fusion_lon": 0.0, "lon": -77.028039, "name": "b7b4922a2dc0155e02b0326ebe69d981", "is_reserved": 0, "is_disabled": 0}, {"lat": 38.91406816666667, "fusion_lat": 0.0, "type": "electric_scooter", "bike_id": "9f8c7f67ecd54ea9541942d56f9d81f9", "rental_uris": {"ios": "https://dc.lft.to/lastmile_qr_scan", "android": "https://dc.lft.to/lastmile_qr_scan"}, "fusion_lon": 0.0, "lon": -77.03226516666666, "name": "9f8c7f67ecd54ea9541942d56f9d81f9", "is_reserved": 0, "is_disabled": 0}, {"lat": 38.91208183333333, "fusion_lat": 0.0, "type": "electric_scooter", "bike_id": "4522bc47ca2c541ebb18b52fd5e75d27", "rental_uris": {"ios": "https://dc.lft.to/lastmile_qr_scan", "android": "https://dc.lft.to/lastmile_qr_scan"}, "fusion_lon": 0.0, "lon": -77.0731055, "name": "4522bc47ca2c541ebb18b52fd5e75d27", "is_reserved": 0, "is_disabled": 0}, {"lat": 38.924291333333336, "fusion_lat": 0.0, "type": "electric_scooter", "bike_id": "21b708324343e7bd6a28697e6cfc56cb", "rental_uris": {"ios": "https://dc.lft.to/lastmile_qr_scan", "android": "https://dc.lft.to/lastmile_qr_scan"}, "fusion_lon": 0.0, "lon": -77.05184883333334, "name": "21b708324343e7bd6a28697e6cfc56cb", "is_reserved": 0, "is_disabled": 0}, {"lat": 38.90038933333334, "fusion_lat": 0.0, "type": "electric_scooter", "bike_id": "e1bb309a53a2fbf5e477e78da188ab4f", "rental_uris": {"ios": "https://dc.lft.to/lastmile_qr_scan", "android": "https://dc.lft.to/lastmile_qr_scan"}, "fusion_lon": 0.0, "lon": -77.0118245, "name": "e1bb309a53a2fbf5e477e78da188ab4f", "is_reserved": 0, "is_disabled": 0}, {"lat": 38.90353133333333, "fusion_lat": 0.0, "type": "electric_scooter", "bike_id": "4343b4730ba337d722ffc688e957adb0", "rental_uris": {"ios": "https://dc.lft.to/lastmile_qr_scan", "android": "https://dc.lft.to/lastmile_qr_scan"}, "fusion_lon": 0.0, "lon": -77.03540483333333, "name": "4343b4730ba337d722ffc688e957adb0", "is_reserved": 0, "is_disabled": 0}, {"lat": 38.90949716666667, "fusion_lat": 0.0, "type": "electric_scooter", "bike_id": "eabe35adcb543e07948df0bae5288cca", "rental_uris": {"ios": "https://dc.lft.to/lastmile_qr_scan", "android": "https://dc.lft.to/lastmile_qr_scan"}, "fusion_lon": 0.0, "lon": -77.02688816666667, "name": "eabe35adcb543e07948df0bae5288cca", "is_reserved": 0, "is_disabled": 0}, {"lat": 38.8360645, "fusion_lat": 0.0, "type": "electric_bike", "bike_id": "1bd74f5c842a255cb5166b604d2d4069", "rental_uris": {"ios": "https://dc.lft.to/lastmile_qr_scan", "android": "https://dc.lft.to/lastmile_qr_scan"}, "fusion_lon": 0.0, "lon": -77.003831, "name": "1bd74f5c842a255cb5166b604d2d4069", "is_reserved": 0, "is_disabled": 0}, {"lat": 38.926699, "fusion_lat": 0.0, "type": "electric_scooter", "bike_id": "6c48bc19143bdd7b72ce78ece6985a34", "rental_uris": {"ios": "https://dc.lft.to/lastmile_qr_scan", "android": "https://dc.lft.to/lastmile_qr_scan"}, "fusion_lon": 0.0, "lon": -77.02575616666667, "name": "6c48bc19143bdd7b72ce78ece6985a34", "is_reserved": 0, "is_disabled": 0}, {"lat": 38.873968166666664, "fusion_lat": 0.0, "type": "electric_scooter", "bike_id": "706b3489e5d991076196e802d7ab02d9", "rental_uris": {"ios": "https://dc.lft.to/lastmile_qr_scan", "android": "https://dc.lft.to/lastmile_qr_scan"}, "fusion_lon": 0.0, "lon": -77.01450533333333, "name": "706b3489e5d991076196e802d7ab02d9", "is_reserved": 0, "is_disabled": 0}, {"lat": 38.907909833333335, "fusion_lat": 0.0, "type": "electric_scooter", "bike_id": "7c2dc677fd515c5ba5201d08f9d3c1c4", "rental_uris": {"ios": "https://dc.lft.to/lastmile_qr_scan", "android": "https://dc.lft.to/lastmile_qr_scan"}, "fusion_lon": 0.0, "lon": -77.06365966666667, "name": "7c2dc677fd515c5ba5201d08f9d3c1c4", "is_reserved": 0, "is_disabled": 0}, {"lat": 38.926597666666666, "fusion_lat": 0.0, "type": "electric_scooter", "bike_id": "736ac226f2c3558035989714d9511fa6", "rental_uris": {"ios": "https://dc.lft.to/lastmile_qr_scan", "android": "https://dc.lft.to/lastmile_qr_scan"}, "fusion_lon": 0.0, "lon": -77.0242055, "name": "736ac226f2c3558035989714d9511fa6", "is_reserved": 0, "is_disabled": 0}, {"lat": 38.89833216666667, "fusion_lat": 0.0, "type": "electric_scooter", "bike_id": "76c175cc0f7e6556116fbc5943b78fba", "rental_uris": {"ios": "https://dc.lft.to/lastmile_qr_scan", "android": "https://dc.lft.to/lastmile_qr_scan"}, "fusion_lon": 0.0, "lon": -76.94638466666666, "name": "76c175cc0f7e6556116fbc5943b78fba", "is_reserved": 0, "is_disabled": 0}, {"lat": 38.876463666666666, "fusion_lat": 0.0, "type": "electric_scooter", "bike_id": "382f59cc428ff9b509db78a9ee458821", "rental_uris": {"ios": "https://dc.lft.to/lastmile_qr_scan", "android": "https://dc.lft.to/lastmile_qr_scan"}, "fusion_lon": 0.0, "lon": -77.0147815, "name": "382f59cc428ff9b509db78a9ee458821", "is_reserved": 0, "is_disabled": 0}, {"lat": 38.79984916666667, "fusion_lat": 0.0, "type": "electric_bike", "bike_id": "0a1740ed5bcecc24e18ddbc5afdb2e57", "rental_uris": {"ios": "https://dc.lft.to/lastmile_qr_scan", "android": "https://dc.lft.to/lastmile_qr_scan"}, "fusion_lon": 0.0, "lon": -77.12972633333334, "name": "0a1740ed5bcecc24e18ddbc5afdb2e57", "is_reserved": 0, "is_disabled": 0}, {"lat": 38.91679766666667, "fusion_lat": 0.0, "type": "electric_scooter", "bike_id": "b835501c28b6c34fa34e0553705d2c75", "rental_uris": {"ios": "https://dc.lft.to/lastmile_qr_scan", "android": "https://dc.lft.to/lastmile_qr_scan"}, "fusion_lon": 0.0, "lon": -76.98030816666666, "name": "b835501c28b6c34fa34e0553705d2c75", "is_reserved": 0, "is_disabled": 0}, {"lat": 38.90218816666667, "fusion_lat": 0.0, "type": "electric_scooter", "bike_id": "bd2e27e82738320302a7dd228096627f", "rental_uris": {"ios": "https://dc.lft.to/lastmile_qr_scan", "android": "https://dc.lft.to/lastmile_qr_scan"}, "fusion_lon": 0.0, "lon": -77.03188916666667, "name": "bd2e27e82738320302a7dd228096627f", "is_reserved": 0, "is_disabled": 0}, {"lat": 38.9218965, "fusion_lat": 0.0, "type": "electric_scooter", "bike_id": "374e2a5ab2de3a07508e2224937f7741", "rental_uris": {"ios": "https://dc.lft.to/lastmile_qr_scan", "android": "https://dc.lft.to/lastmile_qr_scan"}, "fusion_lon": 0.0, "lon": -77.0418545, "name": "374e2a5ab2de3a07508e2224937f7741", "is_reserved": 0, "is_disabled": 0}, {"lat": 38.9252235, "fusion_lat": 0.0, "type": "electric_scooter", "bike_id": "acebb94c241ae73395e865d3fc1e0957", "rental_uris": {"ios": "https://dc.lft.to/lastmile_qr_scan", "android": "https://dc.lft.to/lastmile_qr_scan"}, "fusion_lon": 0.0, "lon": -77.044464, "name": "acebb94c241ae73395e865d3fc1e0957", "is_reserved": 0, "is_disabled": 0}, {"lat": 38.91271966666667, "fusion_lat": 0.0, "type": "electric_scooter", "bike_id": "0fcca460e469724c69db604e2b393e83", "rental_uris": {"ios": "https://dc.lft.to/lastmile_qr_scan", "android": "https://dc.lft.to/lastmile_qr_scan"}, "fusion_lon": 0.0, "lon": -77.0353815, "name": "0fcca460e469724c69db604e2b393e83", "is_reserved": 0, "is_disabled": 0}, {"lat": 38.908112, "fusion_lat": 0.0, "type": "electric_scooter", "bike_id": "081f14564c2530f3deb23ea139710bd7", "rental_uris": {"ios": "https://dc.lft.to/lastmile_qr_scan", "android": "https://dc.lft.to/lastmile_qr_scan"}, "fusion_lon": 0.0, "lon": -77.03428, "name": "081f14564c2530f3deb23ea139710bd7", "is_reserved": 0, "is_disabled": 0}, {"lat": 38.8633745, "fusion_lat": 0.0, "type": "electric_bike", "bike_id": "f36a0d4ed04e672242e7d3917a51c16f", "rental_uris": {"ios": "https://dc.lft.to/lastmile_qr_scan", "android": "https://dc.lft.to/lastmile_qr_scan"}, "fusion_lon": 0.0, "lon": -76.98719916666667, "name": "f36a0d4ed04e672242e7d3917a51c16f", "is_reserved": 0, "is_disabled": 0}, {"lat": 38.932025833333334, "fusion_lat": 0.0, "type": "electric_scooter", "bike_id": "7f4c8ade19f47fd7d9ae1bb240851926", "rental_uris": {"ios": "https://dc.lft.to/lastmile_qr_scan", "android": "https://dc.lft.to/lastmile_qr_scan"}, "fusion_lon": 0.0, "lon": -77.03501516666667, "name": "7f4c8ade19f47fd7d9ae1bb240851926", "is_reserved": 0, "is_disabled": 0}, {"lat": 38.93043566666667, "fusion_lat": 0.0, "type": "electric_scooter", "bike_id": "60a14e2d75017169d880c9acebd36697", "rental_uris": {"ios": "https://dc.lft.to/lastmile_qr_scan", "android": "https://dc.lft.to/lastmile_qr_scan"}, "fusion_lon": 0.0, "lon": -77.03471183333333, "name": "60a14e2d75017169d880c9acebd36697", "is_reserved": 0, "is_disabled": 0}, {"lat": 38.848662833333336, "fusion_lat": 0.0, "type": "electric_bike", "bike_id": "456240f5dd0f5b91ffe84c2efe48fdbc", "rental_uris": {"ios": "https://dc.lft.to/lastmile_qr_scan", "android": "https://dc.lft.to/lastmile_qr_scan"}, "fusion_lon": 0.0, "lon": -77.09895616666667, "name": "456240f5dd0f5b91ffe84c2efe48fdbc", "is_reserved": 0, "is_disabled": 0}, {"lat": 38.92467333333333, "fusion_lat": 0.0, "type": "electric_scooter", "bike_id": "de5130787e84ce34ddf60bd6ebeb3c56", "rental_uris": {"ios": "https://dc.lft.to/lastmile_qr_scan", "android": "https://dc.lft.to/lastmile_qr_scan"}, "fusion_lon": 0.0, "lon": -77.05236983333333, "name": "de5130787e84ce34ddf60bd6ebeb3c56", "is_reserved": 0, "is_disabled": 0}, {"lat": 38.9199005, "fusion_lat": 0.0, "type": "electric_scooter", "bike_id": "3e497f3ef90bde1c3545d7cfa21da2ad", "rental_uris": {"ios": "https://dc.lft.to/lastmile_qr_scan", "android": "https://dc.lft.to/lastmile_qr_scan"}, "fusion_lon": 0.0, "lon": -77.032063, "name": "3e497f3ef90bde1c3545d7cfa21da2ad", "is_reserved": 0, "is_disabled": 0}, {"lat": 38.900656166666664, "fusion_lat": 0.0, "type": "electric_scooter", "bike_id": "e8ddb9eecf35f60c975e3e8e8f949e95", "rental_uris": {"ios": "https://dc.lft.to/lastmile_qr_scan", "android": "https://dc.lft.to/lastmile_qr_scan"}, "fusion_lon": 0.0, "lon": -77.04528916666666, "name": "e8ddb9eecf35f60c975e3e8e8f949e95", "is_reserved": 0, "is_disabled": 0}, {"lat": 38.9031395, "fusion_lat": 0.0, "type": "electric_scooter", "bike_id": "b16cbc4b7d107be57e3366278c80b544", "rental_uris": {"ios": "https://dc.lft.to/lastmile_qr_scan", "android": "https://dc.lft.to/lastmile_qr_scan"}, "fusion_lon": 0.0, "lon": -77.0431785, "name": "b16cbc4b7d107be57e3366278c80b544", "is_reserved": 0, "is_disabled": 0}, {"lat": 38.886540333333336, "fusion_lat": 0.0, "type": "electric_scooter", "bike_id": "eccdf84eca50837131c11d09641c054c", "rental_uris": {"ios": "https://dc.lft.to/lastmile_qr_scan", "android": "https://dc.lft.to/lastmile_qr_scan"}, "fusion_lon": 0.0, "lon": -77.01994816666667, "name": "eccdf84eca50837131c11d09641c054c", "is_reserved": 0, "is_disabled": 0}, {"lat": 38.924176833333334, "fusion_lat": 0.0, "type": "electric_scooter", "bike_id": "68dec93903e749650910e9682b7a4dc1", "rental_uris": {"ios": "https://dc.lft.to/lastmile_qr_scan", "android": "https://dc.lft.to/lastmile_qr_scan"}, "fusion_lon": 0.0, "lon": -77.05749116666667, "name": "68dec93903e749650910e9682b7a4dc1", "is_reserved": 0, "is_disabled": 0}, {"lat": 38.92301416666667, "fusion_lat": 0.0, "type": "electric_scooter", "bike_id": "da4c5a7f621c1a617e124c473fb2bd47", "rental_uris": {"ios": "https://dc.lft.to/lastmile_qr_scan", "android": "https://dc.lft.to/lastmile_qr_scan"}, "fusion_lon": 0.0, "lon": -77.0232645, "name": "da4c5a7f621c1a617e124c473fb2bd47", "is_reserved": 0, "is_disabled": 0}, {"lat": 38.94291616666667, "fusion_lat": 0.0, "type": "electric_scooter", "bike_id": "1f42f7734f5c0785e735ac535ab294b4", "rental_uris": {"ios": "https://dc.lft.to/lastmile_qr_scan", "android": "https://dc.lft.to/lastmile_qr_scan"}, "fusion_lon": 0.0, "lon": -77.02166233333334, "name": "1f42f7734f5c0785e735ac535ab294b4", "is_reserved": 0, "is_disabled": 0}, {"lat": 38.89222066666667, "fusion_lat": 0.0, "type": "electric_scooter", "bike_id": "844d4d0b91e6d07d4abf2936450bd20e", "rental_uris": {"ios": "https://dc.lft.to/lastmile_qr_scan", "android": "https://dc.lft.to/lastmile_qr_scan"}, "fusion_lon": 0.0, "lon": -77.0235475, "name": "844d4d0b91e6d07d4abf2936450bd20e", "is_reserved": 0, "is_disabled": 0}, {"lat": 38.902577, "fusion_lat": 0.0, "type": "electric_scooter", "bike_id": "9839985cdc88d53ceed6c8a9c4d128fb", "rental_uris": {"ios": "https://dc.lft.to/lastmile_qr_scan", "android": "https://dc.lft.to/lastmile_qr_scan"}, "fusion_lon": 0.0, "lon": -77.06286166666666, "name": "9839985cdc88d53ceed6c8a9c4d128fb", "is_reserved": 0, "is_disabled": 0}, {"lat": 38.90332433333333, "fusion_lat": 0.0, "type": "electric_scooter", "bike_id": "c090f591a65bf638c6450db7dceb76e6", "rental_uris": {"ios": "https://dc.lft.to/lastmile_qr_scan", "android": "https://dc.lft.to/lastmile_qr_scan"}, "fusion_lon": 0.0, "lon": -77.01902683333333, "name": "c090f591a65bf638c6450db7dceb76e6", "is_reserved": 0, "is_disabled": 0}, {"lat": 38.8795605, "fusion_lat": 0.0, "type": "electric_scooter", "bike_id": "25bdadadf29e082326ed996ca3406cfb", "rental_uris": {"ios": "https://dc.lft.to/lastmile_qr_scan", "android": "https://dc.lft.to/lastmile_qr_scan"}, "fusion_lon": 0.0, "lon": -76.99502216666667, "name": "25bdadadf29e082326ed996ca3406cfb", "is_reserved": 0, "is_disabled": 0}, {"lat": 38.91262716666667, "fusion_lat": 0.0, "type": "electric_scooter", "bike_id": "79485dda3486712699dbc268bb4571dd", "rental_uris": {"ios": "https://dc.lft.to/lastmile_qr_scan", "android": "https://dc.lft.to/lastmile_qr_scan"}, "fusion_lon": 0.0, "lon": -77.03272566666666, "name": "79485dda3486712699dbc268bb4571dd", "is_reserved": 0, "is_disabled": 0}, {"lat": 38.90626833333334, "fusion_lat": 0.0, "type": "electric_scooter", "bike_id": "e95163e801639910eda1a373238dac55", "rental_uris": {"ios": "https://dc.lft.to/lastmile_qr_scan", "android": "https://dc.lft.to/lastmile_qr_scan"}, "fusion_lon": 0.0, "lon": -77.02601933333334, "name": "e95163e801639910eda1a373238dac55", "is_reserved": 0, "is_disabled": 0}, {"lat": 38.899276, "fusion_lat": 0.0, "type": "electric_scooter", "bike_id": "c1f277adf7d72af505b45ac2f0e90fa5", "rental_uris": {"ios": "https://dc.lft.to/lastmile_qr_scan", "android": "https://dc.lft.to/lastmile_qr_scan"}, "fusion_lon": 0.0, "lon": -77.02938183333333, "name": "c1f277adf7d72af505b45ac2f0e90fa5", "is_reserved": 0, "is_disabled": 0}, {"lat": 38.90467783333333, "fusion_lat": 0.0, "type": "electric_scooter", "bike_id": "1e3c0c7068570517ce6666566ac1e927", "rental_uris": {"ios": "https://dc.lft.to/lastmile_qr_scan", "android": "https://dc.lft.to/lastmile_qr_scan"}, "fusion_lon": 0.0, "lon": -76.99502516666666, "name": "1e3c0c7068570517ce6666566ac1e927", "is_reserved": 0, "is_disabled": 0}, {"lat": 38.918619666666665, "fusion_lat": 0.0, "type": "electric_scooter", "bike_id": "c6f77382e852d504f91de7535bb86ad9", "rental_uris": {"ios": "https://dc.lft.to/lastmile_qr_scan", "android": "https://dc.lft.to/lastmile_qr_scan"}, "fusion_lon": 0.0, "lon": -77.03204916666667, "name": "c6f77382e852d504f91de7535bb86ad9", "is_reserved": 0, "is_disabled": 0}, {"lat": 38.88124833333333, "fusion_lat": 0.0, "type": "electric_scooter", "bike_id": "ac39c2ffd3ad9e1b4caf24e3de4d701b", "rental_uris": {"ios": "https://dc.lft.to/lastmile_qr_scan", "android": "https://dc.lft.to/lastmile_qr_scan"}, "fusion_lon": 0.0, "lon": -77.01655066666666, "name": "ac39c2ffd3ad9e1b4caf24e3de4d701b", "is_reserved": 0, "is_disabled": 0}, {"lat": 38.9287725, "fusion_lat": 0.0, "type": "electric_scooter", "bike_id": "2e6f2cfd87d52d061c7854a85b4bd371", "rental_uris": {"ios": "https://dc.lft.to/lastmile_qr_scan", "android": "https://dc.lft.to/lastmile_qr_scan"}, "fusion_lon": 0.0, "lon": -77.04044916666666, "name": "2e6f2cfd87d52d061c7854a85b4bd371", "is_reserved": 0, "is_disabled": 0}, {"lat": 38.91703566666666, "fusion_lat": 0.0, "type": "electric_scooter", "bike_id": "aff61625c768c6e0b5165d6c9315ca94", "rental_uris": {"ios": "https://dc.lft.to/lastmile_qr_scan", "android": "https://dc.lft.to/lastmile_qr_scan"}, "fusion_lon": 0.0, "lon": -77.03320133333334, "name": "aff61625c768c6e0b5165d6c9315ca94", "is_reserved": 0, "is_disabled": 0}, {"lat": 38.90550316666667, "fusion_lat": 0.0, "type": "electric_scooter", "bike_id": "b250aa85c28bc980647712eed90f35f1", "rental_uris": {"ios": "https://dc.lft.to/lastmile_qr_scan", "android": "https://dc.lft.to/lastmile_qr_scan"}, "fusion_lon": 0.0, "lon": -76.99467416666667, "name": "b250aa85c28bc980647712eed90f35f1", "is_reserved": 0, "is_disabled": 0}, {"lat": 38.914866, "fusion_lat": 0.0, "type": "electric_scooter", "bike_id": "a721d8eb44bc9fd60b39a8c24b136f8b", "rental_uris": {"ios": "https://dc.lft.to/lastmile_qr_scan", "android": "https://dc.lft.to/lastmile_qr_scan"}, "fusion_lon": 0.0, "lon": -77.0185305, "name": "a721d8eb44bc9fd60b39a8c24b136f8b", "is_reserved": 0, "is_disabled": 0}, {"lat": 38.914761666666664, "fusion_lat": 0.0, "type": "electric_scooter", "bike_id": "0d0385f59741024217c38a7730989ed0", "rental_uris": {"ios": "https://dc.lft.to/lastmile_qr_scan", "android": "https://dc.lft.to/lastmile_qr_scan"}, "fusion_lon": 0.0, "lon": -77.02447966666666, "name": "0d0385f59741024217c38a7730989ed0", "is_reserved": 0, "is_disabled": 0}, {"lat": 38.892199166666664, "fusion_lat": 0.0, "type": "electric_scooter", "bike_id": "9aaacf302821b81ad01fea363b00a358", "rental_uris": {"ios": "https://dc.lft.to/lastmile_qr_scan", "android": "https://dc.lft.to/lastmile_qr_scan"}, "fusion_lon": 0.0, "lon": -77.0265565, "name": "9aaacf302821b81ad01fea363b00a358", "is_reserved": 0, "is_disabled": 0}, {"lat": 38.8954375, "fusion_lat": 0.0, "type": "electric_bike", "bike_id": "44784c13084268fc768bd9095cb64442", "rental_uris": {"ios": "https://dc.lft.to/lastmile_qr_scan", "android": "https://dc.lft.to/lastmile_qr_scan"}, "fusion_lon": 0.0, "lon": -76.9849145, "name": "44784c13084268fc768bd9095cb64442", "is_reserved": 0, "is_disabled": 0}, {"lat": 38.87939466666667, "fusion_lat": 0.0, "type": "electric_scooter", "bike_id": "69916a50bebfa0b62105f772296da060", "rental_uris": {"ios": "https://dc.lft.to/lastmile_qr_scan", "android": "https://dc.lft.to/lastmile_qr_scan"}, "fusion_lon": 0.0, "lon": -77.00405783333333, "name": "69916a50bebfa0b62105f772296da060", "is_reserved": 0, "is_disabled": 0}, {"lat": 38.88384516666667, "fusion_lat": 0.0, "type": "electric_scooter", "bike_id": "82bc757f2e0b429904408d70a5e859d8", "rental_uris": {"ios": "https://dc.lft.to/lastmile_qr_scan", "android": "https://dc.lft.to/lastmile_qr_scan"}, "fusion_lon": 0.0, "lon": -76.99554116666667, "name": "82bc757f2e0b429904408d70a5e859d8", "is_reserved": 0, "is_disabled": 0}, {"lat": 38.920896166666665, "fusion_lat": 0.0, "type": "electric_scooter", "bike_id": "814edab443cfa8cdab2f3973c75669e9", "rental_uris": {"ios": "https://dc.lft.to/lastmile_qr_scan", "android": "https://dc.lft.to/lastmile_qr_scan"}, "fusion_lon": 0.0, "lon": -77.07552183333334, "name": "814edab443cfa8cdab2f3973c75669e9", "is_reserved": 0, "is_disabled": 0}, {"lat": 38.9022375, "fusion_lat": 0.0, "type": "electric_scooter", "bike_id": "6994e70fffbb1f43d4d82a873a4a276a", "rental_uris": {"ios": "https://dc.lft.to/lastmile_qr_scan", "android": "https://dc.lft.to/lastmile_qr_scan"}, "fusion_lon": 0.0, "lon": -76.94197283333334, "name": "6994e70fffbb1f43d4d82a873a4a276a", "is_reserved": 0, "is_disabled": 0}, {"lat": 38.919134, "fusion_lat": 0.0, "type": "electric_scooter", "bike_id": "da8a8a457d51bb69da96ffd410ad37b8", "rental_uris": {"ios": "https://dc.lft.to/lastmile_qr_scan", "android": "https://dc.lft.to/lastmile_qr_scan"}, "fusion_lon": 0.0, "lon": -77.01200716666666, "name": "da8a8a457d51bb69da96ffd410ad37b8", "is_reserved": 0, "is_disabled": 0}, {"lat": 38.92028583333333, "fusion_lat": 0.0, "type": "electric_scooter", "bike_id": "bf53bfac5bdb5eef37f8cc6f4577913e", "rental_uris": {"ios": "https://dc.lft.to/lastmile_qr_scan", "android": "https://dc.lft.to/lastmile_qr_scan"}, "fusion_lon": 0.0, "lon": -77.0385575, "name": "bf53bfac5bdb5eef37f8cc6f4577913e", "is_reserved": 0, "is_disabled": 0}, {"lat": 38.92496933333334, "fusion_lat": 0.0, "type": "electric_scooter", "bike_id": "4d340e7a21a9c8a9bbff02f3ee0923fa", "rental_uris": {"ios": "https://dc.lft.to/lastmile_qr_scan", "android": "https://dc.lft.to/lastmile_qr_scan"}, "fusion_lon": 0.0, "lon": -77.02446666666667, "name": "4d340e7a21a9c8a9bbff02f3ee0923fa", "is_reserved": 0, "is_disabled": 0}, {"lat": 38.90350516666667, "fusion_lat": 0.0, "type": "electric_scooter", "bike_id": "2114ccda88bf7bda02dc97313f36d20d", "rental_uris": {"ios": "https://dc.lft.to/lastmile_qr_scan", "android": "https://dc.lft.to/lastmile_qr_scan"}, "fusion_lon": 0.0, "lon": -77.034091, "name": "2114ccda88bf7bda02dc97313f36d20d", "is_reserved": 0, "is_disabled": 0}, {"lat": 38.90665416666667, "fusion_lat": 0.0, "type": "electric_scooter", "bike_id": "101c52cfb4fd4782eba35024b1f0ae47", "rental_uris": {"ios": "https://dc.lft.to/lastmile_qr_scan", "android": "https://dc.lft.to/lastmile_qr_scan"}, "fusion_lon": 0.0, "lon": -77.0389995, "name": "101c52cfb4fd4782eba35024b1f0ae47", "is_reserved": 0, "is_disabled": 0}, {"lat": 38.924417, "fusion_lat": 0.0, "type": "electric_scooter", "bike_id": "43f8f97d5fbd5041de3e1aa085af6ed8", "rental_uris": {"ios": "https://dc.lft.to/lastmile_qr_scan", "android": "https://dc.lft.to/lastmile_qr_scan"}, "fusion_lon": 0.0, "lon": -77.020177, "name": "43f8f97d5fbd5041de3e1aa085af6ed8", "is_reserved": 0, "is_disabled": 0}, {"lat": 38.900694666666666, "fusion_lat": 0.0, "type": "electric_scooter", "bike_id": "a253c08fbe2c41c622c706cf7fcdfe70", "rental_uris": {"ios": "https://dc.lft.to/lastmile_qr_scan", "android": "https://dc.lft.to/lastmile_qr_scan"}, "fusion_lon": 0.0, "lon": -77.05433533333333, "name": "a253c08fbe2c41c622c706cf7fcdfe70", "is_reserved": 0, "is_disabled": 0}, {"lat": 38.89252366666667, "fusion_lat": 0.0, "type": "electric_scooter", "bike_id": "1861bfb1ff9f8d8bb507bd31c9547da3", "rental_uris": {"ios": "https://dc.lft.to/lastmile_qr_scan", "android": "https://dc.lft.to/lastmile_qr_scan"}, "fusion_lon": 0.0, "lon": -76.9883245, "name": "1861bfb1ff9f8d8bb507bd31c9547da3", "is_reserved": 0, "is_disabled": 0}, {"lat": 38.90530916666667, "fusion_lat": 0.0, "type": "electric_scooter", "bike_id": "2a4ca4040a30fc9ec63387d6ac47936f", "rental_uris": {"ios": "https://dc.lft.to/lastmile_qr_scan", "android": "https://dc.lft.to/lastmile_qr_scan"}, "fusion_lon": 0.0, "lon": -77.0485935, "name": "2a4ca4040a30fc9ec63387d6ac47936f", "is_reserved": 0, "is_disabled": 0}, {"lat": 38.910891666666664, "fusion_lat": 0.0, "type": "electric_scooter", "bike_id": "93d1b08c509ab4aa037e834617f35222", "rental_uris": {"ios": "https://dc.lft.to/lastmile_qr_scan", "android": "https://dc.lft.to/lastmile_qr_scan"}, "fusion_lon": 0.0, "lon": -77.0447235, "name": "93d1b08c509ab4aa037e834617f35222", "is_reserved": 0, "is_disabled": 0}, {"lat": 38.92324333333333, "fusion_lat": 0.0, "type": "electric_scooter", "bike_id": "669c8d67e33008c7926df171edf0bec2", "rental_uris": {"ios": "https://dc.lft.to/lastmile_qr_scan", "android": "https://dc.lft.to/lastmile_qr_scan"}, "fusion_lon": 0.0, "lon": -77.01908, "name": "669c8d67e33008c7926df171edf0bec2", "is_reserved": 0, "is_disabled": 0}, {"lat": 38.8709975, "fusion_lat": 0.0, "type": "electric_scooter", "bike_id": "630f3a9fb0e6ba97477427993e2db38f", "rental_uris": {"ios": "https://dc.lft.to/lastmile_qr_scan", "android": "https://dc.lft.to/lastmile_qr_scan"}, "fusion_lon": 0.0, "lon": -76.94198516666667, "name": "630f3a9fb0e6ba97477427993e2db38f", "is_reserved": 0, "is_disabled": 0}, {"lat": 38.906421333333334, "fusion_lat": 0.0, "type": "electric_scooter", "bike_id": "96b870606f61eb6f59cefc187bdc22b0", "rental_uris": {"ios": "https://dc.lft.to/lastmile_qr_scan", "android": "https://dc.lft.to/lastmile_qr_scan"}, "fusion_lon": 0.0, "lon": -77.0379115, "name": "96b870606f61eb6f59cefc187bdc22b0", "is_reserved": 0, "is_disabled": 0}, {"lat": 38.839700666666666, "fusion_lat": 0.0, "type": "electric_bike", "bike_id": "1b7af485dd3ccaa0043c161ff7203ef1", "rental_uris": {"ios": "https://dc.lft.to/lastmile_qr_scan", "android": "https://dc.lft.to/lastmile_qr_scan"}, "fusion_lon": 0.0, "lon": -76.97732533333334, "name": "1b7af485dd3ccaa0043c161ff7203ef1", "is_reserved": 0, "is_disabled": 0}, {"lat": 38.91799016666667, "fusion_lat": 0.0, "type": "electric_scooter", "bike_id": "620d39bde4cb8b739cd74bbd21dfa9eb", "rental_uris": {"ios": "https://dc.lft.to/lastmile_qr_scan", "android": "https://dc.lft.to/lastmile_qr_scan"}, "fusion_lon": 0.0, "lon": -77.04013783333333, "name": "620d39bde4cb8b739cd74bbd21dfa9eb", "is_reserved": 0, "is_disabled": 0}, {"lat": 38.89535383333333, "fusion_lat": 0.0, "type": "electric_scooter", "bike_id": "098454c8a8726838eb87a3254c5feb1b", "rental_uris": {"ios": "https://dc.lft.to/lastmile_qr_scan", "android": "https://dc.lft.to/lastmile_qr_scan"}, "fusion_lon": 0.0, "lon": -77.04646883333334, "name": "098454c8a8726838eb87a3254c5feb1b", "is_reserved": 0, "is_disabled": 0}, {"lat": 39.004823, "fusion_lat": 0.0, "type": "electric_bike", "bike_id": "46cdfaafe76359c07d65736ee390e78b", "rental_uris": {"ios": "https://dc.lft.to/lastmile_qr_scan", "android": "https://dc.lft.to/lastmile_qr_scan"}, "fusion_lon": 0.0, "lon": -77.02183216666667, "name": "46cdfaafe76359c07d65736ee390e78b", "is_reserved": 0, "is_disabled": 0}, {"lat": 38.90359266666667, "fusion_lat": 0.0, "type": "electric_scooter", "bike_id": "d6b714f4cc688078e58577d453b7cdca", "rental_uris": {"ios": "https://dc.lft.to/lastmile_qr_scan", "android": "https://dc.lft.to/lastmile_qr_scan"}, "fusion_lon": 0.0, "lon": -77.03887683333333, "name": "d6b714f4cc688078e58577d453b7cdca", "is_reserved": 0, "is_disabled": 0}, {"lat": 38.92739266666667, "fusion_lat": 0.0, "type": "electric_scooter", "bike_id": "0398be23d7c9aa9dd08baaf2784883eb", "rental_uris": {"ios": "https://dc.lft.to/lastmile_qr_scan", "android": "https://dc.lft.to/lastmile_qr_scan"}, "fusion_lon": 0.0, "lon": -76.99557483333334, "name": "0398be23d7c9aa9dd08baaf2784883eb", "is_reserved": 0, "is_disabled": 0}, {"lat": 38.910259833333335, "fusion_lat": 0.0, "type": "electric_scooter", "bike_id": "eb32d93620fa78175f8c85b8b6591982", "rental_uris": {"ios": "https://dc.lft.to/lastmile_qr_scan", "android": "https://dc.lft.to/lastmile_qr_scan"}, "fusion_lon": 0.0, "lon": -77.02934233333333, "name": "eb32d93620fa78175f8c85b8b6591982", "is_reserved": 0, "is_disabled": 0}, {"lat": 38.901882, "fusion_lat": 0.0, "type": "electric_scooter", "bike_id": "36f57455cb89c9dbc11d84fd82021e5f", "rental_uris": {"ios": "https://dc.lft.to/lastmile_qr_scan", "android": "https://dc.lft.to/lastmile_qr_scan"}, "fusion_lon": 0.0, "lon": -77.01622133333333, "name": "36f57455cb89c9dbc11d84fd82021e5f", "is_reserved": 0, "is_disabled": 0}, {"lat": 38.93566783333333, "fusion_lat": 0.0, "type": "electric_scooter", "bike_id": "0d2ff541a3e9b8ba3e4dd2777c6d4142", "rental_uris": {"ios": "https://dc.lft.to/lastmile_qr_scan", "android": "https://dc.lft.to/lastmile_qr_scan"}, "fusion_lon": 0.0, "lon": -77.0876395, "name": "0d2ff541a3e9b8ba3e4dd2777c6d4142", "is_reserved": 0, "is_disabled": 0}, {"lat": 38.903220166666664, "fusion_lat": 0.0, "type": "electric_scooter", "bike_id": "9a8dc08b56544d77af4b2aec54fe4e98", "rental_uris": {"ios": "https://dc.lft.to/lastmile_qr_scan", "android": "https://dc.lft.to/lastmile_qr_scan"}, "fusion_lon": 0.0, "lon": -77.0161385, "name": "9a8dc08b56544d77af4b2aec54fe4e98", "is_reserved": 0, "is_disabled": 0}, {"lat": 38.844124, "fusion_lat": 0.0, "type": "electric_bike", "bike_id": "01543302a3609eea265848ab5610d905", "rental_uris": {"ios": "https://dc.lft.to/lastmile_qr_scan", "android": "https://dc.lft.to/lastmile_qr_scan"}, "fusion_lon": 0.0, "lon": -77.07814666666667, "name": "01543302a3609eea265848ab5610d905", "is_reserved": 0, "is_disabled": 0}, {"lat": 38.92636383333333, "fusion_lat": 0.0, "type": "electric_scooter", "bike_id": "f7de96f8910e325a0619c72f6dd14128", "rental_uris": {"ios": "https://dc.lft.to/lastmile_qr_scan", "android": "https://dc.lft.to/lastmile_qr_scan"}, "fusion_lon": 0.0, "lon": -77.02161433333333, "name": "f7de96f8910e325a0619c72f6dd14128", "is_reserved": 0, "is_disabled": 0}, {"lat": 38.95685016666667, "fusion_lat": 0.0, "type": "electric_bike", "bike_id": "9e3ce0e2a12afed040e63b9a579fc35c", "rental_uris": {"ios": "https://dc.lft.to/lastmile_qr_scan", "android": "https://dc.lft.to/lastmile_qr_scan"}, "fusion_lon": 0.0, "lon": -77.0223015, "name": "9e3ce0e2a12afed040e63b9a579fc35c", "is_reserved": 0, "is_disabled": 0}, {"lat": 38.887707166666665, "fusion_lat": 0.0, "type": "electric_scooter", "bike_id": "35d3be52fbe2359718493d61687a1f2e", "rental_uris": {"ios": "https://dc.lft.to/lastmile_qr_scan", "android": "https://dc.lft.to/lastmile_qr_scan"}, "fusion_lon": 0.0, "lon": -77.0283755, "name": "35d3be52fbe2359718493d61687a1f2e", "is_reserved": 0, "is_disabled": 0}, {"lat": 38.902077, "fusion_lat": 0.0, "type": "electric_scooter", "bike_id": "de5af47acd65151dc3d0bf9fe038be08", "rental_uris": {"ios": "https://dc.lft.to/lastmile_qr_scan", "android": "https://dc.lft.to/lastmile_qr_scan"}, "fusion_lon": 0.0, "lon": -77.0226365, "name": "de5af47acd65151dc3d0bf9fe038be08", "is_reserved": 0, "is_disabled": 0}, {"lat": 38.89735133333333, "fusion_lat": 0.0, "type": "electric_scooter", "bike_id": "fedf84e1906ad5c38811e755d129b187", "rental_uris": {"ios": "https://dc.lft.to/lastmile_qr_scan", "android": "https://dc.lft.to/lastmile_qr_scan"}, "fusion_lon": 0.0, "lon": -77.04332683333334, "name": "fedf84e1906ad5c38811e755d129b187", "is_reserved": 0, "is_disabled": 0}, {"lat": 38.907340166666664, "fusion_lat": 0.0, "type": "electric_scooter", "bike_id": "21d5f1facf3a3aa97de9f790a7de1a33", "rental_uris": {"ios": "https://dc.lft.to/lastmile_qr_scan", "android": "https://dc.lft.to/lastmile_qr_scan"}, "fusion_lon": 0.0, "lon": -77.00055716666667, "name": "21d5f1facf3a3aa97de9f790a7de1a33", "is_reserved": 0, "is_disabled": 0}, {"lat": 38.871868166666665, "fusion_lat": 0.0, "type": "electric_scooter", "bike_id": "fe413bc611a8b54d28de9c0964777ea1", "rental_uris": {"ios": "https://dc.lft.to/lastmile_qr_scan", "android": "https://dc.lft.to/lastmile_qr_scan"}, "fusion_lon": 0.0, "lon": -77.00641566666667, "name": "fe413bc611a8b54d28de9c0964777ea1", "is_reserved": 0, "is_disabled": 0}, {"lat": 38.906007333333335, "fusion_lat": 0.0, "type": "electric_scooter", "bike_id": "ee791739b4341b1af17f9d81f0fe6b22", "rental_uris": {"ios": "https://dc.lft.to/lastmile_qr_scan", "android": "https://dc.lft.to/lastmile_qr_scan"}, "fusion_lon": 0.0, "lon": -77.04146583333333, "name": "ee791739b4341b1af17f9d81f0fe6b22", "is_reserved": 0, "is_disabled": 0}, {"lat": 38.89221833333333, "fusion_lat": 0.0, "type": "electric_scooter", "bike_id": "5299c28f4e7ba939a1f5250246f0e76a", "rental_uris": {"ios": "https://dc.lft.to/lastmile_qr_scan", "android": "https://dc.lft.to/lastmile_qr_scan"}, "fusion_lon": 0.0, "lon": -77.0446485, "name": "5299c28f4e7ba939a1f5250246f0e76a", "is_reserved": 0, "is_disabled": 0}, {"lat": 38.90782883333333, "fusion_lat": 0.0, "type": "electric_scooter", "bike_id": "20e507dba6745f2b5755270b467e41fd", "rental_uris": {"ios": "https://dc.lft.to/lastmile_qr_scan", "android": "https://dc.lft.to/lastmile_qr_scan"}, "fusion_lon": 0.0, "lon": -77.03519233333333, "name": "20e507dba6745f2b5755270b467e41fd", "is_reserved": 0, "is_disabled": 0}, {"lat": 38.9156895, "fusion_lat": 0.0, "type": "electric_scooter", "bike_id": "31ea23f762d184183912f0469b701a41", "rental_uris": {"ios": "https://dc.lft.to/lastmile_qr_scan", "android": "https://dc.lft.to/lastmile_qr_scan"}, "fusion_lon": 0.0, "lon": -77.00354366666667, "name": "31ea23f762d184183912f0469b701a41", "is_reserved": 0, "is_disabled": 0}, {"lat": 38.90723216666667, "fusion_lat": 0.0, "type": "electric_scooter", "bike_id": "6e7cb77776c77190829a6c5d85ab2d78", "rental_uris": {"ios": "https://dc.lft.to/lastmile_qr_scan", "android": "https://dc.lft.to/lastmile_qr_scan"}, "fusion_lon": 0.0, "lon": -77.0416815, "name": "6e7cb77776c77190829a6c5d85ab2d78", "is_reserved": 0, "is_disabled": 0}, {"lat": 38.9199805, "fusion_lat": 0.0, "type": "electric_scooter", "bike_id": "8d441d42c738a6414829719c6a8037c1", "rental_uris": {"ios": "https://dc.lft.to/lastmile_qr_scan", "android": "https://dc.lft.to/lastmile_qr_scan"}, "fusion_lon": 0.0, "lon": -77.03222516666666, "name": "8d441d42c738a6414829719c6a8037c1", "is_reserved": 0, "is_disabled": 0}, {"lat": 38.892597333333335, "fusion_lat": 0.0, "type": "electric_scooter", "bike_id": "457328a3cedd303135ff8e86ad74b53b", "rental_uris": {"ios": "https://dc.lft.to/lastmile_qr_scan", "android": "https://dc.lft.to/lastmile_qr_scan"}, "fusion_lon": 0.0, "lon": -77.0034685, "name": "457328a3cedd303135ff8e86ad74b53b", "is_reserved": 0, "is_disabled": 0}, {"lat": 38.9097865, "fusion_lat": 0.0, "type": "electric_scooter", "bike_id": "f0cf929ff3ddce96350ac1d0e1f18236", "rental_uris": {"ios": "https://dc.lft.to/lastmile_qr_scan", "android": "https://dc.lft.to/lastmile_qr_scan"}, "fusion_lon": 0.0, "lon": -77.03182066666666, "name": "f0cf929ff3ddce96350ac1d0e1f18236", "is_reserved": 0, "is_disabled": 0}, {"lat": 38.91585716666667, "fusion_lat": 0.0, "type": "electric_scooter", "bike_id": "7b5a890944a95ecb4461eb0c0c1f660b", "rental_uris": {"ios": "https://dc.lft.to/lastmile_qr_scan", "android": "https://dc.lft.to/lastmile_qr_scan"}, "fusion_lon": 0.0, "lon": -77.04467516666666, "name": "7b5a890944a95ecb4461eb0c0c1f660b", "is_reserved": 0, "is_disabled": 0}, {"lat": 38.91895183333333, "fusion_lat": 0.0, "type": "electric_scooter", "bike_id": "e5632c1b0cdfa20de9a2b57c9034e387", "rental_uris": {"ios": "https://dc.lft.to/lastmile_qr_scan", "android": "https://dc.lft.to/lastmile_qr_scan"}, "fusion_lon": 0.0, "lon": -77.04619033333333, "name": "e5632c1b0cdfa20de9a2b57c9034e387", "is_reserved": 0, "is_disabled": 0}, {"lat": 38.887534, "fusion_lat": 0.0, "type": "electric_scooter", "bike_id": "51a00feb7b4a79bb21df04254fb309c8", "rental_uris": {"ios": "https://dc.lft.to/lastmile_qr_scan", "android": "https://dc.lft.to/lastmile_qr_scan"}, "fusion_lon": 0.0, "lon": -76.99601216666667, "name": "51a00feb7b4a79bb21df04254fb309c8", "is_reserved": 0, "is_disabled": 0}, {"lat": 38.90240516666667, "fusion_lat": 0.0, "type": "electric_scooter", "bike_id": "88c895f439b7e5dad2976a60eb10b988", "rental_uris": {"ios": "https://dc.lft.to/lastmile_qr_scan", "android": "https://dc.lft.to/lastmile_qr_scan"}, "fusion_lon": 0.0, "lon": -77.00203133333333, "name": "88c895f439b7e5dad2976a60eb10b988", "is_reserved": 0, "is_disabled": 0}, {"lat": 38.84847466666667, "fusion_lat": 0.0, "type": "electric_bike", "bike_id": "23d583f811c312d6b17309a91dbde946", "rental_uris": {"ios": "https://dc.lft.to/lastmile_qr_scan", "android": "https://dc.lft.to/lastmile_qr_scan"}, "fusion_lon": 0.0, "lon": -77.0848655, "name": "23d583f811c312d6b17309a91dbde946", "is_reserved": 0, "is_disabled": 0}, {"lat": 38.935641, "fusion_lat": 0.0, "type": "electric_scooter", "bike_id": "19d7839b31aa3e52cc336fec40cd275f", "rental_uris": {"ios": "https://dc.lft.to/lastmile_qr_scan", "android": "https://dc.lft.to/lastmile_qr_scan"}, "fusion_lon": 0.0, "lon": -77.07458916666667, "name": "19d7839b31aa3e52cc336fec40cd275f", "is_reserved": 0, "is_disabled": 0}, {"lat": 38.935350666666665, "fusion_lat": 0.0, "type": "electric_scooter", "bike_id": "1383f7d364f2a398c6118fe06c77a55a", "rental_uris": {"ios": "https://dc.lft.to/lastmile_qr_scan", "android": "https://dc.lft.to/lastmile_qr_scan"}, "fusion_lon": 0.0, "lon": -77.03476166666667, "name": "1383f7d364f2a398c6118fe06c77a55a", "is_reserved": 0, "is_disabled": 0}, {"lat": 38.91032, "fusion_lat": 0.0, "type": "electric_scooter", "bike_id": "adb4374809aa3f8df2109c64f319024e", "rental_uris": {"ios": "https://dc.lft.to/lastmile_qr_scan", "android": "https://dc.lft.to/lastmile_qr_scan"}, "fusion_lon": 0.0, "lon": -77.0330255, "name": "adb4374809aa3f8df2109c64f319024e", "is_reserved": 0, "is_disabled": 0}, {"lat": 38.9369715, "fusion_lat": 0.0, "type": "electric_scooter", "bike_id": "3163e768d695276d16e9d98e8c905d76", "rental_uris": {"ios": "https://dc.lft.to/lastmile_qr_scan", "android": "https://dc.lft.to/lastmile_qr_scan"}, "fusion_lon": 0.0, "lon": -77.0560095, "name": "3163e768d695276d16e9d98e8c905d76", "is_reserved": 0, "is_disabled": 0}, {"lat": 38.91187133333333, "fusion_lat": 0.0, "type": "electric_scooter", "bike_id": "1e516237398b84f318fbd441eb458ce9", "rental_uris": {"ios": "https://dc.lft.to/lastmile_qr_scan", "android": "https://dc.lft.to/lastmile_qr_scan"}, "fusion_lon": 0.0, "lon": -77.03859833333334, "name": "1e516237398b84f318fbd441eb458ce9", "is_reserved": 0, "is_disabled": 0}, {"lat": 38.8718585, "fusion_lat": 0.0, "type": "electric_scooter", "bike_id": "3a18b035b06a0189719373d71aa3e6f4", "rental_uris": {"ios": "https://dc.lft.to/lastmile_qr_scan", "android": "https://dc.lft.to/lastmile_qr_scan"}, "fusion_lon": 0.0, "lon": -77.00639466666667, "name": "3a18b035b06a0189719373d71aa3e6f4", "is_reserved": 0, "is_disabled": 0}, {"lat": 38.906445166666664, "fusion_lat": 0.0, "type": "electric_scooter", "bike_id": "af6bede63fdd9725114b114b7c796607", "rental_uris": {"ios": "https://dc.lft.to/lastmile_qr_scan", "android": "https://dc.lft.to/lastmile_qr_scan"}, "fusion_lon": 0.0, "lon": -77.01763383333333, "name": "af6bede63fdd9725114b114b7c796607", "is_reserved": 0, "is_disabled": 0}, {"lat": 38.950003833333334, "fusion_lat": 0.0, "type": "electric_scooter", "bike_id": "6e353c9e81226bac99fdc0ae52ae5596", "rental_uris": {"ios": "https://dc.lft.to/lastmile_qr_scan", "android": "https://dc.lft.to/lastmile_qr_scan"}, "fusion_lon": 0.0, "lon": -77.0805275, "name": "6e353c9e81226bac99fdc0ae52ae5596", "is_reserved": 0, "is_disabled": 0}, {"lat": 38.847554833333334, "fusion_lat": 0.0, "type": "electric_scooter", "bike_id": "f893d6010d26d65434a4ff201b766331", "rental_uris": {"ios": "https://dc.lft.to/lastmile_qr_scan", "android": "https://dc.lft.to/lastmile_qr_scan"}, "fusion_lon": 0.0, "lon": -76.99498383333334, "name": "f893d6010d26d65434a4ff201b766331", "is_reserved": 0, "is_disabled": 0}, {"lat": 38.87892216666667, "fusion_lat": 0.0, "type": "electric_scooter", "bike_id": "3a3d4471a2dabe7fd7df2c0e8173bb38", "rental_uris": {"ios": "https://dc.lft.to/lastmile_qr_scan", "android": "https://dc.lft.to/lastmile_qr_scan"}, "fusion_lon": 0.0, "lon": -77.02305933333334, "name": "3a3d4471a2dabe7fd7df2c0e8173bb38", "is_reserved": 0, "is_disabled": 0}, {"lat": 38.90507483333333, "fusion_lat": 0.0, "type": "electric_scooter", "bike_id": "faeca70c7235dc478e3faeef045b5756", "rental_uris": {"ios": "https://dc.lft.to/lastmile_qr_scan", "android": "https://dc.lft.to/lastmile_qr_scan"}, "fusion_lon": 0.0, "lon": -77.04812966666667, "name": "faeca70c7235dc478e3faeef045b5756", "is_reserved": 0, "is_disabled": 0}, {"lat": 39.0525335, "fusion_lat": 0.0, "type": "electric_bike", "bike_id": "9654ec888b3fff101ac7e5a76fb387a5", "rental_uris": {"ios": "https://dc.lft.to/lastmile_qr_scan", "android": "https://dc.lft.to/lastmile_qr_scan"}, "fusion_lon": 0.0, "lon": -77.08063666666666, "name": "9654ec888b3fff101ac7e5a76fb387a5", "is_reserved": 0, "is_disabled": 0}, {"lat": 38.899753833333335, "fusion_lat": 0.0, "type": "electric_scooter", "bike_id": "c6f4f19a023b74b736450a62b825300d", "rental_uris": {"ios": "https://dc.lft.to/lastmile_qr_scan", "android": "https://dc.lft.to/lastmile_qr_scan"}, "fusion_lon": 0.0, "lon": -76.9854245, "name": "c6f4f19a023b74b736450a62b825300d", "is_reserved": 0, "is_disabled": 0}, {"lat": 38.915694333333334, "fusion_lat": 0.0, "type": "electric_scooter", "bike_id": "777ab715c2fb66614c07a1004a85dc53", "rental_uris": {"ios": "https://dc.lft.to/lastmile_qr_scan", "android": "https://dc.lft.to/lastmile_qr_scan"}, "fusion_lon": 0.0, "lon": -77.01903533333333, "name": "777ab715c2fb66614c07a1004a85dc53", "is_reserved": 0, "is_disabled": 0}, {"lat": 38.90777383333333, "fusion_lat": 0.0, "type": "electric_scooter", "bike_id": "db7956e059d2b77a39d3fde42bb2bd03", "rental_uris": {"ios": "https://dc.lft.to/lastmile_qr_scan", "android": "https://dc.lft.to/lastmile_qr_scan"}, "fusion_lon": 0.0, "lon": -77.07166233333334, "name": "db7956e059d2b77a39d3fde42bb2bd03", "is_reserved": 0, "is_disabled": 0}, {"lat": 38.9222655, "fusion_lat": 0.0, "type": "electric_scooter", "bike_id": "0608daef39873a36c6f226e2c1617902", "rental_uris": {"ios": "https://dc.lft.to/lastmile_qr_scan", "android": "https://dc.lft.to/lastmile_qr_scan"}, "fusion_lon": 0.0, "lon": -77.02117633333333, "name": "0608daef39873a36c6f226e2c1617902", "is_reserved": 0, "is_disabled": 0}, {"lat": 38.86893166666667, "fusion_lat": 0.0, "type": "electric_bike", "bike_id": "bdb7bb7a9465895b135d66214c722efc", "rental_uris": {"ios": "https://dc.lft.to/lastmile_qr_scan", "android": "https://dc.lft.to/lastmile_qr_scan"}, "fusion_lon": 0.0, "lon": -76.98516133333334, "name": "bdb7bb7a9465895b135d66214c722efc", "is_reserved": 0, "is_disabled": 0}, {"lat": 38.92344333333333, "fusion_lat": 0.0, "type": "electric_scooter", "bike_id": "e9ab41b38f7ef8d3727eddfc21e2176f", "rental_uris": {"ios": "https://dc.lft.to/lastmile_qr_scan", "android": "https://dc.lft.to/lastmile_qr_scan"}, "fusion_lon": 0.0, "lon": -77.05177466666666, "name": "e9ab41b38f7ef8d3727eddfc21e2176f", "is_reserved": 0, "is_disabled": 0}, {"lat": 38.904352333333335, "fusion_lat": 0.0, "type": "electric_scooter", "bike_id": "97e43bfc0e0f4f38bbf5fa22e11e5844", "rental_uris": {"ios": "https://dc.lft.to/lastmile_qr_scan", "android": "https://dc.lft.to/lastmile_qr_scan"}, "fusion_lon": 0.0, "lon": -76.998245, "name": "97e43bfc0e0f4f38bbf5fa22e11e5844", "is_reserved": 0, "is_disabled": 0}, {"lat": 38.902562, "fusion_lat": 0.0, "type": "electric_scooter", "bike_id": "00ba41fffd71abcc5a86da0b6524c199", "rental_uris": {"ios": "https://dc.lft.to/lastmile_qr_scan", "android": "https://dc.lft.to/lastmile_qr_scan"}, "fusion_lon": 0.0, "lon": -77.03756416666667, "name": "00ba41fffd71abcc5a86da0b6524c199", "is_reserved": 0, "is_disabled": 0}, {"lat": 38.89247116666667, "fusion_lat": 0.0, "type": "electric_scooter", "bike_id": "0fef48da770c2e918be448719aa48642", "rental_uris": {"ios": "https://dc.lft.to/lastmile_qr_scan", "android": "https://dc.lft.to/lastmile_qr_scan"}, "fusion_lon": 0.0, "lon": -77.04654033333334, "name": "0fef48da770c2e918be448719aa48642", "is_reserved": 0, "is_disabled": 0}, {"lat": 38.893838, "fusion_lat": 0.0, "type": "electric_scooter", "bike_id": "c2a5392b0b8a4f669f9b5321cd34bcac", "rental_uris": {"ios": "https://dc.lft.to/lastmile_qr_scan", "android": "https://dc.lft.to/lastmile_qr_scan"}, "fusion_lon": 0.0, "lon": -76.92306366666666, "name": "c2a5392b0b8a4f669f9b5321cd34bcac", "is_reserved": 0, "is_disabled": 0}, {"lat": 38.89629083333333, "fusion_lat": 0.0, "type": "electric_scooter", "bike_id": "34a2b6db0735b049d8feacf7aa110c40", "rental_uris": {"ios": "https://dc.lft.to/lastmile_qr_scan", "android": "https://dc.lft.to/lastmile_qr_scan"}, "fusion_lon": 0.0, "lon": -77.02394983333333, "name": "34a2b6db0735b049d8feacf7aa110c40", "is_reserved": 0, "is_disabled": 0}, {"lat": 38.89872666666667, "fusion_lat": 0.0, "type": "electric_scooter", "bike_id": "c40ca229215fbe2e9840dd4c44075d11", "rental_uris": {"ios": "https://dc.lft.to/lastmile_qr_scan", "android": "https://dc.lft.to/lastmile_qr_scan"}, "fusion_lon": 0.0, "lon": -77.05008816666667, "name": "c40ca229215fbe2e9840dd4c44075d11", "is_reserved": 0, "is_disabled": 0}, {"lat": 38.9425235, "fusion_lat": 0.0, "type": "electric_scooter", "bike_id": "59fcecd3222f26627de531d062d5d875", "rental_uris": {"ios": "https://dc.lft.to/lastmile_qr_scan", "android": "https://dc.lft.to/lastmile_qr_scan"}, "fusion_lon": 0.0, "lon": -77.03626066666666, "name": "59fcecd3222f26627de531d062d5d875", "is_reserved": 0, "is_disabled": 0}, {"lat": 38.91709316666667, "fusion_lat": 0.0, "type": "electric_scooter", "bike_id": "6fa66e221b5948439d25ab31b720b9c4", "rental_uris": {"ios": "https://dc.lft.to/lastmile_qr_scan", "android": "https://dc.lft.to/lastmile_qr_scan"}, "fusion_lon": 0.0, "lon": -77.040725, "name": "6fa66e221b5948439d25ab31b720b9c4", "is_reserved": 0, "is_disabled": 0}, {"lat": 38.922953166666666, "fusion_lat": 0.0, "type": "electric_scooter", "bike_id": "0d0aacf5b973a1f64ebf0a821485d38e", "rental_uris": {"ios": "https://dc.lft.to/lastmile_qr_scan", "android": "https://dc.lft.to/lastmile_qr_scan"}, "fusion_lon": 0.0, "lon": -77.04266833333334, "name": "0d0aacf5b973a1f64ebf0a821485d38e", "is_reserved": 0, "is_disabled": 0}, {"lat": 38.8937055, "fusion_lat": 0.0, "type": "electric_scooter", "bike_id": "f8668b8843d0ba9702a5642564b05aa5", "rental_uris": {"ios": "https://dc.lft.to/lastmile_qr_scan", "android": "https://dc.lft.to/lastmile_qr_scan"}, "fusion_lon": 0.0, "lon": -77.025805, "name": "f8668b8843d0ba9702a5642564b05aa5", "is_reserved": 0, "is_disabled": 0}, {"lat": 38.8918325, "fusion_lat": 0.0, "type": "electric_scooter", "bike_id": "91334e535f571bafecb71911e069a899", "rental_uris": {"ios": "https://dc.lft.to/lastmile_qr_scan", "android": "https://dc.lft.to/lastmile_qr_scan"}, "fusion_lon": 0.0, "lon": -77.01596233333333, "name": "91334e535f571bafecb71911e069a899", "is_reserved": 0, "is_disabled": 0}, {"lat": 38.86968933333333, "fusion_lat": 0.0, "type": "electric_scooter", "bike_id": "69c27598a8e4c7f8dea087f0ca6950c2", "rental_uris": {"ios": "https://dc.lft.to/lastmile_qr_scan", "android": "https://dc.lft.to/lastmile_qr_scan"}, "fusion_lon": 0.0, "lon": -76.97849916666667, "name": "69c27598a8e4c7f8dea087f0ca6950c2", "is_reserved": 0, "is_disabled": 0}, {"lat": 38.89496066666667, "fusion_lat": 0.0, "type": "electric_scooter", "bike_id": "ce13d833953c52907be0cf23887ab7b2", "rental_uris": {"ios": "https://dc.lft.to/lastmile_qr_scan", "android": "https://dc.lft.to/lastmile_qr_scan"}, "fusion_lon": 0.0, "lon": -77.00356366666666, "name": "ce13d833953c52907be0cf23887ab7b2", "is_reserved": 0, "is_disabled": 0}, {"lat": 38.87375383333333, "fusion_lat": 0.0, "type": "electric_scooter", "bike_id": "fe297fb50946e89ab2736fb59dc4bad0", "rental_uris": {"ios": "https://dc.lft.to/lastmile_qr_scan", "android": "https://dc.lft.to/lastmile_qr_scan"}, "fusion_lon": 0.0, "lon": -77.00088266666667, "name": "fe297fb50946e89ab2736fb59dc4bad0", "is_reserved": 0, "is_disabled": 0}, {"lat": 38.87265033333333, "fusion_lat": 0.0, "type": "electric_scooter", "bike_id": "0e02bf6d673e63d33aa28c0767328039", "rental_uris": {"ios": "https://dc.lft.to/lastmile_qr_scan", "android": "https://dc.lft.to/lastmile_qr_scan"}, "fusion_lon": 0.0, "lon": -77.0135815, "name": "0e02bf6d673e63d33aa28c0767328039", "is_reserved": 0, "is_disabled": 0}, {"lat": 38.919661166666664, "fusion_lat": 0.0, "type": "electric_scooter", "bike_id": "7b7a9a90cbef22188bdbf718aac30c01", "rental_uris": {"ios": "https://dc.lft.to/lastmile_qr_scan", "android": "https://dc.lft.to/lastmile_qr_scan"}, "fusion_lon": 0.0, "lon": -77.03853583333333, "name": "7b7a9a90cbef22188bdbf718aac30c01", "is_reserved": 0, "is_disabled": 0}, {"lat": 38.94464816666667, "fusion_lat": 0.0, "type": "electric_bike", "bike_id": "742acde1e87b07aea8198f6a6f60532b", "rental_uris": {"ios": "https://dc.lft.to/lastmile_qr_scan", "android": "https://dc.lft.to/lastmile_qr_scan"}, "fusion_lon": 0.0, "lon": -77.02335066666667, "name": "742acde1e87b07aea8198f6a6f60532b", "is_reserved": 0, "is_disabled": 0}, {"lat": 38.897435, "fusion_lat": 0.0, "type": "electric_scooter", "bike_id": "888cc4d45e2b1f7d1e3677003b8cdc95", "rental_uris": {"ios": "https://dc.lft.to/lastmile_qr_scan", "android": "https://dc.lft.to/lastmile_qr_scan"}, "fusion_lon": 0.0, "lon": -77.0461695, "name": "888cc4d45e2b1f7d1e3677003b8cdc95", "is_reserved": 0, "is_disabled": 0}, {"lat": 38.925978, "fusion_lat": 0.0, "type": "electric_scooter", "bike_id": "a3fac8ddf8916e6353204fe9aada3872", "rental_uris": {"ios": "https://dc.lft.to/lastmile_qr_scan", "android": "https://dc.lft.to/lastmile_qr_scan"}, "fusion_lon": 0.0, "lon": -77.03636433333334, "name": "a3fac8ddf8916e6353204fe9aada3872", "is_reserved": 0, "is_disabled": 0}, {"lat": 38.88018533333333, "fusion_lat": 0.0, "type": "electric_scooter", "bike_id": "c220fc91d18b919d59cc0d988280e6c7", "rental_uris": {"ios": "https://dc.lft.to/lastmile_qr_scan", "android": "https://dc.lft.to/lastmile_qr_scan"}, "fusion_lon": 0.0, "lon": -76.98067666666667, "name": "c220fc91d18b919d59cc0d988280e6c7", "is_reserved": 0, "is_disabled": 0}, {"lat": 38.92315083333333, "fusion_lat": 0.0, "type": "electric_scooter", "bike_id": "a512b9f49569a839c20582ded07d1ef1", "rental_uris": {"ios": "https://dc.lft.to/lastmile_qr_scan", "android": "https://dc.lft.to/lastmile_qr_scan"}, "fusion_lon": 0.0, "lon": -77.0390865, "name": "a512b9f49569a839c20582ded07d1ef1", "is_reserved": 0, "is_disabled": 0}, {"lat": 38.8874805, "fusion_lat": 0.0, "type": "electric_scooter", "bike_id": "18c5b9e060d28ce3200c67fdca397522", "rental_uris": {"ios": "https://dc.lft.to/lastmile_qr_scan", "android": "https://dc.lft.to/lastmile_qr_scan"}, "fusion_lon": 0.0, "lon": -77.0140215, "name": "18c5b9e060d28ce3200c67fdca397522", "is_reserved": 0, "is_disabled": 0}, {"lat": 38.918019666666666, "fusion_lat": 0.0, "type": "electric_scooter", "bike_id": "5618cdcef0ff79c6a4773a4b3420d8f1", "rental_uris": {"ios": "https://dc.lft.to/lastmile_qr_scan", "android": "https://dc.lft.to/lastmile_qr_scan"}, "fusion_lon": 0.0, "lon": -77.04018983333333, "name": "5618cdcef0ff79c6a4773a4b3420d8f1", "is_reserved": 0, "is_disabled": 0}, {"lat": 38.887356, "fusion_lat": 0.0, "type": "electric_scooter", "bike_id": "c0f566575c104f75229d25a9305c3fcd", "rental_uris": {"ios": "https://dc.lft.to/lastmile_qr_scan", "android": "https://dc.lft.to/lastmile_qr_scan"}, "fusion_lon": 0.0, "lon": -77.03174916666667, "name": "c0f566575c104f75229d25a9305c3fcd", "is_reserved": 0, "is_disabled": 0}, {"lat": 38.9623105, "fusion_lat": 0.0, "type": "electric_bike", "bike_id": "93516228a59ca6e08121d7e64372bb62", "rental_uris": {"ios": "https://dc.lft.to/lastmile_qr_scan", "android": "https://dc.lft.to/lastmile_qr_scan"}, "fusion_lon": 0.0, "lon": -77.02622583333333, "name": "93516228a59ca6e08121d7e64372bb62", "is_reserved": 0, "is_disabled": 0}, {"lat": 38.887341, "fusion_lat": 0.0, "type": "electric_scooter", "bike_id": "2bd396133a850388c947a14e2073cb65", "rental_uris": {"ios": "https://dc.lft.to/lastmile_qr_scan", "android": "https://dc.lft.to/lastmile_qr_scan"}, "fusion_lon": 0.0, "lon": -77.01384666666667, "name": "2bd396133a850388c947a14e2073cb65", "is_reserved": 0, "is_disabled": 0}, {"lat": 38.902475833333334, "fusion_lat": 0.0, "type": "electric_scooter", "bike_id": "6149f7b30f86e5eb841702db6517be12", "rental_uris": {"ios": "https://dc.lft.to/lastmile_qr_scan", "android": "https://dc.lft.to/lastmile_qr_scan"}, "fusion_lon": 0.0, "lon": -77.04618333333333, "name": "6149f7b30f86e5eb841702db6517be12", "is_reserved": 0, "is_disabled": 0}, {"lat": 38.87149483333334, "fusion_lat": 0.0, "type": "electric_scooter", "bike_id": "23504dee7639d38564a974b60fcffafc", "rental_uris": {"ios": "https://dc.lft.to/lastmile_qr_scan", "android": "https://dc.lft.to/lastmile_qr_scan"}, "fusion_lon": 0.0, "lon": -77.00680566666666, "name": "23504dee7639d38564a974b60fcffafc", "is_reserved": 0, "is_disabled": 0}, {"lat": 38.907637333333334, "fusion_lat": 0.0, "type": "electric_scooter", "bike_id": "0b20837c80b31768fd7aa29521fe38da", "rental_uris": {"ios": "https://dc.lft.to/lastmile_qr_scan", "android": "https://dc.lft.to/lastmile_qr_scan"}, "fusion_lon": 0.0, "lon": -77.00380583333333, "name": "0b20837c80b31768fd7aa29521fe38da", "is_reserved": 0, "is_disabled": 0}, {"lat": 38.812575, "fusion_lat": 0.0, "type": "electric_bike", "bike_id": "82be72d4fe899c814fadf2e77d47c649", "rental_uris": {"ios": "https://dc.lft.to/lastmile_qr_scan", "android": "https://dc.lft.to/lastmile_qr_scan"}, "fusion_lon": 0.0, "lon": -77.117775, "name": "82be72d4fe899c814fadf2e77d47c649", "is_reserved": 0, "is_disabled": 0}, {"lat": 38.91951316666667, "fusion_lat": 0.0, "type": "electric_scooter", "bike_id": "71d65858e8f49183629553a9e33ae49f", "rental_uris": {"ios": "https://dc.lft.to/lastmile_qr_scan", "android": "https://dc.lft.to/lastmile_qr_scan"}, "fusion_lon": 0.0, "lon": -77.018977, "name": "71d65858e8f49183629553a9e33ae49f", "is_reserved": 0, "is_disabled": 0}, {"lat": 38.907638, "fusion_lat": 0.0, "type": "electric_scooter", "bike_id": "9807269519531c4d9c1bc2a9ef15ba9d", "rental_uris": {"ios": "https://dc.lft.to/lastmile_qr_scan", "android": "https://dc.lft.to/lastmile_qr_scan"}, "fusion_lon": 0.0, "lon": -77.03739366666667, "name": "9807269519531c4d9c1bc2a9ef15ba9d", "is_reserved": 0, "is_disabled": 0}, {"lat": 38.961473, "fusion_lat": 0.0, "type": "electric_scooter", "bike_id": "b14c0bb6211966885833a324235a4b04", "rental_uris": {"ios": "https://dc.lft.to/lastmile_qr_scan", "android": "https://dc.lft.to/lastmile_qr_scan"}, "fusion_lon": 0.0, "lon": -77.02775783333334, "name": "b14c0bb6211966885833a324235a4b04", "is_reserved": 0, "is_disabled": 0}, {"lat": 38.9178315, "fusion_lat": 0.0, "type": "electric_scooter", "bike_id": "25fdfa6530e41874094471a2081347a5", "rental_uris": {"ios": "https://dc.lft.to/lastmile_qr_scan", "android": "https://dc.lft.to/lastmile_qr_scan"}, "fusion_lon": 0.0, "lon": -77.04068716666667, "name": "25fdfa6530e41874094471a2081347a5", "is_reserved": 0, "is_disabled": 0}, {"lat": 38.831038166666666, "fusion_lat": 0.0, "type": "electric_bike", "bike_id": "bd7391d9fd1e0c83d7d50e3663010ba6", "rental_uris": {"ios": "https://dc.lft.to/lastmile_qr_scan", "android": "https://dc.lft.to/lastmile_qr_scan"}, "fusion_lon": 0.0, "lon": -77.11281466666667, "name": "bd7391d9fd1e0c83d7d50e3663010ba6", "is_reserved": 0, "is_disabled": 0}, {"lat": 38.921659, "fusion_lat": 0.0, "type": "electric_scooter", "bike_id": "e9284d6c119861cd41b854534fc917bc", "rental_uris": {"ios": "https://dc.lft.to/lastmile_qr_scan", "android": "https://dc.lft.to/lastmile_qr_scan"}, "fusion_lon": 0.0, "lon": -77.0402395, "name": "e9284d6c119861cd41b854534fc917bc", "is_reserved": 0, "is_disabled": 0}, {"lat": 38.910768166666664, "fusion_lat": 0.0, "type": "electric_scooter", "bike_id": "5a73197259506845edd98f1dc12d69c4", "rental_uris": {"ios": "https://dc.lft.to/lastmile_qr_scan", "android": "https://dc.lft.to/lastmile_qr_scan"}, "fusion_lon": 0.0, "lon": -77.02721883333334, "name": "5a73197259506845edd98f1dc12d69c4", "is_reserved": 0, "is_disabled": 0}, {"lat": 38.91818833333333, "fusion_lat": 0.0, "type": "electric_scooter", "bike_id": "074510fc6a5b1500d50eb22131d23d02", "rental_uris": {"ios": "https://dc.lft.to/lastmile_qr_scan", "android": "https://dc.lft.to/lastmile_qr_scan"}, "fusion_lon": 0.0, "lon": -77.04171616666666, "name": "074510fc6a5b1500d50eb22131d23d02", "is_reserved": 0, "is_disabled": 0}, {"lat": 38.880442, "fusion_lat": 0.0, "type": "electric_scooter", "bike_id": "1171e2a0b0fa5e0626908c4266305106", "rental_uris": {"ios": "https://dc.lft.to/lastmile_qr_scan", "android": "https://dc.lft.to/lastmile_qr_scan"}, "fusion_lon": 0.0, "lon": -77.00583916666666, "name": "1171e2a0b0fa5e0626908c4266305106", "is_reserved": 0, "is_disabled": 0}, {"lat": 38.897039666666664, "fusion_lat": 0.0, "type": "electric_scooter", "bike_id": "755d3e1c8e96320fe750d38afc7a1053", "rental_uris": {"ios": "https://dc.lft.to/lastmile_qr_scan", "android": "https://dc.lft.to/lastmile_qr_scan"}, "fusion_lon": 0.0, "lon": -77.0267315, "name": "755d3e1c8e96320fe750d38afc7a1053", "is_reserved": 0, "is_disabled": 0}, {"lat": 38.92895, "fusion_lat": 0.0, "type": "electric_scooter", "bike_id": "b4bbc08d2a4c313e799a9f63f18ebd67", "rental_uris": {"ios": "https://dc.lft.to/lastmile_qr_scan", "android": "https://dc.lft.to/lastmile_qr_scan"}, "fusion_lon": 0.0, "lon": -77.05806183333333, "name": "b4bbc08d2a4c313e799a9f63f18ebd67", "is_reserved": 0, "is_disabled": 0}, {"lat": 38.85516, "fusion_lat": 0.0, "type": "electric_bike", "bike_id": "e2a537e39a731e846adfccd61cd56478", "rental_uris": {"ios": "https://dc.lft.to/lastmile_qr_scan", "android": "https://dc.lft.to/lastmile_qr_scan"}, "fusion_lon": 0.0, "lon": -76.98430233333333, "name": "e2a537e39a731e846adfccd61cd56478", "is_reserved": 0, "is_disabled": 0}, {"lat": 38.91265283333333, "fusion_lat": 0.0, "type": "electric_scooter", "bike_id": "0db78bef37764185761d3e509c84aba8", "rental_uris": {"ios": "https://dc.lft.to/lastmile_qr_scan", "android": "https://dc.lft.to/lastmile_qr_scan"}, "fusion_lon": 0.0, "lon": -77.038074, "name": "0db78bef37764185761d3e509c84aba8", "is_reserved": 0, "is_disabled": 0}, {"lat": 38.89745766666667, "fusion_lat": 0.0, "type": "electric_scooter", "bike_id": "96f9795cb95dbc5f9030a01f55caa50b", "rental_uris": {"ios": "https://dc.lft.to/lastmile_qr_scan", "android": "https://dc.lft.to/lastmile_qr_scan"}, "fusion_lon": 0.0, "lon": -77.0013915, "name": "96f9795cb95dbc5f9030a01f55caa50b", "is_reserved": 0, "is_disabled": 0}, {"lat": 38.928700166666665, "fusion_lat": 0.0, "type": "electric_scooter", "bike_id": "048b0aae47f3a2a9d71957753adab5c1", "rental_uris": {"ios": "https://dc.lft.to/lastmile_qr_scan", "android": "https://dc.lft.to/lastmile_qr_scan"}, "fusion_lon": 0.0, "lon": -77.0323475, "name": "048b0aae47f3a2a9d71957753adab5c1", "is_reserved": 0, "is_disabled": 0}, {"lat": 38.9051255, "fusion_lat": 0.0, "type": "electric_scooter", "bike_id": "8ecd6e7d645dc4aedc89fc9fc0cb5964", "rental_uris": {"ios": "https://dc.lft.to/lastmile_qr_scan", "android": "https://dc.lft.to/lastmile_qr_scan"}, "fusion_lon": 0.0, "lon": -77.01789583333333, "name": "8ecd6e7d645dc4aedc89fc9fc0cb5964", "is_reserved": 0, "is_disabled": 0}, {"lat": 38.9001145, "fusion_lat": 0.0, "type": "electric_scooter", "bike_id": "35b721ee86c6cd2c5183c2fc9aed01ae", "rental_uris": {"ios": "https://dc.lft.to/lastmile_qr_scan", "android": "https://dc.lft.to/lastmile_qr_scan"}, "fusion_lon": 0.0, "lon": -76.99866416666667, "name": "35b721ee86c6cd2c5183c2fc9aed01ae", "is_reserved": 0, "is_disabled": 0}, {"lat": 39.09967616666667, "fusion_lat": 0.0, "type": "electric_bike", "bike_id": "c5d555f5d81b2c035d09a518c3c71abc", "rental_uris": {"ios": "https://dc.lft.to/lastmile_qr_scan", "android": "https://dc.lft.to/lastmile_qr_scan"}, "fusion_lon": 0.0, "lon": -77.183018, "name": "c5d555f5d81b2c035d09a518c3c71abc", "is_reserved": 0, "is_disabled": 0}, {"lat": 38.899597666666665, "fusion_lat": 0.0, "type": "electric_scooter", "bike_id": "0ba8e0e9f5ec95729737d9a42f2cb26b", "rental_uris": {"ios": "https://dc.lft.to/lastmile_qr_scan", "android": "https://dc.lft.to/lastmile_qr_scan"}, "fusion_lon": 0.0, "lon": -77.02865233333333, "name": "0ba8e0e9f5ec95729737d9a42f2cb26b", "is_reserved": 0, "is_disabled": 0}, {"lat": 38.90863216666666, "fusion_lat": 0.0, "type": "electric_scooter", "bike_id": "49a694a6d5f7d79668f4806a02da3835", "rental_uris": {"ios": "https://dc.lft.to/lastmile_qr_scan", "android": "https://dc.lft.to/lastmile_qr_scan"}, "fusion_lon": 0.0, "lon": -77.01941883333333, "name": "49a694a6d5f7d79668f4806a02da3835", "is_reserved": 0, "is_disabled": 0}, {"lat": 38.92649266666667, "fusion_lat": 0.0, "type": "electric_scooter", "bike_id": "e4ebba3ea4dc8f88390f90f675b3658c", "rental_uris": {"ios": "https://dc.lft.to/lastmile_qr_scan", "android": "https://dc.lft.to/lastmile_qr_scan"}, "fusion_lon": 0.0, "lon": -77.038368, "name": "e4ebba3ea4dc8f88390f90f675b3658c", "is_reserved": 0, "is_disabled": 0}, {"lat": 38.896313666666664, "fusion_lat": 0.0, "type": "electric_scooter", "bike_id": "fc3824fb6a2218744a78a5751fa0e4b4", "rental_uris": {"ios": "https://dc.lft.to/lastmile_qr_scan", "android": "https://dc.lft.to/lastmile_qr_scan"}, "fusion_lon": 0.0, "lon": -77.03163266666667, "name": "fc3824fb6a2218744a78a5751fa0e4b4", "is_reserved": 0, "is_disabled": 0}, {"lat": 38.900078, "fusion_lat": 0.0, "type": "electric_scooter", "bike_id": "ea363fdbbe548d39ffc986a59a3ff09c", "rental_uris": {"ios": "https://dc.lft.to/lastmile_qr_scan", "android": "https://dc.lft.to/lastmile_qr_scan"}, "fusion_lon": 0.0, "lon": -76.99810033333333, "name": "ea363fdbbe548d39ffc986a59a3ff09c", "is_reserved": 0, "is_disabled": 0}, {"lat": 38.890095, "fusion_lat": 0.0, "type": "electric_scooter", "bike_id": "1e155bb8ae2bbd5190fec517c0b3d864", "rental_uris": {"ios": "https://dc.lft.to/lastmile_qr_scan", "android": "https://dc.lft.to/lastmile_qr_scan"}, "fusion_lon": 0.0, "lon": -76.93736966666667, "name": "1e155bb8ae2bbd5190fec517c0b3d864", "is_reserved": 0, "is_disabled": 0}, {"lat": 38.916778666666666, "fusion_lat": 0.0, "type": "electric_scooter", "bike_id": "25b302054e2fe7c82cb743672dec1bd2", "rental_uris": {"ios": "https://dc.lft.to/lastmile_qr_scan", "android": "https://dc.lft.to/lastmile_qr_scan"}, "fusion_lon": 0.0, "lon": -77.00345183333333, "name": "25b302054e2fe7c82cb743672dec1bd2", "is_reserved": 0, "is_disabled": 0}, {"lat": 38.91866483333333, "fusion_lat": 0.0, "type": "electric_scooter", "bike_id": "8a46ffe75fc952f97030fd1d69eba1d7", "rental_uris": {"ios": "https://dc.lft.to/lastmile_qr_scan", "android": "https://dc.lft.to/lastmile_qr_scan"}, "fusion_lon": 0.0, "lon": -77.0321025, "name": "8a46ffe75fc952f97030fd1d69eba1d7", "is_reserved": 0, "is_disabled": 0}, {"lat": 38.90610616666667, "fusion_lat": 0.0, "type": "electric_scooter", "bike_id": "76f122e355c27b6a521925ed0d1d32ee", "rental_uris": {"ios": "https://dc.lft.to/lastmile_qr_scan", "android": "https://dc.lft.to/lastmile_qr_scan"}, "fusion_lon": 0.0, "lon": -77.04351366666667, "name": "76f122e355c27b6a521925ed0d1d32ee", "is_reserved": 0, "is_disabled": 0}, {"lat": 38.92735283333333, "fusion_lat": 0.0, "type": "electric_scooter", "bike_id": "1d75508de517b7b3ae77696ba7d0d78e", "rental_uris": {"ios": "https://dc.lft.to/lastmile_qr_scan", "android": "https://dc.lft.to/lastmile_qr_scan"}, "fusion_lon": 0.0, "lon": -77.035006, "name": "1d75508de517b7b3ae77696ba7d0d78e", "is_reserved": 0, "is_disabled": 0}, {"lat": 38.806477666666666, "fusion_lat": 0.0, "type": "electric_bike", "bike_id": "83a2c180d7c7bb26f334a3a4dee18b21", "rental_uris": {"ios": "https://dc.lft.to/lastmile_qr_scan", "android": "https://dc.lft.to/lastmile_qr_scan"}, "fusion_lon": 0.0, "lon": -77.06251033333334, "name": "83a2c180d7c7bb26f334a3a4dee18b21", "is_reserved": 0, "is_disabled": 0}, {"lat": 38.88746116666667, "fusion_lat": 0.0, "type": "electric_scooter", "bike_id": "8c44877cf45e66e1f027385cbfc67bce", "rental_uris": {"ios": "https://dc.lft.to/lastmile_qr_scan", "android": "https://dc.lft.to/lastmile_qr_scan"}, "fusion_lon": 0.0, "lon": -77.01777183333333, "name": "8c44877cf45e66e1f027385cbfc67bce", "is_reserved": 0, "is_disabled": 0}, {"lat": 38.900286333333334, "fusion_lat": 0.0, "type": "electric_scooter", "bike_id": "f163e8f975b4016acfeebd123e552f07", "rental_uris": {"ios": "https://dc.lft.to/lastmile_qr_scan", "android": "https://dc.lft.to/lastmile_qr_scan"}, "fusion_lon": 0.0, "lon": -77.0175915, "name": "f163e8f975b4016acfeebd123e552f07", "is_reserved": 0, "is_disabled": 0}, {"lat": 38.900378833333335, "fusion_lat": 0.0, "type": "electric_scooter", "bike_id": "747e98bd686cab3ab4bbf795027a6e35", "rental_uris": {"ios": "https://dc.lft.to/lastmile_qr_scan", "android": "https://dc.lft.to/lastmile_qr_scan"}, "fusion_lon": 0.0, "lon": -77.02395016666667, "name": "747e98bd686cab3ab4bbf795027a6e35", "is_reserved": 0, "is_disabled": 0}, {"lat": 38.92078083333333, "fusion_lat": 0.0, "type": "electric_scooter", "bike_id": "ccc293e2f3335ecdb4caea5563fe2101", "rental_uris": {"ios": "https://dc.lft.to/lastmile_qr_scan", "android": "https://dc.lft.to/lastmile_qr_scan"}, "fusion_lon": 0.0, "lon": -77.02311416666667, "name": "ccc293e2f3335ecdb4caea5563fe2101", "is_reserved": 0, "is_disabled": 0}, {"lat": 38.83515533333333, "fusion_lat": 0.0, "type": "electric_bike", "bike_id": "198b5c3e19187240b6f5eb53a6b90962", "rental_uris": {"ios": "https://dc.lft.to/lastmile_qr_scan", "android": "https://dc.lft.to/lastmile_qr_scan"}, "fusion_lon": 0.0, "lon": -76.98674533333333, "name": "198b5c3e19187240b6f5eb53a6b90962", "is_reserved": 0, "is_disabled": 0}, {"lat": 38.91683283333333, "fusion_lat": 0.0, "type": "electric_scooter", "bike_id": "fa41285e3126e91887b2200879df80d0", "rental_uris": {"ios": "https://dc.lft.to/lastmile_qr_scan", "android": "https://dc.lft.to/lastmile_qr_scan"}, "fusion_lon": 0.0, "lon": -77.02285, "name": "fa41285e3126e91887b2200879df80d0", "is_reserved": 0, "is_disabled": 0}, {"lat": 38.9246665, "fusion_lat": 0.0, "type": "electric_scooter", "bike_id": "6c05fffe4a0dd95a26eb190c99fab87f", "rental_uris": {"ios": "https://dc.lft.to/lastmile_qr_scan", "android": "https://dc.lft.to/lastmile_qr_scan"}, "fusion_lon": 0.0, "lon": -77.02245733333334, "name": "6c05fffe4a0dd95a26eb190c99fab87f", "is_reserved": 0, "is_disabled": 0}, {"lat": 38.916934833333336, "fusion_lat": 0.0, "type": "electric_scooter", "bike_id": "d67a21cf9cab6dcc467cbef06a352281", "rental_uris": {"ios": "https://dc.lft.to/lastmile_qr_scan", "android": "https://dc.lft.to/lastmile_qr_scan"}, "fusion_lon": 0.0, "lon": -77.00922233333333, "name": "d67a21cf9cab6dcc467cbef06a352281", "is_reserved": 0, "is_disabled": 0}, {"lat": 38.90075433333333, "fusion_lat": 0.0, "type": "electric_scooter", "bike_id": "d774a7f74382460d80102b6fa6f677c9", "rental_uris": {"ios": "https://dc.lft.to/lastmile_qr_scan", "android": "https://dc.lft.to/lastmile_qr_scan"}, "fusion_lon": 0.0, "lon": -77.04784183333334, "name": "d774a7f74382460d80102b6fa6f677c9", "is_reserved": 0, "is_disabled": 0}, {"lat": 38.88996983333333, "fusion_lat": 0.0, "type": "electric_scooter", "bike_id": "852caa04a054e9ae1f2dd2ebc4e28512", "rental_uris": {"ios": "https://dc.lft.to/lastmile_qr_scan", "android": "https://dc.lft.to/lastmile_qr_scan"}, "fusion_lon": 0.0, "lon": -76.95432933333333, "name": "852caa04a054e9ae1f2dd2ebc4e28512", "is_reserved": 0, "is_disabled": 0}, {"lat": 38.910231333333336, "fusion_lat": 0.0, "type": "electric_bike", "bike_id": "62fe09f180c97650a8e1fda1e50fcfb1", "rental_uris": {"ios": "https://dc.lft.to/lastmile_qr_scan", "android": "https://dc.lft.to/lastmile_qr_scan"}, "fusion_lon": 0.0, "lon": -77.03445516666666, "name": "62fe09f180c97650a8e1fda1e50fcfb1", "is_reserved": 0, "is_disabled": 0}, {"lat": 38.93598933333333, "fusion_lat": 0.0, "type": "electric_scooter", "bike_id": "caeb70c250fb9d57e0cf44d42d31203f", "rental_uris": {"ios": "https://dc.lft.to/lastmile_qr_scan", "android": "https://dc.lft.to/lastmile_qr_scan"}, "fusion_lon": 0.0, "lon": -77.038038, "name": "caeb70c250fb9d57e0cf44d42d31203f", "is_reserved": 0, "is_disabled": 0},