{"data": {"bikes": [{"rental_uris": {"ios": "https://dc.lft.to/lastmile_qr_scan", "android": "https://dc.lft.to/lastmile_qr_scan"}, "lon": -76.99531883333333, "type": "electric_bike", "fusion_lat": 0.0, "lat": 38.88448783333333, "name": "e7e34bfde33eaa5baa4d1b48e32535db", "fusion_lon": 0.0, "bike_id": "e7e34bfde33eaa5baa4d1b48e32535db", "is_disabled": 0, "is_reserved": 0}, {"rental_uris": {"ios": "https://dc.lft.to/lastmile_qr_scan", "android": "https://dc.lft.to/lastmile_qr_scan"}, "lon": -77.04154483333333, "type": "electric_scooter", "fusion_lat": 0.0, "lat": 38.9178925, "name": "3bdc1bbd5650c2547e6229fb9934a665", "fusion_lon": 0.0, "bike_id": "3bdc1bbd5650c2547e6229fb9934a665", "is_disabled": 0, "is_reserved": 0}, {"rental_uris": {"ios": "https://dc.lft.to/lastmile_qr_scan", "android": "https://dc.lft.to/lastmile_qr_scan"}, "lon": -77.0340245, "type": "electric_scooter", "fusion_lat": 0.0, "lat": 38.91919133333333, "name": "cecb78d75ff88e1d2d3ac2feded6f5ca", "fusion_lon": 0.0, "bike_id": "cecb78d75ff88e1d2d3ac2feded6f5ca", "is_disabled": 0, "is_reserved": 0}, {"rental_uris": {"ios": "https://dc.lft.to/lastmile_qr_scan", "android": "https://dc.lft.to/lastmile_qr_scan"}, "lon": -76.98023133333334, "type": "electric_scooter", "fusion_lat": 0.0, "lat": 38.90378116666667, "name": "ebcf1ebcb5c8dd76dac509168fac4d34", "fusion_lon": 0.0, "bike_id": "ebcf1ebcb5c8dd76dac509168fac4d34", "is_disabled": 0, "is_reserved": 0}, {"rental_uris": {"ios": "https://dc.lft.to/lastmile_qr_scan", "android": "https://dc.lft.to/lastmile_qr_scan"}, "lon": -77.03209033333333, "type": "electric_scooter", "fusion_lat": 0.0, "lat": 38.925833, "name": "cf99648a6fd2b8f08381e43c444f72ea", "fusion_lon": 0.0, "bike_id": "cf99648a6fd2b8f08381e43c444f72ea", "is_disabled": 0, "is_reserved": 0}, {"rental_uris": {"ios": "https://dc.lft.to/lastmile_qr_scan", "android": "https://dc.lft.to/lastmile_qr_scan"}, "lon": -76.949776, "type": "electric_scooter", "fusion_lat": 0.0, "lat": 38.8936165, "name": "636344766d11f2a92efc252446eb426b", "fusion_lon": 0.0, "bike_id": "636344766d11f2a92efc252446eb426b", "is_disabled": 0, "is_reserved": 0}, {"rental_uris": {"ios": "https://dc.lft.to/lastmile_qr_scan", "android": "https://dc.lft.to/lastmile_qr_scan"}, "lon": -77.01103133333334, "type": "electric_scooter", "fusion_lat": 0.0, "lat": 38.89463833333333, "name": "8d1bcaa66f89dc814d69fa8737b2f405", "fusion_lon": 0.0, "bike_id": "8d1bcaa66f89dc814d69fa8737b2f405", "is_disabled": 0, "is_reserved": 0}, {"rental_uris": {"ios": "https://dc.lft.to/lastmile_qr_scan", "android": "https://dc.lft.to/lastmile_qr_scan"}, "lon": -77.0180305, "type": "electric_scooter", "fusion_lat": 0.0, "lat": 38.942003, "name": "b26e7e53a09abab07d7145a05bc46cfc", "fusion_lon": 0.0, "bike_id": "b26e7e53a09abab07d7145a05bc46cfc", "is_disabled": 0, "is_reserved": 0}, {"rental_uris": {"ios": "https://dc.lft.to/lastmile_qr_scan", "android": "https://dc.lft.to/lastmile_qr_scan"}, "lon": -77.00499166666667, "type": "electric_scooter", "fusion_lat": 0.0, "lat": 38.878746166666666, "name": "d3e6a88567c0ac5f0794b824c7063cba", "fusion_lon": 0.0, "bike_id": "d3e6a88567c0ac5f0794b824c7063cba", "is_disabled": 0, "is_reserved": 0}, {"rental_uris": {"ios": "https://dc.lft.to/lastmile_qr_scan", "android": "https://dc.lft.to/lastmile_qr_scan"}, "lon": -77.03001966666666, "type": "electric_scooter", "fusion_lat": 0.0, "lat": 38.93449783333333, "name": "6c504356fe132929eb5f9026a641aec1", "fusion_lon": 0.0, "bike_id": "6c504356fe132929eb5f9026a641aec1", "is_disabled": 0, "is_reserved": 0}, {"rental_uris": {"ios": "https://dc.lft.to/lastmile_qr_scan", "android": "https://dc.lft.to/lastmile_qr_scan"}, "lon": -77.03664633333334, "type": "electric_scooter", "fusion_lat": 0.0, "lat": 38.912963833333336, "name": "46102bed7e9d4e0a8db5cd68ad30e14e", "fusion_lon": 0.0, "bike_id": "46102bed7e9d4e0a8db5cd68ad30e14e", "is_disabled": 0, "is_reserved": 0}, {"rental_uris": {"ios": "https://dc.lft.to/lastmile_qr_scan", "android": "https://dc.lft.to/lastmile_qr_scan"}, "lon": -77.02571183333333, "type": "electric_scooter", "fusion_lat": 0.0, "lat": 38.887456, "name": "391e8614da0f36bf3218435b8024004e", "fusion_lon": 0.0, "bike_id": "391e8614da0f36bf3218435b8024004e", "is_disabled": 0, "is_reserved": 0}, {"rental_uris": {"ios": "https://dc.lft.to/lastmile_qr_scan", "android": "https://dc.lft.to/lastmile_qr_scan"}, "lon": -77.0513, "type": "electric_scooter", "fusion_lat": 0.0, "lat": 38.905210833333335, "name": "60605d06a592a2d95c6b13bd8ee973b6", "fusion_lon": 0.0, "bike_id": "60605d06a592a2d95c6b13bd8ee973b6", "is_disabled": 0, "is_reserved": 0}, {"rental_uris": {"ios": "https://dc.lft.to/lastmile_qr_scan", "android": "https://dc.lft.to/lastmile_qr_scan"}, "lon": -76.998411, "type": "electric_bike", "fusion_lat": 0.0, "lat": 38.83919433333333, "name": "abfd5a7fee4b78bc54a36057c8f1d29c", "fusion_lon": 0.0, "bike_id": "abfd5a7fee4b78bc54a36057c8f1d29c", "is_disabled": 0, "is_reserved": 0}, {"rental_uris": {"ios": "https://dc.lft.to/lastmile_qr_scan", "android": "https://dc.lft.to/lastmile_qr_scan"}, "lon": -76.935715, "type": "electric_bike", "fusion_lat": 0.0, "lat": 38.885257333333335, "name": "a0334e235d692cfcb899d52dbad4abe6", "fusion_lon": 0.0, "bike_id": "a0334e235d692cfcb899d52dbad4abe6", "is_disabled": 0, "is_reserved": 0}, {"rental_uris": {"ios": "https://dc.lft.to/lastmile_qr_scan", "android": "https://dc.lft.to/lastmile_qr_scan"}, "lon": -77.12984766666666, "type": "electric_bike", "fusion_lat": 0.0, "lat": 38.799863, "name": "e3d44cce2a91492b3014728f647fb33a", "fusion_lon": 0.0, "bike_id": "e3d44cce2a91492b3014728f647fb33a", "is_disabled": 0, "is_reserved": 0}, {"rental_uris": {"ios": "https://dc.lft.to/lastmile_qr_scan", "android": "https://dc.lft.to/lastmile_qr_scan"}, "lon": -77.024337, "type": "electric_bike", "fusion_lat": 0.0, "lat": 38.99419616666667, "name": "4f45970e1c558bd28f8cd61a61bbf4ef", "fusion_lon": 0.0, "bike_id": "4f45970e1c558bd28f8cd61a61bbf4ef", "is_disabled": 0, "is_reserved": 0}, {"rental_uris": {"ios": "https://dc.lft.to/lastmile_qr_scan", "android": "https://dc.lft.to/lastmile_qr_scan"}, "lon": -77.01755483333334, "type": "electric_scooter", "fusion_lat": 0.0, "lat": 38.877337, "name": "c273ce5d12f81feab3a16945cb5f36e4", "fusion_lon": 0.0, "bike_id": "c273ce5d12f81feab3a16945cb5f36e4", "is_disabled": 0, "is_reserved": 0}, {"rental_uris": {"ios": "https://dc.lft.to/lastmile_qr_scan", "android": "https://dc.lft.to/lastmile_qr_scan"}, "lon": -77.031072, "type": "electric_scooter", "fusion_lat": 0.0, "lat": 38.91194866666667, "name": "47d96cd44e76d851a0e677e1acc99323", "fusion_lon": 0.0, "bike_id": "47d96cd44e76d851a0e677e1acc99323", "is_disabled": 0, "is_reserved": 0}, {"rental_uris": {"ios": "https://dc.lft.to/lastmile_qr_scan", "android": "https://dc.lft.to/lastmile_qr_scan"}, "lon": -77.07049183333334, "type": "electric_bike", "fusion_lat": 0.0, "lat": 38.82444616666667, "name": "c5582eaf1543dddb7682c7a5dd96925a", "fusion_lon": 0.0, "bike_id": "c5582eaf1543dddb7682c7a5dd96925a", "is_disabled": 0, "is_reserved": 0}, {"rental_uris": {"ios": "https://dc.lft.to/lastmile_qr_scan", "android": "https://dc.lft.to/lastmile_qr_scan"}, "lon": -77.04175933333333, "type": "electric_scooter", "fusion_lat": 0.0, "lat": 38.91734, "name": "6d6e6e18f59c7a3ccb70b8a2027b68e2", "fusion_lon": 0.0, "bike_id": "6d6e6e18f59c7a3ccb70b8a2027b68e2", "is_disabled": 0, "is_reserved": 0}, {"rental_uris": {"ios": "https://dc.lft.to/lastmile_qr_scan", "android": "https://dc.lft.to/lastmile_qr_scan"}, "lon": -77.04601033333333, "type": "electric_scooter", "fusion_lat": 0.0, "lat": 38.9168865, "name": "1e637f1a7cc09fa11b132db55802f803", "fusion_lon": 0.0, "bike_id": "1e637f1a7cc09fa11b132db55802f803", "is_disabled": 0, "is_reserved": 0}, {"rental_uris": {"ios": "https://dc.lft.to/lastmile_qr_scan", "android": "https://dc.lft.to/lastmile_qr_scan"}, "lon": -77.03214683333333, "type": "electric_scooter", "fusion_lat": 0.0, "lat": 38.91721016666666, "name": "98652b9fc7f181aeac86f9da199f3dd8", "fusion_lon": 0.0, "bike_id": "98652b9fc7f181aeac86f9da199f3dd8", "is_disabled": 0, "is_reserved": 0}, {"rental_uris": {"ios": "https://dc.lft.to/lastmile_qr_scan", "android": "https://dc.lft.to/lastmile_qr_scan"}, "lon": -77.02222883333333, "type": "electric_scooter", "fusion_lat": 0.0, "lat": 38.893546666666666, "name": "899aa6f4af8a1a53412b4e77de5af4f8", "fusion_lon": 0.0, "bike_id": "899aa6f4af8a1a53412b4e77de5af4f8", "is_disabled": 0, "is_reserved": 0}, {"rental_uris": {"ios": "https://dc.lft.to/lastmile_qr_scan", "android": "https://dc.lft.to/lastmile_qr_scan"}, "lon": -77.12812116666667, "type": "electric_bike", "fusion_lat": 0.0, "lat": 38.86536266666667, "name": "44984e3852829816b9233dc47829aae6", "fusion_lon": 0.0, "bike_id": "44984e3852829816b9233dc47829aae6", "is_disabled": 0, "is_reserved": 0}, {"rental_uris": {"ios": "https://dc.lft.to/lastmile_qr_scan", "android": "https://dc.lft.to/lastmile_qr_scan"}, "lon": -77.0639555, "type": "electric_scooter", "fusion_lat": 0.0, "lat": 38.9290505, "name": "63c8e4257b36c8361bd59889c4327f7a", "fusion_lon": 0.0, "bike_id": "63c8e4257b36c8361bd59889c4327f7a", "is_disabled": 0, "is_reserved": 0}, {"rental_uris": {"ios": "https://dc.lft.to/lastmile_qr_scan", "android": "https://dc.lft.to/lastmile_qr_scan"}, "lon": -77.0296175, "type": "electric_scooter", "fusion_lat": 0.0, "lat": 38.904836, "name": "342af587ea2523f6cfd61f8b741ed89c", "fusion_lon": 0.0, "bike_id": "342af587ea2523f6cfd61f8b741ed89c", "is_disabled": 0, "is_reserved": 0}, {"rental_uris": {"ios": "https://dc.lft.to/lastmile_qr_scan", "android": "https://dc.lft.to/lastmile_qr_scan"}, "lon": -77.03972166666667, "type": "electric_scooter", "fusion_lat": 0.0, "lat": 38.9025895, "name": "7899136c8755c8901da8d4f71bc45cb1", "fusion_lon": 0.0, "bike_id": "7899136c8755c8901da8d4f71bc45cb1", "is_disabled": 0, "is_reserved": 0}, {"rental_uris": {"ios": "https://dc.lft.to/lastmile_qr_scan", "android": "https://dc.lft.to/lastmile_qr_scan"}, "lon": -76.91600333333334, "type": "electric_bike", "fusion_lat": 0.0, "lat": 38.8797875, "name": "c17dc060945f1217c3526453ec0bfe30", "fusion_lon": 0.0, "bike_id": "c17dc060945f1217c3526453ec0bfe30", "is_disabled": 0, "is_reserved": 0}, {"rental_uris": {"ios": "https://dc.lft.to/lastmile_qr_scan", "android": "https://dc.lft.to/lastmile_qr_scan"}, "lon": -77.04238983333333, "type": "electric_scooter", "fusion_lat": 0.0, "lat": 38.9110545, "name": "5b4bb3009c99e59860b5ff1b6996000f", "fusion_lon": 0.0, "bike_id": "5b4bb3009c99e59860b5ff1b6996000f", "is_disabled": 0, "is_reserved": 0}, {"rental_uris": {"ios": "https://dc.lft.to/lastmile_qr_scan", "android": "https://dc.lft.to/lastmile_qr_scan"}, "lon": -77.04024033333333, "type": "electric_scooter", "fusion_lat": 0.0, "lat": 38.92343533333333, "name": "c32c80a6df8aa2a72bc198d23aa34337", "fusion_lon": 0.0, "bike_id": "c32c80a6df8aa2a72bc198d23aa34337", "is_disabled": 0, "is_reserved": 0}, {"rental_uris": {"ios": "https://dc.lft.to/lastmile_qr_scan", "android": "https://dc.lft.to/lastmile_qr_scan"}, "lon": -77.00654266666666, "type": "electric_scooter", "fusion_lat": 0.0, "lat": 38.9170055, "name": "fbb6d1ac37e0e337db379755d2ad98b4", "fusion_lon": 0.0, "bike_id": "fbb6d1ac37e0e337db379755d2ad98b4", "is_disabled": 0, "is_reserved": 0}, {"rental_uris": {"ios": "https://dc.lft.to/lastmile_qr_scan", "android": "https://dc.lft.to/lastmile_qr_scan"}, "lon": -77.03189766666667, "type": "electric_scooter", "fusion_lat": 0.0, "lat": 38.89343383333333, "name": "f519a169f263ff6d9ad3333c328257ed", "fusion_lon": 0.0, "bike_id": "f519a169f263ff6d9ad3333c328257ed", "is_disabled": 0, "is_reserved": 0}, {"rental_uris": {"ios": "https://dc.lft.to/lastmile_qr_scan", "android": "https://dc.lft.to/lastmile_qr_scan"}, "lon": -77.03939816666667, "type": "electric_scooter", "fusion_lat": 0.0, "lat": 38.90465283333333, "name": "31837b350b77665f4dd17c1436fb4785", "fusion_lon": 0.0, "bike_id": "31837b350b77665f4dd17c1436fb4785", "is_disabled": 0, "is_reserved": 0}, {"rental_uris": {"ios": "https://dc.lft.to/lastmile_qr_scan", "android": "https://dc.lft.to/lastmile_qr_scan"}, "lon": -77.02390966666667, "type": "electric_scooter", "fusion_lat": 0.0, "lat": 38.9158615, "name": "57c0d66761e1eb630029780eab1caee6", "fusion_lon": 0.0, "bike_id": "57c0d66761e1eb630029780eab1caee6", "is_disabled": 0, "is_reserved": 0}, {"rental_uris": {"ios": "https://dc.lft.to/lastmile_qr_scan", "android": "https://dc.lft.to/lastmile_qr_scan"}, "lon": -77.06406416666667, "type": "electric_bike", "fusion_lat": 0.0, "lat": 38.8434305, "name": "ec597e00d848ab2c65077a1ddba727c7", "fusion_lon": 0.0, "bike_id": "ec597e00d848ab2c65077a1ddba727c7", "is_disabled": 0, "is_reserved": 0}, {"rental_uris": {"ios": "https://dc.lft.to/lastmile_qr_scan", "android": "https://dc.lft.to/lastmile_qr_scan"}, "lon": -77.0250415, "type": "electric_scooter", "fusion_lat": 0.0, "lat": 38.91926816666667, "name": "96bab658ede3f8ff6e9ee0dbdc58822c", "fusion_lon": 0.0, "bike_id": "96bab658ede3f8ff6e9ee0dbdc58822c", "is_disabled": 0, "is_reserved": 0}, {"rental_uris": {"ios": "https://dc.lft.to/lastmile_qr_scan", "android": "https://dc.lft.to/lastmile_qr_scan"}, "lon": -77.03004666666666, "type": "electric_scooter", "fusion_lat": 0.0, "lat": 38.89967866666667, "name": "9338a3501c7c3483063f52ac57ad6088", "fusion_lon": 0.0, "bike_id": "9338a3501c7c3483063f52ac57ad6088", "is_disabled": 0, "is_reserved": 0}, {"rental_uris": {"ios": "https://dc.lft.to/lastmile_qr_scan", "android": "https://dc.lft.to/lastmile_qr_scan"}, "lon": -77.0234675, "type": "electric_scooter", "fusion_lat": 0.0, "lat": 38.88335566666667, "name": "6a53c2871b7985994a09f3ee76e15432", "fusion_lon": 0.0, "bike_id": "6a53c2871b7985994a09f3ee76e15432", "is_disabled": 0, "is_reserved": 0}, {"rental_uris": {"ios": "https://dc.lft.to/lastmile_qr_scan", "android": "https://dc.lft.to/lastmile_qr_scan"}, "lon": -77.130959, "type": "electric_bike", "fusion_lat": 0.0, "lat": 38.86164266666667, "name": "955bd8ed2c223861c2882bbb3b5936fb", "fusion_lon": 0.0, "bike_id": "955bd8ed2c223861c2882bbb3b5936fb", "is_disabled": 0, "is_reserved": 0}, {"rental_uris": {"ios": "https://dc.lft.to/lastmile_qr_scan", "android": "https://dc.lft.to/lastmile_qr_scan"}, "lon": -77.03969366666666, "type": "electric_scooter", "fusion_lat": 0.0, "lat": 38.90224116666667, "name": "3e6e1d0f76d8327f0c1b2a887ec62899", "fusion_lon": 0.0, "bike_id": "3e6e1d0f76d8327f0c1b2a887ec62899", "is_disabled": 0, "is_reserved": 0}, {"rental_uris": {"ios": "https://dc.lft.to/lastmile_qr_scan", "android": "https://dc.lft.to/lastmile_qr_scan"}, "lon": -77.03443233333333, "type": "electric_scooter", "fusion_lat": 0.0, "lat": 38.907404666666665, "name": "a2ee9de7d727ab9f78df1a534073b743", "fusion_lon": 0.0, "bike_id": "a2ee9de7d727ab9f78df1a534073b743", "is_disabled": 0, "is_reserved": 0}, {"rental_uris": {"ios": "https://dc.lft.to/lastmile_qr_scan", "android": "https://dc.lft.to/lastmile_qr_scan"}, "lon": -77.047005, "type": "electric_scooter", "fusion_lat": 0.0, "lat": 38.92105766666667, "name": "a0e416eaa6573a873ed44e3f4f77be45", "fusion_lon": 0.0, "bike_id": "a0e416eaa6573a873ed44e3f4f77be45", "is_disabled": 0, "is_reserved": 0}, {"rental_uris": {"ios": "https://dc.lft.to/lastmile_qr_scan", "android": "https://dc.lft.to/lastmile_qr_scan"}, "lon": -77.04175416666666, "type": "electric_scooter", "fusion_lat": 0.0, "lat": 38.918536833333334, "name": "0d1315134a13b8619094a8487e3d3285", "fusion_lon": 0.0, "bike_id": "0d1315134a13b8619094a8487e3d3285", "is_disabled": 0, "is_reserved": 0}, {"rental_uris": {"ios": "https://dc.lft.to/lastmile_qr_scan", "android": "https://dc.lft.to/lastmile_qr_scan"}, "lon": -77.03461366666667, "type": "electric_scooter", "fusion_lat": 0.0, "lat": 38.921464, "name": "91b4fe56cbaad60afec934e7bf568d6a", "fusion_lon": 0.0, "bike_id": "91b4fe56cbaad60afec934e7bf568d6a", "is_disabled": 0, "is_reserved": 0}, {"rental_uris": {"ios": "https://dc.lft.to/lastmile_qr_scan", "android": "https://dc.lft.to/lastmile_qr_scan"}, "lon": -77.055968, "type": "electric_scooter", "fusion_lat": 0.0, "lat": 38.936954666666665, "name": "79b7d51539351c1cd534858e6459c510", "fusion_lon": 0.0, "bike_id": "79b7d51539351c1cd534858e6459c510", "is_disabled": 0, "is_reserved": 0}, {"rental_uris": {"ios": "https://dc.lft.to/lastmile_qr_scan", "android": "https://dc.lft.to/lastmile_qr_scan"}, "lon": -77.02889066666667, "type": "electric_scooter", "fusion_lat": 0.0, "lat": 38.90468216666667, "name": "f81c81f8f00f3013bc866b829ae92e54", "fusion_lon": 0.0, "bike_id": "f81c81f8f00f3013bc866b829ae92e54", "is_disabled": 0, "is_reserved": 0}, {"rental_uris": {"ios": "https://dc.lft.to/lastmile_qr_scan", "android": "https://dc.lft.to/lastmile_qr_scan"}, "lon": -77.03240383333333, "type": "electric_scooter", "fusion_lat": 0.0, "lat": 38.896390833333335, "name": "01dd1c27e9d2c56b123e88fc00ecb777", "fusion_lon": 0.0, "bike_id": "01dd1c27e9d2c56b123e88fc00ecb777", "is_disabled": 0, "is_reserved": 0}, {"rental_uris": {"ios": "https://dc.lft.to/lastmile_qr_scan", "android": "https://dc.lft.to/lastmile_qr_scan"}, "lon": -77.03786083333334, "type": "electric_scooter", "fusion_lat": 0.0, "lat": 38.936037166666665, "name": "ab9823ece4f13e49f2a11d23a2a8f2db", "fusion_lon": 0.0, "bike_id": "ab9823ece4f13e49f2a11d23a2a8f2db", "is_disabled": 0, "is_reserved": 0}, {"rental_uris": {"ios": "https://dc.lft.to/lastmile_qr_scan", "android": "https://dc.lft.to/lastmile_qr_scan"}, "lon": -77.02217783333333, "type": "electric_bike", "fusion_lat": 0.0, "lat": 38.89600766666667, "name": "6f39214fa5c0a8821a4a2bd155382f3e", "fusion_lon": 0.0, "bike_id": "6f39214fa5c0a8821a4a2bd155382f3e", "is_disabled": 0, "is_reserved": 0}, {"rental_uris": {"ios": "https://dc.lft.to/lastmile_qr_scan", "android": "https://dc.lft.to/lastmile_qr_scan"}, "lon": -77.0916245, "type": "electric_bike", "fusion_lat": 0.0, "lat": 38.9676195, "name": "17d6456c898be36fa755031889e66c0e", "fusion_lon": 0.0, "bike_id": "17d6456c898be36fa755031889e66c0e", "is_disabled": 0, "is_reserved": 0}, {"rental_uris": {"ios": "https://dc.lft.to/lastmile_qr_scan", "android": "https://dc.lft.to/lastmile_qr_scan"}, "lon": -76.96176766666666, "type": "electric_bike", "fusion_lat": 0.0, "lat": 38.918593, "name": "8fd21809d904f1ac86bc5ac6add060c5", "fusion_lon": 0.0, "bike_id": "8fd21809d904f1ac86bc5ac6add060c5", "is_disabled": 0, "is_reserved": 0}, {"rental_uris": {"ios": "https://dc.lft.to/lastmile_qr_scan", "android": "https://dc.lft.to/lastmile_qr_scan"}, "lon": -77.01760033333333, "type": "electric_scooter", "fusion_lat": 0.0, "lat": 38.8773535, "name": "6589e46df9b67ab82c5f61877f683af7", "fusion_lon": 0.0, "bike_id": "6589e46df9b67ab82c5f61877f683af7", "is_disabled": 0, "is_reserved": 0}, {"rental_uris": {"ios": "https://dc.lft.to/lastmile_qr_scan", "android": "https://dc.lft.to/lastmile_qr_scan"}, "lon": -76.98418983333333, "type": "electric_scooter", "fusion_lat": 0.0, "lat": 38.9138935, "name": "a49afdc119f7c7733598b3dc80c95bf2", "fusion_lon": 0.0, "bike_id": "a49afdc119f7c7733598b3dc80c95bf2", "is_disabled": 0, "is_reserved": 0}, {"rental_uris": {"ios": "https://dc.lft.to/lastmile_qr_scan", "android": "https://dc.lft.to/lastmile_qr_scan"}, "lon": -77.11429966666667, "type": "electric_bike", "fusion_lat": 0.0, "lat": 38.852448, "name": "7147f007cfe92ccbbf85b500293c3435", "fusion_lon": 0.0, "bike_id": "7147f007cfe92ccbbf85b500293c3435", "is_disabled": 0, "is_reserved": 0}, {"rental_uris": {"ios": "https://dc.lft.to/lastmile_qr_scan", "android": "https://dc.lft.to/lastmile_qr_scan"}, "lon": -77.05123933333333, "type": "electric_scooter", "fusion_lat": 0.0, "lat": 38.92360883333333, "name": "a76e72ee19a50c87bfc1302570e06957", "fusion_lon": 0.0, "bike_id": "a76e72ee19a50c87bfc1302570e06957", "is_disabled": 0, "is_reserved": 0}, {"rental_uris": {"ios": "https://dc.lft.to/lastmile_qr_scan", "android": "https://dc.lft.to/lastmile_qr_scan"}, "lon": -77.07812883333334, "type": "electric_scooter", "fusion_lat": 0.0, "lat": 38.9263205, "name": "b1047edb6bf1555684865f6fef824678", "fusion_lon": 0.0, "bike_id": "b1047edb6bf1555684865f6fef824678", "is_disabled": 0, "is_reserved": 0}, {"rental_uris": {"ios": "https://dc.lft.to/lastmile_qr_scan", "android": "https://dc.lft.to/lastmile_qr_scan"}, "lon": -77.03213233333334, "type": "electric_scooter", "fusion_lat": 0.0, "lat": 38.915361, "name": "0c49d67aacad77efb5afd04ecb4c7ffb", "fusion_lon": 0.0, "bike_id": "0c49d67aacad77efb5afd04ecb4c7ffb", "is_disabled": 0, "is_reserved": 0}, {"rental_uris": {"ios": "https://dc.lft.to/lastmile_qr_scan", "android": "https://dc.lft.to/lastmile_qr_scan"}, "lon": -77.021971, "type": "electric_scooter", "fusion_lat": 0.0, "lat": 38.90853216666667, "name": "afb5f5962147534e47f5c643e5f965de", "fusion_lon": 0.0, "bike_id": "afb5f5962147534e47f5c643e5f965de", "is_disabled": 0, "is_reserved": 0}, {"rental_uris": {"ios": "https://dc.lft.to/lastmile_qr_scan", "android": "https://dc.lft.to/lastmile_qr_scan"}, "lon": -77.02216533333333, "type": "electric_scooter", "fusion_lat": 0.0, "lat": 38.887701166666666, "name": "63bf80516381be98aec63c2ce41e3a21", "fusion_lon": 0.0, "bike_id": "63bf80516381be98aec63c2ce41e3a21", "is_disabled": 0, "is_reserved": 0}, {"rental_uris": {"ios": "https://dc.lft.to/lastmile_qr_scan", "android": "https://dc.lft.to/lastmile_qr_scan"}, "lon": -77.0308365, "type": "electric_scooter", "fusion_lat": 0.0, "lat": 38.89971333333333, "name": "7c64ba17a7d6ec949a177d672a162b9f", "fusion_lon": 0.0, "bike_id": "7c64ba17a7d6ec949a177d672a162b9f", "is_disabled": 0, "is_reserved": 0}, {"rental_uris": {"ios": "https://dc.lft.to/lastmile_qr_scan", "android": "https://dc.lft.to/lastmile_qr_scan"}, "lon": -76.967795, "type": "electric_scooter", "fusion_lat": 0.0, "lat": 38.86137216666667, "name": "b3250e024dfd04ebc45b9bdc930bf47c", "fusion_lon": 0.0, "bike_id": "b3250e024dfd04ebc45b9bdc930bf47c", "is_disabled": 0, "is_reserved": 0}, {"rental_uris": {"ios": "https://dc.lft.to/lastmile_qr_scan", "android": "https://dc.lft.to/lastmile_qr_scan"}, "lon": -77.01959733333334, "type": "electric_scooter", "fusion_lat": 0.0, "lat": 38.904209, "name": "f035413e8fdc40c9f2f8f0b455505122", "fusion_lon": 0.0, "bike_id": "f035413e8fdc40c9f2f8f0b455505122", "is_disabled": 0, "is_reserved": 0}, {"rental_uris": {"ios": "https://dc.lft.to/lastmile_qr_scan", "android": "https://dc.lft.to/lastmile_qr_scan"}, "lon": -77.03223366666667, "type": "electric_scooter", "fusion_lat": 0.0, "lat": 38.8922675, "name": "e308bec381a422e9b391edc532ba9e7b", "fusion_lon": 0.0, "bike_id": "e308bec381a422e9b391edc532ba9e7b", "is_disabled": 0, "is_reserved": 0}, {"rental_uris": {"ios": "https://dc.lft.to/lastmile_qr_scan", "android": "https://dc.lft.to/lastmile_qr_scan"}, "lon": -76.9835565, "type": "electric_scooter", "fusion_lat": 0.0, "lat": 38.864845833333334, "name": "bfae655f7cd61193d368d77b23eefd75", "fusion_lon": 0.0, "bike_id": "bfae655f7cd61193d368d77b23eefd75", "is_disabled": 0, "is_reserved": 0}, {"rental_uris": {"ios": "https://dc.lft.to/lastmile_qr_scan", "android": "https://dc.lft.to/lastmile_qr_scan"}, "lon": -77.0294745, "type": "electric_scooter", "fusion_lat": 0.0, "lat": 38.907347666666666, "name": "b1653f0eff7526d72cfd010c55ef692c", "fusion_lon": 0.0, "bike_id": "b1653f0eff7526d72cfd010c55ef692c", "is_disabled": 0, "is_reserved": 0}, {"rental_uris": {"ios": "https://dc.lft.to/lastmile_qr_scan", "android": "https://dc.lft.to/lastmile_qr_scan"}, "lon": -76.98347666666666, "type": "electric_scooter", "fusion_lat": 0.0, "lat": 38.91539183333333, "name": "c4e8ea38b15bed9eec61338f1b854de9", "fusion_lon": 0.0, "bike_id": "c4e8ea38b15bed9eec61338f1b854de9", "is_disabled": 0, "is_reserved": 0}, {"rental_uris": {"ios": "https://dc.lft.to/lastmile_qr_scan", "android": "https://dc.lft.to/lastmile_qr_scan"}, "lon": -77.03670516666666, "type": "electric_scooter", "fusion_lat": 0.0, "lat": 38.90278166666667, "name": "330834014345e267eaeb7a176d1deb4a", "fusion_lon": 0.0, "bike_id": "330834014345e267eaeb7a176d1deb4a", "is_disabled": 0, "is_reserved": 0}, {"rental_uris": {"ios": "https://dc.lft.to/lastmile_qr_scan", "android": "https://dc.lft.to/lastmile_qr_scan"}, "lon": -77.05176366666667, "type": "electric_scooter", "fusion_lat": 0.0, "lat": 38.92418166666667, "name": "f1bb1fe410900910467c56171d66921b", "fusion_lon": 0.0, "bike_id": "f1bb1fe410900910467c56171d66921b", "is_disabled": 0, "is_reserved": 0}, {"rental_uris": {"ios": "https://dc.lft.to/lastmile_qr_scan", "android": "https://dc.lft.to/lastmile_qr_scan"}, "lon": -77.02818883333333, "type": "electric_scooter", "fusion_lat": 0.0, "lat": 38.9092705, "name": "7c435f5a4477b0f990c3afd1b2cbb377", "fusion_lon": 0.0, "bike_id": "7c435f5a4477b0f990c3afd1b2cbb377", "is_disabled": 0, "is_reserved": 0}, {"rental_uris": {"ios": "https://dc.lft.to/lastmile_qr_scan", "android": "https://dc.lft.to/lastmile_qr_scan"}, "lon": -77.00723283333333, "type": "electric_scooter", "fusion_lat": 0.0, "lat": 38.87692666666667, "name": "58df1df5f8bf7986ab58dbc36df45fd6", "fusion_lon": 0.0, "bike_id": "58df1df5f8bf7986ab58dbc36df45fd6", "is_disabled": 0, "is_reserved": 0}, {"rental_uris": {"ios": "https://dc.lft.to/lastmile_qr_scan", "android": "https://dc.lft.to/lastmile_qr_scan"}, "lon": -76.99892216666667, "type": "electric_scooter", "fusion_lat": 0.0, "lat": 38.90943816666667, "name": "10a8f27e277b178336463ef96622b372", "fusion_lon": 0.0, "bike_id": "10a8f27e277b178336463ef96622b372", "is_disabled": 0, "is_reserved": 0}, {"rental_uris": {"ios": "https://dc.lft.to/lastmile_qr_scan", "android": "https://dc.lft.to/lastmile_qr_scan"}, "lon": -77.02748683333333, "type": "electric_scooter", "fusion_lat": 0.0, "lat": 38.9662425, "name": "3cf3817d9f1f85dbe24ebe2a870946f3", "fusion_lon": 0.0, "bike_id": "3cf3817d9f1f85dbe24ebe2a870946f3", "is_disabled": 0, "is_reserved": 0}, {"rental_uris": {"ios": "https://dc.lft.to/lastmile_qr_scan", "android": "https://dc.lft.to/lastmile_qr_scan"}, "lon": -76.968821, "type": "electric_bike", "fusion_lat": 0.0, "lat": 38.84598116666667, "name": "d72dfc0eed83212b2758de77428e69c8", "fusion_lon": 0.0, "bike_id": "d72dfc0eed83212b2758de77428e69c8", "is_disabled": 0, "is_reserved": 0}, {"rental_uris": {"ios": "https://dc.lft.to/lastmile_qr_scan", "android": "https://dc.lft.to/lastmile_qr_scan"}, "lon": -76.98497283333333, "type": "electric_scooter", "fusion_lat": 0.0, "lat": 38.86045583333333, "name": "434b147653d7365c73d3264e0fe9de8e", "fusion_lon": 0.0, "bike_id": "434b147653d7365c73d3264e0fe9de8e", "is_disabled": 0, "is_reserved": 0}, {"rental_uris": {"ios": "https://dc.lft.to/lastmile_qr_scan", "android": "https://dc.lft.to/lastmile_qr_scan"}, "lon": -76.99547833333334, "type": "electric_scooter", "fusion_lat": 0.0, "lat": 38.9266805, "name": "36c46418c865385cb650bd10c0924a06", "fusion_lon": 0.0, "bike_id": "36c46418c865385cb650bd10c0924a06", "is_disabled": 0, "is_reserved": 0}, {"rental_uris": {"ios": "https://dc.lft.to/lastmile_qr_scan", "android": "https://dc.lft.to/lastmile_qr_scan"}, "lon": -77.10091433333334, "type": "electric_bike", "fusion_lat": 0.0, "lat": 38.9595525, "name": "c6a05e1fec7c60edbe522737c77436e4", "fusion_lon": 0.0, "bike_id": "c6a05e1fec7c60edbe522737c77436e4", "is_disabled": 0, "is_reserved": 0}, {"rental_uris": {"ios": "https://dc.lft.to/lastmile_qr_scan", "android": "https://dc.lft.to/lastmile_qr_scan"}, "lon": -76.99512166666666, "type": "electric_scooter", "fusion_lat": 0.0, "lat": 38.844707166666666, "name": "1042b0ef361bc78b4227c8e1e3e24212", "fusion_lon": 0.0, "bike_id": "1042b0ef361bc78b4227c8e1e3e24212", "is_disabled": 0, "is_reserved": 0}, {"rental_uris": {"ios": "https://dc.lft.to/lastmile_qr_scan", "android": "https://dc.lft.to/lastmile_qr_scan"}, "lon": -77.0293025, "type": "electric_scooter", "fusion_lat": 0.0, "lat": 38.89991166666667, "name": "23a86543df7755a63ae6e17c7bec6b44", "fusion_lon": 0.0, "bike_id": "23a86543df7755a63ae6e17c7bec6b44", "is_disabled": 0, "is_reserved": 0}, {"rental_uris": {"ios": "https://dc.lft.to/lastmile_qr_scan", "android": "https://dc.lft.to/lastmile_qr_scan"}, "lon": -77.03013266666666, "type": "electric_scooter", "fusion_lat": 0.0, "lat": 38.919237333333335, "name": "b4e5b56231f8b975063514958880cc88", "fusion_lon": 0.0, "bike_id": "b4e5b56231f8b975063514958880cc88", "is_disabled": 0, "is_reserved": 0}, {"rental_uris": {"ios": "https://dc.lft.to/lastmile_qr_scan", "android": "https://dc.lft.to/lastmile_qr_scan"}, "lon": -77.03313716666666, "type": "electric_scooter", "fusion_lat": 0.0, "lat": 38.9015795, "name": "9412a829d0b6b924932bc849ba47e580", "fusion_lon": 0.0, "bike_id": "9412a829d0b6b924932bc849ba47e580", "is_disabled": 0, "is_reserved": 0}, {"rental_uris": {"ios": "https://dc.lft.to/lastmile_qr_scan", "android": "https://dc.lft.to/lastmile_qr_scan"}, "lon": -77.0318415, "type": "electric_scooter", "fusion_lat": 0.0, "lat": 38.893426166666664, "name": "2c8eefa1d232e3fc3c01c0e97a33e4bf", "fusion_lon": 0.0, "bike_id": "2c8eefa1d232e3fc3c01c0e97a33e4bf", "is_disabled": 0, "is_reserved": 0}, {"rental_uris": {"ios": "https://dc.lft.to/lastmile_qr_scan", "android": "https://dc.lft.to/lastmile_qr_scan"}, "lon": -77.03216, "type": "electric_scooter", "fusion_lat": 0.0, "lat": 38.91548516666667, "name": "9027e2b6f6e4a3b80cbfaac0b40a3594", "fusion_lon": 0.0, "bike_id": "9027e2b6f6e4a3b80cbfaac0b40a3594", "is_disabled": 0, "is_reserved": 0}, {"rental_uris": {"ios": "https://dc.lft.to/lastmile_qr_scan", "android": "https://dc.lft.to/lastmile_qr_scan"}, "lon": -76.988431, "type": "electric_bike", "fusion_lat": 0.0, "lat": 38.842685, "name": "7729bea685d23ef7e6caf67ee68bdb40", "fusion_lon": 0.0, "bike_id": "7729bea685d23ef7e6caf67ee68bdb40", "is_disabled": 0, "is_reserved": 0}, {"rental_uris": {"ios": "https://dc.lft.to/lastmile_qr_scan", "android": "https://dc.lft.to/lastmile_qr_scan"}, "lon": -77.02440516666667, "type": "electric_scooter", "fusion_lat": 0.0, "lat": 38.91843316666667, "name": "53e2f4df01bb0263048a51707f576c14", "fusion_lon": 0.0, "bike_id": "53e2f4df01bb0263048a51707f576c14", "is_disabled": 0, "is_reserved": 0}, {"rental_uris": {"ios": "https://dc.lft.to/lastmile_qr_scan", "android": "https://dc.lft.to/lastmile_qr_scan"}, "lon": -76.97603, "type": "electric_scooter", "fusion_lat": 0.0, "lat": 38.90205133333333, "name": "420d40e667a5fd11a8c8fe89496c42ea", "fusion_lon": 0.0, "bike_id": "420d40e667a5fd11a8c8fe89496c42ea", "is_disabled": 0, "is_reserved": 0}, {"rental_uris": {"ios": "https://dc.lft.to/lastmile_qr_scan", "android": "https://dc.lft.to/lastmile_qr_scan"}, "lon": -77.03295683333333, "type": "electric_scooter", "fusion_lat": 0.0, "lat": 38.92212133333334, "name": "e7d3dc38d5de7b9eddcb5c6693c3a72e", "fusion_lon": 0.0, "bike_id": "e7d3dc38d5de7b9eddcb5c6693c3a72e", "is_disabled": 0, "is_reserved": 0}, {"rental_uris": {"ios": "https://dc.lft.to/lastmile_qr_scan", "android": "https://dc.lft.to/lastmile_qr_scan"}, "lon": -77.00103866666667, "type": "electric_scooter", "fusion_lat": 0.0, "lat": 38.8942885, "name": "46e979cbd48d66b16cf0bf47577b4847", "fusion_lon": 0.0, "bike_id": "46e979cbd48d66b16cf0bf47577b4847", "is_disabled": 0, "is_reserved": 0}, {"rental_uris": {"ios": "https://dc.lft.to/lastmile_qr_scan", "android": "https://dc.lft.to/lastmile_qr_scan"}, "lon": -77.03183833333334, "type": "electric_scooter", "fusion_lat": 0.0, "lat": 38.89577716666667, "name": "c4435d0d1b45ddcd82a100b5efc99b1e", "fusion_lon": 0.0, "bike_id": "c4435d0d1b45ddcd82a100b5efc99b1e", "is_disabled": 0, "is_reserved": 0}, {"rental_uris": {"ios": "https://dc.lft.to/lastmile_qr_scan", "android": "https://dc.lft.to/lastmile_qr_scan"}, "lon": -77.04674883333334, "type": "electric_scooter", "fusion_lat": 0.0, "lat": 38.90544716666667, "name": "0543a7671f676fd452244f8115c46dd9", "fusion_lon": 0.0, "bike_id": "0543a7671f676fd452244f8115c46dd9", "is_disabled": 0, "is_reserved": 0}, {"rental_uris": {"ios": "https://dc.lft.to/lastmile_qr_scan", "android": "https://dc.lft.to/lastmile_qr_scan"}, "lon": -77.0209525, "type": "electric_scooter", "fusion_lat": 0.0, "lat": 38.91005366666667, "name": "6971a09467cd9595b5bbc929c8a40fe3", "fusion_lon": 0.0, "bike_id": "6971a09467cd9595b5bbc929c8a40fe3", "is_disabled": 0, "is_reserved": 0}, {"rental_uris": {"ios": "https://dc.lft.to/lastmile_qr_scan", "android": "https://dc.lft.to/lastmile_qr_scan"}, "lon": -77.030008, "type": "electric_scooter", "fusion_lat": 0.0, "lat": 38.92478, "name": "1506bc092dcb63c29ddd0755bb207855", "fusion_lon": 0.0, "bike_id": "1506bc092dcb63c29ddd0755bb207855", "is_disabled": 0, "is_reserved": 0}, {"rental_uris": {"ios": "https://dc.lft.to/lastmile_qr_scan", "android": "https://dc.lft.to/lastmile_qr_scan"}, "lon": -77.03500666666666, "type": "electric_scooter", "fusion_lat": 0.0, "lat": 38.92856783333333, "name": "51cf4857eee38d2c5ee5a5b1d4b70651", "fusion_lon": 0.0, "bike_id": "51cf4857eee38d2c5ee5a5b1d4b70651", "is_disabled": 0, "is_reserved": 0}, {"rental_uris": {"ios": "https://dc.lft.to/lastmile_qr_scan", "android": "https://dc.lft.to/lastmile_qr_scan"}, "lon": -76.9798715, "type": "electric_bike", "fusion_lat": 0.0, "lat": 38.877502, "name": "34b0673f504940e61ee7c73ce8ed7e69", "fusion_lon": 0.0, "bike_id": "34b0673f504940e61ee7c73ce8ed7e69", "is_disabled": 0, "is_reserved": 0}, {"rental_uris": {"ios": "https://dc.lft.to/lastmile_qr_scan", "android": "https://dc.lft.to/lastmile_qr_scan"}, "lon": -77.3609285, "type": "electric_bike", "fusion_lat": 0.0, "lat": 38.93961383333333, "name": "d19a1dc534774148d5eac8c454c09cdd", "fusion_lon": 0.0, "bike_id": "d19a1dc534774148d5eac8c454c09cdd", "is_disabled": 0, "is_reserved": 0}, {"rental_uris": {"ios": "https://dc.lft.to/lastmile_qr_scan", "android": "https://dc.lft.to/lastmile_qr_scan"}, "lon": -77.0408705, "type": "electric_scooter", "fusion_lat": 0.0, "lat": 38.90713983333333, "name": "4956fa67da76d9bcffccfb7c6a49c5c2", "fusion_lon": 0.0, "bike_id": "4956fa67da76d9bcffccfb7c6a49c5c2", "is_disabled": 0, "is_reserved": 0}, {"rental_uris": {"ios": "https://dc.lft.to/lastmile_qr_scan", "android": "https://dc.lft.to/lastmile_qr_scan"}, "lon": -77.03919933333333, "type": "electric_scooter", "fusion_lat": 0.0, "lat": 38.898368833333336, "name": "b3c88df76d14597bd233750c084a8842", "fusion_lon": 0.0, "bike_id": "b3c88df76d14597bd233750c084a8842", "is_disabled": 0, "is_reserved": 0}, {"rental_uris": {"ios": "https://dc.lft.to/lastmile_qr_scan", "android": "https://dc.lft.to/lastmile_qr_scan"}, "lon": -77.01090633333334, "type": "electric_scooter", "fusion_lat": 0.0, "lat": 38.91821016666667, "name": "6cb94ab08045a449e79265cc190c3b53", "fusion_lon": 0.0, "bike_id": "6cb94ab08045a449e79265cc190c3b53", "is_disabled": 0, "is_reserved": 0}, {"rental_uris": {"ios": "https://dc.lft.to/lastmile_qr_scan", "android": "https://dc.lft.to/lastmile_qr_scan"}, "lon": -76.94440183333333, "type": "electric_bike", "fusion_lat": 0.0, "lat": 38.90297316666667, "name": "faccbc5bfd94b0d505ff3003a1fb0597", "fusion_lon": 0.0, "bike_id": "faccbc5bfd94b0d505ff3003a1fb0597", "is_disabled": 0, "is_reserved": 0}, {"rental_uris": {"ios": "https://dc.lft.to/lastmile_qr_scan", "android": "https://dc.lft.to/lastmile_qr_scan"}, "lon": -77.00161216666666, "type": "electric_scooter", "fusion_lat": 0.0, "lat": 38.90748283333333, "name": "a5ed0cf7edb875b99f5a716b343e29ba", "fusion_lon": 0.0, "bike_id": "a5ed0cf7edb875b99f5a716b343e29ba", "is_disabled": 0, "is_reserved": 0}, {"rental_uris": {"ios": "https://dc.lft.to/lastmile_qr_scan", "android": "https://dc.lft.to/lastmile_qr_scan"}, "lon": -77.02225766666666, "type": "electric_scooter", "fusion_lat": 0.0, "lat": 38.912512166666666, "name": "9bea54de7ae9021fa4b57a5667c28a4a", "fusion_lon": 0.0, "bike_id": "9bea54de7ae9021fa4b57a5667c28a4a", "is_disabled": 0, "is_reserved": 0}, {"rental_uris": {"ios": "https://dc.lft.to/lastmile_qr_scan", "android": "https://dc.lft.to/lastmile_qr_scan"}, "lon": -76.972204, "type": "electric_bike", "fusion_lat": 0.0, "lat": 38.844792, "name": "d569ef5f6c4846a8a0f7856af924b8cb", "fusion_lon": 0.0, "bike_id": "d569ef5f6c4846a8a0f7856af924b8cb", "is_disabled": 0, "is_reserved": 0}, {"rental_uris": {"ios": "https://dc.lft.to/lastmile_qr_scan", "android": "https://dc.lft.to/lastmile_qr_scan"}, "lon": -76.97708783333333, "type": "electric_scooter", "fusion_lat": 0.0, "lat": 38.89896983333333, "name": "057c0fd007185dfead715b4922d35ff4", "fusion_lon": 0.0, "bike_id": "057c0fd007185dfead715b4922d35ff4", "is_disabled": 0, "is_reserved": 0}, {"rental_uris": {"ios": "https://dc.lft.to/lastmile_qr_scan", "android": "https://dc.lft.to/lastmile_qr_scan"}, "lon": -77.0231375, "type": "electric_scooter", "fusion_lat": 0.0, "lat": 38.928889, "name": "226f27f3308d7f1933b76b47846db96c", "fusion_lon": 0.0, "bike_id": "226f27f3308d7f1933b76b47846db96c", "is_disabled": 0, "is_reserved": 0}, {"rental_uris": {"ios": "https://dc.lft.to/lastmile_qr_scan", "android": "https://dc.lft.to/lastmile_qr_scan"}, "lon": -77.02648533333333, "type": "electric_scooter", "fusion_lat": 0.0, "lat": 38.898523, "name": "7a9ae22364ead7ea8f248f182aa2a844", "fusion_lon": 0.0, "bike_id": "7a9ae22364ead7ea8f248f182aa2a844", "is_disabled": 0, "is_reserved": 0}, {"rental_uris": {"ios": "https://dc.lft.to/lastmile_qr_scan", "android": "https://dc.lft.to/lastmile_qr_scan"}, "lon": -77.01219, "type": "electric_scooter", "fusion_lat": 0.0, "lat": 38.864253833333336, "name": "4a10146f0be5fda98c5700f445db17e8", "fusion_lon": 0.0, "bike_id": "4a10146f0be5fda98c5700f445db17e8", "is_disabled": 0, "is_reserved": 0}, {"rental_uris": {"ios": "https://dc.lft.to/lastmile_qr_scan", "android": "https://dc.lft.to/lastmile_qr_scan"}, "lon": -77.040002, "type": "electric_scooter", "fusion_lat": 0.0, "lat": 38.91823, "name": "d4e6ac2f519ceddb28e137545a29d862", "fusion_lon": 0.0, "bike_id": "d4e6ac2f519ceddb28e137545a29d862", "is_disabled": 0, "is_reserved": 0}, {"rental_uris": {"ios": "https://dc.lft.to/lastmile_qr_scan", "android": "https://dc.lft.to/lastmile_qr_scan"}, "lon": -77.04085516666666, "type": "electric_scooter", "fusion_lat": 0.0, "lat": 38.9071565, "name": "01e74f7dc3afdd1642821836fc2292bb", "fusion_lon": 0.0, "bike_id": "01e74f7dc3afdd1642821836fc2292bb", "is_disabled": 0, "is_reserved": 0}, {"rental_uris": {"ios": "https://dc.lft.to/lastmile_qr_scan", "android": "https://dc.lft.to/lastmile_qr_scan"}, "lon": -77.009537, "type": "electric_scooter", "fusion_lat": 0.0, "lat": 38.9073025, "name": "385a1d972e7ea543eb3d0fa62bc26e01", "fusion_lon": 0.0, "bike_id": "385a1d972e7ea543eb3d0fa62bc26e01", "is_disabled": 0, "is_reserved": 0}, {"rental_uris": {"ios": "https://dc.lft.to/lastmile_qr_scan", "android": "https://dc.lft.to/lastmile_qr_scan"}, "lon": -77.04421516666666, "type": "electric_scooter", "fusion_lat": 0.0, "lat": 38.92613766666667, "name": "eb2ec061d9d6c4491d7f0983e07df34f", "fusion_lon": 0.0, "bike_id": "eb2ec061d9d6c4491d7f0983e07df34f", "is_disabled": 0, "is_reserved": 0}, {"rental_uris": {"ios": "https://dc.lft.to/lastmile_qr_scan", "android": "https://dc.lft.to/lastmile_qr_scan"}, "lon": -77.02421283333334, "type": "electric_scooter", "fusion_lat": 0.0, "lat": 38.89216783333333, "name": "04be654c5e674e351ce65bfd9efcd452", "fusion_lon": 0.0, "bike_id": "04be654c5e674e351ce65bfd9efcd452", "is_disabled": 0, "is_reserved": 0}, {"rental_uris": {"ios": "https://dc.lft.to/lastmile_qr_scan", "android": "https://dc.lft.to/lastmile_qr_scan"}, "lon": -76.98352666666666, "type": "electric_scooter", "fusion_lat": 0.0, "lat": 38.91533116666667, "name": "95366c87941d0a8a8e0d3f418ec52e52", "fusion_lon": 0.0, "bike_id": "95366c87941d0a8a8e0d3f418ec52e52", "is_disabled": 0, "is_reserved": 0}, {"rental_uris": {"ios": "https://dc.lft.to/lastmile_qr_scan", "android": "https://dc.lft.to/lastmile_qr_scan"}, "lon": -77.03214533333333, "type": "electric_scooter", "fusion_lat": 0.0, "lat": 38.918204, "name": "8ec0d35fe6c4d093b561dea26dc5efd2", "fusion_lon": 0.0, "bike_id": "8ec0d35fe6c4d093b561dea26dc5efd2", "is_disabled": 0, "is_reserved": 0}, {"rental_uris": {"ios": "https://dc.lft.to/lastmile_qr_scan", "android": "https://dc.lft.to/lastmile_qr_scan"}, "lon": -77.0455655, "type": "electric_scooter", "fusion_lat": 0.0, "lat": 38.89223966666667, "name": "a2daa734ec9bcdc6755ca6b401b7b9e3", "fusion_lon": 0.0, "bike_id": "a2daa734ec9bcdc6755ca6b401b7b9e3", "is_disabled": 0, "is_reserved": 0}, {"rental_uris": {"ios": "https://dc.lft.to/lastmile_qr_scan", "android": "https://dc.lft.to/lastmile_qr_scan"}, "lon": -77.007936, "type": "electric_bike", "fusion_lat": 0.0, "lat": 38.8784975, "name": "408b0ce16b48882fe7e0f40d2ecf0c77", "fusion_lon": 0.0, "bike_id": "408b0ce16b48882fe7e0f40d2ecf0c77", "is_disabled": 0, "is_reserved": 0}, {"rental_uris": {"ios": "https://dc.lft.to/lastmile_qr_scan", "android": "https://dc.lft.to/lastmile_qr_scan"}, "lon": -77.05323483333333, "type": "electric_scooter", "fusion_lat": 0.0, "lat": 38.906442166666665, "name": "9253c8cceeb57c3b31ac50607dd01235", "fusion_lon": 0.0, "bike_id": "9253c8cceeb57c3b31ac50607dd01235", "is_disabled": 0, "is_reserved": 0}, {"rental_uris": {"ios": "https://dc.lft.to/lastmile_qr_scan", "android": "https://dc.lft.to/lastmile_qr_scan"}, "lon": -77.00740316666666, "type": "electric_scooter", "fusion_lat": 0.0, "lat": 38.879242833333336, "name": "66c43a403ec11d0aea642543cf785ab5", "fusion_lon": 0.0, "bike_id": "66c43a403ec11d0aea642543cf785ab5", "is_disabled": 0, "is_reserved": 0}, {"rental_uris": {"ios": "https://dc.lft.to/lastmile_qr_scan", "android": "https://dc.lft.to/lastmile_qr_scan"}, "lon": -76.99518566666667, "type": "electric_scooter", "fusion_lat": 0.0, "lat": 38.89482133333333, "name": "1900d3b0e810dc82527eaf105ea84999", "fusion_lon": 0.0, "bike_id": "1900d3b0e810dc82527eaf105ea84999", "is_disabled": 0, "is_reserved": 0}, {"rental_uris": {"ios": "https://dc.lft.to/lastmile_qr_scan", "android": "https://dc.lft.to/lastmile_qr_scan"}, "lon": -76.996947, "type": "electric_scooter", "fusion_lat": 0.0, "lat": 38.900712666666664, "name": "3470322087409e03060889446d264ce3", "fusion_lon": 0.0, "bike_id": "3470322087409e03060889446d264ce3", "is_disabled": 0, "is_reserved": 0}, {"rental_uris": {"ios": "https://dc.lft.to/lastmile_qr_scan", "android": "https://dc.lft.to/lastmile_qr_scan"}, "lon": -76.93232833333333, "type": "electric_bike", "fusion_lat": 0.0, "lat": 38.865944, "name": "e16bfbb2c447764e04d52ad5b3106e92", "fusion_lon": 0.0, "bike_id": "e16bfbb2c447764e04d52ad5b3106e92", "is_disabled": 0, "is_reserved": 0}, {"rental_uris": {"ios": "https://dc.lft.to/lastmile_qr_scan", "android": "https://dc.lft.to/lastmile_qr_scan"}, "lon": -77.03418933333333, "type": "electric_scooter", "fusion_lat": 0.0, "lat": 38.91924816666667, "name": "c7f709323c5cf1799a9d491cec1e58ef", "fusion_lon": 0.0, "bike_id": "c7f709323c5cf1799a9d491cec1e58ef", "is_disabled": 0, "is_reserved": 0}, {"rental_uris": {"ios": "https://dc.lft.to/lastmile_qr_scan", "android": "https://dc.lft.to/lastmile_qr_scan"}, "lon": -76.94214833333334, "type": "electric_scooter", "fusion_lat": 0.0, "lat": 38.896690666666665, "name": "cd329f690aa18a6e30dbc78c60e633ee", "fusion_lon": 0.0, "bike_id": "cd329f690aa18a6e30dbc78c60e633ee", "is_disabled": 0, "is_reserved": 0}, {"rental_uris": {"ios": "https://dc.lft.to/lastmile_qr_scan", "android": "https://dc.lft.to/lastmile_qr_scan"}, "lon": -77.1296375, "type": "electric_bike", "fusion_lat": 0.0, "lat": 38.852191833333336, "name": "04a88f08dad633ff26adf4301b73d909", "fusion_lon": 0.0, "bike_id": "04a88f08dad633ff26adf4301b73d909", "is_disabled": 0, "is_reserved": 0}, {"rental_uris": {"ios": "https://dc.lft.to/lastmile_qr_scan", "android": "https://dc.lft.to/lastmile_qr_scan"}, "lon": -76.97294383333333, "type": "electric_scooter", "fusion_lat": 0.0, "lat": 38.903357666666665, "name": "bd03030c4b6700ab2a934dc988f21f24", "fusion_lon": 0.0, "bike_id": "bd03030c4b6700ab2a934dc988f21f24", "is_disabled": 0, "is_reserved": 0}, {"rental_uris": {"ios": "https://dc.lft.to/lastmile_qr_scan", "android": "https://dc.lft.to/lastmile_qr_scan"}, "lon": -77.02601916666667, "type": "electric_scooter", "fusion_lat": 0.0, "lat": 38.926559166666664, "name": "57ace63f715a3d21ceca0dfddbced54b", "fusion_lon": 0.0, "bike_id": "57ace63f715a3d21ceca0dfddbced54b", "is_disabled": 0, "is_reserved": 0}, {"rental_uris": {"ios": "https://dc.lft.to/lastmile_qr_scan", "android": "https://dc.lft.to/lastmile_qr_scan"}, "lon": -77.09204816666667, "type": "electric_scooter", "fusion_lat": 0.0, "lat": 38.941330666666666, "name": "c1659c730cda3f29a6ee50187401a99d", "fusion_lon": 0.0, "bike_id": "c1659c730cda3f29a6ee50187401a99d", "is_disabled": 0, "is_reserved": 0}, {"rental_uris": {"ios": "https://dc.lft.to/lastmile_qr_scan", "android": "https://dc.lft.to/lastmile_qr_scan"}, "lon": -77.0033735, "type": "electric_scooter", "fusion_lat": 0.0, "lat": 38.893548833333334, "name": "1b2fa4c5dc95a9256127d08344479ef8", "fusion_lon": 0.0, "bike_id": "1b2fa4c5dc95a9256127d08344479ef8", "is_disabled": 0, "is_reserved": 0}, {"rental_uris": {"ios": "https://dc.lft.to/lastmile_qr_scan", "android": "https://dc.lft.to/lastmile_qr_scan"}, "lon": -77.05475633333333, "type": "electric_scooter", "fusion_lat": 0.0, "lat": 38.893901166666666, "name": "da3b9267e2ebd3875bf3d976d296631c", "fusion_lon": 0.0, "bike_id": "da3b9267e2ebd3875bf3d976d296631c", "is_disabled": 0, "is_reserved": 0}, {"rental_uris": {"ios": "https://dc.lft.to/lastmile_qr_scan", "android": "https://dc.lft.to/lastmile_qr_scan"}, "lon": -76.98903066666666, "type": "electric_scooter", "fusion_lat": 0.0, "lat": 38.866915666666664, "name": "6d36c82f534b3157653a12323260af47", "fusion_lon": 0.0, "bike_id": "6d36c82f534b3157653a12323260af47", "is_disabled": 0, "is_reserved": 0}, {"rental_uris": {"ios": "https://dc.lft.to/lastmile_qr_scan", "android": "https://dc.lft.to/lastmile_qr_scan"}, "lon": -77.066317, "type": "electric_scooter", "fusion_lat": 0.0, "lat": 38.92795516666666, "name": "338d6e3ca1f94ddf5d3c635fb7168543", "fusion_lon": 0.0, "bike_id": "338d6e3ca1f94ddf5d3c635fb7168543", "is_disabled": 0, "is_reserved": 0}, {"rental_uris": {"ios": "https://dc.lft.to/lastmile_qr_scan", "android": "https://dc.lft.to/lastmile_qr_scan"}, "lon": -76.995202, "type": "electric_scooter", "fusion_lat": 0.0, "lat": 38.88367366666667, "name": "5f6e6cc4ec4e0d12f9c18f31ed0bbfa8", "fusion_lon": 0.0, "bike_id": "5f6e6cc4ec4e0d12f9c18f31ed0bbfa8", "is_disabled": 0, "is_reserved": 0}, {"rental_uris": {"ios": "https://dc.lft.to/lastmile_qr_scan", "android": "https://dc.lft.to/lastmile_qr_scan"}, "lon": -76.92713616666667, "type": "electric_scooter", "fusion_lat": 0.0, "lat": 38.88763133333333, "name": "2655b93c27c08630fdfc0cc46f2985f7", "fusion_lon": 0.0, "bike_id": "2655b93c27c08630fdfc0cc46f2985f7", "is_disabled": 0, "is_reserved": 0}, {"rental_uris": {"ios": "https://dc.lft.to/lastmile_qr_scan", "android": "https://dc.lft.to/lastmile_qr_scan"}, "lon": -77.048882, "type": "electric_scooter", "fusion_lat": 0.0, "lat": 38.903595, "name": "b4151f5e07f643d90239cff16eada624", "fusion_lon": 0.0, "bike_id": "b4151f5e07f643d90239cff16eada624", "is_disabled": 0, "is_reserved": 0}, {"rental_uris": {"ios": "https://dc.lft.to/lastmile_qr_scan", "android": "https://dc.lft.to/lastmile_qr_scan"}, "lon": -77.005278, "type": "electric_scooter", "fusion_lat": 0.0, "lat": 38.880554333333336, "name": "1d51b4714f03ce984f0a74742784754d", "fusion_lon": 0.0, "bike_id": "1d51b4714f03ce984f0a74742784754d", "is_disabled": 0, "is_reserved": 0}, {"rental_uris": {"ios": "https://dc.lft.to/lastmile_qr_scan", "android": "https://dc.lft.to/lastmile_qr_scan"}, "lon": -77.05514433333333, "type": "electric_scooter", "fusion_lat": 0.0, "lat": 38.929558166666666, "name": "ff2246ad617b12441253b1f6e6039181", "fusion_lon": 0.0, "bike_id": "ff2246ad617b12441253b1f6e6039181", "is_disabled": 0, "is_reserved": 0}, {"rental_uris": {"ios": "https://dc.lft.to/lastmile_qr_scan", "android": "https://dc.lft.to/lastmile_qr_scan"}, "lon": -77.000876, "type": "electric_bike", "fusion_lat": 0.0, "lat": 38.874709833333334, "name": "230087dc917a5e5604ebfb58b941bb17", "fusion_lon": 0.0, "bike_id": "230087dc917a5e5604ebfb58b941bb17", "is_disabled": 0, "is_reserved": 0}, {"rental_uris": {"ios": "https://dc.lft.to/lastmile_qr_scan", "android": "https://dc.lft.to/lastmile_qr_scan"}, "lon": -77.10782816666666, "type": "electric_bike", "fusion_lat": 0.0, "lat": 38.89219766666667, "name": "b443656b6a4f55c42c819b39893dac31", "fusion_lon": 0.0, "bike_id": "b443656b6a4f55c42c819b39893dac31", "is_disabled": 0, "is_reserved": 0}, {"rental_uris": {"ios": "https://dc.lft.to/lastmile_qr_scan", "android": "https://dc.lft.to/lastmile_qr_scan"}, "lon": -77.00598033333333, "type": "electric_scooter", "fusion_lat": 0.0, "lat": 38.90627416666667, "name": "01f2bd1320253daf8fea0b5a2210cd6e", "fusion_lon": 0.0, "bike_id": "01f2bd1320253daf8fea0b5a2210cd6e", "is_disabled": 0, "is_reserved": 0}, {"rental_uris": {"ios": "https://dc.lft.to/lastmile_qr_scan", "android": "https://dc.lft.to/lastmile_qr_scan"}, "lon": -76.99853816666666, "type": "electric_scooter", "fusion_lat": 0.0, "lat": 38.894899, "name": "74db21a9a963d67b11349ef16bf15cdc", "fusion_lon": 0.0, "bike_id": "74db21a9a963d67b11349ef16bf15cdc", "is_disabled": 0, "is_reserved": 0}, {"rental_uris": {"ios": "https://dc.lft.to/lastmile_qr_scan", "android": "https://dc.lft.to/lastmile_qr_scan"}, "lon": -77.03709533333334, "type": "electric_scooter", "fusion_lat": 0.0, "lat": 38.926351333333336, "name": "2db7ab769ea804acb1b7b3edcc23ba50", "fusion_lon": 0.0, "bike_id": "2db7ab769ea804acb1b7b3edcc23ba50", "is_disabled": 0, "is_reserved": 0}, {"rental_uris": {"ios": "https://dc.lft.to/lastmile_qr_scan", "android": "https://dc.lft.to/lastmile_qr_scan"}, "lon": -77.04488216666667, "type": "electric_scooter", "fusion_lat": 0.0, "lat": 38.903250166666666, "name": "f30c382a4cd625d218de351a33ace386", "fusion_lon": 0.0, "bike_id": "f30c382a4cd625d218de351a33ace386", "is_disabled": 0, "is_reserved": 0}, {"rental_uris": {"ios": "https://dc.lft.to/lastmile_qr_scan", "android": "https://dc.lft.to/lastmile_qr_scan"}, "lon": -77.04251566666667, "type": "electric_scooter", "fusion_lat": 0.0, "lat": 38.920697, "name": "1dc2f887ccb1c488705b6a1ed7b51f76", "fusion_lon": 0.0, "bike_id": "1dc2f887ccb1c488705b6a1ed7b51f76", "is_disabled": 0, "is_reserved": 0}, {"rental_uris": {"ios": "https://dc.lft.to/lastmile_qr_scan", "android": "https://dc.lft.to/lastmile_qr_scan"}, "lon": -77.02420233333333, "type": "electric_scooter", "fusion_lat": 0.0, "lat": 38.91706533333333, "name": "3a00063ebaa71a1a0d22f410055ac12d", "fusion_lon": 0.0, "bike_id": "3a00063ebaa71a1a0d22f410055ac12d", "is_disabled": 0, "is_reserved": 0}, {"rental_uris": {"ios": "https://dc.lft.to/lastmile_qr_scan", "android": "https://dc.lft.to/lastmile_qr_scan"}, "lon": -77.02071233333334, "type": "electric_scooter", "fusion_lat": 0.0, "lat": 38.935273, "name": "d58f582ca96d4f62528d52684a53f846", "fusion_lon": 0.0, "bike_id": "d58f582ca96d4f62528d52684a53f846", "is_disabled": 0, "is_reserved": 0}, {"rental_uris": {"ios": "https://dc.lft.to/lastmile_qr_scan", "android": "https://dc.lft.to/lastmile_qr_scan"}, "lon": -77.04490583333333, "type": "electric_scooter", "fusion_lat": 0.0, "lat": 38.913090333333336, "name": "757817d2fb0f914fcb8eaf277095660a", "fusion_lon": 0.0, "bike_id": "757817d2fb0f914fcb8eaf277095660a", "is_disabled": 0, "is_reserved": 0}, {"rental_uris": {"ios": "https://dc.lft.to/lastmile_qr_scan", "android": "https://dc.lft.to/lastmile_qr_scan"}, "lon": -77.02846016666666, "type": "electric_scooter", "fusion_lat": 0.0, "lat": 38.924702, "name": "da2a5a3f71314a57296c0a4f96dec971", "fusion_lon": 0.0, "bike_id": "da2a5a3f71314a57296c0a4f96dec971", "is_disabled": 0, "is_reserved": 0}, {"rental_uris": {"ios": "https://dc.lft.to/lastmile_qr_scan", "android": "https://dc.lft.to/lastmile_qr_scan"}, "lon": -77.010825, "type": "electric_bike", "fusion_lat": 0.0, "lat": 38.956527, "name": "1a15d546838e7ea549eb23e37c2bb425", "fusion_lon": 0.0, "bike_id": "1a15d546838e7ea549eb23e37c2bb425", "is_disabled": 0, "is_reserved": 0}, {"rental_uris": {"ios": "https://dc.lft.to/lastmile_qr_scan", "android": "https://dc.lft.to/lastmile_qr_scan"}, "lon": -77.03260533333334, "type": "electric_scooter", "fusion_lat": 0.0, "lat": 38.919960333333336, "name": "6a72bad511696498cd0e452e080e4ab2", "fusion_lon": 0.0, "bike_id": "6a72bad511696498cd0e452e080e4ab2", "is_disabled": 0, "is_reserved": 0}, {"rental_uris": {"ios": "https://dc.lft.to/lastmile_qr_scan", "android": "https://dc.lft.to/lastmile_qr_scan"}, "lon": -77.03946033333334, "type": "electric_scooter", "fusion_lat": 0.0, "lat": 38.89847683333333, "name": "8352f869ff72bd1ccf211c433fbf6f6f", "fusion_lon": 0.0, "bike_id": "8352f869ff72bd1ccf211c433fbf6f6f", "is_disabled": 0, "is_reserved": 0}, {"rental_uris": {"ios": "https://dc.lft.to/lastmile_qr_scan", "android": "https://dc.lft.to/lastmile_qr_scan"}, "lon": -77.035609, "type": "electric_scooter", "fusion_lat": 0.0, "lat": 38.931346166666664, "name": "f35e4708ef02b2bfcf8f0ce90b13a2e8", "fusion_lon": 0.0, "bike_id": "f35e4708ef02b2bfcf8f0ce90b13a2e8", "is_disabled": 0, "is_reserved": 0}, {"rental_uris": {"ios": "https://dc.lft.to/lastmile_qr_scan", "android": "https://dc.lft.to/lastmile_qr_scan"}, "lon": -77.00071016666666, "type": "electric_scooter", "fusion_lat": 0.0, "lat": 38.925482333333335, "name": "e2233c1be44f5664f22e05a867e3abe3", "fusion_lon": 0.0, "bike_id": "e2233c1be44f5664f22e05a867e3abe3", "is_disabled": 0, "is_reserved": 0}, {"rental_uris": {"ios": "https://dc.lft.to/lastmile_qr_scan", "android": "https://dc.lft.to/lastmile_qr_scan"}, "lon": -76.98939466666667, "type": "electric_bike", "fusion_lat": 0.0, "lat": 38.928580833333335, "name": "512d6f9ff7662c00c305beb6a1b419d3", "fusion_lon": 0.0, "bike_id": "512d6f9ff7662c00c305beb6a1b419d3", "is_disabled": 0, "is_reserved": 0}, {"rental_uris": {"ios": "https://dc.lft.to/lastmile_qr_scan", "android": "https://dc.lft.to/lastmile_qr_scan"}, "lon": -77.04830316666667, "type": "electric_scooter", "fusion_lat": 0.0, "lat": 38.92033266666667, "name": "c57105e3bd4386ae95d7f4baf539f692", "fusion_lon": 0.0, "bike_id": "c57105e3bd4386ae95d7f4baf539f692", "is_disabled": 0, "is_reserved": 0}, {"rental_uris": {"ios": "https://dc.lft.to/lastmile_qr_scan", "android": "https://dc.lft.to/lastmile_qr_scan"}, "lon": -77.02698133333334, "type": "electric_scooter", "fusion_lat": 0.0, "lat": 38.90577616666667, "name": "9b6e4cfbf27d379a6fe3305c34f3d27b", "fusion_lon": 0.0, "bike_id": "9b6e4cfbf27d379a6fe3305c34f3d27b", "is_disabled": 0, "is_reserved": 0}, {"rental_uris": {"ios": "https://dc.lft.to/lastmile_qr_scan", "android": "https://dc.lft.to/lastmile_qr_scan"}, "lon": -76.94667283333334, "type": "electric_scooter", "fusion_lat": 0.0, "lat": 38.8986865, "name": "1b9aaed0328fbbc2afc1b49a26d7e36c", "fusion_lon": 0.0, "bike_id": "1b9aaed0328fbbc2afc1b49a26d7e36c", "is_disabled": 0, "is_reserved": 0}, {"rental_uris": {"ios": "https://dc.lft.to/lastmile_qr_scan", "android": "https://dc.lft.to/lastmile_qr_scan"}, "lon": -76.99819016666666, "type": "electric_bike", "fusion_lat": 0.0, "lat": 38.8443415, "name": "140b427b84ee553e6d3b49cf735db451", "fusion_lon": 0.0, "bike_id": "140b427b84ee553e6d3b49cf735db451", "is_disabled": 0, "is_reserved": 0}, {"rental_uris": {"ios": "https://dc.lft.to/lastmile_qr_scan", "android": "https://dc.lft.to/lastmile_qr_scan"}, "lon": -77.01189, "type": "electric_scooter", "fusion_lat": 0.0, "lat": 38.915515166666665, "name": "d1cd92a3a3617a9e5c31752f885dfdb0", "fusion_lon": 0.0, "bike_id": "d1cd92a3a3617a9e5c31752f885dfdb0", "is_disabled": 0, "is_reserved": 0}, {"rental_uris": {"ios": "https://dc.lft.to/lastmile_qr_scan", "android": "https://dc.lft.to/lastmile_qr_scan"}, "lon": -77.02986166666666, "type": "electric_scooter", "fusion_lat": 0.0, "lat": 38.924740166666666, "name": "135f5d5d4cbbe827e5b3fd2f492bf2ff", "fusion_lon": 0.0, "bike_id": "135f5d5d4cbbe827e5b3fd2f492bf2ff", "is_disabled": 0, "is_reserved": 0}, {"rental_uris": {"ios": "https://dc.lft.to/lastmile_qr_scan", "android": "https://dc.lft.to/lastmile_qr_scan"}, "lon": -77.03858233333334, "type": "electric_scooter", "fusion_lat": 0.0, "lat": 38.91555816666666, "name": "cac7237a378dc8a3bf1cc78ef9a4bd0a", "fusion_lon": 0.0, "bike_id": "cac7237a378dc8a3bf1cc78ef9a4bd0a", "is_disabled": 0, "is_reserved": 0}, {"rental_uris": {"ios": "https://dc.lft.to/lastmile_qr_scan", "android": "https://dc.lft.to/lastmile_qr_scan"}, "lon": -77.04031666666667, "type": "electric_scooter", "fusion_lat": 0.0, "lat": 38.91877933333333, "name": "e0f03a324a47a2c40455a1b83b6297ae", "fusion_lon": 0.0, "bike_id": "e0f03a324a47a2c40455a1b83b6297ae", "is_disabled": 0, "is_reserved": 0}, {"rental_uris": {"ios": "https://dc.lft.to/lastmile_qr_scan", "android": "https://dc.lft.to/lastmile_qr_scan"}, "lon": -77.00602666666667, "type": "electric_scooter", "fusion_lat": 0.0, "lat": 38.90640666666667, "name": "d0cbd68722b882f4643fcd202a462b5f", "fusion_lon": 0.0, "bike_id": "d0cbd68722b882f4643fcd202a462b5f", "is_disabled": 0, "is_reserved": 0}, {"rental_uris": {"ios": "https://dc.lft.to/lastmile_qr_scan", "android": "https://dc.lft.to/lastmile_qr_scan"}, "lon": -76.93194983333333, "type": "electric_scooter", "fusion_lat": 0.0, "lat": 38.889921, "name": "ec479a255e52db0541228192d3c92f11", "fusion_lon": 0.0, "bike_id": "ec479a255e52db0541228192d3c92f11", "is_disabled": 0, "is_reserved": 0}, {"rental_uris": {"ios": "https://dc.lft.to/lastmile_qr_scan", "android": "https://dc.lft.to/lastmile_qr_scan"}, "lon": -77.00873616666667, "type": "electric_scooter", "fusion_lat": 0.0, "lat": 38.9057615, "name": "46a1bf6e013c9b0ea98ed47b29f9b56f", "fusion_lon": 0.0, "bike_id": "46a1bf6e013c9b0ea98ed47b29f9b56f", "is_disabled": 0, "is_reserved": 0}, {"rental_uris": {"ios": "https://dc.lft.to/lastmile_qr_scan", "android": "https://dc.lft.to/lastmile_qr_scan"}, "lon": -77.03166716666667, "type": "electric_scooter", "fusion_lat": 0.0, "lat": 38.915654333333336, "name": "fde0735f7e3633da7345778fca689d93", "fusion_lon": 0.0, "bike_id": "fde0735f7e3633da7345778fca689d93", "is_disabled": 0, "is_reserved": 0}, {"rental_uris": {"ios": "https://dc.lft.to/lastmile_qr_scan", "android": "https://dc.lft.to/lastmile_qr_scan"}, "lon": -77.01782983333334, "type": "electric_scooter", "fusion_lat": 0.0, "lat": 38.90393233333333, "name": "8f2f26f6d9db3af69ef01e2f38980424", "fusion_lon": 0.0, "bike_id": "8f2f26f6d9db3af69ef01e2f38980424", "is_disabled": 0, "is_reserved": 0}, {"rental_uris": {"ios": "https://dc.lft.to/lastmile_qr_scan", "android": "https://dc.lft.to/lastmile_qr_scan"}, "lon": -77.02185283333333, "type": "electric_scooter", "fusion_lat": 0.0, "lat": 38.892466, "name": "f4ca6eb6393c03c4c0c65e156ce9e8bc", "fusion_lon": 0.0, "bike_id": "f4ca6eb6393c03c4c0c65e156ce9e8bc", "is_disabled": 0, "is_reserved": 0}, {"rental_uris": {"ios": "https://dc.lft.to/lastmile_qr_scan", "android": "https://dc.lft.to/lastmile_qr_scan"}, "lon": -77.07525216666667, "type": "electric_scooter", "fusion_lat": 0.0, "lat": 38.9088185, "name": "020890c05d767378271907c1fcab31fe", "fusion_lon": 0.0, "bike_id": "020890c05d767378271907c1fcab31fe", "is_disabled": 0, "is_reserved": 0}, {"rental_uris": {"ios": "https://dc.lft.to/lastmile_qr_scan", "android": "https://dc.lft.to/lastmile_qr_scan"}, "lon": -76.98703766666667, "type": "electric_scooter", "fusion_lat": 0.0, "lat": 38.90156016666667, "name": "2c765c4bce8c4773dcd2c56bc582f7a7", "fusion_lon": 0.0, "bike_id": "2c765c4bce8c4773dcd2c56bc582f7a7", "is_disabled": 0, "is_reserved": 0}, {"rental_uris": {"ios": "https://dc.lft.to/lastmile_qr_scan", "android": "https://dc.lft.to/lastmile_qr_scan"}, "lon": -76.97440866666666, "type": "electric_scooter", "fusion_lat": 0.0, "lat": 38.864112, "name": "25e859de53c047bca65c7293f09cf3fd", "fusion_lon": 0.0, "bike_id": "25e859de53c047bca65c7293f09cf3fd", "is_disabled": 0, "is_reserved": 0}, {"rental_uris": {"ios": "https://dc.lft.to/lastmile_qr_scan", "android": "https://dc.lft.to/lastmile_qr_scan"}, "lon": -76.98257416666667, "type": "electric_scooter", "fusion_lat": 0.0, "lat": 38.908636666666666, "name": "f701034db36b26ac6da033ea5a61a611", "fusion_lon": 0.0, "bike_id": "f701034db36b26ac6da033ea5a61a611", "is_disabled": 0, "is_reserved": 0}, {"rental_uris": {"ios": "https://dc.lft.to/lastmile_qr_scan", "android": "https://dc.lft.to/lastmile_qr_scan"}, "lon": -76.9096385, "type": "electric_bike", "fusion_lat": 0.0, "lat": 38.854260833333335, "name": "ef3e6f8ce59b3912c0d720b8fa3134e1", "fusion_lon": 0.0, "bike_id": "ef3e6f8ce59b3912c0d720b8fa3134e1", "is_disabled": 0, "is_reserved": 0}, {"rental_uris": {"ios": "https://dc.lft.to/lastmile_qr_scan", "android": "https://dc.lft.to/lastmile_qr_scan"}, "lon": -77.01874066666667, "type": "electric_scooter", "fusion_lat": 0.0, "lat": 38.887487166666666, "name": "e0abce57df9218fe79baa3f1e9911da3", "fusion_lon": 0.0, "bike_id": "e0abce57df9218fe79baa3f1e9911da3", "is_disabled": 0, "is_reserved": 0}, {"rental_uris": {"ios": "https://dc.lft.to/lastmile_qr_scan", "android": "https://dc.lft.to/lastmile_qr_scan"}, "lon": -77.04193333333333, "type": "electric_scooter", "fusion_lat": 0.0, "lat": 38.920036333333336, "name": "070e73d19ae56222fffbf43e7c728014", "fusion_lon": 0.0, "bike_id": "070e73d19ae56222fffbf43e7c728014", "is_disabled": 0, "is_reserved": 0}, {"rental_uris": {"ios": "https://dc.lft.to/lastmile_qr_scan", "android": "https://dc.lft.to/lastmile_qr_scan"}, "lon": -77.021891, "type": "electric_scooter", "fusion_lat": 0.0, "lat": 38.939516833333336, "name": "6b211d33ad7f0965ecee6689286363ea", "fusion_lon": 0.0, "bike_id": "6b211d33ad7f0965ecee6689286363ea", "is_disabled": 0, "is_reserved": 0}, {"rental_uris": {"ios": "https://dc.lft.to/lastmile_qr_scan", "android": "https://dc.lft.to/lastmile_qr_scan"}, "lon": -77.00979216666667, "type": "electric_scooter", "fusion_lat": 0.0, "lat": 38.919243, "name": "388adcb434a4231eddbe2529881543ec", "fusion_lon": 0.0, "bike_id": "388adcb434a4231eddbe2529881543ec", "is_disabled": 0, "is_reserved": 0}, {"rental_uris": {"ios": "https://dc.lft.to/lastmile_qr_scan", "android": "https://dc.lft.to/lastmile_qr_scan"}, "lon": -77.04555066666667, "type": "electric_scooter", "fusion_lat": 0.0, "lat": 38.933899833333335, "name": "6cfb549aafb9c108fa07e5630c142ff9", "fusion_lon": 0.0, "bike_id": "6cfb549aafb9c108fa07e5630c142ff9", "is_disabled": 0, "is_reserved": 0}, {"rental_uris": {"ios": "https://dc.lft.to/lastmile_qr_scan", "android": "https://dc.lft.to/lastmile_qr_scan"}, "lon": -77.030186, "type": "electric_scooter", "fusion_lat": 0.0, "lat": 38.91006183333333, "name": "fbea4419a2894593cd5c815ba994df69", "fusion_lon": 0.0, "bike_id": "fbea4419a2894593cd5c815ba994df69", "is_disabled": 0, "is_reserved": 0}, {"rental_uris": {"ios": "https://dc.lft.to/lastmile_qr_scan", "android": "https://dc.lft.to/lastmile_qr_scan"}, "lon": -76.94890683333334, "type": "electric_scooter", "fusion_lat": 0.0, "lat": 38.895262833333334, "name": "0bebc119bcc61f9cbd1f0d3d07dd7021", "fusion_lon": 0.0, "bike_id": "0bebc119bcc61f9cbd1f0d3d07dd7021", "is_disabled": 0, "is_reserved": 0}, {"rental_uris": {"ios": "https://dc.lft.to/lastmile_qr_scan", "android": "https://dc.lft.to/lastmile_qr_scan"}, "lon": -77.03202666666667, "type": "electric_scooter", "fusion_lat": 0.0, "lat": 38.913140166666665, "name": "7b5fa64ffcae532b35dd6960cc5fcfa9", "fusion_lon": 0.0, "bike_id": "7b5fa64ffcae532b35dd6960cc5fcfa9", "is_disabled": 0, "is_reserved": 0}, {"rental_uris": {"ios": "https://dc.lft.to/lastmile_qr_scan", "android": "https://dc.lft.to/lastmile_qr_scan"}, "lon": -76.98184283333333, "type": "electric_scooter", "fusion_lat": 0.0, "lat": 38.895744666666666, "name": "3a0a6d616f184d25f7cc84e412c5c1ab", "fusion_lon": 0.0, "bike_id": "3a0a6d616f184d25f7cc84e412c5c1ab", "is_disabled": 0, "is_reserved": 0}, {"rental_uris": {"ios": "https://dc.lft.to/lastmile_qr_scan", "android": "https://dc.lft.to/lastmile_qr_scan"}, "lon": -77.02546783333334, "type": "electric_scooter", "fusion_lat": 0.0, "lat": 38.924028, "name": "da3479744d1d826ca7631d1ab23f9c6c", "fusion_lon": 0.0, "bike_id": "da3479744d1d826ca7631d1ab23f9c6c", "is_disabled": 0, "is_reserved": 0}, {"rental_uris": {"ios": "https://dc.lft.to/lastmile_qr_scan", "android": "https://dc.lft.to/lastmile_qr_scan"}, "lon": -77.029527, "type": "electric_scooter", "fusion_lat": 0.0, "lat": 38.91581566666667, "name": "5c54528c1b47579a902bc94377e65424", "fusion_lon": 0.0, "bike_id": "5c54528c1b47579a902bc94377e65424", "is_disabled": 0, "is_reserved": 0}, {"rental_uris": {"ios": "https://dc.lft.to/lastmile_qr_scan", "android": "https://dc.lft.to/lastmile_qr_scan"}, "lon": -77.0218295, "type": "electric_scooter", "fusion_lat": 0.0, "lat": 38.919921333333335, "name": "115ac656c78220426061639a5d3f788a", "fusion_lon": 0.0, "bike_id": "115ac656c78220426061639a5d3f788a", "is_disabled": 0, "is_reserved": 0}, {"rental_uris": {"ios": "https://dc.lft.to/lastmile_qr_scan", "android": "https://dc.lft.to/lastmile_qr_scan"}, "lon": -77.05440783333333, "type": "electric_scooter", "fusion_lat": 0.0, "lat": 38.89606083333334, "name": "915ecfb421f919f9a9bf782644a4b2b6", "fusion_lon": 0.0, "bike_id": "915ecfb421f919f9a9bf782644a4b2b6", "is_disabled": 0, "is_reserved": 0}, {"rental_uris": {"ios": "https://dc.lft.to/lastmile_qr_scan", "android": "https://dc.lft.to/lastmile_qr_scan"}, "lon": -77.01113116666667, "type": "electric_scooter", "fusion_lat": 0.0, "lat": 38.900276833333336, "name": "eb3353884d04190e819703c9a78b290f", "fusion_lon": 0.0, "bike_id": "eb3353884d04190e819703c9a78b290f", "is_disabled": 0, "is_reserved": 0}, {"rental_uris": {"ios": "https://dc.lft.to/lastmile_qr_scan", "android": "https://dc.lft.to/lastmile_qr_scan"}, "lon": -77.02716816666667, "type": "electric_scooter", "fusion_lat": 0.0, "lat": 38.90702666666667, "name": "aa477ea28387dc817f141ef1bc730f32", "fusion_lon": 0.0, "bike_id": "aa477ea28387dc817f141ef1bc730f32", "is_disabled": 0, "is_reserved": 0}, {"rental_uris": {"ios": "https://dc.lft.to/lastmile_qr_scan", "android": "https://dc.lft.to/lastmile_qr_scan"}, "lon": -77.0053245, "type": "electric_scooter", "fusion_lat": 0.0, "lat": 38.92892783333333, "name": "f111cb754b1f077b5dccbd8f122d352d", "fusion_lon": 0.0, "bike_id": "f111cb754b1f077b5dccbd8f122d352d", "is_disabled": 0, "is_reserved": 0}, {"rental_uris": {"ios": "https://dc.lft.to/lastmile_qr_scan", "android": "https://dc.lft.to/lastmile_qr_scan"}, "lon": -76.98260616666667, "type": "electric_scooter", "fusion_lat": 0.0, "lat": 38.863509, "name": "502a4c2ea15d046db0333a0e829a5e38", "fusion_lon": 0.0, "bike_id": "502a4c2ea15d046db0333a0e829a5e38", "is_disabled": 0, "is_reserved": 0}, {"rental_uris": {"ios": "https://dc.lft.to/lastmile_qr_scan", "android": "https://dc.lft.to/lastmile_qr_scan"}, "lon": -77.044136, "type": "electric_scooter", "fusion_lat": 0.0, "lat": 38.90581983333333, "name": "998314f9775291b8db23322794acdd3e", "fusion_lon": 0.0, "bike_id": "998314f9775291b8db23322794acdd3e", "is_disabled": 0, "is_reserved": 0}, {"rental_uris": {"ios": "https://dc.lft.to/lastmile_qr_scan", "android": "https://dc.lft.to/lastmile_qr_scan"}, "lon": -77.01650583333333, "type": "electric_scooter", "fusion_lat": 0.0, "lat": 38.953305666666665, "name": "5d0b54a468086fb8f7ca4ff3a05d9e93", "fusion_lon": 0.0, "bike_id": "5d0b54a468086fb8f7ca4ff3a05d9e93", "is_disabled": 0, "is_reserved": 0}, {"rental_uris": {"ios": "https://dc.lft.to/lastmile_qr_scan", "android": "https://dc.lft.to/lastmile_qr_scan"}, "lon": -77.047899, "type": "electric_scooter", "fusion_lat": 0.0, "lat": 38.89374083333333, "name": "64fdb17d98de5d07de6cf1f2ec66a81d", "fusion_lon": 0.0, "bike_id": "64fdb17d98de5d07de6cf1f2ec66a81d", "is_disabled": 0, "is_reserved": 0}, {"rental_uris": {"ios": "https://dc.lft.to/lastmile_qr_scan", "android": "https://dc.lft.to/lastmile_qr_scan"}, "lon": -77.00267283333334, "type": "electric_scooter", "fusion_lat": 0.0, "lat": 38.877470833333334, "name": "9921ac0bbc91e0032e245f58b73ff499", "fusion_lon": 0.0, "bike_id": "9921ac0bbc91e0032e245f58b73ff499", "is_disabled": 0, "is_reserved": 0}, {"rental_uris": {"ios": "https://dc.lft.to/lastmile_qr_scan", "android": "https://dc.lft.to/lastmile_qr_scan"}, "lon": -76.9855355, "type": "electric_bike", "fusion_lat": 0.0, "lat": 38.892088, "name": "20fcc0f3afd1853aaa7145485de195ae", "fusion_lon": 0.0, "bike_id": "20fcc0f3afd1853aaa7145485de195ae", "is_disabled": 0, "is_reserved": 0}, {"rental_uris": {"ios": "https://dc.lft.to/lastmile_qr_scan", "android": "https://dc.lft.to/lastmile_qr_scan"}, "lon": -77.02574616666666, "type": "electric_scooter", "fusion_lat": 0.0, "lat": 38.97241666666667, "name": "d43c578ae80113c9e4a66aed987388d5", "fusion_lon": 0.0, "bike_id": "d43c578ae80113c9e4a66aed987388d5", "is_disabled": 0, "is_reserved": 0}, {"rental_uris": {"ios": "https://dc.lft.to/lastmile_qr_scan", "android": "https://dc.lft.to/lastmile_qr_scan"}, "lon": -77.04153233333334, "type": "electric_scooter", "fusion_lat": 0.0, "lat": 38.914806166666665, "name": "68ac86c2043b83b10e16b694b8bde03b", "fusion_lon": 0.0, "bike_id": "68ac86c2043b83b10e16b694b8bde03b", "is_disabled": 0, "is_reserved": 0}, {"rental_uris": {"ios": "https://dc.lft.to/lastmile_qr_scan", "android": "https://dc.lft.to/lastmile_qr_scan"}, "lon": -77.03950716666667, "type": "electric_scooter", "fusion_lat": 0.0, "lat": 38.926039333333335, "name": "5408b667725cdc57e0fc50318564a51c", "fusion_lon": 0.0, "bike_id": "5408b667725cdc57e0fc50318564a51c", "is_disabled": 0, "is_reserved": 0}, {"rental_uris": {"ios": "https://dc.lft.to/lastmile_qr_scan", "android": "https://dc.lft.to/lastmile_qr_scan"}, "lon": -77.02617633333334, "type": "electric_scooter", "fusion_lat": 0.0, "lat": 38.95183183333333, "name": "482a81ba97cd8d5fed0e971c6ae37260", "fusion_lon": 0.0, "bike_id": "482a81ba97cd8d5fed0e971c6ae37260", "is_disabled": 0, "is_reserved": 0}, {"rental_uris": {"ios": "https://dc.lft.to/lastmile_qr_scan", "android": "https://dc.lft.to/lastmile_qr_scan"}, "lon": -77.089418, "type": "electric_bike", "fusion_lat": 0.0, "lat": 38.84087866666667, "name": "dc68f5fac7fe923e0c2d745987994568", "fusion_lon": 0.0, "bike_id": "dc68f5fac7fe923e0c2d745987994568", "is_disabled": 0, "is_reserved": 0}, {"rental_uris": {"ios": "https://dc.lft.to/lastmile_qr_scan", "android": "https://dc.lft.to/lastmile_qr_scan"}, "lon": -77.03646933333333, "type": "electric_scooter", "fusion_lat": 0.0, "lat": 38.916126166666665, "name": "aa4cd06531d32b461340cda1a544d2f2", "fusion_lon": 0.0, "bike_id": "aa4cd06531d32b461340cda1a544d2f2", "is_disabled": 0, "is_reserved": 0}, {"rental_uris": {"ios": "https://dc.lft.to/lastmile_qr_scan", "android": "https://dc.lft.to/lastmile_qr_scan"}, "lon": -77.02988866666666, "type": "electric_scooter", "fusion_lat": 0.0, "lat": 38.956269, "name": "9362af5715873a24e29e2b6ca429a9b0", "fusion_lon": 0.0, "bike_id": "9362af5715873a24e29e2b6ca429a9b0", "is_disabled": 0, "is_reserved": 0}, {"rental_uris": {"ios": "https://dc.lft.to/lastmile_qr_scan", "android": "https://dc.lft.to/lastmile_qr_scan"}, "lon": -77.03306716666667, "type": "electric_scooter", "fusion_lat": 0.0, "lat": 38.928766333333336, "name": "0b655618fa05149d12fdfbb08d6402fb", "fusion_lon": 0.0, "bike_id": "0b655618fa05149d12fdfbb08d6402fb", "is_disabled": 0, "is_reserved": 0}, {"rental_uris": {"ios": "https://dc.lft.to/lastmile_qr_scan", "android": "https://dc.lft.to/lastmile_qr_scan"}, "lon": -77.05840516666666, "type": "electric_scooter", "fusion_lat": 0.0, "lat": 38.935832166666664, "name": "e844cf00dc72517a7b958fcf68caf2c5", "fusion_lon": 0.0, "bike_id": "e844cf00dc72517a7b958fcf68caf2c5", "is_disabled": 0, "is_reserved": 0}, {"rental_uris": {"ios": "https://dc.lft.to/lastmile_qr_scan", "android": "https://dc.lft.to/lastmile_qr_scan"}, "lon": -77.05755783333333, "type": "electric_scooter", "fusion_lat": 0.0, "lat": 38.924611166666665, "name": "e081dfcb83eb8d0b0d4de50b20bde70b", "fusion_lon": 0.0, "bike_id": "e081dfcb83eb8d0b0d4de50b20bde70b", "is_disabled": 0, "is_reserved": 0}, {"rental_uris": {"ios": "https://dc.lft.to/lastmile_qr_scan", "android": "https://dc.lft.to/lastmile_qr_scan"}, "lon": -76.99391066666666, "type": "electric_scooter", "fusion_lat": 0.0, "lat": 38.9005375, "name": "6854e0f2ad64494a93ed09bacf8a0735", "fusion_lon": 0.0, "bike_id": "6854e0f2ad64494a93ed09bacf8a0735", "is_disabled": 0, "is_reserved": 0}, {"rental_uris": {"ios": "https://dc.lft.to/lastmile_qr_scan", "android": "https://dc.lft.to/lastmile_qr_scan"}, "lon": -77.0298585, "type": "electric_scooter", "fusion_lat": 0.0, "lat": 38.958295, "name": "08babebe14dfa06418a8a94fd5f970af", "fusion_lon": 0.0, "bike_id": "08babebe14dfa06418a8a94fd5f970af", "is_disabled": 0, "is_reserved": 0}, {"rental_uris": {"ios": "https://dc.lft.to/lastmile_qr_scan", "android": "https://dc.lft.to/lastmile_qr_scan"}, "lon": -77.05884133333333, "type": "electric_scooter", "fusion_lat": 0.0, "lat": 38.9363535, "name": "692faa22a5fda33289a054298af1b97e", "fusion_lon": 0.0, "bike_id": "692faa22a5fda33289a054298af1b97e", "is_disabled": 0, "is_reserved": 0}, {"rental_uris": {"ios": "https://dc.lft.to/lastmile_qr_scan", "android": "https://dc.lft.to/lastmile_qr_scan"}, "lon": -77.05223166666667, "type": "electric_scooter", "fusion_lat": 0.0, "lat": 38.924977166666665, "name": "303a49cf2b97104dee4a790e35bf7e16", "fusion_lon": 0.0, "bike_id": "303a49cf2b97104dee4a790e35bf7e16", "is_disabled": 0, "is_reserved": 0}, {"rental_uris": {"ios": "https://dc.lft.to/lastmile_qr_scan", "android": "https://dc.lft.to/lastmile_qr_scan"}, "lon": -77.04070766666666, "type": "electric_bike", "fusion_lat": 0.0, "lat": 38.812416166666665, "name": "f04c52636776a8d462707d441d2a9da7", "fusion_lon": 0.0, "bike_id": "f04c52636776a8d462707d441d2a9da7", "is_disabled": 0, "is_reserved": 0}, {"rental_uris": {"ios": "https://dc.lft.to/lastmile_qr_scan", "android": "https://dc.lft.to/lastmile_qr_scan"}, "lon": -76.93891666666667, "type": "electric_bike", "fusion_lat": 0.0, "lat": 38.88327566666667, "name": "fe9ee53aeb86b4f3048fb531c856c632", "fusion_lon": 0.0, "bike_id": "fe9ee53aeb86b4f3048fb531c856c632", "is_disabled": 0, "is_reserved": 0}, {"rental_uris": {"ios": "https://dc.lft.to/lastmile_qr_scan", "android": "https://dc.lft.to/lastmile_qr_scan"}, "lon": -77.0461255, "type": "electric_scooter", "fusion_lat": 0.0, "lat": 38.90054383333333, "name": "f5f295d608426a84aa6836e766a5f8ae", "fusion_lon": 0.0, "bike_id": "f5f295d608426a84aa6836e766a5f8ae", "is_disabled": 0, "is_reserved": 0}, {"rental_uris": {"ios": "https://dc.lft.to/lastmile_qr_scan", "android": "https://dc.lft.to/lastmile_qr_scan"}, "lon": -77.0418655, "type": "electric_scooter", "fusion_lat": 0.0, "lat": 38.90575, "name": "a0706db446e25e3e61839930063fdbd5", "fusion_lon": 0.0, "bike_id": "a0706db446e25e3e61839930063fdbd5", "is_disabled": 0, "is_reserved": 0}, {"rental_uris": {"ios": "https://dc.lft.to/lastmile_qr_scan", "android": "https://dc.lft.to/lastmile_qr_scan"}, "lon": -77.02443266666667, "type": "electric_scooter", "fusion_lat": 0.0, "lat": 38.937451, "name": "be6b616b3fa00ff587193a8a04e4952e", "fusion_lon": 0.0, "bike_id": "be6b616b3fa00ff587193a8a04e4952e", "is_disabled": 0, "is_reserved": 0}, {"rental_uris": {"ios": "https://dc.lft.to/lastmile_qr_scan", "android": "https://dc.lft.to/lastmile_qr_scan"}, "lon": -77.14121466666667, "type": "electric_bike", "fusion_lat": 0.0, "lat": 38.81604, "name": "c01240ce3ae112f43d79649d4c772e6c", "fusion_lon": 0.0, "bike_id": "c01240ce3ae112f43d79649d4c772e6c", "is_disabled": 0, "is_reserved": 0}, {"rental_uris": {"ios": "https://dc.lft.to/lastmile_qr_scan", "android": "https://dc.lft.to/lastmile_qr_scan"}, "lon": -77.0364335, "type": "electric_scooter", "fusion_lat": 0.0, "lat": 38.91734816666666, "name": "f494a29bda7c8accd74b9df1f7b560cb", "fusion_lon": 0.0, "bike_id": "f494a29bda7c8accd74b9df1f7b560cb", "is_disabled": 0, "is_reserved": 0}, {"rental_uris": {"ios": "https://dc.lft.to/lastmile_qr_scan", "android": "https://dc.lft.to/lastmile_qr_scan"}, "lon": -76.99595, "type": "electric_scooter", "fusion_lat": 0.0, "lat": 38.92227416666667, "name": "eeb1adc439f49e010242e6b9b8842018", "fusion_lon": 0.0, "bike_id": "eeb1adc439f49e010242e6b9b8842018", "is_disabled": 0, "is_reserved": 0}, {"rental_uris": {"ios": "https://dc.lft.to/lastmile_qr_scan", "android": "https://dc.lft.to/lastmile_qr_scan"}, "lon": -77.00040866666667, "type": "electric_scooter", "fusion_lat": 0.0, "lat": 38.873840666666666, "name": "4540841ca97f8f8511e91d71a848bd8f", "fusion_lon": 0.0, "bike_id": "4540841ca97f8f8511e91d71a848bd8f", "is_disabled": 0, "is_reserved": 0}, {"rental_uris": {"ios": "https://dc.lft.to/lastmile_qr_scan", "android": "https://dc.lft.to/lastmile_qr_scan"}, "lon": -77.02372116666666, "type": "electric_scooter", "fusion_lat": 0.0, "lat": 38.92046916666666, "name": "1c68d626834f6c19203693d1e44bf669", "fusion_lon": 0.0, "bike_id": "1c68d626834f6c19203693d1e44bf669", "is_disabled": 0, "is_reserved": 0}, {"rental_uris": {"ios": "https://dc.lft.to/lastmile_qr_scan", "android": "https://dc.lft.to/lastmile_qr_scan"}, "lon": -77.05327733333333, "type": "electric_scooter", "fusion_lat": 0.0, "lat": 38.902291166666664, "name": "e514f74adc3a1105d018d0cdf598f5e4", "fusion_lon": 0.0, "bike_id": "e514f74adc3a1105d018d0cdf598f5e4", "is_disabled": 0, "is_reserved": 0}, {"rental_uris": {"ios": "https://dc.lft.to/lastmile_qr_scan", "android": "https://dc.lft.to/lastmile_qr_scan"}, "lon": -77.03934066666666, "type": "electric_scooter", "fusion_lat": 0.0, "lat": 38.9176165, "name": "04acfa44f12f7585807a842404dfd7ce", "fusion_lon": 0.0, "bike_id": "04acfa44f12f7585807a842404dfd7ce", "is_disabled": 0, "is_reserved": 0}, {"rental_uris": {"ios": "https://dc.lft.to/lastmile_qr_scan", "android": "https://dc.lft.to/lastmile_qr_scan"}, "lon": -77.00576583333333, "type": "electric_scooter", "fusion_lat": 0.0, "lat": 38.905786166666665, "name": "98f19c906271d119a391fd01e0d96f30", "fusion_lon": 0.0, "bike_id": "98f19c906271d119a391fd01e0d96f30", "is_disabled": 0, "is_reserved": 0}, {"rental_uris": {"ios": "https://dc.lft.to/lastmile_qr_scan", "android": "https://dc.lft.to/lastmile_qr_scan"}, "lon": -77.02766833333334, "type": "electric_scooter", "fusion_lat": 0.0, "lat": 38.891988, "name": "b699c0568a0d58c489a2ef8842b38c5b", "fusion_lon": 0.0, "bike_id": "b699c0568a0d58c489a2ef8842b38c5b", "is_disabled": 0, "is_reserved": 0}, {"rental_uris": {"ios": "https://dc.lft.to/lastmile_qr_scan", "android": "https://dc.lft.to/lastmile_qr_scan"}, "lon": -77.0058345, "type": "electric_scooter", "fusion_lat": 0.0, "lat": 38.874193, "name": "a7f831fb864a75e0cbb0f8c84d48d891", "fusion_lon": 0.0, "bike_id": "a7f831fb864a75e0cbb0f8c84d48d891", "is_disabled": 0, "is_reserved": 0}, {"rental_uris": {"ios": "https://dc.lft.to/lastmile_qr_scan", "android": "https://dc.lft.to/lastmile_qr_scan"}, "lon": -77.002611, "type": "electric_bike", "fusion_lat": 0.0, "lat": 38.95203766666667, "name": "67b9a578719fe6467a4fa48e7115a6d0", "fusion_lon": 0.0, "bike_id": "67b9a578719fe6467a4fa48e7115a6d0", "is_disabled": 0, "is_reserved": 0}, {"rental_uris": {"ios": "https://dc.lft.to/lastmile_qr_scan", "android": "https://dc.lft.to/lastmile_qr_scan"}, "lon": -77.023695, "type": "electric_scooter", "fusion_lat": 0.0, "lat": 38.89855716666667, "name": "7484eef00ad1a1e49348e590af7500f4", "fusion_lon": 0.0, "bike_id": "7484eef00ad1a1e49348e590af7500f4", "is_disabled": 0, "is_reserved": 0}, {"rental_uris": {"ios": "https://dc.lft.to/lastmile_qr_scan", "android": "https://dc.lft.to/lastmile_qr_scan"}, "lon": -77.03277316666667, "type": "electric_scooter", "fusion_lat": 0.0, "lat": 38.91928083333333, "name": "9a40c53f96b8a3b2ad24a6263dddf594", "fusion_lon": 0.0, "bike_id": "9a40c53f96b8a3b2ad24a6263dddf594", "is_disabled": 0, "is_reserved": 0}, {"rental_uris": {"ios": "https://dc.lft.to/lastmile_qr_scan", "android": "https://dc.lft.to/lastmile_qr_scan"}, "lon": -76.9877245, "type": "electric_scooter", "fusion_lat": 0.0, "lat": 38.911665166666666, "name": "acfe39e758f11d3dd022725e12886005", "fusion_lon": 0.0, "bike_id": "acfe39e758f11d3dd022725e12886005", "is_disabled": 0, "is_reserved": 0}, {"rental_uris": {"ios": "https://dc.lft.to/lastmile_qr_scan", "android": "https://dc.lft.to/lastmile_qr_scan"}, "lon": -76.97889833333333, "type": "electric_scooter", "fusion_lat": 0.0, "lat": 38.91672833333333, "name": "95ec265075bf2de9086b8855219c2d24", "fusion_lon": 0.0, "bike_id": "95ec265075bf2de9086b8855219c2d24", "is_disabled": 0, "is_reserved": 0}, {"rental_uris": {"ios": "https://dc.lft.to/lastmile_qr_scan", "android": "https://dc.lft.to/lastmile_qr_scan"}, "lon": -77.04950066666666, "type": "electric_scooter", "fusion_lat": 0.0, "lat": 38.89658216666667, "name": "13a4d5e87b4f8e832de3481c1c43385a", "fusion_lon": 0.0, "bike_id": "13a4d5e87b4f8e832de3481c1c43385a", "is_disabled": 0, "is_reserved": 0}, {"rental_uris": {"ios": "https://dc.lft.to/lastmile_qr_scan", "android": "https://dc.lft.to/lastmile_qr_scan"}, "lon": -77.12743616666667, "type": "electric_bike", "fusion_lat": 0.0, "lat": 38.888193666666666, "name": "3fd3471af764d183dc26b937f80fdfe4", "fusion_lon": 0.0, "bike_id": "3fd3471af764d183dc26b937f80fdfe4", "is_disabled": 0, "is_reserved": 0}, {"rental_uris": {"ios": "https://dc.lft.to/lastmile_qr_scan", "android": "https://dc.lft.to/lastmile_qr_scan"}, "lon": -77.03197116666666, "type": "electric_scooter", "fusion_lat": 0.0, "lat": 38.9199115, "name": "cbd41798599057522a703702dc272e0a", "fusion_lon": 0.0, "bike_id": "cbd41798599057522a703702dc272e0a", "is_disabled": 0, "is_reserved": 0}, {"rental_uris": {"ios": "https://dc.lft.to/lastmile_qr_scan", "android": "https://dc.lft.to/lastmile_qr_scan"}, "lon": -76.93812733333333, "type": "electric_scooter", "fusion_lat": 0.0, "lat": 38.91303583333333, "name": "57fe0d60a930f63024552503d16dd7eb", "fusion_lon": 0.0, "bike_id": "57fe0d60a930f63024552503d16dd7eb", "is_disabled": 0, "is_reserved": 0}, {"rental_uris": {"ios": "https://dc.lft.to/lastmile_qr_scan", "android": "https://dc.lft.to/lastmile_qr_scan"}, "lon": -77.0186435, "type": "electric_scooter", "fusion_lat": 0.0, "lat": 38.9026655, "name": "1e64dfff09ae011280053f93b15b02dc", "fusion_lon": 0.0, "bike_id": "1e64dfff09ae011280053f93b15b02dc", "is_disabled": 0, "is_reserved": 0}, {"rental_uris": {"ios": "https://dc.lft.to/lastmile_qr_scan", "android": "https://dc.lft.to/lastmile_qr_scan"}, "lon": -77.03269, "type": "electric_scooter", "fusion_lat": 0.0, "lat": 38.91403416666667, "name": "98b9a11f0cd40e983f5b12262317cf49", "fusion_lon": 0.0, "bike_id": "98b9a11f0cd40e983f5b12262317cf49", "is_disabled": 0, "is_reserved": 0}, {"rental_uris": {"ios": "https://dc.lft.to/lastmile_qr_scan", "android": "https://dc.lft.to/lastmile_qr_scan"}, "lon": -77.0296915, "type": "electric_scooter", "fusion_lat": 0.0, "lat": 38.90765366666667, "name": "d7c086d18dafeadc869ed1504019c26d", "fusion_lon": 0.0, "bike_id": "d7c086d18dafeadc869ed1504019c26d", "is_disabled": 0, "is_reserved": 0}, {"rental_uris": {"ios": "https://dc.lft.to/lastmile_qr_scan", "android": "https://dc.lft.to/lastmile_qr_scan"}, "lon": -77.03182866666667, "type": "electric_scooter", "fusion_lat": 0.0, "lat": 38.9191745, "name": "9b2d06064150fc9bcfdfaf47ba66327f", "fusion_lon": 0.0, "bike_id": "9b2d06064150fc9bcfdfaf47ba66327f", "is_disabled": 0, "is_reserved": 0}, {"rental_uris": {"ios": "https://dc.lft.to/lastmile_qr_scan", "android": "https://dc.lft.to/lastmile_qr_scan"}, "lon": -77.03846783333333, "type": "electric_scooter", "fusion_lat": 0.0, "lat": 38.909675666666665, "name": "a359ffb65a96b772c63226eb9aafafed", "fusion_lon": 0.0, "bike_id": "a359ffb65a96b772c63226eb9aafafed", "is_disabled": 0, "is_reserved": 0}, {"rental_uris": {"ios": "https://dc.lft.to/lastmile_qr_scan", "android": "https://dc.lft.to/lastmile_qr_scan"}, "lon": -77.0404455, "type": "electric_scooter", "fusion_lat": 0.0, "lat": 38.92566733333334, "name": "94dc150df5d06fbadb6e71c69209231e", "fusion_lon": 0.0, "bike_id": "94dc150df5d06fbadb6e71c69209231e", "is_disabled": 0, "is_reserved": 0}, {"rental_uris": {"ios": "https://dc.lft.to/lastmile_qr_scan", "android": "https://dc.lft.to/lastmile_qr_scan"}, "lon": -77.02680416666666, "type": "electric_scooter", "fusion_lat": 0.0, "lat": 38.93243316666667, "name": "01e1d1f4583c2a10aa0c5d19bd9eadf7", "fusion_lon": 0.0, "bike_id": "01e1d1f4583c2a10aa0c5d19bd9eadf7", "is_disabled": 0, "is_reserved": 0}, {"rental_uris": {"ios": "https://dc.lft.to/lastmile_qr_scan", "android": "https://dc.lft.to/lastmile_qr_scan"}, "lon": -77.061655, "type": "electric_scooter", "fusion_lat": 0.0, "lat": 38.942199, "name": "34c6e7b297d07aa26ff8901cd1782186", "fusion_lon": 0.0, "bike_id": "34c6e7b297d07aa26ff8901cd1782186", "is_disabled": 0, "is_reserved": 0}, {"rental_uris": {"ios": "https://dc.lft.to/lastmile_qr_scan", "android": "https://dc.lft.to/lastmile_qr_scan"}, "lon": -77.03171583333334, "type": "electric_scooter", "fusion_lat": 0.0, "lat": 38.8960825, "name": "fe182b1e1306abac1a1dbaf94a832d62", "fusion_lon": 0.0, "bike_id": "fe182b1e1306abac1a1dbaf94a832d62", "is_disabled": 0, "is_reserved": 0}, {"rental_uris": {"ios": "https://dc.lft.to/lastmile_qr_scan", "android": "https://dc.lft.to/lastmile_qr_scan"}, "lon": -77.0283845, "type": "electric_scooter", "fusion_lat": 0.0, "lat": 38.88770783333333, "name": "75d0effcc82330dc16c76cb746d9dc3e", "fusion_lon": 0.0, "bike_id": "75d0effcc82330dc16c76cb746d9dc3e", "is_disabled": 0, "is_reserved": 0}, {"rental_uris": {"ios": "https://dc.lft.to/lastmile_qr_scan", "android": "https://dc.lft.to/lastmile_qr_scan"}, "lon": -77.0467345, "type": "electric_scooter", "fusion_lat": 0.0, "lat": 38.90544533333333, "name": "59f8f82f56fb58ee17c603973fe94098", "fusion_lon": 0.0, "bike_id": "59f8f82f56fb58ee17c603973fe94098", "is_disabled": 0, "is_reserved": 0}, {"rental_uris": {"ios": "https://dc.lft.to/lastmile_qr_scan", "android": "https://dc.lft.to/lastmile_qr_scan"}, "lon": -77.10686483333333, "type": "electric_bike", "fusion_lat": 0.0, "lat": 38.935801833333336, "name": "d7f92a4c86aebe1d0dc17708e90a5ba2", "fusion_lon": 0.0, "bike_id": "d7f92a4c86aebe1d0dc17708e90a5ba2", "is_disabled": 0, "is_reserved": 0}, {"rental_uris": {"ios": "https://dc.lft.to/lastmile_qr_scan", "android": "https://dc.lft.to/lastmile_qr_scan"}, "lon": -77.01078216666667, "type": "electric_scooter", "fusion_lat": 0.0, "lat": 38.89483766666667, "name": "21779528affaa050baf01e7bdd55d992", "fusion_lon": 0.0, "bike_id": "21779528affaa050baf01e7bdd55d992", "is_disabled": 0, "is_reserved": 0}, {"rental_uris": {"ios": "https://dc.lft.to/lastmile_qr_scan", "android": "https://dc.lft.to/lastmile_qr_scan"}, "lon": -77.04269533333333, "type": "electric_scooter", "fusion_lat": 0.0, "lat": 38.902819, "name": "9315df591b419aa82ae81c38fda0507c", "fusion_lon": 0.0, "bike_id": "9315df591b419aa82ae81c38fda0507c", "is_disabled": 0, "is_reserved": 0}, {"rental_uris": {"ios": "https://dc.lft.to/lastmile_qr_scan", "android": "https://dc.lft.to/lastmile_qr_scan"}, "lon": -76.99687266666666, "type": "electric_scooter", "fusion_lat": 0.0, "lat": 38.9049935, "name": "7d58010032b4f29f6e7a4a56e43e9148", "fusion_lon": 0.0, "bike_id": "7d58010032b4f29f6e7a4a56e43e9148", "is_disabled": 0, "is_reserved": 0}, {"rental_uris": {"ios": "https://dc.lft.to/lastmile_qr_scan", "android": "https://dc.lft.to/lastmile_qr_scan"}, "lon": -77.05122033333333, "type": "electric_scooter", "fusion_lat": 0.0, "lat": 38.92361666666667, "name": "7ec290bbdb4091f73f35c0d4fea17463", "fusion_lon": 0.0, "bike_id": "7ec290bbdb4091f73f35c0d4fea17463", "is_disabled": 0, "is_reserved": 0}, {"rental_uris": {"ios": "https://dc.lft.to/lastmile_qr_scan", "android": "https://dc.lft.to/lastmile_qr_scan"}, "lon": -77.044753, "type": "electric_scooter", "fusion_lat": 0.0, "lat": 38.91117966666667, "name": "cf3f20417bd8e5e4ab385f3daabbab90", "fusion_lon": 0.0, "bike_id": "cf3f20417bd8e5e4ab385f3daabbab90", "is_disabled": 0, "is_reserved": 0}, {"rental_uris": {"ios": "https://dc.lft.to/lastmile_qr_scan", "android": "https://dc.lft.to/lastmile_qr_scan"}, "lon": -77.0318765, "type": "electric_scooter", "fusion_lat": 0.0, "lat": 38.91846266666667, "name": "996f5a52ba2c1c2959aa462916ec9563", "fusion_lon": 0.0, "bike_id": "996f5a52ba2c1c2959aa462916ec9563", "is_disabled": 0, "is_reserved": 0}, {"rental_uris": {"ios": "https://dc.lft.to/lastmile_qr_scan", "android": "https://dc.lft.to/lastmile_qr_scan"}, "lon": -77.0184015, "type": "electric_bike", "fusion_lat": 0.0, "lat": 38.908661333333335, "name": "7dd68af4019ff1e29c145eceedfd51cd", "fusion_lon": 0.0, "bike_id": "7dd68af4019ff1e29c145eceedfd51cd", "is_disabled": 0, "is_reserved": 0}, {"rental_uris": {"ios": "https://dc.lft.to/lastmile_qr_scan", "android": "https://dc.lft.to/lastmile_qr_scan"}, "lon": -77.046578, "type": "electric_scooter", "fusion_lat": 0.0, "lat": 38.89344783333333, "name": "cd9e279475007f37f632021b26f205e8", "fusion_lon": 0.0, "bike_id": "cd9e279475007f37f632021b26f205e8", "is_disabled": 0, "is_reserved": 0}, {"rental_uris": {"ios": "https://dc.lft.to/lastmile_qr_scan", "android": "https://dc.lft.to/lastmile_qr_scan"}, "lon": -77.03228116666666, "type": "electric_scooter", "fusion_lat": 0.0, "lat": 38.918179333333335, "name": "9e2200ec3e2210035577f98853aa3033", "fusion_lon": 0.0, "bike_id": "9e2200ec3e2210035577f98853aa3033", "is_disabled": 0, "is_reserved": 0}, {"rental_uris": {"ios": "https://dc.lft.to/lastmile_qr_scan", "android": "https://dc.lft.to/lastmile_qr_scan"}, "lon": -77.0221935, "type": "electric_scooter", "fusion_lat": 0.0, "lat": 38.90571583333333, "name": "fc0a9431a98facca55b9e1f855823e33", "fusion_lon": 0.0, "bike_id": "fc0a9431a98facca55b9e1f855823e33", "is_disabled": 0, "is_reserved": 0}, {"rental_uris": {"ios": "https://dc.lft.to/lastmile_qr_scan", "android": "https://dc.lft.to/lastmile_qr_scan"}, "lon": -77.04900116666667, "type": "electric_scooter", "fusion_lat": 0.0, "lat": 38.905325833333336, "name": "bcf9a35c6ccd835b58c2bd18c64d081e", "fusion_lon": 0.0, "bike_id": "bcf9a35c6ccd835b58c2bd18c64d081e", "is_disabled": 0, "is_reserved": 0}, {"rental_uris": {"ios": "https://dc.lft.to/lastmile_qr_scan", "android": "https://dc.lft.to/lastmile_qr_scan"}, "lon": -77.002263, "type": "electric_scooter", "fusion_lat": 0.0, "lat": 38.90026966666667, "name": "6e886f376b61840bf754b1a4f96c3198", "fusion_lon": 0.0, "bike_id": "6e886f376b61840bf754b1a4f96c3198", "is_disabled": 0, "is_reserved": 0}, {"rental_uris": {"ios": "https://dc.lft.to/lastmile_qr_scan", "android": "https://dc.lft.to/lastmile_qr_scan"}, "lon": -77.03845683333333, "type": "electric_scooter", "fusion_lat": 0.0, "lat": 38.910926333333336, "name": "2808c52235af6b402452a94f3e6be1d3", "fusion_lon": 0.0, "bike_id": "2808c52235af6b402452a94f3e6be1d3", "is_disabled": 0, "is_reserved": 0}, {"rental_uris": {"ios": "https://dc.lft.to/lastmile_qr_scan", "android": "https://dc.lft.to/lastmile_qr_scan"}, "lon": -77.04180283333334, "type": "electric_scooter", "fusion_lat": 0.0, "lat": 38.9032945, "name": "27f04cd71b353dfabe93522ea4bc12fd", "fusion_lon": 0.0, "bike_id": "27f04cd71b353dfabe93522ea4bc12fd", "is_disabled": 0, "is_reserved": 0}, {"rental_uris": {"ios": "https://dc.lft.to/lastmile_qr_scan", "android": "https://dc.lft.to/lastmile_qr_scan"}, "lon": -77.022053, "type": "electric_scooter", "fusion_lat": 0.0, "lat": 38.915369, "name": "9449a1e9f441d4a8ca612fae1320ee88", "fusion_lon": 0.0, "bike_id": "9449a1e9f441d4a8ca612fae1320ee88", "is_disabled": 0, "is_reserved": 0}, {"rental_uris": {"ios": "https://dc.lft.to/lastmile_qr_scan", "android": "https://dc.lft.to/lastmile_qr_scan"}, "lon": -77.063583, "type": "electric_scooter", "fusion_lat": 0.0, "lat": 38.94451183333334, "name": "02538fee48c4a7d81d9ffc2aedbad605", "fusion_lon": 0.0, "bike_id": "02538fee48c4a7d81d9ffc2aedbad605", "is_disabled": 0, "is_reserved": 0}, {"rental_uris": {"ios": "https://dc.lft.to/lastmile_qr_scan", "android": "https://dc.lft.to/lastmile_qr_scan"}, "lon": -77.03658316666667, "type": "electric_scooter", "fusion_lat": 0.0, "lat": 38.93079516666667, "name": "4319c026871b0abd70b43476f31a1d06", "fusion_lon": 0.0, "bike_id": "4319c026871b0abd70b43476f31a1d06", "is_disabled": 0, "is_reserved": 0}, {"rental_uris": {"ios": "https://dc.lft.to/lastmile_qr_scan", "android": "https://dc.lft.to/lastmile_qr_scan"}, "lon": -77.03312083333333, "type": "electric_scooter", "fusion_lat": 0.0, "lat": 38.901535333333335, "name": "0d8e1c85dc8a9bcc9a16559d2d41837e", "fusion_lon": 0.0, "bike_id": "0d8e1c85dc8a9bcc9a16559d2d41837e", "is_disabled": 0, "is_reserved": 0}, {"rental_uris": {"ios": "https://dc.lft.to/lastmile_qr_scan", "android": "https://dc.lft.to/lastmile_qr_scan"}, "lon": -77.02810116666667, "type": "electric_scooter", "fusion_lat": 0.0, "lat": 38.93082783333333, "name": "acdaac3513ea48e3201ea6e43b21a89d", "fusion_lon": 0.0, "bike_id": "acdaac3513ea48e3201ea6e43b21a89d", "is_disabled": 0, "is_reserved": 0}, {"rental_uris": {"ios": "https://dc.lft.to/lastmile_qr_scan", "android": "https://dc.lft.to/lastmile_qr_scan"}, "lon": -77.0278645, "type": "electric_scooter", "fusion_lat": 0.0, "lat": 38.92373216666667, "name": "0a0fb6407c7c671c0223438d667712f7", "fusion_lon": 0.0, "bike_id": "0a0fb6407c7c671c0223438d667712f7", "is_disabled": 0, "is_reserved": 0}, {"rental_uris": {"ios": "https://dc.lft.to/lastmile_qr_scan", "android": "https://dc.lft.to/lastmile_qr_scan"}, "lon": -77.03430133333333, "type": "electric_scooter", "fusion_lat": 0.0, "lat": 38.919138333333336, "name": "d935376effd3801954816171c96baf61", "fusion_lon": 0.0, "bike_id": "d935376effd3801954816171c96baf61", "is_disabled": 0, "is_reserved": 0}, {"rental_uris": {"ios": "https://dc.lft.to/lastmile_qr_scan", "android": "https://dc.lft.to/lastmile_qr_scan"}, "lon": -76.94723866666666, "type": "electric_scooter", "fusion_lat": 0.0, "lat": 38.896723, "name": "bc3d584e2491610f1e604751430a9ffa", "fusion_lon": 0.0, "bike_id": "bc3d584e2491610f1e604751430a9ffa", "is_disabled": 0, "is_reserved": 0}, {"rental_uris": {"ios": "https://dc.lft.to/lastmile_qr_scan", "android": "https://dc.lft.to/lastmile_qr_scan"}, "lon": -77.021496, "type": "electric_scooter", "fusion_lat": 0.0, "lat": 38.92821766666667, "name": "77ce13f6b15c4e80c6b696f4f138fad9", "fusion_lon": 0.0, "bike_id": "77ce13f6b15c4e80c6b696f4f138fad9", "is_disabled": 0, "is_reserved": 0}, {"rental_uris": {"ios": "https://dc.lft.to/lastmile_qr_scan", "android": "https://dc.lft.to/lastmile_qr_scan"}, "lon": -77.02494733333333, "type": "electric_scooter", "fusion_lat": 0.0, "lat": 38.897374666666664, "name": "f9254cff78873894dd58384f074c8c68", "fusion_lon": 0.0, "bike_id": "f9254cff78873894dd58384f074c8c68", "is_disabled": 0, "is_reserved": 0}, {"rental_uris": {"ios": "https://dc.lft.to/lastmile_qr_scan", "android": "https://dc.lft.to/lastmile_qr_scan"}, "lon": -77.024534, "type": "electric_scooter", "fusion_lat": 0.0, "lat": 38.9148605, "name": "4c829b8791f0fae9d9c8527997a44ca0", "fusion_lon": 0.0, "bike_id": "4c829b8791f0fae9d9c8527997a44ca0", "is_disabled": 0, "is_reserved": 0}, {"rental_uris": {"ios": "https://dc.lft.to/lastmile_qr_scan", "android": "https://dc.lft.to/lastmile_qr_scan"}, "lon": -76.9983845, "type": "electric_scooter", "fusion_lat": 0.0, "lat": 38.900415333333335, "name": "8e47984d34cba852178b872febe0cbfe", "fusion_lon": 0.0, "bike_id": "8e47984d34cba852178b872febe0cbfe", "is_disabled": 0, "is_reserved": 0}, {"rental_uris": {"ios": "https://dc.lft.to/lastmile_qr_scan", "android": "https://dc.lft.to/lastmile_qr_scan"}, "lon": -76.98853766666667, "type": "electric_scooter", "fusion_lat": 0.0, "lat": 38.903424666666666, "name": "24fb9baf96b82efc8d100bf473993a72", "fusion_lon": 0.0, "bike_id": "24fb9baf96b82efc8d100bf473993a72", "is_disabled": 0, "is_reserved": 0}, {"rental_uris": {"ios": "https://dc.lft.to/lastmile_qr_scan", "android": "https://dc.lft.to/lastmile_qr_scan"}, "lon": -77.03835066666667, "type": "electric_scooter", "fusion_lat": 0.0, "lat": 38.921709, "name": "c71183d4e30a7fdf44aefc6492941080", "fusion_lon": 0.0, "bike_id": "c71183d4e30a7fdf44aefc6492941080", "is_disabled": 0, "is_reserved": 0}, {"rental_uris": {"ios": "https://dc.lft.to/lastmile_qr_scan", "android": "https://dc.lft.to/lastmile_qr_scan"}, "lon": -76.957624, "type": "electric_bike", "fusion_lat": 0.0, "lat": 38.884134, "name": "197b79d9c590fb827c02cbc5069d7553", "fusion_lon": 0.0, "bike_id": "197b79d9c590fb827c02cbc5069d7553", "is_disabled": 0, "is_reserved": 0}, {"rental_uris": {"ios": "https://dc.lft.to/lastmile_qr_scan", "android": "https://dc.lft.to/lastmile_qr_scan"}, "lon": -76.87822016666667, "type": "electric_bike", "fusion_lat": 0.0, "lat": 38.99229316666667, "name": "a7c99e1ac62178da3b6c6fbeb249a719", "fusion_lon": 0.0, "bike_id": "a7c99e1ac62178da3b6c6fbeb249a719", "is_disabled": 0, "is_reserved": 0}, {"rental_uris": {"ios": "https://dc.lft.to/lastmile_qr_scan", "android": "https://dc.lft.to/lastmile_qr_scan"}, "lon": -76.977489, "type": "electric_scooter", "fusion_lat": 0.0, "lat": 38.9000675, "name": "ff79c733a5ef39ecb347abf6dfe4df70", "fusion_lon": 0.0, "bike_id": "ff79c733a5ef39ecb347abf6dfe4df70", "is_disabled": 0, "is_reserved": 0}, {"rental_uris": {"ios": "https://dc.lft.to/lastmile_qr_scan", "android": "https://dc.lft.to/lastmile_qr_scan"}, "lon": -77.10725366666667, "type": "electric_bike", "fusion_lat": 0.0, "lat": 38.85531316666667, "name": "eee53ac2f8e4c927dad33e4cd368d550", "fusion_lon": 0.0, "bike_id": "eee53ac2f8e4c927dad33e4cd368d550", "is_disabled": 0, "is_reserved": 0}, {"rental_uris": {"ios": "https://dc.lft.to/lastmile_qr_scan", "android": "https://dc.lft.to/lastmile_qr_scan"}, "lon": -77.03789366666666, "type": "electric_scooter", "fusion_lat": 0.0, "lat": 38.92625533333333, "name": "8606e183bacb50e35afcfd839ce5af92", "fusion_lon": 0.0, "bike_id": "8606e183bacb50e35afcfd839ce5af92", "is_disabled": 0, "is_reserved": 0}, {"rental_uris": {"ios": "https://dc.lft.to/lastmile_qr_scan", "android": "https://dc.lft.to/lastmile_qr_scan"}, "lon": -76.94635, "type": "electric_scooter", "fusion_lat": 0.0, "lat": 38.89832, "name": "2205af7dcbb03e9c2ad52544da5167c5", "fusion_lon": 0.0, "bike_id": "2205af7dcbb03e9c2ad52544da5167c5", "is_disabled": 0, "is_reserved": 0}, {"rental_uris": {"ios": "https://dc.lft.to/lastmile_qr_scan", "android": "https://dc.lft.to/lastmile_qr_scan"}, "lon": -76.9761665, "type": "electric_scooter", "fusion_lat": 0.0, "lat": 38.903823, "name": "3e4c8a6f1250b354d63b14aa3f0d3731", "fusion_lon": 0.0, "bike_id": "3e4c8a6f1250b354d63b14aa3f0d3731", "is_disabled": 0, "is_reserved": 0}, {"rental_uris": {"ios": "https://dc.lft.to/lastmile_qr_scan", "android": "https://dc.lft.to/lastmile_qr_scan"}, "lon": -77.02149, "type": "electric_scooter", "fusion_lat": 0.0, "lat": 38.896148833333335, "name": "de772c676e3ec6d424ae52e202926fcb", "fusion_lon": 0.0, "bike_id": "de772c676e3ec6d424ae52e202926fcb", "is_disabled": 0, "is_reserved": 0}, {"rental_uris": {"ios": "https://dc.lft.to/lastmile_qr_scan", "android": "https://dc.lft.to/lastmile_qr_scan"}, "lon": -77.031888, "type": "electric_scooter", "fusion_lat": 0.0, "lat": 38.91351433333333, "name": "4ca62f62a5ab478037f72fe0d73dcfc9", "fusion_lon": 0.0, "bike_id": "4ca62f62a5ab478037f72fe0d73dcfc9", "is_disabled": 0, "is_reserved": 0}, {"rental_uris": {"ios": "https://dc.lft.to/lastmile_qr_scan", "android": "https://dc.lft.to/lastmile_qr_scan"}, "lon": -77.031904, "type": "electric_scooter", "fusion_lat": 0.0, "lat": 38.90798133333333, "name": "2e3faa27203ad171448530f99dc09d68", "fusion_lon": 0.0, "bike_id": "2e3faa27203ad171448530f99dc09d68", "is_disabled": 0, "is_reserved": 0}, {"rental_uris": {"ios": "https://dc.lft.to/lastmile_qr_scan", "android": "https://dc.lft.to/lastmile_qr_scan"}, "lon": -77.05125166666667, "type": "electric_scooter", "fusion_lat": 0.0, "lat": 38.9235655, "name": "6644ac28306a231adaec55d11d89da1f", "fusion_lon": 0.0, "bike_id": "6644ac28306a231adaec55d11d89da1f", "is_disabled": 0, "is_reserved": 0}, {"rental_uris": {"ios": "https://dc.lft.to/lastmile_qr_scan", "android": "https://dc.lft.to/lastmile_qr_scan"},