{"data": {"bikes": [{"rental_uris": {"ios": "https://dc.lft.to/lastmile_qr_scan", "android": "https://dc.lft.to/lastmile_qr_scan"}, "type": "electric_scooter", "name": "c434cffb85bad331b0c82fd183d6f82b", "is_reserved": 0, "lon": -77.00757133333333, "is_disabled": 0, "fusion_lat": 0.0, "lat": 38.926725833333336, "bike_id": "c434cffb85bad331b0c82fd183d6f82b", "fusion_lon": 0.0}, {"rental_uris": {"ios": "https://dc.lft.to/lastmile_qr_scan", "android": "https://dc.lft.to/lastmile_qr_scan"}, "type": "electric_scooter", "name": "2dccdfb9aa34b86a57930ccbfc7fece5", "is_reserved": 0, "lon": -77.03660766666667, "is_disabled": 0, "fusion_lat": 0.0, "lat": 38.917602, "bike_id": "2dccdfb9aa34b86a57930ccbfc7fece5", "fusion_lon": 0.0}, {"rental_uris": {"ios": "https://dc.lft.to/lastmile_qr_scan", "android": "https://dc.lft.to/lastmile_qr_scan"}, "type": "electric_bike", "name": "f80c2c78989bb9a77e298746373210e2", "is_reserved": 0, "lon": -76.97345966666667, "is_disabled": 0, "fusion_lat": 0.0, "lat": 38.89725383333333, "bike_id": "f80c2c78989bb9a77e298746373210e2", "fusion_lon": 0.0}, {"rental_uris": {"ios": "https://dc.lft.to/lastmile_qr_scan", "android": "https://dc.lft.to/lastmile_qr_scan"}, "type": "electric_scooter", "name": "a745ade8504b5727faf48c3a3726843e", "is_reserved": 0, "lon": -77.0450435, "is_disabled": 0, "fusion_lat": 0.0, "lat": 38.8925545, "bike_id": "a745ade8504b5727faf48c3a3726843e", "fusion_lon": 0.0}, {"rental_uris": {"ios": "https://dc.lft.to/lastmile_qr_scan", "android": "https://dc.lft.to/lastmile_qr_scan"}, "type": "electric_scooter", "name": "1d3d34d4b16ce37a601f8092813c0a52", "is_reserved": 0, "lon": -77.0046275, "is_disabled": 0, "fusion_lat": 0.0, "lat": 38.920800166666666, "bike_id": "1d3d34d4b16ce37a601f8092813c0a52", "fusion_lon": 0.0}, {"rental_uris": {"ios": "https://dc.lft.to/lastmile_qr_scan", "android": "https://dc.lft.to/lastmile_qr_scan"}, "type": "electric_scooter", "name": "0f122c755a5951d2559fa9c386d203bf", "is_reserved": 0, "lon": -77.03539133333334, "is_disabled": 0, "fusion_lat": 0.0, "lat": 38.9047455, "bike_id": "0f122c755a5951d2559fa9c386d203bf", "fusion_lon": 0.0}, {"rental_uris": {"ios": "https://dc.lft.to/lastmile_qr_scan", "android": "https://dc.lft.to/lastmile_qr_scan"}, "type": "electric_scooter", "name": "535b70cb6af3e26b4d352496d57bf2b4", "is_reserved": 0, "lon": -77.03837816666666, "is_disabled": 0, "fusion_lat": 0.0, "lat": 38.9107135, "bike_id": "535b70cb6af3e26b4d352496d57bf2b4", "fusion_lon": 0.0}, {"rental_uris": {"ios": "https://dc.lft.to/lastmile_qr_scan", "android": "https://dc.lft.to/lastmile_qr_scan"}, "type": "electric_scooter", "name": "28d5f8195f1f2d6c36f85ec2709b7533", "is_reserved": 0, "lon": -77.01782883333334, "is_disabled": 0, "fusion_lat": 0.0, "lat": 38.88337116666667, "bike_id": "28d5f8195f1f2d6c36f85ec2709b7533", "fusion_lon": 0.0}, {"rental_uris": {"ios": "https://dc.lft.to/lastmile_qr_scan", "android": "https://dc.lft.to/lastmile_qr_scan"}, "type": "electric_scooter", "name": "a29b8367f1eeaa62a1a02f16d66d041c", "is_reserved": 0, "lon": -77.059293, "is_disabled": 0, "fusion_lat": 0.0, "lat": 38.94303416666666, "bike_id": "a29b8367f1eeaa62a1a02f16d66d041c", "fusion_lon": 0.0}, {"rental_uris": {"ios": "https://dc.lft.to/lastmile_qr_scan", "android": "https://dc.lft.to/lastmile_qr_scan"}, "type": "electric_scooter", "name": "c7add45d9a6014821013783deef36d01", "is_reserved": 0, "lon": -77.00713033333334, "is_disabled": 0, "fusion_lat": 0.0, "lat": 38.884880333333335, "bike_id": "c7add45d9a6014821013783deef36d01", "fusion_lon": 0.0}, {"rental_uris": {"ios": "https://dc.lft.to/lastmile_qr_scan", "android": "https://dc.lft.to/lastmile_qr_scan"}, "type": "electric_scooter", "name": "d4b878fbf451380490433fd52dee522f", "is_reserved": 0, "lon": -77.03883333333333, "is_disabled": 0, "fusion_lat": 0.0, "lat": 38.933652, "bike_id": "d4b878fbf451380490433fd52dee522f", "fusion_lon": 0.0}, {"rental_uris": {"ios": "https://dc.lft.to/lastmile_qr_scan", "android": "https://dc.lft.to/lastmile_qr_scan"}, "type": "electric_scooter", "name": "62ad02613ac822b95d64109649bc9766", "is_reserved": 0, "lon": -77.0108445, "is_disabled": 0, "fusion_lat": 0.0, "lat": 38.90333116666667, "bike_id": "62ad02613ac822b95d64109649bc9766", "fusion_lon": 0.0}, {"rental_uris": {"ios": "https://dc.lft.to/lastmile_qr_scan", "android": "https://dc.lft.to/lastmile_qr_scan"}, "type": "electric_bike", "name": "28386712df3c22550021229875748853", "is_reserved": 0, "lon": -77.0228245, "is_disabled": 0, "fusion_lat": 0.0, "lat": 38.927031666666664, "bike_id": "28386712df3c22550021229875748853", "fusion_lon": 0.0}, {"rental_uris": {"ios": "https://dc.lft.to/lastmile_qr_scan", "android": "https://dc.lft.to/lastmile_qr_scan"}, "type": "electric_bike", "name": "0749b1b14aca5fae668ffa91982fdd49", "is_reserved": 0, "lon": -76.997998, "is_disabled": 0, "fusion_lat": 0.0, "lat": 38.88122216666667, "bike_id": "0749b1b14aca5fae668ffa91982fdd49", "fusion_lon": 0.0}, {"rental_uris": {"ios": "https://dc.lft.to/lastmile_qr_scan", "android": "https://dc.lft.to/lastmile_qr_scan"}, "type": "electric_scooter", "name": "f00222cc79cbc013bc91fade1c48b592", "is_reserved": 0, "lon": -77.05599616666667, "is_disabled": 0, "fusion_lat": 0.0, "lat": 38.936981333333335, "bike_id": "f00222cc79cbc013bc91fade1c48b592", "fusion_lon": 0.0}, {"rental_uris": {"ios": "https://dc.lft.to/lastmile_qr_scan", "android": "https://dc.lft.to/lastmile_qr_scan"}, "type": "electric_scooter", "name": "e19a788ae3abb2bffabd31363e320fde", "is_reserved": 0, "lon": -77.0088895, "is_disabled": 0, "fusion_lat": 0.0, "lat": 38.917116, "bike_id": "e19a788ae3abb2bffabd31363e320fde", "fusion_lon": 0.0}, {"rental_uris": {"ios": "https://dc.lft.to/lastmile_qr_scan", "android": "https://dc.lft.to/lastmile_qr_scan"}, "type": "electric_scooter", "name": "d864fc781eb76019bd49e7a59b3aaacc", "is_reserved": 0, "lon": -76.93702816666666, "is_disabled": 0, "fusion_lat": 0.0, "lat": 38.890187, "bike_id": "d864fc781eb76019bd49e7a59b3aaacc", "fusion_lon": 0.0}, {"rental_uris": {"ios": "https://dc.lft.to/lastmile_qr_scan", "android": "https://dc.lft.to/lastmile_qr_scan"}, "type": "electric_scooter", "name": "36c57ecb60c21755a0fc6ee1940f06b7", "is_reserved": 0, "lon": -77.02228983333333, "is_disabled": 0, "fusion_lat": 0.0, "lat": 38.920925, "bike_id": "36c57ecb60c21755a0fc6ee1940f06b7", "fusion_lon": 0.0}, {"rental_uris": {"ios": "https://dc.lft.to/lastmile_qr_scan", "android": "https://dc.lft.to/lastmile_qr_scan"}, "type": "electric_scooter", "name": "2cbe6fdfe468a5c31d5f8c4ac5992fa1", "is_reserved": 0, "lon": -77.03191766666667, "is_disabled": 0, "fusion_lat": 0.0, "lat": 38.908229666666664, "bike_id": "2cbe6fdfe468a5c31d5f8c4ac5992fa1", "fusion_lon": 0.0}, {"rental_uris": {"ios": "https://dc.lft.to/lastmile_qr_scan", "android": "https://dc.lft.to/lastmile_qr_scan"}, "type": "electric_scooter", "name": "31431bedd137817b7622e75c751834fe", "is_reserved": 0, "lon": -77.03068783333333, "is_disabled": 0, "fusion_lat": 0.0, "lat": 38.934562, "bike_id": "31431bedd137817b7622e75c751834fe", "fusion_lon": 0.0}, {"rental_uris": {"ios": "https://dc.lft.to/lastmile_qr_scan", "android": "https://dc.lft.to/lastmile_qr_scan"}, "type": "electric_scooter", "name": "3c8e4fdb1730e9ebe53ca39ce54872ba", "is_reserved": 0, "lon": -77.02071333333333, "is_disabled": 0, "fusion_lat": 0.0, "lat": 38.93107233333333, "bike_id": "3c8e4fdb1730e9ebe53ca39ce54872ba", "fusion_lon": 0.0}, {"rental_uris": {"ios": "https://dc.lft.to/lastmile_qr_scan", "android": "https://dc.lft.to/lastmile_qr_scan"}, "type": "electric_scooter", "name": "d906b80defbfd845f3b6909816df0a6e", "is_reserved": 0, "lon": -77.0641625, "is_disabled": 0, "fusion_lat": 0.0, "lat": 38.91398266666667, "bike_id": "d906b80defbfd845f3b6909816df0a6e", "fusion_lon": 0.0}, {"rental_uris": {"ios": "https://dc.lft.to/lastmile_qr_scan", "android": "https://dc.lft.to/lastmile_qr_scan"}, "type": "electric_scooter", "name": "3dc51e60378731116ae70c123120da2d", "is_reserved": 0, "lon": -77.0055765, "is_disabled": 0, "fusion_lat": 0.0, "lat": 38.874702, "bike_id": "3dc51e60378731116ae70c123120da2d", "fusion_lon": 0.0}, {"rental_uris": {"ios": "https://dc.lft.to/lastmile_qr_scan", "android": "https://dc.lft.to/lastmile_qr_scan"}, "type": "electric_scooter", "name": "b231a82a1308e59875c8dab63d200966", "is_reserved": 0, "lon": -77.0098265, "is_disabled": 0, "fusion_lat": 0.0, "lat": 38.905580666666665, "bike_id": "b231a82a1308e59875c8dab63d200966", "fusion_lon": 0.0}, {"rental_uris": {"ios": "https://dc.lft.to/lastmile_qr_scan", "android": "https://dc.lft.to/lastmile_qr_scan"}, "type": "electric_scooter", "name": "c5fa21a987cd1ecdb49565ee7fb55758", "is_reserved": 0, "lon": -77.02479233333334, "is_disabled": 0, "fusion_lat": 0.0, "lat": 38.9181445, "bike_id": "c5fa21a987cd1ecdb49565ee7fb55758", "fusion_lon": 0.0}, {"rental_uris": {"ios": "https://dc.lft.to/lastmile_qr_scan", "android": "https://dc.lft.to/lastmile_qr_scan"}, "type": "electric_scooter", "name": "0014cea8275738a443101127d2db8830", "is_reserved": 0, "lon": -77.03179083333333, "is_disabled": 0, "fusion_lat": 0.0, "lat": 38.91554283333333, "bike_id": "0014cea8275738a443101127d2db8830", "fusion_lon": 0.0}, {"rental_uris": {"ios": "https://dc.lft.to/lastmile_qr_scan", "android": "https://dc.lft.to/lastmile_qr_scan"}, "type": "electric_scooter", "name": "f32c73569163ef18039444a7f350ab5a", "is_reserved": 0, "lon": -77.02091716666666, "is_disabled": 0, "fusion_lat": 0.0, "lat": 38.92913166666666, "bike_id": "f32c73569163ef18039444a7f350ab5a", "fusion_lon": 0.0}, {"rental_uris": {"ios": "https://dc.lft.to/lastmile_qr_scan", "android": "https://dc.lft.to/lastmile_qr_scan"}, "type": "electric_scooter", "name": "f90421b3ceb30334bff15f72f26e63ac", "is_reserved": 0, "lon": -77.0184375, "is_disabled": 0, "fusion_lat": 0.0, "lat": 38.9053575, "bike_id": "f90421b3ceb30334bff15f72f26e63ac", "fusion_lon": 0.0}, {"rental_uris": {"ios": "https://dc.lft.to/lastmile_qr_scan", "android": "https://dc.lft.to/lastmile_qr_scan"}, "type": "electric_scooter", "name": "e21f94f40418fab3ff79e610911e6519", "is_reserved": 0, "lon": -77.045255, "is_disabled": 0, "fusion_lat": 0.0, "lat": 38.9181655, "bike_id": "e21f94f40418fab3ff79e610911e6519", "fusion_lon": 0.0}, {"rental_uris": {"ios": "https://dc.lft.to/lastmile_qr_scan", "android": "https://dc.lft.to/lastmile_qr_scan"}, "type": "electric_scooter", "name": "70ba8af069a805b0a5b61bb56354b069", "is_reserved": 0, "lon": -77.03183016666667, "is_disabled": 0, "fusion_lat": 0.0, "lat": 38.92008, "bike_id": "70ba8af069a805b0a5b61bb56354b069", "fusion_lon": 0.0}, {"rental_uris": {"ios": "https://dc.lft.to/lastmile_qr_scan", "android": "https://dc.lft.to/lastmile_qr_scan"}, "type": "electric_scooter", "name": "2d6622f6ed8b0a396ae6049b19500595", "is_reserved": 0, "lon": -77.026018, "is_disabled": 0, "fusion_lat": 0.0, "lat": 38.89311883333333, "bike_id": "2d6622f6ed8b0a396ae6049b19500595", "fusion_lon": 0.0}, {"rental_uris": {"ios": "https://dc.lft.to/lastmile_qr_scan", "android": "https://dc.lft.to/lastmile_qr_scan"}, "type": "electric_scooter", "name": "728ef78b2f84be1bc5dc234a920e1828", "is_reserved": 0, "lon": -76.99421833333334, "is_disabled": 0, "fusion_lat": 0.0, "lat": 38.91685983333333, "bike_id": "728ef78b2f84be1bc5dc234a920e1828", "fusion_lon": 0.0}, {"rental_uris": {"ios": "https://dc.lft.to/lastmile_qr_scan", "android": "https://dc.lft.to/lastmile_qr_scan"}, "type": "electric_scooter", "name": "031e30997a1c6da1318ff8743e9e5b7f", "is_reserved": 0, "lon": -77.03798216666667, "is_disabled": 0, "fusion_lat": 0.0, "lat": 38.91536083333333, "bike_id": "031e30997a1c6da1318ff8743e9e5b7f", "fusion_lon": 0.0}, {"rental_uris": {"ios": "https://dc.lft.to/lastmile_qr_scan", "android": "https://dc.lft.to/lastmile_qr_scan"}, "type": "electric_scooter", "name": "f521401f9e2e706c0b4234b564963ba0", "is_reserved": 0, "lon": -77.02431233333333, "is_disabled": 0, "fusion_lat": 0.0, "lat": 38.90313833333333, "bike_id": "f521401f9e2e706c0b4234b564963ba0", "fusion_lon": 0.0}, {"rental_uris": {"ios": "https://dc.lft.to/lastmile_qr_scan", "android": "https://dc.lft.to/lastmile_qr_scan"}, "type": "electric_scooter", "name": "af77d72d12e8afd805ab56d3e3f25d9a", "is_reserved": 0, "lon": -77.05947333333333, "is_disabled": 0, "fusion_lat": 0.0, "lat": 38.93700166666667, "bike_id": "af77d72d12e8afd805ab56d3e3f25d9a", "fusion_lon": 0.0}, {"rental_uris": {"ios": "https://dc.lft.to/lastmile_qr_scan", "android": "https://dc.lft.to/lastmile_qr_scan"}, "type": "electric_scooter", "name": "08e890007c52c9fd8bb2cdda345836d1", "is_reserved": 0, "lon": -77.0473305, "is_disabled": 0, "fusion_lat": 0.0, "lat": 38.8955285, "bike_id": "08e890007c52c9fd8bb2cdda345836d1", "fusion_lon": 0.0}, {"rental_uris": {"ios": "https://dc.lft.to/lastmile_qr_scan", "android": "https://dc.lft.to/lastmile_qr_scan"}, "type": "electric_scooter", "name": "8ff99ff96ba5d76ae79cb1ee04eebd17", "is_reserved": 0, "lon": -77.03957466666667, "is_disabled": 0, "fusion_lat": 0.0, "lat": 38.892498333333336, "bike_id": "8ff99ff96ba5d76ae79cb1ee04eebd17", "fusion_lon": 0.0}, {"rental_uris": {"ios": "https://dc.lft.to/lastmile_qr_scan", "android": "https://dc.lft.to/lastmile_qr_scan"}, "type": "electric_scooter", "name": "2565311d95b206bd5b767eb61b1975d1", "is_reserved": 0, "lon": -77.04110816666666, "is_disabled": 0, "fusion_lat": 0.0, "lat": 38.93467733333333, "bike_id": "2565311d95b206bd5b767eb61b1975d1", "fusion_lon": 0.0}, {"rental_uris": {"ios": "https://dc.lft.to/lastmile_qr_scan", "android": "https://dc.lft.to/lastmile_qr_scan"}, "type": "electric_scooter", "name": "cbe8bcc774bdecd7bb92397c3379557d", "is_reserved": 0, "lon": -77.01634, "is_disabled": 0, "fusion_lat": 0.0, "lat": 38.899567833333336, "bike_id": "cbe8bcc774bdecd7bb92397c3379557d", "fusion_lon": 0.0}, {"rental_uris": {"ios": "https://dc.lft.to/lastmile_qr_scan", "android": "https://dc.lft.to/lastmile_qr_scan"}, "type": "electric_scooter", "name": "3711ec69be23964ed55bfdab4732865f", "is_reserved": 0, "lon": -77.01994666666667, "is_disabled": 0, "fusion_lat": 0.0, "lat": 38.900363166666665, "bike_id": "3711ec69be23964ed55bfdab4732865f", "fusion_lon": 0.0}, {"rental_uris": {"ios": "https://dc.lft.to/lastmile_qr_scan", "android": "https://dc.lft.to/lastmile_qr_scan"}, "type": "electric_bike", "name": "c34714377c6c8df94359fd0a0249a4c9", "is_reserved": 0, "lon": -76.9416395, "is_disabled": 0, "fusion_lat": 0.0, "lat": 38.8655495, "bike_id": "c34714377c6c8df94359fd0a0249a4c9", "fusion_lon": 0.0}, {"rental_uris": {"ios": "https://dc.lft.to/lastmile_qr_scan", "android": "https://dc.lft.to/lastmile_qr_scan"}, "type": "electric_scooter", "name": "abed6f2f1c22e83c579449be1622e496", "is_reserved": 0, "lon": -77.04617333333333, "is_disabled": 0, "fusion_lat": 0.0, "lat": 38.914879, "bike_id": "abed6f2f1c22e83c579449be1622e496", "fusion_lon": 0.0}, {"rental_uris": {"ios": "https://dc.lft.to/lastmile_qr_scan", "android": "https://dc.lft.to/lastmile_qr_scan"}, "type": "electric_scooter", "name": "5e2f8bd22cc71b3d10f8680f7476876e", "is_reserved": 0, "lon": -77.04874266666667, "is_disabled": 0, "fusion_lat": 0.0, "lat": 38.913374833333336, "bike_id": "5e2f8bd22cc71b3d10f8680f7476876e", "fusion_lon": 0.0}, {"rental_uris": {"ios": "https://dc.lft.to/lastmile_qr_scan", "android": "https://dc.lft.to/lastmile_qr_scan"}, "type": "electric_scooter", "name": "2411fe1e6db10913962e1c0fd81f8b92", "is_reserved": 0, "lon": -76.9803405, "is_disabled": 0, "fusion_lat": 0.0, "lat": 38.916805, "bike_id": "2411fe1e6db10913962e1c0fd81f8b92", "fusion_lon": 0.0}, {"rental_uris": {"ios": "https://dc.lft.to/lastmile_qr_scan", "android": "https://dc.lft.to/lastmile_qr_scan"}, "type": "electric_scooter", "name": "78431e1c29d93cb11a0793213a5b5b22", "is_reserved": 0, "lon": -77.00314366666667, "is_disabled": 0, "fusion_lat": 0.0, "lat": 38.91897433333333, "bike_id": "78431e1c29d93cb11a0793213a5b5b22", "fusion_lon": 0.0}, {"rental_uris": {"ios": "https://dc.lft.to/lastmile_qr_scan", "android": "https://dc.lft.to/lastmile_qr_scan"}, "type": "electric_scooter", "name": "ae24d9339802d25a94cf34b856bd3384", "is_reserved": 0, "lon": -77.04970416666667, "is_disabled": 0, "fusion_lat": 0.0, "lat": 38.913331666666664, "bike_id": "ae24d9339802d25a94cf34b856bd3384", "fusion_lon": 0.0}, {"rental_uris": {"ios": "https://dc.lft.to/lastmile_qr_scan", "android": "https://dc.lft.to/lastmile_qr_scan"}, "type": "electric_scooter", "name": "8a09cc8c4ad570402847a7f79cd650ff", "is_reserved": 0, "lon": -77.0537705, "is_disabled": 0, "fusion_lat": 0.0, "lat": 38.923351833333335, "bike_id": "8a09cc8c4ad570402847a7f79cd650ff", "fusion_lon": 0.0}, {"rental_uris": {"ios": "https://dc.lft.to/lastmile_qr_scan", "android": "https://dc.lft.to/lastmile_qr_scan"}, "type": "electric_scooter", "name": "c30b79bceaa08509c6dfcf59a66f8c4d", "is_reserved": 0, "lon": -77.01258466666667, "is_disabled": 0, "fusion_lat": 0.0, "lat": 38.89716, "bike_id": "c30b79bceaa08509c6dfcf59a66f8c4d", "fusion_lon": 0.0}, {"rental_uris": {"ios": "https://dc.lft.to/lastmile_qr_scan", "android": "https://dc.lft.to/lastmile_qr_scan"}, "type": "electric_scooter", "name": "c0951554441cf842dd7a00fdf6bd7a20", "is_reserved": 0, "lon": -77.01909633333334, "is_disabled": 0, "fusion_lat": 0.0, "lat": 38.937196, "bike_id": "c0951554441cf842dd7a00fdf6bd7a20", "fusion_lon": 0.0}, {"rental_uris": {"ios": "https://dc.lft.to/lastmile_qr_scan", "android": "https://dc.lft.to/lastmile_qr_scan"}, "type": "electric_scooter", "name": "839d0b069695705fe48dae52cb295244", "is_reserved": 0, "lon": -77.011067, "is_disabled": 0, "fusion_lat": 0.0, "lat": 38.89539666666667, "bike_id": "839d0b069695705fe48dae52cb295244", "fusion_lon": 0.0}, {"rental_uris": {"ios": "https://dc.lft.to/lastmile_qr_scan", "android": "https://dc.lft.to/lastmile_qr_scan"}, "type": "electric_scooter", "name": "7ef1a400b89482df0fa140cbe072295f", "is_reserved": 0, "lon": -77.0364595, "is_disabled": 0, "fusion_lat": 0.0, "lat": 38.913206833333334, "bike_id": "7ef1a400b89482df0fa140cbe072295f", "fusion_lon": 0.0}, {"rental_uris": {"ios": "https://dc.lft.to/lastmile_qr_scan", "android": "https://dc.lft.to/lastmile_qr_scan"}, "type": "electric_scooter", "name": "c1f6bffff7f3e03357b423804969f2fe", "is_reserved": 0, "lon": -77.03762733333333, "is_disabled": 0, "fusion_lat": 0.0, "lat": 38.923258833333335, "bike_id": "c1f6bffff7f3e03357b423804969f2fe", "fusion_lon": 0.0}, {"rental_uris": {"ios": "https://dc.lft.to/lastmile_qr_scan", "android": "https://dc.lft.to/lastmile_qr_scan"}, "type": "electric_scooter", "name": "b578faf33cd5354a3890593fdbeba408", "is_reserved": 0, "lon": -77.02977766666666, "is_disabled": 0, "fusion_lat": 0.0, "lat": 38.922566833333335, "bike_id": "b578faf33cd5354a3890593fdbeba408", "fusion_lon": 0.0}, {"rental_uris": {"ios": "https://dc.lft.to/lastmile_qr_scan", "android": "https://dc.lft.to/lastmile_qr_scan"}, "type": "electric_scooter", "name": "1f54392be021a1a25ab4d7b47b090c1c", "is_reserved": 0, "lon": -76.97151883333333, "is_disabled": 0, "fusion_lat": 0.0, "lat": 38.916244166666665, "bike_id": "1f54392be021a1a25ab4d7b47b090c1c", "fusion_lon": 0.0}, {"rental_uris": {"ios": "https://dc.lft.to/lastmile_qr_scan", "android": "https://dc.lft.to/lastmile_qr_scan"}, "type": "electric_scooter", "name": "4f774ddcb5ce842dfeec7c01bded5330", "is_reserved": 0, "lon": -77.00578983333334, "is_disabled": 0, "fusion_lat": 0.0, "lat": 38.90009583333333, "bike_id": "4f774ddcb5ce842dfeec7c01bded5330", "fusion_lon": 0.0}, {"rental_uris": {"ios": "https://dc.lft.to/lastmile_qr_scan", "android": "https://dc.lft.to/lastmile_qr_scan"}, "type": "electric_bike", "name": "b60d381cadcc6caed71c8f28808e93d2", "is_reserved": 0, "lon": -77.22826333333333, "is_disabled": 0, "fusion_lat": 0.0, "lat": 38.8826885, "bike_id": "b60d381cadcc6caed71c8f28808e93d2", "fusion_lon": 0.0}, {"rental_uris": {"ios": "https://dc.lft.to/lastmile_qr_scan", "android": "https://dc.lft.to/lastmile_qr_scan"}, "type": "electric_scooter", "name": "2f792d2597a138d5a34ba377b7836208", "is_reserved": 0, "lon": -76.93044633333334, "is_disabled": 0, "fusion_lat": 0.0, "lat": 38.883953166666664, "bike_id": "2f792d2597a138d5a34ba377b7836208", "fusion_lon": 0.0}, {"rental_uris": {"ios": "https://dc.lft.to/lastmile_qr_scan", "android": "https://dc.lft.to/lastmile_qr_scan"}, "type": "electric_scooter", "name": "63338ec0cbe9d4a9838fa1e31802ddbd", "is_reserved": 0, "lon": -76.9482745, "is_disabled": 0, "fusion_lat": 0.0, "lat": 38.885161, "bike_id": "63338ec0cbe9d4a9838fa1e31802ddbd", "fusion_lon": 0.0}, {"rental_uris": {"ios": "https://dc.lft.to/lastmile_qr_scan", "android": "https://dc.lft.to/lastmile_qr_scan"}, "type": "electric_scooter", "name": "53e58095b5e01a44577957ef05b1034e", "is_reserved": 0, "lon": -77.03872216666667, "is_disabled": 0, "fusion_lat": 0.0, "lat": 38.9066795, "bike_id": "53e58095b5e01a44577957ef05b1034e", "fusion_lon": 0.0}, {"rental_uris": {"ios": "https://dc.lft.to/lastmile_qr_scan", "android": "https://dc.lft.to/lastmile_qr_scan"}, "type": "electric_scooter", "name": "77a0eac61e3a640d506411128a7cc002", "is_reserved": 0, "lon": -77.01938416666667, "is_disabled": 0, "fusion_lat": 0.0, "lat": 38.9469805, "bike_id": "77a0eac61e3a640d506411128a7cc002", "fusion_lon": 0.0}, {"rental_uris": {"ios": "https://dc.lft.to/lastmile_qr_scan", "android": "https://dc.lft.to/lastmile_qr_scan"}, "type": "electric_scooter", "name": "68bcf548960b63065faedc4716806844", "is_reserved": 0, "lon": -77.018389, "is_disabled": 0, "fusion_lat": 0.0, "lat": 38.900913333333335, "bike_id": "68bcf548960b63065faedc4716806844", "fusion_lon": 0.0}, {"rental_uris": {"ios": "https://dc.lft.to/lastmile_qr_scan", "android": "https://dc.lft.to/lastmile_qr_scan"}, "type": "electric_scooter", "name": "5a8729f0c473cc5bc4cfcdc37c6f25da", "is_reserved": 0, "lon": -77.04333283333334, "is_disabled": 0, "fusion_lat": 0.0, "lat": 38.89222866666667, "bike_id": "5a8729f0c473cc5bc4cfcdc37c6f25da", "fusion_lon": 0.0}, {"rental_uris": {"ios": "https://dc.lft.to/lastmile_qr_scan", "android": "https://dc.lft.to/lastmile_qr_scan"}, "type": "electric_scooter", "name": "9dd54b1753c46f8fd8b46bf5611c3688", "is_reserved": 0, "lon": -77.026015, "is_disabled": 0, "fusion_lat": 0.0, "lat": 38.90508783333333, "bike_id": "9dd54b1753c46f8fd8b46bf5611c3688", "fusion_lon": 0.0}, {"rental_uris": {"ios": "https://dc.lft.to/lastmile_qr_scan", "android": "https://dc.lft.to/lastmile_qr_scan"}, "type": "electric_scooter", "name": "61a4b9e060e0ce234354aade6d3f50ff", "is_reserved": 0, "lon": -77.03090983333334, "is_disabled": 0, "fusion_lat": 0.0, "lat": 38.932996833333334, "bike_id": "61a4b9e060e0ce234354aade6d3f50ff", "fusion_lon": 0.0}, {"rental_uris": {"ios": "https://dc.lft.to/lastmile_qr_scan", "android": "https://dc.lft.to/lastmile_qr_scan"}, "type": "electric_scooter", "name": "119ec7be80dbd55d86dc66ee0789573f", "is_reserved": 0, "lon": -77.00781666666667, "is_disabled": 0, "fusion_lat": 0.0, "lat": 38.952458, "bike_id": "119ec7be80dbd55d86dc66ee0789573f", "fusion_lon": 0.0}, {"rental_uris": {"ios": "https://dc.lft.to/lastmile_qr_scan", "android": "https://dc.lft.to/lastmile_qr_scan"}, "type": "electric_bike", "name": "b100ab504b5afc8428f717c003b47411", "is_reserved": 0, "lon": -76.975587, "is_disabled": 0, "fusion_lat": 0.0, "lat": 38.904419, "bike_id": "b100ab504b5afc8428f717c003b47411", "fusion_lon": 0.0}, {"rental_uris": {"ios": "https://dc.lft.to/lastmile_qr_scan", "android": "https://dc.lft.to/lastmile_qr_scan"}, "type": "electric_bike", "name": "aa9c5cc0677517b3db2044f800ff3f9d", "is_reserved": 0, "lon": -76.95159266666667, "is_disabled": 0, "fusion_lat": 0.0, "lat": 39.084338833333334, "bike_id": "aa9c5cc0677517b3db2044f800ff3f9d", "fusion_lon": 0.0}, {"rental_uris": {"ios": "https://dc.lft.to/lastmile_qr_scan", "android": "https://dc.lft.to/lastmile_qr_scan"}, "type": "electric_scooter", "name": "1123b4e43a961b49435be6d3b2a37c9a", "is_reserved": 0, "lon": -77.02834983333334, "is_disabled": 0, "fusion_lat": 0.0, "lat": 38.91403616666667, "bike_id": "1123b4e43a961b49435be6d3b2a37c9a", "fusion_lon": 0.0}, {"rental_uris": {"ios": "https://dc.lft.to/lastmile_qr_scan", "android": "https://dc.lft.to/lastmile_qr_scan"}, "type": "electric_bike", "name": "f2d14aaddd28d3886f916d478b747376", "is_reserved": 0, "lon": -77.01445016666666, "is_disabled": 0, "fusion_lat": 0.0, "lat": 38.876768166666665, "bike_id": "f2d14aaddd28d3886f916d478b747376", "fusion_lon": 0.0}, {"rental_uris": {"ios": "https://dc.lft.to/lastmile_qr_scan", "android": "https://dc.lft.to/lastmile_qr_scan"}, "type": "electric_scooter", "name": "3ce7777b6d03ab2ea06512b8a763a0ec", "is_reserved": 0, "lon": -77.03546133333333, "is_disabled": 0, "fusion_lat": 0.0, "lat": 38.90498866666667, "bike_id": "3ce7777b6d03ab2ea06512b8a763a0ec", "fusion_lon": 0.0}, {"rental_uris": {"ios": "https://dc.lft.to/lastmile_qr_scan", "android": "https://dc.lft.to/lastmile_qr_scan"}, "type": "electric_scooter", "name": "9bd65d5667ddf6bfbd972f7ab4f14f4b", "is_reserved": 0, "lon": -77.013414, "is_disabled": 0, "fusion_lat": 0.0, "lat": 38.9191655, "bike_id": "9bd65d5667ddf6bfbd972f7ab4f14f4b", "fusion_lon": 0.0}, {"rental_uris": {"ios": "https://dc.lft.to/lastmile_qr_scan", "android": "https://dc.lft.to/lastmile_qr_scan"}, "type": "electric_scooter", "name": "eb01c649cba7b977437dcef776e93fcb", "is_reserved": 0, "lon": -77.04944866666666, "is_disabled": 0, "fusion_lat": 0.0, "lat": 38.92018733333333, "bike_id": "eb01c649cba7b977437dcef776e93fcb", "fusion_lon": 0.0}, {"rental_uris": {"ios": "https://dc.lft.to/lastmile_qr_scan", "android": "https://dc.lft.to/lastmile_qr_scan"}, "type": "electric_scooter", "name": "51f2ddd1e20cf2a6d1529ce3be99a987", "is_reserved": 0, "lon": -77.01837, "is_disabled": 0, "fusion_lat": 0.0, "lat": 38.90089233333333, "bike_id": "51f2ddd1e20cf2a6d1529ce3be99a987", "fusion_lon": 0.0}, {"rental_uris": {"ios": "https://dc.lft.to/lastmile_qr_scan", "android": "https://dc.lft.to/lastmile_qr_scan"}, "type": "electric_scooter", "name": "a54e32d746b7071169d323380f9468c7", "is_reserved": 0, "lon": -77.00154616666667, "is_disabled": 0, "fusion_lat": 0.0, "lat": 38.82131433333333, "bike_id": "a54e32d746b7071169d323380f9468c7", "fusion_lon": 0.0}, {"rental_uris": {"ios": "https://dc.lft.to/lastmile_qr_scan", "android": "https://dc.lft.to/lastmile_qr_scan"}, "type": "electric_scooter", "name": "60d31e850201fe5d30198c2f7f33b8bc", "is_reserved": 0, "lon": -77.0005875, "is_disabled": 0, "fusion_lat": 0.0, "lat": 38.961354, "bike_id": "60d31e850201fe5d30198c2f7f33b8bc", "fusion_lon": 0.0}, {"rental_uris": {"ios": "https://dc.lft.to/lastmile_qr_scan", "android": "https://dc.lft.to/lastmile_qr_scan"}, "type": "electric_scooter", "name": "c4524c987119ce863beb1fafb256b622", "is_reserved": 0, "lon": -76.97624266666666, "is_disabled": 0, "fusion_lat": 0.0, "lat": 38.905667, "bike_id": "c4524c987119ce863beb1fafb256b622", "fusion_lon": 0.0}, {"rental_uris": {"ios": "https://dc.lft.to/lastmile_qr_scan", "android": "https://dc.lft.to/lastmile_qr_scan"}, "type": "electric_scooter", "name": "258af54c6b078d66ee08ad8cb0012076", "is_reserved": 0, "lon": -77.034913, "is_disabled": 0, "fusion_lat": 0.0, "lat": 38.932805, "bike_id": "258af54c6b078d66ee08ad8cb0012076", "fusion_lon": 0.0}, {"rental_uris": {"ios": "https://dc.lft.to/lastmile_qr_scan", "android": "https://dc.lft.to/lastmile_qr_scan"}, "type": "electric_scooter", "name": "333f2ead194f8c7d0737c6e8b2290a3e", "is_reserved": 0, "lon": -77.020998, "is_disabled": 0, "fusion_lat": 0.0, "lat": 38.912020166666665, "bike_id": "333f2ead194f8c7d0737c6e8b2290a3e", "fusion_lon": 0.0}, {"rental_uris": {"ios": "https://dc.lft.to/lastmile_qr_scan", "android": "https://dc.lft.to/lastmile_qr_scan"}, "type": "electric_scooter", "name": "7e0a27f7b968ffddb1aac17aa3f05197", "is_reserved": 0, "lon": -77.055224, "is_disabled": 0, "fusion_lat": 0.0, "lat": 38.8972515, "bike_id": "7e0a27f7b968ffddb1aac17aa3f05197", "fusion_lon": 0.0}, {"rental_uris": {"ios": "https://dc.lft.to/lastmile_qr_scan", "android": "https://dc.lft.to/lastmile_qr_scan"}, "type": "electric_scooter", "name": "a91be1ad5d326782fe755fe87c940633", "is_reserved": 0, "lon": -77.02961866666666, "is_disabled": 0, "fusion_lat": 0.0, "lat": 38.922591833333335, "bike_id": "a91be1ad5d326782fe755fe87c940633", "fusion_lon": 0.0}, {"rental_uris": {"ios": "https://dc.lft.to/lastmile_qr_scan", "android": "https://dc.lft.to/lastmile_qr_scan"}, "type": "electric_scooter", "name": "a0e488dce6363e50ab86f4e7fbc671c2", "is_reserved": 0, "lon": -76.98940283333333, "is_disabled": 0, "fusion_lat": 0.0, "lat": 38.90397333333333, "bike_id": "a0e488dce6363e50ab86f4e7fbc671c2", "fusion_lon": 0.0}, {"rental_uris": {"ios": "https://dc.lft.to/lastmile_qr_scan", "android": "https://dc.lft.to/lastmile_qr_scan"}, "type": "electric_scooter", "name": "447b35b0c6b5ffb9555cec5b4d31ed84", "is_reserved": 0, "lon": -77.04138833333333, "is_disabled": 0, "fusion_lat": 0.0, "lat": 38.9037115, "bike_id": "447b35b0c6b5ffb9555cec5b4d31ed84", "fusion_lon": 0.0}, {"rental_uris": {"ios": "https://dc.lft.to/lastmile_qr_scan", "android": "https://dc.lft.to/lastmile_qr_scan"}, "type": "electric_scooter", "name": "dcd20be1afaa31db606f1c29679a9669", "is_reserved": 0, "lon": -77.0485795, "is_disabled": 0, "fusion_lat": 0.0, "lat": 38.90472583333333, "bike_id": "dcd20be1afaa31db606f1c29679a9669", "fusion_lon": 0.0}, {"rental_uris": {"ios": "https://dc.lft.to/lastmile_qr_scan", "android": "https://dc.lft.to/lastmile_qr_scan"}, "type": "electric_scooter", "name": "a7861f39cabf0bb11a7aed1d726a426e", "is_reserved": 0, "lon": -77.049473, "is_disabled": 0, "fusion_lat": 0.0, "lat": 38.920216333333336, "bike_id": "a7861f39cabf0bb11a7aed1d726a426e", "fusion_lon": 0.0}, {"rental_uris": {"ios": "https://dc.lft.to/lastmile_qr_scan", "android": "https://dc.lft.to/lastmile_qr_scan"}, "type": "electric_scooter", "name": "fba776cab79eca0804fcf29e96d93dfa", "is_reserved": 0, "lon": -77.0398145, "is_disabled": 0, "fusion_lat": 0.0, "lat": 38.9246265, "bike_id": "fba776cab79eca0804fcf29e96d93dfa", "fusion_lon": 0.0}, {"rental_uris": {"ios": "https://dc.lft.to/lastmile_qr_scan", "android": "https://dc.lft.to/lastmile_qr_scan"}, "type": "electric_scooter", "name": "aecb961c149565ec9b0537da35bc2a39", "is_reserved": 0, "lon": -77.04645533333333, "is_disabled": 0, "fusion_lat": 0.0, "lat": 38.897245166666664, "bike_id": "aecb961c149565ec9b0537da35bc2a39", "fusion_lon": 0.0}, {"rental_uris": {"ios": "https://dc.lft.to/lastmile_qr_scan", "android": "https://dc.lft.to/lastmile_qr_scan"}, "type": "electric_bike", "name": "7a6775a84e1c5692cce8b7e2643b6716", "is_reserved": 0, "lon": -77.23408266666667, "is_disabled": 0, "fusion_lat": 0.0, "lat": 38.87578366666666, "bike_id": "7a6775a84e1c5692cce8b7e2643b6716", "fusion_lon": 0.0}, {"rental_uris": {"ios": "https://dc.lft.to/lastmile_qr_scan", "android": "https://dc.lft.to/lastmile_qr_scan"}, "type": "electric_scooter", "name": "4b6c0cede2dcc68dbf7c35b4f1b0580d", "is_reserved": 0, "lon": -77.0447895, "is_disabled": 0, "fusion_lat": 0.0, "lat": 38.918538833333336, "bike_id": "4b6c0cede2dcc68dbf7c35b4f1b0580d", "fusion_lon": 0.0}, {"rental_uris": {"ios": "https://dc.lft.to/lastmile_qr_scan", "android": "https://dc.lft.to/lastmile_qr_scan"}, "type": "electric_bike", "name": "c8c497462de538a9e782e19bd60143f0", "is_reserved": 0, "lon": -76.96320033333333, "is_disabled": 0, "fusion_lat": 0.0, "lat": 38.9389195, "bike_id": "c8c497462de538a9e782e19bd60143f0", "fusion_lon": 0.0}, {"rental_uris": {"ios": "https://dc.lft.to/lastmile_qr_scan", "android": "https://dc.lft.to/lastmile_qr_scan"}, "type": "electric_scooter", "name": "d94563442f5e35e5beb6ea24678c084a", "is_reserved": 0, "lon": -77.042512, "is_disabled": 0, "fusion_lat": 0.0, "lat": 38.920655, "bike_id": "d94563442f5e35e5beb6ea24678c084a", "fusion_lon": 0.0}, {"rental_uris": {"ios": "https://dc.lft.to/lastmile_qr_scan", "android": "https://dc.lft.to/lastmile_qr_scan"}, "type": "electric_scooter", "name": "41c476ea32a23a31fff30ad9033dfc4a", "is_reserved": 0, "lon": -77.03632283333333, "is_disabled": 0, "fusion_lat": 0.0, "lat": 38.948157333333334, "bike_id": "41c476ea32a23a31fff30ad9033dfc4a", "fusion_lon": 0.0}, {"rental_uris": {"ios": "https://dc.lft.to/lastmile_qr_scan", "android": "https://dc.lft.to/lastmile_qr_scan"}, "type": "electric_scooter", "name": "ec2c3d86105ca558bc6c075dcb5bd190", "is_reserved": 0, "lon": -77.039575, "is_disabled": 0, "fusion_lat": 0.0, "lat": 38.89248416666667, "bike_id": "ec2c3d86105ca558bc6c075dcb5bd190", "fusion_lon": 0.0}, {"rental_uris": {"ios": "https://dc.lft.to/lastmile_qr_scan", "android": "https://dc.lft.to/lastmile_qr_scan"}, "type": "electric_scooter", "name": "f319072ee191fcc99263293071eb1722", "is_reserved": 0, "lon": -77.03786916666667, "is_disabled": 0, "fusion_lat": 0.0, "lat": 38.912711333333334, "bike_id": "f319072ee191fcc99263293071eb1722", "fusion_lon": 0.0}, {"rental_uris": {"ios": "https://dc.lft.to/lastmile_qr_scan", "android": "https://dc.lft.to/lastmile_qr_scan"}, "type": "electric_scooter", "name": "b29b2686052f51166ac7a7822cdfe749", "is_reserved": 0, "lon": -77.02734116666667, "is_disabled": 0, "fusion_lat": 0.0, "lat": 38.934023333333336, "bike_id": "b29b2686052f51166ac7a7822cdfe749", "fusion_lon": 0.0}, {"rental_uris": {"ios": "https://dc.lft.to/lastmile_qr_scan", "android": "https://dc.lft.to/lastmile_qr_scan"}, "type": "electric_scooter", "name": "782e9d62aa9eaa571f3c72732bc80afc", "is_reserved": 0, "lon": -77.07850916666666, "is_disabled": 0, "fusion_lat": 0.0, "lat": 38.93158666666667, "bike_id": "782e9d62aa9eaa571f3c72732bc80afc", "fusion_lon": 0.0}, {"rental_uris": {"ios": "https://dc.lft.to/lastmile_qr_scan", "android": "https://dc.lft.to/lastmile_qr_scan"}, "type": "electric_scooter", "name": "1b690e1ed728fa3816e97e5e9ca306b7", "is_reserved": 0, "lon": -77.000614, "is_disabled": 0, "fusion_lat": 0.0, "lat": 38.919083666666666, "bike_id": "1b690e1ed728fa3816e97e5e9ca306b7", "fusion_lon": 0.0}, {"rental_uris": {"ios": "https://dc.lft.to/lastmile_qr_scan", "android": "https://dc.lft.to/lastmile_qr_scan"}, "type": "electric_scooter", "name": "960e8e508fa678f82c9fa90a0a837c79", "is_reserved": 0, "lon": -77.03995866666666, "is_disabled": 0, "fusion_lat": 0.0, "lat": 38.9418345, "bike_id": "960e8e508fa678f82c9fa90a0a837c79", "fusion_lon": 0.0}, {"rental_uris": {"ios": "https://dc.lft.to/lastmile_qr_scan", "android": "https://dc.lft.to/lastmile_qr_scan"}, "type": "electric_scooter", "name": "ce7b2a50e4285eaf700e85595fa73b24", "is_reserved": 0, "lon": -77.00952183333334, "is_disabled": 0, "fusion_lat": 0.0, "lat": 38.897765, "bike_id": "ce7b2a50e4285eaf700e85595fa73b24", "fusion_lon": 0.0}, {"rental_uris": {"ios": "https://dc.lft.to/lastmile_qr_scan", "android": "https://dc.lft.to/lastmile_qr_scan"}, "type": "electric_bike", "name": "ccfea2211032bf55569e9c61b9ab72cb", "is_reserved": 0, "lon": -76.970089, "is_disabled": 0, "fusion_lat": 0.0, "lat": 38.8636775, "bike_id": "ccfea2211032bf55569e9c61b9ab72cb", "fusion_lon": 0.0}, {"rental_uris": {"ios": "https://dc.lft.to/lastmile_qr_scan", "android": "https://dc.lft.to/lastmile_qr_scan"}, "type": "electric_bike", "name": "f6dbb16e6ab37633037b0977b0b0de0d", "is_reserved": 0, "lon": -77.08140466666667, "is_disabled": 0, "fusion_lat": 0.0, "lat": 38.82298866666667, "bike_id": "f6dbb16e6ab37633037b0977b0b0de0d", "fusion_lon": 0.0}, {"rental_uris": {"ios": "https://dc.lft.to/lastmile_qr_scan", "android": "https://dc.lft.to/lastmile_qr_scan"}, "type": "electric_scooter", "name": "ce76f9af6250723625766e90e264fe50", "is_reserved": 0, "lon": -77.05226016666667, "is_disabled": 0, "fusion_lat": 0.0, "lat": 38.90021, "bike_id": "ce76f9af6250723625766e90e264fe50", "fusion_lon": 0.0}, {"rental_uris": {"ios": "https://dc.lft.to/lastmile_qr_scan", "android": "https://dc.lft.to/lastmile_qr_scan"}, "type": "electric_scooter", "name": "cd72c8bce793dcdb0a0f680a7d7a4082", "is_reserved": 0, "lon": -77.03320116666667, "is_disabled": 0, "fusion_lat": 0.0, "lat": 38.91321516666667, "bike_id": "cd72c8bce793dcdb0a0f680a7d7a4082", "fusion_lon": 0.0}, {"rental_uris": {"ios": "https://dc.lft.to/lastmile_qr_scan", "android": "https://dc.lft.to/lastmile_qr_scan"}, "type": "electric_scooter", "name": "d1369c277c814c2351bab3317e5a3c87", "is_reserved": 0, "lon": -77.00758783333333, "is_disabled": 0, "fusion_lat": 0.0, "lat": 38.925263, "bike_id": "d1369c277c814c2351bab3317e5a3c87", "fusion_lon": 0.0}, {"rental_uris": {"ios": "https://dc.lft.to/lastmile_qr_scan", "android": "https://dc.lft.to/lastmile_qr_scan"}, "type": "electric_scooter", "name": "1eae8f6a44339eb5243d20e6e858b2b8", "is_reserved": 0, "lon": -77.06470116666667, "is_disabled": 0, "fusion_lat": 0.0, "lat": 38.910267833333336, "bike_id": "1eae8f6a44339eb5243d20e6e858b2b8", "fusion_lon": 0.0}, {"rental_uris": {"ios": "https://dc.lft.to/lastmile_qr_scan", "android": "https://dc.lft.to/lastmile_qr_scan"}, "type": "electric_scooter", "name": "ad1fd454528f53da32dd4a469225f679", "is_reserved": 0, "lon": -77.00911066666667, "is_disabled": 0, "fusion_lat": 0.0, "lat": 38.8988085, "bike_id": "ad1fd454528f53da32dd4a469225f679", "fusion_lon": 0.0}, {"rental_uris": {"ios": "https://dc.lft.to/lastmile_qr_scan", "android": "https://dc.lft.to/lastmile_qr_scan"}, "type": "electric_scooter", "name": "85be624793094efca130d4041db5d7b5", "is_reserved": 0, "lon": -77.04744633333334, "is_disabled": 0, "fusion_lat": 0.0, "lat": 38.9086245, "bike_id": "85be624793094efca130d4041db5d7b5", "fusion_lon": 0.0}, {"rental_uris": {"ios": "https://dc.lft.to/lastmile_qr_scan", "android": "https://dc.lft.to/lastmile_qr_scan"}, "type": "electric_scooter", "name": "dcbae15157b558b29edc04d3c4e33bf5", "is_reserved": 0, "lon": -77.00415466666666, "is_disabled": 0, "fusion_lat": 0.0, "lat": 38.90562283333333, "bike_id": "dcbae15157b558b29edc04d3c4e33bf5", "fusion_lon": 0.0}, {"rental_uris": {"ios": "https://dc.lft.to/lastmile_qr_scan", "android": "https://dc.lft.to/lastmile_qr_scan"}, "type": "electric_scooter", "name": "bdd9812baa2a6f7af16acd3bcb04e6a0", "is_reserved": 0, "lon": -76.979382, "is_disabled": 0, "fusion_lat": 0.0, "lat": 38.906622666666664, "bike_id": "bdd9812baa2a6f7af16acd3bcb04e6a0", "fusion_lon": 0.0}, {"rental_uris": {"ios": "https://dc.lft.to/lastmile_qr_scan", "android": "https://dc.lft.to/lastmile_qr_scan"}, "type": "electric_bike", "name": "afc17d30a7efb79e8c00c63efa968991", "is_reserved": 0, "lon": -77.00137933333333, "is_disabled": 0, "fusion_lat": 0.0, "lat": 38.995002166666666, "bike_id": "afc17d30a7efb79e8c00c63efa968991", "fusion_lon": 0.0}, {"rental_uris": {"ios": "https://dc.lft.to/lastmile_qr_scan", "android": "https://dc.lft.to/lastmile_qr_scan"}, "type": "electric_bike", "name": "a486599da5e0424da773b0c90abd9a3e", "is_reserved": 0, "lon": -76.9180765, "is_disabled": 0, "fusion_lat": 0.0, "lat": 39.000017166666666, "bike_id": "a486599da5e0424da773b0c90abd9a3e", "fusion_lon": 0.0}, {"rental_uris": {"ios": "https://dc.lft.to/lastmile_qr_scan", "android": "https://dc.lft.to/lastmile_qr_scan"}, "type": "electric_scooter", "name": "3f1bb0ffca78e3fafdc275629089b766", "is_reserved": 0, "lon": -77.026885, "is_disabled": 0, "fusion_lat": 0.0, "lat": 38.9086935, "bike_id": "3f1bb0ffca78e3fafdc275629089b766", "fusion_lon": 0.0}, {"rental_uris": {"ios": "https://dc.lft.to/lastmile_qr_scan", "android": "https://dc.lft.to/lastmile_qr_scan"}, "type": "electric_scooter", "name": "5bdc1e04670aaca8af6abe7213ccfd17", "is_reserved": 0, "lon": -76.98888233333334, "is_disabled": 0, "fusion_lat": 0.0, "lat": 38.8665685, "bike_id": "5bdc1e04670aaca8af6abe7213ccfd17", "fusion_lon": 0.0}, {"rental_uris": {"ios": "https://dc.lft.to/lastmile_qr_scan", "android": "https://dc.lft.to/lastmile_qr_scan"}, "type": "electric_scooter", "name": "556267b5a8470519e2fe7dccd51b16e3", "is_reserved": 0, "lon": -77.03610016666667, "is_disabled": 0, "fusion_lat": 0.0, "lat": 38.923414666666666, "bike_id": "556267b5a8470519e2fe7dccd51b16e3", "fusion_lon": 0.0}, {"rental_uris": {"ios": "https://dc.lft.to/lastmile_qr_scan", "android": "https://dc.lft.to/lastmile_qr_scan"}, "type": "electric_scooter", "name": "03557d27d2160e999bd9c702565c1244", "is_reserved": 0, "lon": -77.0177805, "is_disabled": 0, "fusion_lat": 0.0, "lat": 38.944161, "bike_id": "03557d27d2160e999bd9c702565c1244", "fusion_lon": 0.0}, {"rental_uris": {"ios": "https://dc.lft.to/lastmile_qr_scan", "android": "https://dc.lft.to/lastmile_qr_scan"}, "type": "electric_scooter", "name": "3405cf8e1eeaa076e8f4b4bacd4a54a3", "is_reserved": 0, "lon": -77.04549633333333, "is_disabled": 0, "fusion_lat": 0.0, "lat": 38.90974333333333, "bike_id": "3405cf8e1eeaa076e8f4b4bacd4a54a3", "fusion_lon": 0.0}, {"rental_uris": {"ios": "https://dc.lft.to/lastmile_qr_scan", "android": "https://dc.lft.to/lastmile_qr_scan"}, "type": "electric_scooter", "name": "1a08f748e6312a0ae592b7738cb522d8", "is_reserved": 0, "lon": -77.02938216666666, "is_disabled": 0, "fusion_lat": 0.0, "lat": 38.9002625, "bike_id": "1a08f748e6312a0ae592b7738cb522d8", "fusion_lon": 0.0}, {"rental_uris": {"ios": "https://dc.lft.to/lastmile_qr_scan", "android": "https://dc.lft.to/lastmile_qr_scan"}, "type": "electric_scooter", "name": "d802a3db01c695feb6b4036fac9be877", "is_reserved": 0, "lon": -77.00551066666667, "is_disabled": 0, "fusion_lat": 0.0, "lat": 38.8753305, "bike_id": "d802a3db01c695feb6b4036fac9be877", "fusion_lon": 0.0}, {"rental_uris": {"ios": "https://dc.lft.to/lastmile_qr_scan", "android": "https://dc.lft.to/lastmile_qr_scan"}, "type": "electric_scooter", "name": "978c6bc8f08a95c5d39dabc0b5edd12b", "is_reserved": 0, "lon": -77.01795666666666, "is_disabled": 0, "fusion_lat": 0.0, "lat": 38.885980833333335, "bike_id": "978c6bc8f08a95c5d39dabc0b5edd12b", "fusion_lon": 0.0}, {"rental_uris": {"ios": "https://dc.lft.to/lastmile_qr_scan", "android": "https://dc.lft.to/lastmile_qr_scan"}, "type": "electric_bike", "name": "e978537d5e685770bd660fb330c386b5", "is_reserved": 0, "lon": -77.12977466666666, "is_disabled": 0, "fusion_lat": 0.0, "lat": 38.79985283333333, "bike_id": "e978537d5e685770bd660fb330c386b5", "fusion_lon": 0.0}, {"rental_uris": {"ios": "https://dc.lft.to/lastmile_qr_scan", "android": "https://dc.lft.to/lastmile_qr_scan"}, "type": "electric_scooter", "name": "94e7a8053312c61822ab51bc91ca73bd", "is_reserved": 0, "lon": -76.93292866666667, "is_disabled": 0, "fusion_lat": 0.0, "lat": 38.896856666666665, "bike_id": "94e7a8053312c61822ab51bc91ca73bd", "fusion_lon": 0.0}, {"rental_uris": {"ios": "https://dc.lft.to/lastmile_qr_scan", "android": "https://dc.lft.to/lastmile_qr_scan"}, "type": "electric_bike", "name": "50b0175497605638e9462024d1abfd20", "is_reserved": 0, "lon": -76.9835205, "is_disabled": 0, "fusion_lat": 0.0, "lat": 38.86262933333333, "bike_id": "50b0175497605638e9462024d1abfd20", "fusion_lon": 0.0}, {"rental_uris": {"ios": "https://dc.lft.to/lastmile_qr_scan", "android": "https://dc.lft.to/lastmile_qr_scan"}, "type": "electric_scooter", "name": "0e55840be1b285cdadce1cbb86bbd9d2", "is_reserved": 0, "lon": -76.9995235, "is_disabled": 0, "fusion_lat": 0.0, "lat": 38.8941655, "bike_id": "0e55840be1b285cdadce1cbb86bbd9d2", "fusion_lon": 0.0}, {"rental_uris": {"ios": "https://dc.lft.to/lastmile_qr_scan", "android": "https://dc.lft.to/lastmile_qr_scan"}, "type": "electric_bike", "name": "3db5166a7b70fa74dcec3cbd6237f441", "is_reserved": 0, "lon": -77.0019285, "is_disabled": 0, "fusion_lat": 0.0, "lat": 38.9415, "bike_id": "3db5166a7b70fa74dcec3cbd6237f441", "fusion_lon": 0.0}, {"rental_uris": {"ios": "https://dc.lft.to/lastmile_qr_scan", "android": "https://dc.lft.to/lastmile_qr_scan"}, "type": "electric_scooter", "name": "93a6979a6239853f51b18cdd33ef3ecc", "is_reserved": 0, "lon": -77.0175765, "is_disabled": 0, "fusion_lat": 0.0, "lat": 38.876849166666666, "bike_id": "93a6979a6239853f51b18cdd33ef3ecc", "fusion_lon": 0.0}, {"rental_uris": {"ios": "https://dc.lft.to/lastmile_qr_scan", "android": "https://dc.lft.to/lastmile_qr_scan"}, "type": "electric_scooter", "name": "48021686da0dc94ecfe45a0f9165ea76", "is_reserved": 0, "lon": -76.92635516666667, "is_disabled": 0, "fusion_lat": 0.0, "lat": 38.90194316666667, "bike_id": "48021686da0dc94ecfe45a0f9165ea76", "fusion_lon": 0.0}, {"rental_uris": {"ios": "https://dc.lft.to/lastmile_qr_scan", "android": "https://dc.lft.to/lastmile_qr_scan"}, "type": "electric_scooter", "name": "eed861e8b60d5074f2a8d2559d2f03a8", "is_reserved": 0, "lon": -77.0438295, "is_disabled": 0, "fusion_lat": 0.0, "lat": 38.9342345, "bike_id": "eed861e8b60d5074f2a8d2559d2f03a8", "fusion_lon": 0.0}, {"rental_uris": {"ios": "https://dc.lft.to/lastmile_qr_scan", "android": "https://dc.lft.to/lastmile_qr_scan"}, "type": "electric_scooter", "name": "2b883e4a3a809f3abeeeba72cc8dc42c", "is_reserved": 0, "lon": -77.02168216666666, "is_disabled": 0, "fusion_lat": 0.0, "lat": 38.929947166666665, "bike_id": "2b883e4a3a809f3abeeeba72cc8dc42c", "fusion_lon": 0.0}, {"rental_uris": {"ios": "https://dc.lft.to/lastmile_qr_scan", "android": "https://dc.lft.to/lastmile_qr_scan"}, "type": "electric_scooter", "name": "d8229f36f6c8a7e75769a2ebc18fe4cf", "is_reserved": 0, "lon": -77.04124516666667, "is_disabled": 0, "fusion_lat": 0.0, "lat": 38.92169916666667, "bike_id": "d8229f36f6c8a7e75769a2ebc18fe4cf", "fusion_lon": 0.0}, {"rental_uris": {"ios": "https://dc.lft.to/lastmile_qr_scan", "android": "https://dc.lft.to/lastmile_qr_scan"}, "type": "electric_scooter", "name": "4e3af5acb1d5602d074a59b88f7236cb", "is_reserved": 0, "lon": -77.03380316666667, "is_disabled": 0, "fusion_lat": 0.0, "lat": 38.899667, "bike_id": "4e3af5acb1d5602d074a59b88f7236cb", "fusion_lon": 0.0}, {"rental_uris": {"ios": "https://dc.lft.to/lastmile_qr_scan", "android": "https://dc.lft.to/lastmile_qr_scan"}, "type": "electric_scooter", "name": "f311cf5e66e2ec1925a946fa953dd85a", "is_reserved": 0, "lon": -77.03483016666667, "is_disabled": 0, "fusion_lat": 0.0, "lat": 38.93115366666667, "bike_id": "f311cf5e66e2ec1925a946fa953dd85a", "fusion_lon": 0.0}, {"rental_uris": {"ios": "https://dc.lft.to/lastmile_qr_scan", "android": "https://dc.lft.to/lastmile_qr_scan"}, "type": "electric_scooter", "name": "e0c05d152e8ba916c22d7835f7d40500", "is_reserved": 0, "lon": -77.02043016666667, "is_disabled": 0, "fusion_lat": 0.0, "lat": 38.893061333333335, "bike_id": "e0c05d152e8ba916c22d7835f7d40500", "fusion_lon": 0.0}, {"rental_uris": {"ios": "https://dc.lft.to/lastmile_qr_scan", "android": "https://dc.lft.to/lastmile_qr_scan"}, "type": "electric_scooter", "name": "36c71e9c18d34ae1a400e325e8a6f260", "is_reserved": 0, "lon": -77.02216566666667, "is_disabled": 0, "fusion_lat": 0.0, "lat": 38.9247145, "bike_id": "36c71e9c18d34ae1a400e325e8a6f260", "fusion_lon": 0.0}, {"rental_uris": {"ios": "https://dc.lft.to/lastmile_qr_scan", "android": "https://dc.lft.to/lastmile_qr_scan"}, "type": "electric_scooter", "name": "c904718bf09960acca7d2e876d1ac741", "is_reserved": 0, "lon": -76.98336483333334, "is_disabled": 0, "fusion_lat": 0.0, "lat": 38.90085416666667, "bike_id": "c904718bf09960acca7d2e876d1ac741", "fusion_lon": 0.0}, {"rental_uris": {"ios": "https://dc.lft.to/lastmile_qr_scan", "android": "https://dc.lft.to/lastmile_qr_scan"}, "type": "electric_scooter", "name": "53f937e268c2d41de95dec20dc6b5741", "is_reserved": 0, "lon": -77.02271583333334, "is_disabled": 0, "fusion_lat": 0.0, "lat": 38.9163975, "bike_id": "53f937e268c2d41de95dec20dc6b5741", "fusion_lon": 0.0}, {"rental_uris": {"ios": "https://dc.lft.to/lastmile_qr_scan", "android": "https://dc.lft.to/lastmile_qr_scan"}, "type": "electric_scooter", "name": "99c5227380bda4ec625e09bd4eb6d08b", "is_reserved": 0, "lon": -77.03039516666666, "is_disabled": 0, "fusion_lat": 0.0, "lat": 38.922403833333334, "bike_id": "99c5227380bda4ec625e09bd4eb6d08b", "fusion_lon": 0.0}, {"rental_uris": {"ios": "https://dc.lft.to/lastmile_qr_scan", "android": "https://dc.lft.to/lastmile_qr_scan"}, "type": "electric_scooter", "name": "5ebf3fcdd14012b1b61edd65fd13129c", "is_reserved": 0, "lon": -77.03258616666666, "is_disabled": 0, "fusion_lat": 0.0, "lat": 38.939814166666665, "bike_id": "5ebf3fcdd14012b1b61edd65fd13129c", "fusion_lon": 0.0}, {"rental_uris": {"ios": "https://dc.lft.to/lastmile_qr_scan", "android": "https://dc.lft.to/lastmile_qr_scan"}, "type": "electric_scooter", "name": "6ae314ac0d6d8ccabd90cf066f9f54ff", "is_reserved": 0, "lon": -77.03766316666666, "is_disabled": 0, "fusion_lat": 0.0, "lat": 38.9067105, "bike_id": "6ae314ac0d6d8ccabd90cf066f9f54ff", "fusion_lon": 0.0}, {"rental_uris": {"ios": "https://dc.lft.to/lastmile_qr_scan", "android": "https://dc.lft.to/lastmile_qr_scan"}, "type": "electric_scooter", "name": "e2a29ad4f6c761e6dafecdaad67502dd", "is_reserved": 0, "lon": -77.01775366666666, "is_disabled": 0, "fusion_lat": 0.0, "lat": 38.905071, "bike_id": "e2a29ad4f6c761e6dafecdaad67502dd", "fusion_lon": 0.0}, {"rental_uris": {"ios": "https://dc.lft.to/lastmile_qr_scan", "android": "https://dc.lft.to/lastmile_qr_scan"}, "type": "electric_scooter", "name": "44787fee89a3636897db12a9e3ed389e", "is_reserved": 0, "lon": -76.95207183333333, "is_disabled": 0, "fusion_lat": 0.0, "lat": 38.9051005, "bike_id": "44787fee89a3636897db12a9e3ed389e", "fusion_lon": 0.0}, {"rental_uris": {"ios": "https://dc.lft.to/lastmile_qr_scan", "android": "https://dc.lft.to/lastmile_qr_scan"}, "type": "electric_scooter", "name": "0c944afe41e8b4b9cba5a7ee8b8ed396", "is_reserved": 0, "lon": -77.035218, "is_disabled": 0, "fusion_lat": 0.0, "lat": 38.92255683333333, "bike_id": "0c944afe41e8b4b9cba5a7ee8b8ed396", "fusion_lon": 0.0}, {"rental_uris": {"ios": "https://dc.lft.to/lastmile_qr_scan", "android": "https://dc.lft.to/lastmile_qr_scan"}, "type": "electric_scooter", "name": "c70f62bd73d0a6e13e3ea2bee7c7530e", "is_reserved": 0, "lon": -77.02442066666667, "is_disabled": 0, "fusion_lat": 0.0, "lat": 38.89734966666666, "bike_id": "c70f62bd73d0a6e13e3ea2bee7c7530e", "fusion_lon": 0.0}, {"rental_uris": {"ios": "https://dc.lft.to/lastmile_qr_scan", "android": "https://dc.lft.to/lastmile_qr_scan"}, "type": "electric_scooter", "name": "72b0421da2ad2f605f039f61c91ef038", "is_reserved": 0, "lon": -77.04906066666666, "is_disabled": 0, "fusion_lat": 0.0, "lat": 38.903782, "bike_id": "72b0421da2ad2f605f039f61c91ef038", "fusion_lon": 0.0}, {"rental_uris": {"ios": "https://dc.lft.to/lastmile_qr_scan", "android": "https://dc.lft.to/lastmile_qr_scan"}, "type": "electric_scooter", "name": "9c8b61b3f4c2a04a8d0a3bc2e7db4a4b", "is_reserved": 0, "lon": -77.012068, "is_disabled": 0, "fusion_lat": 0.0, "lat": 38.87181733333333, "bike_id": "9c8b61b3f4c2a04a8d0a3bc2e7db4a4b", "fusion_lon": 0.0}, {"rental_uris": {"ios": "https://dc.lft.to/lastmile_qr_scan", "android": "https://dc.lft.to/lastmile_qr_scan"}, "type": "electric_scooter", "name": "4827e149088955ad6628fbc8ff44efb2", "is_reserved": 0, "lon": -77.00718033333334, "is_disabled": 0, "fusion_lat": 0.0, "lat": 38.905592666666664, "bike_id": "4827e149088955ad6628fbc8ff44efb2", "fusion_lon": 0.0}, {"rental_uris": {"ios": "https://dc.lft.to/lastmile_qr_scan", "android": "https://dc.lft.to/lastmile_qr_scan"}, "type": "electric_bike", "name": "ea6982ba8fed31463f140b4066501fdb", "is_reserved": 0, "lon": -77.03662016666667, "is_disabled": 0, "fusion_lat": 0.0, "lat": 38.9363135, "bike_id": "ea6982ba8fed31463f140b4066501fdb", "fusion_lon": 0.0}, {"rental_uris": {"ios": "https://dc.lft.to/lastmile_qr_scan", "android": "https://dc.lft.to/lastmile_qr_scan"}, "type": "electric_scooter", "name": "75b70f74a37289e85957ae0ee448c5e4", "is_reserved": 0, "lon": -77.034788, "is_disabled": 0, "fusion_lat": 0.0, "lat": 38.9355765, "bike_id": "75b70f74a37289e85957ae0ee448c5e4", "fusion_lon": 0.0}, {"rental_uris": {"ios": "https://dc.lft.to/lastmile_qr_scan", "android": "https://dc.lft.to/lastmile_qr_scan"}, "type": "electric_scooter", "name": "0f1336f54a562f3a353fb94ca5c819cf", "is_reserved": 0, "lon": -77.058402, "is_disabled": 0, "fusion_lat": 0.0, "lat": 38.93053, "bike_id": "0f1336f54a562f3a353fb94ca5c819cf", "fusion_lon": 0.0}, {"rental_uris": {"ios": "https://dc.lft.to/lastmile_qr_scan", "android": "https://dc.lft.to/lastmile_qr_scan"}, "type": "electric_bike", "name": "82b9bffb3b03d19e947d3d7a30f1cea0", "is_reserved": 0, "lon": -76.97955366666666, "is_disabled": 0, "fusion_lat": 0.0, "lat": 38.92036983333333, "bike_id": "82b9bffb3b03d19e947d3d7a30f1cea0", "fusion_lon": 0.0}, {"rental_uris": {"ios": "https://dc.lft.to/lastmile_qr_scan", "android": "https://dc.lft.to/lastmile_qr_scan"}, "type": "electric_scooter", "name": "86760df21d286223f871f50abf005b95", "is_reserved": 0, "lon": -77.03198683333333, "is_disabled": 0, "fusion_lat": 0.0, "lat": 38.9057505, "bike_id": "86760df21d286223f871f50abf005b95", "fusion_lon": 0.0}, {"rental_uris": {"ios": "https://dc.lft.to/lastmile_qr_scan", "android": "https://dc.lft.to/lastmile_qr_scan"}, "type": "electric_scooter", "name": "8b032ecb49d9306b253d2ff4002749a4", "is_reserved": 0, "lon": -76.92828283333333, "is_disabled": 0, "fusion_lat": 0.0, "lat": 38.90177683333334, "bike_id": "8b032ecb49d9306b253d2ff4002749a4", "fusion_lon": 0.0}, {"rental_uris": {"ios": "https://dc.lft.to/lastmile_qr_scan", "android": "https://dc.lft.to/lastmile_qr_scan"}, "type": "electric_scooter", "name": "b5f17ca007cefa976b87f56249a6446c", "is_reserved": 0, "lon": -77.04629283333334, "is_disabled": 0, "fusion_lat": 0.0, "lat": 38.89739866666667, "bike_id": "b5f17ca007cefa976b87f56249a6446c", "fusion_lon": 0.0}, {"rental_uris": {"ios": "https://dc.lft.to/lastmile_qr_scan", "android": "https://dc.lft.to/lastmile_qr_scan"}, "type": "electric_scooter", "name": "d128d5392b39ed41bb10ea001901dfa3", "is_reserved": 0, "lon": -76.9474985, "is_disabled": 0, "fusion_lat": 0.0, "lat": 38.893610333333335, "bike_id": "d128d5392b39ed41bb10ea001901dfa3", "fusion_lon": 0.0}, {"rental_uris": {"ios": "https://dc.lft.to/lastmile_qr_scan", "android": "https://dc.lft.to/lastmile_qr_scan"}, "type": "electric_bike", "name": "50aafaa4fcbc86f2f6006e796a567233", "is_reserved": 0, "lon": -76.99582116666667, "is_disabled": 0, "fusion_lat": 0.0, "lat": 38.86224466666667, "bike_id": "50aafaa4fcbc86f2f6006e796a567233", "fusion_lon": 0.0}, {"rental_uris": {"ios": "https://dc.lft.to/lastmile_qr_scan", "android": "https://dc.lft.to/lastmile_qr_scan"}, "type": "electric_scooter", "name": "b0dd1647a6171f4eeff69366d3c6c9e3", "is_reserved": 0, "lon": -77.06370683333333, "is_disabled": 0, "fusion_lat": 0.0, "lat": 38.9355875, "bike_id": "b0dd1647a6171f4eeff69366d3c6c9e3", "fusion_lon": 0.0}, {"rental_uris": {"ios": "https://dc.lft.to/lastmile_qr_scan", "android": "https://dc.lft.to/lastmile_qr_scan"}, "type": "electric_scooter", "name": "9fdac63247474a119e9355a98fa454c3", "is_reserved": 0, "lon": -77.02295866666667, "is_disabled": 0, "fusion_lat": 0.0, "lat": 38.8998205, "bike_id": "9fdac63247474a119e9355a98fa454c3", "fusion_lon": 0.0}, {"rental_uris": {"ios": "https://dc.lft.to/lastmile_qr_scan", "android": "https://dc.lft.to/lastmile_qr_scan"}, "type": "electric_scooter", "name": "78755d88caeb182fb28014f9e0a95013", "is_reserved": 0, "lon": -77.038034, "is_disabled": 0, "fusion_lat": 0.0, "lat": 38.93221066666667, "bike_id": "78755d88caeb182fb28014f9e0a95013", "fusion_lon": 0.0}, {"rental_uris": {"ios": "https://dc.lft.to/lastmile_qr_scan", "android": "https://dc.lft.to/lastmile_qr_scan"}, "type": "electric_scooter", "name": "bf1e2552405a9d6f86f734934c206adb", "is_reserved": 0, "lon": -77.0212965, "is_disabled": 0, "fusion_lat": 0.0, "lat": 38.93285233333334, "bike_id": "bf1e2552405a9d6f86f734934c206adb", "fusion_lon": 0.0}, {"rental_uris": {"ios": "https://dc.lft.to/lastmile_qr_scan", "android": "https://dc.lft.to/lastmile_qr_scan"}, "type": "electric_bike", "name": "59700647cabfe21b63cce224a09f9126", "is_reserved": 0, "lon": -77.126504, "is_disabled": 0, "fusion_lat": 0.0, "lat": 38.81907616666667, "bike_id": "59700647cabfe21b63cce224a09f9126", "fusion_lon": 0.0}, {"rental_uris": {"ios": "https://dc.lft.to/lastmile_qr_scan", "android": "https://dc.lft.to/lastmile_qr_scan"}, "type": "electric_scooter", "name": "04e060dc98c41deb55ab0810032418b5", "is_reserved": 0, "lon": -77.04857233333334, "is_disabled": 0, "fusion_lat": 0.0, "lat": 38.904665666666666, "bike_id": "04e060dc98c41deb55ab0810032418b5", "fusion_lon": 0.0}, {"rental_uris": {"ios": "https://dc.lft.to/lastmile_qr_scan", "android": "https://dc.lft.to/lastmile_qr_scan"}, "type": "electric_scooter", "name": "d6173ae7d8e8f3ac33605355c27133de", "is_reserved": 0, "lon": -77.04146316666667, "is_disabled": 0, "fusion_lat": 0.0, "lat": 38.922924, "bike_id": "d6173ae7d8e8f3ac33605355c27133de", "fusion_lon": 0.0}, {"rental_uris": {"ios": "https://dc.lft.to/lastmile_qr_scan", "android": "https://dc.lft.to/lastmile_qr_scan"}, "type": "electric_scooter", "name": "4d48c4cdc51f6876774b0c376fd8136e", "is_reserved": 0, "lon": -77.01219133333333, "is_disabled": 0, "fusion_lat": 0.0, "lat": 38.91492733333333, "bike_id": "4d48c4cdc51f6876774b0c376fd8136e", "fusion_lon": 0.0}, {"rental_uris": {"ios": "https://dc.lft.to/lastmile_qr_scan", "android": "https://dc.lft.to/lastmile_qr_scan"}, "type": "electric_scooter", "name": "3ca52ca79712e4d82a33b25acc68db7f", "is_reserved": 0, "lon": -77.03855016666667, "is_disabled": 0, "fusion_lat": 0.0, "lat": 38.91276583333333, "bike_id": "3ca52ca79712e4d82a33b25acc68db7f", "fusion_lon": 0.0}, {"rental_uris": {"ios": "https://dc.lft.to/lastmile_qr_scan", "android": "https://dc.lft.to/lastmile_qr_scan"}, "type": "electric_scooter", "name": "7f76ff778cf8cd6daa01bdd24e3d0ecd", "is_reserved": 0, "lon": -77.0307745, "is_disabled": 0, "fusion_lat": 0.0, "lat": 38.93872783333333, "bike_id": "7f76ff778cf8cd6daa01bdd24e3d0ecd", "fusion_lon": 0.0}, {"rental_uris": {"ios": "https://dc.lft.to/lastmile_qr_scan", "android": "https://dc.lft.to/lastmile_qr_scan"}, "type": "electric_scooter", "name": "80739a1a659d4908a3616657b6fb384c", "is_reserved": 0, "lon": -77.02238866666667, "is_disabled": 0, "fusion_lat": 0.0, "lat": 38.90853116666667, "bike_id": "80739a1a659d4908a3616657b6fb384c", "fusion_lon": 0.0}, {"rental_uris": {"ios": "https://dc.lft.to/lastmile_qr_scan", "android": "https://dc.lft.to/lastmile_qr_scan"}, "type": "electric_scooter", "name": "2928762f0967b1c5b4169a87274b6118", "is_reserved": 0, "lon": -77.03677683333333, "is_disabled": 0, "fusion_lat": 0.0, "lat": 38.939326333333334, "bike_id": "2928762f0967b1c5b4169a87274b6118", "fusion_lon": 0.0}, {"rental_uris": {"ios": "https://dc.lft.to/lastmile_qr_scan", "android": "https://dc.lft.to/lastmile_qr_scan"}, "type": "electric_scooter", "name": "ddbf4485b2538ad1940e16e83eacb6b0", "is_reserved": 0, "lon": -77.04319583333333, "is_disabled": 0, "fusion_lat": 0.0, "lat": 38.92211366666667, "bike_id": "ddbf4485b2538ad1940e16e83eacb6b0", "fusion_lon": 0.0}, {"rental_uris": {"ios": "https://dc.lft.to/lastmile_qr_scan", "android": "https://dc.lft.to/lastmile_qr_scan"}, "type": "electric_scooter", "name": "f83ea8606828ba9e50c7334bac086230", "is_reserved": 0, "lon": -77.036358, "is_disabled": 0, "fusion_lat": 0.0, "lat": 38.9280685, "bike_id": "f83ea8606828ba9e50c7334bac086230", "fusion_lon": 0.0}, {"rental_uris": {"ios": "https://dc.lft.to/lastmile_qr_scan", "android": "https://dc.lft.to/lastmile_qr_scan"}, "type": "electric_scooter", "name": "3056019defdc0ee93147ec1de2613deb", "is_reserved": 0, "lon": -77.04120083333333, "is_disabled": 0, "fusion_lat": 0.0, "lat": 38.931047666666664, "bike_id": "3056019defdc0ee93147ec1de2613deb", "fusion_lon": 0.0}, {"rental_uris": {"ios": "https://dc.lft.to/lastmile_qr_scan", "android": "https://dc.lft.to/lastmile_qr_scan"}, "type": "electric_scooter", "name": "7d5446e64b749458ccfbbd30b269eeb7", "is_reserved": 0, "lon": -77.00047533333333, "is_disabled": 0, "fusion_lat": 0.0, "lat": 38.9189915, "bike_id": "7d5446e64b749458ccfbbd30b269eeb7", "fusion_lon": 0.0}, {"rental_uris": {"ios": "https://dc.lft.to/lastmile_qr_scan", "android": "https://dc.lft.to/lastmile_qr_scan"}, "type": "electric_scooter", "name": "0a0ab45ccf5de7adabc92f1ff88ec1ef", "is_reserved": 0, "lon": -76.98087, "is_disabled": 0, "fusion_lat": 0.0, "lat": 38.894360166666665, "bike_id": "0a0ab45ccf5de7adabc92f1ff88ec1ef", "fusion_lon": 0.0}, {"rental_uris": {"ios": "https://dc.lft.to/lastmile_qr_scan", "android": "https://dc.lft.to/lastmile_qr_scan"}, "type": "electric_scooter", "name": "9ee0a4c51d943a662ba5e0c1ddbbedf8", "is_reserved": 0, "lon": -77.033475, "is_disabled": 0, "fusion_lat": 0.0, "lat": 38.899550833333336, "bike_id": "9ee0a4c51d943a662ba5e0c1ddbbedf8", "fusion_lon": 0.0}, {"rental_uris": {"ios": "https://dc.lft.to/lastmile_qr_scan", "android": "https://dc.lft.to/lastmile_qr_scan"}, "type": "electric_scooter", "name": "3c7bf8985ce52f47d6c5c5e08c5b4e7c", "is_reserved": 0, "lon": -77.03429816666667, "is_disabled": 0, "fusion_lat": 0.0, "lat": 38.9056995, "bike_id": "3c7bf8985ce52f47d6c5c5e08c5b4e7c", "fusion_lon": 0.0}, {"rental_uris": {"ios": "https://dc.lft.to/lastmile_qr_scan", "android": "https://dc.lft.to/lastmile_qr_scan"}, "type": "electric_scooter", "name": "fd9d01ea5a3f2e082d47061db1c0f558", "is_reserved": 0, "lon": -77.029708, "is_disabled": 0, "fusion_lat": 0.0, "lat": 38.907271, "bike_id": "fd9d01ea5a3f2e082d47061db1c0f558", "fusion_lon": 0.0}, {"rental_uris": {"ios": "https://dc.lft.to/lastmile_qr_scan", "android": "https://dc.lft.to/lastmile_qr_scan"}, "type": "electric_scooter", "name": "2bca9024f50e7ef91b6464f74b5919be", "is_reserved": 0, "lon": -77.038797, "is_disabled": 0, "fusion_lat": 0.0, "lat": 38.91623933333333, "bike_id": "2bca9024f50e7ef91b6464f74b5919be", "fusion_lon": 0.0}, {"rental_uris": {"ios": "https://dc.lft.to/lastmile_qr_scan", "android": "https://dc.lft.to/lastmile_qr_scan"}, "type": "electric_scooter", "name": "c190aeb468afa5980411651b1aab1267", "is_reserved": 0, "lon": -76.9857525, "is_disabled": 0, "fusion_lat": 0.0, "lat": 38.854479, "bike_id": "c190aeb468afa5980411651b1aab1267", "fusion_lon": 0.0}, {"rental_uris": {"ios": "https://dc.lft.to/lastmile_qr_scan", "android": "https://dc.lft.to/lastmile_qr_scan"}, "type": "electric_scooter", "name": "86955df8a4488c3e910f41c5e01ed6df", "is_reserved": 0, "lon": -77.04326533333334, "is_disabled": 0, "fusion_lat": 0.0, "lat": 38.897339833333334, "bike_id": "86955df8a4488c3e910f41c5e01ed6df", "fusion_lon": 0.0}, {"rental_uris": {"ios": "https://dc.lft.to/lastmile_qr_scan", "android": "https://dc.lft.to/lastmile_qr_scan"}, "type": "electric_scooter", "name": "a21d1686ca1bb739a2157695b86c1ff7", "is_reserved": 0, "lon": -77.03829633333334, "is_disabled": 0, "fusion_lat": 0.0, "lat": 38.911174, "bike_id": "a21d1686ca1bb739a2157695b86c1ff7", "fusion_lon": 0.0}, {"rental_uris": {"ios": "https://dc.lft.to/lastmile_qr_scan", "android": "https://dc.lft.to/lastmile_qr_scan"}, "type": "electric_scooter", "name": "8bbe9507bc3d277ed447428beb05d74d", "is_reserved": 0, "lon": -77.03642533333333, "is_disabled": 0, "fusion_lat": 0.0, "lat": 38.924337333333334, "bike_id": "8bbe9507bc3d277ed447428beb05d74d", "fusion_lon": 0.0}, {"rental_uris": {"ios": "https://dc.lft.to/lastmile_qr_scan", "android": "https://dc.lft.to/lastmile_qr_scan"}, "type": "electric_scooter", "name": "54e10321e959d72c30452bf8bcda13c9", "is_reserved": 0, "lon": -77.04065066666666, "is_disabled": 0, "fusion_lat": 0.0, "lat": 38.9277045, "bike_id": "54e10321e959d72c30452bf8bcda13c9", "fusion_lon": 0.0}, {"rental_uris": {"ios": "https://dc.lft.to/lastmile_qr_scan", "android": "https://dc.lft.to/lastmile_qr_scan"}, "type": "electric_scooter", "name": "7e83158bdb0bbeebe4ce7266f8c31a97", "is_reserved": 0, "lon": -77.03959383333333, "is_disabled": 0, "fusion_lat": 0.0, "lat": 38.90817166666667, "bike_id": "7e83158bdb0bbeebe4ce7266f8c31a97", "fusion_lon": 0.0}, {"rental_uris": {"ios": "https://dc.lft.to/lastmile_qr_scan", "android": "https://dc.lft.to/lastmile_qr_scan"}, "type": "electric_scooter", "name": "1ea83bf4e772bf53068b1174cd3c3205", "is_reserved": 0, "lon": -76.97406366666667, "is_disabled": 0, "fusion_lat": 0.0, "lat": 38.901351, "bike_id": "1ea83bf4e772bf53068b1174cd3c3205", "fusion_lon": 0.0}, {"rental_uris": {"ios": "https://dc.lft.to/lastmile_qr_scan", "android": "https://dc.lft.to/lastmile_qr_scan"}, "type": "electric_scooter", "name": "fcf6049ae738b40a65fbb0a47950b20a", "is_reserved": 0, "lon": -76.99303966666666, "is_disabled": 0, "fusion_lat": 0.0, "lat": 38.93572233333333, "bike_id": "fcf6049ae738b40a65fbb0a47950b20a", "fusion_lon": 0.0}, {"rental_uris": {"ios": "https://dc.lft.to/lastmile_qr_scan", "android": "https://dc.lft.to/lastmile_qr_scan"}, "type": "electric_scooter", "name": "a2a21260492cde52cd5ae6867ed3a244", "is_reserved": 0, "lon": -77.00577666666666, "is_disabled": 0, "fusion_lat": 0.0, "lat": 38.90550833333333, "bike_id": "a2a21260492cde52cd5ae6867ed3a244", "fusion_lon": 0.0}, {"rental_uris": {"ios": "https://dc.lft.to/lastmile_qr_scan", "android": "https://dc.lft.to/lastmile_qr_scan"}, "type": "electric_scooter", "name": "66514cd1062dd20b0376238cffebe15c", "is_reserved": 0, "lon": -77.0450485, "is_disabled": 0, "fusion_lat": 0.0, "lat": 38.914186, "bike_id": "66514cd1062dd20b0376238cffebe15c", "fusion_lon": 0.0}, {"rental_uris": {"ios": "https://dc.lft.to/lastmile_qr_scan", "android": "https://dc.lft.to/lastmile_qr_scan"}, "type": "electric_scooter", "name": "a5ada69b5930941bb0d9f8c754b84c97", "is_reserved": 0, "lon": -76.92989316666667, "is_disabled": 0, "fusion_lat": 0.0, "lat": 38.89289433333333, "bike_id": "a5ada69b5930941bb0d9f8c754b84c97", "fusion_lon": 0.0}, {"rental_uris": {"ios": "https://dc.lft.to/lastmile_qr_scan", "android": "https://dc.lft.to/lastmile_qr_scan"}, "type": "electric_scooter", "name": "fed7768924a8f27d9a674744261d9c2a", "is_reserved": 0, "lon": -77.02216516666667, "is_disabled": 0, "fusion_lat": 0.0, "lat": 38.924718166666665, "bike_id": "fed7768924a8f27d9a674744261d9c2a", "fusion_lon": 0.0}, {"rental_uris": {"ios": "https://dc.lft.to/lastmile_qr_scan", "android": "https://dc.lft.to/lastmile_qr_scan"}, "type": "electric_scooter", "name": "3bd1368c2cc3a047a204b361520b5c18", "is_reserved": 0, "lon": -77.05054433333333, "is_disabled": 0, "fusion_lat": 0.0, "lat": 38.9258515, "bike_id": "3bd1368c2cc3a047a204b361520b5c18", "fusion_lon": 0.0}, {"rental_uris": {"ios": "https://dc.lft.to/lastmile_qr_scan", "android": "https://dc.lft.to/lastmile_qr_scan"}, "type": "electric_scooter", "name": "bae9a204e01cb035de53a036cfcacf87", "is_reserved": 0, "lon": -77.00661816666667, "is_disabled": 0, "fusion_lat": 0.0, "lat": 38.900109666666665, "bike_id": "bae9a204e01cb035de53a036cfcacf87", "fusion_lon": 0.0}, {"rental_uris": {"ios": "https://dc.lft.to/lastmile_qr_scan", "android": "https://dc.lft.to/lastmile_qr_scan"}, "type": "electric_scooter", "name": "0df5ed03156d956e18f10faed08cabf2", "is_reserved": 0, "lon": -77.0326045, "is_disabled": 0, "fusion_lat": 0.0, "lat": 38.93238933333333, "bike_id": "0df5ed03156d956e18f10faed08cabf2", "fusion_lon": 0.0}, {"rental_uris": {"ios": "https://dc.lft.to/lastmile_qr_scan", "android": "https://dc.lft.to/lastmile_qr_scan"}, "type": "electric_scooter", "name": "aec8495eb2a8664f13970f7fee7207df", "is_reserved": 0, "lon": -77.03248633333334, "is_disabled": 0, "fusion_lat": 0.0, "lat": 38.91984383333333, "bike_id": "aec8495eb2a8664f13970f7fee7207df", "fusion_lon": 0.0}, {"rental_uris": {"ios": "https://dc.lft.to/lastmile_qr_scan", "android": "https://dc.lft.to/lastmile_qr_scan"}, "type": "electric_scooter", "name": "230d6303eaa19828dfa0be7b24707df4", "is_reserved": 0, "lon": -77.01946716666667, "is_disabled": 0, "fusion_lat": 0.0, "lat": 38.9241745, "bike_id": "230d6303eaa19828dfa0be7b24707df4", "fusion_lon": 0.0}, {"rental_uris": {"ios": "https://dc.lft.to/lastmile_qr_scan", "android": "https://dc.lft.to/lastmile_qr_scan"}, "type": "electric_scooter", "name": "31d2c6832f3ce431f179a0b438de549a", "is_reserved": 0, "lon": -76.95294366666667, "is_disabled": 0, "fusion_lat": 0.0, "lat": 38.885207333333334, "bike_id": "31d2c6832f3ce431f179a0b438de549a", "fusion_lon": 0.0}, {"rental_uris": {"ios": "https://dc.lft.to/lastmile_qr_scan", "android": "https://dc.lft.to/lastmile_qr_scan"}, "type": "electric_scooter", "name": "80bb63d544e7f3a1b3e2c8f53bf7c60b", "is_reserved": 0, "lon": -76.99510483333333, "is_disabled": 0, "fusion_lat": 0.0, "lat": 38.9097545, "bike_id": "80bb63d544e7f3a1b3e2c8f53bf7c60b", "fusion_lon": 0.0}, {"rental_uris": {"ios": "https://dc.lft.to/lastmile_qr_scan", "android": "https://dc.lft.to/lastmile_qr_scan"}, "type": "electric_scooter", "name": "e83a363e9572083f1ececf71cccd5c18", "is_reserved": 0, "lon": -77.02545016666667, "is_disabled": 0, "fusion_lat": 0.0, "lat": 38.951659, "bike_id": "e83a363e9572083f1ececf71cccd5c18", "fusion_lon": 0.0}, {"rental_uris": {"ios": "https://dc.lft.to/lastmile_qr_scan", "android": "https://dc.lft.to/lastmile_qr_scan"}, "type": "electric_scooter", "name": "ed7ab0ad3427b1cf469af979844aedbe", "is_reserved": 0, "lon": -77.01758516666666, "is_disabled": 0, "fusion_lat": 0.0, "lat": 38.90286233333333, "bike_id": "ed7ab0ad3427b1cf469af979844aedbe", "fusion_lon": 0.0}, {"rental_uris": {"ios": "https://dc.lft.to/lastmile_qr_scan", "android": "https://dc.lft.to/lastmile_qr_scan"}, "type": "electric_scooter", "name": "054b258907f19615a2c0959823ca9a8b", "is_reserved": 0, "lon": -77.03146716666667, "is_disabled": 0, "fusion_lat": 0.0, "lat": 38.91709683333333, "bike_id": "054b258907f19615a2c0959823ca9a8b", "fusion_lon": 0.0}, {"rental_uris": {"ios": "https://dc.lft.to/lastmile_qr_scan", "android": "https://dc.lft.to/lastmile_qr_scan"}, "type": "electric_scooter", "name": "64da519823f83296cafb8993b5278393", "is_reserved": 0, "lon": -77.04444083333334, "is_disabled": 0, "fusion_lat": 0.0, "lat": 38.918660333333335, "bike_id": "64da519823f83296cafb8993b5278393", "fusion_lon": 0.0}, {"rental_uris": {"ios": "https://dc.lft.to/lastmile_qr_scan", "android": "https://dc.lft.to/lastmile_qr_scan"}, "type": "electric_scooter", "name": "62977e82743d931cfbf3b6c955f8aeb8", "is_reserved": 0, "lon": -77.0059655, "is_disabled": 0, "fusion_lat": 0.0, "lat": 38.87968133333333, "bike_id": "62977e82743d931cfbf3b6c955f8aeb8", "fusion_lon": 0.0}, {"rental_uris": {"ios": "https://dc.lft.to/lastmile_qr_scan", "android": "https://dc.lft.to/lastmile_qr_scan"}, "type": "electric_scooter", "name": "811e2bb32975552e737ef5c70278b685", "is_reserved": 0, "lon": -76.94071583333333, "is_disabled": 0, "fusion_lat": 0.0, "lat": 38.885844, "bike_id": "811e2bb32975552e737ef5c70278b685", "fusion_lon": 0.0}, {"rental_uris": {"ios": "https://dc.lft.to/lastmile_qr_scan", "android": "https://dc.lft.to/lastmile_qr_scan"}, "type": "electric_bike", "name": "e9b492bab7816026b4ddec340acc02f0", "is_reserved": 0, "lon": -77.02058216666667, "is_disabled": 0, "fusion_lat": 0.0, "lat": 38.92844616666667, "bike_id": "e9b492bab7816026b4ddec340acc02f0", "fusion_lon": 0.0}, {"rental_uris": {"ios": "https://dc.lft.to/lastmile_qr_scan", "android": "https://dc.lft.to/lastmile_qr_scan"}, "type": "electric_bike", "name": "d389494cc075c0b8ac868c1848e86dec", "is_reserved": 0, "lon": -77.0353265, "is_disabled": 0, "fusion_lat": 0.0, "lat": 38.923809166666665, "bike_id": "d389494cc075c0b8ac868c1848e86dec", "fusion_lon": 0.0}, {"rental_uris": {"ios": "https://dc.lft.to/lastmile_qr_scan", "android": "https://dc.lft.to/lastmile_qr_scan"}, "type": "electric_scooter", "name": "76693d6d13e218a8cf27607c19b7b262", "is_reserved": 0, "lon": -77.01867666666666, "is_disabled": 0, "fusion_lat": 0.0, "lat": 38.951486833333334, "bike_id": "76693d6d13e218a8cf27607c19b7b262", "fusion_lon": 0.0}, {"rental_uris": {"ios": "https://dc.lft.to/lastmile_qr_scan", "android": "https://dc.lft.to/lastmile_qr_scan"}, "type": "electric_scooter", "name": "9ea9b0fec27d9319874efa3f37e9d8e5", "is_reserved": 0, "lon": -77.02309883333334, "is_disabled": 0, "fusion_lat": 0.0, "lat": 38.9613005, "bike_id": "9ea9b0fec27d9319874efa3f37e9d8e5", "fusion_lon": 0.0}, {"rental_uris": {"ios": "https://dc.lft.to/lastmile_qr_scan", "android": "https://dc.lft.to/lastmile_qr_scan"}, "type": "electric_scooter", "name": "d82e38e3f94388728b4abcfbe59b584a", "is_reserved": 0, "lon": -77.04425933333333, "is_disabled": 0, "fusion_lat": 0.0, "lat": 38.89743416666666, "bike_id": "d82e38e3f94388728b4abcfbe59b584a", "fusion_lon": 0.0}, {"rental_uris": {"ios": "https://dc.lft.to/lastmile_qr_scan", "android": "https://dc.lft.to/lastmile_qr_scan"}, "type": "electric_scooter", "name": "eb876d99f1b2c21d195b0a9fc3808c05", "is_reserved": 0, "lon": -76.97209116666667, "is_disabled": 0, "fusion_lat": 0.0, "lat": 38.924577166666666, "bike_id": "eb876d99f1b2c21d195b0a9fc3808c05", "fusion_lon": 0.0}, {"rental_uris": {"ios": "https://dc.lft.to/lastmile_qr_scan", "android": "https://dc.lft.to/lastmile_qr_scan"}, "type": "electric_scooter", "name": "8cf66c7a1ee6da9df8bd87e42b5a670a", "is_reserved": 0, "lon": -77.04044466666667, "is_disabled": 0, "fusion_lat": 0.0, "lat": 38.9301115, "bike_id": "8cf66c7a1ee6da9df8bd87e42b5a670a", "fusion_lon": 0.0}, {"rental_uris": {"ios": "https://dc.lft.to/lastmile_qr_scan", "android": "https://dc.lft.to/lastmile_qr_scan"}, "type": "electric_scooter", "name": "09763943fe3383ccf86a730e0a643d33", "is_reserved": 0, "lon": -77.00428966666666, "is_disabled": 0, "fusion_lat": 0.0, "lat": 38.88515816666666, "bike_id": "09763943fe3383ccf86a730e0a643d33", "fusion_lon": 0.0}, {"rental_uris": {"ios": "https://dc.lft.to/lastmile_qr_scan", "android": "https://dc.lft.to/lastmile_qr_scan"}, "type": "electric_scooter", "name": "77cc916ec73cf1ae639cedaeaf99db01", "is_reserved": 0, "lon": -77.022776, "is_disabled": 0, "fusion_lat": 0.0, "lat": 38.92476116666667, "bike_id": "77cc916ec73cf1ae639cedaeaf99db01", "fusion_lon": 0.0}, {"rental_uris": {"ios": "https://dc.lft.to/lastmile_qr_scan", "android": "https://dc.lft.to/lastmile_qr_scan"}, "type": "electric_scooter", "name": "812a7813254b09c4a6e9f122d379701a", "is_reserved": 0, "lon": -77.037901, "is_disabled": 0, "fusion_lat": 0.0, "lat": 38.915819, "bike_id": "812a7813254b09c4a6e9f122d379701a", "fusion_lon": 0.0}, {"rental_uris": {"ios": "https://dc.lft.to/lastmile_qr_scan", "android": "https://dc.lft.to/lastmile_qr_scan"}, "type": "electric_scooter", "name": "65f7bfdc550e96234248a9369e692e85", "is_reserved": 0, "lon": -76.99441833333333, "is_disabled": 0, "fusion_lat": 0.0, "lat": 38.95926133333333, "bike_id": "65f7bfdc550e96234248a9369e692e85", "fusion_lon": 0.0}, {"rental_uris": {"ios": "https://dc.lft.to/lastmile_qr_scan", "android": "https://dc.lft.to/lastmile_qr_scan"}, "type": "electric_scooter", "name": "b6fc4b2dc2e3cb12facc15b48e79ee6b", "is_reserved": 0, "lon": -76.99283116666666, "is_disabled": 0, "fusion_lat": 0.0, "lat": 38.883134166666665, "bike_id": "b6fc4b2dc2e3cb12facc15b48e79ee6b", "fusion_lon": 0.0}, {"rental_uris": {"ios": "https://dc.lft.to/lastmile_qr_scan", "android": "https://dc.lft.to/lastmile_qr_scan"}, "type": "electric_scooter", "name": "3f678ef44efb6f4b7bbc4c3b9ace1649", "is_reserved": 0, "lon": -76.9347615, "is_disabled": 0, "fusion_lat": 0.0, "lat": 38.89499933333333, "bike_id": "3f678ef44efb6f4b7bbc4c3b9ace1649", "fusion_lon": 0.0}, {"rental_uris": {"ios": "https://dc.lft.to/lastmile_qr_scan", "android": "https://dc.lft.to/lastmile_qr_scan"}, "type": "electric_scooter", "name": "7029ba779086b554525acf102f11a212", "is_reserved": 0, "lon": -77.03664183333333, "is_disabled": 0, "fusion_lat": 0.0, "lat": 38.939557666666666, "bike_id": "7029ba779086b554525acf102f11a212", "fusion_lon": 0.0}, {"rental_uris": {"ios": "https://dc.lft.to/lastmile_qr_scan", "android": "https://dc.lft.to/lastmile_qr_scan"}, "type": "electric_scooter", "name": "170d2c9de25c31074ae98786aefc4c0f", "is_reserved": 0, "lon": -77.0105815, "is_disabled": 0, "fusion_lat": 0.0, "lat": 38.9164815, "bike_id": "170d2c9de25c31074ae98786aefc4c0f", "fusion_lon": 0.0}, {"rental_uris": {"ios": "https://dc.lft.to/lastmile_qr_scan", "android": "https://dc.lft.to/lastmile_qr_scan"}, "type": "electric_bike", "name": "77122ada399243d4354cc6bc1b9a9e3a", "is_reserved": 0, "lon": -77.01230033333333, "is_disabled": 0, "fusion_lat": 0.0, "lat": 38.950901, "bike_id": "77122ada399243d4354cc6bc1b9a9e3a", "fusion_lon": 0.0}, {"rental_uris": {"ios": "https://dc.lft.to/lastmile_qr_scan", "android": "https://dc.lft.to/lastmile_qr_scan"}, "type": "electric_scooter", "name": "64c431b33c50ab87b1742b4ac181b272", "is_reserved": 0, "lon": -77.04674933333334, "is_disabled": 0, "fusion_lat": 0.0, "lat": 38.9029525, "bike_id": "64c431b33c50ab87b1742b4ac181b272", "fusion_lon": 0.0}, {"rental_uris": {"ios": "https://dc.lft.to/lastmile_qr_scan", "android": "https://dc.lft.to/lastmile_qr_scan"}, "type": "electric_scooter", "name": "bf7ee442562368f1d0e511976b9de51e", "is_reserved": 0, "lon": -77.00616416666666, "is_disabled": 0, "fusion_lat": 0.0, "lat": 38.905714, "bike_id": "bf7ee442562368f1d0e511976b9de51e", "fusion_lon": 0.0}, {"rental_uris": {"ios": "https://dc.lft.to/lastmile_qr_scan", "android": "https://dc.lft.to/lastmile_qr_scan"}, "type": "electric_bike", "name": "fcf439e9dd194da49b9f02731297f76d", "is_reserved": 0, "lon": -77.1273105, "is_disabled": 0, "fusion_lat": 0.0, "lat": 38.895622, "bike_id": "fcf439e9dd194da49b9f02731297f76d", "fusion_lon": 0.0}, {"rental_uris": {"ios": "https://dc.lft.to/lastmile_qr_scan", "android": "https://dc.lft.to/lastmile_qr_scan"}, "type": "electric_scooter", "name": "5965a4d25400b949bc73fc9d391bd490", "is_reserved": 0, "lon": -77.032035, "is_disabled": 0, "fusion_lat": 0.0, "lat": 38.92016666666667, "bike_id": "5965a4d25400b949bc73fc9d391bd490", "fusion_lon": 0.0}, {"rental_uris": {"ios": "https://dc.lft.to/lastmile_qr_scan", "android": "https://dc.lft.to/lastmile_qr_scan"}, "type": "electric_scooter", "name": "95fc24c218e891efa030908870f489df", "is_reserved": 0, "lon": -77.03902283333333, "is_disabled": 0, "fusion_lat": 0.0, "lat": 38.912630166666666, "bike_id": "95fc24c218e891efa030908870f489df", "fusion_lon": 0.0}, {"rental_uris": {"ios": "https://dc.lft.to/lastmile_qr_scan", "android": "https://dc.lft.to/lastmile_qr_scan"}, "type": "electric_scooter", "name": "1bcd0b598576189fbe2099c7c929053a", "is_reserved": 0, "lon": -77.0338085, "is_disabled": 0, "fusion_lat": 0.0, "lat": 38.8992685, "bike_id": "1bcd0b598576189fbe2099c7c929053a", "fusion_lon": 0.0}, {"rental_uris": {"ios": "https://dc.lft.to/lastmile_qr_scan", "android": "https://dc.lft.to/lastmile_qr_scan"}, "type": "electric_scooter", "name": "ac4138e1c65246f992114540949ff35b", "is_reserved": 0, "lon": -77.027021, "is_disabled": 0, "fusion_lat": 0.0, "lat": 38.90450533333333, "bike_id": "ac4138e1c65246f992114540949ff35b", "fusion_lon": 0.0}, {"rental_uris": {"ios": "https://dc.lft.to/lastmile_qr_scan", "android": "https://dc.lft.to/lastmile_qr_scan"}, "type": "electric_scooter", "name": "e4e38f9a07423cec3c5f1683e0dd1e6c", "is_reserved": 0, "lon": -77.04551183333334, "is_disabled": 0, "fusion_lat": 0.0, "lat": 38.93387166666667, "bike_id": "e4e38f9a07423cec3c5f1683e0dd1e6c", "fusion_lon": 0.0}, {"rental_uris": {"ios": "https://dc.lft.to/lastmile_qr_scan", "android": "https://dc.lft.to/lastmile_qr_scan"}, "type": "electric_scooter", "name": "cf6e7d134a4e1b6a041d00e718f006f5", "is_reserved": 0, "lon": -77.04476233333334, "is_disabled": 0, "fusion_lat": 0.0, "lat": 38.914398, "bike_id": "cf6e7d134a4e1b6a041d00e718f006f5", "fusion_lon": 0.0}, {"rental_uris": {"ios": "https://dc.lft.to/lastmile_qr_scan", "android": "https://dc.lft.to/lastmile_qr_scan"}, "type": "electric_scooter", "name": "a014a9aed996838ad00e510d201803e7", "is_reserved": 0, "lon": -77.01984166666666, "is_disabled": 0, "fusion_lat": 0.0, "lat": 38.88720633333333, "bike_id": "a014a9aed996838ad00e510d201803e7", "fusion_lon": 0.0}, {"rental_uris": {"ios": "https://dc.lft.to/lastmile_qr_scan", "android": "https://dc.lft.to/lastmile_qr_scan"}, "type": "electric_scooter", "name": "d55a003eda58992f7eeb31d88dd96cfb", "is_reserved": 0, "lon": -77.03551483333334, "is_disabled": 0, "fusion_lat": 0.0, "lat": 38.91869616666666, "bike_id": "d55a003eda58992f7eeb31d88dd96cfb", "fusion_lon": 0.0}, {"rental_uris": {"ios": "https://dc.lft.to/lastmile_qr_scan", "android": "https://dc.lft.to/lastmile_qr_scan"}, "type": "electric_scooter", "name": "2a948fe68d1ff7047e28b956c1b6a08d", "is_reserved": 0, "lon": -77.02837966666667, "is_disabled": 0, "fusion_lat": 0.0, "lat": 38.89961066666667, "bike_id": "2a948fe68d1ff7047e28b956c1b6a08d", "fusion_lon": 0.0}, {"rental_uris": {"ios": "https://dc.lft.to/lastmile_qr_scan", "android": "https://dc.lft.to/lastmile_qr_scan"}, "type": "electric_scooter", "name": "57a548b4d7c81af9e83cc7267e0b1a21", "is_reserved": 0, "lon": -76.98211233333333, "is_disabled": 0, "fusion_lat": 0.0, "lat": 38.886396, "bike_id": "57a548b4d7c81af9e83cc7267e0b1a21", "fusion_lon": 0.0}, {"rental_uris": {"ios": "https://dc.lft.to/lastmile_qr_scan", "android": "https://dc.lft.to/lastmile_qr_scan"}, "type": "electric_scooter", "name": "ec7cc242969fac45f788184988f48264", "is_reserved": 0, "lon": -77.02203233333333, "is_disabled": 0, "fusion_lat": 0.0, "lat": 38.88719583333334, "bike_id": "ec7cc242969fac45f788184988f48264", "fusion_lon": 0.0}, {"rental_uris": {"ios": "https://dc.lft.to/lastmile_qr_scan", "android": "https://dc.lft.to/lastmile_qr_scan"}, "type": "electric_scooter", "name": "d1f69138145e863fc4cf4625b58e0780", "is_reserved": 0, "lon": -77.03661433333333, "is_disabled": 0, "fusion_lat": 0.0, "lat": 38.91858166666667, "bike_id": "d1f69138145e863fc4cf4625b58e0780", "fusion_lon": 0.0}, {"rental_uris": {"ios": "https://dc.lft.to/lastmile_qr_scan", "android": "https://dc.lft.to/lastmile_qr_scan"}, "type": "electric_scooter", "name": "87f4d57351a6a43dcc4fa8e972a96d28", "is_reserved": 0, "lon": -77.04551733333334, "is_disabled": 0, "fusion_lat": 0.0, "lat": 38.89745766666667, "bike_id": "87f4d57351a6a43dcc4fa8e972a96d28", "fusion_lon": 0.0}, {"rental_uris": {"ios": "https://dc.lft.to/lastmile_qr_scan", "android": "https://dc.lft.to/lastmile_qr_scan"}, "type": "electric_scooter", "name": "6aef990ae58df35334cdf6a4920c1328", "is_reserved": 0, "lon": -77.0196365, "is_disabled": 0, "fusion_lat": 0.0, "lat": 38.933768, "bike_id": "6aef990ae58df35334cdf6a4920c1328", "fusion_lon": 0.0}, {"rental_uris": {"ios": "https://dc.lft.to/lastmile_qr_scan", "android": "https://dc.lft.to/lastmile_qr_scan"}, "type": "electric_scooter", "name": "34d6f09cb07b22007aada3b643a0ab93", "is_reserved": 0, "lon": -77.06521683333334, "is_disabled": 0, "fusion_lat": 0.0, "lat": 38.94988433333333, "bike_id": "34d6f09cb07b22007aada3b643a0ab93", "fusion_lon": 0.0}, {"rental_uris": {"ios": "https://dc.lft.to/lastmile_qr_scan", "android": "https://dc.lft.to/lastmile_qr_scan"}, "type": "electric_scooter", "name": "8dbd7d82575a6fa7536061b34c70e1d5", "is_reserved": 0, "lon": -77.03266733333334, "is_disabled": 0, "fusion_lat": 0.0, "lat": 38.9095255, "bike_id": "8dbd7d82575a6fa7536061b34c70e1d5", "fusion_lon": 0.0}, {"rental_uris": {"ios": "https://dc.lft.to/lastmile_qr_scan", "android": "https://dc.lft.to/lastmile_qr_scan"}, "type": "electric_scooter", "name": "c0ca87263231ec3ee8a859179015e320", "is_reserved": 0, "lon": -77.03285216666667, "is_disabled": 0, "fusion_lat": 0.0, "lat": 38.92753966666667, "bike_id": "c0ca87263231ec3ee8a859179015e320", "fusion_lon": 0.0}, {"rental_uris": {"ios": "https://dc.lft.to/lastmile_qr_scan", "android": "https://dc.lft.to/lastmile_qr_scan"}, "type": "electric_scooter", "name": "f9901655d925928d0c87d9e78ee991ad", "is_reserved": 0, "lon": -76.98988266666667, "is_disabled": 0, "fusion_lat": 0.0, "lat": 38.864990166666665, "bike_id": "f9901655d925928d0c87d9e78ee991ad", "fusion_lon": 0.0}, {"rental_uris": {"ios": "https://dc.lft.to/lastmile_qr_scan", "android": "https://dc.lft.to/lastmile_qr_scan"}, "type": "electric_scooter", "name": "3900f1c4d6557045ff304e14fd2ef25b", "is_reserved": 0, "lon": -77.04034433333334, "is_disabled": 0, "fusion_lat": 0.0, "lat": 38.904736166666666, "bike_id": "3900f1c4d6557045ff304e14fd2ef25b", "fusion_lon": 0.0}, {"rental_uris": {"ios": "https://dc.lft.to/lastmile_qr_scan", "android": "https://dc.lft.to/lastmile_qr_scan"}, "type": "electric_scooter", "name": "5d22025971baf1b439b3006303b6d1a0", "is_reserved": 0, "lon": -77.04681133333334, "is_disabled": 0, "fusion_lat": 0.0, "lat": 38.918106, "bike_id": "5d22025971baf1b439b3006303b6d1a0", "fusion_lon": 0.0}, {"rental_uris": {"ios": "https://dc.lft.to/lastmile_qr_scan", "android": "https://dc.lft.to/lastmile_qr_scan"}, "type": "electric_scooter", "name": "54fe10f1d6e877aba8f72fde92ffc87c", "is_reserved": 0, "lon": -77.04125166666667, "is_disabled": 0, "fusion_lat": 0.0, "lat": 38.921207, "bike_id": "54fe10f1d6e877aba8f72fde92ffc87c", "fusion_lon": 0.0}, {"rental_uris": {"ios": "https://dc.lft.to/lastmile_qr_scan", "android": "https://dc.lft.to/lastmile_qr_scan"}, "type": "electric_scooter", "name": "4c67c899f83f6e6fed27007a7d112f88", "is_reserved": 0, "lon": -77.03717166666667, "is_disabled": 0, "fusion_lat": 0.0, "lat": 38.911812166666664, "bike_id": "4c67c899f83f6e6fed27007a7d112f88", "fusion_lon": 0.0}, {"rental_uris": {"ios": "https://dc.lft.to/lastmile_qr_scan", "android": "https://dc.lft.to/lastmile_qr_scan"}, "type": "electric_scooter", "name": "cd87cd250ab48cf81c813a69b69bcb38", "is_reserved": 0, "lon": -77.03660083333334, "is_disabled": 0, "fusion_lat": 0.0, "lat": 38.923841833333334, "bike_id": "cd87cd250ab48cf81c813a69b69bcb38", "fusion_lon": 0.0}, {"rental_uris": {"ios": "https://dc.lft.to/lastmile_qr_scan", "android": "https://dc.lft.to/lastmile_qr_scan"}, "type": "electric_scooter", "name": "ccf6b5be65d2cd4f08a1eaec36074303", "is_reserved": 0, "lon": -77.00797483333334, "is_disabled": 0, "fusion_lat": 0.0, "lat": 38.91265116666667, "bike_id": "ccf6b5be65d2cd4f08a1eaec36074303", "fusion_lon": 0.0}, {"rental_uris": {"ios": "https://dc.lft.to/lastmile_qr_scan", "android": "https://dc.lft.to/lastmile_qr_scan"}, "type": "electric_scooter", "name": "b19ebc9a2cc5748a7e9d83ddff916e03", "is_reserved": 0, "lon": -77.0321515, "is_disabled": 0, "fusion_lat": 0.0, "lat": 38.88706766666667, "bike_id": "b19ebc9a2cc5748a7e9d83ddff916e03", "fusion_lon": 0.0}, {"rental_uris": {"ios": "https://dc.lft.to/lastmile_qr_scan", "android": "https://dc.lft.to/lastmile_qr_scan"}, "type": "electric_scooter", "name": "340cf53b43316f1419e81a58bc599789", "is_reserved": 0, "lon": -77.0793915, "is_disabled": 0, "fusion_lat": 0.0, "lat": 38.91922133333333, "bike_id": "340cf53b43316f1419e81a58bc599789", "fusion_lon": 0.0}, {"rental_uris": {"ios": "https://dc.lft.to/lastmile_qr_scan", "android": "https://dc.lft.to/lastmile_qr_scan"}, "type": "electric_scooter", "name": "03e639698338c2fe76fc9d999f649233", "is_reserved": 0, "lon": -77.02164716666667, "is_disabled": 0, "fusion_lat": 0.0, "lat": 38.89902383333333, "bike_id": "03e639698338c2fe76fc9d999f649233", "fusion_lon": 0.0}, {"rental_uris": {"ios": "https://dc.lft.to/lastmile_qr_scan", "android": "https://dc.lft.to/lastmile_qr_scan"}, "type": "electric_scooter", "name": "56a5956ae42b8869bc69d9200c563dbd", "is_reserved": 0, "lon": -76.98890583333333, "is_disabled": 0, "fusion_lat": 0.0, "lat": 38.89960166666667, "bike_id": "56a5956ae42b8869bc69d9200c563dbd", "fusion_lon": 0.0}, {"rental_uris": {"ios": "https://dc.lft.to/lastmile_qr_scan", "android": "https://dc.lft.to/lastmile_qr_scan"}, "type": "electric_scooter", "name": "49c23a2e6de1bce3c8422e05a73b3f84", "is_reserved": 0, "lon": -77.01578783333333, "is_disabled": 0, "fusion_lat": 0.0, "lat": 38.91681966666667, "bike_id": "49c23a2e6de1bce3c8422e05a73b3f84", "fusion_lon": 0.0}, {"rental_uris": {"ios": "https://dc.lft.to/lastmile_qr_scan", "android": "https://dc.lft.to/lastmile_qr_scan"}, "type": "electric_scooter", "name": "4fa75e7220b08c336ac5790b18e96f4f", "is_reserved": 0, "lon": -76.99102533333334, "is_disabled": 0, "fusion_lat": 0.0, "lat": 38.857273, "bike_id": "4fa75e7220b08c336ac5790b18e96f4f", "fusion_lon": 0.0}, {"rental_uris": {"ios": "https://dc.lft.to/lastmile_qr_scan", "android": "https://dc.lft.to/lastmile_qr_scan"}, "type": "electric_scooter", "name": "b2bf631815896397060b350653227c1c", "is_reserved": 0, "lon": -77.02916, "is_disabled": 0, "fusion_lat": 0.0, "lat": 38.933338166666665, "bike_id": "b2bf631815896397060b350653227c1c", "fusion_lon": 0.0}, {"rental_uris": {"ios": "https://dc.lft.to/lastmile_qr_scan", "android": "https://dc.lft.to/lastmile_qr_scan"}, "type": "electric_scooter", "name": "d8be5c861047a024a7e43494e5d54e00", "is_reserved": 0, "lon": -77.01763583333333, "is_disabled": 0, "fusion_lat": 0.0, "lat": 38.920582, "bike_id": "d8be5c861047a024a7e43494e5d54e00", "fusion_lon": 0.0}, {"rental_uris": {"ios": "https://dc.lft.to/lastmile_qr_scan", "android": "https://dc.lft.to/lastmile_qr_scan"}, "type": "electric_scooter", "name": "ff7ff68f245280b59c6ea3b842ffb8c3", "is_reserved": 0, "lon": -77.00867016666666, "is_disabled": 0, "fusion_lat": 0.0, "lat": 38.897454, "bike_id": "ff7ff68f245280b59c6ea3b842ffb8c3", "fusion_lon": 0.0}, {"rental_uris": {"ios": "https://dc.lft.to/lastmile_qr_scan", "android": "https://dc.lft.to/lastmile_qr_scan"}, "type": "electric_scooter", "name": "a0b7525fdf6a28a0cf6a3b30f1963913", "is_reserved": 0, "lon": -77.04183716666667, "is_disabled": 0, "fusion_lat": 0.0, "lat": 38.911226166666665, "bike_id": "a0b7525fdf6a28a0cf6a3b30f1963913", "fusion_lon": 0.0}, {"rental_uris": {"ios": "https://dc.lft.to/lastmile_qr_scan", "android": "https://dc.lft.to/lastmile_qr_scan"}, "type": "electric_scooter", "name": "5ed4ef6d3e2b24bc2f8aaebea3e0dfd8", "is_reserved": 0, "lon": -77.03223283333334, "is_disabled": 0, "fusion_lat": 0.0, "lat": 38.907217, "bike_id": "5ed4ef6d3e2b24bc2f8aaebea3e0dfd8", "fusion_lon": 0.0}, {"rental_uris": {"ios": "https://dc.lft.to/lastmile_qr_scan", "android": "https://dc.lft.to/lastmile_qr_scan"}, "type": "electric_scooter", "name": "0b813c3324cf48bb2107f690d69ce546", "is_reserved": 0, "lon": -77.04494933333334, "is_disabled": 0, "fusion_lat": 0.0, "lat": 38.919388, "bike_id": "0b813c3324cf48bb2107f690d69ce546", "fusion_lon": 0.0}, {"rental_uris": {"ios": "https://dc.lft.to/lastmile_qr_scan", "android": "https://dc.lft.to/lastmile_qr_scan"}, "type": "electric_scooter", "name": "2dafe4cbd2e7947d1ca22fbb609fde83", "is_reserved": 0, "lon": -77.02204783333333, "is_disabled": 0, "fusion_lat": 0.0, "lat": 38.920321666666666, "bike_id": "2dafe4cbd2e7947d1ca22fbb609fde83", "fusion_lon": 0.0}, {"rental_uris": {"ios": "https://dc.lft.to/lastmile_qr_scan", "android": "https://dc.lft.to/lastmile_qr_scan"}, "type": "electric_scooter", "name": "d19ca5e9029833e51b4f84cd66ef7a6b", "is_reserved": 0, "lon": -76.98428933333334, "is_disabled": 0, "fusion_lat": 0.0, "lat": 38.91454933333333, "bike_id": "d19ca5e9029833e51b4f84cd66ef7a6b", "fusion_lon": 0.0}, {"rental_uris": {"ios": "https://dc.lft.to/lastmile_qr_scan", "android": "https://dc.lft.to/lastmile_qr_scan"}, "type": "electric_scooter", "name": "98ac059362a1fec8aa241c96661655be", "is_reserved": 0, "lon": -77.041034, "is_disabled": 0, "fusion_lat": 0.0, "lat": 38.918406833333336, "bike_id": "98ac059362a1fec8aa241c96661655be", "fusion_lon": 0.0}, {"rental_uris": {"ios": "https://dc.lft.to/lastmile_qr_scan", "android": "https://dc.lft.to/lastmile_qr_scan"}, "type": "electric_scooter", "name": "6a2632cf5abe3107c04868b3a32901ee", "is_reserved": 0, "lon": -77.01758916666667, "is_disabled": 0, "fusion_lat": 0.0, "lat": 38.87717083333333, "bike_id": "6a2632cf5abe3107c04868b3a32901ee", "fusion_lon": 0.0}, {"rental_uris": {"ios": "https://dc.lft.to/lastmile_qr_scan", "android": "https://dc.lft.to/lastmile_qr_scan"}, "type": "electric_scooter", "name": "c108a3e2da22c702e608912a29a65fa8", "is_reserved": 0, "lon": -77.0344285, "is_disabled": 0, "fusion_lat": 0.0, "lat": 38.91801816666667, "bike_id": "c108a3e2da22c702e608912a29a65fa8", "fusion_lon": 0.0}, {"rental_uris": {"ios": "https://dc.lft.to/lastmile_qr_scan", "android": "https://dc.lft.to/lastmile_qr_scan"}, "type": "electric_scooter", "name": "22202b1349d2ebf26986af20a410ed13", "is_reserved": 0, "lon": -77.03931333333334, "is_disabled": 0, "fusion_lat": 0.0, "lat": 38.901034, "bike_id": "22202b1349d2ebf26986af20a410ed13", "fusion_lon": 0.0}, {"rental_uris": {"ios": "https://dc.lft.to/lastmile_qr_scan", "android": "https://dc.lft.to/lastmile_qr_scan"}, "type": "electric_bike", "name": "88d46ec5dbb4cc9abbe0df6cad4e22a1", "is_reserved": 0, "lon": -76.994599, "is_disabled": 0, "fusion_lat": 0.0, "lat": 38.9406625, "bike_id": "88d46ec5dbb4cc9abbe0df6cad4e22a1", "fusion_lon": 0.0}, {"rental_uris": {"ios": "https://dc.lft.to/lastmile_qr_scan", "android": "https://dc.lft.to/lastmile_qr_scan"}, "type": "electric_scooter", "name": "e182e7579a8d652eb9e61271c0e6e9f8", "is_reserved": 0, "lon": -76.99435716666666, "is_disabled": 0, "fusion_lat": 0.0, "lat": 38.94177083333334, "bike_id": "e182e7579a8d652eb9e61271c0e6e9f8", "fusion_lon": 0.0}, {"rental_uris": {"ios": "https://dc.lft.to/lastmile_qr_scan", "android": "https://dc.lft.to/lastmile_qr_scan"}, "type": "electric_scooter", "name": "8ff5ae04d960d3242a021439156338b7", "is_reserved": 0, "lon": -77.023242, "is_disabled": 0, "fusion_lat": 0.0, "lat": 38.93384733333333, "bike_id": "8ff5ae04d960d3242a021439156338b7", "fusion_lon": 0.0}, {"rental_uris": {"ios": "https://dc.lft.to/lastmile_qr_scan", "android": "https://dc.lft.to/lastmile_qr_scan"}, "type": "electric_scooter", "name": "4ae81c0b16ed25427428cf4201d88592", "is_reserved": 0, "lon": -77.02720833333333, "is_disabled": 0, "fusion_lat": 0.0, "lat": 38.9349695, "bike_id": "4ae81c0b16ed25427428cf4201d88592", "fusion_lon": 0.0}, {"rental_uris": {"ios": "https://dc.lft.to/lastmile_qr_scan", "android": "https://dc.lft.to/lastmile_qr_scan"}, "type": "electric_scooter", "name": "8c68d510e66d1f0257e9385c66624cea", "is_reserved": 0, "lon": -77.04997216666666, "is_disabled": 0, "fusion_lat": 0.0, "lat": 38.89668283333334, "bike_id": "8c68d510e66d1f0257e9385c66624cea", "fusion_lon": 0.0}, {"rental_uris": {"ios": "https://dc.lft.to/lastmile_qr_scan", "android": "https://dc.lft.to/lastmile_qr_scan"}, "type": "electric_scooter", "name": "344a16a77c020ef0e26bf071206539f8", "is_reserved": 0, "lon": -77.02715633333334, "is_disabled": 0, "fusion_lat": 0.0, "lat": 38.9222495, "bike_id": "344a16a77c020ef0e26bf071206539f8", "fusion_lon": 0.0}, {"rental_uris": {"ios": "https://dc.lft.to/lastmile_qr_scan", "android": "https://dc.lft.to/lastmile_qr_scan"}, "type": "electric_scooter", "name": "9256d39212d6863065742623e437470e", "is_reserved": 0, "lon": -76.99510066666667, "is_disabled": 0, "fusion_lat": 0.0, "lat": 38.912395833333335, "bike_id": "9256d39212d6863065742623e437470e", "fusion_lon": 0.0}, {"rental_uris": {"ios": "https://dc.lft.to/lastmile_qr_scan", "android": "https://dc.lft.to/lastmile_qr_scan"}, "type": "electric_scooter", "name": "955b4747042a4da3650ea65c24c95935", "is_reserved": 0, "lon": -77.04298983333334, "is_disabled": 0, "fusion_lat": 0.0, "lat": 38.90660733333333, "bike_id": "955b4747042a4da3650ea65c24c95935", "fusion_lon": 0.0}, {"rental_uris": {"ios": "https://dc.lft.to/lastmile_qr_scan", "android": "https://dc.lft.to/lastmile_qr_scan"}, "type": "electric_scooter", "name": "5a3bab9ebb971d96bfdf6ebeeab391d3", "is_reserved": 0, "lon": -77.03177166666667, "is_disabled": 0, "fusion_lat": 0.0, "lat": 38.9072835, "bike_id": "5a3bab9ebb971d96bfdf6ebeeab391d3", "fusion_lon": 0.0}, {"rental_uris": {"ios": "https://dc.lft.to/lastmile_qr_scan", "android": "https://dc.lft.to/lastmile_qr_scan"}, "type": "electric_scooter", "name": "2cd5a9169285c5a6f11a246679634246", "is_reserved": 0, "lon": -77.026758, "is_disabled": 0, "fusion_lat": 0.0, "lat": 38.92471316666666, "bike_id": "2cd5a9169285c5a6f11a246679634246", "fusion_lon": 0.0}, {"rental_uris": {"ios": "https://dc.lft.to/lastmile_qr_scan", "android": "https://dc.lft.to/lastmile_qr_scan"}, "type": "electric_scooter", "name": "42e25a5daa34904927aab92381d2cc52", "is_reserved": 0, "lon": -77.03211366666666, "is_disabled": 0, "fusion_lat": 0.0, "lat": 38.91492433333333, "bike_id": "42e25a5daa34904927aab92381d2cc52", "fusion_lon": 0.0}, {"rental_uris": {"ios": "https://dc.lft.to/lastmile_qr_scan", "android": "https://dc.lft.to/lastmile_qr_scan"}, "type": "electric_scooter", "name": "1839475c87c1e6359d4b3696be5a6553", "is_reserved": 0, "lon": -77.0516945, "is_disabled": 0, "fusion_lat": 0.0, "lat": 38.9240925, "bike_id": "1839475c87c1e6359d4b3696be5a6553", "fusion_lon": 0.0}, {"rental_uris": {"ios": "https://dc.lft.to/lastmile_qr_scan", "android": "https://dc.lft.to/lastmile_qr_scan"}, "type": "electric_bike", "name": "f4d04abe3d15997fe128748a0bd23c2b", "is_reserved": 0, "lon": -76.96155383333334, "is_disabled": 0, "fusion_lat": 0.0, "lat": 38.85616433333333, "bike_id": "f4d04abe3d15997fe128748a0bd23c2b", "fusion_lon": 0.0}, {"rental_uris": {"ios": "https://dc.lft.to/lastmile_qr_scan", "android": "https://dc.lft.to/lastmile_qr_scan"}, "type": "electric_scooter", "name": "dc6536fbe1b848941a422e3643fd5a0c", "is_reserved": 0, "lon": -77.04324233333334, "is_disabled": 0, "fusion_lat": 0.0, "lat": 38.92067466666666, "bike_id": "dc6536fbe1b848941a422e3643fd5a0c", "fusion_lon": 0.0}, {"rental_uris": {"ios": "https://dc.lft.to/lastmile_qr_scan", "android": "https://dc.lft.to/lastmile_qr_scan"}, "type": "electric_scooter", "name": "5786aa15dd2a9cd7f9d97b36bbf8fd9a", "is_reserved": 0, "lon": -77.03178383333334, "is_disabled": 0, "fusion_lat": 0.0, "lat": 38.892212, "bike_id": "5786aa15dd2a9cd7f9d97b36bbf8fd9a", "fusion_lon": 0.0}, {"rental_uris": {"ios": "https://dc.lft.to/lastmile_qr_scan", "android": "https://dc.lft.to/lastmile_qr_scan"}, "type": "electric_scooter", "name": "28521c6b6964cf658365f70a6ef55fa5", "is_reserved": 0, "lon": -77.06866766666667, "is_disabled": 0, "fusion_lat": 0.0, "lat": 38.937412333333334, "bike_id": "28521c6b6964cf658365f70a6ef55fa5", "fusion_lon": 0.0}, {"rental_uris": {"ios": "https://dc.lft.to/lastmile_qr_scan", "android": "https://dc.lft.to/lastmile_qr_scan"}, "type": "electric_scooter", "name": "b3a5a238c0792809796eab7e8501d729", "is_reserved": 0, "lon": -77.040422, "is_disabled": 0, "fusion_lat": 0.0, "lat": 38.92316783333333, "bike_id": "b3a5a238c0792809796eab7e8501d729", "fusion_lon": 0.0}, {"rental_uris": {"ios": "https://dc.lft.to/lastmile_qr_scan", "android": "https://dc.lft.to/lastmile_qr_scan"}, "type": "electric_scooter", "name": "48e33ea0d278ce2ca2fe4f22c8ce6550", "is_reserved": 0, "lon": -76.9997155, "is_disabled": 0, "fusion_lat": 0.0, "lat": 38.88665133333333, "bike_id": "48e33ea0d278ce2ca2fe4f22c8ce6550", "fusion_lon": 0.0}, {"rental_uris": {"ios": "https://dc.lft.to/lastmile_qr_scan", "android": "https://dc.lft.to/lastmile_qr_scan"}, "type": "electric_scooter", "name": "a46cc7c11fb8ae0ca76f86dd6bd123b9", "is_reserved": 0, "lon": -77.03711583333333, "is_disabled": 0, "fusion_lat": 0.0, "lat": 38.900363166666665, "bike_id": "a46cc7c11fb8ae0ca76f86dd6bd123b9", "fusion_lon": 0.0}, {"rental_uris": {"ios": "https://dc.lft.to/lastmile_qr_scan", "android": "https://dc.lft.to/lastmile_qr_scan"}, "type": "electric_scooter", "name": "cf9171aec87b09f5199660a9d06677b6", "is_reserved": 0, "lon": -76.98372716666667, "is_disabled": 0, "fusion_lat": 0.0, "lat": 38.86667083333333, "bike_id": "cf9171aec87b09f5199660a9d06677b6", "fusion_lon": 0.0}, {"rental_uris": {"ios": "https://dc.lft.to/lastmile_qr_scan", "android": "https://dc.lft.to/lastmile_qr_scan"}, "type": "electric_scooter", "name": "87ce36b020d87d993b9f01372650adc3", "is_reserved": 0, "lon": -77.039713, "is_disabled": 0, "fusion_lat": 0.0, "lat": 38.924746666666664, "bike_id": "87ce36b020d87d993b9f01372650adc3", "fusion_lon": 0.0}, {"rental_uris": {"ios": "https://dc.lft.to/lastmile_qr_scan", "android": "https://dc.lft.to/lastmile_qr_scan"}, "type": "electric_scooter", "name": "8cbe2935ff19120e0525d63b30c1c20a", "is_reserved": 0, "lon": -77.0559525, "is_disabled": 0, "fusion_lat": 0.0, "lat": 38.936994, "bike_id": "8cbe2935ff19120e0525d63b30c1c20a", "fusion_lon": 0.0}, {"rental_uris": {"ios": "https://dc.lft.to/lastmile_qr_scan", "android": "https://dc.lft.to/lastmile_qr_scan"},