{"data": {"bikes": [{"rental_uris": {"ios": "https://dc.lft.to/lastmile_qr_scan", "android": "https://dc.lft.to/lastmile_qr_scan"}, "lon": -76.94757616666666, "type": "electric_scooter", "fusion_lat": 0.0, "lat": 38.90054116666667, "name": "da7ca0a164613dc37ff7b9b58b5dbfab", "fusion_lon": 0.0, "bike_id": "da7ca0a164613dc37ff7b9b58b5dbfab", "is_disabled": 0, "is_reserved": 0}, {"rental_uris": {"ios": "https://dc.lft.to/lastmile_qr_scan", "android": "https://dc.lft.to/lastmile_qr_scan"}, "lon": -77.02784766666667, "type": "electric_scooter", "fusion_lat": 0.0, "lat": 38.9180315, "name": "422600584d039b04591a6c24c966a117", "fusion_lon": 0.0, "bike_id": "422600584d039b04591a6c24c966a117", "is_disabled": 0, "is_reserved": 0}, {"rental_uris": {"ios": "https://dc.lft.to/lastmile_qr_scan", "android": "https://dc.lft.to/lastmile_qr_scan"}, "lon": -77.01119416666667, "type": "electric_scooter", "fusion_lat": 0.0, "lat": 38.90355816666667, "name": "e0222d6e42f156d1ddf41a8ebe3a0db5", "fusion_lon": 0.0, "bike_id": "e0222d6e42f156d1ddf41a8ebe3a0db5", "is_disabled": 0, "is_reserved": 0}, {"rental_uris": {"ios": "https://dc.lft.to/lastmile_qr_scan", "android": "https://dc.lft.to/lastmile_qr_scan"}, "lon": -77.03232366666667, "type": "electric_scooter", "fusion_lat": 0.0, "lat": 38.925742166666666, "name": "8df569ab9b01081da409c4aadddadf9b", "fusion_lon": 0.0, "bike_id": "8df569ab9b01081da409c4aadddadf9b", "is_disabled": 0, "is_reserved": 0}, {"rental_uris": {"ios": "https://dc.lft.to/lastmile_qr_scan", "android": "https://dc.lft.to/lastmile_qr_scan"}, "lon": -77.04479683333334, "type": "electric_bike", "fusion_lat": 0.0, "lat": 38.91286783333334, "name": "9689806e4437d469ee7044ef77883a9f", "fusion_lon": 0.0, "bike_id": "9689806e4437d469ee7044ef77883a9f", "is_disabled": 0, "is_reserved": 0}, {"rental_uris": {"ios": "https://dc.lft.to/lastmile_qr_scan", "android": "https://dc.lft.to/lastmile_qr_scan"}, "lon": -77.03639516666667, "type": "electric_scooter", "fusion_lat": 0.0, "lat": 38.91734816666666, "name": "0b35c10dbff67c9489b182056640ba23", "fusion_lon": 0.0, "bike_id": "0b35c10dbff67c9489b182056640ba23", "is_disabled": 0, "is_reserved": 0}, {"rental_uris": {"ios": "https://dc.lft.to/lastmile_qr_scan", "android": "https://dc.lft.to/lastmile_qr_scan"}, "lon": -77.02473033333334, "type": "electric_scooter", "fusion_lat": 0.0, "lat": 38.938217333333334, "name": "da7b0cd4ce44b25bfc3c671f5de5b794", "fusion_lon": 0.0, "bike_id": "da7b0cd4ce44b25bfc3c671f5de5b794", "is_disabled": 0, "is_reserved": 0}, {"rental_uris": {"ios": "https://dc.lft.to/lastmile_qr_scan", "android": "https://dc.lft.to/lastmile_qr_scan"}, "lon": -76.96523633333334, "type": "electric_scooter", "fusion_lat": 0.0, "lat": 38.8762845, "name": "36068253a25adf04483ce79a224f651d", "fusion_lon": 0.0, "bike_id": "36068253a25adf04483ce79a224f651d", "is_disabled": 0, "is_reserved": 0}, {"rental_uris": {"ios": "https://dc.lft.to/lastmile_qr_scan", "android": "https://dc.lft.to/lastmile_qr_scan"}, "lon": -76.98593133333334, "type": "electric_bike", "fusion_lat": 0.0, "lat": 38.90620416666667, "name": "955db57819e01e65da3654253faaad34", "fusion_lon": 0.0, "bike_id": "955db57819e01e65da3654253faaad34", "is_disabled": 0, "is_reserved": 0}, {"rental_uris": {"ios": "https://dc.lft.to/lastmile_qr_scan", "android": "https://dc.lft.to/lastmile_qr_scan"}, "lon": -77.0425695, "type": "electric_scooter", "fusion_lat": 0.0, "lat": 38.92055233333333, "name": "37db2a096e09fee37d9ef3428570d695", "fusion_lon": 0.0, "bike_id": "37db2a096e09fee37d9ef3428570d695", "is_disabled": 0, "is_reserved": 0}, {"rental_uris": {"ios": "https://dc.lft.to/lastmile_qr_scan", "android": "https://dc.lft.to/lastmile_qr_scan"}, "lon": -77.01379333333334, "type": "electric_scooter", "fusion_lat": 0.0, "lat": 38.919435, "name": "ecc4734565f812888494f93118c53444", "fusion_lon": 0.0, "bike_id": "ecc4734565f812888494f93118c53444", "is_disabled": 0, "is_reserved": 0}, {"rental_uris": {"ios": "https://dc.lft.to/lastmile_qr_scan", "android": "https://dc.lft.to/lastmile_qr_scan"}, "lon": -76.98559833333333, "type": "electric_scooter", "fusion_lat": 0.0, "lat": 38.899530666666664, "name": "b4b7245dcd4f000c943039ede367339b", "fusion_lon": 0.0, "bike_id": "b4b7245dcd4f000c943039ede367339b", "is_disabled": 0, "is_reserved": 0}, {"rental_uris": {"ios": "https://dc.lft.to/lastmile_qr_scan", "android": "https://dc.lft.to/lastmile_qr_scan"}, "lon": -77.096682, "type": "electric_scooter", "fusion_lat": 0.0, "lat": 38.91762766666667, "name": "67234bf99be17d1948f07258d9d5695f", "fusion_lon": 0.0, "bike_id": "67234bf99be17d1948f07258d9d5695f", "is_disabled": 0, "is_reserved": 0}, {"rental_uris": {"ios": "https://dc.lft.to/lastmile_qr_scan", "android": "https://dc.lft.to/lastmile_qr_scan"}, "lon": -77.03226116666667, "type": "electric_scooter", "fusion_lat": 0.0, "lat": 38.908685, "name": "9ec57f3804b948f91e8e4bfdc63cb1e4", "fusion_lon": 0.0, "bike_id": "9ec57f3804b948f91e8e4bfdc63cb1e4", "is_disabled": 0, "is_reserved": 0}, {"rental_uris": {"ios": "https://dc.lft.to/lastmile_qr_scan", "android": "https://dc.lft.to/lastmile_qr_scan"}, "lon": -77.04413583333333, "type": "electric_scooter", "fusion_lat": 0.0, "lat": 38.91898966666667, "name": "7031c8152341756b363f107a38451ec2", "fusion_lon": 0.0, "bike_id": "7031c8152341756b363f107a38451ec2", "is_disabled": 0, "is_reserved": 0}, {"rental_uris": {"ios": "https://dc.lft.to/lastmile_qr_scan", "android": "https://dc.lft.to/lastmile_qr_scan"}, "lon": -76.98882116666667, "type": "electric_scooter", "fusion_lat": 0.0, "lat": 38.866575833333336, "name": "da30289c80d69684a1794906fdc5d6e6", "fusion_lon": 0.0, "bike_id": "da30289c80d69684a1794906fdc5d6e6", "is_disabled": 0, "is_reserved": 0}, {"rental_uris": {"ios": "https://dc.lft.to/lastmile_qr_scan", "android": "https://dc.lft.to/lastmile_qr_scan"}, "lon": -76.93747483333334, "type": "electric_scooter", "fusion_lat": 0.0, "lat": 38.912881666666664, "name": "123478bb209aa7869c20136fc2f07725", "fusion_lon": 0.0, "bike_id": "123478bb209aa7869c20136fc2f07725", "is_disabled": 0, "is_reserved": 0}, {"rental_uris": {"ios": "https://dc.lft.to/lastmile_qr_scan", "android": "https://dc.lft.to/lastmile_qr_scan"}, "lon": -76.9770365, "type": "electric_scooter", "fusion_lat": 0.0, "lat": 38.90252066666667, "name": "7f46bafdf2b505d18f4ca14b2e7f78ab", "fusion_lon": 0.0, "bike_id": "7f46bafdf2b505d18f4ca14b2e7f78ab", "is_disabled": 0, "is_reserved": 0}, {"rental_uris": {"ios": "https://dc.lft.to/lastmile_qr_scan", "android": "https://dc.lft.to/lastmile_qr_scan"}, "lon": -77.03287433333334, "type": "electric_scooter", "fusion_lat": 0.0, "lat": 38.934875166666664, "name": "0b06910fbf2f1356678ab72e76546071", "fusion_lon": 0.0, "bike_id": "0b06910fbf2f1356678ab72e76546071", "is_disabled": 0, "is_reserved": 0}, {"rental_uris": {"ios": "https://dc.lft.to/lastmile_qr_scan", "android": "https://dc.lft.to/lastmile_qr_scan"}, "lon": -77.02228066666666, "type": "electric_scooter", "fusion_lat": 0.0, "lat": 38.892197833333334, "name": "628e8c6e6b132e7ec8b3b1ff81ead86a", "fusion_lon": 0.0, "bike_id": "628e8c6e6b132e7ec8b3b1ff81ead86a", "is_disabled": 0, "is_reserved": 0}, {"rental_uris": {"ios": "https://dc.lft.to/lastmile_qr_scan", "android": "https://dc.lft.to/lastmile_qr_scan"}, "lon": -76.98905, "type": "electric_scooter", "fusion_lat": 0.0, "lat": 38.8669115, "name": "24cda1e0539859cbc278a094c49c1592", "fusion_lon": 0.0, "bike_id": "24cda1e0539859cbc278a094c49c1592", "is_disabled": 0, "is_reserved": 0}, {"rental_uris": {"ios": "https://dc.lft.to/lastmile_qr_scan", "android": "https://dc.lft.to/lastmile_qr_scan"}, "lon": -77.06997766666667, "type": "electric_bike", "fusion_lat": 0.0, "lat": 38.95504716666667, "name": "3dd8ebd3e3ef6806f72541026a73c76d", "fusion_lon": 0.0, "bike_id": "3dd8ebd3e3ef6806f72541026a73c76d", "is_disabled": 0, "is_reserved": 0}, {"rental_uris": {"ios": "https://dc.lft.to/lastmile_qr_scan", "android": "https://dc.lft.to/lastmile_qr_scan"}, "lon": -77.02165283333333, "type": "electric_scooter", "fusion_lat": 0.0, "lat": 38.942901166666665, "name": "05309956b38be58252b4fa6aeac4c927", "fusion_lon": 0.0, "bike_id": "05309956b38be58252b4fa6aeac4c927", "is_disabled": 0, "is_reserved": 0}, {"rental_uris": {"ios": "https://dc.lft.to/lastmile_qr_scan", "android": "https://dc.lft.to/lastmile_qr_scan"}, "lon": -77.03659616666667, "type": "electric_scooter", "fusion_lat": 0.0, "lat": 38.922121833333335, "name": "d17b6cf293d2560760e1354952fe9066", "fusion_lon": 0.0, "bike_id": "d17b6cf293d2560760e1354952fe9066", "is_disabled": 0, "is_reserved": 0}, {"rental_uris": {"ios": "https://dc.lft.to/lastmile_qr_scan", "android": "https://dc.lft.to/lastmile_qr_scan"}, "lon": -77.03565583333334, "type": "electric_scooter", "fusion_lat": 0.0, "lat": 38.918043833333336, "name": "4f46174ab2faf3bc353cead04c1c4e3d", "fusion_lon": 0.0, "bike_id": "4f46174ab2faf3bc353cead04c1c4e3d", "is_disabled": 0, "is_reserved": 0}, {"rental_uris": {"ios": "https://dc.lft.to/lastmile_qr_scan", "android": "https://dc.lft.to/lastmile_qr_scan"}, "lon": -77.00984433333333, "type": "electric_scooter", "fusion_lat": 0.0, "lat": 38.87291966666667, "name": "46db251919986d50765e8f33fb62ed1d", "fusion_lon": 0.0, "bike_id": "46db251919986d50765e8f33fb62ed1d", "is_disabled": 0, "is_reserved": 0}, {"rental_uris": {"ios": "https://dc.lft.to/lastmile_qr_scan", "android": "https://dc.lft.to/lastmile_qr_scan"}, "lon": -77.10778633333334, "type": "electric_bike", "fusion_lat": 0.0, "lat": 38.89219816666667, "name": "41a029e5c30fb9bc495532aff793dd3d", "fusion_lon": 0.0, "bike_id": "41a029e5c30fb9bc495532aff793dd3d", "is_disabled": 0, "is_reserved": 0}, {"rental_uris": {"ios": "https://dc.lft.to/lastmile_qr_scan", "android": "https://dc.lft.to/lastmile_qr_scan"}, "lon": -77.0663275, "type": "electric_scooter", "fusion_lat": 0.0, "lat": 38.92803283333333, "name": "a26641482bde349afbd9da553c4f6583", "fusion_lon": 0.0, "bike_id": "a26641482bde349afbd9da553c4f6583", "is_disabled": 0, "is_reserved": 0}, {"rental_uris": {"ios": "https://dc.lft.to/lastmile_qr_scan", "android": "https://dc.lft.to/lastmile_qr_scan"}, "lon": -77.03849966666667, "type": "electric_scooter", "fusion_lat": 0.0, "lat": 38.907691, "name": "1df316fac8adc65d5209662fd53a598d", "fusion_lon": 0.0, "bike_id": "1df316fac8adc65d5209662fd53a598d", "is_disabled": 0, "is_reserved": 0}, {"rental_uris": {"ios": "https://dc.lft.to/lastmile_qr_scan", "android": "https://dc.lft.to/lastmile_qr_scan"}, "lon": -76.92710216666667, "type": "electric_scooter", "fusion_lat": 0.0, "lat": 38.887640166666664, "name": "70402c5bd0cd9a6696f4e2f7f5c4c1dd", "fusion_lon": 0.0, "bike_id": "70402c5bd0cd9a6696f4e2f7f5c4c1dd", "is_disabled": 0, "is_reserved": 0}, {"rental_uris": {"ios": "https://dc.lft.to/lastmile_qr_scan", "android": "https://dc.lft.to/lastmile_qr_scan"}, "lon": -77.07062533333334, "type": "electric_scooter", "fusion_lat": 0.0, "lat": 38.9011145, "name": "c0f4850261b6aa07c376d585b751385f", "fusion_lon": 0.0, "bike_id": "c0f4850261b6aa07c376d585b751385f", "is_disabled": 0, "is_reserved": 0}, {"rental_uris": {"ios": "https://dc.lft.to/lastmile_qr_scan", "android": "https://dc.lft.to/lastmile_qr_scan"}, "lon": -77.12372216666667, "type": "electric_bike", "fusion_lat": 0.0, "lat": 38.847387166666664, "name": "e4b271d3d4ed7ce0e91dc24c94f343af", "fusion_lon": 0.0, "bike_id": "e4b271d3d4ed7ce0e91dc24c94f343af", "is_disabled": 0, "is_reserved": 0}, {"rental_uris": {"ios": "https://dc.lft.to/lastmile_qr_scan", "android": "https://dc.lft.to/lastmile_qr_scan"}, "lon": -77.04374666666666, "type": "electric_scooter", "fusion_lat": 0.0, "lat": 38.93151566666667, "name": "f2362b9df1bd086f9da2660818ca84af", "fusion_lon": 0.0, "bike_id": "f2362b9df1bd086f9da2660818ca84af", "is_disabled": 0, "is_reserved": 0}, {"rental_uris": {"ios": "https://dc.lft.to/lastmile_qr_scan", "android": "https://dc.lft.to/lastmile_qr_scan"}, "lon": -77.03211483333334, "type": "electric_scooter", "fusion_lat": 0.0, "lat": 38.918095, "name": "649f3fc907902c4d8a5c8a4adc6e04db", "fusion_lon": 0.0, "bike_id": "649f3fc907902c4d8a5c8a4adc6e04db", "is_disabled": 0, "is_reserved": 0}, {"rental_uris": {"ios": "https://dc.lft.to/lastmile_qr_scan", "android": "https://dc.lft.to/lastmile_qr_scan"}, "lon": -77.02477866666666, "type": "electric_scooter", "fusion_lat": 0.0, "lat": 38.938488166666666, "name": "6a68a2c47c9dfc4869d57dac785d0c84", "fusion_lon": 0.0, "bike_id": "6a68a2c47c9dfc4869d57dac785d0c84", "is_disabled": 0, "is_reserved": 0}, {"rental_uris": {"ios": "https://dc.lft.to/lastmile_qr_scan", "android": "https://dc.lft.to/lastmile_qr_scan"}, "lon": -76.98825883333333, "type": "electric_scooter", "fusion_lat": 0.0, "lat": 38.88028, "name": "070a23ad4695759ccc732229a128e5f0", "fusion_lon": 0.0, "bike_id": "070a23ad4695759ccc732229a128e5f0", "is_disabled": 0, "is_reserved": 0}, {"rental_uris": {"ios": "https://dc.lft.to/lastmile_qr_scan", "android": "https://dc.lft.to/lastmile_qr_scan"}, "lon": -77.02953266666667, "type": "electric_scooter", "fusion_lat": 0.0, "lat": 38.916258166666665, "name": "ed226129ffd8d8294138545ec42617c0", "fusion_lon": 0.0, "bike_id": "ed226129ffd8d8294138545ec42617c0", "is_disabled": 0, "is_reserved": 0}, {"rental_uris": {"ios": "https://dc.lft.to/lastmile_qr_scan", "android": "https://dc.lft.to/lastmile_qr_scan"}, "lon": -77.04838166666667, "type": "electric_scooter", "fusion_lat": 0.0, "lat": 38.91102633333333, "name": "87619fda08e60ba4a7d1e02ea5ce8a1e", "fusion_lon": 0.0, "bike_id": "87619fda08e60ba4a7d1e02ea5ce8a1e", "is_disabled": 0, "is_reserved": 0}, {"rental_uris": {"ios": "https://dc.lft.to/lastmile_qr_scan", "android": "https://dc.lft.to/lastmile_qr_scan"}, "lon": -77.03558683333333, "type": "electric_scooter", "fusion_lat": 0.0, "lat": 38.92744783333333, "name": "3d83357cfa8642979eccb04e0a910b5d", "fusion_lon": 0.0, "bike_id": "3d83357cfa8642979eccb04e0a910b5d", "is_disabled": 0, "is_reserved": 0}, {"rental_uris": {"ios": "https://dc.lft.to/lastmile_qr_scan", "android": "https://dc.lft.to/lastmile_qr_scan"}, "lon": -77.0359055, "type": "electric_scooter", "fusion_lat": 0.0, "lat": 38.931375833333334, "name": "cfec93a37c8a54f57a3239b282d21017", "fusion_lon": 0.0, "bike_id": "cfec93a37c8a54f57a3239b282d21017", "is_disabled": 0, "is_reserved": 0}, {"rental_uris": {"ios": "https://dc.lft.to/lastmile_qr_scan", "android": "https://dc.lft.to/lastmile_qr_scan"}, "lon": -76.996368, "type": "electric_bike", "fusion_lat": 0.0, "lat": 38.84669266666667, "name": "5e9940aa3aeb7420d565e458d7a457e2", "fusion_lon": 0.0, "bike_id": "5e9940aa3aeb7420d565e458d7a457e2", "is_disabled": 0, "is_reserved": 0}, {"rental_uris": {"ios": "https://dc.lft.to/lastmile_qr_scan", "android": "https://dc.lft.to/lastmile_qr_scan"}, "lon": -77.03662433333334, "type": "electric_scooter", "fusion_lat": 0.0, "lat": 38.92998216666667, "name": "66f9e4c10328f70106c14c19fc3b888a", "fusion_lon": 0.0, "bike_id": "66f9e4c10328f70106c14c19fc3b888a", "is_disabled": 0, "is_reserved": 0}, {"rental_uris": {"ios": "https://dc.lft.to/lastmile_qr_scan", "android": "https://dc.lft.to/lastmile_qr_scan"}, "lon": -77.024512, "type": "electric_scooter", "fusion_lat": 0.0, "lat": 38.97934733333334, "name": "9f175eb2265fdfe35cc3f7712ea9836e", "fusion_lon": 0.0, "bike_id": "9f175eb2265fdfe35cc3f7712ea9836e", "is_disabled": 0, "is_reserved": 0}, {"rental_uris": {"ios": "https://dc.lft.to/lastmile_qr_scan", "android": "https://dc.lft.to/lastmile_qr_scan"}, "lon": -77.041289, "type": "electric_scooter", "fusion_lat": 0.0, "lat": 38.9234975, "name": "003dd93b904083f5e1d7e690cb512739", "fusion_lon": 0.0, "bike_id": "003dd93b904083f5e1d7e690cb512739", "is_disabled": 0, "is_reserved": 0}, {"rental_uris": {"ios": "https://dc.lft.to/lastmile_qr_scan", "android": "https://dc.lft.to/lastmile_qr_scan"}, "lon": -77.03074466666666, "type": "electric_scooter", "fusion_lat": 0.0, "lat": 38.90469183333333, "name": "307263249853a614c6f27b0c7dbf16a3", "fusion_lon": 0.0, "bike_id": "307263249853a614c6f27b0c7dbf16a3", "is_disabled": 0, "is_reserved": 0}, {"rental_uris": {"ios": "https://dc.lft.to/lastmile_qr_scan", "android": "https://dc.lft.to/lastmile_qr_scan"}, "lon": -77.02574566666667, "type": "electric_scooter", "fusion_lat": 0.0, "lat": 38.9181495, "name": "92562332e4d67dab5cfe58f19af3f8c1", "fusion_lon": 0.0, "bike_id": "92562332e4d67dab5cfe58f19af3f8c1", "is_disabled": 0, "is_reserved": 0}, {"rental_uris": {"ios": "https://dc.lft.to/lastmile_qr_scan", "android": "https://dc.lft.to/lastmile_qr_scan"}, "lon": -77.047935, "type": "electric_scooter", "fusion_lat": 0.0, "lat": 38.90720616666667, "name": "1266049fae5531f485866f81a1307d82", "fusion_lon": 0.0, "bike_id": "1266049fae5531f485866f81a1307d82", "is_disabled": 0, "is_reserved": 0}, {"rental_uris": {"ios": "https://dc.lft.to/lastmile_qr_scan", "android": "https://dc.lft.to/lastmile_qr_scan"}, "lon": -77.023341, "type": "electric_scooter", "fusion_lat": 0.0, "lat": 38.930491, "name": "3ef54667353ab429f44de259eb64c3fc", "fusion_lon": 0.0, "bike_id": "3ef54667353ab429f44de259eb64c3fc", "is_disabled": 0, "is_reserved": 0}, {"rental_uris": {"ios": "https://dc.lft.to/lastmile_qr_scan", "android": "https://dc.lft.to/lastmile_qr_scan"}, "lon": -76.97331116666666, "type": "electric_bike", "fusion_lat": 0.0, "lat": 38.850620166666666, "name": "a8539a31f09c8b396d77b5624279edb8", "fusion_lon": 0.0, "bike_id": "a8539a31f09c8b396d77b5624279edb8", "is_disabled": 0, "is_reserved": 0}, {"rental_uris": {"ios": "https://dc.lft.to/lastmile_qr_scan", "android": "https://dc.lft.to/lastmile_qr_scan"}, "lon": -77.02415166666667, "type": "electric_scooter", "fusion_lat": 0.0, "lat": 38.9181935, "name": "283a0d57b13df2c0908fa399a94301b4", "fusion_lon": 0.0, "bike_id": "283a0d57b13df2c0908fa399a94301b4", "is_disabled": 0, "is_reserved": 0}, {"rental_uris": {"ios": "https://dc.lft.to/lastmile_qr_scan", "android": "https://dc.lft.to/lastmile_qr_scan"}, "lon": -77.0502945, "type": "electric_scooter", "fusion_lat": 0.0, "lat": 38.8964815, "name": "e7a2c442cb2ceea6fdf65b7c17e22ee2", "fusion_lon": 0.0, "bike_id": "e7a2c442cb2ceea6fdf65b7c17e22ee2", "is_disabled": 0, "is_reserved": 0}, {"rental_uris": {"ios": "https://dc.lft.to/lastmile_qr_scan", "android": "https://dc.lft.to/lastmile_qr_scan"}, "lon": -77.04618666666667, "type": "electric_scooter", "fusion_lat": 0.0, "lat": 38.90228883333333, "name": "049fdd8a073fc1b2d85e8815d5fba8c2", "fusion_lon": 0.0, "bike_id": "049fdd8a073fc1b2d85e8815d5fba8c2", "is_disabled": 0, "is_reserved": 0}, {"rental_uris": {"ios": "https://dc.lft.to/lastmile_qr_scan", "android": "https://dc.lft.to/lastmile_qr_scan"}, "lon": -77.05265383333334, "type": "electric_scooter", "fusion_lat": 0.0, "lat": 38.91016166666667, "name": "312a497e8a06ff3d6e913e428d6e24eb", "fusion_lon": 0.0, "bike_id": "312a497e8a06ff3d6e913e428d6e24eb", "is_disabled": 0, "is_reserved": 0}, {"rental_uris": {"ios": "https://dc.lft.to/lastmile_qr_scan", "android": "https://dc.lft.to/lastmile_qr_scan"}, "lon": -77.03805, "type": "electric_scooter", "fusion_lat": 0.0, "lat": 38.921942333333334, "name": "599ca9782595d398939b50027216e6f6", "fusion_lon": 0.0, "bike_id": "599ca9782595d398939b50027216e6f6", "is_disabled": 0, "is_reserved": 0}, {"rental_uris": {"ios": "https://dc.lft.to/lastmile_qr_scan", "android": "https://dc.lft.to/lastmile_qr_scan"}, "lon": -77.03938816666667, "type": "electric_scooter", "fusion_lat": 0.0, "lat": 38.902728333333336, "name": "396e16fb8ac68685153276963c61c311", "fusion_lon": 0.0, "bike_id": "396e16fb8ac68685153276963c61c311", "is_disabled": 0, "is_reserved": 0}, {"rental_uris": {"ios": "https://dc.lft.to/lastmile_qr_scan", "android": "https://dc.lft.to/lastmile_qr_scan"}, "lon": -76.98089333333333, "type": "electric_bike", "fusion_lat": 0.0, "lat": 38.8813285, "name": "ba60f13ef2ea897c30623e526a9fc453", "fusion_lon": 0.0, "bike_id": "ba60f13ef2ea897c30623e526a9fc453", "is_disabled": 0, "is_reserved": 0}, {"rental_uris": {"ios": "https://dc.lft.to/lastmile_qr_scan", "android": "https://dc.lft.to/lastmile_qr_scan"}, "lon": -77.02460266666667, "type": "electric_scooter", "fusion_lat": 0.0, "lat": 38.90845983333333, "name": "244c1e57cf9982eb3185d4df720c4800", "fusion_lon": 0.0, "bike_id": "244c1e57cf9982eb3185d4df720c4800", "is_disabled": 0, "is_reserved": 0}, {"rental_uris": {"ios": "https://dc.lft.to/lastmile_qr_scan", "android": "https://dc.lft.to/lastmile_qr_scan"}, "lon": -76.9936915, "type": "electric_scooter", "fusion_lat": 0.0, "lat": 38.87973816666667, "name": "28659f983d9480de35abdbbf8015f50b", "fusion_lon": 0.0, "bike_id": "28659f983d9480de35abdbbf8015f50b", "is_disabled": 0, "is_reserved": 0}, {"rental_uris": {"ios": "https://dc.lft.to/lastmile_qr_scan", "android": "https://dc.lft.to/lastmile_qr_scan"}, "lon": -77.05568733333334, "type": "electric_scooter", "fusion_lat": 0.0, "lat": 38.89897533333333, "name": "4de0d5b40504c90165212047124d84b8", "fusion_lon": 0.0, "bike_id": "4de0d5b40504c90165212047124d84b8", "is_disabled": 0, "is_reserved": 0}, {"rental_uris": {"ios": "https://dc.lft.to/lastmile_qr_scan", "android": "https://dc.lft.to/lastmile_qr_scan"}, "lon": -77.0771995, "type": "electric_scooter", "fusion_lat": 0.0, "lat": 38.947033833333336, "name": "5f1bc96c8b5dee67da8acdf72373e3c2", "fusion_lon": 0.0, "bike_id": "5f1bc96c8b5dee67da8acdf72373e3c2", "is_disabled": 0, "is_reserved": 0}, {"rental_uris": {"ios": "https://dc.lft.to/lastmile_qr_scan", "android": "https://dc.lft.to/lastmile_qr_scan"}, "lon": -77.03321883333334, "type": "electric_scooter", "fusion_lat": 0.0, "lat": 38.912684666666664, "name": "50deea38fdfe9db59f8163c76389d77e", "fusion_lon": 0.0, "bike_id": "50deea38fdfe9db59f8163c76389d77e", "is_disabled": 0, "is_reserved": 0}, {"rental_uris": {"ios": "https://dc.lft.to/lastmile_qr_scan", "android": "https://dc.lft.to/lastmile_qr_scan"}, "lon": -77.02221816666666, "type": "electric_scooter", "fusion_lat": 0.0, "lat": 38.912711, "name": "ec59c62658eabf7266f707dd7a57f342", "fusion_lon": 0.0, "bike_id": "ec59c62658eabf7266f707dd7a57f342", "is_disabled": 0, "is_reserved": 0}, {"rental_uris": {"ios": "https://dc.lft.to/lastmile_qr_scan", "android": "https://dc.lft.to/lastmile_qr_scan"}, "lon": -77.031421, "type": "electric_scooter", "fusion_lat": 0.0, "lat": 38.9376635, "name": "96bae0afadad155b3c61770210fd96f7", "fusion_lon": 0.0, "bike_id": "96bae0afadad155b3c61770210fd96f7", "is_disabled": 0, "is_reserved": 0}, {"rental_uris": {"ios": "https://dc.lft.to/lastmile_qr_scan", "android": "https://dc.lft.to/lastmile_qr_scan"}, "lon": -77.01613783333333, "type": "electric_scooter", "fusion_lat": 0.0, "lat": 38.906085, "name": "a897b0733fb53327384d6bb5ec86ecb7", "fusion_lon": 0.0, "bike_id": "a897b0733fb53327384d6bb5ec86ecb7", "is_disabled": 0, "is_reserved": 0}, {"rental_uris": {"ios": "https://dc.lft.to/lastmile_qr_scan", "android": "https://dc.lft.to/lastmile_qr_scan"}, "lon": -77.04165433333333, "type": "electric_scooter", "fusion_lat": 0.0, "lat": 38.89936016666667, "name": "339ddc9eb6e38d8b072b61b6d471498f", "fusion_lon": 0.0, "bike_id": "339ddc9eb6e38d8b072b61b6d471498f", "is_disabled": 0, "is_reserved": 0}, {"rental_uris": {"ios": "https://dc.lft.to/lastmile_qr_scan", "android": "https://dc.lft.to/lastmile_qr_scan"}, "lon": -77.02311983333334, "type": "electric_scooter", "fusion_lat": 0.0, "lat": 38.88189066666666, "name": "126080131e645d5d37e07d43cc3d37b2", "fusion_lon": 0.0, "bike_id": "126080131e645d5d37e07d43cc3d37b2", "is_disabled": 0, "is_reserved": 0}, {"rental_uris": {"ios": "https://dc.lft.to/lastmile_qr_scan", "android": "https://dc.lft.to/lastmile_qr_scan"}, "lon": -77.0451815, "type": "electric_scooter", "fusion_lat": 0.0, "lat": 38.9036545, "name": "2f51831c606991c761e9d56e5af18b2a", "fusion_lon": 0.0, "bike_id": "2f51831c606991c761e9d56e5af18b2a", "is_disabled": 0, "is_reserved": 0}, {"rental_uris": {"ios": "https://dc.lft.to/lastmile_qr_scan", "android": "https://dc.lft.to/lastmile_qr_scan"}, "lon": -77.04809, "type": "electric_scooter", "fusion_lat": 0.0, "lat": 38.897245833333336, "name": "094fed12cefd04b3cc9743608652f443", "fusion_lon": 0.0, "bike_id": "094fed12cefd04b3cc9743608652f443", "is_disabled": 0, "is_reserved": 0}, {"rental_uris": {"ios": "https://dc.lft.to/lastmile_qr_scan", "android": "https://dc.lft.to/lastmile_qr_scan"}, "lon": -77.02348216666667, "type": "electric_scooter", "fusion_lat": 0.0, "lat": 38.91960266666667, "name": "9311ea1c0f5e90fc835ad5f606dfb67d", "fusion_lon": 0.0, "bike_id": "9311ea1c0f5e90fc835ad5f606dfb67d", "is_disabled": 0, "is_reserved": 0}, {"rental_uris": {"ios": "https://dc.lft.to/lastmile_qr_scan", "android": "https://dc.lft.to/lastmile_qr_scan"}, "lon": -77.012127, "type": "electric_scooter", "fusion_lat": 0.0, "lat": 38.92033983333334, "name": "5b310882b75fcf01b236e887c04416fb", "fusion_lon": 0.0, "bike_id": "5b310882b75fcf01b236e887c04416fb", "is_disabled": 0, "is_reserved": 0}, {"rental_uris": {"ios": "https://dc.lft.to/lastmile_qr_scan", "android": "https://dc.lft.to/lastmile_qr_scan"}, "lon": -76.99160233333333, "type": "electric_scooter", "fusion_lat": 0.0, "lat": 38.893422, "name": "5ea66d6565837fb9964657242cf818bf", "fusion_lon": 0.0, "bike_id": "5ea66d6565837fb9964657242cf818bf", "is_disabled": 0, "is_reserved": 0}, {"rental_uris": {"ios": "https://dc.lft.to/lastmile_qr_scan", "android": "https://dc.lft.to/lastmile_qr_scan"}, "lon": -77.0271775, "type": "electric_scooter", "fusion_lat": 0.0, "lat": 38.918125, "name": "273b8deff89c8e49e80d1a7f30d0d670", "fusion_lon": 0.0, "bike_id": "273b8deff89c8e49e80d1a7f30d0d670", "is_disabled": 0, "is_reserved": 0}, {"rental_uris": {"ios": "https://dc.lft.to/lastmile_qr_scan", "android": "https://dc.lft.to/lastmile_qr_scan"}, "lon": -77.05520466666667, "type": "electric_scooter", "fusion_lat": 0.0, "lat": 38.91061666666667, "name": "2bcfc3fa88022f203afa0cdf67418b6c", "fusion_lon": 0.0, "bike_id": "2bcfc3fa88022f203afa0cdf67418b6c", "is_disabled": 0, "is_reserved": 0}, {"rental_uris": {"ios": "https://dc.lft.to/lastmile_qr_scan", "android": "https://dc.lft.to/lastmile_qr_scan"}, "lon": -77.02971933333333, "type": "electric_scooter", "fusion_lat": 0.0, "lat": 38.9162825, "name": "de9cac6582139ebb5e61beefa0110f20", "fusion_lon": 0.0, "bike_id": "de9cac6582139ebb5e61beefa0110f20", "is_disabled": 0, "is_reserved": 0}, {"rental_uris": {"ios": "https://dc.lft.to/lastmile_qr_scan", "android": "https://dc.lft.to/lastmile_qr_scan"}, "lon": -76.99801616666667, "type": "electric_scooter", "fusion_lat": 0.0, "lat": 38.89987633333333, "name": "dccff6099c51795bdfeca6413cca8b0f", "fusion_lon": 0.0, "bike_id": "dccff6099c51795bdfeca6413cca8b0f", "is_disabled": 0, "is_reserved": 0}, {"rental_uris": {"ios": "https://dc.lft.to/lastmile_qr_scan", "android": "https://dc.lft.to/lastmile_qr_scan"}, "lon": -76.98431883333333, "type": "electric_scooter", "fusion_lat": 0.0, "lat": 38.914539166666664, "name": "21c66d2780473c6a8c83aaac5a442fb3", "fusion_lon": 0.0, "bike_id": "21c66d2780473c6a8c83aaac5a442fb3", "is_disabled": 0, "is_reserved": 0}, {"rental_uris": {"ios": "https://dc.lft.to/lastmile_qr_scan", "android": "https://dc.lft.to/lastmile_qr_scan"}, "lon": -76.993618, "type": "electric_scooter", "fusion_lat": 0.0, "lat": 38.90040616666667, "name": "fb82f22ebf012d793e9e6d330fa11aeb", "fusion_lon": 0.0, "bike_id": "fb82f22ebf012d793e9e6d330fa11aeb", "is_disabled": 0, "is_reserved": 0}, {"rental_uris": {"ios": "https://dc.lft.to/lastmile_qr_scan", "android": "https://dc.lft.to/lastmile_qr_scan"}, "lon": -76.89533133333333, "type": "electric_bike", "fusion_lat": 0.0, "lat": 38.945514833333334, "name": "0aa39d6e984d3db5f7def277c1d01a49", "fusion_lon": 0.0, "bike_id": "0aa39d6e984d3db5f7def277c1d01a49", "is_disabled": 0, "is_reserved": 0}, {"rental_uris": {"ios": "https://dc.lft.to/lastmile_qr_scan", "android": "https://dc.lft.to/lastmile_qr_scan"}, "lon": -77.0575815, "type": "electric_scooter", "fusion_lat": 0.0, "lat": 38.924613, "name": "ebc2aca7a30a080827733c00c1cd65ef", "fusion_lon": 0.0, "bike_id": "ebc2aca7a30a080827733c00c1cd65ef", "is_disabled": 0, "is_reserved": 0}, {"rental_uris": {"ios": "https://dc.lft.to/lastmile_qr_scan", "android": "https://dc.lft.to/lastmile_qr_scan"}, "lon": -77.024589, "type": "electric_scooter", "fusion_lat": 0.0, "lat": 38.902487666666666, "name": "56701df0fda9e8d141f8ae2d108f122f", "fusion_lon": 0.0, "bike_id": "56701df0fda9e8d141f8ae2d108f122f", "is_disabled": 0, "is_reserved": 0}, {"rental_uris": {"ios": "https://dc.lft.to/lastmile_qr_scan", "android": "https://dc.lft.to/lastmile_qr_scan"}, "lon": -77.03827716666666, "type": "electric_scooter", "fusion_lat": 0.0, "lat": 38.91695166666667, "name": "a2c2e869180eac4ea8f402cbe7cf38cd", "fusion_lon": 0.0, "bike_id": "a2c2e869180eac4ea8f402cbe7cf38cd", "is_disabled": 0, "is_reserved": 0}, {"rental_uris": {"ios": "https://dc.lft.to/lastmile_qr_scan", "android": "https://dc.lft.to/lastmile_qr_scan"}, "lon": -77.044604, "type": "electric_scooter", "fusion_lat": 0.0, "lat": 38.9055145, "name": "ab9826284c3e56f9abf7c8a7cd508d29", "fusion_lon": 0.0, "bike_id": "ab9826284c3e56f9abf7c8a7cd508d29", "is_disabled": 0, "is_reserved": 0}, {"rental_uris": {"ios": "https://dc.lft.to/lastmile_qr_scan", "android": "https://dc.lft.to/lastmile_qr_scan"}, "lon": -77.03229333333333, "type": "electric_scooter", "fusion_lat": 0.0, "lat": 38.916974833333335, "name": "fc790b7b7e59214c058eb68f8e4b9d9d", "fusion_lon": 0.0, "bike_id": "fc790b7b7e59214c058eb68f8e4b9d9d", "is_disabled": 0, "is_reserved": 0}, {"rental_uris": {"ios": "https://dc.lft.to/lastmile_qr_scan", "android": "https://dc.lft.to/lastmile_qr_scan"}, "lon": -77.02692433333333, "type": "electric_scooter", "fusion_lat": 0.0, "lat": 38.91866383333333, "name": "f45329e89532e813be518a239b7c40c9", "fusion_lon": 0.0, "bike_id": "f45329e89532e813be518a239b7c40c9", "is_disabled": 0, "is_reserved": 0}, {"rental_uris": {"ios": "https://dc.lft.to/lastmile_qr_scan", "android": "https://dc.lft.to/lastmile_qr_scan"}, "lon": -77.01582983333333, "type": "electric_scooter", "fusion_lat": 0.0, "lat": 38.887492, "name": "ecc1eef3c2a970efb757850622f8e116", "fusion_lon": 0.0, "bike_id": "ecc1eef3c2a970efb757850622f8e116", "is_disabled": 0, "is_reserved": 0}, {"rental_uris": {"ios": "https://dc.lft.to/lastmile_qr_scan", "android": "https://dc.lft.to/lastmile_qr_scan"}, "lon": -77.02758366666667, "type": "electric_scooter", "fusion_lat": 0.0, "lat": 38.91692466666667, "name": "a358f964d8a1d7bfa5716b03527715a1", "fusion_lon": 0.0, "bike_id": "a358f964d8a1d7bfa5716b03527715a1", "is_disabled": 0, "is_reserved": 0}, {"rental_uris": {"ios": "https://dc.lft.to/lastmile_qr_scan", "android": "https://dc.lft.to/lastmile_qr_scan"}, "lon": -77.02962216666667, "type": "electric_scooter", "fusion_lat": 0.0, "lat": 38.92524266666667, "name": "25f2f3e094ce9b772baa0edc0736fdc7", "fusion_lon": 0.0, "bike_id": "25f2f3e094ce9b772baa0edc0736fdc7", "is_disabled": 0, "is_reserved": 0}, {"rental_uris": {"ios": "https://dc.lft.to/lastmile_qr_scan", "android": "https://dc.lft.to/lastmile_qr_scan"}, "lon": -77.00673416666666, "type": "electric_scooter", "fusion_lat": 0.0, "lat": 38.8763865, "name": "995b19c4197e7a1157961997dd203deb", "fusion_lon": 0.0, "bike_id": "995b19c4197e7a1157961997dd203deb", "is_disabled": 0, "is_reserved": 0}, {"rental_uris": {"ios": "https://dc.lft.to/lastmile_qr_scan", "android": "https://dc.lft.to/lastmile_qr_scan"}, "lon": -77.02347233333333, "type": "electric_scooter", "fusion_lat": 0.0, "lat": 38.933851, "name": "92c436e4ab5d1e17b4681f24d9c6ec42", "fusion_lon": 0.0, "bike_id": "92c436e4ab5d1e17b4681f24d9c6ec42", "is_disabled": 0, "is_reserved": 0}, {"rental_uris": {"ios": "https://dc.lft.to/lastmile_qr_scan", "android": "https://dc.lft.to/lastmile_qr_scan"}, "lon": -77.00215116666666, "type": "electric_scooter", "fusion_lat": 0.0, "lat": 38.91183633333333, "name": "7c02236d7e96bf1a186e67f269c7762f", "fusion_lon": 0.0, "bike_id": "7c02236d7e96bf1a186e67f269c7762f", "is_disabled": 0, "is_reserved": 0}, {"rental_uris": {"ios": "https://dc.lft.to/lastmile_qr_scan", "android": "https://dc.lft.to/lastmile_qr_scan"}, "lon": -77.02478816666667, "type": "electric_scooter", "fusion_lat": 0.0, "lat": 38.93850883333333, "name": "d939faa48a197cad785854d0e8c5a764", "fusion_lon": 0.0, "bike_id": "d939faa48a197cad785854d0e8c5a764", "is_disabled": 0, "is_reserved": 0}, {"rental_uris": {"ios": "https://dc.lft.to/lastmile_qr_scan", "android": "https://dc.lft.to/lastmile_qr_scan"}, "lon": -76.980903, "type": "electric_bike", "fusion_lat": 0.0, "lat": 38.90284333333334, "name": "21353a1e9e790a28390b2af7b7b23d0b", "fusion_lon": 0.0, "bike_id": "21353a1e9e790a28390b2af7b7b23d0b", "is_disabled": 0, "is_reserved": 0}, {"rental_uris": {"ios": "https://dc.lft.to/lastmile_qr_scan", "android": "https://dc.lft.to/lastmile_qr_scan"}, "lon": -77.0790365, "type": "electric_bike", "fusion_lat": 0.0, "lat": 38.839344833333335, "name": "3da2b14f96d614e1ebf927d37e1971cc", "fusion_lon": 0.0, "bike_id": "3da2b14f96d614e1ebf927d37e1971cc", "is_disabled": 0, "is_reserved": 0}, {"rental_uris": {"ios": "https://dc.lft.to/lastmile_qr_scan", "android": "https://dc.lft.to/lastmile_qr_scan"}, "lon": -77.00336483333334, "type": "electric_scooter", "fusion_lat": 0.0, "lat": 38.91340666666667, "name": "cb35b1420c3af08f7a8d56c27e8bec3e", "fusion_lon": 0.0, "bike_id": "cb35b1420c3af08f7a8d56c27e8bec3e", "is_disabled": 0, "is_reserved": 0}, {"rental_uris": {"ios": "https://dc.lft.to/lastmile_qr_scan", "android": "https://dc.lft.to/lastmile_qr_scan"}, "lon": -76.936135, "type": "electric_bike", "fusion_lat": 0.0, "lat": 38.9707755, "name": "2f7cef02bd88dcb5ab9d5a4dd1c5abbe", "fusion_lon": 0.0, "bike_id": "2f7cef02bd88dcb5ab9d5a4dd1c5abbe", "is_disabled": 0, "is_reserved": 0}, {"rental_uris": {"ios": "https://dc.lft.to/lastmile_qr_scan", "android": "https://dc.lft.to/lastmile_qr_scan"}, "lon": -76.976118, "type": "electric_bike", "fusion_lat": 0.0, "lat": 38.91311733333333, "name": "fde5291a453dbea30be23b6e55f7c842", "fusion_lon": 0.0, "bike_id": "fde5291a453dbea30be23b6e55f7c842", "is_disabled": 0, "is_reserved": 0}, {"rental_uris": {"ios": "https://dc.lft.to/lastmile_qr_scan", "android": "https://dc.lft.to/lastmile_qr_scan"}, "lon": -77.0661965, "type": "electric_bike", "fusion_lat": 0.0, "lat": 38.911278833333334, "name": "65ffe4752f89eaa9e5839a7d09658f82", "fusion_lon": 0.0, "bike_id": "65ffe4752f89eaa9e5839a7d09658f82", "is_disabled": 0, "is_reserved": 0}, {"rental_uris": {"ios": "https://dc.lft.to/lastmile_qr_scan", "android": "https://dc.lft.to/lastmile_qr_scan"}, "lon": -77.0285425, "type": "electric_scooter", "fusion_lat": 0.0, "lat": 38.9237065, "name": "47bbb2c28ffa8c985087afa260067fe1", "fusion_lon": 0.0, "bike_id": "47bbb2c28ffa8c985087afa260067fe1", "is_disabled": 0, "is_reserved": 0}, {"rental_uris": {"ios": "https://dc.lft.to/lastmile_qr_scan", "android": "https://dc.lft.to/lastmile_qr_scan"}, "lon": -77.04704266666667, "type": "electric_scooter", "fusion_lat": 0.0, "lat": 38.90859283333333, "name": "6f448634b1db8a9f3bc230ef76fb2619", "fusion_lon": 0.0, "bike_id": "6f448634b1db8a9f3bc230ef76fb2619", "is_disabled": 0, "is_reserved": 0}, {"rental_uris": {"ios": "https://dc.lft.to/lastmile_qr_scan", "android": "https://dc.lft.to/lastmile_qr_scan"}, "lon": -77.06690516666667, "type": "electric_scooter", "fusion_lat": 0.0, "lat": 38.90979566666667, "name": "f82399c6df87db92b2f35a8a1fa366e0", "fusion_lon": 0.0, "bike_id": "f82399c6df87db92b2f35a8a1fa366e0", "is_disabled": 0, "is_reserved": 0}, {"rental_uris": {"ios": "https://dc.lft.to/lastmile_qr_scan", "android": "https://dc.lft.to/lastmile_qr_scan"}, "lon": -77.03523083333333, "type": "electric_scooter", "fusion_lat": 0.0, "lat": 38.92336816666667, "name": "882335927f810117c0fc6692f905c44e", "fusion_lon": 0.0, "bike_id": "882335927f810117c0fc6692f905c44e", "is_disabled": 0, "is_reserved": 0}, {"rental_uris": {"ios": "https://dc.lft.to/lastmile_qr_scan", "android": "https://dc.lft.to/lastmile_qr_scan"}, "lon": -77.03868683333333, "type": "electric_scooter", "fusion_lat": 0.0, "lat": 38.91560716666667, "name": "1935ee8a33cc5283d8387cf1659faf1f", "fusion_lon": 0.0, "bike_id": "1935ee8a33cc5283d8387cf1659faf1f", "is_disabled": 0, "is_reserved": 0}, {"rental_uris": {"ios": "https://dc.lft.to/lastmile_qr_scan", "android": "https://dc.lft.to/lastmile_qr_scan"}, "lon": -77.03954433333334, "type": "electric_scooter", "fusion_lat": 0.0, "lat": 38.916333333333334, "name": "82d72c3897c9d186334b5d1592af3bd2", "fusion_lon": 0.0, "bike_id": "82d72c3897c9d186334b5d1592af3bd2", "is_disabled": 0, "is_reserved": 0}, {"rental_uris": {"ios": "https://dc.lft.to/lastmile_qr_scan", "android": "https://dc.lft.to/lastmile_qr_scan"}, "lon": -77.02963266666667, "type": "electric_scooter", "fusion_lat": 0.0, "lat": 38.905259666666666, "name": "093e1199aa604042dadd66cacbabfb40", "fusion_lon": 0.0, "bike_id": "093e1199aa604042dadd66cacbabfb40", "is_disabled": 0, "is_reserved": 0}, {"rental_uris": {"ios": "https://dc.lft.to/lastmile_qr_scan", "android": "https://dc.lft.to/lastmile_qr_scan"}, "lon": -76.99033783333333, "type": "electric_scooter", "fusion_lat": 0.0, "lat": 38.858718333333336, "name": "4dd1113fd057b01b69b406e36824bdca", "fusion_lon": 0.0, "bike_id": "4dd1113fd057b01b69b406e36824bdca", "is_disabled": 0, "is_reserved": 0}, {"rental_uris": {"ios": "https://dc.lft.to/lastmile_qr_scan", "android": "https://dc.lft.to/lastmile_qr_scan"}, "lon": -77.00913783333333, "type": "electric_scooter", "fusion_lat": 0.0, "lat": 38.9123675, "name": "f496e561df3c6bc68ed50f7f793d51a8", "fusion_lon": 0.0, "bike_id": "f496e561df3c6bc68ed50f7f793d51a8", "is_disabled": 0, "is_reserved": 0}, {"rental_uris": {"ios": "https://dc.lft.to/lastmile_qr_scan", "android": "https://dc.lft.to/lastmile_qr_scan"}, "lon": -77.04379433333334, "type": "electric_scooter", "fusion_lat": 0.0, "lat": 38.9228245, "name": "a8fc747da8517b89870be80e6003fb12", "fusion_lon": 0.0, "bike_id": "a8fc747da8517b89870be80e6003fb12", "is_disabled": 0, "is_reserved": 0}, {"rental_uris": {"ios": "https://dc.lft.to/lastmile_qr_scan", "android": "https://dc.lft.to/lastmile_qr_scan"}, "lon": -77.0328185, "type": "electric_scooter", "fusion_lat": 0.0, "lat": 38.93205966666667, "name": "d0d84d24befc743c1cd10fd26c81fd64", "fusion_lon": 0.0, "bike_id": "d0d84d24befc743c1cd10fd26c81fd64", "is_disabled": 0, "is_reserved": 0}, {"rental_uris": {"ios": "https://dc.lft.to/lastmile_qr_scan", "android": "https://dc.lft.to/lastmile_qr_scan"}, "lon": -76.93173633333333, "type": "electric_scooter", "fusion_lat": 0.0, "lat": 38.898821, "name": "22c161e2aae1255ff363a941095a0e09", "fusion_lon": 0.0, "bike_id": "22c161e2aae1255ff363a941095a0e09", "is_disabled": 0, "is_reserved": 0}, {"rental_uris": {"ios": "https://dc.lft.to/lastmile_qr_scan", "android": "https://dc.lft.to/lastmile_qr_scan"}, "lon": -76.99489216666667, "type": "electric_scooter", "fusion_lat": 0.0, "lat": 38.862391, "name": "d2fc93f66b732f273628f49a2363bf6f", "fusion_lon": 0.0, "bike_id": "d2fc93f66b732f273628f49a2363bf6f", "is_disabled": 0, "is_reserved": 0}, {"rental_uris": {"ios": "https://dc.lft.to/lastmile_qr_scan", "android": "https://dc.lft.to/lastmile_qr_scan"}, "lon": -77.0382735, "type": "electric_scooter", "fusion_lat": 0.0, "lat": 38.9169205, "name": "d63128c97285b5952bedc01f6d2666b2", "fusion_lon": 0.0, "bike_id": "d63128c97285b5952bedc01f6d2666b2", "is_disabled": 0, "is_reserved": 0}, {"rental_uris": {"ios": "https://dc.lft.to/lastmile_qr_scan", "android": "https://dc.lft.to/lastmile_qr_scan"}, "lon": -77.03668033333334, "type": "electric_scooter", "fusion_lat": 0.0, "lat": 38.918175166666664, "name": "776d3b248b1154a2c747cc44d17d5bd5", "fusion_lon": 0.0, "bike_id": "776d3b248b1154a2c747cc44d17d5bd5", "is_disabled": 0, "is_reserved": 0}, {"rental_uris": {"ios": "https://dc.lft.to/lastmile_qr_scan", "android": "https://dc.lft.to/lastmile_qr_scan"}, "lon": -77.120478, "type": "electric_bike", "fusion_lat": 0.0, "lat": 38.85509, "name": "006e3025942a567d23cf993abb0b53b9", "fusion_lon": 0.0, "bike_id": "006e3025942a567d23cf993abb0b53b9", "is_disabled": 0, "is_reserved": 0}, {"rental_uris": {"ios": "https://dc.lft.to/lastmile_qr_scan", "android": "https://dc.lft.to/lastmile_qr_scan"}, "lon": -77.000468, "type": "electric_scooter", "fusion_lat": 0.0, "lat": 38.9058155, "name": "ed4a1ab3e4b54fd21a95d6d7aa6eba59", "fusion_lon": 0.0, "bike_id": "ed4a1ab3e4b54fd21a95d6d7aa6eba59", "is_disabled": 0, "is_reserved": 0}, {"rental_uris": {"ios": "https://dc.lft.to/lastmile_qr_scan", "android": "https://dc.lft.to/lastmile_qr_scan"}, "lon": -77.0396915, "type": "electric_scooter", "fusion_lat": 0.0, "lat": 38.9011895, "name": "4e7a943d118307db8c3ab8d2ed7b3b5b", "fusion_lon": 0.0, "bike_id": "4e7a943d118307db8c3ab8d2ed7b3b5b", "is_disabled": 0, "is_reserved": 0}, {"rental_uris": {"ios": "https://dc.lft.to/lastmile_qr_scan", "android": "https://dc.lft.to/lastmile_qr_scan"}, "lon": -77.03444933333333, "type": "electric_scooter", "fusion_lat": 0.0, "lat": 38.91828266666667, "name": "51f530c467db27b8ce80604aa420a623", "fusion_lon": 0.0, "bike_id": "51f530c467db27b8ce80604aa420a623", "is_disabled": 0, "is_reserved": 0}, {"rental_uris": {"ios": "https://dc.lft.to/lastmile_qr_scan", "android": "https://dc.lft.to/lastmile_qr_scan"}, "lon": -77.04836033333333, "type": "electric_scooter", "fusion_lat": 0.0, "lat": 38.920312333333335, "name": "b994983a3b724b66294df666dbf8d81d", "fusion_lon": 0.0, "bike_id": "b994983a3b724b66294df666dbf8d81d", "is_disabled": 0, "is_reserved": 0}, {"rental_uris": {"ios": "https://dc.lft.to/lastmile_qr_scan", "android": "https://dc.lft.to/lastmile_qr_scan"}, "lon": -77.04203566666666, "type": "electric_scooter", "fusion_lat": 0.0, "lat": 38.921095666666666, "name": "c75eac98b2c80a9a7f81ac9a3972f23a", "fusion_lon": 0.0, "bike_id": "c75eac98b2c80a9a7f81ac9a3972f23a", "is_disabled": 0, "is_reserved": 0}, {"rental_uris": {"ios": "https://dc.lft.to/lastmile_qr_scan", "android": "https://dc.lft.to/lastmile_qr_scan"}, "lon": -76.98159883333334, "type": "electric_scooter", "fusion_lat": 0.0, "lat": 38.93296316666667, "name": "69e99a2b84ab8975bc01530b80e4c25f", "fusion_lon": 0.0, "bike_id": "69e99a2b84ab8975bc01530b80e4c25f", "is_disabled": 0, "is_reserved": 0}, {"rental_uris": {"ios": "https://dc.lft.to/lastmile_qr_scan", "android": "https://dc.lft.to/lastmile_qr_scan"}, "lon": -76.90431333333333, "type": "electric_bike", "fusion_lat": 0.0, "lat": 38.89791616666667, "name": "942eb5efe47a9d243a91f1e8645e8bf8", "fusion_lon": 0.0, "bike_id": "942eb5efe47a9d243a91f1e8645e8bf8", "is_disabled": 0, "is_reserved": 0}, {"rental_uris": {"ios": "https://dc.lft.to/lastmile_qr_scan", "android": "https://dc.lft.to/lastmile_qr_scan"}, "lon": -76.9949585, "type": "electric_scooter", "fusion_lat": 0.0, "lat": 38.926983666666665, "name": "ebb5ffcd7a072a04aeb4f264db173423", "fusion_lon": 0.0, "bike_id": "ebb5ffcd7a072a04aeb4f264db173423", "is_disabled": 0, "is_reserved": 0}, {"rental_uris": {"ios": "https://dc.lft.to/lastmile_qr_scan", "android": "https://dc.lft.to/lastmile_qr_scan"}, "lon": -76.99060766666666, "type": "electric_scooter", "fusion_lat": 0.0, "lat": 38.86351883333333, "name": "10c1a7e8466131fee1fbf291a7a691c5", "fusion_lon": 0.0, "bike_id": "10c1a7e8466131fee1fbf291a7a691c5", "is_disabled": 0, "is_reserved": 0}, {"rental_uris": {"ios": "https://dc.lft.to/lastmile_qr_scan", "android": "https://dc.lft.to/lastmile_qr_scan"}, "lon": -77.02601433333334, "type": "electric_scooter", "fusion_lat": 0.0, "lat": 38.919980833333334, "name": "e392d2baf1483680198643ede84c2feb", "fusion_lon": 0.0, "bike_id": "e392d2baf1483680198643ede84c2feb", "is_disabled": 0, "is_reserved": 0}, {"rental_uris": {"ios": "https://dc.lft.to/lastmile_qr_scan", "android": "https://dc.lft.to/lastmile_qr_scan"}, "lon": -76.99080366666666, "type": "electric_scooter", "fusion_lat": 0.0, "lat": 38.89355583333333, "name": "3bc6a3bf3f988f995110b432cfa4f65c", "fusion_lon": 0.0, "bike_id": "3bc6a3bf3f988f995110b432cfa4f65c", "is_disabled": 0, "is_reserved": 0}, {"rental_uris": {"ios": "https://dc.lft.to/lastmile_qr_scan", "android": "https://dc.lft.to/lastmile_qr_scan"}, "lon": -77.00673633333334, "type": "electric_scooter", "fusion_lat": 0.0, "lat": 38.91695716666667, "name": "1bef2c1619a4974dd83b2bf62092edae", "fusion_lon": 0.0, "bike_id": "1bef2c1619a4974dd83b2bf62092edae", "is_disabled": 0, "is_reserved": 0}, {"rental_uris": {"ios": "https://dc.lft.to/lastmile_qr_scan", "android": "https://dc.lft.to/lastmile_qr_scan"}, "lon": -77.04239516666667, "type": "electric_scooter", "fusion_lat": 0.0, "lat": 38.92427833333333, "name": "58ff89530f4c4e9bd631e3c5210b812f", "fusion_lon": 0.0, "bike_id": "58ff89530f4c4e9bd631e3c5210b812f", "is_disabled": 0, "is_reserved": 0}, {"rental_uris": {"ios": "https://dc.lft.to/lastmile_qr_scan", "android": "https://dc.lft.to/lastmile_qr_scan"}, "lon": -77.0196355, "type": "electric_scooter", "fusion_lat": 0.0, "lat": 38.93409333333334, "name": "dc309d925b5fbe1f07338406d9265ac0", "fusion_lon": 0.0, "bike_id": "dc309d925b5fbe1f07338406d9265ac0", "is_disabled": 0, "is_reserved": 0}, {"rental_uris": {"ios": "https://dc.lft.to/lastmile_qr_scan", "android": "https://dc.lft.to/lastmile_qr_scan"}, "lon": -77.03655983333333, "type": "electric_scooter", "fusion_lat": 0.0, "lat": 38.921199666666666, "name": "50cf41d9df3f89b983448f1d59b4dce9", "fusion_lon": 0.0, "bike_id": "50cf41d9df3f89b983448f1d59b4dce9", "is_disabled": 0, "is_reserved": 0}, {"rental_uris": {"ios": "https://dc.lft.to/lastmile_qr_scan", "android": "https://dc.lft.to/lastmile_qr_scan"}, "lon": -77.04995133333334, "type": "electric_scooter", "fusion_lat": 0.0, "lat": 38.900547, "name": "d47e8ba20b7c508e1836f1d920c464a6", "fusion_lon": 0.0, "bike_id": "d47e8ba20b7c508e1836f1d920c464a6", "is_disabled": 0, "is_reserved": 0}, {"rental_uris": {"ios": "https://dc.lft.to/lastmile_qr_scan", "android": "https://dc.lft.to/lastmile_qr_scan"}, "lon": -77.066004, "type": "electric_scooter", "fusion_lat": 0.0, "lat": 38.9057975, "name": "09b6ae330acbff651f45d54cb1e84248", "fusion_lon": 0.0, "bike_id": "09b6ae330acbff651f45d54cb1e84248", "is_disabled": 0, "is_reserved": 0}, {"rental_uris": {"ios": "https://dc.lft.to/lastmile_qr_scan", "android": "https://dc.lft.to/lastmile_qr_scan"}, "lon": -77.054748, "type": "electric_scooter", "fusion_lat": 0.0, "lat": 38.8939, "name": "4779bf92ef9b0b18877f78213cfa5adc", "fusion_lon": 0.0, "bike_id": "4779bf92ef9b0b18877f78213cfa5adc", "is_disabled": 0, "is_reserved": 0}, {"rental_uris": {"ios": "https://dc.lft.to/lastmile_qr_scan", "android": "https://dc.lft.to/lastmile_qr_scan"}, "lon": -77.129578, "type": "electric_bike", "fusion_lat": 0.0, "lat": 38.852144333333335, "name": "fcae4db22636f8b4e8f4448d285a7d81", "fusion_lon": 0.0, "bike_id": "fcae4db22636f8b4e8f4448d285a7d81", "is_disabled": 0, "is_reserved": 0}, {"rental_uris": {"ios": "https://dc.lft.to/lastmile_qr_scan", "android": "https://dc.lft.to/lastmile_qr_scan"}, "lon": -76.98376433333334, "type": "electric_scooter", "fusion_lat": 0.0, "lat": 38.89543966666667, "name": "a8c6303840aba3614e3ab0ecc716e370", "fusion_lon": 0.0, "bike_id": "a8c6303840aba3614e3ab0ecc716e370", "is_disabled": 0, "is_reserved": 0}, {"rental_uris": {"ios": "https://dc.lft.to/lastmile_qr_scan", "android": "https://dc.lft.to/lastmile_qr_scan"}, "lon": -76.95991483333333, "type": "electric_scooter", "fusion_lat": 0.0, "lat": 38.8804245, "name": "44f95195a444d234230d2876844bec48", "fusion_lon": 0.0, "bike_id": "44f95195a444d234230d2876844bec48", "is_disabled": 0, "is_reserved": 0}, {"rental_uris": {"ios": "https://dc.lft.to/lastmile_qr_scan", "android": "https://dc.lft.to/lastmile_qr_scan"}, "lon": -77.02598683333333, "type": "electric_bike", "fusion_lat": 0.0, "lat": 38.962643, "name": "ee97585315e7fa83dac6a2ea899037b8", "fusion_lon": 0.0, "bike_id": "ee97585315e7fa83dac6a2ea899037b8", "is_disabled": 0, "is_reserved": 0}, {"rental_uris": {"ios": "https://dc.lft.to/lastmile_qr_scan", "android": "https://dc.lft.to/lastmile_qr_scan"}, "lon": -77.030477, "type": "electric_scooter", "fusion_lat": 0.0, "lat": 38.91715666666666, "name": "c1873b76bf97ef4f1288695d4af2ee3c", "fusion_lon": 0.0, "bike_id": "c1873b76bf97ef4f1288695d4af2ee3c", "is_disabled": 0, "is_reserved": 0}, {"rental_uris": {"ios": "https://dc.lft.to/lastmile_qr_scan", "android": "https://dc.lft.to/lastmile_qr_scan"}, "lon": -76.99692016666667, "type": "electric_scooter", "fusion_lat": 0.0, "lat": 38.901046, "name": "0a24dd7102583b4c15417464919705ef", "fusion_lon": 0.0, "bike_id": "0a24dd7102583b4c15417464919705ef", "is_disabled": 0, "is_reserved": 0}, {"rental_uris": {"ios": "https://dc.lft.to/lastmile_qr_scan", "android": "https://dc.lft.to/lastmile_qr_scan"}, "lon": -77.00212416666666, "type": "electric_scooter", "fusion_lat": 0.0, "lat": 38.899863333333336, "name": "2d354cd2fa6529bdaf1fa64f8db6a210", "fusion_lon": 0.0, "bike_id": "2d354cd2fa6529bdaf1fa64f8db6a210", "is_disabled": 0, "is_reserved": 0}, {"rental_uris": {"ios": "https://dc.lft.to/lastmile_qr_scan", "android": "https://dc.lft.to/lastmile_qr_scan"}, "lon": -76.93225416666667, "type": "electric_bike", "fusion_lat": 0.0, "lat": 38.865938166666666, "name": "5e771bb141a45014271409adab6c1d48", "fusion_lon": 0.0, "bike_id": "5e771bb141a45014271409adab6c1d48", "is_disabled": 0, "is_reserved": 0}, {"rental_uris": {"ios": "https://dc.lft.to/lastmile_qr_scan", "android": "https://dc.lft.to/lastmile_qr_scan"}, "lon": -76.9475215, "type": "electric_scooter", "fusion_lat": 0.0, "lat": 38.900527, "name": "74be78a6cbedd58236c2c5f578f97104", "fusion_lon": 0.0, "bike_id": "74be78a6cbedd58236c2c5f578f97104", "is_disabled": 0, "is_reserved": 0}, {"rental_uris": {"ios": "https://dc.lft.to/lastmile_qr_scan", "android": "https://dc.lft.to/lastmile_qr_scan"}, "lon": -76.97288116666667, "type": "electric_scooter", "fusion_lat": 0.0, "lat": 38.903387333333335, "name": "bb9e0b1f216d76e7f166ecb1b6305a7b", "fusion_lon": 0.0, "bike_id": "bb9e0b1f216d76e7f166ecb1b6305a7b", "is_disabled": 0, "is_reserved": 0}, {"rental_uris": {"ios": "https://dc.lft.to/lastmile_qr_scan", "android": "https://dc.lft.to/lastmile_qr_scan"}, "lon": -76.94888916666666, "type": "electric_scooter", "fusion_lat": 0.0, "lat": 38.895292833333336, "name": "cef0a1fda7fbb53fadb03fce4e0f11b8", "fusion_lon": 0.0, "bike_id": "cef0a1fda7fbb53fadb03fce4e0f11b8", "is_disabled": 0, "is_reserved": 0}, {"rental_uris": {"ios": "https://dc.lft.to/lastmile_qr_scan", "android": "https://dc.lft.to/lastmile_qr_scan"}, "lon": -77.03862716666667, "type": "electric_scooter", "fusion_lat": 0.0, "lat": 38.9097355, "name": "253fa0fffaabce7422aa7423d1a5a3a7", "fusion_lon": 0.0, "bike_id": "253fa0fffaabce7422aa7423d1a5a3a7", "is_disabled": 0, "is_reserved": 0}, {"rental_uris": {"ios": "https://dc.lft.to/lastmile_qr_scan", "android": "https://dc.lft.to/lastmile_qr_scan"}, "lon": -77.027274, "type": "electric_scooter", "fusion_lat": 0.0, "lat": 38.91693, "name": "c01c22f8334cb3241cb75e28c43943f5", "fusion_lon": 0.0, "bike_id": "c01c22f8334cb3241cb75e28c43943f5", "is_disabled": 0, "is_reserved": 0}, {"rental_uris": {"ios": "https://dc.lft.to/lastmile_qr_scan", "android": "https://dc.lft.to/lastmile_qr_scan"}, "lon": -77.032948, "type": "electric_scooter", "fusion_lat": 0.0, "lat": 38.9181035, "name": "8ac8d78a3f70c2b5d35b6a6f42a23ab7", "fusion_lon": 0.0, "bike_id": "8ac8d78a3f70c2b5d35b6a6f42a23ab7", "is_disabled": 0, "is_reserved": 0}, {"rental_uris": {"ios": "https://dc.lft.to/lastmile_qr_scan", "android": "https://dc.lft.to/lastmile_qr_scan"}, "lon": -77.03505633333333, "type": "electric_scooter", "fusion_lat": 0.0, "lat": 38.91881383333333, "name": "74a15639873d35208361742a78a4134a", "fusion_lon": 0.0, "bike_id": "74a15639873d35208361742a78a4134a", "is_disabled": 0, "is_reserved": 0}, {"rental_uris": {"ios": "https://dc.lft.to/lastmile_qr_scan", "android": "https://dc.lft.to/lastmile_qr_scan"}, "lon": -77.00584933333333, "type": "electric_scooter", "fusion_lat": 0.0, "lat": 38.90541616666667, "name": "92cb775219f3b83ae7e88951fa2235ee", "fusion_lon": 0.0, "bike_id": "92cb775219f3b83ae7e88951fa2235ee", "is_disabled": 0, "is_reserved": 0}, {"rental_uris": {"ios": "https://dc.lft.to/lastmile_qr_scan", "android": "https://dc.lft.to/lastmile_qr_scan"}, "lon": -77.02406583333334, "type": "electric_scooter", "fusion_lat": 0.0, "lat": 38.934969833333334, "name": "882d75b2573813b228cebe828319a2d3", "fusion_lon": 0.0, "bike_id": "882d75b2573813b228cebe828319a2d3", "is_disabled": 0, "is_reserved": 0}, {"rental_uris": {"ios": "https://dc.lft.to/lastmile_qr_scan", "android": "https://dc.lft.to/lastmile_qr_scan"}, "lon": -77.0349435, "type": "electric_scooter", "fusion_lat": 0.0, "lat": 38.91695683333333, "name": "a595d38f36698027031d0f8881058637", "fusion_lon": 0.0, "bike_id": "a595d38f36698027031d0f8881058637", "is_disabled": 0, "is_reserved": 0}, {"rental_uris": {"ios": "https://dc.lft.to/lastmile_qr_scan", "android": "https://dc.lft.to/lastmile_qr_scan"}, "lon": -77.04417283333333, "type": "electric_scooter", "fusion_lat": 0.0, "lat": 38.9201495, "name": "2782fe05666119ec1d1f581d04d17de3", "fusion_lon": 0.0, "bike_id": "2782fe05666119ec1d1f581d04d17de3", "is_disabled": 0, "is_reserved": 0}, {"rental_uris": {"ios": "https://dc.lft.to/lastmile_qr_scan", "android": "https://dc.lft.to/lastmile_qr_scan"}, "lon": -76.981783, "type": "electric_scooter", "fusion_lat": 0.0, "lat": 38.8957975, "name": "e5c82bba85d33ed2cfbbc947167aef91", "fusion_lon": 0.0, "bike_id": "e5c82bba85d33ed2cfbbc947167aef91", "is_disabled": 0, "is_reserved": 0}, {"rental_uris": {"ios": "https://dc.lft.to/lastmile_qr_scan", "android": "https://dc.lft.to/lastmile_qr_scan"}, "lon": -77.009749, "type": "electric_scooter", "fusion_lat": 0.0, "lat": 38.919245, "name": "91693147be7f1871a706f65cab51ecee", "fusion_lon": 0.0, "bike_id": "91693147be7f1871a706f65cab51ecee", "is_disabled": 0, "is_reserved": 0}, {"rental_uris": {"ios": "https://dc.lft.to/lastmile_qr_scan", "android": "https://dc.lft.to/lastmile_qr_scan"}, "lon": -77.01297766666667, "type": "electric_scooter", "fusion_lat": 0.0, "lat": 38.921203, "name": "5d9fb68b5f18fe3756ac21029f8ced1f", "fusion_lon": 0.0, "bike_id": "5d9fb68b5f18fe3756ac21029f8ced1f", "is_disabled": 0, "is_reserved": 0}, {"rental_uris": {"ios": "https://dc.lft.to/lastmile_qr_scan", "android": "https://dc.lft.to/lastmile_qr_scan"}, "lon": -77.0236295, "type": "electric_scooter", "fusion_lat": 0.0, "lat": 38.925019, "name": "cce89d4102dcc48cc6b6e52958efe93f", "fusion_lon": 0.0, "bike_id": "cce89d4102dcc48cc6b6e52958efe93f", "is_disabled": 0, "is_reserved": 0}, {"rental_uris": {"ios": "https://dc.lft.to/lastmile_qr_scan", "android": "https://dc.lft.to/lastmile_qr_scan"}, "lon": -76.90952483333334, "type": "electric_bike", "fusion_lat": 0.0, "lat": 38.8542865, "name": "946112e999c995190a24c95585ec6573", "fusion_lon": 0.0, "bike_id": "946112e999c995190a24c95585ec6573", "is_disabled": 0, "is_reserved": 0}, {"rental_uris": {"ios": "https://dc.lft.to/lastmile_qr_scan", "android": "https://dc.lft.to/lastmile_qr_scan"}, "lon": -77.02909, "type": "electric_scooter", "fusion_lat": 0.0, "lat": 38.885618, "name": "c83c9da9b9086ca4a9f7a140a0d93164", "fusion_lon": 0.0, "bike_id": "c83c9da9b9086ca4a9f7a140a0d93164", "is_disabled": 0, "is_reserved": 0}, {"rental_uris": {"ios": "https://dc.lft.to/lastmile_qr_scan", "android": "https://dc.lft.to/lastmile_qr_scan"}, "lon": -77.0077925, "type": "electric_scooter", "fusion_lat": 0.0, "lat": 38.9064775, "name": "8488d7c8cf60faddf785bb2c2b51f112", "fusion_lon": 0.0, "bike_id": "8488d7c8cf60faddf785bb2c2b51f112", "is_disabled": 0, "is_reserved": 0}, {"rental_uris": {"ios": "https://dc.lft.to/lastmile_qr_scan", "android": "https://dc.lft.to/lastmile_qr_scan"}, "lon": -77.01367233333333, "type": "electric_scooter", "fusion_lat": 0.0, "lat": 38.86371283333333, "name": "1600f6ddb8b5b23af5e535aeacfc0b07", "fusion_lon": 0.0, "bike_id": "1600f6ddb8b5b23af5e535aeacfc0b07", "is_disabled": 0, "is_reserved": 0}, {"rental_uris": {"ios": "https://dc.lft.to/lastmile_qr_scan", "android": "https://dc.lft.to/lastmile_qr_scan"}, "lon": -77.06949316666666, "type": "electric_scooter", "fusion_lat": 0.0, "lat": 38.905057166666666, "name": "d32105e04fcf9a046bf10e1705381bcd", "fusion_lon": 0.0, "bike_id": "d32105e04fcf9a046bf10e1705381bcd", "is_disabled": 0, "is_reserved": 0}, {"rental_uris": {"ios": "https://dc.lft.to/lastmile_qr_scan", "android": "https://dc.lft.to/lastmile_qr_scan"}, "lon": -77.03561016666667, "type": "electric_scooter", "fusion_lat": 0.0, "lat": 38.91807433333334, "name": "c0d2ab9ebde081855b8cb7ff7633762e", "fusion_lon": 0.0, "bike_id": "c0d2ab9ebde081855b8cb7ff7633762e", "is_disabled": 0, "is_reserved": 0}, {"rental_uris": {"ios": "https://dc.lft.to/lastmile_qr_scan", "android": "https://dc.lft.to/lastmile_qr_scan"}, "lon": -77.02708416666667, "type": "electric_scooter", "fusion_lat": 0.0, "lat": 38.934574, "name": "c156b1920c8269780fa588688d4c634e", "fusion_lon": 0.0, "bike_id": "c156b1920c8269780fa588688d4c634e", "is_disabled": 0, "is_reserved": 0}, {"rental_uris": {"ios": "https://dc.lft.to/lastmile_qr_scan", "android": "https://dc.lft.to/lastmile_qr_scan"}, "lon": -77.03254366666667, "type": "electric_scooter", "fusion_lat": 0.0, "lat": 38.927648833333336, "name": "25f634a0a87e2dcf69c258f8142961fb", "fusion_lon": 0.0, "bike_id": "25f634a0a87e2dcf69c258f8142961fb", "is_disabled": 0, "is_reserved": 0}, {"rental_uris": {"ios": "https://dc.lft.to/lastmile_qr_scan", "android": "https://dc.lft.to/lastmile_qr_scan"}, "lon": -77.071692, "type": "electric_scooter", "fusion_lat": 0.0, "lat": 38.91450733333333, "name": "bc512c6e9a76dc303710e3b7163c1aff", "fusion_lon": 0.0, "bike_id": "bc512c6e9a76dc303710e3b7163c1aff", "is_disabled": 0, "is_reserved": 0}, {"rental_uris": {"ios": "https://dc.lft.to/lastmile_qr_scan", "android": "https://dc.lft.to/lastmile_qr_scan"}, "lon": -77.02330116666667, "type": "electric_scooter", "fusion_lat": 0.0, "lat": 38.93783533333333, "name": "a893b54c28824847cca192d441c58f42", "fusion_lon": 0.0, "bike_id": "a893b54c28824847cca192d441c58f42", "is_disabled": 0, "is_reserved": 0}, {"rental_uris": {"ios": "https://dc.lft.to/lastmile_qr_scan", "android": "https://dc.lft.to/lastmile_qr_scan"}, "lon": -77.0365645, "type": "electric_scooter", "fusion_lat": 0.0, "lat": 38.902717833333334, "name": "d0a7210bbd2e8b9be1a5ee1f9458b0c4", "fusion_lon": 0.0, "bike_id": "d0a7210bbd2e8b9be1a5ee1f9458b0c4", "is_disabled": 0, "is_reserved": 0}, {"rental_uris": {"ios": "https://dc.lft.to/lastmile_qr_scan", "android": "https://dc.lft.to/lastmile_qr_scan"}, "lon": -77.03341983333334, "type": "electric_scooter", "fusion_lat": 0.0, "lat": 38.89899183333333, "name": "8bb9115d1fb60fd867c4143555511127", "fusion_lon": 0.0, "bike_id": "8bb9115d1fb60fd867c4143555511127", "is_disabled": 0, "is_reserved": 0}, {"rental_uris": {"ios": "https://dc.lft.to/lastmile_qr_scan", "android": "https://dc.lft.to/lastmile_qr_scan"}, "lon": -77.04346283333334, "type": "electric_scooter", "fusion_lat": 0.0, "lat": 38.896460833333336, "name": "35f4b4ba5e209f01a9dcb600e518d891", "fusion_lon": 0.0, "bike_id": "35f4b4ba5e209f01a9dcb600e518d891", "is_disabled": 0, "is_reserved": 0}, {"rental_uris": {"ios": "https://dc.lft.to/lastmile_qr_scan", "android": "https://dc.lft.to/lastmile_qr_scan"}, "lon": -77.019359, "type": "electric_scooter", "fusion_lat": 0.0, "lat": 38.949256, "name": "0c319756acbe8aeba65b739a88075ff0", "fusion_lon": 0.0, "bike_id": "0c319756acbe8aeba65b739a88075ff0", "is_disabled": 0, "is_reserved": 0}, {"rental_uris": {"ios": "https://dc.lft.to/lastmile_qr_scan", "android": "https://dc.lft.to/lastmile_qr_scan"}, "lon": -77.07328966666667, "type": "electric_scooter", "fusion_lat": 0.0, "lat": 38.9249535, "name": "3f7327dcde269d31a43cb9551b7ee472", "fusion_lon": 0.0, "bike_id": "3f7327dcde269d31a43cb9551b7ee472", "is_disabled": 0, "is_reserved": 0}, {"rental_uris": {"ios": "https://dc.lft.to/lastmile_qr_scan", "android": "https://dc.lft.to/lastmile_qr_scan"}, "lon": -77.07561666666666, "type": "electric_scooter", "fusion_lat": 0.0, "lat": 38.914283833333336, "name": "a970edddd6efe7f128a72bf871a8db51", "fusion_lon": 0.0, "bike_id": "a970edddd6efe7f128a72bf871a8db51", "is_disabled": 0, "is_reserved": 0}, {"rental_uris": {"ios": "https://dc.lft.to/lastmile_qr_scan", "android": "https://dc.lft.to/lastmile_qr_scan"}, "lon": -77.04491, "type": "electric_scooter", "fusion_lat": 0.0, "lat": 38.911035, "name": "c63e3850e741bf04445b5f0b20394069", "fusion_lon": 0.0, "bike_id": "c63e3850e741bf04445b5f0b20394069", "is_disabled": 0, "is_reserved": 0}, {"rental_uris": {"ios": "https://dc.lft.to/lastmile_qr_scan", "android": "https://dc.lft.to/lastmile_qr_scan"}, "lon": -77.02814533333333, "type": "electric_scooter", "fusion_lat": 0.0, "lat": 38.8964685, "name": "e50a317731189fd2182288484937769b", "fusion_lon": 0.0, "bike_id": "e50a317731189fd2182288484937769b", "is_disabled": 0, "is_reserved": 0}, {"rental_uris": {"ios": "https://dc.lft.to/lastmile_qr_scan", "android": "https://dc.lft.to/lastmile_qr_scan"}, "lon": -77.03663166666666, "type": "electric_scooter", "fusion_lat": 0.0, "lat": 38.929360833333334, "name": "67bd79dd0f61fc27621aca73a2a2bf26", "fusion_lon": 0.0, "bike_id": "67bd79dd0f61fc27621aca73a2a2bf26", "is_disabled": 0, "is_reserved": 0}, {"rental_uris": {"ios": "https://dc.lft.to/lastmile_qr_scan", "android": "https://dc.lft.to/lastmile_qr_scan"}, "lon": -77.03831233333334, "type": "electric_scooter", "fusion_lat": 0.0, "lat": 38.9112265, "name": "f2442eda6d6604d77343204bc4ffa264", "fusion_lon": 0.0, "bike_id": "f2442eda6d6604d77343204bc4ffa264", "is_disabled": 0, "is_reserved": 0}, {"rental_uris": {"ios": "https://dc.lft.to/lastmile_qr_scan", "android": "https://dc.lft.to/lastmile_qr_scan"}, "lon": -77.02726, "type": "electric_scooter", "fusion_lat": 0.0, "lat": 38.916951, "name": "8da0f6900ce1fc3115eaf735552b5bd8", "fusion_lon": 0.0, "bike_id": "8da0f6900ce1fc3115eaf735552b5bd8", "is_disabled": 0, "is_reserved": 0}, {"rental_uris": {"ios": "https://dc.lft.to/lastmile_qr_scan", "android": "https://dc.lft.to/lastmile_qr_scan"}, "lon": -76.931769, "type": "electric_scooter", "fusion_lat": 0.0, "lat": 38.898867833333334, "name": "18103a27775acb21f252af6812538e7b", "fusion_lon": 0.0, "bike_id": "18103a27775acb21f252af6812538e7b", "is_disabled": 0, "is_reserved": 0}, {"rental_uris": {"ios": "https://dc.lft.to/lastmile_qr_scan", "android": "https://dc.lft.to/lastmile_qr_scan"}, "lon": -77.03865483333334, "type": "electric_scooter", "fusion_lat": 0.0, "lat": 38.90971116666667, "name": "da115e41414e5a8378cc9293a0b3e803", "fusion_lon": 0.0, "bike_id": "da115e41414e5a8378cc9293a0b3e803", "is_disabled": 0, "is_reserved": 0}, {"rental_uris": {"ios": "https://dc.lft.to/lastmile_qr_scan", "android": "https://dc.lft.to/lastmile_qr_scan"}, "lon": -77.03151583333333, "type": "electric_scooter", "fusion_lat": 0.0, "lat": 38.911902833333336, "name": "a32814437e374572c0e0027b6c09e57c", "fusion_lon": 0.0, "bike_id": "a32814437e374572c0e0027b6c09e57c", "is_disabled": 0, "is_reserved": 0}, {"rental_uris": {"ios": "https://dc.lft.to/lastmile_qr_scan", "android": "https://dc.lft.to/lastmile_qr_scan"}, "lon": -77.353091, "type": "electric_bike", "fusion_lat": 0.0, "lat": 38.9500245, "name": "e7fd60d8b3f12b8cdebab08d39f380b2", "fusion_lon": 0.0, "bike_id": "e7fd60d8b3f12b8cdebab08d39f380b2", "is_disabled": 0, "is_reserved": 0}, {"rental_uris": {"ios": "https://dc.lft.to/lastmile_qr_scan", "android": "https://dc.lft.to/lastmile_qr_scan"}, "lon": -76.99489533333333, "type": "electric_scooter", "fusion_lat": 0.0, "lat": 38.899591666666666, "name": "bcef0f8d97e4524a7f49fafd0d9e67e6", "fusion_lon": 0.0, "bike_id": "bcef0f8d97e4524a7f49fafd0d9e67e6", "is_disabled": 0, "is_reserved": 0}, {"rental_uris": {"ios": "https://dc.lft.to/lastmile_qr_scan", "android": "https://dc.lft.to/lastmile_qr_scan"}, "lon": -76.98724, "type": "electric_scooter", "fusion_lat": 0.0, "lat": 38.884139166666664, "name": "e3d513d57a541d861fc21398003e9041", "fusion_lon": 0.0, "bike_id": "e3d513d57a541d861fc21398003e9041", "is_disabled": 0, "is_reserved": 0}, {"rental_uris": {"ios": "https://dc.lft.to/lastmile_qr_scan", "android": "https://dc.lft.to/lastmile_qr_scan"}, "lon": -77.0178995, "type": "electric_scooter", "fusion_lat": 0.0, "lat": 38.903858, "name": "8337b0fb6ae66a9c997406bc3c87edba", "fusion_lon": 0.0, "bike_id": "8337b0fb6ae66a9c997406bc3c87edba", "is_disabled": 0, "is_reserved": 0}, {"rental_uris": {"ios": "https://dc.lft.to/lastmile_qr_scan", "android": "https://dc.lft.to/lastmile_qr_scan"}, "lon": -77.03225433333333, "type": "electric_scooter", "fusion_lat": 0.0, "lat": 38.925808333333336, "name": "e03b5d0307db36682aa7e4a97eee954d", "fusion_lon": 0.0, "bike_id": "e03b5d0307db36682aa7e4a97eee954d", "is_disabled": 0, "is_reserved": 0}, {"rental_uris": {"ios": "https://dc.lft.to/lastmile_qr_scan", "android": "https://dc.lft.to/lastmile_qr_scan"}, "lon": -77.0451855, "type": "electric_scooter", "fusion_lat": 0.0, "lat": 38.903685833333334, "name": "e8fc71807fe57d8269912c6282f9e0b5", "fusion_lon": 0.0, "bike_id": "e8fc71807fe57d8269912c6282f9e0b5", "is_disabled": 0, "is_reserved": 0}, {"rental_uris": {"ios": "https://dc.lft.to/lastmile_qr_scan", "android": "https://dc.lft.to/lastmile_qr_scan"}, "lon": -77.03943033333333, "type": "electric_scooter", "fusion_lat": 0.0, "lat": 38.90133566666667, "name": "6b9c987b7b433cded195517833310dc2", "fusion_lon": 0.0, "bike_id": "6b9c987b7b433cded195517833310dc2", "is_disabled": 0, "is_reserved": 0}, {"rental_uris": {"ios": "https://dc.lft.to/lastmile_qr_scan", "android": "https://dc.lft.to/lastmile_qr_scan"}, "lon": -77.03441783333334, "type": "electric_scooter", "fusion_lat": 0.0, "lat": 38.9183, "name": "751831287d49c7ff18a8f4d1d8b5658d", "fusion_lon": 0.0, "bike_id": "751831287d49c7ff18a8f4d1d8b5658d", "is_disabled": 0, "is_reserved": 0}, {"rental_uris": {"ios": "https://dc.lft.to/lastmile_qr_scan", "android": "https://dc.lft.to/lastmile_qr_scan"}, "lon": -77.0461955, "type": "electric_bike", "fusion_lat": 0.0, "lat": 38.999106166666664, "name": "e04335b48afcee83cc59007e629a9226", "fusion_lon": 0.0, "bike_id": "e04335b48afcee83cc59007e629a9226", "is_disabled": 0, "is_reserved": 0}, {"rental_uris": {"ios": "https://dc.lft.to/lastmile_qr_scan", "android": "https://dc.lft.to/lastmile_qr_scan"}, "lon": -77.001314, "type": "electric_scooter", "fusion_lat": 0.0, "lat": 38.92459816666667, "name": "326d15bd1b9f84a601c47ea512a4cbc9", "fusion_lon": 0.0, "bike_id": "326d15bd1b9f84a601c47ea512a4cbc9", "is_disabled": 0, "is_reserved": 0}, {"rental_uris": {"ios": "https://dc.lft.to/lastmile_qr_scan", "android": "https://dc.lft.to/lastmile_qr_scan"}, "lon": -77.06413933333333, "type": "electric_bike", "fusion_lat": 0.0, "lat": 38.90513216666667, "name": "4a0e02ae8fa3928704ae9d8177bf9ac3", "fusion_lon": 0.0, "bike_id": "4a0e02ae8fa3928704ae9d8177bf9ac3", "is_disabled": 0, "is_reserved": 0}, {"rental_uris": {"ios": "https://dc.lft.to/lastmile_qr_scan", "android": "https://dc.lft.to/lastmile_qr_scan"}, "lon": -77.03808916666667, "type": "electric_scooter", "fusion_lat": 0.0, "lat": 38.931149, "name": "9c25b34a013fd42ac3813f7cd88819ae", "fusion_lon": 0.0, "bike_id": "9c25b34a013fd42ac3813f7cd88819ae", "is_disabled": 0, "is_reserved": 0}, {"rental_uris": {"ios": "https://dc.lft.to/lastmile_qr_scan", "android": "https://dc.lft.to/lastmile_qr_scan"}, "lon": -77.06469016666667, "type": "electric_bike", "fusion_lat": 0.0, "lat": 38.973812833333334, "name": "7d8f4b205e2504aeab638648f69bec1c", "fusion_lon": 0.0, "bike_id": "7d8f4b205e2504aeab638648f69bec1c", "is_disabled": 0, "is_reserved": 0}, {"rental_uris": {"ios": "https://dc.lft.to/lastmile_qr_scan", "android": "https://dc.lft.to/lastmile_qr_scan"}, "lon": -77.09620266666667, "type": "electric_bike", "fusion_lat": 0.0, "lat": 38.845723, "name": "971b6895fb709979fed375985c879001", "fusion_lon": 0.0, "bike_id": "971b6895fb709979fed375985c879001", "is_disabled": 0, "is_reserved": 0}, {"rental_uris": {"ios": "https://dc.lft.to/lastmile_qr_scan", "android": "https://dc.lft.to/lastmile_qr_scan"}, "lon": -77.03189166666667, "type": "electric_scooter", "fusion_lat": 0.0, "lat": 38.9201605, "name": "7eb0b78bb237dcf4f3955ea97c6245ca", "fusion_lon": 0.0, "bike_id": "7eb0b78bb237dcf4f3955ea97c6245ca", "is_disabled": 0, "is_reserved": 0}, {"rental_uris": {"ios": "https://dc.lft.to/lastmile_qr_scan", "android": "https://dc.lft.to/lastmile_qr_scan"}, "lon": -77.0018885, "type": "electric_bike", "fusion_lat": 0.0, "lat": 38.94152233333333, "name": "4969e623c43dff42f52eb1db0450efbf", "fusion_lon": 0.0, "bike_id": "4969e623c43dff42f52eb1db0450efbf", "is_disabled": 0, "is_reserved": 0}, {"rental_uris": {"ios": "https://dc.lft.to/lastmile_qr_scan", "android": "https://dc.lft.to/lastmile_qr_scan"}, "lon": -77.02714583333334, "type": "electric_scooter", "fusion_lat": 0.0, "lat": 38.909679833333335, "name": "d27ea708705aacd1ea1870d37033925e", "fusion_lon": 0.0, "bike_id": "d27ea708705aacd1ea1870d37033925e", "is_disabled": 0, "is_reserved": 0}, {"rental_uris": {"ios": "https://dc.lft.to/lastmile_qr_scan", "android": "https://dc.lft.to/lastmile_qr_scan"}, "lon": -77.03284933333333, "type": "electric_scooter", "fusion_lat": 0.0, "lat": 38.9220965, "name": "8cacbcd09d4db7cef069bf7c7da0c99f", "fusion_lon": 0.0, "bike_id": "8cacbcd09d4db7cef069bf7c7da0c99f", "is_disabled": 0, "is_reserved": 0}, {"rental_uris": {"ios": "https://dc.lft.to/lastmile_qr_scan", "android": "https://dc.lft.to/lastmile_qr_scan"}, "lon": -77.04096333333334, "type": "electric_scooter", "fusion_lat": 0.0, "lat": 38.917711833333335, "name": "358edd0ceab871e9cff24d60032daa85", "fusion_lon": 0.0, "bike_id": "358edd0ceab871e9cff24d60032daa85", "is_disabled": 0, "is_reserved": 0}, {"rental_uris": {"ios": "https://dc.lft.to/lastmile_qr_scan", "android": "https://dc.lft.to/lastmile_qr_scan"}, "lon": -77.02084066666667, "type": "electric_scooter", "fusion_lat": 0.0, "lat": 38.91004183333333, "name": "b36fd25bbc071573a4b99c00a2ba470e", "fusion_lon": 0.0, "bike_id": "b36fd25bbc071573a4b99c00a2ba470e", "is_disabled": 0, "is_reserved": 0}, {"rental_uris": {"ios": "https://dc.lft.to/lastmile_qr_scan", "android": "https://dc.lft.to/lastmile_qr_scan"}, "lon": -77.05332183333333, "type": "electric_scooter", "fusion_lat": 0.0, "lat": 38.900198833333334, "name": "ae5bab7a28fe03d2d5f36ef846a27478", "fusion_lon": 0.0, "bike_id": "ae5bab7a28fe03d2d5f36ef846a27478", "is_disabled": 0, "is_reserved": 0}, {"rental_uris": {"ios": "https://dc.lft.to/lastmile_qr_scan", "android": "https://dc.lft.to/lastmile_qr_scan"}, "lon": -77.03378383333333, "type": "electric_scooter", "fusion_lat": 0.0, "lat": 38.899639, "name": "f8be61165bfc0d7b2f8ba0755af1bfbc", "fusion_lon": 0.0, "bike_id": "f8be61165bfc0d7b2f8ba0755af1bfbc", "is_disabled": 0, "is_reserved": 0}, {"rental_uris": {"ios": "https://dc.lft.to/lastmile_qr_scan", "android": "https://dc.lft.to/lastmile_qr_scan"}, "lon": -76.9798785, "type": "electric_bike", "fusion_lat": 0.0, "lat": 38.87749616666667, "name": "8b5f7e72c35fb2a2e66fbf0ac6cb187b", "fusion_lon": 0.0, "bike_id": "8b5f7e72c35fb2a2e66fbf0ac6cb187b", "is_disabled": 0, "is_reserved": 0}, {"rental_uris": {"ios": "https://dc.lft.to/lastmile_qr_scan", "android": "https://dc.lft.to/lastmile_qr_scan"}, "lon": -77.01507566666666, "type": "electric_scooter", "fusion_lat": 0.0, "lat": 38.901968333333336, "name": "3ebcfe83f0c8114b963fadff829bd540", "fusion_lon": 0.0, "bike_id": "3ebcfe83f0c8114b963fadff829bd540", "is_disabled": 0, "is_reserved": 0}, {"rental_uris": {"ios": "https://dc.lft.to/lastmile_qr_scan", "android": "https://dc.lft.to/lastmile_qr_scan"}, "lon": -77.36094783333333, "type": "electric_bike", "fusion_lat": 0.0, "lat": 38.9395815, "name": "1b532f6c9bc8b6fde0065964dbfc3797", "fusion_lon": 0.0, "bike_id": "1b532f6c9bc8b6fde0065964dbfc3797", "is_disabled": 0, "is_reserved": 0}, {"rental_uris": {"ios": "https://dc.lft.to/lastmile_qr_scan", "android": "https://dc.lft.to/lastmile_qr_scan"}, "lon": -77.12899666666667, "type": "electric_bike", "fusion_lat": 0.0, "lat": 38.863769, "name": "c2095b045475db34d60a64627d00ed53", "fusion_lon": 0.0, "bike_id": "c2095b045475db34d60a64627d00ed53", "is_disabled": 0, "is_reserved": 0}, {"rental_uris": {"ios": "https://dc.lft.to/lastmile_qr_scan", "android": "https://dc.lft.to/lastmile_qr_scan"}, "lon": -77.05289883333333, "type": "electric_scooter", "fusion_lat": 0.0, "lat": 38.927854833333335, "name": "5a8f466e7a7c054da0c1dd81472a3395", "fusion_lon": 0.0, "bike_id": "5a8f466e7a7c054da0c1dd81472a3395", "is_disabled": 0, "is_reserved": 0}, {"rental_uris": {"ios": "https://dc.lft.to/lastmile_qr_scan", "android": "https://dc.lft.to/lastmile_qr_scan"}, "lon": -77.0326845, "type": "electric_scooter", "fusion_lat": 0.0, "lat": 38.9323225, "name": "ebb7beb8979bd269c844279a64f66464", "fusion_lon": 0.0, "bike_id": "ebb7beb8979bd269c844279a64f66464", "is_disabled": 0, "is_reserved": 0}, {"rental_uris": {"ios": "https://dc.lft.to/lastmile_qr_scan", "android": "https://dc.lft.to/lastmile_qr_scan"}, "lon": -77.00604316666667, "type": "electric_scooter", "fusion_lat": 0.0, "lat": 38.90579133333333, "name": "8bf547f3147b539df3b2fe63bff25342", "fusion_lon": 0.0, "bike_id": "8bf547f3147b539df3b2fe63bff25342", "is_disabled": 0, "is_reserved": 0}, {"rental_uris": {"ios": "https://dc.lft.to/lastmile_qr_scan", "android": "https://dc.lft.to/lastmile_qr_scan"}, "lon": -76.98962716666666, "type": "electric_scooter", "fusion_lat": 0.0, "lat": 38.900195833333335, "name": "02ef5a2f6fb91ad6959775f69a017b2f", "fusion_lon": 0.0, "bike_id": "02ef5a2f6fb91ad6959775f69a017b2f", "is_disabled": 0, "is_reserved": 0}, {"rental_uris": {"ios": "https://dc.lft.to/lastmile_qr_scan", "android": "https://dc.lft.to/lastmile_qr_scan"}, "lon": -77.03791233333334, "type": "electric_scooter", "fusion_lat": 0.0, "lat": 38.9056535, "name": "db5c1c616549e05e1b9a4fda7f7ef88e", "fusion_lon": 0.0, "bike_id": "db5c1c616549e05e1b9a4fda7f7ef88e", "is_disabled": 0, "is_reserved": 0}, {"rental_uris": {"ios": "https://dc.lft.to/lastmile_qr_scan", "android": "https://dc.lft.to/lastmile_qr_scan"}, "lon": -77.036606, "type": "electric_bike", "fusion_lat": 0.0, "lat": 38.936366, "name": "6d4a6410db7adc9b7876176ec854f94c", "fusion_lon": 0.0, "bike_id": "6d4a6410db7adc9b7876176ec854f94c", "is_disabled": 0, "is_reserved": 0}, {"rental_uris": {"ios": "https://dc.lft.to/lastmile_qr_scan", "android": "https://dc.lft.to/lastmile_qr_scan"}, "lon": -77.037907, "type": "electric_scooter", "fusion_lat": 0.0, "lat": 38.936054166666665, "name": "f9e69673061767a862e393e6837615cc", "fusion_lon": 0.0, "bike_id": "f9e69673061767a862e393e6837615cc", "is_disabled": 0, "is_reserved": 0}, {"rental_uris": {"ios": "https://dc.lft.to/lastmile_qr_scan", "android": "https://dc.lft.to/lastmile_qr_scan"}, "lon": -76.9337095, "type": "electric_scooter", "fusion_lat": 0.0, "lat": 38.899146, "name": "f29ec97eadb476b69e510a4c50e2c519", "fusion_lon": 0.0, "bike_id": "f29ec97eadb476b69e510a4c50e2c519", "is_disabled": 0, "is_reserved": 0}, {"rental_uris": {"ios": "https://dc.lft.to/lastmile_qr_scan", "android": "https://dc.lft.to/lastmile_qr_scan"}, "lon": -77.03875133333334, "type": "electric_scooter", "fusion_lat": 0.0, "lat": 38.934331666666665, "name": "bbbb284a634946446dc50d0f9b6e1d19", "fusion_lon": 0.0, "bike_id": "bbbb284a634946446dc50d0f9b6e1d19", "is_disabled": 0, "is_reserved": 0}, {"rental_uris": {"ios": "https://dc.lft.to/lastmile_qr_scan", "android": "https://dc.lft.to/lastmile_qr_scan"}, "lon": -77.04265783333334, "type": "electric_scooter", "fusion_lat": 0.0, "lat": 38.90554516666667, "name": "3df72132864068e615efbf21f6505b92", "fusion_lon": 0.0, "bike_id": "3df72132864068e615efbf21f6505b92", "is_disabled": 0, "is_reserved": 0}, {"rental_uris": {"ios": "https://dc.lft.to/lastmile_qr_scan", "android": "https://dc.lft.to/lastmile_qr_scan"}, "lon": -77.03669483333333, "type": "electric_scooter", "fusion_lat": 0.0, "lat": 38.918194166666666, "name": "d2693309c4eda95f4e2c94a6b52493a6", "fusion_lon": 0.0, "bike_id": "d2693309c4eda95f4e2c94a6b52493a6", "is_disabled": 0, "is_reserved": 0}, {"rental_uris": {"ios": "https://dc.lft.to/lastmile_qr_scan", "android": "https://dc.lft.to/lastmile_qr_scan"}, "lon": -76.93626, "type": "electric_scooter", "fusion_lat": 0.0, "lat": 38.88994366666667, "name": "f21537b1b245eb3727dbde128e83e3c9", "fusion_lon": 0.0, "bike_id": "f21537b1b245eb3727dbde128e83e3c9", "is_disabled": 0, "is_reserved": 0}, {"rental_uris": {"ios": "https://dc.lft.to/lastmile_qr_scan", "android": "https://dc.lft.to/lastmile_qr_scan"}, "lon": -77.0141645, "type": "electric_scooter", "fusion_lat": 0.0, "lat": 38.91703233333333, "name": "9b1c5b67ed51b6b1a202e181a75a2555", "fusion_lon": 0.0, "bike_id": "9b1c5b67ed51b6b1a202e181a75a2555", "is_disabled": 0, "is_reserved": 0}, {"rental_uris": {"ios": "https://dc.lft.to/lastmile_qr_scan", "android": "https://dc.lft.to/lastmile_qr_scan"}, "lon": -76.98509716666666, "type": "electric_scooter", "fusion_lat": 0.0, "lat": 38.900877333333334, "name": "ba50c17a6cff4a4ccad8b524b5cd9747", "fusion_lon": 0.0, "bike_id": "ba50c17a6cff4a4ccad8b524b5cd9747", "is_disabled": 0, "is_reserved": 0}, {"rental_uris": {"ios": "https://dc.lft.to/lastmile_qr_scan", "android": "https://dc.lft.to/lastmile_qr_scan"}, "lon": -77.007589, "type": "electric_scooter", "fusion_lat": 0.0, "lat": 38.91027666666667, "name": "d0250820e4cb23e90d278817d8c58a94", "fusion_lon": 0.0, "bike_id": "d0250820e4cb23e90d278817d8c58a94", "is_disabled": 0, "is_reserved": 0}, {"rental_uris": {"ios": "https://dc.lft.to/lastmile_qr_scan", "android": "https://dc.lft.to/lastmile_qr_scan"}, "lon": -77.054171, "type": "electric_scooter", "fusion_lat": 0.0, "lat": 38.903940166666665, "name": "f6ab76c6d3ea0d3cecc2fc5c6d1b9753", "fusion_lon": 0.0, "bike_id": "f6ab76c6d3ea0d3cecc2fc5c6d1b9753", "is_disabled": 0, "is_reserved": 0}, {"rental_uris": {"ios": "https://dc.lft.to/lastmile_qr_scan", "android": "https://dc.lft.to/lastmile_qr_scan"}, "lon": -76.99074016666667, "type": "electric_scooter", "fusion_lat": 0.0, "lat": 38.904173166666666, "name": "d99e8c9dc3fe6e516bda8b48a54109a0", "fusion_lon": 0.0, "bike_id": "d99e8c9dc3fe6e516bda8b48a54109a0", "is_disabled": 0, "is_reserved": 0}, {"rental_uris": {"ios": "https://dc.lft.to/lastmile_qr_scan", "android": "https://dc.lft.to/lastmile_qr_scan"}, "lon": -77.09159033333333, "type": "electric_bike", "fusion_lat": 0.0, "lat": 38.967652666666666, "name": "0aba5c17c1a568de45b32cce1cb38c4b", "fusion_lon": 0.0, "bike_id": "0aba5c17c1a568de45b32cce1cb38c4b", "is_disabled": 0, "is_reserved": 0}, {"rental_uris": {"ios": "https://dc.lft.to/lastmile_qr_scan", "android": "https://dc.lft.to/lastmile_qr_scan"}, "lon": -77.02589366666666, "type": "electric_scooter", "fusion_lat": 0.0, "lat": 38.9155105, "name": "cd7857b607195a6dfb37f57fcbf1868b", "fusion_lon": 0.0, "bike_id": "cd7857b607195a6dfb37f57fcbf1868b", "is_disabled": 0, "is_reserved": 0}, {"rental_uris": {"ios": "https://dc.lft.to/lastmile_qr_scan", "android": "https://dc.lft.to/lastmile_qr_scan"}, "lon": -77.039736, "type": "electric_scooter", "fusion_lat": 0.0, "lat": 38.901115833333336, "name": "6f7bf4798bd6f81015c4628abe657537", "fusion_lon": 0.0, "bike_id": "6f7bf4798bd6f81015c4628abe657537", "is_disabled": 0, "is_reserved": 0}, {"rental_uris": {"ios": "https://dc.lft.to/lastmile_qr_scan", "android": "https://dc.lft.to/lastmile_qr_scan"}, "lon": -77.01977633333334, "type": "electric_bike", "fusion_lat": 0.0, "lat": 38.9566235, "name": "46fd498bb968eff7cbccc3e4ec31049d", "fusion_lon": 0.0, "bike_id": "46fd498bb968eff7cbccc3e4ec31049d", "is_disabled": 0, "is_reserved": 0}, {"rental_uris": {"ios": "https://dc.lft.to/lastmile_qr_scan", "android": "https://dc.lft.to/lastmile_qr_scan"}, "lon": -77.0437095, "type": "electric_scooter", "fusion_lat": 0.0, "lat": 38.920639, "name": "5045e1118a570b38261b94205dd3db73", "fusion_lon": 0.0, "bike_id": "5045e1118a570b38261b94205dd3db73", "is_disabled": 0, "is_reserved": 0}, {"rental_uris": {"ios": "https://dc.lft.to/lastmile_qr_scan", "android": "https://dc.lft.to/lastmile_qr_scan"}, "lon": -77.02321216666667, "type": "electric_scooter", "fusion_lat": 0.0, "lat": 38.88336233333333, "name": "ea50590668a231b5644105490005f672", "fusion_lon": 0.0, "bike_id": "ea50590668a231b5644105490005f672", "is_disabled": 0, "is_reserved": 0}, {"rental_uris": {"ios": "https://dc.lft.to/lastmile_qr_scan", "android": "https://dc.lft.to/lastmile_qr_scan"}, "lon": -77.13089916666667, "type": "electric_bike", "fusion_lat": 0.0, "lat": 38.86161233333333, "name": "e97e8337d215f17560c190d75945793c", "fusion_lon": 0.0, "bike_id": "e97e8337d215f17560c190d75945793c", "is_disabled": 0, "is_reserved": 0}, {"rental_uris": {"ios": "https://dc.lft.to/lastmile_qr_scan", "android": "https://dc.lft.to/lastmile_qr_scan"}, "lon": -77.02512083333333, "type": "electric_bike", "fusion_lat": 0.0, "lat": 38.93412333333333, "name": "20592d28ed2a8b368a4842816e6718ec", "fusion_lon": 0.0, "bike_id": "20592d28ed2a8b368a4842816e6718ec", "is_disabled": 0, "is_reserved": 0}, {"rental_uris": {"ios": "https://dc.lft.to/lastmile_qr_scan", "android": "https://dc.lft.to/lastmile_qr_scan"}, "lon": -77.03405366666667, "type": "electric_scooter", "fusion_lat": 0.0, "lat": 38.922675166666664, "name": "2ba1abeec5fbd67161ba04dd243c26a0", "fusion_lon": 0.0, "bike_id": "2ba1abeec5fbd67161ba04dd243c26a0", "is_disabled": 0, "is_reserved": 0}, {"rental_uris": {"ios": "https://dc.lft.to/lastmile_qr_scan", "android": "https://dc.lft.to/lastmile_qr_scan"}, "lon": -77.05483833333334, "type": "electric_scooter", "fusion_lat": 0.0, "lat": 38.929694833333336, "name": "5b25c78db48563a51d55e3a30840f2de", "fusion_lon": 0.0, "bike_id": "5b25c78db48563a51d55e3a30840f2de", "is_disabled": 0, "is_reserved": 0}, {"rental_uris": {"ios": "https://dc.lft.to/lastmile_qr_scan", "android": "https://dc.lft.to/lastmile_qr_scan"}, "lon": -77.04335433333334, "type": "electric_scooter", "fusion_lat": 0.0, "lat": 38.89674383333333, "name": "0758938d22cbd6f2a83d06a00d53abcd", "fusion_lon": 0.0, "bike_id": "0758938d22cbd6f2a83d06a00d53abcd", "is_disabled": 0, "is_reserved": 0}, {"rental_uris": {"ios": "https://dc.lft.to/lastmile_qr_scan", "android": "https://dc.lft.to/lastmile_qr_scan"}, "lon": -77.12505666666667, "type": "electric_bike", "fusion_lat": 0.0, "lat": 39.024272833333335, "name": "24fa02ba6540c676c5a1bb8d5641c57a", "fusion_lon": 0.0, "bike_id": "24fa02ba6540c676c5a1bb8d5641c57a", "is_disabled": 0, "is_reserved": 0}, {"rental_uris": {"ios": "https://dc.lft.to/lastmile_qr_scan", "android": "https://dc.lft.to/lastmile_qr_scan"}, "lon": -76.95752266666666, "type": "electric_scooter", "fusion_lat": 0.0, "lat": 38.88431716666667, "name": "1a0e4e34db6c4d26324c1892949e5f5d", "fusion_lon": 0.0, "bike_id": "1a0e4e34db6c4d26324c1892949e5f5d", "is_disabled": 0, "is_reserved": 0}, {"rental_uris": {"ios": "https://dc.lft.to/lastmile_qr_scan", "android": "https://dc.lft.to/lastmile_qr_scan"}, "lon": -77.032826, "type": "electric_scooter", "fusion_lat": 0.0, "lat": 38.93492966666667, "name": "ee20b96b0d035f25504c78714222e4a3", "fusion_lon": 0.0, "bike_id": "ee20b96b0d035f25504c78714222e4a3", "is_disabled": 0, "is_reserved": 0}, {"rental_uris": {"ios": "https://dc.lft.to/lastmile_qr_scan", "android": "https://dc.lft.to/lastmile_qr_scan"}, "lon": -77.01988916666667, "type": "electric_scooter", "fusion_lat": 0.0, "lat": 38.9378055, "name": "48cfde4774596b9c6e10b57bea6ef6a3", "fusion_lon": 0.0, "bike_id": "48cfde4774596b9c6e10b57bea6ef6a3", "is_disabled": 0, "is_reserved": 0}, {"rental_uris": {"ios": "https://dc.lft.to/lastmile_qr_scan", "android": "https://dc.lft.to/lastmile_qr_scan"}, "lon": -77.02840033333334, "type": "electric_scooter", "fusion_lat": 0.0, "lat": 38.928587, "name": "16aa71cfdddab0ba25836022748788e6", "fusion_lon": 0.0, "bike_id": "16aa71cfdddab0ba25836022748788e6", "is_disabled": 0, "is_reserved": 0}, {"rental_uris": {"ios": "https://dc.lft.to/lastmile_qr_scan", "android": "https://dc.lft.to/lastmile_qr_scan"}, "lon": -77.0101315, "type": "electric_scooter", "fusion_lat": 0.0, "lat": 38.91804416666667, "name": "22e75842e0556794e81986a392284b58", "fusion_lon": 0.0, "bike_id": "22e75842e0556794e81986a392284b58", "is_disabled": 0, "is_reserved": 0}, {"rental_uris": {"ios": "https://dc.lft.to/lastmile_qr_scan", "android": "https://dc.lft.to/lastmile_qr_scan"}, "lon": -77.0239365, "type": "electric_scooter", "fusion_lat": 0.0, "lat": 38.9199195, "name": "58d08322308b63e180e52d27ff0753c7", "fusion_lon": 0.0, "bike_id": "58d08322308b63e180e52d27ff0753c7", "is_disabled": 0, "is_reserved": 0}, {"rental_uris": {"ios": "https://dc.lft.to/lastmile_qr_scan", "android": "https://dc.lft.to/lastmile_qr_scan"}, "lon": -77.05921433333333, "type": "electric_scooter", "fusion_lat": 0.0, "lat": 38.909515999999996, "name": "cb96830baa9f06153c42018e23288cf7", "fusion_lon": 0.0, "bike_id": "cb96830baa9f06153c42018e23288cf7", "is_disabled": 0, "is_reserved": 0}, {"rental_uris": {"ios": "https://dc.lft.to/lastmile_qr_scan", "android": "https://dc.lft.to/lastmile_qr_scan"}, "lon": -77.04215716666667, "type": "electric_scooter", "fusion_lat": 0.0, "lat": 38.906545, "name": "ed4cb5a548570716298caa537c535b25", "fusion_lon": 0.0, "bike_id": "ed4cb5a548570716298caa537c535b25", "is_disabled": 0, "is_reserved": 0}, {"rental_uris": {"ios": "https://dc.lft.to/lastmile_qr_scan", "android": "https://dc.lft.to/lastmile_qr_scan"}, "lon": -76.98993766666666, "type": "electric_scooter", "fusion_lat": 0.0, "lat": 38.903903666666665, "name": "428111143ea3b2cdac60014d36158bd4", "fusion_lon": 0.0, "bike_id": "428111143ea3b2cdac60014d36158bd4", "is_disabled": 0, "is_reserved": 0}, {"rental_uris": {"ios": "https://dc.lft.to/lastmile_qr_scan", "android": "https://dc.lft.to/lastmile_qr_scan"}, "lon": -76.99550333333333, "type": "electric_scooter", "fusion_lat": 0.0, "lat": 38.8623375, "name": "3b23026114abb71bcbccac3d1879828d", "fusion_lon": 0.0, "bike_id": "3b23026114abb71bcbccac3d1879828d", "is_disabled": 0, "is_reserved": 0}, {"rental_uris": {"ios": "https://dc.lft.to/lastmile_qr_scan", "android": "https://dc.lft.to/lastmile_qr_scan"}, "lon": -77.037805, "type": "electric_scooter", "fusion_lat": 0.0, "lat": 38.93014433333333, "name": "b2a22d5575bfb5ff0de4ec7c2420c92c", "fusion_lon": 0.0, "bike_id": "b2a22d5575bfb5ff0de4ec7c2420c92c", "is_disabled": 0, "is_reserved": 0}, {"rental_uris": {"ios": "https://dc.lft.to/lastmile_qr_scan", "android": "https://dc.lft.to/lastmile_qr_scan"}, "lon": -76.98001333333333, "type": "electric_bike", "fusion_lat": 0.0, "lat": 38.9001405, "name": "bdf66e21c137ddcf21df89915b4929e5", "fusion_lon": 0.0, "bike_id": "bdf66e21c137ddcf21df89915b4929e5", "is_disabled": 0, "is_reserved": 0}, {"rental_uris": {"ios": "https://dc.lft.to/lastmile_qr_scan", "android": "https://dc.lft.to/lastmile_qr_scan"}, "lon": -77.042851, "type": "electric_scooter", "fusion_lat": 0.0, "lat": 38.89534866666666, "name": "df1b01f05fe8ca9f2e8269f043860367", "fusion_lon": 0.0, "bike_id": "df1b01f05fe8ca9f2e8269f043860367", "is_disabled": 0, "is_reserved": 0}, {"rental_uris": {"ios": "https://dc.lft.to/lastmile_qr_scan", "android": "https://dc.lft.to/lastmile_qr_scan"}, "lon": -76.93176316666667, "type": "electric_scooter", "fusion_lat": 0.0, "lat": 38.89881, "name": "ab2e14c0a6d5036fbab13d6e2a408053", "fusion_lon": 0.0, "bike_id": "ab2e14c0a6d5036fbab13d6e2a408053", "is_disabled": 0, "is_reserved": 0}, {"rental_uris": {"ios": "https://dc.lft.to/lastmile_qr_scan", "android": "https://dc.lft.to/lastmile_qr_scan"}, "lon": -76.95182866666667, "type": "electric_bike", "fusion_lat": 0.0, "lat": 38.90690216666667, "name": "70117ffafba1eedd7e8b01f8f2ecaf08", "fusion_lon": 0.0, "bike_id": "70117ffafba1eedd7e8b01f8f2ecaf08", "is_disabled": 0, "is_reserved": 0}, {"rental_uris": {"ios": "https://dc.lft.to/lastmile_qr_scan", "android": "https://dc.lft.to/lastmile_qr_scan"}, "lon": -77.032829, "type": "electric_scooter", "fusion_lat": 0.0, "lat": 38.93880516666667, "name": "c82c894be4bbd1cc58db92efbe6568c9", "fusion_lon": 0.0, "bike_id": "c82c894be4bbd1cc58db92efbe6568c9", "is_disabled": 0, "is_reserved": 0}, {"rental_uris": {"ios": "https://dc.lft.to/lastmile_qr_scan", "android": "https://dc.lft.to/lastmile_qr_scan"}, "lon": -77.0110945, "type": "electric_scooter", "fusion_lat": 0.0, "lat": 38.90361866666667, "name": "6b0a2cb17598b81456aa7f1a6e2c0ae7", "fusion_lon": 0.0, "bike_id": "6b0a2cb17598b81456aa7f1a6e2c0ae7", "is_disabled": 0, "is_reserved": 0}, {"rental_uris": {"ios": "https://dc.lft.to/lastmile_qr_scan", "android": "https://dc.lft.to/lastmile_qr_scan"}, "lon": -77.03663266666666, "type": "electric_scooter", "fusion_lat": 0.0, "lat": 38.918700666666666, "name": "d8471a2c25dd786130d920a43b57cd6e", "fusion_lon": 0.0, "bike_id": "d8471a2c25dd786130d920a43b57cd6e", "is_disabled": 0, "is_reserved": 0}, {"rental_uris": {"ios": "https://dc.lft.to/lastmile_qr_scan", "android": "https://dc.lft.to/lastmile_qr_scan"}, "lon": -77.04410466666667, "type": "electric_scooter", "fusion_lat": 0.0, "lat": 38.9131165, "name": "a9c6889112e4061e3639bf4e18a6bbc3", "fusion_lon": 0.0, "bike_id": "a9c6889112e4061e3639bf4e18a6bbc3", "is_disabled": 0, "is_reserved": 0}, {"rental_uris": {"ios": "https://dc.lft.to/lastmile_qr_scan", "android": "https://dc.lft.to/lastmile_qr_scan"}, "lon": -77.02968866666667, "type": "electric_scooter", "fusion_lat": 0.0, "lat": 38.92316666666667, "name": "b4c1259da89688d41d4f9358f3a6cee4", "fusion_lon": 0.0, "bike_id": "b4c1259da89688d41d4f9358f3a6cee4", "is_disabled": 0, "is_reserved": 0}, {"rental_uris": {"ios": "https://dc.lft.to/lastmile_qr_scan", "android": "https://dc.lft.to/lastmile_qr_scan"}, "lon": -77.013099, "type": "electric_scooter", "fusion_lat": 0.0, "lat": 38.89742916666667, "name": "6d8ace55547c47a96975d476dbad3b8e", "fusion_lon": 0.0, "bike_id": "6d8ace55547c47a96975d476dbad3b8e", "is_disabled": 0, "is_reserved": 0}, {"rental_uris": {"ios": "https://dc.lft.to/lastmile_qr_scan", "android": "https://dc.lft.to/lastmile_qr_scan"}, "lon": -77.02464233333333, "type": "electric_scooter", "fusion_lat": 0.0, "lat": 38.936311833333335, "name": "99f89d4d2d4c79ad25108a7b513483d2", "fusion_lon": 0.0, "bike_id": "99f89d4d2d4c79ad25108a7b513483d2", "is_disabled": 0, "is_reserved": 0}, {"rental_uris": {"ios": "https://dc.lft.to/lastmile_qr_scan", "android": "https://dc.lft.to/lastmile_qr_scan"}, "lon": -77.02863916666666, "type": "electric_scooter", "fusion_lat": 0.0, "lat": 38.90869, "name": "817f6fbb2f5049cbe58aeaaa7e26a319", "fusion_lon": 0.0, "bike_id": "817f6fbb2f5049cbe58aeaaa7e26a319", "is_disabled": 0, "is_reserved": 0}, {"rental_uris": {"ios": "https://dc.lft.to/lastmile_qr_scan", "android": "https://dc.lft.to/lastmile_qr_scan"}, "lon": -77.03859016666667, "type": "electric_scooter", "fusion_lat": 0.0, "lat": 38.90939866666667, "name": "ec6f5d5b493286f626f6a019f94dc074", "fusion_lon": 0.0, "bike_id": "ec6f5d5b493286f626f6a019f94dc074", "is_disabled": 0, "is_reserved": 0}, {"rental_uris": {"ios": "https://dc.lft.to/lastmile_qr_scan", "android": "https://dc.lft.to/lastmile_qr_scan"}, "lon": -76.95901216666667, "type": "electric_scooter", "fusion_lat": 0.0, "lat": 38.926879166666666, "name": "63cbfe9fff7eba870fef836117c41726", "fusion_lon": 0.0, "bike_id": "63cbfe9fff7eba870fef836117c41726", "is_disabled": 0, "is_reserved": 0}, {"rental_uris": {"ios": "https://dc.lft.to/lastmile_qr_scan", "android": "https://dc.lft.to/lastmile_qr_scan"}, "lon": -77.01372633333334, "type": "electric_scooter", "fusion_lat": 0.0, "lat": 38.886558, "name": "0082af0bdd5b4dfb9956b924c4ef422a", "fusion_lon": 0.0, "bike_id": "0082af0bdd5b4dfb9956b924c4ef422a", "is_disabled": 0, "is_reserved": 0}, {"rental_uris": {"ios": "https://dc.lft.to/lastmile_qr_scan", "android": "https://dc.lft.to/lastmile_qr_scan"}, "lon": -77.052649, "type": "electric_scooter", "fusion_lat": 0.0, "lat": 38.934309999999996, "name": "7de17a72d01a8c8086dd8ffb242b47a4", "fusion_lon": 0.0, "bike_id": "7de17a72d01a8c8086dd8ffb242b47a4", "is_disabled": 0, "is_reserved": 0}, {"rental_uris": {"ios": "https://dc.lft.to/lastmile_qr_scan", "android": "https://dc.lft.to/lastmile_qr_scan"}, "lon": -77.04892733333334, "type": "electric_scooter", "fusion_lat": 0.0, "lat": 38.90589833333333, "name": "e1052f73a58989386daa8233f4ad1d52", "fusion_lon": 0.0, "bike_id": "e1052f73a58989386daa8233f4ad1d52", "is_disabled": 0, "is_reserved": 0}, {"rental_uris": {"ios": "https://dc.lft.to/lastmile_qr_scan", "android": "https://dc.lft.to/lastmile_qr_scan"}, "lon": -77.04808166666666, "type": "electric_scooter", "fusion_lat": 0.0, "lat": 38.920412166666665, "name": "a70830d548dad33fd6678150ea13fa4f", "fusion_lon": 0.0, "bike_id": "a70830d548dad33fd6678150ea13fa4f", "is_disabled": 0, "is_reserved": 0}, {"rental_uris": {"ios": "https://dc.lft.to/lastmile_qr_scan", "android": "https://dc.lft.to/lastmile_qr_scan"}, "lon": -77.04234033333333, "type": "electric_scooter", "fusion_lat": 0.0, "lat": 38.90581983333333, "name": "4b266fb38dd748369203e5ccf22e4a74", "fusion_lon": 0.0, "bike_id": "4b266fb38dd748369203e5ccf22e4a74", "is_disabled": 0, "is_reserved": 0}, {"rental_uris": {"ios": "https://dc.lft.to/lastmile_qr_scan", "android": "https://dc.lft.to/lastmile_qr_scan"}, "lon": -77.03418383333333, "type": "electric_scooter", "fusion_lat": 0.0, "lat": 38.935401, "name": "c7157dbb9dac08fa7289c2af70882a66", "fusion_lon": 0.0, "bike_id": "c7157dbb9dac08fa7289c2af70882a66", "is_disabled": 0, "is_reserved": 0}, {"rental_uris": {"ios": "https://dc.lft.to/lastmile_qr_scan", "android": "https://dc.lft.to/lastmile_qr_scan"}, "lon": -77.01320616666666, "type": "electric_scooter", "fusion_lat": 0.0, "lat": 38.900514, "name": "b3318c768c5f47ee9bec5713411ca628", "fusion_lon": 0.0, "bike_id": "b3318c768c5f47ee9bec5713411ca628", "is_disabled": 0, "is_reserved": 0}, {"rental_uris": {"ios": "https://dc.lft.to/lastmile_qr_scan", "android": "https://dc.lft.to/lastmile_qr_scan"}, "lon": -77.033598, "type": "electric_scooter", "fusion_lat": 0.0, "lat": 38.93415783333333, "name": "4d4f2cf18d487cca1feaa1c2de479d74", "fusion_lon": 0.0, "bike_id": "4d4f2cf18d487cca1feaa1c2de479d74", "is_disabled": 0, "is_reserved": 0}, {"rental_uris": {"ios": "https://dc.lft.to/lastmile_qr_scan", "android": "https://dc.lft.to/lastmile_qr_scan"}, "lon": -77.01694833333333, "type": "electric_scooter", "fusion_lat": 0.0, "lat": 38.920397, "name": "b1496768229a3c0a327601c31cc527d4", "fusion_lon": 0.0, "bike_id": "b1496768229a3c0a327601c31cc527d4", "is_disabled": 0, "is_reserved": 0}, {"rental_uris": {"ios": "https://dc.lft.to/lastmile_qr_scan", "android": "https://dc.lft.to/lastmile_qr_scan"}, "lon": -77.02853833333333, "type": "electric_scooter", "fusion_lat": 0.0, "lat": 38.928155333333336, "name": "b4e2701a14508cc82a4f0a6812a4690f", "fusion_lon": 0.0, "bike_id": "b4e2701a14508cc82a4f0a6812a4690f", "is_disabled": 0, "is_reserved": 0}, {"rental_uris": {"ios": "https://dc.lft.to/lastmile_qr_scan", "android": "https://dc.lft.to/lastmile_qr_scan"}, "lon": -77.023501, "type": "electric_scooter", "fusion_lat": 0.0, "lat": 38.92505833333333, "name": "11bbb16c082827b641238149a8286bf9", "fusion_lon": 0.0, "bike_id": "11bbb16c082827b641238149a8286bf9", "is_disabled": 0, "is_reserved": 0}, {"rental_uris": {"ios": "https://dc.lft.to/lastmile_qr_scan", "android": "https://dc.lft.to/lastmile_qr_scan"}, "lon": -77.02250816666667, "type": "electric_scooter", "fusion_lat": 0.0, "lat": 38.924563166666665, "name": "a9818cf6e5dcb6956289e2e4f6d46fd8", "fusion_lon": 0.0, "bike_id": "a9818cf6e5dcb6956289e2e4f6d46fd8", "is_disabled": 0, "is_reserved": 0}, {"rental_uris": {"ios": "https://dc.lft.to/lastmile_qr_scan", "android": "https://dc.lft.to/lastmile_qr_scan"}, "lon": -77.023692, "type": "electric_scooter", "fusion_lat": 0.0, "lat": 38.90305933333333, "name": "81d45631753d791bd7b57a4b2a4eb030", "fusion_lon": 0.0, "bike_id": "81d45631753d791bd7b57a4b2a4eb030", "is_disabled": 0, "is_reserved": 0}, {"rental_uris": {"ios": "https://dc.lft.to/lastmile_qr_scan", "android": "https://dc.lft.to/lastmile_qr_scan"}, "lon": -77.02794133333333, "type": "electric_scooter", "fusion_lat": 0.0, "lat": 38.930824666666666, "name": "d37f5f7e2fbd99bda2f8bbb9e85bcc3d", "fusion_lon": 0.0, "bike_id": "d37f5f7e2fbd99bda2f8bbb9e85bcc3d", "is_disabled": 0, "is_reserved": 0}, {"rental_uris": {"ios": "https://dc.lft.to/lastmile_qr_scan", "android": "https://dc.lft.to/lastmile_qr_scan"}, "lon": -77.03051083333334, "type": "electric_scooter", "fusion_lat": 0.0, "lat": 38.894526, "name": "9ff52a8054963f0970d9533e11a657ef", "fusion_lon": 0.0, "bike_id": "9ff52a8054963f0970d9533e11a657ef", "is_disabled": 0, "is_reserved": 0}, {"rental_uris": {"ios": "https://dc.lft.to/lastmile_qr_scan", "android": "https://dc.lft.to/lastmile_qr_scan"}, "lon": -77.01110416666667, "type": "electric_scooter", "fusion_lat": 0.0, "lat": 38.907908666666664, "name": "b35f823cdec3a919ac375936377d7d31", "fusion_lon": 0.0, "bike_id": "b35f823cdec3a919ac375936377d7d31", "is_disabled": 0, "is_reserved": 0}, {"rental_uris": {"ios": "https://dc.lft.to/lastmile_qr_scan", "android": "https://dc.lft.to/lastmile_qr_scan"}, "lon": -76.98999516666666, "type": "electric_scooter", "fusion_lat": 0.0, "lat": 38.86503716666667, "name": "3b8b44816577e02dad3ea6ae4f248590", "fusion_lon": 0.0, "bike_id": "3b8b44816577e02dad3ea6ae4f248590", "is_disabled": 0, "is_reserved": 0}, {"rental_uris": {"ios": "https://dc.lft.to/lastmile_qr_scan", "android": "https://dc.lft.to/lastmile_qr_scan"}, "lon": -77.00618683333333, "type": "electric_scooter", "fusion_lat": 0.0, "lat": 38.829211, "name": "8bc702d662f437e23af3572f0cffd886", "fusion_lon": 0.0, "bike_id": "8bc702d662f437e23af3572f0cffd886", "is_disabled": 0, "is_reserved": 0}, {"rental_uris": {"ios": "https://dc.lft.to/lastmile_qr_scan", "android": "https://dc.lft.to/lastmile_qr_scan"}, "lon": -77.01925983333334, "type": "electric_scooter", "fusion_lat": 0.0, "lat": 38.95688633333333, "name": "428119f82ced4de2e6b2bf93d3d0f803", "fusion_lon": 0.0, "bike_id": "428119f82ced4de2e6b2bf93d3d0f803", "is_disabled": 0, "is_reserved": 0}, {"rental_uris": {"ios": "https://dc.lft.to/lastmile_qr_scan", "android": "https://dc.lft.to/lastmile_qr_scan"}, "lon": -77.03080183333333, "type": "electric_scooter", "fusion_lat": 0.0, "lat": 38.88032483333333, "name": "d2c59040d174d1d8e7ba9ba9b7b1e9a7", "fusion_lon": 0.0, "bike_id": "d2c59040d174d1d8e7ba9ba9b7b1e9a7", "is_disabled": 0, "is_reserved": 0}, {"rental_uris": {"ios": "https://dc.lft.to/lastmile_qr_scan", "android": "https://dc.lft.to/lastmile_qr_scan"}, "lon": -76.96505, "type": "electric_scooter", "fusion_lat": 0.0, "lat": 38.87647616666667, "name": "6320d15cbe3484db71afcef2f8ee52f3", "fusion_lon": 0.0, "bike_id": "6320d15cbe3484db71afcef2f8ee52f3", "is_disabled": 0, "is_reserved": 0}, {"rental_uris": {"ios": "https://dc.lft.to/lastmile_qr_scan", "android": "https://dc.lft.to/lastmile_qr_scan"}, "lon": -77.152681, "type": "electric_bike", "fusion_lat": 0.0, "lat": 39.10566033333333, "name": "4f2126cc6741aa6e9991fd3ab363cf90", "fusion_lon": 0.0, "bike_id": "4f2126cc6741aa6e9991fd3ab363cf90", "is_disabled": 0, "is_reserved": 0}, {"rental_uris": {"ios": "https://dc.lft.to/lastmile_qr_scan", "android": "https://dc.lft.to/lastmile_qr_scan"}, "lon": -77.02488066666666, "type": "electric_scooter", "fusion_lat": 0.0, "lat": 38.9418415, "name": "343d4f45dfcd3c53d44785030a5d65d6", "fusion_lon": 0.0, "bike_id": "343d4f45dfcd3c53d44785030a5d65d6", "is_disabled": 0, "is_reserved": 0}, {"rental_uris": {"ios": "https://dc.lft.to/lastmile_qr_scan", "android": "https://dc.lft.to/lastmile_qr_scan"}, "lon": -77.0171785, "type": "electric_scooter", "fusion_lat": 0.0, "lat": 38.911729333333334, "name": "4dbaf79975f5e6a748e0f647c7a5f17d", "fusion_lon": 0.0, "bike_id": "4dbaf79975f5e6a748e0f647c7a5f17d", "is_disabled": 0, "is_reserved": 0}, {"rental_uris": {"ios": "https://dc.lft.to/lastmile_qr_scan", "android": "https://dc.lft.to/lastmile_qr_scan"},