{"data": {"bikes": [{"lon": -77.042091, "is_disabled": 0, "lat": 38.9207945, "fusion_lat": 0.0, "is_reserved": 0, "rental_uris": {"ios": "https://dc.lft.to/lastmile_qr_scan", "android": "https://dc.lft.to/lastmile_qr_scan"}, "fusion_lon": 0.0, "type": "electric_scooter", "bike_id": "b7be3fc47eef8f5ff93fd845b758d120", "name": "b7be3fc47eef8f5ff93fd845b758d120"}, {"lon": -76.96532216666667, "is_disabled": 0, "lat": 38.876235, "fusion_lat": 0.0, "is_reserved": 0, "rental_uris": {"ios": "https://dc.lft.to/lastmile_qr_scan", "android": "https://dc.lft.to/lastmile_qr_scan"}, "fusion_lon": 0.0, "type": "electric_scooter", "bike_id": "478996fd59490368856a98c36d246631", "name": "478996fd59490368856a98c36d246631"}, {"lon": -77.03583366666666, "is_disabled": 0, "lat": 38.90388216666667, "fusion_lat": 0.0, "is_reserved": 0, "rental_uris": {"ios": "https://dc.lft.to/lastmile_qr_scan", "android": "https://dc.lft.to/lastmile_qr_scan"}, "fusion_lon": 0.0, "type": "electric_scooter", "bike_id": "48a7dc4cfc00033d9ff8e1043c0848c0", "name": "48a7dc4cfc00033d9ff8e1043c0848c0"}, {"lon": -77.02085916666667, "is_disabled": 0, "lat": 38.88185883333333, "fusion_lat": 0.0, "is_reserved": 0, "rental_uris": {"ios": "https://dc.lft.to/lastmile_qr_scan", "android": "https://dc.lft.to/lastmile_qr_scan"}, "fusion_lon": 0.0, "type": "electric_scooter", "bike_id": "15ef2ee3c28996e32818954bf297d4de", "name": "15ef2ee3c28996e32818954bf297d4de"}, {"lon": -76.988184, "is_disabled": 0, "lat": 38.900694333333334, "fusion_lat": 0.0, "is_reserved": 0, "rental_uris": {"ios": "https://dc.lft.to/lastmile_qr_scan", "android": "https://dc.lft.to/lastmile_qr_scan"}, "fusion_lon": 0.0, "type": "electric_scooter", "bike_id": "ebbe195811dc1ac66c97bc1252aedc08", "name": "ebbe195811dc1ac66c97bc1252aedc08"}, {"lon": -77.04513766666666, "is_disabled": 0, "lat": 38.90379383333333, "fusion_lat": 0.0, "is_reserved": 0, "rental_uris": {"ios": "https://dc.lft.to/lastmile_qr_scan", "android": "https://dc.lft.to/lastmile_qr_scan"}, "fusion_lon": 0.0, "type": "electric_scooter", "bike_id": "92e6c5dfd8cf7a2f72336506e0879f29", "name": "92e6c5dfd8cf7a2f72336506e0879f29"}, {"lon": -77.01583583333333, "is_disabled": 0, "lat": 38.8762, "fusion_lat": 0.0, "is_reserved": 0, "rental_uris": {"ios": "https://dc.lft.to/lastmile_qr_scan", "android": "https://dc.lft.to/lastmile_qr_scan"}, "fusion_lon": 0.0, "type": "electric_scooter", "bike_id": "f27674da67afc35e260e244b28eb2f00", "name": "f27674da67afc35e260e244b28eb2f00"}, {"lon": -76.9860615, "is_disabled": 0, "lat": 38.90014016666667, "fusion_lat": 0.0, "is_reserved": 0, "rental_uris": {"ios": "https://dc.lft.to/lastmile_qr_scan", "android": "https://dc.lft.to/lastmile_qr_scan"}, "fusion_lon": 0.0, "type": "electric_scooter", "bike_id": "1667eb3b43a081b2e78ea6f39864b9d3", "name": "1667eb3b43a081b2e78ea6f39864b9d3"}, {"lon": -77.03860433333334, "is_disabled": 0, "lat": 38.90312616666667, "fusion_lat": 0.0, "is_reserved": 0, "rental_uris": {"ios": "https://dc.lft.to/lastmile_qr_scan", "android": "https://dc.lft.to/lastmile_qr_scan"}, "fusion_lon": 0.0, "type": "electric_scooter", "bike_id": "3103e944c4e0e008ac3fbcb557625c4a", "name": "3103e944c4e0e008ac3fbcb557625c4a"}, {"lon": -76.9464205, "is_disabled": 0, "lat": 38.898618166666665, "fusion_lat": 0.0, "is_reserved": 0, "rental_uris": {"ios": "https://dc.lft.to/lastmile_qr_scan", "android": "https://dc.lft.to/lastmile_qr_scan"}, "fusion_lon": 0.0, "type": "electric_scooter", "bike_id": "f5a1b340953ada86bad71290df589158", "name": "f5a1b340953ada86bad71290df589158"}, {"lon": -76.97644366666667, "is_disabled": 0, "lat": 38.88686833333333, "fusion_lat": 0.0, "is_reserved": 0, "rental_uris": {"ios": "https://dc.lft.to/lastmile_qr_scan", "android": "https://dc.lft.to/lastmile_qr_scan"}, "fusion_lon": 0.0, "type": "electric_scooter", "bike_id": "d5c0c672e3714e2758c1da0ca16e438c", "name": "d5c0c672e3714e2758c1da0ca16e438c"}, {"lon": -77.03673416666666, "is_disabled": 0, "lat": 38.902234, "fusion_lat": 0.0, "is_reserved": 0, "rental_uris": {"ios": "https://dc.lft.to/lastmile_qr_scan", "android": "https://dc.lft.to/lastmile_qr_scan"}, "fusion_lon": 0.0, "type": "electric_scooter", "bike_id": "57f432f24a3692ad66481e7c68bd21c4", "name": "57f432f24a3692ad66481e7c68bd21c4"}, {"lon": -76.990683, "is_disabled": 0, "lat": 38.863735, "fusion_lat": 0.0, "is_reserved": 0, "rental_uris": {"ios": "https://dc.lft.to/lastmile_qr_scan", "android": "https://dc.lft.to/lastmile_qr_scan"}, "fusion_lon": 0.0, "type": "electric_scooter", "bike_id": "fb4f128f9bd1e3da38c8127883d33863", "name": "fb4f128f9bd1e3da38c8127883d33863"}, {"lon": -76.982482, "is_disabled": 0, "lat": 38.871134, "fusion_lat": 0.0, "is_reserved": 0, "rental_uris": {"ios": "https://dc.lft.to/lastmile_qr_scan", "android": "https://dc.lft.to/lastmile_qr_scan"}, "fusion_lon": 0.0, "type": "electric_scooter", "bike_id": "149c9baa9634aad6b35ac61b30b2caf6", "name": "149c9baa9634aad6b35ac61b30b2caf6"}, {"lon": -76.99820016666666, "is_disabled": 0, "lat": 38.819797666666666, "fusion_lat": 0.0, "is_reserved": 0, "rental_uris": {"ios": "https://dc.lft.to/lastmile_qr_scan", "android": "https://dc.lft.to/lastmile_qr_scan"}, "fusion_lon": 0.0, "type": "electric_bike", "bike_id": "0830fa975f1afa531dfcf7e770c9fa18", "name": "0830fa975f1afa531dfcf7e770c9fa18"}, {"lon": -77.03230533333333, "is_disabled": 0, "lat": 38.92354733333333, "fusion_lat": 0.0, "is_reserved": 0, "rental_uris": {"ios": "https://dc.lft.to/lastmile_qr_scan", "android": "https://dc.lft.to/lastmile_qr_scan"}, "fusion_lon": 0.0, "type": "electric_scooter", "bike_id": "1df464ef3b17f76904a951a3f2c83dab", "name": "1df464ef3b17f76904a951a3f2c83dab"}, {"lon": -77.0035515, "is_disabled": 0, "lat": 38.895308, "fusion_lat": 0.0, "is_reserved": 0, "rental_uris": {"ios": "https://dc.lft.to/lastmile_qr_scan", "android": "https://dc.lft.to/lastmile_qr_scan"}, "fusion_lon": 0.0, "type": "electric_scooter", "bike_id": "3f43b72629ee3a4f22f55f8f84eabade", "name": "3f43b72629ee3a4f22f55f8f84eabade"}, {"lon": -77.1325045, "is_disabled": 0, "lat": 38.8056475, "fusion_lat": 0.0, "is_reserved": 0, "rental_uris": {"ios": "https://dc.lft.to/lastmile_qr_scan", "android": "https://dc.lft.to/lastmile_qr_scan"}, "fusion_lon": 0.0, "type": "electric_bike", "bike_id": "0354cb95c2791b94403346af42401069", "name": "0354cb95c2791b94403346af42401069"}, {"lon": -77.0436465, "is_disabled": 0, "lat": 38.911114166666664, "fusion_lat": 0.0, "is_reserved": 0, "rental_uris": {"ios": "https://dc.lft.to/lastmile_qr_scan", "android": "https://dc.lft.to/lastmile_qr_scan"}, "fusion_lon": 0.0, "type": "electric_scooter", "bike_id": "04ac624b3e75a9dd76f0733b9724b433", "name": "04ac624b3e75a9dd76f0733b9724b433"}, {"lon": -77.03968616666667, "is_disabled": 0, "lat": 38.902987, "fusion_lat": 0.0, "is_reserved": 0, "rental_uris": {"ios": "https://dc.lft.to/lastmile_qr_scan", "android": "https://dc.lft.to/lastmile_qr_scan"}, "fusion_lon": 0.0, "type": "electric_scooter", "bike_id": "2987e341e77b8bccf48a1782f2de1685", "name": "2987e341e77b8bccf48a1782f2de1685"}, {"lon": -77.02243183333333, "is_disabled": 0, "lat": 38.8998585, "fusion_lat": 0.0, "is_reserved": 0, "rental_uris": {"ios": "https://dc.lft.to/lastmile_qr_scan", "android": "https://dc.lft.to/lastmile_qr_scan"}, "fusion_lon": 0.0, "type": "electric_scooter", "bike_id": "eb92dac12344536f461201300978b107", "name": "eb92dac12344536f461201300978b107"}, {"lon": -76.99257533333333, "is_disabled": 0, "lat": 38.89281166666667, "fusion_lat": 0.0, "is_reserved": 0, "rental_uris": {"ios": "https://dc.lft.to/lastmile_qr_scan", "android": "https://dc.lft.to/lastmile_qr_scan"}, "fusion_lon": 0.0, "type": "electric_scooter", "bike_id": "85be2d739e7fc73824001d06cf13e733", "name": "85be2d739e7fc73824001d06cf13e733"}, {"lon": -77.01838233333334, "is_disabled": 0, "lat": 38.978156, "fusion_lat": 0.0, "is_reserved": 0, "rental_uris": {"ios": "https://dc.lft.to/lastmile_qr_scan", "android": "https://dc.lft.to/lastmile_qr_scan"}, "fusion_lon": 0.0, "type": "electric_scooter", "bike_id": "4bf1d222ecf3fb051370e32d23d0439f", "name": "4bf1d222ecf3fb051370e32d23d0439f"}, {"lon": -77.03211333333333, "is_disabled": 0, "lat": 38.89233866666667, "fusion_lat": 0.0, "is_reserved": 0, "rental_uris": {"ios": "https://dc.lft.to/lastmile_qr_scan", "android": "https://dc.lft.to/lastmile_qr_scan"}, "fusion_lon": 0.0, "type": "electric_scooter", "bike_id": "3c2afbee0d5d3a57568504328c72fe5d", "name": "3c2afbee0d5d3a57568504328c72fe5d"}, {"lon": -76.991921, "is_disabled": 0, "lat": 38.858324, "fusion_lat": 0.0, "is_reserved": 0, "rental_uris": {"ios": "https://dc.lft.to/lastmile_qr_scan", "android": "https://dc.lft.to/lastmile_qr_scan"}, "fusion_lon": 0.0, "type": "electric_scooter", "bike_id": "4b26546a3fbb95a2acc13f2d5b92434e", "name": "4b26546a3fbb95a2acc13f2d5b92434e"}, {"lon": -77.01498416666666, "is_disabled": 0, "lat": 38.9270185, "fusion_lat": 0.0, "is_reserved": 0, "rental_uris": {"ios": "https://dc.lft.to/lastmile_qr_scan", "android": "https://dc.lft.to/lastmile_qr_scan"}, "fusion_lon": 0.0, "type": "electric_scooter", "bike_id": "c204864de9bcb20e98eec699525aa96b", "name": "c204864de9bcb20e98eec699525aa96b"}, {"lon": -77.15026, "is_disabled": 0, "lat": 39.05785483333333, "fusion_lat": 0.0, "is_reserved": 0, "rental_uris": {"ios": "https://dc.lft.to/lastmile_qr_scan", "android": "https://dc.lft.to/lastmile_qr_scan"}, "fusion_lon": 0.0, "type": "electric_bike", "bike_id": "eb54196031685ddd686073d1f1d0c556", "name": "eb54196031685ddd686073d1f1d0c556"}, {"lon": -77.02463333333333, "is_disabled": 0, "lat": 38.9171185, "fusion_lat": 0.0, "is_reserved": 0, "rental_uris": {"ios": "https://dc.lft.to/lastmile_qr_scan", "android": "https://dc.lft.to/lastmile_qr_scan"}, "fusion_lon": 0.0, "type": "electric_scooter", "bike_id": "8b78fd23e93e61fa5b6a994c4188db40", "name": "8b78fd23e93e61fa5b6a994c4188db40"}, {"lon": -76.94960366666666, "is_disabled": 0, "lat": 38.894725333333334, "fusion_lat": 0.0, "is_reserved": 0, "rental_uris": {"ios": "https://dc.lft.to/lastmile_qr_scan", "android": "https://dc.lft.to/lastmile_qr_scan"}, "fusion_lon": 0.0, "type": "electric_scooter", "bike_id": "75fa920e01a3e6cc4355abb852ea4318", "name": "75fa920e01a3e6cc4355abb852ea4318"}, {"lon": -77.03201, "is_disabled": 0, "lat": 38.909902833333334, "fusion_lat": 0.0, "is_reserved": 0, "rental_uris": {"ios": "https://dc.lft.to/lastmile_qr_scan", "android": "https://dc.lft.to/lastmile_qr_scan"}, "fusion_lon": 0.0, "type": "electric_scooter", "bike_id": "fd37eb2f48dcbbc74b20ce5354473aeb", "name": "fd37eb2f48dcbbc74b20ce5354473aeb"}, {"lon": -77.1293735, "is_disabled": 0, "lat": 38.86515166666667, "fusion_lat": 0.0, "is_reserved": 0, "rental_uris": {"ios": "https://dc.lft.to/lastmile_qr_scan", "android": "https://dc.lft.to/lastmile_qr_scan"}, "fusion_lon": 0.0, "type": "electric_bike", "bike_id": "138b239db32060c83463aac4e3b24b61", "name": "138b239db32060c83463aac4e3b24b61"}, {"lon": -77.022932, "is_disabled": 0, "lat": 38.89522616666667, "fusion_lat": 0.0, "is_reserved": 0, "rental_uris": {"ios": "https://dc.lft.to/lastmile_qr_scan", "android": "https://dc.lft.to/lastmile_qr_scan"}, "fusion_lon": 0.0, "type": "electric_scooter", "bike_id": "95183b957b39591016ff5d7e3113e9db", "name": "95183b957b39591016ff5d7e3113e9db"}, {"lon": -77.02638566666667, "is_disabled": 0, "lat": 38.91067683333333, "fusion_lat": 0.0, "is_reserved": 0, "rental_uris": {"ios": "https://dc.lft.to/lastmile_qr_scan", "android": "https://dc.lft.to/lastmile_qr_scan"}, "fusion_lon": 0.0, "type": "electric_scooter", "bike_id": "09afd257a38afcd7c3e3a65fa50d554b", "name": "09afd257a38afcd7c3e3a65fa50d554b"}, {"lon": -76.9495005, "is_disabled": 0, "lat": 38.89358466666667, "fusion_lat": 0.0, "is_reserved": 0, "rental_uris": {"ios": "https://dc.lft.to/lastmile_qr_scan", "android": "https://dc.lft.to/lastmile_qr_scan"}, "fusion_lon": 0.0, "type": "electric_scooter", "bike_id": "07df274954d54ea565ad17a5582a2824", "name": "07df274954d54ea565ad17a5582a2824"}, {"lon": -77.036622, "is_disabled": 0, "lat": 38.923821, "fusion_lat": 0.0, "is_reserved": 0, "rental_uris": {"ios": "https://dc.lft.to/lastmile_qr_scan", "android": "https://dc.lft.to/lastmile_qr_scan"}, "fusion_lon": 0.0, "type": "electric_scooter", "bike_id": "70355145cf62d52e35256e41b16c0da1", "name": "70355145cf62d52e35256e41b16c0da1"}, {"lon": -77.050338, "is_disabled": 0, "lat": 38.90375366666667, "fusion_lat": 0.0, "is_reserved": 0, "rental_uris": {"ios": "https://dc.lft.to/lastmile_qr_scan", "android": "https://dc.lft.to/lastmile_qr_scan"}, "fusion_lon": 0.0, "type": "electric_scooter", "bike_id": "89f9b5c26002b376451a112fbb4ce65c", "name": "89f9b5c26002b376451a112fbb4ce65c"}, {"lon": -77.00338283333333, "is_disabled": 0, "lat": 38.8952855, "fusion_lat": 0.0, "is_reserved": 0, "rental_uris": {"ios": "https://dc.lft.to/lastmile_qr_scan", "android": "https://dc.lft.to/lastmile_qr_scan"}, "fusion_lon": 0.0, "type": "electric_scooter", "bike_id": "2b074cf78016b48c08499cc5683b7d4d", "name": "2b074cf78016b48c08499cc5683b7d4d"}, {"lon": -77.05570133333333, "is_disabled": 0, "lat": 38.803914666666664, "fusion_lat": 0.0, "is_reserved": 0, "rental_uris": {"ios": "https://dc.lft.to/lastmile_qr_scan", "android": "https://dc.lft.to/lastmile_qr_scan"}, "fusion_lon": 0.0, "type": "electric_bike", "bike_id": "b5b549d2f26afe3fcdff5708893ff1cf", "name": "b5b549d2f26afe3fcdff5708893ff1cf"}, {"lon": -77.02187666666667, "is_disabled": 0, "lat": 38.887207833333335, "fusion_lat": 0.0, "is_reserved": 0, "rental_uris": {"ios": "https://dc.lft.to/lastmile_qr_scan", "android": "https://dc.lft.to/lastmile_qr_scan"}, "fusion_lon": 0.0, "type": "electric_scooter", "bike_id": "03b29119ced854df58168c331729f2a6", "name": "03b29119ced854df58168c331729f2a6"}, {"lon": -77.03173483333333, "is_disabled": 0, "lat": 38.90351666666667, "fusion_lat": 0.0, "is_reserved": 0, "rental_uris": {"ios": "https://dc.lft.to/lastmile_qr_scan", "android": "https://dc.lft.to/lastmile_qr_scan"}, "fusion_lon": 0.0, "type": "electric_scooter", "bike_id": "44cb72158f1e3db60a70f6bf5f08cacd", "name": "44cb72158f1e3db60a70f6bf5f08cacd"}, {"lon": -77.00799833333333, "is_disabled": 0, "lat": 38.949181, "fusion_lat": 0.0, "is_reserved": 0, "rental_uris": {"ios": "https://dc.lft.to/lastmile_qr_scan", "android": "https://dc.lft.to/lastmile_qr_scan"}, "fusion_lon": 0.0, "type": "electric_scooter", "bike_id": "4c1a1c2c4594bd79f51009bfa1597d67", "name": "4c1a1c2c4594bd79f51009bfa1597d67"}, {"lon": -77.03830616666667, "is_disabled": 0, "lat": 38.916932833333334, "fusion_lat": 0.0, "is_reserved": 0, "rental_uris": {"ios": "https://dc.lft.to/lastmile_qr_scan", "android": "https://dc.lft.to/lastmile_qr_scan"}, "fusion_lon": 0.0, "type": "electric_scooter", "bike_id": "dce8c7582a4f633731c7debd9460db38", "name": "dce8c7582a4f633731c7debd9460db38"}, {"lon": -77.04162716666667, "is_disabled": 0, "lat": 38.91899333333333, "fusion_lat": 0.0, "is_reserved": 0, "rental_uris": {"ios": "https://dc.lft.to/lastmile_qr_scan", "android": "https://dc.lft.to/lastmile_qr_scan"}, "fusion_lon": 0.0, "type": "electric_scooter", "bike_id": "16ecbe7d9b4c68cc7266700449f86f74", "name": "16ecbe7d9b4c68cc7266700449f86f74"}, {"lon": -77.04353833333333, "is_disabled": 0, "lat": 38.90550316666667, "fusion_lat": 0.0, "is_reserved": 0, "rental_uris": {"ios": "https://dc.lft.to/lastmile_qr_scan", "android": "https://dc.lft.to/lastmile_qr_scan"}, "fusion_lon": 0.0, "type": "electric_scooter", "bike_id": "df91ed764c07bdca7f2debe63e28133a", "name": "df91ed764c07bdca7f2debe63e28133a"}, {"lon": -77.0466825, "is_disabled": 0, "lat": 38.89884833333333, "fusion_lat": 0.0, "is_reserved": 0, "rental_uris": {"ios": "https://dc.lft.to/lastmile_qr_scan", "android": "https://dc.lft.to/lastmile_qr_scan"}, "fusion_lon": 0.0, "type": "electric_scooter", "bike_id": "c095bfa2878bea5ab1317c751edb77bd", "name": "c095bfa2878bea5ab1317c751edb77bd"}, {"lon": -77.00201266666667, "is_disabled": 0, "lat": 38.902684, "fusion_lat": 0.0, "is_reserved": 0, "rental_uris": {"ios": "https://dc.lft.to/lastmile_qr_scan", "android": "https://dc.lft.to/lastmile_qr_scan"}, "fusion_lon": 0.0, "type": "electric_scooter", "bike_id": "da0a819d2b39979bd049940efb756134", "name": "da0a819d2b39979bd049940efb756134"}, {"lon": -77.0248235, "is_disabled": 0, "lat": 38.938832833333336, "fusion_lat": 0.0, "is_reserved": 0, "rental_uris": {"ios": "https://dc.lft.to/lastmile_qr_scan", "android": "https://dc.lft.to/lastmile_qr_scan"}, "fusion_lon": 0.0, "type": "electric_scooter", "bike_id": "91f874cd4db7b6923f0be2bc44c704a6", "name": "91f874cd4db7b6923f0be2bc44c704a6"}, {"lon": -77.03856716666667, "is_disabled": 0, "lat": 38.90282666666667, "fusion_lat": 0.0, "is_reserved": 0, "rental_uris": {"ios": "https://dc.lft.to/lastmile_qr_scan", "android": "https://dc.lft.to/lastmile_qr_scan"}, "fusion_lon": 0.0, "type": "electric_scooter", "bike_id": "95c170656944276b4d51df5021bc789b", "name": "95c170656944276b4d51df5021bc789b"}, {"lon": -77.03659283333333, "is_disabled": 0, "lat": 38.94194316666667, "fusion_lat": 0.0, "is_reserved": 0, "rental_uris": {"ios": "https://dc.lft.to/lastmile_qr_scan", "android": "https://dc.lft.to/lastmile_qr_scan"}, "fusion_lon": 0.0, "type": "electric_scooter", "bike_id": "90855089ba771b8061190341e9edf25b", "name": "90855089ba771b8061190341e9edf25b"}, {"lon": -77.06952333333334, "is_disabled": 0, "lat": 38.99529416666667, "fusion_lat": 0.0, "is_reserved": 0, "rental_uris": {"ios": "https://dc.lft.to/lastmile_qr_scan", "android": "https://dc.lft.to/lastmile_qr_scan"}, "fusion_lon": 0.0, "type": "electric_bike", "bike_id": "2dc0b862d5a2a9bafa1e507562bacfab", "name": "2dc0b862d5a2a9bafa1e507562bacfab"}, {"lon": -77.00711466666667, "is_disabled": 0, "lat": 38.884938166666664, "fusion_lat": 0.0, "is_reserved": 0, "rental_uris": {"ios": "https://dc.lft.to/lastmile_qr_scan", "android": "https://dc.lft.to/lastmile_qr_scan"}, "fusion_lon": 0.0, "type": "electric_scooter", "bike_id": "d5c8b2809ba0d211d621cb7ee6932e41", "name": "d5c8b2809ba0d211d621cb7ee6932e41"}, {"lon": -77.0006345, "is_disabled": 0, "lat": 38.83893416666667, "fusion_lat": 0.0, "is_reserved": 0, "rental_uris": {"ios": "https://dc.lft.to/lastmile_qr_scan", "android": "https://dc.lft.to/lastmile_qr_scan"}, "fusion_lon": 0.0, "type": "electric_scooter", "bike_id": "d5fc022372496d648c83545a08e555af", "name": "d5fc022372496d648c83545a08e555af"}, {"lon": -76.93767933333334, "is_disabled": 0, "lat": 38.902469333333336, "fusion_lat": 0.0, "is_reserved": 0, "rental_uris": {"ios": "https://dc.lft.to/lastmile_qr_scan", "android": "https://dc.lft.to/lastmile_qr_scan"}, "fusion_lon": 0.0, "type": "electric_scooter", "bike_id": "8f29f57123647e82ab3f6fa5bc74de6b", "name": "8f29f57123647e82ab3f6fa5bc74de6b"}, {"lon": -77.03338916666667, "is_disabled": 0, "lat": 38.898344, "fusion_lat": 0.0, "is_reserved": 0, "rental_uris": {"ios": "https://dc.lft.to/lastmile_qr_scan", "android": "https://dc.lft.to/lastmile_qr_scan"}, "fusion_lon": 0.0, "type": "electric_scooter", "bike_id": "98d0415b084752231a4aabb7ad999c11", "name": "98d0415b084752231a4aabb7ad999c11"}, {"lon": -77.03264066666667, "is_disabled": 0, "lat": 38.935739, "fusion_lat": 0.0, "is_reserved": 0, "rental_uris": {"ios": "https://dc.lft.to/lastmile_qr_scan", "android": "https://dc.lft.to/lastmile_qr_scan"}, "fusion_lon": 0.0, "type": "electric_scooter", "bike_id": "82811a5c830034b465ac820d02380efc", "name": "82811a5c830034b465ac820d02380efc"}, {"lon": -76.9870085, "is_disabled": 0, "lat": 38.900165666666666, "fusion_lat": 0.0, "is_reserved": 0, "rental_uris": {"ios": "https://dc.lft.to/lastmile_qr_scan", "android": "https://dc.lft.to/lastmile_qr_scan"}, "fusion_lon": 0.0, "type": "electric_scooter", "bike_id": "1b33df1ac46438bd252d21c43c1554fe", "name": "1b33df1ac46438bd252d21c43c1554fe"}, {"lon": -77.0382365, "is_disabled": 0, "lat": 38.90673316666667, "fusion_lat": 0.0, "is_reserved": 0, "rental_uris": {"ios": "https://dc.lft.to/lastmile_qr_scan", "android": "https://dc.lft.to/lastmile_qr_scan"}, "fusion_lon": 0.0, "type": "electric_scooter", "bike_id": "08767fcc22023d68036c518f046f4c90", "name": "08767fcc22023d68036c518f046f4c90"}, {"lon": -77.02209916666666, "is_disabled": 0, "lat": 38.915464166666666, "fusion_lat": 0.0, "is_reserved": 0, "rental_uris": {"ios": "https://dc.lft.to/lastmile_qr_scan", "android": "https://dc.lft.to/lastmile_qr_scan"}, "fusion_lon": 0.0, "type": "electric_scooter", "bike_id": "2099938a4631bedad92d715715f76511", "name": "2099938a4631bedad92d715715f76511"}, {"lon": -77.01782883333334, "is_disabled": 0, "lat": 38.87709133333333, "fusion_lat": 0.0, "is_reserved": 0, "rental_uris": {"ios": "https://dc.lft.to/lastmile_qr_scan", "android": "https://dc.lft.to/lastmile_qr_scan"}, "fusion_lon": 0.0, "type": "electric_scooter", "bike_id": "4162176fa88500b7074adec394d03463", "name": "4162176fa88500b7074adec394d03463"}, {"lon": -77.02540583333334, "is_disabled": 0, "lat": 38.946266, "fusion_lat": 0.0, "is_reserved": 0, "rental_uris": {"ios": "https://dc.lft.to/lastmile_qr_scan", "android": "https://dc.lft.to/lastmile_qr_scan"}, "fusion_lon": 0.0, "type": "electric_scooter", "bike_id": "1ec46a281ac44be5e185e52e44630d22", "name": "1ec46a281ac44be5e185e52e44630d22"}, {"lon": -77.03352083333333, "is_disabled": 0, "lat": 38.90288316666667, "fusion_lat": 0.0, "is_reserved": 0, "rental_uris": {"ios": "https://dc.lft.to/lastmile_qr_scan", "android": "https://dc.lft.to/lastmile_qr_scan"}, "fusion_lon": 0.0, "type": "electric_scooter", "bike_id": "9153402bd7313bbb1ed3dc7899e809c6", "name": "9153402bd7313bbb1ed3dc7899e809c6"}, {"lon": -77.07928066666666, "is_disabled": 0, "lat": 38.92963533333333, "fusion_lat": 0.0, "is_reserved": 0, "rental_uris": {"ios": "https://dc.lft.to/lastmile_qr_scan", "android": "https://dc.lft.to/lastmile_qr_scan"}, "fusion_lon": 0.0, "type": "electric_scooter", "bike_id": "107311d325d5d504f10854eb1e318c97", "name": "107311d325d5d504f10854eb1e318c97"}, {"lon": -77.02205116666667, "is_disabled": 0, "lat": 38.8961915, "fusion_lat": 0.0, "is_reserved": 0, "rental_uris": {"ios": "https://dc.lft.to/lastmile_qr_scan", "android": "https://dc.lft.to/lastmile_qr_scan"}, "fusion_lon": 0.0, "type": "electric_scooter", "bike_id": "97cf64353ea5fc5819b3d83fdb59752f", "name": "97cf64353ea5fc5819b3d83fdb59752f"}, {"lon": -76.99161616666666, "is_disabled": 0, "lat": 38.859706833333334, "fusion_lat": 0.0, "is_reserved": 0, "rental_uris": {"ios": "https://dc.lft.to/lastmile_qr_scan", "android": "https://dc.lft.to/lastmile_qr_scan"}, "fusion_lon": 0.0, "type": "electric_scooter", "bike_id": "2eac9f6888fc6d609983e96f014672ec", "name": "2eac9f6888fc6d609983e96f014672ec"}, {"lon": -77.02487633333334, "is_disabled": 0, "lat": 38.898005833333336, "fusion_lat": 0.0, "is_reserved": 0, "rental_uris": {"ios": "https://dc.lft.to/lastmile_qr_scan", "android": "https://dc.lft.to/lastmile_qr_scan"}, "fusion_lon": 0.0, "type": "electric_scooter", "bike_id": "d478563ecd9c81a863ab1386bbca9185", "name": "d478563ecd9c81a863ab1386bbca9185"}, {"lon": -77.03213183333334, "is_disabled": 0, "lat": 38.91203766666667, "fusion_lat": 0.0, "is_reserved": 0, "rental_uris": {"ios": "https://dc.lft.to/lastmile_qr_scan", "android": "https://dc.lft.to/lastmile_qr_scan"}, "fusion_lon": 0.0, "type": "electric_scooter", "bike_id": "97ed8449472f1cb298525233fcb918ed", "name": "97ed8449472f1cb298525233fcb918ed"}, {"lon": -77.01971833333333, "is_disabled": 0, "lat": 38.956491, "fusion_lat": 0.0, "is_reserved": 0, "rental_uris": {"ios": "https://dc.lft.to/lastmile_qr_scan", "android": "https://dc.lft.to/lastmile_qr_scan"}, "fusion_lon": 0.0, "type": "electric_scooter", "bike_id": "bbaa963c92f2011ea3ff8666ffc79a81", "name": "bbaa963c92f2011ea3ff8666ffc79a81"}, {"lon": -77.02487733333334, "is_disabled": 0, "lat": 38.94185683333333, "fusion_lat": 0.0, "is_reserved": 0, "rental_uris": {"ios": "https://dc.lft.to/lastmile_qr_scan", "android": "https://dc.lft.to/lastmile_qr_scan"}, "fusion_lon": 0.0, "type": "electric_scooter", "bike_id": "c388c95a1da7e578b5d1b1ac7c73a34e", "name": "c388c95a1da7e578b5d1b1ac7c73a34e"}, {"lon": -77.02175516666667, "is_disabled": 0, "lat": 38.899713, "fusion_lat": 0.0, "is_reserved": 0, "rental_uris": {"ios": "https://dc.lft.to/lastmile_qr_scan", "android": "https://dc.lft.to/lastmile_qr_scan"}, "fusion_lon": 0.0, "type": "electric_scooter", "bike_id": "493eb2fb885b7a99ecaad345dc3b3fe5", "name": "493eb2fb885b7a99ecaad345dc3b3fe5"}, {"lon": -77.09719566666666, "is_disabled": 0, "lat": 38.951072333333336, "fusion_lat": 0.0, "is_reserved": 0, "rental_uris": {"ios": "https://dc.lft.to/lastmile_qr_scan", "android": "https://dc.lft.to/lastmile_qr_scan"}, "fusion_lon": 0.0, "type": "electric_scooter", "bike_id": "5b7e0a580530516c2eea526f73c886f6", "name": "5b7e0a580530516c2eea526f73c886f6"}, {"lon": -76.967097, "is_disabled": 0, "lat": 38.86040916666666, "fusion_lat": 0.0, "is_reserved": 0, "rental_uris": {"ios": "https://dc.lft.to/lastmile_qr_scan", "android": "https://dc.lft.to/lastmile_qr_scan"}, "fusion_lon": 0.0, "type": "electric_scooter", "bike_id": "85d9a34f41348a79629bca650f818224", "name": "85d9a34f41348a79629bca650f818224"}, {"lon": -77.03136466666666, "is_disabled": 0, "lat": 38.916079333333336, "fusion_lat": 0.0, "is_reserved": 0, "rental_uris": {"ios": "https://dc.lft.to/lastmile_qr_scan", "android": "https://dc.lft.to/lastmile_qr_scan"}, "fusion_lon": 0.0, "type": "electric_scooter", "bike_id": "f37229281367f588891f04db66f54e20", "name": "f37229281367f588891f04db66f54e20"}, {"lon": -77.05026583333333, "is_disabled": 0, "lat": 38.9054105, "fusion_lat": 0.0, "is_reserved": 0, "rental_uris": {"ios": "https://dc.lft.to/lastmile_qr_scan", "android": "https://dc.lft.to/lastmile_qr_scan"}, "fusion_lon": 0.0, "type": "electric_scooter", "bike_id": "c812b38d22555490bc5c3007ef32642b", "name": "c812b38d22555490bc5c3007ef32642b"}, {"lon": -77.02621866666667, "is_disabled": 0, "lat": 38.944101, "fusion_lat": 0.0, "is_reserved": 0, "rental_uris": {"ios": "https://dc.lft.to/lastmile_qr_scan", "android": "https://dc.lft.to/lastmile_qr_scan"}, "fusion_lon": 0.0, "type": "electric_scooter", "bike_id": "6bacf8602854badb4849d78f9fe22bb4", "name": "6bacf8602854badb4849d78f9fe22bb4"}, {"lon": -76.98972366666666, "is_disabled": 0, "lat": 38.86539883333333, "fusion_lat": 0.0, "is_reserved": 0, "rental_uris": {"ios": "https://dc.lft.to/lastmile_qr_scan", "android": "https://dc.lft.to/lastmile_qr_scan"}, "fusion_lon": 0.0, "type": "electric_scooter", "bike_id": "a2e281c42b61a20679885089069a373d", "name": "a2e281c42b61a20679885089069a373d"}, {"lon": -77.03035066666666, "is_disabled": 0, "lat": 38.9027665, "fusion_lat": 0.0, "is_reserved": 0, "rental_uris": {"ios": "https://dc.lft.to/lastmile_qr_scan", "android": "https://dc.lft.to/lastmile_qr_scan"}, "fusion_lon": 0.0, "type": "electric_scooter", "bike_id": "8b4a1cd47fef54846295c195f7bc144b", "name": "8b4a1cd47fef54846295c195f7bc144b"}, {"lon": -76.94703316666667, "is_disabled": 0, "lat": 38.893635, "fusion_lat": 0.0, "is_reserved": 0, "rental_uris": {"ios": "https://dc.lft.to/lastmile_qr_scan", "android": "https://dc.lft.to/lastmile_qr_scan"}, "fusion_lon": 0.0, "type": "electric_scooter", "bike_id": "22a7b1f6456eaa3ebbbbcc0304bbaa8c", "name": "22a7b1f6456eaa3ebbbbcc0304bbaa8c"}, {"lon": -77.23412433333333, "is_disabled": 0, "lat": 38.87579433333333, "fusion_lat": 0.0, "is_reserved": 0, "rental_uris": {"ios": "https://dc.lft.to/lastmile_qr_scan", "android": "https://dc.lft.to/lastmile_qr_scan"}, "fusion_lon": 0.0, "type": "electric_bike", "bike_id": "29a0080d77943df5bf00c69d6fad539e", "name": "29a0080d77943df5bf00c69d6fad539e"}, {"lon": -76.990306, "is_disabled": 0, "lat": 38.898548166666664, "fusion_lat": 0.0, "is_reserved": 0, "rental_uris": {"ios": "https://dc.lft.to/lastmile_qr_scan", "android": "https://dc.lft.to/lastmile_qr_scan"}, "fusion_lon": 0.0, "type": "electric_scooter", "bike_id": "17e414c87a5ae841ee08878fae52f2e9", "name": "17e414c87a5ae841ee08878fae52f2e9"}, {"lon": -77.0486935, "is_disabled": 0, "lat": 38.905781166666664, "fusion_lat": 0.0, "is_reserved": 0, "rental_uris": {"ios": "https://dc.lft.to/lastmile_qr_scan", "android": "https://dc.lft.to/lastmile_qr_scan"}, "fusion_lon": 0.0, "type": "electric_scooter", "bike_id": "85bef3bf343473898d7d3b8438390d4b", "name": "85bef3bf343473898d7d3b8438390d4b"}, {"lon": -77.0261245, "is_disabled": 0, "lat": 38.934882333333334, "fusion_lat": 0.0, "is_reserved": 0, "rental_uris": {"ios": "https://dc.lft.to/lastmile_qr_scan", "android": "https://dc.lft.to/lastmile_qr_scan"}, "fusion_lon": 0.0, "type": "electric_scooter", "bike_id": "dacc92ab12e9b276e6ef1b156ed6128a", "name": "dacc92ab12e9b276e6ef1b156ed6128a"}, {"lon": -77.05258116666667, "is_disabled": 0, "lat": 38.92575216666667, "fusion_lat": 0.0, "is_reserved": 0, "rental_uris": {"ios": "https://dc.lft.to/lastmile_qr_scan", "android": "https://dc.lft.to/lastmile_qr_scan"}, "fusion_lon": 0.0, "type": "electric_scooter", "bike_id": "b4bc22af7b34d512f5b392b48c7d7c14", "name": "b4bc22af7b34d512f5b392b48c7d7c14"}, {"lon": -77.03559233333333, "is_disabled": 0, "lat": 38.90485916666667, "fusion_lat": 0.0, "is_reserved": 0, "rental_uris": {"ios": "https://dc.lft.to/lastmile_qr_scan", "android": "https://dc.lft.to/lastmile_qr_scan"}, "fusion_lon": 0.0, "type": "electric_scooter", "bike_id": "c02316ca263aef624038f15349ab2dfc", "name": "c02316ca263aef624038f15349ab2dfc"}, {"lon": -77.041312, "is_disabled": 0, "lat": 38.9237495, "fusion_lat": 0.0, "is_reserved": 0, "rental_uris": {"ios": "https://dc.lft.to/lastmile_qr_scan", "android": "https://dc.lft.to/lastmile_qr_scan"}, "fusion_lon": 0.0, "type": "electric_scooter", "bike_id": "4cc224c844165b69099b83264fa8f795", "name": "4cc224c844165b69099b83264fa8f795"}, {"lon": -77.02464633333334, "is_disabled": 0, "lat": 38.900029333333336, "fusion_lat": 0.0, "is_reserved": 0, "rental_uris": {"ios": "https://dc.lft.to/lastmile_qr_scan", "android": "https://dc.lft.to/lastmile_qr_scan"}, "fusion_lon": 0.0, "type": "electric_scooter", "bike_id": "39429c6111e05da9e06b87f7e37d18a2", "name": "39429c6111e05da9e06b87f7e37d18a2"}, {"lon": -77.0506325, "is_disabled": 0, "lat": 38.905285, "fusion_lat": 0.0, "is_reserved": 0, "rental_uris": {"ios": "https://dc.lft.to/lastmile_qr_scan", "android": "https://dc.lft.to/lastmile_qr_scan"}, "fusion_lon": 0.0, "type": "electric_scooter", "bike_id": "f03559710304981c6007680e3248c64d", "name": "f03559710304981c6007680e3248c64d"}, {"lon": -77.05237583333333, "is_disabled": 0, "lat": 38.9250665, "fusion_lat": 0.0, "is_reserved": 0, "rental_uris": {"ios": "https://dc.lft.to/lastmile_qr_scan", "android": "https://dc.lft.to/lastmile_qr_scan"}, "fusion_lon": 0.0, "type": "electric_scooter", "bike_id": "bf5bf47cc19b31717565f91d6358354c", "name": "bf5bf47cc19b31717565f91d6358354c"}, {"lon": -76.98276816666667, "is_disabled": 0, "lat": 38.885271833333334, "fusion_lat": 0.0, "is_reserved": 0, "rental_uris": {"ios": "https://dc.lft.to/lastmile_qr_scan", "android": "https://dc.lft.to/lastmile_qr_scan"}, "fusion_lon": 0.0, "type": "electric_scooter", "bike_id": "252d5e05e2203a98eec3407ba3e41382", "name": "252d5e05e2203a98eec3407ba3e41382"}, {"lon": -77.03376866666666, "is_disabled": 0, "lat": 38.90168766666667, "fusion_lat": 0.0, "is_reserved": 0, "rental_uris": {"ios": "https://dc.lft.to/lastmile_qr_scan", "android": "https://dc.lft.to/lastmile_qr_scan"}, "fusion_lon": 0.0, "type": "electric_scooter", "bike_id": "81d1a6df71e1eb07db2d4fc163b38aa8", "name": "81d1a6df71e1eb07db2d4fc163b38aa8"}, {"lon": -77.0386205, "is_disabled": 0, "lat": 38.907205166666664, "fusion_lat": 0.0, "is_reserved": 0, "rental_uris": {"ios": "https://dc.lft.to/lastmile_qr_scan", "android": "https://dc.lft.to/lastmile_qr_scan"}, "fusion_lon": 0.0, "type": "electric_scooter", "bike_id": "c8b0eac534f078701c39ff9a8f864232", "name": "c8b0eac534f078701c39ff9a8f864232"}, {"lon": -76.98879033333333, "is_disabled": 0, "lat": 38.8666025, "fusion_lat": 0.0, "is_reserved": 0, "rental_uris": {"ios": "https://dc.lft.to/lastmile_qr_scan", "android": "https://dc.lft.to/lastmile_qr_scan"}, "fusion_lon": 0.0, "type": "electric_scooter", "bike_id": "6fda2b1156b07ddea4a53459f09d2c2e", "name": "6fda2b1156b07ddea4a53459f09d2c2e"}, {"lon": -77.04287583333333, "is_disabled": 0, "lat": 38.91401483333333, "fusion_lat": 0.0, "is_reserved": 0, "rental_uris": {"ios": "https://dc.lft.to/lastmile_qr_scan", "android": "https://dc.lft.to/lastmile_qr_scan"}, "fusion_lon": 0.0, "type": "electric_scooter", "bike_id": "3db71d5d9c59c8ee3f02f36a249afbf6", "name": "3db71d5d9c59c8ee3f02f36a249afbf6"}, {"lon": -77.04111716666667, "is_disabled": 0, "lat": 38.91034766666667, "fusion_lat": 0.0, "is_reserved": 0, "rental_uris": {"ios": "https://dc.lft.to/lastmile_qr_scan", "android": "https://dc.lft.to/lastmile_qr_scan"}, "fusion_lon": 0.0, "type": "electric_scooter", "bike_id": "521d527dd491372ab5c2ff030af00171", "name": "521d527dd491372ab5c2ff030af00171"}, {"lon": -77.03944116666666, "is_disabled": 0, "lat": 38.898584, "fusion_lat": 0.0, "is_reserved": 0, "rental_uris": {"ios": "https://dc.lft.to/lastmile_qr_scan", "android": "https://dc.lft.to/lastmile_qr_scan"}, "fusion_lon": 0.0, "type": "electric_scooter", "bike_id": "97d4d6a073ca64b45179c78bbcfece6a", "name": "97d4d6a073ca64b45179c78bbcfece6a"}, {"lon": -76.98185333333333, "is_disabled": 0, "lat": 38.869637833333336, "fusion_lat": 0.0, "is_reserved": 0, "rental_uris": {"ios": "https://dc.lft.to/lastmile_qr_scan", "android": "https://dc.lft.to/lastmile_qr_scan"}, "fusion_lon": 0.0, "type": "electric_scooter", "bike_id": "170d50c4730644c0436cb2d32c515689", "name": "170d50c4730644c0436cb2d32c515689"}, {"lon": -77.03320016666666, "is_disabled": 0, "lat": 38.8982575, "fusion_lat": 0.0, "is_reserved": 0, "rental_uris": {"ios": "https://dc.lft.to/lastmile_qr_scan", "android": "https://dc.lft.to/lastmile_qr_scan"}, "fusion_lon": 0.0, "type": "electric_scooter", "bike_id": "b84f096d97530dacb3a28d00987e3417", "name": "b84f096d97530dacb3a28d00987e3417"}, {"lon": -77.037921, "is_disabled": 0, "lat": 38.93022233333333, "fusion_lat": 0.0, "is_reserved": 0, "rental_uris": {"ios": "https://dc.lft.to/lastmile_qr_scan", "android": "https://dc.lft.to/lastmile_qr_scan"}, "fusion_lon": 0.0, "type": "electric_scooter", "bike_id": "3129e3b39ef6d9ab0b83eecc3d184767", "name": "3129e3b39ef6d9ab0b83eecc3d184767"}, {"lon": -76.97842366666667, "is_disabled": 0, "lat": 38.8984555, "fusion_lat": 0.0, "is_reserved": 0, "rental_uris": {"ios": "https://dc.lft.to/lastmile_qr_scan", "android": "https://dc.lft.to/lastmile_qr_scan"}, "fusion_lon": 0.0, "type": "electric_scooter", "bike_id": "5e092f16bf66e8eb3834dcf8c938913f", "name": "5e092f16bf66e8eb3834dcf8c938913f"}, {"lon": -77.22891566666667, "is_disabled": 0, "lat": 38.909607666666666, "fusion_lat": 0.0, "is_reserved": 0, "rental_uris": {"ios": "https://dc.lft.to/lastmile_qr_scan", "android": "https://dc.lft.to/lastmile_qr_scan"}, "fusion_lon": 0.0, "type": "electric_bike", "bike_id": "b4b516e0121e6a3233ab06ef13196a01", "name": "b4b516e0121e6a3233ab06ef13196a01"}, {"lon": -77.011478, "is_disabled": 0, "lat": 38.8963955, "fusion_lat": 0.0, "is_reserved": 0, "rental_uris": {"ios": "https://dc.lft.to/lastmile_qr_scan", "android": "https://dc.lft.to/lastmile_qr_scan"}, "fusion_lon": 0.0, "type": "electric_scooter", "bike_id": "0c58eca1695d33e3f632d247989bab88", "name": "0c58eca1695d33e3f632d247989bab88"}, {"lon": -77.04824916666666, "is_disabled": 0, "lat": 38.90962833333333, "fusion_lat": 0.0, "is_reserved": 0, "rental_uris": {"ios": "https://dc.lft.to/lastmile_qr_scan", "android": "https://dc.lft.to/lastmile_qr_scan"}, "fusion_lon": 0.0, "type": "electric_scooter", "bike_id": "2d006d97a0dc2a6fc090dcc900c098e1", "name": "2d006d97a0dc2a6fc090dcc900c098e1"}, {"lon": -77.0394315, "is_disabled": 0, "lat": 38.92626816666667, "fusion_lat": 0.0, "is_reserved": 0, "rental_uris": {"ios": "https://dc.lft.to/lastmile_qr_scan", "android": "https://dc.lft.to/lastmile_qr_scan"}, "fusion_lon": 0.0, "type": "electric_scooter", "bike_id": "61a520fc33eba9f0295478ab16b1d3a3", "name": "61a520fc33eba9f0295478ab16b1d3a3"}, {"lon": -77.05055566666667, "is_disabled": 0, "lat": 38.90522266666667, "fusion_lat": 0.0, "is_reserved": 0, "rental_uris": {"ios": "https://dc.lft.to/lastmile_qr_scan", "android": "https://dc.lft.to/lastmile_qr_scan"}, "fusion_lon": 0.0, "type": "electric_scooter", "bike_id": "aa8bcf5c4b86b6368fb8bcb5b7fa9324", "name": "aa8bcf5c4b86b6368fb8bcb5b7fa9324"}, {"lon": -77.017668, "is_disabled": 0, "lat": 38.90262766666667, "fusion_lat": 0.0, "is_reserved": 0, "rental_uris": {"ios": "https://dc.lft.to/lastmile_qr_scan", "android": "https://dc.lft.to/lastmile_qr_scan"}, "fusion_lon": 0.0, "type": "electric_scooter", "bike_id": "f661a537e2bc31bf173e2567bb087f1c", "name": "f661a537e2bc31bf173e2567bb087f1c"}, {"lon": -77.00714216666667, "is_disabled": 0, "lat": 38.88494816666667, "fusion_lat": 0.0, "is_reserved": 0, "rental_uris": {"ios": "https://dc.lft.to/lastmile_qr_scan", "android": "https://dc.lft.to/lastmile_qr_scan"}, "fusion_lon": 0.0, "type": "electric_scooter", "bike_id": "fba4a1be9ec9a3b10c13f9a3c791941a", "name": "fba4a1be9ec9a3b10c13f9a3c791941a"}, {"lon": -77.0185955, "is_disabled": 0, "lat": 38.9097275, "fusion_lat": 0.0, "is_reserved": 0, "rental_uris": {"ios": "https://dc.lft.to/lastmile_qr_scan", "android": "https://dc.lft.to/lastmile_qr_scan"}, "fusion_lon": 0.0, "type": "electric_scooter", "bike_id": "9028a2dae65215e0bc118bfecf73f292", "name": "9028a2dae65215e0bc118bfecf73f292"}, {"lon": -76.97109783333333, "is_disabled": 0, "lat": 38.92435583333334, "fusion_lat": 0.0, "is_reserved": 0, "rental_uris": {"ios": "https://dc.lft.to/lastmile_qr_scan", "android": "https://dc.lft.to/lastmile_qr_scan"}, "fusion_lon": 0.0, "type": "electric_bike", "bike_id": "ed4dad9d7f1e6b327bef5d5192e2520a", "name": "ed4dad9d7f1e6b327bef5d5192e2520a"}, {"lon": -77.03158633333334, "is_disabled": 0, "lat": 38.964393666666666, "fusion_lat": 0.0, "is_reserved": 0, "rental_uris": {"ios": "https://dc.lft.to/lastmile_qr_scan", "android": "https://dc.lft.to/lastmile_qr_scan"}, "fusion_lon": 0.0, "type": "electric_bike", "bike_id": "1e57ae7bd4bcfe1ee731138385161083", "name": "1e57ae7bd4bcfe1ee731138385161083"}, {"lon": -77.0449405, "is_disabled": 0, "lat": 38.91183983333333, "fusion_lat": 0.0, "is_reserved": 0, "rental_uris": {"ios": "https://dc.lft.to/lastmile_qr_scan", "android": "https://dc.lft.to/lastmile_qr_scan"}, "fusion_lon": 0.0, "type": "electric_scooter", "bike_id": "de4790901dd484dd0a047f45fadc8860", "name": "de4790901dd484dd0a047f45fadc8860"}, {"lon": -76.946442, "is_disabled": 0, "lat": 38.89860566666667, "fusion_lat": 0.0, "is_reserved": 0, "rental_uris": {"ios": "https://dc.lft.to/lastmile_qr_scan", "android": "https://dc.lft.to/lastmile_qr_scan"}, "fusion_lon": 0.0, "type": "electric_scooter", "bike_id": "217ffa0a8b949a70790e09bb2dcc5028", "name": "217ffa0a8b949a70790e09bb2dcc5028"}, {"lon": -77.02403916666667, "is_disabled": 0, "lat": 38.917561666666664, "fusion_lat": 0.0, "is_reserved": 0, "rental_uris": {"ios": "https://dc.lft.to/lastmile_qr_scan", "android": "https://dc.lft.to/lastmile_qr_scan"}, "fusion_lon": 0.0, "type": "electric_scooter", "bike_id": "c49c474307524c1c52c04ee08eef5f94", "name": "c49c474307524c1c52c04ee08eef5f94"}, {"lon": -77.02242816666667, "is_disabled": 0, "lat": 38.934699, "fusion_lat": 0.0, "is_reserved": 0, "rental_uris": {"ios": "https://dc.lft.to/lastmile_qr_scan", "android": "https://dc.lft.to/lastmile_qr_scan"}, "fusion_lon": 0.0, "type": "electric_scooter", "bike_id": "057cf454d2e82c5271e7805ede100661", "name": "057cf454d2e82c5271e7805ede100661"}, {"lon": -77.04650716666667, "is_disabled": 0, "lat": 38.909724, "fusion_lat": 0.0, "is_reserved": 0, "rental_uris": {"ios": "https://dc.lft.to/lastmile_qr_scan", "android": "https://dc.lft.to/lastmile_qr_scan"}, "fusion_lon": 0.0, "type": "electric_scooter", "bike_id": "d4d824e906a872cf65619647b729ff7e", "name": "d4d824e906a872cf65619647b729ff7e"}, {"lon": -77.20144066666667, "is_disabled": 0, "lat": 38.9221535, "fusion_lat": 0.0, "is_reserved": 0, "rental_uris": {"ios": "https://dc.lft.to/lastmile_qr_scan", "android": "https://dc.lft.to/lastmile_qr_scan"}, "fusion_lon": 0.0, "type": "electric_bike", "bike_id": "d7f6ad8d5e4915260df80de72e2e30ba", "name": "d7f6ad8d5e4915260df80de72e2e30ba"}, {"lon": -77.0329255, "is_disabled": 0, "lat": 38.922565, "fusion_lat": 0.0, "is_reserved": 0, "rental_uris": {"ios": "https://dc.lft.to/lastmile_qr_scan", "android": "https://dc.lft.to/lastmile_qr_scan"}, "fusion_lon": 0.0, "type": "electric_scooter", "bike_id": "77a1e20bb6dd4c714c1e38c906a99443", "name": "77a1e20bb6dd4c714c1e38c906a99443"}, {"lon": -76.97097683333334, "is_disabled": 0, "lat": 38.87064216666667, "fusion_lat": 0.0, "is_reserved": 0, "rental_uris": {"ios": "https://dc.lft.to/lastmile_qr_scan", "android": "https://dc.lft.to/lastmile_qr_scan"}, "fusion_lon": 0.0, "type": "electric_scooter", "bike_id": "5ea8d1be50989caa70b6e28ecefc69cb", "name": "5ea8d1be50989caa70b6e28ecefc69cb"}, {"lon": -77.04675516666667, "is_disabled": 0, "lat": 38.893295333333334, "fusion_lat": 0.0, "is_reserved": 0, "rental_uris": {"ios": "https://dc.lft.to/lastmile_qr_scan", "android": "https://dc.lft.to/lastmile_qr_scan"}, "fusion_lon": 0.0, "type": "electric_scooter", "bike_id": "f65d8f48d9343c8300ed1743c36f2984", "name": "f65d8f48d9343c8300ed1743c36f2984"}, {"lon": -77.04202466666666, "is_disabled": 0, "lat": 38.9210575, "fusion_lat": 0.0, "is_reserved": 0, "rental_uris": {"ios": "https://dc.lft.to/lastmile_qr_scan", "android": "https://dc.lft.to/lastmile_qr_scan"}, "fusion_lon": 0.0, "type": "electric_scooter", "bike_id": "846148572b9f850ec79831f65c20607c", "name": "846148572b9f850ec79831f65c20607c"}, {"lon": -77.025902, "is_disabled": 0, "lat": 38.9421445, "fusion_lat": 0.0, "is_reserved": 0, "rental_uris": {"ios": "https://dc.lft.to/lastmile_qr_scan", "android": "https://dc.lft.to/lastmile_qr_scan"}, "fusion_lon": 0.0, "type": "electric_scooter", "bike_id": "914ddd426f3ae31ce3123ad460fb5e66", "name": "914ddd426f3ae31ce3123ad460fb5e66"}, {"lon": -77.01867433333334, "is_disabled": 0, "lat": 38.92134166666666, "fusion_lat": 0.0, "is_reserved": 0, "rental_uris": {"ios": "https://dc.lft.to/lastmile_qr_scan", "android": "https://dc.lft.to/lastmile_qr_scan"}, "fusion_lon": 0.0, "type": "electric_scooter", "bike_id": "7c02c38c6a467a49778bed00c40f0739", "name": "7c02c38c6a467a49778bed00c40f0739"}, {"lon": -77.03873, "is_disabled": 0, "lat": 38.90278, "fusion_lat": 0.0, "is_reserved": 0, "rental_uris": {"ios": "https://dc.lft.to/lastmile_qr_scan", "android": "https://dc.lft.to/lastmile_qr_scan"}, "fusion_lon": 0.0, "type": "electric_scooter", "bike_id": "8fbe2d26f946e50c9fb3a6772b594b2a", "name": "8fbe2d26f946e50c9fb3a6772b594b2a"}, {"lon": -77.03963116666667, "is_disabled": 0, "lat": 38.89626233333333, "fusion_lat": 0.0, "is_reserved": 0, "rental_uris": {"ios": "https://dc.lft.to/lastmile_qr_scan", "android": "https://dc.lft.to/lastmile_qr_scan"}, "fusion_lon": 0.0, "type": "electric_scooter", "bike_id": "b1299981bfd055a528d6ccb779c88458", "name": "b1299981bfd055a528d6ccb779c88458"}, {"lon": -77.05260366666667, "is_disabled": 0, "lat": 38.92786683333333, "fusion_lat": 0.0, "is_reserved": 0, "rental_uris": {"ios": "https://dc.lft.to/lastmile_qr_scan", "android": "https://dc.lft.to/lastmile_qr_scan"}, "fusion_lon": 0.0, "type": "electric_scooter", "bike_id": "90f2a495ce9f88be3736710bcc644d57", "name": "90f2a495ce9f88be3736710bcc644d57"}, {"lon": -76.95286016666667, "is_disabled": 0, "lat": 38.862437, "fusion_lat": 0.0, "is_reserved": 0, "rental_uris": {"ios": "https://dc.lft.to/lastmile_qr_scan", "android": "https://dc.lft.to/lastmile_qr_scan"}, "fusion_lon": 0.0, "type": "electric_bike", "bike_id": "31e74baad43ad1b4289f53cbde02d066", "name": "31e74baad43ad1b4289f53cbde02d066"}, {"lon": -77.0252075, "is_disabled": 0, "lat": 38.91984883333333, "fusion_lat": 0.0, "is_reserved": 0, "rental_uris": {"ios": "https://dc.lft.to/lastmile_qr_scan", "android": "https://dc.lft.to/lastmile_qr_scan"}, "fusion_lon": 0.0, "type": "electric_scooter", "bike_id": "783def9136005a2d1c23a5b14e24b013", "name": "783def9136005a2d1c23a5b14e24b013"}, {"lon": -77.04322233333333, "is_disabled": 0, "lat": 38.903668333333336, "fusion_lat": 0.0, "is_reserved": 0, "rental_uris": {"ios": "https://dc.lft.to/lastmile_qr_scan", "android": "https://dc.lft.to/lastmile_qr_scan"}, "fusion_lon": 0.0, "type": "electric_scooter", "bike_id": "a78c861127934c6b86aa2b26ee76ac05", "name": "a78c861127934c6b86aa2b26ee76ac05"}, {"lon": -76.992788, "is_disabled": 0, "lat": 38.8625275, "fusion_lat": 0.0, "is_reserved": 0, "rental_uris": {"ios": "https://dc.lft.to/lastmile_qr_scan", "android": "https://dc.lft.to/lastmile_qr_scan"}, "fusion_lon": 0.0, "type": "electric_scooter", "bike_id": "71a489a2b3db735024a0da533836555d", "name": "71a489a2b3db735024a0da533836555d"}, {"lon": -77.00345316666667, "is_disabled": 0, "lat": 38.8844015, "fusion_lat": 0.0, "is_reserved": 0, "rental_uris": {"ios": "https://dc.lft.to/lastmile_qr_scan", "android": "https://dc.lft.to/lastmile_qr_scan"}, "fusion_lon": 0.0, "type": "electric_scooter", "bike_id": "d924f406cb16f6348c9f2c70f8feb633", "name": "d924f406cb16f6348c9f2c70f8feb633"}, {"lon": -77.022045, "is_disabled": 0, "lat": 38.914895, "fusion_lat": 0.0, "is_reserved": 0, "rental_uris": {"ios": "https://dc.lft.to/lastmile_qr_scan", "android": "https://dc.lft.to/lastmile_qr_scan"}, "fusion_lon": 0.0, "type": "electric_scooter", "bike_id": "2a9a35f12b16f3b88c1dda2539559cd5", "name": "2a9a35f12b16f3b88c1dda2539559cd5"}, {"lon": -77.04040683333334, "is_disabled": 0, "lat": 38.90870566666667, "fusion_lat": 0.0, "is_reserved": 0, "rental_uris": {"ios": "https://dc.lft.to/lastmile_qr_scan", "android": "https://dc.lft.to/lastmile_qr_scan"}, "fusion_lon": 0.0, "type": "electric_scooter", "bike_id": "ea0ea2d8cce35708ccb02b1e78706933", "name": "ea0ea2d8cce35708ccb02b1e78706933"}, {"lon": -77.044827, "is_disabled": 0, "lat": 38.91281016666667, "fusion_lat": 0.0, "is_reserved": 0, "rental_uris": {"ios": "https://dc.lft.to/lastmile_qr_scan", "android": "https://dc.lft.to/lastmile_qr_scan"}, "fusion_lon": 0.0, "type": "electric_scooter", "bike_id": "b7ebf339193a6f82533bf842e339a030", "name": "b7ebf339193a6f82533bf842e339a030"}, {"lon": -76.98701283333334, "is_disabled": 0, "lat": 38.86336216666667, "fusion_lat": 0.0, "is_reserved": 0, "rental_uris": {"ios": "https://dc.lft.to/lastmile_qr_scan", "android": "https://dc.lft.to/lastmile_qr_scan"}, "fusion_lon": 0.0, "type": "electric_scooter", "bike_id": "4c1748b5f926b8291e499ac09369299b", "name": "4c1748b5f926b8291e499ac09369299b"}, {"lon": -77.03477, "is_disabled": 0, "lat": 38.90392166666667, "fusion_lat": 0.0, "is_reserved": 0, "rental_uris": {"ios": "https://dc.lft.to/lastmile_qr_scan", "android": "https://dc.lft.to/lastmile_qr_scan"}, "fusion_lon": 0.0, "type": "electric_scooter", "bike_id": "957c4bf76ef142fa3c693665ce0a65b7", "name": "957c4bf76ef142fa3c693665ce0a65b7"}, {"lon": -77.060676, "is_disabled": 0, "lat": 38.943071, "fusion_lat": 0.0, "is_reserved": 0, "rental_uris": {"ios": "https://dc.lft.to/lastmile_qr_scan", "android": "https://dc.lft.to/lastmile_qr_scan"}, "fusion_lon": 0.0, "type": "electric_scooter", "bike_id": "a30f02a7e0a6674f3992373d71b2df61", "name": "a30f02a7e0a6674f3992373d71b2df61"}, {"lon": -77.045346, "is_disabled": 0, "lat": 38.89967033333333, "fusion_lat": 0.0, "is_reserved": 0, "rental_uris": {"ios": "https://dc.lft.to/lastmile_qr_scan", "android": "https://dc.lft.to/lastmile_qr_scan"}, "fusion_lon": 0.0, "type": "electric_scooter", "bike_id": "f9eb3c1931758380019f600b578b7196", "name": "f9eb3c1931758380019f600b578b7196"}, {"lon": -76.99480983333333, "is_disabled": 0, "lat": 38.8621795, "fusion_lat": 0.0, "is_reserved": 0, "rental_uris": {"ios": "https://dc.lft.to/lastmile_qr_scan", "android": "https://dc.lft.to/lastmile_qr_scan"}, "fusion_lon": 0.0, "type": "electric_scooter", "bike_id": "7cb835bcb71abb7d26fd722512b168b8", "name": "7cb835bcb71abb7d26fd722512b168b8"}, {"lon": -76.9901745, "is_disabled": 0, "lat": 38.865026, "fusion_lat": 0.0, "is_reserved": 0, "rental_uris": {"ios": "https://dc.lft.to/lastmile_qr_scan", "android": "https://dc.lft.to/lastmile_qr_scan"}, "fusion_lon": 0.0, "type": "electric_scooter", "bike_id": "ff6bba3816404be406bb36c483800604", "name": "ff6bba3816404be406bb36c483800604"}, {"lon": -77.02211516666667, "is_disabled": 0, "lat": 38.90984483333333, "fusion_lat": 0.0, "is_reserved": 0, "rental_uris": {"ios": "https://dc.lft.to/lastmile_qr_scan", "android": "https://dc.lft.to/lastmile_qr_scan"}, "fusion_lon": 0.0, "type": "electric_scooter", "bike_id": "ec32b3c2daecaab24c7e0521ef4702c2", "name": "ec32b3c2daecaab24c7e0521ef4702c2"}, {"lon": -77.03454883333333, "is_disabled": 0, "lat": 38.903308333333335, "fusion_lat": 0.0, "is_reserved": 0, "rental_uris": {"ios": "https://dc.lft.to/lastmile_qr_scan", "android": "https://dc.lft.to/lastmile_qr_scan"}, "fusion_lon": 0.0, "type": "electric_scooter", "bike_id": "777ae9b704a9ae6c14f47cc002250f58", "name": "777ae9b704a9ae6c14f47cc002250f58"}, {"lon": -77.04177733333333, "is_disabled": 0, "lat": 38.905726, "fusion_lat": 0.0, "is_reserved": 0, "rental_uris": {"ios": "https://dc.lft.to/lastmile_qr_scan", "android": "https://dc.lft.to/lastmile_qr_scan"}, "fusion_lon": 0.0, "type": "electric_scooter", "bike_id": "07bfb815e6c8524a6d35c8c781116f91", "name": "07bfb815e6c8524a6d35c8c781116f91"}, {"lon": -77.00080683333333, "is_disabled": 0, "lat": 38.90045816666667, "fusion_lat": 0.0, "is_reserved": 0, "rental_uris": {"ios": "https://dc.lft.to/lastmile_qr_scan", "android": "https://dc.lft.to/lastmile_qr_scan"}, "fusion_lon": 0.0, "type": "electric_scooter", "bike_id": "97b92854bd0a5cde0c626d746e587e02", "name": "97b92854bd0a5cde0c626d746e587e02"}, {"lon": -77.00365166666667, "is_disabled": 0, "lat": 38.87737116666667, "fusion_lat": 0.0, "is_reserved": 0, "rental_uris": {"ios": "https://dc.lft.to/lastmile_qr_scan", "android": "https://dc.lft.to/lastmile_qr_scan"}, "fusion_lon": 0.0, "type": "electric_scooter", "bike_id": "8aaf1eda9a5683d2a62c37e14c52030c", "name": "8aaf1eda9a5683d2a62c37e14c52030c"}, {"lon": -77.045283, "is_disabled": 0, "lat": 38.90376366666667, "fusion_lat": 0.0, "is_reserved": 0, "rental_uris": {"ios": "https://dc.lft.to/lastmile_qr_scan", "android": "https://dc.lft.to/lastmile_qr_scan"}, "fusion_lon": 0.0, "type": "electric_scooter", "bike_id": "0e2298113d50e0a7d077f790e472b875", "name": "0e2298113d50e0a7d077f790e472b875"}, {"lon": -77.0214415, "is_disabled": 0, "lat": 38.901916, "fusion_lat": 0.0, "is_reserved": 0, "rental_uris": {"ios": "https://dc.lft.to/lastmile_qr_scan", "android": "https://dc.lft.to/lastmile_qr_scan"}, "fusion_lon": 0.0, "type": "electric_scooter", "bike_id": "ee7e4688df82e8cdd51dfb1d79468a31", "name": "ee7e4688df82e8cdd51dfb1d79468a31"}, {"lon": -77.03360616666667, "is_disabled": 0, "lat": 38.924428166666665, "fusion_lat": 0.0, "is_reserved": 0, "rental_uris": {"ios": "https://dc.lft.to/lastmile_qr_scan", "android": "https://dc.lft.to/lastmile_qr_scan"}, "fusion_lon": 0.0, "type": "electric_scooter", "bike_id": "a2191f0ea42af60aece4852113b3373c", "name": "a2191f0ea42af60aece4852113b3373c"}, {"lon": -77.02159366666666, "is_disabled": 0, "lat": 38.9260465, "fusion_lat": 0.0, "is_reserved": 0, "rental_uris": {"ios": "https://dc.lft.to/lastmile_qr_scan", "android": "https://dc.lft.to/lastmile_qr_scan"}, "fusion_lon": 0.0, "type": "electric_scooter", "bike_id": "88ad85ac211d266988d01aaf371ba1a2", "name": "88ad85ac211d266988d01aaf371ba1a2"}, {"lon": -76.99986833333334, "is_disabled": 0, "lat": 38.87473766666667, "fusion_lat": 0.0, "is_reserved": 0, "rental_uris": {"ios": "https://dc.lft.to/lastmile_qr_scan", "android": "https://dc.lft.to/lastmile_qr_scan"}, "fusion_lon": 0.0, "type": "electric_scooter", "bike_id": "a12ca51e2c73c0832a72162900aacbfe", "name": "a12ca51e2c73c0832a72162900aacbfe"}, {"lon": -77.118321, "is_disabled": 0, "lat": 38.859343, "fusion_lat": 0.0, "is_reserved": 0, "rental_uris": {"ios": "https://dc.lft.to/lastmile_qr_scan", "android": "https://dc.lft.to/lastmile_qr_scan"}, "fusion_lon": 0.0, "type": "electric_bike", "bike_id": "a9a5521ea3909ee4e1fea355b35ddffe", "name": "a9a5521ea3909ee4e1fea355b35ddffe"}, {"lon": -77.00937966666666, "is_disabled": 0, "lat": 38.919223833333334, "fusion_lat": 0.0, "is_reserved": 0, "rental_uris": {"ios": "https://dc.lft.to/lastmile_qr_scan", "android": "https://dc.lft.to/lastmile_qr_scan"}, "fusion_lon": 0.0, "type": "electric_scooter", "bike_id": "255d9dda7e8f43f45ac943150a96bcce", "name": "255d9dda7e8f43f45ac943150a96bcce"}, {"lon": -77.002209, "is_disabled": 0, "lat": 38.82372633333333, "fusion_lat": 0.0, "is_reserved": 0, "rental_uris": {"ios": "https://dc.lft.to/lastmile_qr_scan", "android": "https://dc.lft.to/lastmile_qr_scan"}, "fusion_lon": 0.0, "type": "electric_bike", "bike_id": "d3892587de9fa655e0824784773274af", "name": "d3892587de9fa655e0824784773274af"}, {"lon": -77.04194933333333, "is_disabled": 0, "lat": 38.9205625, "fusion_lat": 0.0, "is_reserved": 0, "rental_uris": {"ios": "https://dc.lft.to/lastmile_qr_scan", "android": "https://dc.lft.to/lastmile_qr_scan"}, "fusion_lon": 0.0, "type": "electric_scooter", "bike_id": "7fe795540f4953c6df1b59a2ff31fa57", "name": "7fe795540f4953c6df1b59a2ff31fa57"}, {"lon": -77.07276333333333, "is_disabled": 0, "lat": 38.911647, "fusion_lat": 0.0, "is_reserved": 0, "rental_uris": {"ios": "https://dc.lft.to/lastmile_qr_scan", "android": "https://dc.lft.to/lastmile_qr_scan"}, "fusion_lon": 0.0, "type": "electric_scooter", "bike_id": "0c3c556d817dbffabece6a6c7f03bd49", "name": "0c3c556d817dbffabece6a6c7f03bd49"}, {"lon": -77.03725133333333, "is_disabled": 0, "lat": 38.90218216666667, "fusion_lat": 0.0, "is_reserved": 0, "rental_uris": {"ios": "https://dc.lft.to/lastmile_qr_scan", "android": "https://dc.lft.to/lastmile_qr_scan"}, "fusion_lon": 0.0, "type": "electric_scooter", "bike_id": "6de11fdd153bc26b7acfa95f56b6a3c4", "name": "6de11fdd153bc26b7acfa95f56b6a3c4"}, {"lon": -77.1011695, "is_disabled": 0, "lat": 38.87879216666666, "fusion_lat": 0.0, "is_reserved": 0, "rental_uris": {"ios": "https://dc.lft.to/lastmile_qr_scan", "android": "https://dc.lft.to/lastmile_qr_scan"}, "fusion_lon": 0.0, "type": "electric_bike", "bike_id": "2aae257d3b46a7f4866d12cba41c3ccd", "name": "2aae257d3b46a7f4866d12cba41c3ccd"}, {"lon": -77.04684516666667, "is_disabled": 0, "lat": 38.903719333333335, "fusion_lat": 0.0, "is_reserved": 0, "rental_uris": {"ios": "https://dc.lft.to/lastmile_qr_scan", "android": "https://dc.lft.to/lastmile_qr_scan"}, "fusion_lon": 0.0, "type": "electric_scooter", "bike_id": "b84db60037c4b77db2ab358be1757548", "name": "b84db60037c4b77db2ab358be1757548"}, {"lon": -77.03876016666666, "is_disabled": 0, "lat": 38.905105, "fusion_lat": 0.0, "is_reserved": 0, "rental_uris": {"ios": "https://dc.lft.to/lastmile_qr_scan", "android": "https://dc.lft.to/lastmile_qr_scan"}, "fusion_lon": 0.0, "type": "electric_scooter", "bike_id": "a4a1d8ea4354665611cfe1c3fd65aafa", "name": "a4a1d8ea4354665611cfe1c3fd65aafa"}, {"lon": -77.04595216666667, "is_disabled": 0, "lat": 38.9057505, "fusion_lat": 0.0, "is_reserved": 0, "rental_uris": {"ios": "https://dc.lft.to/lastmile_qr_scan", "android": "https://dc.lft.to/lastmile_qr_scan"}, "fusion_lon": 0.0, "type": "electric_scooter", "bike_id": "930519cc0fc2817f007f9e01a63294c1", "name": "930519cc0fc2817f007f9e01a63294c1"}, {"lon": -77.02009583333333, "is_disabled": 0, "lat": 38.914063, "fusion_lat": 0.0, "is_reserved": 0, "rental_uris": {"ios": "https://dc.lft.to/lastmile_qr_scan", "android": "https://dc.lft.to/lastmile_qr_scan"}, "fusion_lon": 0.0, "type": "electric_scooter", "bike_id": "3226298771f2e2a2f0485f1dc713b026", "name": "3226298771f2e2a2f0485f1dc713b026"}, {"lon": -76.987036, "is_disabled": 0, "lat": 38.8672385, "fusion_lat": 0.0, "is_reserved": 0, "rental_uris": {"ios": "https://dc.lft.to/lastmile_qr_scan", "android": "https://dc.lft.to/lastmile_qr_scan"}, "fusion_lon": 0.0, "type": "electric_scooter", "bike_id": "0164eec1c4c55a2edbf2edfd991ccc87", "name": "0164eec1c4c55a2edbf2edfd991ccc87"}, {"lon": -77.02354433333333, "is_disabled": 0, "lat": 38.8960125, "fusion_lat": 0.0, "is_reserved": 0, "rental_uris": {"ios": "https://dc.lft.to/lastmile_qr_scan", "android": "https://dc.lft.to/lastmile_qr_scan"}, "fusion_lon": 0.0, "type": "electric_scooter", "bike_id": "cd39f92e2de6161a0842f294dc46efb4", "name": "cd39f92e2de6161a0842f294dc46efb4"}, {"lon": -77.00359466666667, "is_disabled": 0, "lat": 38.8772095, "fusion_lat": 0.0, "is_reserved": 0, "rental_uris": {"ios": "https://dc.lft.to/lastmile_qr_scan", "android": "https://dc.lft.to/lastmile_qr_scan"}, "fusion_lon": 0.0, "type": "electric_scooter", "bike_id": "27c0ff39427ba894055e39a604f2d7a1", "name": "27c0ff39427ba894055e39a604f2d7a1"}, {"lon": -77.0250465, "is_disabled": 0, "lat": 38.94183266666667, "fusion_lat": 0.0, "is_reserved": 0, "rental_uris": {"ios": "https://dc.lft.to/lastmile_qr_scan", "android": "https://dc.lft.to/lastmile_qr_scan"}, "fusion_lon": 0.0, "type": "electric_scooter", "bike_id": "2f510cd141d907850ecfca448398b631", "name": "2f510cd141d907850ecfca448398b631"}, {"lon": -77.04200733333333, "is_disabled": 0, "lat": 38.908971333333334, "fusion_lat": 0.0, "is_reserved": 0, "rental_uris": {"ios": "https://dc.lft.to/lastmile_qr_scan", "android": "https://dc.lft.to/lastmile_qr_scan"}, "fusion_lon": 0.0, "type": "electric_scooter", "bike_id": "7984f4e228c730a3bc98aab9159d17de", "name": "7984f4e228c730a3bc98aab9159d17de"}, {"lon": -77.0093155, "is_disabled": 0, "lat": 38.895542166666665, "fusion_lat": 0.0, "is_reserved": 0, "rental_uris": {"ios": "https://dc.lft.to/lastmile_qr_scan", "android": "https://dc.lft.to/lastmile_qr_scan"}, "fusion_lon": 0.0, "type": "electric_scooter", "bike_id": "c02b4a90922476bf1c16770205a1c0ad", "name": "c02b4a90922476bf1c16770205a1c0ad"}, {"lon": -77.023739, "is_disabled": 0, "lat": 38.896156166666664, "fusion_lat": 0.0, "is_reserved": 0, "rental_uris": {"ios": "https://dc.lft.to/lastmile_qr_scan", "android": "https://dc.lft.to/lastmile_qr_scan"}, "fusion_lon": 0.0, "type": "electric_scooter", "bike_id": "ac73e0b5bb12d84461eb4a99f9e3f677", "name": "ac73e0b5bb12d84461eb4a99f9e3f677"}, {"lon": -77.04358433333333, "is_disabled": 0, "lat": 38.905994666666665, "fusion_lat": 0.0, "is_reserved": 0, "rental_uris": {"ios": "https://dc.lft.to/lastmile_qr_scan", "android": "https://dc.lft.to/lastmile_qr_scan"}, "fusion_lon": 0.0, "type": "electric_scooter", "bike_id": "5fe40fbdb26da3c8ba8c065081618d9d", "name": "5fe40fbdb26da3c8ba8c065081618d9d"}, {"lon": -77.04001833333334, "is_disabled": 0, "lat": 38.90342283333333, "fusion_lat": 0.0, "is_reserved": 0, "rental_uris": {"ios": "https://dc.lft.to/lastmile_qr_scan", "android": "https://dc.lft.to/lastmile_qr_scan"}, "fusion_lon": 0.0, "type": "electric_scooter", "bike_id": "93280622218093101f3cdab0b302dab6", "name": "93280622218093101f3cdab0b302dab6"}, {"lon": -77.00405883333333, "is_disabled": 0, "lat": 38.92133333333334, "fusion_lat": 0.0, "is_reserved": 0, "rental_uris": {"ios": "https://dc.lft.to/lastmile_qr_scan", "android": "https://dc.lft.to/lastmile_qr_scan"}, "fusion_lon": 0.0, "type": "electric_scooter", "bike_id": "050a4d59b3f440c74d17bdacf6ea83ab", "name": "050a4d59b3f440c74d17bdacf6ea83ab"}, {"lon": -77.00723316666667, "is_disabled": 0, "lat": 38.9254185, "fusion_lat": 0.0, "is_reserved": 0, "rental_uris": {"ios": "https://dc.lft.to/lastmile_qr_scan", "android": "https://dc.lft.to/lastmile_qr_scan"}, "fusion_lon": 0.0, "type": "electric_scooter", "bike_id": "b409873df24b91d9e95d0357d4d5bb8d", "name": "b409873df24b91d9e95d0357d4d5bb8d"}, {"lon": -77.02159183333333, "is_disabled": 0, "lat": 38.92460466666667, "fusion_lat": 0.0, "is_reserved": 0, "rental_uris": {"ios": "https://dc.lft.to/lastmile_qr_scan", "android": "https://dc.lft.to/lastmile_qr_scan"}, "fusion_lon": 0.0, "type": "electric_scooter", "bike_id": "041af97192f04b2e7263f1c3d3930167", "name": "041af97192f04b2e7263f1c3d3930167"}, {"lon": -76.98144083333334, "is_disabled": 0, "lat": 38.897423, "fusion_lat": 0.0, "is_reserved": 0, "rental_uris": {"ios": "https://dc.lft.to/lastmile_qr_scan", "android": "https://dc.lft.to/lastmile_qr_scan"}, "fusion_lon": 0.0, "type": "electric_scooter", "bike_id": "da14bda0cc896f1aefe7d68c199110fc", "name": "da14bda0cc896f1aefe7d68c199110fc"}, {"lon": -77.088635, "is_disabled": 0, "lat": 38.9164165, "fusion_lat": 0.0, "is_reserved": 0, "rental_uris": {"ios": "https://dc.lft.to/lastmile_qr_scan", "android": "https://dc.lft.to/lastmile_qr_scan"}, "fusion_lon": 0.0, "type": "electric_scooter", "bike_id": "edc721d6da13e853ba263ed4eff7bf85", "name": "edc721d6da13e853ba263ed4eff7bf85"}, {"lon": -77.02216216666666, "is_disabled": 0, "lat": 38.896098, "fusion_lat": 0.0, "is_reserved": 0, "rental_uris": {"ios": "https://dc.lft.to/lastmile_qr_scan", "android": "https://dc.lft.to/lastmile_qr_scan"}, "fusion_lon": 0.0, "type": "electric_scooter", "bike_id": "8e07de1bb604d82ac1f5c16358af8f28", "name": "8e07de1bb604d82ac1f5c16358af8f28"}, {"lon": -76.959519, "is_disabled": 0, "lat": 38.86191783333334, "fusion_lat": 0.0, "is_reserved": 0, "rental_uris": {"ios": "https://dc.lft.to/lastmile_qr_scan", "android": "https://dc.lft.to/lastmile_qr_scan"}, "fusion_lon": 0.0, "type": "electric_scooter", "bike_id": "ebd2abac0306fd44fa13c7bd355327ce", "name": "ebd2abac0306fd44fa13c7bd355327ce"}, {"lon": -77.04176866666667, "is_disabled": 0, "lat": 38.90751183333333, "fusion_lat": 0.0, "is_reserved": 0, "rental_uris": {"ios": "https://dc.lft.to/lastmile_qr_scan", "android": "https://dc.lft.to/lastmile_qr_scan"}, "fusion_lon": 0.0, "type": "electric_scooter", "bike_id": "57a160130993f78f10eaba655ccf6a08", "name": "57a160130993f78f10eaba655ccf6a08"}, {"lon": -77.042729, "is_disabled": 0, "lat": 38.925531, "fusion_lat": 0.0, "is_reserved": 0, "rental_uris": {"ios": "https://dc.lft.to/lastmile_qr_scan", "android": "https://dc.lft.to/lastmile_qr_scan"}, "fusion_lon": 0.0, "type": "electric_scooter", "bike_id": "876d290d86c9792e541e6148a3168210", "name": "876d290d86c9792e541e6148a3168210"}, {"lon": -77.02050266666667, "is_disabled": 0, "lat": 38.920906333333335, "fusion_lat": 0.0, "is_reserved": 0, "rental_uris": {"ios": "https://dc.lft.to/lastmile_qr_scan", "android": "https://dc.lft.to/lastmile_qr_scan"}, "fusion_lon": 0.0, "type": "electric_scooter", "bike_id": "5da7692ca1e1332e8c37bb623c4e6e07", "name": "5da7692ca1e1332e8c37bb623c4e6e07"}, {"lon": -77.03740533333334, "is_disabled": 0, "lat": 38.926578, "fusion_lat": 0.0, "is_reserved": 0, "rental_uris": {"ios": "https://dc.lft.to/lastmile_qr_scan", "android": "https://dc.lft.to/lastmile_qr_scan"}, "fusion_lon": 0.0, "type": "electric_scooter", "bike_id": "453e6023ea60d6f52fe75c91c207115c", "name": "453e6023ea60d6f52fe75c91c207115c"}, {"lon": -77.04670016666667, "is_disabled": 0, "lat": 38.90391016666667, "fusion_lat": 0.0, "is_reserved": 0, "rental_uris": {"ios": "https://dc.lft.to/lastmile_qr_scan", "android": "https://dc.lft.to/lastmile_qr_scan"}, "fusion_lon": 0.0, "type": "electric_scooter", "bike_id": "17a77795a63c87f4841f5442bdb27b93", "name": "17a77795a63c87f4841f5442bdb27b93"}, {"lon": -76.99706133333333, "is_disabled": 0, "lat": 38.90786133333334, "fusion_lat": 0.0, "is_reserved": 0, "rental_uris": {"ios": "https://dc.lft.to/lastmile_qr_scan", "android": "https://dc.lft.to/lastmile_qr_scan"}, "fusion_lon": 0.0, "type": "electric_scooter", "bike_id": "56013f969261d23de3729c665196b584", "name": "56013f969261d23de3729c665196b584"}, {"lon": -77.04174633333334, "is_disabled": 0, "lat": 38.90152716666667, "fusion_lat": 0.0, "is_reserved": 0, "rental_uris": {"ios": "https://dc.lft.to/lastmile_qr_scan", "android": "https://dc.lft.to/lastmile_qr_scan"}, "fusion_lon": 0.0, "type": "electric_scooter", "bike_id": "3a654210edb32e751e72373e09a33f83", "name": "3a654210edb32e751e72373e09a33f83"}, {"lon": -76.96527283333333, "is_disabled": 0, "lat": 38.87626, "fusion_lat": 0.0, "is_reserved": 0, "rental_uris": {"ios": "https://dc.lft.to/lastmile_qr_scan", "android": "https://dc.lft.to/lastmile_qr_scan"}, "fusion_lon": 0.0, "type": "electric_scooter", "bike_id": "0da6b5222f1c0a9c3a40e6866e0bf382", "name": "0da6b5222f1c0a9c3a40e6866e0bf382"}, {"lon": -77.02203716666666, "is_disabled": 0, "lat": 38.895333, "fusion_lat": 0.0, "is_reserved": 0, "rental_uris": {"ios": "https://dc.lft.to/lastmile_qr_scan", "android": "https://dc.lft.to/lastmile_qr_scan"}, "fusion_lon": 0.0, "type": "electric_scooter", "bike_id": "c83c8a3e27a0d40308c8d47af749687f", "name": "c83c8a3e27a0d40308c8d47af749687f"}, {"lon": -77.0082825, "is_disabled": 0, "lat": 38.876666166666666, "fusion_lat": 0.0, "is_reserved": 0, "rental_uris": {"ios": "https://dc.lft.to/lastmile_qr_scan", "android": "https://dc.lft.to/lastmile_qr_scan"}, "fusion_lon": 0.0, "type": "electric_scooter", "bike_id": "3b726992098b99e29d048482577622e9", "name": "3b726992098b99e29d048482577622e9"}, {"lon": -77.02200916666666, "is_disabled": 0, "lat": 38.91124416666667, "fusion_lat": 0.0, "is_reserved": 0, "rental_uris": {"ios": "https://dc.lft.to/lastmile_qr_scan", "android": "https://dc.lft.to/lastmile_qr_scan"}, "fusion_lon": 0.0, "type": "electric_scooter", "bike_id": "57c8c023ee8ec02d2c775b01b320599f", "name": "57c8c023ee8ec02d2c775b01b320599f"}, {"lon": -77.01897883333334, "is_disabled": 0, "lat": 38.91727216666666, "fusion_lat": 0.0, "is_reserved": 0, "rental_uris": {"ios": "https://dc.lft.to/lastmile_qr_scan", "android": "https://dc.lft.to/lastmile_qr_scan"}, "fusion_lon": 0.0, "type": "electric_scooter", "bike_id": "01ab09140a9158384707b378a0185f8f", "name": "01ab09140a9158384707b378a0185f8f"}, {"lon": -77.063345, "is_disabled": 0, "lat": 38.92108433333333, "fusion_lat": 0.0, "is_reserved": 0, "rental_uris": {"ios": "https://dc.lft.to/lastmile_qr_scan", "android": "https://dc.lft.to/lastmile_qr_scan"}, "fusion_lon": 0.0, "type": "electric_scooter", "bike_id": "cdbcb7b145c50be77be695a4ba8323be", "name": "cdbcb7b145c50be77be695a4ba8323be"}, {"lon": -77.04094466666666, "is_disabled": 0, "lat": 38.91729633333333, "fusion_lat": 0.0, "is_reserved": 0, "rental_uris": {"ios": "https://dc.lft.to/lastmile_qr_scan", "android": "https://dc.lft.to/lastmile_qr_scan"}, "fusion_lon": 0.0, "type": "electric_scooter", "bike_id": "6f3bc5ae1d268cffda5502adad502ef2", "name": "6f3bc5ae1d268cffda5502adad502ef2"}, {"lon": -77.02812483333334, "is_disabled": 0, "lat": 38.8998175, "fusion_lat": 0.0, "is_reserved": 0, "rental_uris": {"ios": "https://dc.lft.to/lastmile_qr_scan", "android": "https://dc.lft.to/lastmile_qr_scan"}, "fusion_lon": 0.0, "type": "electric_scooter", "bike_id": "9245edd4247b817e6d816aef93485cf4", "name": "9245edd4247b817e6d816aef93485cf4"}, {"lon": -77.01213066666666, "is_disabled": 0, "lat": 38.87474266666667, "fusion_lat": 0.0, "is_reserved": 0, "rental_uris": {"ios": "https://dc.lft.to/lastmile_qr_scan", "android": "https://dc.lft.to/lastmile_qr_scan"}, "fusion_lon": 0.0, "type": "electric_scooter", "bike_id": "e55697b99a592686a79e8a2121aa8790", "name": "e55697b99a592686a79e8a2121aa8790"}, {"lon": -77.03802933333333, "is_disabled": 0, "lat": 38.91989183333333, "fusion_lat": 0.0, "is_reserved": 0, "rental_uris": {"ios": "https://dc.lft.to/lastmile_qr_scan", "android": "https://dc.lft.to/lastmile_qr_scan"}, "fusion_lon": 0.0, "type": "electric_scooter", "bike_id": "1c256a8d9d0c0de22c39595f1cd2065c", "name": "1c256a8d9d0c0de22c39595f1cd2065c"}, {"lon": -77.04219783333333, "is_disabled": 0, "lat": 38.92068416666667, "fusion_lat": 0.0, "is_reserved": 0, "rental_uris": {"ios": "https://dc.lft.to/lastmile_qr_scan", "android": "https://dc.lft.to/lastmile_qr_scan"}, "fusion_lon": 0.0, "type": "electric_scooter", "bike_id": "04c0ba1b20c597d54c3f692efd9334ef", "name": "04c0ba1b20c597d54c3f692efd9334ef"}, {"lon": -77.025932, "is_disabled": 0, "lat": 38.914873166666666, "fusion_lat": 0.0, "is_reserved": 0, "rental_uris": {"ios": "https://dc.lft.to/lastmile_qr_scan", "android": "https://dc.lft.to/lastmile_qr_scan"}, "fusion_lon": 0.0, "type": "electric_scooter", "bike_id": "3f66a75cbadc940a27019497978ede4a", "name": "3f66a75cbadc940a27019497978ede4a"}, {"lon": -77.03121933333334, "is_disabled": 0, "lat": 38.920199833333335, "fusion_lat": 0.0, "is_reserved": 0, "rental_uris": {"ios": "https://dc.lft.to/lastmile_qr_scan", "android": "https://dc.lft.to/lastmile_qr_scan"}, "fusion_lon": 0.0, "type": "electric_scooter", "bike_id": "8433bd7875af78eb3f56c767382f37b8", "name": "8433bd7875af78eb3f56c767382f37b8"}, {"lon": -77.03504466666666, "is_disabled": 0, "lat": 38.91695716666667, "fusion_lat": 0.0, "is_reserved": 0, "rental_uris": {"ios": "https://dc.lft.to/lastmile_qr_scan", "android": "https://dc.lft.to/lastmile_qr_scan"}, "fusion_lon": 0.0, "type": "electric_scooter", "bike_id": "d665433f4a25f4b5011bfa8bf23d0534", "name": "d665433f4a25f4b5011bfa8bf23d0534"}, {"lon": -77.0445145, "is_disabled": 0, "lat": 38.89621233333333, "fusion_lat": 0.0, "is_reserved": 0, "rental_uris": {"ios": "https://dc.lft.to/lastmile_qr_scan", "android": "https://dc.lft.to/lastmile_qr_scan"}, "fusion_lon": 0.0, "type": "electric_scooter", "bike_id": "2b6906ba8e7289f3381e686050d68cc3", "name": "2b6906ba8e7289f3381e686050d68cc3"}, {"lon": -77.0484715, "is_disabled": 0, "lat": 38.90439466666667, "fusion_lat": 0.0, "is_reserved": 0, "rental_uris": {"ios": "https://dc.lft.to/lastmile_qr_scan", "android": "https://dc.lft.to/lastmile_qr_scan"}, "fusion_lon": 0.0, "type": "electric_scooter", "bike_id": "f4dd536364d11b6c3a47135f8dd9454b", "name": "f4dd536364d11b6c3a47135f8dd9454b"}, {"lon": -77.04344816666666, "is_disabled": 0, "lat": 38.922118166666664, "fusion_lat": 0.0, "is_reserved": 0, "rental_uris": {"ios": "https://dc.lft.to/lastmile_qr_scan", "android": "https://dc.lft.to/lastmile_qr_scan"}, "fusion_lon": 0.0, "type": "electric_scooter", "bike_id": "9201d15ad67d968d87543d7785828d97", "name": "9201d15ad67d968d87543d7785828d97"}, {"lon": -77.13104433333334, "is_disabled": 0, "lat": 39.024337333333335, "fusion_lat": 0.0, "is_reserved": 0, "rental_uris": {"ios": "https://dc.lft.to/lastmile_qr_scan", "android": "https://dc.lft.to/lastmile_qr_scan"}, "fusion_lon": 0.0, "type": "electric_bike", "bike_id": "35373c4345a7562bb019fd0e0f857f4c", "name": "35373c4345a7562bb019fd0e0f857f4c"}, {"lon": -77.0433725, "is_disabled": 0, "lat": 38.89521083333333, "fusion_lat": 0.0, "is_reserved": 0, "rental_uris": {"ios": "https://dc.lft.to/lastmile_qr_scan", "android": "https://dc.lft.to/lastmile_qr_scan"}, "fusion_lon": 0.0, "type": "electric_scooter", "bike_id": "aee9cf60386e5efb56e4a503023a2b39", "name": "aee9cf60386e5efb56e4a503023a2b39"}, {"lon": -77.012664, "is_disabled": 0, "lat": 38.91914716666667, "fusion_lat": 0.0, "is_reserved": 0, "rental_uris": {"ios": "https://dc.lft.to/lastmile_qr_scan", "android": "https://dc.lft.to/lastmile_qr_scan"}, "fusion_lon": 0.0, "type": "electric_scooter", "bike_id": "678de5480c67df99563f33543282b225", "name": "678de5480c67df99563f33543282b225"}, {"lon": -76.9914465, "is_disabled": 0, "lat": 38.9085695, "fusion_lat": 0.0, "is_reserved": 0, "rental_uris": {"ios": "https://dc.lft.to/lastmile_qr_scan", "android": "https://dc.lft.to/lastmile_qr_scan"}, "fusion_lon": 0.0, "type": "electric_bike", "bike_id": "73abc8135f851ffddde6b1c6e780c9d8", "name": "73abc8135f851ffddde6b1c6e780c9d8"}, {"lon": -77.05252116666666, "is_disabled": 0, "lat": 38.927869666666666, "fusion_lat": 0.0, "is_reserved": 0, "rental_uris": {"ios": "https://dc.lft.to/lastmile_qr_scan", "android": "https://dc.lft.to/lastmile_qr_scan"}, "fusion_lon": 0.0, "type": "electric_scooter", "bike_id": "940623a4c8a9063b369ac3e2ffde6be2", "name": "940623a4c8a9063b369ac3e2ffde6be2"}, {"lon": -76.99483483333333, "is_disabled": 0, "lat": 38.891801, "fusion_lat": 0.0, "is_reserved": 0, "rental_uris": {"ios": "https://dc.lft.to/lastmile_qr_scan", "android": "https://dc.lft.to/lastmile_qr_scan"}, "fusion_lon": 0.0, "type": "electric_scooter", "bike_id": "b992f6d5fd64bd518dd8842fedbb4b15", "name": "b992f6d5fd64bd518dd8842fedbb4b15"}, {"lon": -77.034644, "is_disabled": 0, "lat": 38.908197666666666, "fusion_lat": 0.0, "is_reserved": 0, "rental_uris": {"ios": "https://dc.lft.to/lastmile_qr_scan", "android": "https://dc.lft.to/lastmile_qr_scan"}, "fusion_lon": 0.0, "type": "electric_scooter", "bike_id": "c14250e5760678fdc13fd6f607a0e699", "name": "c14250e5760678fdc13fd6f607a0e699"}, {"lon": -76.94894866666667, "is_disabled": 0, "lat": 38.89534166666667, "fusion_lat": 0.0, "is_reserved": 0, "rental_uris": {"ios": "https://dc.lft.to/lastmile_qr_scan", "android": "https://dc.lft.to/lastmile_qr_scan"}, "fusion_lon": 0.0, "type": "electric_scooter", "bike_id": "aa4a295cf1b7680c4fe806ed9c9d91dd", "name": "aa4a295cf1b7680c4fe806ed9c9d91dd"}, {"lon": -77.03197016666667, "is_disabled": 0, "lat": 38.89253183333334, "fusion_lat": 0.0, "is_reserved": 0, "rental_uris": {"ios": "https://dc.lft.to/lastmile_qr_scan", "android": "https://dc.lft.to/lastmile_qr_scan"}, "fusion_lon": 0.0, "type": "electric_scooter", "bike_id": "09db3c3a23e71561b4b7054a7b1412f2", "name": "09db3c3a23e71561b4b7054a7b1412f2"}, {"lon": -77.0321085, "is_disabled": 0, "lat": 38.89239766666667, "fusion_lat": 0.0, "is_reserved": 0, "rental_uris": {"ios": "https://dc.lft.to/lastmile_qr_scan", "android": "https://dc.lft.to/lastmile_qr_scan"}, "fusion_lon": 0.0, "type": "electric_scooter", "bike_id": "a90add76de50f600dacb492537c8dc6e", "name": "a90add76de50f600dacb492537c8dc6e"}, {"lon": -77.04874333333333, "is_disabled": 0, "lat": 38.909774666666664, "fusion_lat": 0.0, "is_reserved": 0, "rental_uris": {"ios": "https://dc.lft.to/lastmile_qr_scan", "android": "https://dc.lft.to/lastmile_qr_scan"}, "fusion_lon": 0.0, "type": "electric_scooter", "bike_id": "1d6ade272552d8436b5d5c3b8ac903af", "name": "1d6ade272552d8436b5d5c3b8ac903af"}, {"lon": -77.0401085, "is_disabled": 0, "lat": 38.9342545, "fusion_lat": 0.0, "is_reserved": 0, "rental_uris": {"ios": "https://dc.lft.to/lastmile_qr_scan", "android": "https://dc.lft.to/lastmile_qr_scan"}, "fusion_lon": 0.0, "type": "electric_scooter", "bike_id": "4156861f24136a765bc41241b3f61f9a", "name": "4156861f24136a765bc41241b3f61f9a"}, {"lon": -77.03216466666667, "is_disabled": 0, "lat": 38.91851966666667, "fusion_lat": 0.0, "is_reserved": 0, "rental_uris": {"ios": "https://dc.lft.to/lastmile_qr_scan", "android": "https://dc.lft.to/lastmile_qr_scan"}, "fusion_lon": 0.0, "type": "electric_scooter", "bike_id": "32c4404cf81320bbf49c4b2d8dc8de77", "name": "32c4404cf81320bbf49c4b2d8dc8de77"}, {"lon": -77.023902, "is_disabled": 0, "lat": 38.91288983333333, "fusion_lat": 0.0, "is_reserved": 0, "rental_uris": {"ios": "https://dc.lft.to/lastmile_qr_scan", "android": "https://dc.lft.to/lastmile_qr_scan"}, "fusion_lon": 0.0, "type": "electric_scooter", "bike_id": "7b16054ca3aaba1f70a6e8ebba5d3da0", "name": "7b16054ca3aaba1f70a6e8ebba5d3da0"}, {"lon": -77.04027833333333, "is_disabled": 0, "lat": 38.90373566666667, "fusion_lat": 0.0, "is_reserved": 0, "rental_uris": {"ios": "https://dc.lft.to/lastmile_qr_scan", "android": "https://dc.lft.to/lastmile_qr_scan"}, "fusion_lon": 0.0, "type": "electric_scooter", "bike_id": "67ff0c9f733b22214c6e087ab9481fc7", "name": "67ff0c9f733b22214c6e087ab9481fc7"}, {"lon": -77.01702916666666, "is_disabled": 0, "lat": 38.9138625, "fusion_lat": 0.0, "is_reserved": 0, "rental_uris": {"ios": "https://dc.lft.to/lastmile_qr_scan", "android": "https://dc.lft.to/lastmile_qr_scan"}, "fusion_lon": 0.0, "type": "electric_scooter", "bike_id": "803e3c3b3d742a694f564425d1f89787", "name": "803e3c3b3d742a694f564425d1f89787"}, {"lon": -77.02210816666667, "is_disabled": 0, "lat": 38.91547966666667, "fusion_lat": 0.0, "is_reserved": 0, "rental_uris": {"ios": "https://dc.lft.to/lastmile_qr_scan", "android": "https://dc.lft.to/lastmile_qr_scan"}, "fusion_lon": 0.0, "type": "electric_scooter", "bike_id": "285dad13b42113b4d3184ec9cc9a1d6c", "name": "285dad13b42113b4d3184ec9cc9a1d6c"}, {"lon": -77.0417655, "is_disabled": 0, "lat": 38.90569766666667, "fusion_lat": 0.0, "is_reserved": 0, "rental_uris": {"ios": "https://dc.lft.to/lastmile_qr_scan", "android": "https://dc.lft.to/lastmile_qr_scan"}, "fusion_lon": 0.0, "type": "electric_scooter", "bike_id": "daed4c2441ee7f8e09a44f3d8129315f", "name": "daed4c2441ee7f8e09a44f3d8129315f"}, {"lon": -76.93211066666667, "is_disabled": 0, "lat": 38.896708833333335, "fusion_lat": 0.0, "is_reserved": 0, "rental_uris": {"ios": "https://dc.lft.to/lastmile_qr_scan", "android": "https://dc.lft.to/lastmile_qr_scan"}, "fusion_lon": 0.0, "type": "electric_scooter", "bike_id": "002ab7f8d95d28be4fca85e4fd352dd3", "name": "002ab7f8d95d28be4fca85e4fd352dd3"}, {"lon": -77.0271935, "is_disabled": 0, "lat": 38.90006416666667, "fusion_lat": 0.0, "is_reserved": 0, "rental_uris": {"ios": "https://dc.lft.to/lastmile_qr_scan", "android": "https://dc.lft.to/lastmile_qr_scan"}, "fusion_lon": 0.0, "type": "electric_scooter", "bike_id": "0ca453331596973aa8dd620dca30c087", "name": "0ca453331596973aa8dd620dca30c087"}, {"lon": -77.01957666666667, "is_disabled": 0, "lat": 38.924245666666664, "fusion_lat": 0.0, "is_reserved": 0, "rental_uris": {"ios": "https://dc.lft.to/lastmile_qr_scan", "android": "https://dc.lft.to/lastmile_qr_scan"}, "fusion_lon": 0.0, "type": "electric_scooter", "bike_id": "e4547b73178165c886be456d54ed6965", "name": "e4547b73178165c886be456d54ed6965"}, {"lon": -77.04684266666666, "is_disabled": 0, "lat": 38.903922333333334, "fusion_lat": 0.0, "is_reserved": 0, "rental_uris": {"ios": "https://dc.lft.to/lastmile_qr_scan", "android": "https://dc.lft.to/lastmile_qr_scan"}, "fusion_lon": 0.0, "type": "electric_scooter", "bike_id": "b8cd3be31df23a2daa7802570fa085cd", "name": "b8cd3be31df23a2daa7802570fa085cd"}, {"lon": -76.99745716666666, "is_disabled": 0, "lat": 38.901305666666666, "fusion_lat": 0.0, "is_reserved": 0, "rental_uris": {"ios": "https://dc.lft.to/lastmile_qr_scan", "android": "https://dc.lft.to/lastmile_qr_scan"}, "fusion_lon": 0.0, "type": "electric_scooter", "bike_id": "ef9052becca3baa4e8f06e11e809d241", "name": "ef9052becca3baa4e8f06e11e809d241"}, {"lon": -77.04151683333333, "is_disabled": 0, "lat": 38.90657266666667, "fusion_lat": 0.0, "is_reserved": 0, "rental_uris": {"ios": "https://dc.lft.to/lastmile_qr_scan", "android": "https://dc.lft.to/lastmile_qr_scan"}, "fusion_lon": 0.0, "type": "electric_scooter", "bike_id": "f50a4c286af542de30d3778fb9cc49af", "name": "f50a4c286af542de30d3778fb9cc49af"}, {"lon": -76.996364, "is_disabled": 0, "lat": 38.90064816666667, "fusion_lat": 0.0, "is_reserved": 0, "rental_uris": {"ios": "https://dc.lft.to/lastmile_qr_scan", "android": "https://dc.lft.to/lastmile_qr_scan"}, "fusion_lon": 0.0, "type": "electric_scooter", "bike_id": "4cf951e831595ecb461835f28d4dfe99", "name": "4cf951e831595ecb461835f28d4dfe99"}, {"lon": -77.03228566666667, "is_disabled": 0, "lat": 38.9052265, "fusion_lat": 0.0, "is_reserved": 0, "rental_uris": {"ios": "https://dc.lft.to/lastmile_qr_scan", "android": "https://dc.lft.to/lastmile_qr_scan"}, "fusion_lon": 0.0, "type": "electric_scooter", "bike_id": "c2c1918226b6deb899a76596cb2017c6", "name": "c2c1918226b6deb899a76596cb2017c6"}, {"lon": -77.00890433333333, "is_disabled": 0, "lat": 38.9232745, "fusion_lat": 0.0, "is_reserved": 0, "rental_uris": {"ios": "https://dc.lft.to/lastmile_qr_scan", "android": "https://dc.lft.to/lastmile_qr_scan"}, "fusion_lon": 0.0, "type": "electric_scooter", "bike_id": "b8fff3c4111f5ed28c0f763b1e58db8e", "name": "b8fff3c4111f5ed28c0f763b1e58db8e"}, {"lon": -77.03208833333333, "is_disabled": 0, "lat": 38.91854816666667, "fusion_lat": 0.0, "is_reserved": 0, "rental_uris": {"ios": "https://dc.lft.to/lastmile_qr_scan", "android": "https://dc.lft.to/lastmile_qr_scan"}, "fusion_lon": 0.0, "type": "electric_scooter", "bike_id": "49bdc5c50fa3d7e7220b70f3ca435aa6", "name": "49bdc5c50fa3d7e7220b70f3ca435aa6"}, {"lon": -77.00735766666666, "is_disabled": 0, "lat": 38.88494133333333, "fusion_lat": 0.0, "is_reserved": 0, "rental_uris": {"ios": "https://dc.lft.to/lastmile_qr_scan", "android": "https://dc.lft.to/lastmile_qr_scan"}, "fusion_lon": 0.0, "type": "electric_scooter", "bike_id": "faa9692a3ca2544f72ea817953f00b42", "name": "faa9692a3ca2544f72ea817953f00b42"}, {"lon": -77.032353, "is_disabled": 0, "lat": 38.91251066666667, "fusion_lat": 0.0, "is_reserved": 0, "rental_uris": {"ios": "https://dc.lft.to/lastmile_qr_scan", "android": "https://dc.lft.to/lastmile_qr_scan"}, "fusion_lon": 0.0, "type": "electric_scooter", "bike_id": "671696e718f49c98cb364fac0f8f0e63", "name": "671696e718f49c98cb364fac0f8f0e63"}, {"lon": -76.98710183333333, "is_disabled": 0, "lat": 38.86722183333333, "fusion_lat": 0.0, "is_reserved": 0, "rental_uris": {"ios": "https://dc.lft.to/lastmile_qr_scan", "android": "https://dc.lft.to/lastmile_qr_scan"}, "fusion_lon": 0.0, "type": "electric_scooter", "bike_id": "18620489cab1f9743b16f3ce2f4004f6", "name": "18620489cab1f9743b16f3ce2f4004f6"}, {"lon": -77.003085, "is_disabled": 0, "lat": 38.92033983333334, "fusion_lat": 0.0, "is_reserved": 0, "rental_uris": {"ios": "https://dc.lft.to/lastmile_qr_scan", "android": "https://dc.lft.to/lastmile_qr_scan"}, "fusion_lon": 0.0, "type": "electric_scooter", "bike_id": "8b46a701a0d8ba5de15a336503fed1c2", "name": "8b46a701a0d8ba5de15a336503fed1c2"}, {"lon": -77.14062966666667, "is_disabled": 0, "lat": 38.98767566666667, "fusion_lat": 0.0, "is_reserved": 0, "rental_uris": {"ios": "https://dc.lft.to/lastmile_qr_scan", "android": "https://dc.lft.to/lastmile_qr_scan"}, "fusion_lon": 0.0, "type": "electric_bike", "bike_id": "44ffe3f088ee3b1ba2b0a85635f51410", "name": "44ffe3f088ee3b1ba2b0a85635f51410"}, {"lon": -77.04488616666667, "is_disabled": 0, "lat": 38.903750333333335, "fusion_lat": 0.0, "is_reserved": 0, "rental_uris": {"ios": "https://dc.lft.to/lastmile_qr_scan", "android": "https://dc.lft.to/lastmile_qr_scan"}, "fusion_lon": 0.0, "type": "electric_scooter", "bike_id": "3722386272ba8f1e55e72b0eec5289e4", "name": "3722386272ba8f1e55e72b0eec5289e4"}, {"lon": -77.02619966666667, "is_disabled": 0, "lat": 38.91414316666667, "fusion_lat": 0.0, "is_reserved": 0, "rental_uris": {"ios": "https://dc.lft.to/lastmile_qr_scan", "android": "https://dc.lft.to/lastmile_qr_scan"}, "fusion_lon": 0.0, "type": "electric_scooter", "bike_id": "ab30d9f8c8ae9922796a72c15da55815", "name": "ab30d9f8c8ae9922796a72c15da55815"}, {"lon": -77.02295516666666, "is_disabled": 0, "lat": 38.915968, "fusion_lat": 0.0, "is_reserved": 0, "rental_uris": {"ios": "https://dc.lft.to/lastmile_qr_scan", "android": "https://dc.lft.to/lastmile_qr_scan"}, "fusion_lon": 0.0, "type": "electric_scooter", "bike_id": "20ecda6637f3c015515182f2de4d9383", "name": "20ecda6637f3c015515182f2de4d9383"}, {"lon": -77.04838516666666, "is_disabled": 0, "lat": 38.89840366666667, "fusion_lat": 0.0, "is_reserved": 0, "rental_uris": {"ios": "https://dc.lft.to/lastmile_qr_scan", "android": "https://dc.lft.to/lastmile_qr_scan"}, "fusion_lon": 0.0, "type": "electric_scooter", "bike_id": "706a71babeedc3c8e7860cb1810b6857", "name": "706a71babeedc3c8e7860cb1810b6857"}, {"lon": -77.0639925, "is_disabled": 0, "lat": 38.94419883333333, "fusion_lat": 0.0, "is_reserved": 0, "rental_uris": {"ios": "https://dc.lft.to/lastmile_qr_scan", "android": "https://dc.lft.to/lastmile_qr_scan"}, "fusion_lon": 0.0, "type": "electric_scooter", "bike_id": "37fa6454440ae953235a34b64973c64d", "name": "37fa6454440ae953235a34b64973c64d"}, {"lon": -77.00070116666667, "is_disabled": 0, "lat": 38.900375833333335, "fusion_lat": 0.0, "is_reserved": 0, "rental_uris": {"ios": "https://dc.lft.to/lastmile_qr_scan", "android": "https://dc.lft.to/lastmile_qr_scan"}, "fusion_lon": 0.0, "type": "electric_scooter", "bike_id": "6622465a6d506d820a46aade8d8de820", "name": "6622465a6d506d820a46aade8d8de820"}, {"lon": -77.0065375, "is_disabled": 0, "lat": 38.9009895, "fusion_lat": 0.0, "is_reserved": 0, "rental_uris": {"ios": "https://dc.lft.to/lastmile_qr_scan", "android": "https://dc.lft.to/lastmile_qr_scan"}, "fusion_lon": 0.0, "type": "electric_scooter", "bike_id": "cdaa3af31f4fbd4b196b800e9173220e", "name": "cdaa3af31f4fbd4b196b800e9173220e"}, {"lon": -77.02982416666667, "is_disabled": 0, "lat": 38.917224166666664, "fusion_lat": 0.0, "is_reserved": 0, "rental_uris": {"ios": "https://dc.lft.to/lastmile_qr_scan", "android": "https://dc.lft.to/lastmile_qr_scan"}, "fusion_lon": 0.0, "type": "electric_scooter", "bike_id": "1614e2e84e8d5bef3ebfc282b38bc4b8", "name": "1614e2e84e8d5bef3ebfc282b38bc4b8"}, {"lon": -77.08100933333333, "is_disabled": 0, "lat": 38.9509305, "fusion_lat": 0.0, "is_reserved": 0, "rental_uris": {"ios": "https://dc.lft.to/lastmile_qr_scan", "android": "https://dc.lft.to/lastmile_qr_scan"}, "fusion_lon": 0.0, "type": "electric_bike", "bike_id": "352adb5608df1aa93db5b7ec226be682", "name": "352adb5608df1aa93db5b7ec226be682"}, {"lon": -77.0606075, "is_disabled": 0, "lat": 38.93919433333333, "fusion_lat": 0.0, "is_reserved": 0, "rental_uris": {"ios": "https://dc.lft.to/lastmile_qr_scan", "android": "https://dc.lft.to/lastmile_qr_scan"}, "fusion_lon": 0.0, "type": "electric_scooter", "bike_id": "b1676132f36f905046a4b6a6c9872aa7", "name": "b1676132f36f905046a4b6a6c9872aa7"}, {"lon": -77.034182, "is_disabled": 0, "lat": 38.91112833333333, "fusion_lat": 0.0, "is_reserved": 0, "rental_uris": {"ios": "https://dc.lft.to/lastmile_qr_scan", "android": "https://dc.lft.to/lastmile_qr_scan"}, "fusion_lon": 0.0, "type": "electric_scooter", "bike_id": "db868acbf8c271ef49a8f36149176f75", "name": "db868acbf8c271ef49a8f36149176f75"}, {"lon": -77.0286595, "is_disabled": 0, "lat": 39.03702033333333, "fusion_lat": 0.0, "is_reserved": 0, "rental_uris": {"ios": "https://dc.lft.to/lastmile_qr_scan", "android": "https://dc.lft.to/lastmile_qr_scan"}, "fusion_lon": 0.0, "type": "electric_bike", "bike_id": "b6180d3b309179983ed8dfd34b35b80d", "name": "b6180d3b309179983ed8dfd34b35b80d"}, {"lon": -76.98794233333334, "is_disabled": 0, "lat": 38.91239483333333, "fusion_lat": 0.0, "is_reserved": 0, "rental_uris": {"ios": "https://dc.lft.to/lastmile_qr_scan", "android": "https://dc.lft.to/lastmile_qr_scan"}, "fusion_lon": 0.0, "type": "electric_scooter", "bike_id": "d7fb29b75e29e6bab52254e912f86c56", "name": "d7fb29b75e29e6bab52254e912f86c56"}, {"lon": -77.05215683333333, "is_disabled": 0, "lat": 38.924803833333335, "fusion_lat": 0.0, "is_reserved": 0, "rental_uris": {"ios": "https://dc.lft.to/lastmile_qr_scan", "android": "https://dc.lft.to/lastmile_qr_scan"}, "fusion_lon": 0.0, "type": "electric_scooter", "bike_id": "c630c3f3f3f49241d94b808defe4781b", "name": "c630c3f3f3f49241d94b808defe4781b"}, {"lon": -77.00587466666667, "is_disabled": 0, "lat": 38.875692, "fusion_lat": 0.0, "is_reserved": 0, "rental_uris": {"ios": "https://dc.lft.to/lastmile_qr_scan", "android": "https://dc.lft.to/lastmile_qr_scan"}, "fusion_lon": 0.0, "type": "electric_scooter", "bike_id": "cb17af737148201008b849ad5ed5bfd6", "name": "cb17af737148201008b849ad5ed5bfd6"}, {"lon": -77.02749066666667, "is_disabled": 0, "lat": 38.897267666666664, "fusion_lat": 0.0, "is_reserved": 0, "rental_uris": {"ios": "https://dc.lft.to/lastmile_qr_scan", "android": "https://dc.lft.to/lastmile_qr_scan"}, "fusion_lon": 0.0, "type": "electric_scooter", "bike_id": "856c7a2a361479968e5cf8ee2786a822", "name": "856c7a2a361479968e5cf8ee2786a822"}, {"lon": -77.03854533333333, "is_disabled": 0, "lat": 38.9128315, "fusion_lat": 0.0, "is_reserved": 0, "rental_uris": {"ios": "https://dc.lft.to/lastmile_qr_scan", "android": "https://dc.lft.to/lastmile_qr_scan"}, "fusion_lon": 0.0, "type": "electric_scooter", "bike_id": "870c39839fc8639134aa5f988d0026be", "name": "870c39839fc8639134aa5f988d0026be"}, {"lon": -76.9559065, "is_disabled": 0, "lat": 38.887644333333334, "fusion_lat": 0.0, "is_reserved": 0, "rental_uris": {"ios": "https://dc.lft.to/lastmile_qr_scan", "android": "https://dc.lft.to/lastmile_qr_scan"}, "fusion_lon": 0.0, "type": "electric_scooter", "bike_id": "cece74a60bc2bf39a08f2b10c2aac45d", "name": "cece74a60bc2bf39a08f2b10c2aac45d"}, {"lon": -77.03286416666667, "is_disabled": 0, "lat": 38.919696333333334, "fusion_lat": 0.0, "is_reserved": 0, "rental_uris": {"ios": "https://dc.lft.to/lastmile_qr_scan", "android": "https://dc.lft.to/lastmile_qr_scan"}, "fusion_lon": 0.0, "type": "electric_scooter", "bike_id": "a87273b505b37a363e53b6c2567d63ef", "name": "a87273b505b37a363e53b6c2567d63ef"}, {"lon": -77.02608133333334, "is_disabled": 0, "lat": 38.91716183333333, "fusion_lat": 0.0, "is_reserved": 0, "rental_uris": {"ios": "https://dc.lft.to/lastmile_qr_scan", "android": "https://dc.lft.to/lastmile_qr_scan"}, "fusion_lon": 0.0, "type": "electric_scooter", "bike_id": "1c21c82095209f13d9d635bdcedb38c8", "name": "1c21c82095209f13d9d635bdcedb38c8"}, {"lon": -77.036459, "is_disabled": 0, "lat": 38.91746533333333, "fusion_lat": 0.0, "is_reserved": 0, "rental_uris": {"ios": "https://dc.lft.to/lastmile_qr_scan", "android": "https://dc.lft.to/lastmile_qr_scan"}, "fusion_lon": 0.0, "type": "electric_scooter", "bike_id": "86cec940e011882eb74d1c1265633034", "name": "86cec940e011882eb74d1c1265633034"}, {"lon": -77.00397716666667, "is_disabled": 0, "lat": 38.905845166666666, "fusion_lat": 0.0, "is_reserved": 0, "rental_uris": {"ios": "https://dc.lft.to/lastmile_qr_scan", "android": "https://dc.lft.to/lastmile_qr_scan"}, "fusion_lon": 0.0, "type": "electric_scooter", "bike_id": "5b2fb387cea401f4ddf399a540a81cb8", "name": "5b2fb387cea401f4ddf399a540a81cb8"}, {"lon": -77.04877066666667, "is_disabled": 0, "lat": 38.90095016666667, "fusion_lat": 0.0, "is_reserved": 0, "rental_uris": {"ios": "https://dc.lft.to/lastmile_qr_scan", "android": "https://dc.lft.to/lastmile_qr_scan"}, "fusion_lon": 0.0, "type": "electric_scooter", "bike_id": "cd433777935fdcc26b2885b85cdbb2ef", "name": "cd433777935fdcc26b2885b85cdbb2ef"}, {"lon": -76.98720483333334, "is_disabled": 0, "lat": 38.866263000000004, "fusion_lat": 0.0, "is_reserved": 0, "rental_uris": {"ios": "https://dc.lft.to/lastmile_qr_scan", "android": "https://dc.lft.to/lastmile_qr_scan"}, "fusion_lon": 0.0, "type": "electric_scooter", "bike_id": "3120868bca5990ded839c3796ec3b93e", "name": "3120868bca5990ded839c3796ec3b93e"}, {"lon": -77.08938316666666, "is_disabled": 0, "lat": 38.887846, "fusion_lat": 0.0, "is_reserved": 0, "rental_uris": {"ios": "https://dc.lft.to/lastmile_qr_scan", "android": "https://dc.lft.to/lastmile_qr_scan"}, "fusion_lon": 0.0, "type": "electric_bike", "bike_id": "8bed204e2687dfebf454e00e4a008df3", "name": "8bed204e2687dfebf454e00e4a008df3"}, {"lon": -77.024676, "is_disabled": 0, "lat": 38.898374833333335, "fusion_lat": 0.0, "is_reserved": 0, "rental_uris": {"ios": "https://dc.lft.to/lastmile_qr_scan", "android": "https://dc.lft.to/lastmile_qr_scan"}, "fusion_lon": 0.0, "type": "electric_scooter", "bike_id": "22727aab86645cfe3145ff588ef03858", "name": "22727aab86645cfe3145ff588ef03858"}, {"lon": -77.02565166666666, "is_disabled": 0, "lat": 38.9969025, "fusion_lat": 0.0, "is_reserved": 0, "rental_uris": {"ios": "https://dc.lft.to/lastmile_qr_scan", "android": "https://dc.lft.to/lastmile_qr_scan"}, "fusion_lon": 0.0, "type": "electric_bike", "bike_id": "e33d3eb8e55ffca90361c5d48e43c5ec", "name": "e33d3eb8e55ffca90361c5d48e43c5ec"}, {"lon": -77.07102283333333, "is_disabled": 0, "lat": 38.896667, "fusion_lat": 0.0, "is_reserved": 0, "rental_uris": {"ios": "https://dc.lft.to/lastmile_qr_scan", "android": "https://dc.lft.to/lastmile_qr_scan"}, "fusion_lon": 0.0, "type": "electric_scooter", "bike_id": "3b9d423aa20f2b6813a04ecff3995673", "name": "3b9d423aa20f2b6813a04ecff3995673"}, {"lon": -77.04004, "is_disabled": 0, "lat": 38.934228166666664, "fusion_lat": 0.0, "is_reserved": 0, "rental_uris": {"ios": "https://dc.lft.to/lastmile_qr_scan", "android": "https://dc.lft.to/lastmile_qr_scan"}, "fusion_lon": 0.0, "type": "electric_scooter", "bike_id": "d12842943721c722cf7e6b28e2b6acf2", "name": "d12842943721c722cf7e6b28e2b6acf2"}, {"lon": -77.00339783333334, "is_disabled": 0, "lat": 38.89357, "fusion_lat": 0.0, "is_reserved": 0, "rental_uris": {"ios": "https://dc.lft.to/lastmile_qr_scan", "android": "https://dc.lft.to/lastmile_qr_scan"}, "fusion_lon": 0.0, "type": "electric_scooter", "bike_id": "5d51ec82c1371d7d58a235990d60fecf", "name": "5d51ec82c1371d7d58a235990d60fecf"}, {"lon": -77.039917, "is_disabled": 0, "lat": 38.89222766666666, "fusion_lat": 0.0, "is_reserved": 0, "rental_uris": {"ios": "https://dc.lft.to/lastmile_qr_scan", "android": "https://dc.lft.to/lastmile_qr_scan"}, "fusion_lon": 0.0, "type": "electric_scooter", "bike_id": "1056c0883add4f5be114ab9008078564", "name": "1056c0883add4f5be114ab9008078564"}, {"lon": -77.02203483333334, "is_disabled": 0, "lat": 38.950114166666665, "fusion_lat": 0.0, "is_reserved": 0, "rental_uris": {"ios": "https://dc.lft.to/lastmile_qr_scan", "android": "https://dc.lft.to/lastmile_qr_scan"}, "fusion_lon": 0.0, "type": "electric_scooter", "bike_id": "4410aa7022de0d66502c44be7cc822ab", "name": "4410aa7022de0d66502c44be7cc822ab"}, {"lon": -77.04371683333333, "is_disabled": 0, "lat": 38.892221166666666, "fusion_lat": 0.0, "is_reserved": 0, "rental_uris": {"ios": "https://dc.lft.to/lastmile_qr_scan", "android": "https://dc.lft.to/lastmile_qr_scan"}, "fusion_lon": 0.0, "type": "electric_scooter", "bike_id": "014323e71aa8e44e86b6159e5f98bc7c", "name": "014323e71aa8e44e86b6159e5f98bc7c"}, {"lon": -77.0502795, "is_disabled": 0, "lat": 38.8924805, "fusion_lat": 0.0, "is_reserved": 0, "rental_uris": {"ios": "https://dc.lft.to/lastmile_qr_scan", "android": "https://dc.lft.to/lastmile_qr_scan"}, "fusion_lon": 0.0, "type": "electric_scooter", "bike_id": "6a85e2ffed7043ceb025bc69c5c5222b", "name": "6a85e2ffed7043ceb025bc69c5c5222b"}, {"lon": -77.021109, "is_disabled": 0, "lat": 38.92179483333334, "fusion_lat": 0.0, "is_reserved": 0, "rental_uris": {"ios": "https://dc.lft.to/lastmile_qr_scan", "android": "https://dc.lft.to/lastmile_qr_scan"}, "fusion_lon": 0.0, "type": "electric_scooter", "bike_id": "2ca29c7fa49982372ab0f537418060d1", "name": "2ca29c7fa49982372ab0f537418060d1"}, {"lon": -76.97910166666666, "is_disabled": 0, "lat": 38.90426583333333, "fusion_lat": 0.0, "is_reserved": 0, "rental_uris": {"ios": "https://dc.lft.to/lastmile_qr_scan", "android": "https://dc.lft.to/lastmile_qr_scan"}, "fusion_lon": 0.0, "type": "electric_scooter", "bike_id": "7069c06abf2b1ed046b5f41f604c59a0", "name": "7069c06abf2b1ed046b5f41f604c59a0"}, {"lon": -77.07060166666666, "is_disabled": 0, "lat": 38.901056, "fusion_lat": 0.0, "is_reserved": 0, "rental_uris": {"ios": "https://dc.lft.to/lastmile_qr_scan", "android": "https://dc.lft.to/lastmile_qr_scan"}, "fusion_lon": 0.0, "type": "electric_scooter", "bike_id": "293a759c6088134b93dcb77f07592ed4", "name": "293a759c6088134b93dcb77f07592ed4"}, {"lon": -76.94636466666667, "is_disabled": 0, "lat": 38.898644833333336, "fusion_lat": 0.0, "is_reserved": 0, "rental_uris": {"ios": "https://dc.lft.to/lastmile_qr_scan", "android": "https://dc.lft.to/lastmile_qr_scan"}, "fusion_lon": 0.0, "type": "electric_scooter", "bike_id": "86532fd8c9cb435820f927586aff4158", "name": "86532fd8c9cb435820f927586aff4158"}, {"lon": -77.03523916666667, "is_disabled": 0, "lat": 38.92171033333333, "fusion_lat": 0.0, "is_reserved": 0, "rental_uris": {"ios": "https://dc.lft.to/lastmile_qr_scan", "android": "https://dc.lft.to/lastmile_qr_scan"}, "fusion_lon": 0.0, "type": "electric_scooter", "bike_id": "249b5d380ed25d8c10de012783c812ab", "name": "249b5d380ed25d8c10de012783c812ab"}, {"lon": -77.03353666666666, "is_disabled": 0, "lat": 38.902923, "fusion_lat": 0.0, "is_reserved": 0, "rental_uris": {"ios": "https://dc.lft.to/lastmile_qr_scan", "android": "https://dc.lft.to/lastmile_qr_scan"}, "fusion_lon": 0.0, "type": "electric_scooter", "bike_id": "25a4598fa4ee7b2ee3845d298639a080", "name": "25a4598fa4ee7b2ee3845d298639a080"}, {"lon": -77.03908766666666, "is_disabled": 0, "lat": 38.923648166666666, "fusion_lat": 0.0, "is_reserved": 0, "rental_uris": {"ios": "https://dc.lft.to/lastmile_qr_scan", "android": "https://dc.lft.to/lastmile_qr_scan"}, "fusion_lon": 0.0, "type": "electric_scooter", "bike_id": "bb953bd4ff22c3c156829bdd876a4d20", "name": "bb953bd4ff22c3c156829bdd876a4d20"}, {"lon": -77.04482983333334, "is_disabled": 0, "lat": 38.895238, "fusion_lat": 0.0, "is_reserved": 0, "rental_uris": {"ios": "https://dc.lft.to/lastmile_qr_scan", "android": "https://dc.lft.to/lastmile_qr_scan"}, "fusion_lon": 0.0, "type": "electric_scooter", "bike_id": "b76340a03dd3c9329127104ee4f3cb81", "name": "b76340a03dd3c9329127104ee4f3cb81"}, {"lon": -77.02033616666667, "is_disabled": 0, "lat": 38.89541716666667, "fusion_lat": 0.0, "is_reserved": 0, "rental_uris": {"ios": "https://dc.lft.to/lastmile_qr_scan", "android": "https://dc.lft.to/lastmile_qr_scan"}, "fusion_lon": 0.0, "type": "electric_scooter", "bike_id": "3441a77317fee3b8dea46e4bf7edb1ed", "name": "3441a77317fee3b8dea46e4bf7edb1ed"}, {"lon": -77.00478533333333, "is_disabled": 0, "lat": 38.89581616666667, "fusion_lat": 0.0, "is_reserved": 0, "rental_uris": {"ios": "https://dc.lft.to/lastmile_qr_scan", "android": "https://dc.lft.to/lastmile_qr_scan"}, "fusion_lon": 0.0, "type": "electric_scooter", "bike_id": "d7e501812d51623c64bf8528018274b9", "name": "d7e501812d51623c64bf8528018274b9"}, {"lon": -77.0295695, "is_disabled": 0, "lat": 38.91772666666667, "fusion_lat": 0.0, "is_reserved": 0, "rental_uris": {"ios": "https://dc.lft.to/lastmile_qr_scan", "android": "https://dc.lft.to/lastmile_qr_scan"}, "fusion_lon": 0.0, "type": "electric_scooter", "bike_id": "b6c209db1ac157b8bc8b634c0bb700fd", "name": "b6c209db1ac157b8bc8b634c0bb700fd"}, {"lon": -76.990653, "is_disabled": 0, "lat": 38.86372516666667, "fusion_lat": 0.0, "is_reserved": 0, "rental_uris": {"ios": "https://dc.lft.to/lastmile_qr_scan", "android": "https://dc.lft.to/lastmile_qr_scan"}, "fusion_lon": 0.0, "type": "electric_scooter", "bike_id": "3af969b4986cc3d0b22df8177afae9e3", "name": "3af969b4986cc3d0b22df8177afae9e3"}, {"lon": -77.021761, "is_disabled": 0, "lat": 38.9111025, "fusion_lat": 0.0, "is_reserved": 0, "rental_uris": {"ios": "https://dc.lft.to/lastmile_qr_scan", "android": "https://dc.lft.to/lastmile_qr_scan"}, "fusion_lon": 0.0, "type": "electric_scooter", "bike_id": "f1be49aa50a7869e0beeb39ef0ddfd00", "name": "f1be49aa50a7869e0beeb39ef0ddfd00"}, {"lon": -77.03172083333334, "is_disabled": 0, "lat": 38.9155995, "fusion_lat": 0.0, "is_reserved": 0, "rental_uris": {"ios": "https://dc.lft.to/lastmile_qr_scan", "android": "https://dc.lft.to/lastmile_qr_scan"}, "fusion_lon": 0.0, "type": "electric_scooter", "bike_id": "f595930c5c67d211f17fd6e404fa0b99", "name": "f595930c5c67d211f17fd6e404fa0b99"}, {"lon": -77.0198325, "is_disabled": 0, "lat": 38.880362833333336, "fusion_lat": 0.0, "is_reserved": 0, "rental_uris": {"ios": "https://dc.lft.to/lastmile_qr_scan", "android": "https://dc.lft.to/lastmile_qr_scan"}, "fusion_lon": 0.0, "type": "electric_scooter", "bike_id": "059286abac1a4d446325e3bc16592778", "name": "059286abac1a4d446325e3bc16592778"}, {"lon": -77.00580383333333, "is_disabled": 0, "lat": 38.88544, "fusion_lat": 0.0, "is_reserved": 0, "rental_uris": {"ios": "https://dc.lft.to/lastmile_qr_scan", "android": "https://dc.lft.to/lastmile_qr_scan"}, "fusion_lon": 0.0, "type": "electric_scooter", "bike_id": "67c3653420421d346ffe228c31c229e9", "name": "67c3653420421d346ffe228c31c229e9"}, {"lon": -77.03636366666667, "is_disabled": 0, "lat": 38.930608, "fusion_lat": 0.0, "is_reserved": 0, "rental_uris": {"ios": "https://dc.lft.to/lastmile_qr_scan", "android": "https://dc.lft.to/lastmile_qr_scan"}, "fusion_lon": 0.0, "type": "electric_scooter", "bike_id": "0f075ed9609e9f27e59fdc0021390f23", "name": "0f075ed9609e9f27e59fdc0021390f23"},