{"data": {"bikes": [{"is_disabled": 0, "is_reserved": 0, "fusion_lat": 0.0, "lat": 38.8744685, "fusion_lon": 0.0, "rental_uris": {"ios": "https://dc.lft.to/lastmile_qr_scan", "android": "https://dc.lft.to/lastmile_qr_scan"}, "lon": -77.0027965, "bike_id": "4a6e5f6b0a26e4a5f7e2fbce5ceaa65d", "type": "electric_scooter", "name": "4a6e5f6b0a26e4a5f7e2fbce5ceaa65d"}, {"is_disabled": 0, "is_reserved": 0, "fusion_lat": 0.0, "lat": 38.84476683333333, "fusion_lon": 0.0, "rental_uris": {"ios": "https://dc.lft.to/lastmile_qr_scan", "android": "https://dc.lft.to/lastmile_qr_scan"}, "lon": -76.9958825, "bike_id": "a59c831470c4ce2637adc0ad0b47e902", "type": "electric_bike", "name": "a59c831470c4ce2637adc0ad0b47e902"}, {"is_disabled": 0, "is_reserved": 0, "fusion_lat": 0.0, "lat": 38.91812066666667, "fusion_lon": 0.0, "rental_uris": {"ios": "https://dc.lft.to/lastmile_qr_scan", "android": "https://dc.lft.to/lastmile_qr_scan"}, "lon": -77.0346805, "bike_id": "5b1b4e385d3669fda133f5251c179eb9", "type": "electric_scooter", "name": "5b1b4e385d3669fda133f5251c179eb9"}, {"is_disabled": 0, "is_reserved": 0, "fusion_lat": 0.0, "lat": 38.938782333333336, "fusion_lon": 0.0, "rental_uris": {"ios": "https://dc.lft.to/lastmile_qr_scan", "android": "https://dc.lft.to/lastmile_qr_scan"}, "lon": -77.02915083333333, "bike_id": "5623799f8ba85aef655d8663a77087e7", "type": "electric_scooter", "name": "5623799f8ba85aef655d8663a77087e7"}, {"is_disabled": 0, "is_reserved": 0, "fusion_lat": 0.0, "lat": 38.87697216666667, "fusion_lon": 0.0, "rental_uris": {"ios": "https://dc.lft.to/lastmile_qr_scan", "android": "https://dc.lft.to/lastmile_qr_scan"}, "lon": -76.9962025, "bike_id": "12cb80648d6dd8d4450447c31bfefa49", "type": "electric_scooter", "name": "12cb80648d6dd8d4450447c31bfefa49"}, {"is_disabled": 0, "is_reserved": 0, "fusion_lat": 0.0, "lat": 38.898611833333334, "fusion_lon": 0.0, "rental_uris": {"ios": "https://dc.lft.to/lastmile_qr_scan", "android": "https://dc.lft.to/lastmile_qr_scan"}, "lon": -77.02290166666667, "bike_id": "c3dcb5f11884bc18e5e177ce375db89b", "type": "electric_scooter", "name": "c3dcb5f11884bc18e5e177ce375db89b"}, {"is_disabled": 0, "is_reserved": 0, "fusion_lat": 0.0, "lat": 38.91366466666667, "fusion_lon": 0.0, "rental_uris": {"ios": "https://dc.lft.to/lastmile_qr_scan", "android": "https://dc.lft.to/lastmile_qr_scan"}, "lon": -77.01565833333333, "bike_id": "77623ad4546064a0b8dd98e0a87920ca", "type": "electric_scooter", "name": "77623ad4546064a0b8dd98e0a87920ca"}, {"is_disabled": 0, "is_reserved": 0, "fusion_lat": 0.0, "lat": 38.93290783333333, "fusion_lon": 0.0, "rental_uris": {"ios": "https://dc.lft.to/lastmile_qr_scan", "android": "https://dc.lft.to/lastmile_qr_scan"}, "lon": -77.02447083333334, "bike_id": "92a5ddb14d95b7667d55f0bf16b73a8e", "type": "electric_scooter", "name": "92a5ddb14d95b7667d55f0bf16b73a8e"}, {"is_disabled": 0, "is_reserved": 0, "fusion_lat": 0.0, "lat": 38.84644483333334, "fusion_lon": 0.0, "rental_uris": {"ios": "https://dc.lft.to/lastmile_qr_scan", "android": "https://dc.lft.to/lastmile_qr_scan"}, "lon": -77.00368316666666, "bike_id": "df1a791d2666aeb65fbd390724a7c61a", "type": "electric_scooter", "name": "df1a791d2666aeb65fbd390724a7c61a"}, {"is_disabled": 0, "is_reserved": 0, "fusion_lat": 0.0, "lat": 38.880242833333334, "fusion_lon": 0.0, "rental_uris": {"ios": "https://dc.lft.to/lastmile_qr_scan", "android": "https://dc.lft.to/lastmile_qr_scan"}, "lon": -76.9432015, "bike_id": "77867199baf643840d170f4eb15246ac", "type": "electric_scooter", "name": "77867199baf643840d170f4eb15246ac"}, {"is_disabled": 0, "is_reserved": 0, "fusion_lat": 0.0, "lat": 38.846161333333335, "fusion_lon": 0.0, "rental_uris": {"ios": "https://dc.lft.to/lastmile_qr_scan", "android": "https://dc.lft.to/lastmile_qr_scan"}, "lon": -76.97834966666667, "bike_id": "cf835e1699c541283835193005e69fe2", "type": "electric_bike", "name": "cf835e1699c541283835193005e69fe2"}, {"is_disabled": 0, "is_reserved": 0, "fusion_lat": 0.0, "lat": 38.900525333333334, "fusion_lon": 0.0, "rental_uris": {"ios": "https://dc.lft.to/lastmile_qr_scan", "android": "https://dc.lft.to/lastmile_qr_scan"}, "lon": -77.02607616666667, "bike_id": "af5391752338d101462d83fc4ad9131f", "type": "electric_scooter", "name": "af5391752338d101462d83fc4ad9131f"}, {"is_disabled": 0, "is_reserved": 0, "fusion_lat": 0.0, "lat": 38.90242383333333, "fusion_lon": 0.0, "rental_uris": {"ios": "https://dc.lft.to/lastmile_qr_scan", "android": "https://dc.lft.to/lastmile_qr_scan"}, "lon": -77.03453066666667, "bike_id": "c4f94e78dd453c65ef56c00d2b4ae381", "type": "electric_scooter", "name": "c4f94e78dd453c65ef56c00d2b4ae381"}, {"is_disabled": 0, "is_reserved": 0, "fusion_lat": 0.0, "lat": 38.90382133333333, "fusion_lon": 0.0, "rental_uris": {"ios": "https://dc.lft.to/lastmile_qr_scan", "android": "https://dc.lft.to/lastmile_qr_scan"}, "lon": -76.98079716666666, "bike_id": "571680673121bc761c7d13c6f80c81cf", "type": "electric_scooter", "name": "571680673121bc761c7d13c6f80c81cf"}, {"is_disabled": 0, "is_reserved": 0, "fusion_lat": 0.0, "lat": 38.9046415, "fusion_lon": 0.0, "rental_uris": {"ios": "https://dc.lft.to/lastmile_qr_scan", "android": "https://dc.lft.to/lastmile_qr_scan"}, "lon": -77.06268066666667, "bike_id": "34b3a9e3ffd9bbadd973a4b5fc63009d", "type": "electric_scooter", "name": "34b3a9e3ffd9bbadd973a4b5fc63009d"}, {"is_disabled": 0, "is_reserved": 0, "fusion_lat": 0.0, "lat": 38.925020333333336, "fusion_lon": 0.0, "rental_uris": {"ios": "https://dc.lft.to/lastmile_qr_scan", "android": "https://dc.lft.to/lastmile_qr_scan"}, "lon": -77.04339283333333, "bike_id": "df64555ae10c353883d61e5f1c660baa", "type": "electric_scooter", "name": "df64555ae10c353883d61e5f1c660baa"}, {"is_disabled": 0, "is_reserved": 0, "fusion_lat": 0.0, "lat": 38.88109983333333, "fusion_lon": 0.0, "rental_uris": {"ios": "https://dc.lft.to/lastmile_qr_scan", "android": "https://dc.lft.to/lastmile_qr_scan"}, "lon": -77.026371, "bike_id": "184806e0741d389befdaf33d04aa3d95", "type": "electric_scooter", "name": "184806e0741d389befdaf33d04aa3d95"}, {"is_disabled": 0, "is_reserved": 0, "fusion_lat": 0.0, "lat": 38.925673833333335, "fusion_lon": 0.0, "rental_uris": {"ios": "https://dc.lft.to/lastmile_qr_scan", "android": "https://dc.lft.to/lastmile_qr_scan"}, "lon": -76.99484183333334, "bike_id": "b2fbd5efd5e740190d7c5c148f77bc50", "type": "electric_scooter", "name": "b2fbd5efd5e740190d7c5c148f77bc50"}, {"is_disabled": 0, "is_reserved": 0, "fusion_lat": 0.0, "lat": 38.9306205, "fusion_lon": 0.0, "rental_uris": {"ios": "https://dc.lft.to/lastmile_qr_scan", "android": "https://dc.lft.to/lastmile_qr_scan"}, "lon": -77.03816366666666, "bike_id": "1e1b529e531c1f7adb90e3b03261e1ea", "type": "electric_scooter", "name": "1e1b529e531c1f7adb90e3b03261e1ea"}, {"is_disabled": 0, "is_reserved": 0, "fusion_lat": 0.0, "lat": 38.91765983333333, "fusion_lon": 0.0, "rental_uris": {"ios": "https://dc.lft.to/lastmile_qr_scan", "android": "https://dc.lft.to/lastmile_qr_scan"}, "lon": -77.02700966666667, "bike_id": "a67121da7481cc1192696c01b8031822", "type": "electric_scooter", "name": "a67121da7481cc1192696c01b8031822"}, {"is_disabled": 0, "is_reserved": 0, "fusion_lat": 0.0, "lat": 38.9270295, "fusion_lon": 0.0, "rental_uris": {"ios": "https://dc.lft.to/lastmile_qr_scan", "android": "https://dc.lft.to/lastmile_qr_scan"}, "lon": -76.96078433333334, "bike_id": "c690cb7f26ed56f210b63dd357dbe5bf", "type": "electric_scooter", "name": "c690cb7f26ed56f210b63dd357dbe5bf"}, {"is_disabled": 0, "is_reserved": 0, "fusion_lat": 0.0, "lat": 38.897767333333334, "fusion_lon": 0.0, "rental_uris": {"ios": "https://dc.lft.to/lastmile_qr_scan", "android": "https://dc.lft.to/lastmile_qr_scan"}, "lon": -77.05024583333334, "bike_id": "0e89d891ce484527153e05af24dda0ba", "type": "electric_scooter", "name": "0e89d891ce484527153e05af24dda0ba"}, {"is_disabled": 0, "is_reserved": 0, "fusion_lat": 0.0, "lat": 38.87265333333333, "fusion_lon": 0.0, "rental_uris": {"ios": "https://dc.lft.to/lastmile_qr_scan", "android": "https://dc.lft.to/lastmile_qr_scan"}, "lon": -77.01690916666666, "bike_id": "78c970e9727a77fa89d338b0268e9db4", "type": "electric_scooter", "name": "78c970e9727a77fa89d338b0268e9db4"}, {"is_disabled": 0, "is_reserved": 0, "fusion_lat": 0.0, "lat": 38.88119483333333, "fusion_lon": 0.0, "rental_uris": {"ios": "https://dc.lft.to/lastmile_qr_scan", "android": "https://dc.lft.to/lastmile_qr_scan"}, "lon": -76.9928415, "bike_id": "f03531949b41964fc9f6067e659241c7", "type": "electric_scooter", "name": "f03531949b41964fc9f6067e659241c7"}, {"is_disabled": 0, "is_reserved": 0, "fusion_lat": 0.0, "lat": 38.8936945, "fusion_lon": 0.0, "rental_uris": {"ios": "https://dc.lft.to/lastmile_qr_scan", "android": "https://dc.lft.to/lastmile_qr_scan"}, "lon": -77.01149683333334, "bike_id": "a7fdc027a1e19d7a2669958cf14cac59", "type": "electric_scooter", "name": "a7fdc027a1e19d7a2669958cf14cac59"}, {"is_disabled": 0, "is_reserved": 0, "fusion_lat": 0.0, "lat": 38.880396166666664, "fusion_lon": 0.0, "rental_uris": {"ios": "https://dc.lft.to/lastmile_qr_scan", "android": "https://dc.lft.to/lastmile_qr_scan"}, "lon": -76.92725116666666, "bike_id": "3111c3a1575dfcbbfeb36b5e6c611322", "type": "electric_scooter", "name": "3111c3a1575dfcbbfeb36b5e6c611322"}, {"is_disabled": 0, "is_reserved": 0, "fusion_lat": 0.0, "lat": 38.9318935, "fusion_lon": 0.0, "rental_uris": {"ios": "https://dc.lft.to/lastmile_qr_scan", "android": "https://dc.lft.to/lastmile_qr_scan"}, "lon": -77.03266316666667, "bike_id": "0d1c5d2fc0d8a7dcdb8751356fca7791", "type": "electric_scooter", "name": "0d1c5d2fc0d8a7dcdb8751356fca7791"}, {"is_disabled": 0, "is_reserved": 0, "fusion_lat": 0.0, "lat": 38.8706955, "fusion_lon": 0.0, "rental_uris": {"ios": "https://dc.lft.to/lastmile_qr_scan", "android": "https://dc.lft.to/lastmile_qr_scan"}, "lon": -76.9813125, "bike_id": "8864ec85a912fb42064677f6ac27fb22", "type": "electric_scooter", "name": "8864ec85a912fb42064677f6ac27fb22"}, {"is_disabled": 0, "is_reserved": 0, "fusion_lat": 0.0, "lat": 38.88164833333333, "fusion_lon": 0.0, "rental_uris": {"ios": "https://dc.lft.to/lastmile_qr_scan", "android": "https://dc.lft.to/lastmile_qr_scan"}, "lon": -77.027738, "bike_id": "ba352b004ea369d135a6c9121433df21", "type": "electric_scooter", "name": "ba352b004ea369d135a6c9121433df21"}, {"is_disabled": 0, "is_reserved": 0, "fusion_lat": 0.0, "lat": 38.92240483333333, "fusion_lon": 0.0, "rental_uris": {"ios": "https://dc.lft.to/lastmile_qr_scan", "android": "https://dc.lft.to/lastmile_qr_scan"}, "lon": -77.046345, "bike_id": "eecbd8303a06586f9c0838a426fe7465", "type": "electric_scooter", "name": "eecbd8303a06586f9c0838a426fe7465"}, {"is_disabled": 0, "is_reserved": 0, "fusion_lat": 0.0, "lat": 38.880773166666664, "fusion_lon": 0.0, "rental_uris": {"ios": "https://dc.lft.to/lastmile_qr_scan", "android": "https://dc.lft.to/lastmile_qr_scan"}, "lon": -77.02591083333333, "bike_id": "380d0ddc56611b2db09e86ac66504080", "type": "electric_scooter", "name": "380d0ddc56611b2db09e86ac66504080"}, {"is_disabled": 0, "is_reserved": 0, "fusion_lat": 0.0, "lat": 38.916827833333336, "fusion_lon": 0.0, "rental_uris": {"ios": "https://dc.lft.to/lastmile_qr_scan", "android": "https://dc.lft.to/lastmile_qr_scan"}, "lon": -77.02558883333333, "bike_id": "77f38658e4026db4000d4fb80d180988", "type": "electric_scooter", "name": "77f38658e4026db4000d4fb80d180988"}, {"is_disabled": 0, "is_reserved": 0, "fusion_lat": 0.0, "lat": 38.91555916666667, "fusion_lon": 0.0, "rental_uris": {"ios": "https://dc.lft.to/lastmile_qr_scan", "android": "https://dc.lft.to/lastmile_qr_scan"}, "lon": -77.02142983333333, "bike_id": "ade9a999a8c6253ddedfb634f6f5987d", "type": "electric_scooter", "name": "ade9a999a8c6253ddedfb634f6f5987d"}, {"is_disabled": 0, "is_reserved": 0, "fusion_lat": 0.0, "lat": 38.87578966666667, "fusion_lon": 0.0, "rental_uris": {"ios": "https://dc.lft.to/lastmile_qr_scan", "android": "https://dc.lft.to/lastmile_qr_scan"}, "lon": -77.2340655, "bike_id": "d9975ff40a6557c5de4a7d2d7a6e09d2", "type": "electric_bike", "name": "d9975ff40a6557c5de4a7d2d7a6e09d2"}, {"is_disabled": 0, "is_reserved": 0, "fusion_lat": 0.0, "lat": 38.892285, "fusion_lon": 0.0, "rental_uris": {"ios": "https://dc.lft.to/lastmile_qr_scan", "android": "https://dc.lft.to/lastmile_qr_scan"}, "lon": -77.02381283333334, "bike_id": "60d9ebfbe08d235f44fa54849dda3865", "type": "electric_scooter", "name": "60d9ebfbe08d235f44fa54849dda3865"}, {"is_disabled": 0, "is_reserved": 0, "fusion_lat": 0.0, "lat": 38.89553566666667, "fusion_lon": 0.0, "rental_uris": {"ios": "https://dc.lft.to/lastmile_qr_scan", "android": "https://dc.lft.to/lastmile_qr_scan"}, "lon": -77.01611866666667, "bike_id": "96686b2abab26c4efac86400da660347", "type": "electric_scooter", "name": "96686b2abab26c4efac86400da660347"}, {"is_disabled": 0, "is_reserved": 0, "fusion_lat": 0.0, "lat": 38.8696135, "fusion_lon": 0.0, "rental_uris": {"ios": "https://dc.lft.to/lastmile_qr_scan", "android": "https://dc.lft.to/lastmile_qr_scan"}, "lon": -77.013711, "bike_id": "3aedaffd2839bb59104e2dd58d671ed3", "type": "electric_scooter", "name": "3aedaffd2839bb59104e2dd58d671ed3"}, {"is_disabled": 0, "is_reserved": 0, "fusion_lat": 0.0, "lat": 38.92108566666667, "fusion_lon": 0.0, "rental_uris": {"ios": "https://dc.lft.to/lastmile_qr_scan", "android": "https://dc.lft.to/lastmile_qr_scan"}, "lon": -77.04390583333333, "bike_id": "80fae5db503a32d68f3f06d46bd7715b", "type": "electric_scooter", "name": "80fae5db503a32d68f3f06d46bd7715b"}, {"is_disabled": 0, "is_reserved": 0, "fusion_lat": 0.0, "lat": 38.917277166666665, "fusion_lon": 0.0, "rental_uris": {"ios": "https://dc.lft.to/lastmile_qr_scan", "android": "https://dc.lft.to/lastmile_qr_scan"}, "lon": -77.02502533333333, "bike_id": "def6a9d45aa3cb71bde1defe7048e4ae", "type": "electric_scooter", "name": "def6a9d45aa3cb71bde1defe7048e4ae"}, {"is_disabled": 0, "is_reserved": 0, "fusion_lat": 0.0, "lat": 38.886245333333335, "fusion_lon": 0.0, "rental_uris": {"ios": "https://dc.lft.to/lastmile_qr_scan", "android": "https://dc.lft.to/lastmile_qr_scan"}, "lon": -76.98707116666667, "bike_id": "196290a7c82e6977899b82a29fe64c5d", "type": "electric_scooter", "name": "196290a7c82e6977899b82a29fe64c5d"}, {"is_disabled": 0, "is_reserved": 0, "fusion_lat": 0.0, "lat": 38.92558016666667, "fusion_lon": 0.0, "rental_uris": {"ios": "https://dc.lft.to/lastmile_qr_scan", "android": "https://dc.lft.to/lastmile_qr_scan"}, "lon": -77.02276983333333, "bike_id": "6502a288eaaba3a6d9697ba337c79188", "type": "electric_scooter", "name": "6502a288eaaba3a6d9697ba337c79188"}, {"is_disabled": 0, "is_reserved": 0, "fusion_lat": 0.0, "lat": 38.88382416666666, "fusion_lon": 0.0, "rental_uris": {"ios": "https://dc.lft.to/lastmile_qr_scan", "android": "https://dc.lft.to/lastmile_qr_scan"}, "lon": -77.04604333333333, "bike_id": "06e7c36ebdb556ad0e59f16e38ce5e21", "type": "electric_scooter", "name": "06e7c36ebdb556ad0e59f16e38ce5e21"}, {"is_disabled": 0, "is_reserved": 0, "fusion_lat": 0.0, "lat": 38.905583166666666, "fusion_lon": 0.0, "rental_uris": {"ios": "https://dc.lft.to/lastmile_qr_scan", "android": "https://dc.lft.to/lastmile_qr_scan"}, "lon": -77.0487025, "bike_id": "5829b0bdb5746dad2e9b655d3dcb7a80", "type": "electric_scooter", "name": "5829b0bdb5746dad2e9b655d3dcb7a80"}, {"is_disabled": 0, "is_reserved": 0, "fusion_lat": 0.0, "lat": 38.90718666666667, "fusion_lon": 0.0, "rental_uris": {"ios": "https://dc.lft.to/lastmile_qr_scan", "android": "https://dc.lft.to/lastmile_qr_scan"}, "lon": -77.0335305, "bike_id": "92297ebd1e7e5e8f4077fe454090ccca", "type": "electric_scooter", "name": "92297ebd1e7e5e8f4077fe454090ccca"}, {"is_disabled": 0, "is_reserved": 0, "fusion_lat": 0.0, "lat": 38.941942833333336, "fusion_lon": 0.0, "rental_uris": {"ios": "https://dc.lft.to/lastmile_qr_scan", "android": "https://dc.lft.to/lastmile_qr_scan"}, "lon": -77.0882535, "bike_id": "c7a222c98f6623205c4f0b7c486eb50f", "type": "electric_scooter", "name": "c7a222c98f6623205c4f0b7c486eb50f"}, {"is_disabled": 0, "is_reserved": 0, "fusion_lat": 0.0, "lat": 38.89532783333333, "fusion_lon": 0.0, "rental_uris": {"ios": "https://dc.lft.to/lastmile_qr_scan", "android": "https://dc.lft.to/lastmile_qr_scan"}, "lon": -76.9489175, "bike_id": "6d084d956608ccb941bcc3b366c6f95c", "type": "electric_scooter", "name": "6d084d956608ccb941bcc3b366c6f95c"}, {"is_disabled": 0, "is_reserved": 0, "fusion_lat": 0.0, "lat": 38.937028, "fusion_lon": 0.0, "rental_uris": {"ios": "https://dc.lft.to/lastmile_qr_scan", "android": "https://dc.lft.to/lastmile_qr_scan"}, "lon": -77.0568125, "bike_id": "ba6507072fd91e9aa86915a228901bf2", "type": "electric_scooter", "name": "ba6507072fd91e9aa86915a228901bf2"}, {"is_disabled": 0, "is_reserved": 0, "fusion_lat": 0.0, "lat": 38.91715883333333, "fusion_lon": 0.0, "rental_uris": {"ios": "https://dc.lft.to/lastmile_qr_scan", "android": "https://dc.lft.to/lastmile_qr_scan"}, "lon": -77.03238133333333, "bike_id": "80476a72b2dbe173ae357d4345553d0e", "type": "electric_scooter", "name": "80476a72b2dbe173ae357d4345553d0e"}, {"is_disabled": 0, "is_reserved": 0, "fusion_lat": 0.0, "lat": 38.918078, "fusion_lon": 0.0, "rental_uris": {"ios": "https://dc.lft.to/lastmile_qr_scan", "android": "https://dc.lft.to/lastmile_qr_scan"}, "lon": -77.0249635, "bike_id": "ade71f9c4f8fb73c8c5c2d0c67c34297", "type": "electric_scooter", "name": "ade71f9c4f8fb73c8c5c2d0c67c34297"}, {"is_disabled": 0, "is_reserved": 0, "fusion_lat": 0.0, "lat": 38.9252665, "fusion_lon": 0.0, "rental_uris": {"ios": "https://dc.lft.to/lastmile_qr_scan", "android": "https://dc.lft.to/lastmile_qr_scan"}, "lon": -77.04110716666666, "bike_id": "29e01f2004240e4788f6db6b2cb15460", "type": "electric_scooter", "name": "29e01f2004240e4788f6db6b2cb15460"}, {"is_disabled": 0, "is_reserved": 0, "fusion_lat": 0.0, "lat": 38.9145565, "fusion_lon": 0.0, "rental_uris": {"ios": "https://dc.lft.to/lastmile_qr_scan", "android": "https://dc.lft.to/lastmile_qr_scan"}, "lon": -77.0268995, "bike_id": "4a0f12fa8a8a2c8a21d608621740a581", "type": "electric_scooter", "name": "4a0f12fa8a8a2c8a21d608621740a581"}, {"is_disabled": 0, "is_reserved": 0, "fusion_lat": 0.0, "lat": 38.9148135, "fusion_lon": 0.0, "rental_uris": {"ios": "https://dc.lft.to/lastmile_qr_scan", "android": "https://dc.lft.to/lastmile_qr_scan"}, "lon": -77.049451, "bike_id": "1a4cc8c16bf29674d68f77c8c856f7bf", "type": "electric_scooter", "name": "1a4cc8c16bf29674d68f77c8c856f7bf"}, {"is_disabled": 0, "is_reserved": 0, "fusion_lat": 0.0, "lat": 38.91682216666667, "fusion_lon": 0.0, "rental_uris": {"ios": "https://dc.lft.to/lastmile_qr_scan", "android": "https://dc.lft.to/lastmile_qr_scan"}, "lon": -77.02555766666667, "bike_id": "f0572c6cadf6e818c392d539540d265c", "type": "electric_scooter", "name": "f0572c6cadf6e818c392d539540d265c"}, {"is_disabled": 0, "is_reserved": 0, "fusion_lat": 0.0, "lat": 38.894193666666666, "fusion_lon": 0.0, "rental_uris": {"ios": "https://dc.lft.to/lastmile_qr_scan", "android": "https://dc.lft.to/lastmile_qr_scan"}, "lon": -77.02128666666667, "bike_id": "6a396fd41d8174f7323e57962edce60f", "type": "electric_scooter", "name": "6a396fd41d8174f7323e57962edce60f"}, {"is_disabled": 0, "is_reserved": 0, "fusion_lat": 0.0, "lat": 38.90532183333333, "fusion_lon": 0.0, "rental_uris": {"ios": "https://dc.lft.to/lastmile_qr_scan", "android": "https://dc.lft.to/lastmile_qr_scan"}, "lon": -77.0610285, "bike_id": "88258ec1a6881dbf51a2ce65ca39d08a", "type": "electric_scooter", "name": "88258ec1a6881dbf51a2ce65ca39d08a"}, {"is_disabled": 0, "is_reserved": 0, "fusion_lat": 0.0, "lat": 38.9163345, "fusion_lon": 0.0, "rental_uris": {"ios": "https://dc.lft.to/lastmile_qr_scan", "android": "https://dc.lft.to/lastmile_qr_scan"}, "lon": -77.00852483333334, "bike_id": "d378ce1a3856d499e045de519cf1e830", "type": "electric_scooter", "name": "d378ce1a3856d499e045de519cf1e830"}, {"is_disabled": 0, "is_reserved": 0, "fusion_lat": 0.0, "lat": 38.87672533333333, "fusion_lon": 0.0, "rental_uris": {"ios": "https://dc.lft.to/lastmile_qr_scan", "android": "https://dc.lft.to/lastmile_qr_scan"}, "lon": -77.00719416666666, "bike_id": "02a924c2a3f1af6083a9028f7084fdec", "type": "electric_scooter", "name": "02a924c2a3f1af6083a9028f7084fdec"}, {"is_disabled": 0, "is_reserved": 0, "fusion_lat": 0.0, "lat": 38.930038, "fusion_lon": 0.0, "rental_uris": {"ios": "https://dc.lft.to/lastmile_qr_scan", "android": "https://dc.lft.to/lastmile_qr_scan"}, "lon": -77.02110466666667, "bike_id": "221c03fe33007eb9bde2ed8ff4b2c99f", "type": "electric_scooter", "name": "221c03fe33007eb9bde2ed8ff4b2c99f"}, {"is_disabled": 0, "is_reserved": 0, "fusion_lat": 0.0, "lat": 38.899303333333336, "fusion_lon": 0.0, "rental_uris": {"ios": "https://dc.lft.to/lastmile_qr_scan", "android": "https://dc.lft.to/lastmile_qr_scan"}, "lon": -76.93764583333333, "bike_id": "7788eec451be96ea1a00bcf79175c3f1", "type": "electric_scooter", "name": "7788eec451be96ea1a00bcf79175c3f1"}, {"is_disabled": 0, "is_reserved": 0, "fusion_lat": 0.0, "lat": 38.88008716666667, "fusion_lon": 0.0, "rental_uris": {"ios": "https://dc.lft.to/lastmile_qr_scan", "android": "https://dc.lft.to/lastmile_qr_scan"}, "lon": -76.998337, "bike_id": "bc1bee43103dc4c5daaaa91d36706743", "type": "electric_scooter", "name": "bc1bee43103dc4c5daaaa91d36706743"}, {"is_disabled": 0, "is_reserved": 0, "fusion_lat": 0.0, "lat": 38.9017535, "fusion_lon": 0.0, "rental_uris": {"ios": "https://dc.lft.to/lastmile_qr_scan", "android": "https://dc.lft.to/lastmile_qr_scan"}, "lon": -77.0020725, "bike_id": "d919861babb0800c68e08765a7bb4c4c", "type": "electric_scooter", "name": "d919861babb0800c68e08765a7bb4c4c"}, {"is_disabled": 0, "is_reserved": 0, "fusion_lat": 0.0, "lat": 39.034788666666664, "fusion_lon": 0.0, "rental_uris": {"ios": "https://dc.lft.to/lastmile_qr_scan", "android": "https://dc.lft.to/lastmile_qr_scan"}, "lon": -77.0410355, "bike_id": "181672a2634bc9803a321fdcae805f34", "type": "electric_bike", "name": "181672a2634bc9803a321fdcae805f34"}, {"is_disabled": 0, "is_reserved": 0, "fusion_lat": 0.0, "lat": 38.90183833333333, "fusion_lon": 0.0, "rental_uris": {"ios": "https://dc.lft.to/lastmile_qr_scan", "android": "https://dc.lft.to/lastmile_qr_scan"}, "lon": -76.97670766666667, "bike_id": "b7c24e11ce2e0c40bb1b843ce2db4f97", "type": "electric_scooter", "name": "b7c24e11ce2e0c40bb1b843ce2db4f97"}, {"is_disabled": 0, "is_reserved": 0, "fusion_lat": 0.0, "lat": 38.90143483333333, "fusion_lon": 0.0, "rental_uris": {"ios": "https://dc.lft.to/lastmile_qr_scan", "android": "https://dc.lft.to/lastmile_qr_scan"}, "lon": -77.03624316666667, "bike_id": "6389b87198d948be1ab7990ed9986050", "type": "electric_scooter", "name": "6389b87198d948be1ab7990ed9986050"}, {"is_disabled": 0, "is_reserved": 0, "fusion_lat": 0.0, "lat": 38.91038616666667, "fusion_lon": 0.0, "rental_uris": {"ios": "https://dc.lft.to/lastmile_qr_scan", "android": "https://dc.lft.to/lastmile_qr_scan"}, "lon": -76.9383525, "bike_id": "6c1d615c8b280418114010df43f48de8", "type": "electric_scooter", "name": "6c1d615c8b280418114010df43f48de8"}, {"is_disabled": 0, "is_reserved": 0, "fusion_lat": 0.0, "lat": 38.89904083333333, "fusion_lon": 0.0, "rental_uris": {"ios": "https://dc.lft.to/lastmile_qr_scan", "android": "https://dc.lft.to/lastmile_qr_scan"}, "lon": -76.9803105, "bike_id": "d9f8720efbf7a5ab083a431116b0aa08", "type": "electric_scooter", "name": "d9f8720efbf7a5ab083a431116b0aa08"}, {"is_disabled": 0, "is_reserved": 0, "fusion_lat": 0.0, "lat": 38.90755016666667, "fusion_lon": 0.0, "rental_uris": {"ios": "https://dc.lft.to/lastmile_qr_scan", "android": "https://dc.lft.to/lastmile_qr_scan"}, "lon": -76.99877883333333, "bike_id": "b60b068299c8950cec04398cd7d5b930", "type": "electric_scooter", "name": "b60b068299c8950cec04398cd7d5b930"}, {"is_disabled": 0, "is_reserved": 0, "fusion_lat": 0.0, "lat": 38.9158795, "fusion_lon": 0.0, "rental_uris": {"ios": "https://dc.lft.to/lastmile_qr_scan", "android": "https://dc.lft.to/lastmile_qr_scan"}, "lon": -77.03179333333334, "bike_id": "dabb23aebe38af9ad2a99c401ba4e861", "type": "electric_scooter", "name": "dabb23aebe38af9ad2a99c401ba4e861"}, {"is_disabled": 0, "is_reserved": 0, "fusion_lat": 0.0, "lat": 38.9430355, "fusion_lon": 0.0, "rental_uris": {"ios": "https://dc.lft.to/lastmile_qr_scan", "android": "https://dc.lft.to/lastmile_qr_scan"}, "lon": -77.02527383333333, "bike_id": "e805ad844ed40871cc1809dc3e1e8737", "type": "electric_scooter", "name": "e805ad844ed40871cc1809dc3e1e8737"}, {"is_disabled": 0, "is_reserved": 0, "fusion_lat": 0.0, "lat": 38.90416183333333, "fusion_lon": 0.0, "rental_uris": {"ios": "https://dc.lft.to/lastmile_qr_scan", "android": "https://dc.lft.to/lastmile_qr_scan"}, "lon": -77.02393166666667, "bike_id": "ca48c9e5764abeb87dc998bad928d7aa", "type": "electric_scooter", "name": "ca48c9e5764abeb87dc998bad928d7aa"}, {"is_disabled": 0, "is_reserved": 0, "fusion_lat": 0.0, "lat": 38.9234015, "fusion_lon": 0.0, "rental_uris": {"ios": "https://dc.lft.to/lastmile_qr_scan", "android": "https://dc.lft.to/lastmile_qr_scan"}, "lon": -76.98489233333333, "bike_id": "8d03917163f593682cb498908a48c985", "type": "electric_scooter", "name": "8d03917163f593682cb498908a48c985"}, {"is_disabled": 0, "is_reserved": 0, "fusion_lat": 0.0, "lat": 38.931431, "fusion_lon": 0.0, "rental_uris": {"ios": "https://dc.lft.to/lastmile_qr_scan", "android": "https://dc.lft.to/lastmile_qr_scan"}, "lon": -77.02983366666666, "bike_id": "bde3a61216ab22aa6a996daa88b92b1e", "type": "electric_scooter", "name": "bde3a61216ab22aa6a996daa88b92b1e"}, {"is_disabled": 0, "is_reserved": 0, "fusion_lat": 0.0, "lat": 38.868163333333335, "fusion_lon": 0.0, "rental_uris": {"ios": "https://dc.lft.to/lastmile_qr_scan", "android": "https://dc.lft.to/lastmile_qr_scan"}, "lon": -76.98019133333334, "bike_id": "307340431ec9f2e33b9d81f77215fc08", "type": "electric_bike", "name": "307340431ec9f2e33b9d81f77215fc08"}, {"is_disabled": 0, "is_reserved": 0, "fusion_lat": 0.0, "lat": 38.873672666666664, "fusion_lon": 0.0, "rental_uris": {"ios": "https://dc.lft.to/lastmile_qr_scan", "android": "https://dc.lft.to/lastmile_qr_scan"}, "lon": -77.0089445, "bike_id": "e4e1d90ede120aced382be4b299575b4", "type": "electric_scooter", "name": "e4e1d90ede120aced382be4b299575b4"}, {"is_disabled": 0, "is_reserved": 0, "fusion_lat": 0.0, "lat": 38.896699, "fusion_lon": 0.0, "rental_uris": {"ios": "https://dc.lft.to/lastmile_qr_scan", "android": "https://dc.lft.to/lastmile_qr_scan"}, "lon": -76.93210083333334, "bike_id": "7ddeca293c1332705af810dc486b7dc1", "type": "electric_scooter", "name": "7ddeca293c1332705af810dc486b7dc1"}, {"is_disabled": 0, "is_reserved": 0, "fusion_lat": 0.0, "lat": 38.898253833333335, "fusion_lon": 0.0, "rental_uris": {"ios": "https://dc.lft.to/lastmile_qr_scan", "android": "https://dc.lft.to/lastmile_qr_scan"}, "lon": -76.92998433333334, "bike_id": "0556b629feee1cdd53b80602df2596a6", "type": "electric_scooter", "name": "0556b629feee1cdd53b80602df2596a6"}, {"is_disabled": 0, "is_reserved": 0, "fusion_lat": 0.0, "lat": 38.89788683333333, "fusion_lon": 0.0, "rental_uris": {"ios": "https://dc.lft.to/lastmile_qr_scan", "android": "https://dc.lft.to/lastmile_qr_scan"}, "lon": -77.04790133333333, "bike_id": "c558a45e21f058a264adf2aa2910310e", "type": "electric_scooter", "name": "c558a45e21f058a264adf2aa2910310e"}, {"is_disabled": 0, "is_reserved": 0, "fusion_lat": 0.0, "lat": 38.92666416666667, "fusion_lon": 0.0, "rental_uris": {"ios": "https://dc.lft.to/lastmile_qr_scan", "android": "https://dc.lft.to/lastmile_qr_scan"}, "lon": -76.9955465, "bike_id": "a052ab2c2cd2645f44436daf03c97f63", "type": "electric_scooter", "name": "a052ab2c2cd2645f44436daf03c97f63"}, {"is_disabled": 0, "is_reserved": 0, "fusion_lat": 0.0, "lat": 38.901392333333334, "fusion_lon": 0.0, "rental_uris": {"ios": "https://dc.lft.to/lastmile_qr_scan", "android": "https://dc.lft.to/lastmile_qr_scan"}, "lon": -77.044748, "bike_id": "8688af2c2f2e3136d1fe914dd47f9732", "type": "electric_scooter", "name": "8688af2c2f2e3136d1fe914dd47f9732"}, {"is_disabled": 0, "is_reserved": 0, "fusion_lat": 0.0, "lat": 38.901841833333336, "fusion_lon": 0.0, "rental_uris": {"ios": "https://dc.lft.to/lastmile_qr_scan", "android": "https://dc.lft.to/lastmile_qr_scan"}, "lon": -76.99957133333334, "bike_id": "7d44daf9cc05cc833ef999ddda17dc98", "type": "electric_scooter", "name": "7d44daf9cc05cc833ef999ddda17dc98"}, {"is_disabled": 0, "is_reserved": 0, "fusion_lat": 0.0, "lat": 38.809758333333335, "fusion_lon": 0.0, "rental_uris": {"ios": "https://dc.lft.to/lastmile_qr_scan", "android": "https://dc.lft.to/lastmile_qr_scan"}, "lon": -77.076577, "bike_id": "129e78a18e750b56d0ae33d74c075e75", "type": "electric_bike", "name": "129e78a18e750b56d0ae33d74c075e75"}, {"is_disabled": 0, "is_reserved": 0, "fusion_lat": 0.0, "lat": 38.92763866666667, "fusion_lon": 0.0, "rental_uris": {"ios": "https://dc.lft.to/lastmile_qr_scan", "android": "https://dc.lft.to/lastmile_qr_scan"}, "lon": -77.07050666666666, "bike_id": "0fefb93bdde596db23a234866957193d", "type": "electric_scooter", "name": "0fefb93bdde596db23a234866957193d"}, {"is_disabled": 0, "is_reserved": 0, "fusion_lat": 0.0, "lat": 38.924169166666665, "fusion_lon": 0.0, "rental_uris": {"ios": "https://dc.lft.to/lastmile_qr_scan", "android": "https://dc.lft.to/lastmile_qr_scan"}, "lon": -77.02036916666667, "bike_id": "f1ce3c4f74e2b82528b3726d8596f3dd", "type": "electric_scooter", "name": "f1ce3c4f74e2b82528b3726d8596f3dd"}, {"is_disabled": 0, "is_reserved": 0, "fusion_lat": 0.0, "lat": 38.9141555, "fusion_lon": 0.0, "rental_uris": {"ios": "https://dc.lft.to/lastmile_qr_scan", "android": "https://dc.lft.to/lastmile_qr_scan"}, "lon": -77.03167216666667, "bike_id": "e1cf23a4d104b1dd37f10fa8e81543b7", "type": "electric_scooter", "name": "e1cf23a4d104b1dd37f10fa8e81543b7"}, {"is_disabled": 0, "is_reserved": 0, "fusion_lat": 0.0, "lat": 38.9421625, "fusion_lon": 0.0, "rental_uris": {"ios": "https://dc.lft.to/lastmile_qr_scan", "android": "https://dc.lft.to/lastmile_qr_scan"}, "lon": -76.961323, "bike_id": "41bcdb7aec270e5182a31324202a221a", "type": "electric_bike", "name": "41bcdb7aec270e5182a31324202a221a"}, {"is_disabled": 0, "is_reserved": 0, "fusion_lat": 0.0, "lat": 38.91653133333333, "fusion_lon": 0.0, "rental_uris": {"ios": "https://dc.lft.to/lastmile_qr_scan", "android": "https://dc.lft.to/lastmile_qr_scan"}, "lon": -77.01022266666666, "bike_id": "981c20c2c1adfc08df1092820da083c0", "type": "electric_scooter", "name": "981c20c2c1adfc08df1092820da083c0"}, {"is_disabled": 0, "is_reserved": 0, "fusion_lat": 0.0, "lat": 38.928619833333336, "fusion_lon": 0.0, "rental_uris": {"ios": "https://dc.lft.to/lastmile_qr_scan", "android": "https://dc.lft.to/lastmile_qr_scan"}, "lon": -77.03717783333333, "bike_id": "c6f953fa0fcab3e2b0323e7fd132e66e", "type": "electric_scooter", "name": "c6f953fa0fcab3e2b0323e7fd132e66e"}, {"is_disabled": 0, "is_reserved": 0, "fusion_lat": 0.0, "lat": 38.87777, "fusion_lon": 0.0, "rental_uris": {"ios": "https://dc.lft.to/lastmile_qr_scan", "android": "https://dc.lft.to/lastmile_qr_scan"}, "lon": -76.99505383333333, "bike_id": "19b556b1fe67e40921073bcb44816d13", "type": "electric_bike", "name": "19b556b1fe67e40921073bcb44816d13"}, {"is_disabled": 0, "is_reserved": 0, "fusion_lat": 0.0, "lat": 38.91115116666667, "fusion_lon": 0.0, "rental_uris": {"ios": "https://dc.lft.to/lastmile_qr_scan", "android": "https://dc.lft.to/lastmile_qr_scan"}, "lon": -76.99762316666667, "bike_id": "75afd6afa8cd4adef36889a35768486d", "type": "electric_scooter", "name": "75afd6afa8cd4adef36889a35768486d"}, {"is_disabled": 0, "is_reserved": 0, "fusion_lat": 0.0, "lat": 38.9166085, "fusion_lon": 0.0, "rental_uris": {"ios": "https://dc.lft.to/lastmile_qr_scan", "android": "https://dc.lft.to/lastmile_qr_scan"}, "lon": -76.981175, "bike_id": "01fbe5a6a4ea57df2d29c2e78ec796ba", "type": "electric_bike", "name": "01fbe5a6a4ea57df2d29c2e78ec796ba"}, {"is_disabled": 0, "is_reserved": 0, "fusion_lat": 0.0, "lat": 38.902682166666665, "fusion_lon": 0.0, "rental_uris": {"ios": "https://dc.lft.to/lastmile_qr_scan", "android": "https://dc.lft.to/lastmile_qr_scan"}, "lon": -77.0196525, "bike_id": "c87379907c935786afb0687d3f7755a8", "type": "electric_scooter", "name": "c87379907c935786afb0687d3f7755a8"}, {"is_disabled": 0, "is_reserved": 0, "fusion_lat": 0.0, "lat": 38.967756666666666, "fusion_lon": 0.0, "rental_uris": {"ios": "https://dc.lft.to/lastmile_qr_scan", "android": "https://dc.lft.to/lastmile_qr_scan"}, "lon": -76.99652866666666, "bike_id": "aeef63b4956deedf79b3b5cdf102fda2", "type": "electric_bike", "name": "aeef63b4956deedf79b3b5cdf102fda2"}, {"is_disabled": 0, "is_reserved": 0, "fusion_lat": 0.0, "lat": 38.87944433333333, "fusion_lon": 0.0, "rental_uris": {"ios": "https://dc.lft.to/lastmile_qr_scan", "android": "https://dc.lft.to/lastmile_qr_scan"}, "lon": -77.01265116666667, "bike_id": "816211898fe3831667bf42cd14639ebf", "type": "electric_scooter", "name": "816211898fe3831667bf42cd14639ebf"}, {"is_disabled": 0, "is_reserved": 0, "fusion_lat": 0.0, "lat": 38.88697333333333, "fusion_lon": 0.0, "rental_uris": {"ios": "https://dc.lft.to/lastmile_qr_scan", "android": "https://dc.lft.to/lastmile_qr_scan"}, "lon": -77.00049366666667, "bike_id": "76d38ee8063adcb6e66cb13ab49dbbc1", "type": "electric_scooter", "name": "76d38ee8063adcb6e66cb13ab49dbbc1"}, {"is_disabled": 0, "is_reserved": 0, "fusion_lat": 0.0, "lat": 38.905067, "fusion_lon": 0.0, "rental_uris": {"ios": "https://dc.lft.to/lastmile_qr_scan", "android": "https://dc.lft.to/lastmile_qr_scan"}, "lon": -77.0611505, "bike_id": "b1a6377c90760c268c23df3e57ebfb67", "type": "electric_scooter", "name": "b1a6377c90760c268c23df3e57ebfb67"}, {"is_disabled": 0, "is_reserved": 0, "fusion_lat": 0.0, "lat": 38.89796233333333, "fusion_lon": 0.0, "rental_uris": {"ios": "https://dc.lft.to/lastmile_qr_scan", "android": "https://dc.lft.to/lastmile_qr_scan"}, "lon": -76.97166683333333, "bike_id": "acf9f46df8273fdd4aec4b230a499990", "type": "electric_scooter", "name": "acf9f46df8273fdd4aec4b230a499990"}, {"is_disabled": 0, "is_reserved": 0, "fusion_lat": 0.0, "lat": 38.90166633333333, "fusion_lon": 0.0, "rental_uris": {"ios": "https://dc.lft.to/lastmile_qr_scan", "android": "https://dc.lft.to/lastmile_qr_scan"}, "lon": -77.04870766666667, "bike_id": "1f592d2ca25496045e32e5fa9ff6cbe1", "type": "electric_scooter", "name": "1f592d2ca25496045e32e5fa9ff6cbe1"}, {"is_disabled": 0, "is_reserved": 0, "fusion_lat": 0.0, "lat": 38.902219333333335, "fusion_lon": 0.0, "rental_uris": {"ios": "https://dc.lft.to/lastmile_qr_scan", "android": "https://dc.lft.to/lastmile_qr_scan"}, "lon": -76.931755, "bike_id": "7ec048163a6aeeb6cc82a67e46932ea6", "type": "electric_bike", "name": "7ec048163a6aeeb6cc82a67e46932ea6"}, {"is_disabled": 0, "is_reserved": 0, "fusion_lat": 0.0, "lat": 38.934497, "fusion_lon": 0.0, "rental_uris": {"ios": "https://dc.lft.to/lastmile_qr_scan", "android": "https://dc.lft.to/lastmile_qr_scan"}, "lon": -77.030752, "bike_id": "c9dab1935ea4051431426ba110d90475", "type": "electric_scooter", "name": "c9dab1935ea4051431426ba110d90475"}, {"is_disabled": 0, "is_reserved": 0, "fusion_lat": 0.0, "lat": 38.883794333333334, "fusion_lon": 0.0, "rental_uris": {"ios": "https://dc.lft.to/lastmile_qr_scan", "android": "https://dc.lft.to/lastmile_qr_scan"}, "lon": -77.030377, "bike_id": "1561f42cc837b98fdda17ff5f3acbd92", "type": "electric_scooter", "name": "1561f42cc837b98fdda17ff5f3acbd92"}, {"is_disabled": 0, "is_reserved": 0, "fusion_lat": 0.0, "lat": 38.83865983333333, "fusion_lon": 0.0, "rental_uris": {"ios": "https://dc.lft.to/lastmile_qr_scan", "android": "https://dc.lft.to/lastmile_qr_scan"}, "lon": -76.99701783333333, "bike_id": "7c5198fd1b7fc9d0817e2a02b69f9cab", "type": "electric_bike", "name": "7c5198fd1b7fc9d0817e2a02b69f9cab"}, {"is_disabled": 0, "is_reserved": 0, "fusion_lat": 0.0, "lat": 38.871784, "fusion_lon": 0.0, "rental_uris": {"ios": "https://dc.lft.to/lastmile_qr_scan", "android": "https://dc.lft.to/lastmile_qr_scan"}, "lon": -77.006063, "bike_id": "1e3257892cb3065bd58af701c8f47bbd", "type": "electric_bike", "name": "1e3257892cb3065bd58af701c8f47bbd"}, {"is_disabled": 0, "is_reserved": 0, "fusion_lat": 0.0, "lat": 38.92456583333333, "fusion_lon": 0.0, "rental_uris": {"ios": "https://dc.lft.to/lastmile_qr_scan", "android": "https://dc.lft.to/lastmile_qr_scan"}, "lon": -77.05757216666667, "bike_id": "69dd968b52eaa49a54f6d039d6e44471", "type": "electric_scooter", "name": "69dd968b52eaa49a54f6d039d6e44471"}, {"is_disabled": 0, "is_reserved": 0, "fusion_lat": 0.0, "lat": 38.918095, "fusion_lon": 0.0, "rental_uris": {"ios": "https://dc.lft.to/lastmile_qr_scan", "android": "https://dc.lft.to/lastmile_qr_scan"}, "lon": -77.031317, "bike_id": "dc9d7e22ba65f582b30ddbdd08ea2e31", "type": "electric_scooter", "name": "dc9d7e22ba65f582b30ddbdd08ea2e31"}, {"is_disabled": 0, "is_reserved": 0, "fusion_lat": 0.0, "lat": 38.93666433333333, "fusion_lon": 0.0, "rental_uris": {"ios": "https://dc.lft.to/lastmile_qr_scan", "android": "https://dc.lft.to/lastmile_qr_scan"}, "lon": -77.06609683333333, "bike_id": "9b19b264c96926c553a8a06bac43e7b3", "type": "electric_scooter", "name": "9b19b264c96926c553a8a06bac43e7b3"}, {"is_disabled": 0, "is_reserved": 0, "fusion_lat": 0.0, "lat": 38.92083, "fusion_lon": 0.0, "rental_uris": {"ios": "https://dc.lft.to/lastmile_qr_scan", "android": "https://dc.lft.to/lastmile_qr_scan"}, "lon": -77.025201, "bike_id": "3b5f4766ab09f60a15671b3cff2d3abd", "type": "electric_scooter", "name": "3b5f4766ab09f60a15671b3cff2d3abd"}, {"is_disabled": 0, "is_reserved": 0, "fusion_lat": 0.0, "lat": 38.928915833333335, "fusion_lon": 0.0, "rental_uris": {"ios": "https://dc.lft.to/lastmile_qr_scan", "android": "https://dc.lft.to/lastmile_qr_scan"}, "lon": -77.01940516666667, "bike_id": "d3ffd80329e6203a2cb05b15c42a5365", "type": "electric_scooter", "name": "d3ffd80329e6203a2cb05b15c42a5365"}, {"is_disabled": 0, "is_reserved": 0, "fusion_lat": 0.0, "lat": 38.964346666666664, "fusion_lon": 0.0, "rental_uris": {"ios": "https://dc.lft.to/lastmile_qr_scan", "android": "https://dc.lft.to/lastmile_qr_scan"}, "lon": -77.031874, "bike_id": "f3c0702aaa63820ee3acb1585c99e46b", "type": "electric_bike", "name": "f3c0702aaa63820ee3acb1585c99e46b"}, {"is_disabled": 0, "is_reserved": 0, "fusion_lat": 0.0, "lat": 38.92822183333333, "fusion_lon": 0.0, "rental_uris": {"ios": "https://dc.lft.to/lastmile_qr_scan", "android": "https://dc.lft.to/lastmile_qr_scan"}, "lon": -77.037143, "bike_id": "11be86776bb5c84a911fbb40fc893390", "type": "electric_scooter", "name": "11be86776bb5c84a911fbb40fc893390"}, {"is_disabled": 0, "is_reserved": 0, "fusion_lat": 0.0, "lat": 38.916922, "fusion_lon": 0.0, "rental_uris": {"ios": "https://dc.lft.to/lastmile_qr_scan", "android": "https://dc.lft.to/lastmile_qr_scan"}, "lon": -77.0286135, "bike_id": "ecaab167dd87a53ffca412c7e2370a4f", "type": "electric_scooter", "name": "ecaab167dd87a53ffca412c7e2370a4f"}, {"is_disabled": 0, "is_reserved": 0, "fusion_lat": 0.0, "lat": 38.91855916666667, "fusion_lon": 0.0, "rental_uris": {"ios": "https://dc.lft.to/lastmile_qr_scan", "android": "https://dc.lft.to/lastmile_qr_scan"}, "lon": -76.96548133333333, "bike_id": "df849ff88bcb6c3b98568e5665c6deb6", "type": "electric_scooter", "name": "df849ff88bcb6c3b98568e5665c6deb6"}, {"is_disabled": 0, "is_reserved": 0, "fusion_lat": 0.0, "lat": 38.8948735, "fusion_lon": 0.0, "rental_uris": {"ios": "https://dc.lft.to/lastmile_qr_scan", "android": "https://dc.lft.to/lastmile_qr_scan"}, "lon": -77.02322933333333, "bike_id": "a4687cb7ca074b1349544358b2c1f077", "type": "electric_scooter", "name": "a4687cb7ca074b1349544358b2c1f077"}, {"is_disabled": 0, "is_reserved": 0, "fusion_lat": 0.0, "lat": 38.88398516666667, "fusion_lon": 0.0, "rental_uris": {"ios": "https://dc.lft.to/lastmile_qr_scan", "android": "https://dc.lft.to/lastmile_qr_scan"}, "lon": -76.99510433333333, "bike_id": "2b182ae0bbe896a60927253cd639911a", "type": "electric_scooter", "name": "2b182ae0bbe896a60927253cd639911a"}, {"is_disabled": 0, "is_reserved": 0, "fusion_lat": 0.0, "lat": 38.824298, "fusion_lon": 0.0, "rental_uris": {"ios": "https://dc.lft.to/lastmile_qr_scan", "android": "https://dc.lft.to/lastmile_qr_scan"}, "lon": -77.12038016666666, "bike_id": "a658cce97c32e236a711eeb537f942bf", "type": "electric_bike", "name": "a658cce97c32e236a711eeb537f942bf"}, {"is_disabled": 0, "is_reserved": 0, "fusion_lat": 0.0, "lat": 38.856333166666666, "fusion_lon": 0.0, "rental_uris": {"ios": "https://dc.lft.to/lastmile_qr_scan", "android": "https://dc.lft.to/lastmile_qr_scan"}, "lon": -77.06836316666667, "bike_id": "934696a6cba6c689da55191f6aa1b3a3", "type": "electric_bike", "name": "934696a6cba6c689da55191f6aa1b3a3"}, {"is_disabled": 0, "is_reserved": 0, "fusion_lat": 0.0, "lat": 38.92937366666666, "fusion_lon": 0.0, "rental_uris": {"ios": "https://dc.lft.to/lastmile_qr_scan", "android": "https://dc.lft.to/lastmile_qr_scan"}, "lon": -77.054795, "bike_id": "b22b106ba3ef6fa1e197ee4fd58eea35", "type": "electric_scooter", "name": "b22b106ba3ef6fa1e197ee4fd58eea35"}, {"is_disabled": 0, "is_reserved": 0, "fusion_lat": 0.0, "lat": 38.900077833333334, "fusion_lon": 0.0, "rental_uris": {"ios": "https://dc.lft.to/lastmile_qr_scan", "android": "https://dc.lft.to/lastmile_qr_scan"}, "lon": -77.0034805, "bike_id": "311fcebec166857396994f3db2e07f9e", "type": "electric_scooter", "name": "311fcebec166857396994f3db2e07f9e"}, {"is_disabled": 0, "is_reserved": 0, "fusion_lat": 0.0, "lat": 38.86557416666667, "fusion_lon": 0.0, "rental_uris": {"ios": "https://dc.lft.to/lastmile_qr_scan", "android": "https://dc.lft.to/lastmile_qr_scan"}, "lon": -76.974697, "bike_id": "d0a35891dfb34c5f582907a393b8c6ac", "type": "electric_bike", "name": "d0a35891dfb34c5f582907a393b8c6ac"}, {"is_disabled": 0, "is_reserved": 0, "fusion_lat": 0.0, "lat": 38.8760485, "fusion_lon": 0.0, "rental_uris": {"ios": "https://dc.lft.to/lastmile_qr_scan", "android": "https://dc.lft.to/lastmile_qr_scan"}, "lon": -77.00588533333334, "bike_id": "05f3407005e5d08c622d62b2c7d5f83d", "type": "electric_scooter", "name": "05f3407005e5d08c622d62b2c7d5f83d"}, {"is_disabled": 0, "is_reserved": 0, "fusion_lat": 0.0, "lat": 38.875857, "fusion_lon": 0.0, "rental_uris": {"ios": "https://dc.lft.to/lastmile_qr_scan", "android": "https://dc.lft.to/lastmile_qr_scan"}, "lon": -77.00572433333333, "bike_id": "c404b3ec9e96f7b68ea6f00c113f4531", "type": "electric_scooter", "name": "c404b3ec9e96f7b68ea6f00c113f4531"}, {"is_disabled": 0, "is_reserved": 0, "fusion_lat": 0.0, "lat": 38.88582616666667, "fusion_lon": 0.0, "rental_uris": {"ios": "https://dc.lft.to/lastmile_qr_scan", "android": "https://dc.lft.to/lastmile_qr_scan"}, "lon": -77.012222, "bike_id": "cf34bbc095e1ef03af94569a455961bc", "type": "electric_scooter", "name": "cf34bbc095e1ef03af94569a455961bc"}, {"is_disabled": 0, "is_reserved": 0, "fusion_lat": 0.0, "lat": 38.9226515, "fusion_lon": 0.0, "rental_uris": {"ios": "https://dc.lft.to/lastmile_qr_scan", "android": "https://dc.lft.to/lastmile_qr_scan"}, "lon": -77.0366255, "bike_id": "51d369096564d380722d8d1bf45d9416", "type": "electric_scooter", "name": "51d369096564d380722d8d1bf45d9416"}, {"is_disabled": 0, "is_reserved": 0, "fusion_lat": 0.0, "lat": 38.894944833333334, "fusion_lon": 0.0, "rental_uris": {"ios": "https://dc.lft.to/lastmile_qr_scan", "android": "https://dc.lft.to/lastmile_qr_scan"}, "lon": -77.02163433333334, "bike_id": "9d6b0a6d0d2dc424d90a4da809dc5a78", "type": "electric_scooter", "name": "9d6b0a6d0d2dc424d90a4da809dc5a78"}, {"is_disabled": 0, "is_reserved": 0, "fusion_lat": 0.0, "lat": 38.91036116666667, "fusion_lon": 0.0, "rental_uris": {"ios": "https://dc.lft.to/lastmile_qr_scan", "android": "https://dc.lft.to/lastmile_qr_scan"}, "lon": -77.03796533333333, "bike_id": "6092a01d7e8ba5d7d4f5426153448fd7", "type": "electric_scooter", "name": "6092a01d7e8ba5d7d4f5426153448fd7"}, {"is_disabled": 0, "is_reserved": 0, "fusion_lat": 0.0, "lat": 38.90183066666667, "fusion_lon": 0.0, "rental_uris": {"ios": "https://dc.lft.to/lastmile_qr_scan", "android": "https://dc.lft.to/lastmile_qr_scan"}, "lon": -77.00195, "bike_id": "1425d73aedc4413bf622e658c6646df2", "type": "electric_scooter", "name": "1425d73aedc4413bf622e658c6646df2"}, {"is_disabled": 0, "is_reserved": 0, "fusion_lat": 0.0, "lat": 38.898140166666664, "fusion_lon": 0.0, "rental_uris": {"ios": "https://dc.lft.to/lastmile_qr_scan", "android": "https://dc.lft.to/lastmile_qr_scan"}, "lon": -77.00204933333333, "bike_id": "20b474b0da39cbc571b4f172b286b0a7", "type": "electric_scooter", "name": "20b474b0da39cbc571b4f172b286b0a7"}, {"is_disabled": 0, "is_reserved": 0, "fusion_lat": 0.0, "lat": 38.902277833333336, "fusion_lon": 0.0, "rental_uris": {"ios": "https://dc.lft.to/lastmile_qr_scan", "android": "https://dc.lft.to/lastmile_qr_scan"}, "lon": -77.0467345, "bike_id": "ae5192edf2eec3db3fd9e04ce2fe3eca", "type": "electric_scooter", "name": "ae5192edf2eec3db3fd9e04ce2fe3eca"}, {"is_disabled": 0, "is_reserved": 0, "fusion_lat": 0.0, "lat": 38.877793, "fusion_lon": 0.0, "rental_uris": {"ios": "https://dc.lft.to/lastmile_qr_scan", "android": "https://dc.lft.to/lastmile_qr_scan"}, "lon": -77.00121416666667, "bike_id": "a974a46ca40608022886fac4dd9a3eb9", "type": "electric_scooter", "name": "a974a46ca40608022886fac4dd9a3eb9"}, {"is_disabled": 0, "is_reserved": 0, "fusion_lat": 0.0, "lat": 38.90246483333333, "fusion_lon": 0.0, "rental_uris": {"ios": "https://dc.lft.to/lastmile_qr_scan", "android": "https://dc.lft.to/lastmile_qr_scan"}, "lon": -77.03463533333333, "bike_id": "4fb7dc0aa5a3deec8baeccd1ff014906", "type": "electric_scooter", "name": "4fb7dc0aa5a3deec8baeccd1ff014906"}, {"is_disabled": 0, "is_reserved": 0, "fusion_lat": 0.0, "lat": 38.898456333333336, "fusion_lon": 0.0, "rental_uris": {"ios": "https://dc.lft.to/lastmile_qr_scan", "android": "https://dc.lft.to/lastmile_qr_scan"}, "lon": -76.98772983333333, "bike_id": "8e49692c6f35e1122938ebda39fe6e4c", "type": "electric_scooter", "name": "8e49692c6f35e1122938ebda39fe6e4c"}, {"is_disabled": 0, "is_reserved": 0, "fusion_lat": 0.0, "lat": 38.930074166666664, "fusion_lon": 0.0, "rental_uris": {"ios": "https://dc.lft.to/lastmile_qr_scan", "android": "https://dc.lft.to/lastmile_qr_scan"}, "lon": -77.037832, "bike_id": "ced831f839c65fbd8f57e44f9ef751d2", "type": "electric_scooter", "name": "ced831f839c65fbd8f57e44f9ef751d2"}, {"is_disabled": 0, "is_reserved": 0, "fusion_lat": 0.0, "lat": 38.92551566666667, "fusion_lon": 0.0, "rental_uris": {"ios": "https://dc.lft.to/lastmile_qr_scan", "android": "https://dc.lft.to/lastmile_qr_scan"}, "lon": -77.00323866666666, "bike_id": "530dc92d1805a38e2b0401e00c78a621", "type": "electric_scooter", "name": "530dc92d1805a38e2b0401e00c78a621"}, {"is_disabled": 0, "is_reserved": 0, "fusion_lat": 0.0, "lat": 38.93662283333333, "fusion_lon": 0.0, "rental_uris": {"ios": "https://dc.lft.to/lastmile_qr_scan", "android": "https://dc.lft.to/lastmile_qr_scan"}, "lon": -77.06609183333333, "bike_id": "1062eca33fca854d276716098edbdf36", "type": "electric_scooter", "name": "1062eca33fca854d276716098edbdf36"}, {"is_disabled": 0, "is_reserved": 0, "fusion_lat": 0.0, "lat": 38.909092333333334, "fusion_lon": 0.0, "rental_uris": {"ios": "https://dc.lft.to/lastmile_qr_scan", "android": "https://dc.lft.to/lastmile_qr_scan"}, "lon": -77.043944, "bike_id": "855d1e3a9d9cc27a1705cc5d46445301", "type": "electric_scooter", "name": "855d1e3a9d9cc27a1705cc5d46445301"}, {"is_disabled": 0, "is_reserved": 0, "fusion_lat": 0.0, "lat": 38.923764166666665, "fusion_lon": 0.0, "rental_uris": {"ios": "https://dc.lft.to/lastmile_qr_scan", "android": "https://dc.lft.to/lastmile_qr_scan"}, "lon": -77.03018616666667, "bike_id": "ed426a1936a0ff876edff40ceeb2ab79", "type": "electric_scooter", "name": "ed426a1936a0ff876edff40ceeb2ab79"}, {"is_disabled": 0, "is_reserved": 0, "fusion_lat": 0.0, "lat": 38.921646333333335, "fusion_lon": 0.0, "rental_uris": {"ios": "https://dc.lft.to/lastmile_qr_scan", "android": "https://dc.lft.to/lastmile_qr_scan"}, "lon": -77.04023866666667, "bike_id": "76eb45dcea986cf722ce9cde4c959e35", "type": "electric_scooter", "name": "76eb45dcea986cf722ce9cde4c959e35"}, {"is_disabled": 0, "is_reserved": 0, "fusion_lat": 0.0, "lat": 38.902583, "fusion_lon": 0.0, "rental_uris": {"ios": "https://dc.lft.to/lastmile_qr_scan", "android": "https://dc.lft.to/lastmile_qr_scan"}, "lon": -77.034671, "bike_id": "ef35f2f951e64b2d0ac524668cc90072", "type": "electric_scooter", "name": "ef35f2f951e64b2d0ac524668cc90072"}, {"is_disabled": 0, "is_reserved": 0, "fusion_lat": 0.0, "lat": 38.9019335, "fusion_lon": 0.0, "rental_uris": {"ios": "https://dc.lft.to/lastmile_qr_scan", "android": "https://dc.lft.to/lastmile_qr_scan"}, "lon": -77.00204466666666, "bike_id": "e84bd61715a5c2d82c53e976a1a2399f", "type": "electric_scooter", "name": "e84bd61715a5c2d82c53e976a1a2399f"}, {"is_disabled": 0, "is_reserved": 0, "fusion_lat": 0.0, "lat": 38.92419683333333, "fusion_lon": 0.0, "rental_uris": {"ios": "https://dc.lft.to/lastmile_qr_scan", "android": "https://dc.lft.to/lastmile_qr_scan"}, "lon": -77.02003933333333, "bike_id": "7b1665cd49a6c10761124ade19096829", "type": "electric_scooter", "name": "7b1665cd49a6c10761124ade19096829"}, {"is_disabled": 0, "is_reserved": 0, "fusion_lat": 0.0, "lat": 38.90521616666667, "fusion_lon": 0.0, "rental_uris": {"ios": "https://dc.lft.to/lastmile_qr_scan", "android": "https://dc.lft.to/lastmile_qr_scan"}, "lon": -77.066165, "bike_id": "36e2c2f22327658b30f9fb8180375630", "type": "electric_scooter", "name": "36e2c2f22327658b30f9fb8180375630"}, {"is_disabled": 0, "is_reserved": 0, "fusion_lat": 0.0, "lat": 38.88517733333333, "fusion_lon": 0.0, "rental_uris": {"ios": "https://dc.lft.to/lastmile_qr_scan", "android": "https://dc.lft.to/lastmile_qr_scan"}, "lon": -76.92443516666667, "bike_id": "a00eaefa3716a08358713e620f321c5b", "type": "electric_scooter", "name": "a00eaefa3716a08358713e620f321c5b"}, {"is_disabled": 0, "is_reserved": 0, "fusion_lat": 0.0, "lat": 38.902347, "fusion_lon": 0.0, "rental_uris": {"ios": "https://dc.lft.to/lastmile_qr_scan", "android": "https://dc.lft.to/lastmile_qr_scan"}, "lon": -77.02681633333333, "bike_id": "5244cd7ea6bceb1a91ff16044ebcad5e", "type": "electric_scooter", "name": "5244cd7ea6bceb1a91ff16044ebcad5e"}, {"is_disabled": 0, "is_reserved": 0, "fusion_lat": 0.0, "lat": 38.90469016666667, "fusion_lon": 0.0, "rental_uris": {"ios": "https://dc.lft.to/lastmile_qr_scan", "android": "https://dc.lft.to/lastmile_qr_scan"}, "lon": -77.06746633333333, "bike_id": "b6189a4f7f2767efef64aaf353ecdb7c", "type": "electric_bike", "name": "b6189a4f7f2767efef64aaf353ecdb7c"}, {"is_disabled": 0, "is_reserved": 0, "fusion_lat": 0.0, "lat": 38.878486333333335, "fusion_lon": 0.0, "rental_uris": {"ios": "https://dc.lft.to/lastmile_qr_scan", "android": "https://dc.lft.to/lastmile_qr_scan"}, "lon": -77.00554733333334, "bike_id": "2b8a6b5e26f622f1ab4157557aec44a5", "type": "electric_scooter", "name": "2b8a6b5e26f622f1ab4157557aec44a5"}, {"is_disabled": 0, "is_reserved": 0, "fusion_lat": 0.0, "lat": 38.90222966666666, "fusion_lon": 0.0, "rental_uris": {"ios": "https://dc.lft.to/lastmile_qr_scan", "android": "https://dc.lft.to/lastmile_qr_scan"}, "lon": -77.03463233333333, "bike_id": "2c2d59d88470b0368490d0f1f929fc6e", "type": "electric_scooter", "name": "2c2d59d88470b0368490d0f1f929fc6e"}, {"is_disabled": 0, "is_reserved": 0, "fusion_lat": 0.0, "lat": 38.957476, "fusion_lon": 0.0, "rental_uris": {"ios": "https://dc.lft.to/lastmile_qr_scan", "android": "https://dc.lft.to/lastmile_qr_scan"}, "lon": -77.02213283333333, "bike_id": "f043c8bb9702495f6ca3771fbac4846a", "type": "electric_scooter", "name": "f043c8bb9702495f6ca3771fbac4846a"}, {"is_disabled": 0, "is_reserved": 0, "fusion_lat": 0.0, "lat": 38.8853095, "fusion_lon": 0.0, "rental_uris": {"ios": "https://dc.lft.to/lastmile_qr_scan", "android": "https://dc.lft.to/lastmile_qr_scan"}, "lon": -76.98053716666666, "bike_id": "f15c806780f97fcf1fafc0710fcb53de", "type": "electric_scooter", "name": "f15c806780f97fcf1fafc0710fcb53de"}, {"is_disabled": 0, "is_reserved": 0, "fusion_lat": 0.0, "lat": 38.9568705, "fusion_lon": 0.0, "rental_uris": {"ios": "https://dc.lft.to/lastmile_qr_scan", "android": "https://dc.lft.to/lastmile_qr_scan"}, "lon": -77.0222995, "bike_id": "34e12efe0ec0be0a653e75ad57d06cbb", "type": "electric_scooter", "name": "34e12efe0ec0be0a653e75ad57d06cbb"}, {"is_disabled": 0, "is_reserved": 0, "fusion_lat": 0.0, "lat": 38.89623316666667, "fusion_lon": 0.0, "rental_uris": {"ios": "https://dc.lft.to/lastmile_qr_scan", "android": "https://dc.lft.to/lastmile_qr_scan"}, "lon": -76.90751833333333, "bike_id": "16a27acd6db34004abc63bfdc1b142df", "type": "electric_bike", "name": "16a27acd6db34004abc63bfdc1b142df"}, {"is_disabled": 0, "is_reserved": 0, "fusion_lat": 0.0, "lat": 38.93409716666667, "fusion_lon": 0.0, "rental_uris": {"ios": "https://dc.lft.to/lastmile_qr_scan", "android": "https://dc.lft.to/lastmile_qr_scan"}, "lon": -77.04542483333333, "bike_id": "b6ea857260bb70c009d74b5037f91e68", "type": "electric_scooter", "name": "b6ea857260bb70c009d74b5037f91e68"}, {"is_disabled": 0, "is_reserved": 0, "fusion_lat": 0.0, "lat": 38.910342666666665, "fusion_lon": 0.0, "rental_uris": {"ios": "https://dc.lft.to/lastmile_qr_scan", "android": "https://dc.lft.to/lastmile_qr_scan"}, "lon": -76.92330383333334, "bike_id": "9365020d87a7331421cdd99ede2a0809", "type": "electric_bike", "name": "9365020d87a7331421cdd99ede2a0809"}, {"is_disabled": 0, "is_reserved": 0, "fusion_lat": 0.0, "lat": 38.90016166666667, "fusion_lon": 0.0, "rental_uris": {"ios": "https://dc.lft.to/lastmile_qr_scan", "android": "https://dc.lft.to/lastmile_qr_scan"}, "lon": -77.00694733333333, "bike_id": "9ce0235d38b1d970b5c82ac167bb7f76", "type": "electric_scooter", "name": "9ce0235d38b1d970b5c82ac167bb7f76"}, {"is_disabled": 0, "is_reserved": 0, "fusion_lat": 0.0, "lat": 38.9135245, "fusion_lon": 0.0, "rental_uris": {"ios": "https://dc.lft.to/lastmile_qr_scan", "android": "https://dc.lft.to/lastmile_qr_scan"}, "lon": -76.9713625, "bike_id": "231fb8e6f5eb39dc975e663e82f051e2", "type": "electric_scooter", "name": "231fb8e6f5eb39dc975e663e82f051e2"}, {"is_disabled": 0, "is_reserved": 0, "fusion_lat": 0.0, "lat": 38.92978516666667, "fusion_lon": 0.0, "rental_uris": {"ios": "https://dc.lft.to/lastmile_qr_scan", "android": "https://dc.lft.to/lastmile_qr_scan"}, "lon": -77.03881616666666, "bike_id": "7f175bd88c46352cb00480d14c3917cf", "type": "electric_scooter", "name": "7f175bd88c46352cb00480d14c3917cf"}, {"is_disabled": 0, "is_reserved": 0, "fusion_lat": 0.0, "lat": 38.89941566666667, "fusion_lon": 0.0, "rental_uris": {"ios": "https://dc.lft.to/lastmile_qr_scan", "android": "https://dc.lft.to/lastmile_qr_scan"}, "lon": -77.0152625, "bike_id": "5af175c877b510c361281b2daecd0077", "type": "electric_scooter", "name": "5af175c877b510c361281b2daecd0077"}, {"is_disabled": 0, "is_reserved": 0, "fusion_lat": 0.0, "lat": 38.9091165, "fusion_lon": 0.0, "rental_uris": {"ios": "https://dc.lft.to/lastmile_qr_scan", "android": "https://dc.lft.to/lastmile_qr_scan"}, "lon": -77.049439, "bike_id": "19e83ea4a6db2762ea6305faafb00a69", "type": "electric_scooter", "name": "19e83ea4a6db2762ea6305faafb00a69"}, {"is_disabled": 0, "is_reserved": 0, "fusion_lat": 0.0, "lat": 38.9036385, "fusion_lon": 0.0, "rental_uris": {"ios": "https://dc.lft.to/lastmile_qr_scan", "android": "https://dc.lft.to/lastmile_qr_scan"}, "lon": -77.02579266666666, "bike_id": "94d72a8ffb7024f95962708e20a59a35", "type": "electric_scooter", "name": "94d72a8ffb7024f95962708e20a59a35"}, {"is_disabled": 0, "is_reserved": 0, "fusion_lat": 0.0, "lat": 38.84292666666666, "fusion_lon": 0.0, "rental_uris": {"ios": "https://dc.lft.to/lastmile_qr_scan", "android": "https://dc.lft.to/lastmile_qr_scan"}, "lon": -77.06377833333333, "bike_id": "da68c12983580ac5004ebae31c43bde9", "type": "electric_bike", "name": "da68c12983580ac5004ebae31c43bde9"}, {"is_disabled": 0, "is_reserved": 0, "fusion_lat": 0.0, "lat": 38.9257295, "fusion_lon": 0.0, "rental_uris": {"ios": "https://dc.lft.to/lastmile_qr_scan", "android": "https://dc.lft.to/lastmile_qr_scan"}, "lon": -77.052579, "bike_id": "9215a32b7310cea0c42f05c94e122b62", "type": "electric_scooter", "name": "9215a32b7310cea0c42f05c94e122b62"}, {"is_disabled": 0, "is_reserved": 0, "fusion_lat": 0.0, "lat": 38.97284333333333, "fusion_lon": 0.0, "rental_uris": {"ios": "https://dc.lft.to/lastmile_qr_scan", "android": "https://dc.lft.to/lastmile_qr_scan"}, "lon": -77.036239, "bike_id": "7b2498086570030fa70447a9e1a3513f", "type": "electric_bike", "name": "7b2498086570030fa70447a9e1a3513f"}, {"is_disabled": 0, "is_reserved": 0, "fusion_lat": 0.0, "lat": 38.877444, "fusion_lon": 0.0, "rental_uris": {"ios": "https://dc.lft.to/lastmile_qr_scan", "android": "https://dc.lft.to/lastmile_qr_scan"}, "lon": -76.995197, "bike_id": "1911b95704480163fe5e6544d037d887", "type": "electric_scooter", "name": "1911b95704480163fe5e6544d037d887"}, {"is_disabled": 0, "is_reserved": 0, "fusion_lat": 0.0, "lat": 38.90057916666667, "fusion_lon": 0.0, "rental_uris": {"ios": "https://dc.lft.to/lastmile_qr_scan", "android": "https://dc.lft.to/lastmile_qr_scan"}, "lon": -77.026142, "bike_id": "40fa0576a5f7d317eabb7254c7ef8886", "type": "electric_scooter", "name": "40fa0576a5f7d317eabb7254c7ef8886"}, {"is_disabled": 0, "is_reserved": 0, "fusion_lat": 0.0, "lat": 38.91406, "fusion_lon": 0.0, "rental_uris": {"ios": "https://dc.lft.to/lastmile_qr_scan", "android": "https://dc.lft.to/lastmile_qr_scan"}, "lon": -77.03168716666667, "bike_id": "dfc527f7f8413bb839860508b7d0c357", "type": "electric_scooter", "name": "dfc527f7f8413bb839860508b7d0c357"}, {"is_disabled": 0, "is_reserved": 0, "fusion_lat": 0.0, "lat": 38.901778, "fusion_lon": 0.0, "rental_uris": {"ios": "https://dc.lft.to/lastmile_qr_scan", "android": "https://dc.lft.to/lastmile_qr_scan"}, "lon": -77.00208133333334, "bike_id": "320c1b420cd4eac073efb0b88e763bdc", "type": "electric_scooter", "name": "320c1b420cd4eac073efb0b88e763bdc"}, {"is_disabled": 0, "is_reserved": 0, "fusion_lat": 0.0, "lat": 38.926576833333336, "fusion_lon": 0.0, "rental_uris": {"ios": "https://dc.lft.to/lastmile_qr_scan", "android": "https://dc.lft.to/lastmile_qr_scan"}, "lon": -76.99295433333333, "bike_id": "d20acfc8be017d214b552fa61ffbf884", "type": "electric_scooter", "name": "d20acfc8be017d214b552fa61ffbf884"}, {"is_disabled": 0, "is_reserved": 0, "fusion_lat": 0.0, "lat": 38.90277116666667, "fusion_lon": 0.0, "rental_uris": {"ios": "https://dc.lft.to/lastmile_qr_scan", "android": "https://dc.lft.to/lastmile_qr_scan"}, "lon": -77.04542416666666, "bike_id": "bec96b2e9cd406594e3b27bfcef271ca", "type": "electric_scooter", "name": "bec96b2e9cd406594e3b27bfcef271ca"}, {"is_disabled": 0, "is_reserved": 0, "fusion_lat": 0.0, "lat": 38.95247066666667, "fusion_lon": 0.0, "rental_uris": {"ios": "https://dc.lft.to/lastmile_qr_scan", "android": "https://dc.lft.to/lastmile_qr_scan"}, "lon": -77.096241, "bike_id": "d849ff271c29f3d4bd4b2e7865add724", "type": "electric_bike", "name": "d849ff271c29f3d4bd4b2e7865add724"}, {"is_disabled": 0, "is_reserved": 0, "fusion_lat": 0.0, "lat": 38.922574833333336, "fusion_lon": 0.0, "rental_uris": {"ios": "https://dc.lft.to/lastmile_qr_scan", "android": "https://dc.lft.to/lastmile_qr_scan"}, "lon": -77.02976066666666, "bike_id": "749ed6d4ffc8d19749b391b6874c44e9", "type": "electric_scooter", "name": "749ed6d4ffc8d19749b391b6874c44e9"}, {"is_disabled": 0, "is_reserved": 0, "fusion_lat": 0.0, "lat": 38.91583133333334, "fusion_lon": 0.0, "rental_uris": {"ios": "https://dc.lft.to/lastmile_qr_scan", "android": "https://dc.lft.to/lastmile_qr_scan"}, "lon": -76.98306333333333, "bike_id": "fdd455549845ddf61fc668c93e3b725c", "type": "electric_scooter", "name": "fdd455549845ddf61fc668c93e3b725c"}, {"is_disabled": 0, "is_reserved": 0, "fusion_lat": 0.0, "lat": 38.831585, "fusion_lon": 0.0, "rental_uris": {"ios": "https://dc.lft.to/lastmile_qr_scan", "android": "https://dc.lft.to/lastmile_qr_scan"}, "lon": -76.99542316666667, "bike_id": "cc58bb6e0b4a6ac1e6398c05a993fddd", "type": "electric_bike", "name": "cc58bb6e0b4a6ac1e6398c05a993fddd"}, {"is_disabled": 0, "is_reserved": 0, "fusion_lat": 0.0, "lat": 38.93461683333334, "fusion_lon": 0.0, "rental_uris": {"ios": "https://dc.lft.to/lastmile_qr_scan", "android": "https://dc.lft.to/lastmile_qr_scan"}, "lon": -77.02763466666667, "bike_id": "ccb108cfacffee3a30b68049bb63caad", "type": "electric_scooter", "name": "ccb108cfacffee3a30b68049bb63caad"}, {"is_disabled": 0, "is_reserved": 0, "fusion_lat": 0.0, "lat": 38.92481166666666, "fusion_lon": 0.0, "rental_uris": {"ios": "https://dc.lft.to/lastmile_qr_scan", "android": "https://dc.lft.to/lastmile_qr_scan"}, "lon": -77.031787, "bike_id": "1ab5c5e7e69015e63b75cfb2df3ea452", "type": "electric_scooter", "name": "1ab5c5e7e69015e63b75cfb2df3ea452"}, {"is_disabled": 0, "is_reserved": 0, "fusion_lat": 0.0, "lat": 38.901817, "fusion_lon": 0.0, "rental_uris": {"ios": "https://dc.lft.to/lastmile_qr_scan", "android": "https://dc.lft.to/lastmile_qr_scan"}, "lon": -77.00220133333333, "bike_id": "b69cdceeda36ffeb50876c1802fd3757", "type": "electric_scooter", "name": "b69cdceeda36ffeb50876c1802fd3757"}, {"is_disabled": 0, "is_reserved": 0, "fusion_lat": 0.0, "lat": 38.866261333333334, "fusion_lon": 0.0, "rental_uris": {"ios": "https://dc.lft.to/lastmile_qr_scan", "android": "https://dc.lft.to/lastmile_qr_scan"}, "lon": -76.98258616666666, "bike_id": "eb37783d0134e702cb3f462c646e9d29", "type": "electric_scooter", "name": "eb37783d0134e702cb3f462c646e9d29"}, {"is_disabled": 0, "is_reserved": 0, "fusion_lat": 0.0, "lat": 38.876367, "fusion_lon": 0.0, "rental_uris": {"ios": "https://dc.lft.to/lastmile_qr_scan", "android": "https://dc.lft.to/lastmile_qr_scan"}, "lon": -76.99293366666667, "bike_id": "461b93112c9ea67a8dfb379a1d71f8c8", "type": "electric_scooter", "name": "461b93112c9ea67a8dfb379a1d71f8c8"}, {"is_disabled": 0, "is_reserved": 0, "fusion_lat": 0.0, "lat": 38.93145283333333, "fusion_lon": 0.0, "rental_uris": {"ios": "https://dc.lft.to/lastmile_qr_scan", "android": "https://dc.lft.to/lastmile_qr_scan"}, "lon": -77.05696666666667, "bike_id": "84056e622c8dbd953eee88054f8e3358", "type": "electric_scooter", "name": "84056e622c8dbd953eee88054f8e3358"}, {"is_disabled": 0, "is_reserved": 0, "fusion_lat": 0.0, "lat": 38.91305916666666, "fusion_lon": 0.0, "rental_uris": {"ios": "https://dc.lft.to/lastmile_qr_scan", "android": "https://dc.lft.to/lastmile_qr_scan"}, "lon": -77.0433035, "bike_id": "6d7ef039597755a88256f309362ca65f", "type": "electric_scooter", "name": "6d7ef039597755a88256f309362ca65f"}, {"is_disabled": 0, "is_reserved": 0, "fusion_lat": 0.0, "lat": 38.9090235, "fusion_lon": 0.0, "rental_uris": {"ios": "https://dc.lft.to/lastmile_qr_scan", "android": "https://dc.lft.to/lastmile_qr_scan"}, "lon": -77.03526166666667, "bike_id": "f72ca759530613f4879b9ee9b278557e", "type": "electric_scooter", "name": "f72ca759530613f4879b9ee9b278557e"}, {"is_disabled": 0, "is_reserved": 0, "fusion_lat": 0.0, "lat": 38.90154716666667, "fusion_lon": 0.0, "rental_uris": {"ios": "https://dc.lft.to/lastmile_qr_scan", "android": "https://dc.lft.to/lastmile_qr_scan"}, "lon": -77.03810016666667, "bike_id": "bb5ae6d20005545bf0d6a6a239286beb", "type": "electric_scooter", "name": "bb5ae6d20005545bf0d6a6a239286beb"}, {"is_disabled": 0, "is_reserved": 0, "fusion_lat": 0.0, "lat": 38.899932, "fusion_lon": 0.0, "rental_uris": {"ios": "https://dc.lft.to/lastmile_qr_scan", "android": "https://dc.lft.to/lastmile_qr_scan"}, "lon": -76.99480933333334, "bike_id": "305d5768d3fcdc0e85af5d9996e51bfe", "type": "electric_bike", "name": "305d5768d3fcdc0e85af5d9996e51bfe"}, {"is_disabled": 0, "is_reserved": 0, "fusion_lat": 0.0, "lat": 38.917460166666665, "fusion_lon": 0.0, "rental_uris": {"ios": "https://dc.lft.to/lastmile_qr_scan", "android": "https://dc.lft.to/lastmile_qr_scan"}, "lon": -77.02801883333333, "bike_id": "dccd91a02c626403f7b0fe469322acae", "type": "electric_scooter", "name": "dccd91a02c626403f7b0fe469322acae"}, {"is_disabled": 0, "is_reserved": 0, "fusion_lat": 0.0, "lat": 38.887112333333334, "fusion_lon": 0.0, "rental_uris": {"ios": "https://dc.lft.to/lastmile_qr_scan", "android": "https://dc.lft.to/lastmile_qr_scan"}, "lon": -76.98378666666666, "bike_id": "ed2321862592bc7c9cc70345b25d5e78", "type": "electric_scooter", "name": "ed2321862592bc7c9cc70345b25d5e78"}, {"is_disabled": 0, "is_reserved": 0, "fusion_lat": 0.0, "lat": 38.8762405, "fusion_lon": 0.0, "rental_uris": {"ios": "https://dc.lft.to/lastmile_qr_scan", "android": "https://dc.lft.to/lastmile_qr_scan"}, "lon": -77.00755316666667, "bike_id": "ef45c01873fcc1f04f19ad2c9879914d", "type": "electric_scooter", "name": "ef45c01873fcc1f04f19ad2c9879914d"}, {"is_disabled": 0, "is_reserved": 0, "fusion_lat": 0.0, "lat": 38.901839833333334, "fusion_lon": 0.0, "rental_uris": {"ios": "https://dc.lft.to/lastmile_qr_scan", "android": "https://dc.lft.to/lastmile_qr_scan"}, "lon": -76.97667633333333, "bike_id": "ac1b854938db282bc3f18769acd03d54", "type": "electric_scooter", "name": "ac1b854938db282bc3f18769acd03d54"}, {"is_disabled": 0, "is_reserved": 0, "fusion_lat": 0.0, "lat": 38.90655183333333, "fusion_lon": 0.0, "rental_uris": {"ios": "https://dc.lft.to/lastmile_qr_scan", "android": "https://dc.lft.to/lastmile_qr_scan"}, "lon": -77.024789, "bike_id": "d711957c53cdeee5b66c52205d5e11ec", "type": "electric_scooter", "name": "d711957c53cdeee5b66c52205d5e11ec"}, {"is_disabled": 0, "is_reserved": 0, "fusion_lat": 0.0, "lat": 38.91152833333334, "fusion_lon": 0.0, "rental_uris": {"ios": "https://dc.lft.to/lastmile_qr_scan", "android": "https://dc.lft.to/lastmile_qr_scan"}, "lon": -77.01993633333333, "bike_id": "9c8d5383ead4409d6f56fac2df68714e", "type": "electric_scooter", "name": "9c8d5383ead4409d6f56fac2df68714e"}, {"is_disabled": 0, "is_reserved": 0, "fusion_lat": 0.0, "lat": 38.9250685, "fusion_lon": 0.0, "rental_uris": {"ios": "https://dc.lft.to/lastmile_qr_scan", "android": "https://dc.lft.to/lastmile_qr_scan"}, "lon": -77.0243905, "bike_id": "f7145127306bfe9a1bdf8cbc13e06b2c", "type": "electric_scooter", "name": "f7145127306bfe9a1bdf8cbc13e06b2c"}, {"is_disabled": 0, "is_reserved": 0, "fusion_lat": 0.0, "lat": 38.90179116666667, "fusion_lon": 0.0, "rental_uris": {"ios": "https://dc.lft.to/lastmile_qr_scan", "android": "https://dc.lft.to/lastmile_qr_scan"}, "lon": -77.05906566666667, "bike_id": "f1e800d753567b6560ac281d7547a605", "type": "electric_scooter", "name": "f1e800d753567b6560ac281d7547a605"}, {"is_disabled": 0, "is_reserved": 0, "fusion_lat": 0.0, "lat": 38.923349, "fusion_lon": 0.0, "rental_uris": {"ios": "https://dc.lft.to/lastmile_qr_scan", "android": "https://dc.lft.to/lastmile_qr_scan"}, "lon": -77.0225225, "bike_id": "984c1f2001eb768c84a0c796e5e717a9", "type": "electric_scooter", "name": "984c1f2001eb768c84a0c796e5e717a9"}, {"is_disabled": 0, "is_reserved": 0, "fusion_lat": 0.0, "lat": 38.9524215, "fusion_lon": 0.0, "rental_uris": {"ios": "https://dc.lft.to/lastmile_qr_scan", "android": "https://dc.lft.to/lastmile_qr_scan"}, "lon": -76.9824505, "bike_id": "34249727a9080466f9956d82576de303", "type": "electric_bike", "name": "34249727a9080466f9956d82576de303"}, {"is_disabled": 0, "is_reserved": 0, "fusion_lat": 0.0, "lat": 38.9213595, "fusion_lon": 0.0, "rental_uris": {"ios": "https://dc.lft.to/lastmile_qr_scan", "android": "https://dc.lft.to/lastmile_qr_scan"}, "lon": -77.003982, "bike_id": "bbd6690a41c88d163fb2ad2bf46ccb59", "type": "electric_scooter", "name": "bbd6690a41c88d163fb2ad2bf46ccb59"}, {"is_disabled": 0, "is_reserved": 0, "fusion_lat": 0.0, "lat": 38.927937666666665, "fusion_lon": 0.0, "rental_uris": {"ios": "https://dc.lft.to/lastmile_qr_scan", "android": "https://dc.lft.to/lastmile_qr_scan"}, "lon": -77.02132333333333, "bike_id": "9fb0948e3a80ae8511516059b0b8bb2c", "type": "electric_scooter", "name": "9fb0948e3a80ae8511516059b0b8bb2c"}, {"is_disabled": 0, "is_reserved": 0, "fusion_lat": 0.0, "lat": 38.927311833333334, "fusion_lon": 0.0, "rental_uris": {"ios": "https://dc.lft.to/lastmile_qr_scan", "android": "https://dc.lft.to/lastmile_qr_scan"}, "lon": -77.0227895, "bike_id": "e926ff4a7d812af024a847531197cbba", "type": "electric_scooter", "name": "e926ff4a7d812af024a847531197cbba"}, {"is_disabled": 0, "is_reserved": 0, "fusion_lat": 0.0, "lat": 38.901335, "fusion_lon": 0.0, "rental_uris": {"ios": "https://dc.lft.to/lastmile_qr_scan", "android": "https://dc.lft.to/lastmile_qr_scan"}, "lon": -77.014768, "bike_id": "a59a86768832d6dcd54570ccf38b51a9", "type": "electric_scooter", "name": "a59a86768832d6dcd54570ccf38b51a9"}, {"is_disabled": 0, "is_reserved": 0, "fusion_lat": 0.0, "lat": 38.92815083333333, "fusion_lon": 0.0, "rental_uris": {"ios": "https://dc.lft.to/lastmile_qr_scan", "android": "https://dc.lft.to/lastmile_qr_scan"}, "lon": -77.04337166666667, "bike_id": "4234ba313dd03e84e43ef2992b4cf559", "type": "electric_scooter", "name": "4234ba313dd03e84e43ef2992b4cf559"}, {"is_disabled": 0, "is_reserved": 0, "fusion_lat": 0.0, "lat": 38.902294, "fusion_lon": 0.0, "rental_uris": {"ios": "https://dc.lft.to/lastmile_qr_scan", "android": "https://dc.lft.to/lastmile_qr_scan"}, "lon": -77.02977933333334, "bike_id": "0cd00071ad71fceca46770ad465a24bb", "type": "electric_scooter", "name": "0cd00071ad71fceca46770ad465a24bb"}, {"is_disabled": 0, "is_reserved": 0, "fusion_lat": 0.0, "lat": 38.916171166666665, "fusion_lon": 0.0, "rental_uris": {"ios": "https://dc.lft.to/lastmile_qr_scan", "android": "https://dc.lft.to/lastmile_qr_scan"}, "lon": -76.982785, "bike_id": "3733e1f91d6276570c6b9cf95c10ec99", "type": "electric_scooter", "name": "3733e1f91d6276570c6b9cf95c10ec99"}, {"is_disabled": 0, "is_reserved": 0, "fusion_lat": 0.0, "lat": 38.805241, "fusion_lon": 0.0, "rental_uris": {"ios": "https://dc.lft.to/lastmile_qr_scan", "android": "https://dc.lft.to/lastmile_qr_scan"}, "lon": -77.04333333333334, "bike_id": "e757888372506fac1ef9133e3f56eb81", "type": "electric_bike", "name": "e757888372506fac1ef9133e3f56eb81"}, {"is_disabled": 0, "is_reserved": 0, "fusion_lat": 0.0, "lat": 38.89847983333333, "fusion_lon": 0.0, "rental_uris": {"ios": "https://dc.lft.to/lastmile_qr_scan", "android": "https://dc.lft.to/lastmile_qr_scan"}, "lon": -76.9914565, "bike_id": "418e5503a1dea82c788e427eda478b7d", "type": "electric_scooter", "name": "418e5503a1dea82c788e427eda478b7d"}, {"is_disabled": 0, "is_reserved": 0, "fusion_lat": 0.0, "lat": 38.90843916666667, "fusion_lon": 0.0, "rental_uris": {"ios": "https://dc.lft.to/lastmile_qr_scan", "android": "https://dc.lft.to/lastmile_qr_scan"}, "lon": -76.93448166666667, "bike_id": "ddc21c6d56c782abb16dacaf3a8ec845", "type": "electric_scooter", "name": "ddc21c6d56c782abb16dacaf3a8ec845"}, {"is_disabled": 0, "is_reserved": 0, "fusion_lat": 0.0, "lat": 38.897893833333335, "fusion_lon": 0.0, "rental_uris": {"ios": "https://dc.lft.to/lastmile_qr_scan", "android": "https://dc.lft.to/lastmile_qr_scan"}, "lon": -77.04800383333334, "bike_id": "8d7d03aefce203c4c5069ec90178b0a0", "type": "electric_scooter", "name": "8d7d03aefce203c4c5069ec90178b0a0"}, {"is_disabled": 0, "is_reserved": 0, "fusion_lat": 0.0, "lat": 38.8744885, "fusion_lon": 0.0, "rental_uris": {"ios": "https://dc.lft.to/lastmile_qr_scan", "android": "https://dc.lft.to/lastmile_qr_scan"}, "lon": -77.00920816666667, "bike_id": "ca34d82e7635aeef26ceab382e9d1703", "type": "electric_scooter", "name": "ca34d82e7635aeef26ceab382e9d1703"}, {"is_disabled": 0, "is_reserved": 0, "fusion_lat": 0.0, "lat": 38.967972833333334, "fusion_lon": 0.0, "rental_uris": {"ios": "https://dc.lft.to/lastmile_qr_scan", "android": "https://dc.lft.to/lastmile_qr_scan"}, "lon": -77.02431083333333, "bike_id": "a5d734d453d0f2284dd0165678b1fbac", "type": "electric_scooter", "name": "a5d734d453d0f2284dd0165678b1fbac"}, {"is_disabled": 0, "is_reserved": 0, "fusion_lat": 0.0, "lat": 38.921765, "fusion_lon": 0.0, "rental_uris": {"ios": "https://dc.lft.to/lastmile_qr_scan", "android": "https://dc.lft.to/lastmile_qr_scan"}, "lon": -77.0382795, "bike_id": "72666baf01c34811df2dcf32f6bb632a", "type": "electric_scooter", "name": "72666baf01c34811df2dcf32f6bb632a"}, {"is_disabled": 0, "is_reserved": 0, "fusion_lat": 0.0, "lat": 38.96552283333333, "fusion_lon": 0.0, "rental_uris": {"ios": "https://dc.lft.to/lastmile_qr_scan", "android": "https://dc.lft.to/lastmile_qr_scan"}, "lon": -77.01621833333333, "bike_id": "c25982a2567fa9350f39ef3c23536d65", "type": "electric_bike", "name": "c25982a2567fa9350f39ef3c23536d65"}, {"is_disabled": 0, "is_reserved": 0, "fusion_lat": 0.0, "lat": 38.91266783333333, "fusion_lon": 0.0, "rental_uris": {"ios": "https://dc.lft.to/lastmile_qr_scan", "android": "https://dc.lft.to/lastmile_qr_scan"}, "lon": -77.0359055, "bike_id": "579412df89f8b5d31ea692c16bf157ab", "type": "electric_scooter", "name": "579412df89f8b5d31ea692c16bf157ab"}, {"is_disabled": 0, "is_reserved": 0, "fusion_lat": 0.0, "lat": 39.022976666666665, "fusion_lon": 0.0, "rental_uris": {"ios": "https://dc.lft.to/lastmile_qr_scan", "android": "https://dc.lft.to/lastmile_qr_scan"}, "lon": -77.02105383333334, "bike_id": "769a4f431d04cd295b1823c160580702", "type": "electric_bike", "name": "769a4f431d04cd295b1823c160580702"}, {"is_disabled": 0, "is_reserved": 0, "fusion_lat": 0.0, "lat": 38.902780666666665, "fusion_lon": 0.0, "rental_uris": {"ios": "https://dc.lft.to/lastmile_qr_scan", "android": "https://dc.lft.to/lastmile_qr_scan"}, "lon": -77.017503, "bike_id": "d72e9db75e4f25d94f851a9ccb0dec43", "type": "electric_scooter", "name": "d72e9db75e4f25d94f851a9ccb0dec43"}, {"is_disabled": 0, "is_reserved": 0, "fusion_lat": 0.0, "lat": 38.83490483333333, "fusion_lon": 0.0, "rental_uris": {"ios": "https://dc.lft.to/lastmile_qr_scan", "android": "https://dc.lft.to/lastmile_qr_scan"}, "lon": -77.00430616666667, "bike_id": "a2f4ab9ee8aa5f3a6def5a90535deab4", "type": "electric_bike", "name": "a2f4ab9ee8aa5f3a6def5a90535deab4"}, {"is_disabled": 0, "is_reserved": 0, "fusion_lat": 0.0, "lat": 38.90251266666667, "fusion_lon": 0.0, "rental_uris": {"ios": "https://dc.lft.to/lastmile_qr_scan", "android": "https://dc.lft.to/lastmile_qr_scan"}, "lon": -77.0175685, "bike_id": "e79cf71f547e2bd1c1c2df60e3d55b29", "type": "electric_scooter", "name": "e79cf71f547e2bd1c1c2df60e3d55b29"}, {"is_disabled": 0, "is_reserved": 0, "fusion_lat": 0.0, "lat": 38.98229883333333, "fusion_lon": 0.0, "rental_uris": {"ios": "https://dc.lft.to/lastmile_qr_scan", "android": "https://dc.lft.to/lastmile_qr_scan"}, "lon": -77.09548916666667, "bike_id": "516746ae6c5b1812384e50848c3984ee", "type": "electric_bike", "name": "516746ae6c5b1812384e50848c3984ee"}, {"is_disabled": 0, "is_reserved": 0, "fusion_lat": 0.0, "lat": 38.924618, "fusion_lon": 0.0, "rental_uris": {"ios": "https://dc.lft.to/lastmile_qr_scan", "android": "https://dc.lft.to/lastmile_qr_scan"}, "lon": -77.0363625, "bike_id": "095f4272e1a4d66102ad634a589e0741", "type": "electric_scooter", "name": "095f4272e1a4d66102ad634a589e0741"}, {"is_disabled": 0, "is_reserved": 0, "fusion_lat": 0.0, "lat": 38.918834333333336, "fusion_lon": 0.0, "rental_uris": {"ios": "https://dc.lft.to/lastmile_qr_scan", "android": "https://dc.lft.to/lastmile_qr_scan"}, "lon": -77.03493883333333, "bike_id": "c218d30ee2d321b90f7feca2ced838f0", "type": "electric_scooter", "name": "c218d30ee2d321b90f7feca2ced838f0"}, {"is_disabled": 0, "is_reserved": 0, "fusion_lat": 0.0, "lat": 38.89848766666667, "fusion_lon": 0.0, "rental_uris": {"ios": "https://dc.lft.to/lastmile_qr_scan", "android": "https://dc.lft.to/lastmile_qr_scan"}, "lon": -77.00196083333333, "bike_id": "d38e5286b9870c38e4ccddf796a3d094", "type": "electric_scooter", "name": "d38e5286b9870c38e4ccddf796a3d094"}, {"is_disabled": 0, "is_reserved": 0, "fusion_lat": 0.0, "lat": 38.87847583333333, "fusion_lon": 0.0, "rental_uris": {"ios": "https://dc.lft.to/lastmile_qr_scan", "android": "https://dc.lft.to/lastmile_qr_scan"}, "lon": -77.00864883333334, "bike_id": "69b7609a71bf45ad247f1f48489eb0b0", "type": "electric_bike", "name": "69b7609a71bf45ad247f1f48489eb0b0"}, {"is_disabled": 0, "is_reserved": 0, "fusion_lat": 0.0, "lat": 38.974775, "fusion_lon": 0.0, "rental_uris": {"ios": "https://dc.lft.to/lastmile_qr_scan", "android": "https://dc.lft.to/lastmile_qr_scan"}, "lon": -76.9867145, "bike_id": "59c962263b3116052dc82591efb016dd", "type": "electric_bike", "name": "59c962263b3116052dc82591efb016dd"}, {"is_disabled": 0, "is_reserved": 0, "fusion_lat": 0.0, "lat": 38.840924, "fusion_lon": 0.0, "rental_uris": {"ios": "https://dc.lft.to/lastmile_qr_scan", "android": "https://dc.lft.to/lastmile_qr_scan"}, "lon": -76.97025566666667, "bike_id": "cec7fae86cd5b87f8c85abe2638ccb44", "type": "electric_bike", "name": "cec7fae86cd5b87f8c85abe2638ccb44"}, {"is_disabled": 0, "is_reserved": 0, "fusion_lat": 0.0, "lat": 38.8947865, "fusion_lon": 0.0, "rental_uris": {"ios": "https://dc.lft.to/lastmile_qr_scan", "android": "https://dc.lft.to/lastmile_qr_scan"}, "lon": -77.02270033333333, "bike_id": "65bc1f23306100e4baa8ebd54681fd43", "type": "electric_scooter", "name": "65bc1f23306100e4baa8ebd54681fd43"}, {"is_disabled": 0, "is_reserved": 0, "fusion_lat": 0.0, "lat": 38.91467866666667, "fusion_lon": 0.0, "rental_uris": {"ios": "https://dc.lft.to/lastmile_qr_scan", "android": "https://dc.lft.to/lastmile_qr_scan"}, "lon": -77.02190066666667, "bike_id": "2ed5faec4b8e1fc8257847f00c0cb926", "type": "electric_scooter", "name": "2ed5faec4b8e1fc8257847f00c0cb926"}, {"is_disabled": 0, "is_reserved": 0, "fusion_lat": 0.0, "lat": 38.902006666666665, "fusion_lon": 0.0, "rental_uris": {"ios": "https://dc.lft.to/lastmile_qr_scan", "android": "https://dc.lft.to/lastmile_qr_scan"}, "lon": -76.99258666666667, "bike_id": "b1f0f857963d74d9185c17e9b1f9f86c", "type": "electric_scooter", "name": "b1f0f857963d74d9185c17e9b1f9f86c"}, {"is_disabled": 0, "is_reserved": 0, "fusion_lat": 0.0, "lat": 38.90605883333333, "fusion_lon": 0.0, "rental_uris": {"ios": "https://dc.lft.to/lastmile_qr_scan", "android": "https://dc.lft.to/lastmile_qr_scan"}, "lon": -77.02105416666667, "bike_id": "841aafb38f26d41f4504feeb7f6b77e5", "type": "electric_scooter", "name": "841aafb38f26d41f4504feeb7f6b77e5"}, {"is_disabled": 0, "is_reserved": 0, "fusion_lat": 0.0, "lat": 38.85516916666667, "fusion_lon": 0.0, "rental_uris": {"ios": "https://dc.lft.to/lastmile_qr_scan", "android": "https://dc.lft.to/lastmile_qr_scan"}, "lon": -76.99141416666667, "bike_id": "6ed7399203fc259b93ccfdf4d0f2c0d6", "type": "electric_scooter", "name": "6ed7399203fc259b93ccfdf4d0f2c0d6"}, {"is_disabled": 0, "is_reserved": 0, "fusion_lat": 0.0, "lat": 38.9222445, "fusion_lon": 0.0, "rental_uris": {"ios": "https://dc.lft.to/lastmile_qr_scan", "android": "https://dc.lft.to/lastmile_qr_scan"}, "lon": -77.03297233333333, "bike_id": "5b726ef5265d485dcd0ca9431f175d54", "type": "electric_scooter", "name": "5b726ef5265d485dcd0ca9431f175d54"}, {"is_disabled": 0, "is_reserved": 0, "fusion_lat": 0.0, "lat": 38.901733166666666, "fusion_lon": 0.0, "rental_uris": {"ios": "https://dc.lft.to/lastmile_qr_scan", "android": "https://dc.lft.to/lastmile_qr_scan"}, "lon": -76.987334, "bike_id": "0b33a7ee0ff98928c778eafab22f7cd7", "type": "electric_scooter", "name": "0b33a7ee0ff98928c778eafab22f7cd7"}, {"is_disabled": 0, "is_reserved": 0, "fusion_lat": 0.0, "lat": 38.917773, "fusion_lon": 0.0, "rental_uris": {"ios": "https://dc.lft.to/lastmile_qr_scan", "android": "https://dc.lft.to/lastmile_qr_scan"}, "lon": -77.03199316666667, "bike_id": "21c48ee88de4a7640e86284bcf4e1fbe", "type": "electric_scooter", "name": "21c48ee88de4a7640e86284bcf4e1fbe"}, {"is_disabled": 0, "is_reserved": 0, "fusion_lat": 0.0, "lat": 38.904758, "fusion_lon": 0.0, "rental_uris": {"ios": "https://dc.lft.to/lastmile_qr_scan", "android": "https://dc.lft.to/lastmile_qr_scan"}, "lon": -76.95048083333333, "bike_id": "5d7538b0f1a8c6c3a24f89f9c7c42f2e", "type": "electric_scooter", "name": "5d7538b0f1a8c6c3a24f89f9c7c42f2e"}, {"is_disabled": 0, "is_reserved": 0, "fusion_lat": 0.0, "lat": 38.89837133333333, "fusion_lon": 0.0, "rental_uris": {"ios": "https://dc.lft.to/lastmile_qr_scan", "android": "https://dc.lft.to/lastmile_qr_scan"}, "lon": -76.99025616666667, "bike_id": "2893b8a9e20267be23060d0a560d5511", "type": "electric_scooter", "name": "2893b8a9e20267be23060d0a560d5511"}, {"is_disabled": 0, "is_reserved": 0, "fusion_lat": 0.0, "lat": 38.90521183333333, "fusion_lon": 0.0, "rental_uris": {"ios": "https://dc.lft.to/lastmile_qr_scan", "android": "https://dc.lft.to/lastmile_qr_scan"}, "lon": -77.00121866666667, "bike_id": "3608dced28fff4b01dbb16bea7d24f68", "type": "electric_scooter", "name": "3608dced28fff4b01dbb16bea7d24f68"}, {"is_disabled": 0, "is_reserved": 0, "fusion_lat": 0.0, "lat": 38.875727499999996, "fusion_lon": 0.0, "rental_uris": {"ios": "https://dc.lft.to/lastmile_qr_scan", "android": "https://dc.lft.to/lastmile_qr_scan"}, "lon": -77.00607783333334, "bike_id": "debc7608d8551c87f965c539a80e2499", "type": "electric_scooter", "name": "debc7608d8551c87f965c539a80e2499"}, {"is_disabled": 0, "is_reserved": 0, "fusion_lat": 0.0, "lat": 38.89492216666667, "fusion_lon": 0.0, "rental_uris": {"ios": "https://dc.lft.to/lastmile_qr_scan", "android": "https://dc.lft.to/lastmile_qr_scan"}, "lon": -77.023027, "bike_id": "e1db2c4513b73d6bcf8d2000a1378424", "type": "electric_scooter", "name": "e1db2c4513b73d6bcf8d2000a1378424"}, {"is_disabled": 0, "is_reserved": 0, "fusion_lat": 0.0, "lat": 38.929861, "fusion_lon": 0.0, "rental_uris": {"ios": "https://dc.lft.to/lastmile_qr_scan", "android": "https://dc.lft.to/lastmile_qr_scan"}, "lon": -77.0347225, "bike_id": "90c54789fb53e3870ccd6801742db0e3", "type": "electric_scooter", "name": "90c54789fb53e3870ccd6801742db0e3"}, {"is_disabled": 0, "is_reserved": 0, "fusion_lat": 0.0, "lat": 38.8925385, "fusion_lon": 0.0, "rental_uris": {"ios": "https://dc.lft.to/lastmile_qr_scan", "android": "https://dc.lft.to/lastmile_qr_scan"}, "lon": -77.04656266666667, "bike_id": "5fb1d0ea2589bed43bd1d1f3f3dd9125", "type": "electric_scooter", "name": "5fb1d0ea2589bed43bd1d1f3f3dd9125"}, {"is_disabled": 0, "is_reserved": 0, "fusion_lat": 0.0, "lat": 38.84601283333333, "fusion_lon": 0.0, "rental_uris": {"ios": "https://dc.lft.to/lastmile_qr_scan", "android": "https://dc.lft.to/lastmile_qr_scan"}, "lon": -76.9741735, "bike_id": "559192c15fcd197fab15f40a3527a3d8", "type": "electric_scooter", "name": "559192c15fcd197fab15f40a3527a3d8"}, {"is_disabled": 0, "is_reserved": 0, "fusion_lat": 0.0, "lat": 38.922188166666665, "fusion_lon": 0.0, "rental_uris": {"ios": "https://dc.lft.to/lastmile_qr_scan", "android": "https://dc.lft.to/lastmile_qr_scan"}, "lon": -77.04336783333333, "bike_id": "24feb06d364d4c90221ee89a3608f639", "type": "electric_scooter", "name": "24feb06d364d4c90221ee89a3608f639"}, {"is_disabled": 0, "is_reserved": 0, "fusion_lat": 0.0, "lat": 38.920424, "fusion_lon": 0.0, "rental_uris": {"ios": "https://dc.lft.to/lastmile_qr_scan", "android": "https://dc.lft.to/lastmile_qr_scan"}, "lon": -77.03140333333333, "bike_id": "4c2d8a06fed7c4326f47443667eec9f9", "type": "electric_scooter", "name": "4c2d8a06fed7c4326f47443667eec9f9"}, {"is_disabled": 0, "is_reserved": 0, "fusion_lat": 0.0, "lat": 38.8995835, "fusion_lon": 0.0, "rental_uris": {"ios": "https://dc.lft.to/lastmile_qr_scan", "android": "https://dc.lft.to/lastmile_qr_scan"}, "lon": -77.04749616666666, "bike_id": "829a0b173278e997c59416a1682e7b80", "type": "electric_scooter", "name": "829a0b173278e997c59416a1682e7b80"}, {"is_disabled": 0, "is_reserved": 0, "fusion_lat": 0.0, "lat": 38.9058695, "fusion_lon": 0.0, "rental_uris": {"ios": "https://dc.lft.to/lastmile_qr_scan", "android": "https://dc.lft.to/lastmile_qr_scan"}, "lon": -77.0298625, "bike_id": "50dc98783b777499c7b57ff93a0c7520", "type": "electric_scooter", "name": "50dc98783b777499c7b57ff93a0c7520"}, {"is_disabled": 0, "is_reserved": 0, "fusion_lat": 0.0, "lat": 38.91810233333333, "fusion_lon": 0.0, "rental_uris": {"ios": "https://dc.lft.to/lastmile_qr_scan", "android": "https://dc.lft.to/lastmile_qr_scan"}, "lon": -77.0346655, "bike_id": "f18b87ce7ae3d2012a38a8de51620ad1", "type": "electric_scooter", "name": "f18b87ce7ae3d2012a38a8de51620ad1"}, {"is_disabled": 0, "is_reserved": 0, "fusion_lat": 0.0, "lat": 38.917131, "fusion_lon": 0.0, "rental_uris": {"ios": "https://dc.lft.to/lastmile_qr_scan", "android": "https://dc.lft.to/lastmile_qr_scan"}, "lon": -77.03237416666667, "bike_id": "db2ec9c522dd8f9d0f76d30144a84a99", "type": "electric_scooter", "name": "db2ec9c522dd8f9d0f76d30144a84a99"}, {"is_disabled": 0, "is_reserved": 0, "fusion_lat": 0.0, "lat": 38.87070083333333, "fusion_lon": 0.0, "rental_uris": {"ios": "https://dc.lft.to/lastmile_qr_scan", "android": "https://dc.lft.to/lastmile_qr_scan"}, "lon": -76.97943983333333, "bike_id": "2e9e7858ea81b4abda64328837704c78", "type": "electric_scooter", "name": "2e9e7858ea81b4abda64328837704c78"}, {"is_disabled": 0, "is_reserved": 0, "fusion_lat": 0.0, "lat": 38.9356365, "fusion_lon": 0.0, "rental_uris": {"ios": "https://dc.lft.to/lastmile_qr_scan", "android": "https://dc.lft.to/lastmile_qr_scan"}, "lon": -77.02849, "bike_id": "fb79c80fb08202cea5cc75081bf3828b", "type": "electric_scooter", "name": "fb79c80fb08202cea5cc75081bf3828b"}, {"is_disabled": 0, "is_reserved": 0, "fusion_lat": 0.0, "lat": 38.90316083333333, "fusion_lon": 0.0, "rental_uris": {"ios": "https://dc.lft.to/lastmile_qr_scan", "android": "https://dc.lft.to/lastmile_qr_scan"}, "lon": -77.05052733333333, "bike_id": "3340196fa77dc149e4aa92957cc2dd11", "type": "electric_scooter", "name": "3340196fa77dc149e4aa92957cc2dd11"}, {"is_disabled": 0, "is_reserved": 0, "fusion_lat": 0.0, "lat": 38.898163333333336, "fusion_lon": 0.0, "rental_uris": {"ios": "https://dc.lft.to/lastmile_qr_scan", "android": "https://dc.lft.to/lastmile_qr_scan"}, "lon": -77.0021125, "bike_id": "bc9f09e9f81ecdee72c26d48088fb94c", "type": "electric_scooter", "name": "bc9f09e9f81ecdee72c26d48088fb94c"}, {"is_disabled": 0, "is_reserved": 0, "fusion_lat": 0.0, "lat": 38.90070133333333, "fusion_lon": 0.0, "rental_uris": {"ios": "https://dc.lft.to/lastmile_qr_scan", "android": "https://dc.lft.to/lastmile_qr_scan"}, "lon": -77.0491875, "bike_id": "555f09fd5fac38e776f279e67652b538", "type": "electric_scooter", "name": "555f09fd5fac38e776f279e67652b538"}, {"is_disabled": 0, "is_reserved": 0, "fusion_lat": 0.0, "lat": 38.90196733333333, "fusion_lon": 0.0, "rental_uris": {"ios": "https://dc.lft.to/lastmile_qr_scan", "android": "https://dc.lft.to/lastmile_qr_scan"}, "lon": -76.987067, "bike_id": "91ad0bf373a94c53fe2c018bb511aa23", "type": "electric_scooter", "name": "91ad0bf373a94c53fe2c018bb511aa23"}, {"is_disabled": 0, "is_reserved": 0, "fusion_lat": 0.0, "lat": 38.89859633333333, "fusion_lon": 0.0, "rental_uris": {"ios": "https://dc.lft.to/lastmile_qr_scan", "android": "https://dc.lft.to/lastmile_qr_scan"}, "lon": -76.94641183333333, "bike_id": "3e1c064d7cff54acc894fc40a65e0fa6", "type": "electric_scooter", "name": "3e1c064d7cff54acc894fc40a65e0fa6"}, {"is_disabled": 0, "is_reserved": 0, "fusion_lat": 0.0, "lat": 38.8983115, "fusion_lon": 0.0, "rental_uris": {"ios": "https://dc.lft.to/lastmile_qr_scan", "android": "https://dc.lft.to/lastmile_qr_scan"}, "lon": -76.94634433333333, "bike_id": "d57040b3e4ca24df0fa8f51c2d879107", "type": "electric_scooter", "name": "d57040b3e4ca24df0fa8f51c2d879107"}, {"is_disabled": 0, "is_reserved": 0, "fusion_lat": 0.0, "lat": 38.904975, "fusion_lon": 0.0, "rental_uris": {"ios": "https://dc.lft.to/lastmile_qr_scan", "android": "https://dc.lft.to/lastmile_qr_scan"}, "lon": -77.06285583333333, "bike_id": "4354ad21b4df1677dc4370d419c26458", "type": "electric_scooter", "name": "4354ad21b4df1677dc4370d419c26458"}, {"is_disabled": 0, "is_reserved": 0, "fusion_lat": 0.0, "lat": 38.910010666666665, "fusion_lon": 0.0, "rental_uris": {"ios": "https://dc.lft.to/lastmile_qr_scan", "android": "https://dc.lft.to/lastmile_qr_scan"}, "lon": -77.031673, "bike_id": "a3a2434a9251af3b4ada9a31e23f8b98", "type": "electric_scooter", "name": "a3a2434a9251af3b4ada9a31e23f8b98"}, {"is_disabled": 0, "is_reserved": 0, "fusion_lat": 0.0, "lat": 38.93983716666666, "fusion_lon": 0.0, "rental_uris": {"ios": "https://dc.lft.to/lastmile_qr_scan", "android": "https://dc.lft.to/lastmile_qr_scan"}, "lon": -77.02884833333333, "bike_id": "c1419be9e888ce8004f6c2f6c9ac2b51", "type": "electric_scooter", "name": "c1419be9e888ce8004f6c2f6c9ac2b51"}, {"is_disabled": 0, "is_reserved": 0, "fusion_lat": 0.0, "lat": 38.90221066666667, "fusion_lon": 0.0, "rental_uris": {"ios": "https://dc.lft.to/lastmile_qr_scan", "android": "https://dc.lft.to/lastmile_qr_scan"}, "lon": -77.06064616666667, "bike_id": "a10dabede563de39d0c2b48e21da7413", "type": "electric_scooter", "name": "a10dabede563de39d0c2b48e21da7413"}, {"is_disabled": 0, "is_reserved": 0, "fusion_lat": 0.0, "lat": 38.9156855, "fusion_lon": 0.0, "rental_uris": {"ios": "https://dc.lft.to/lastmile_qr_scan", "android": "https://dc.lft.to/lastmile_qr_scan"}, "lon": -77.04610383333333, "bike_id": "7830dd967f2fa3d6173d9047d5e97d5b", "type": "electric_scooter", "name": "7830dd967f2fa3d6173d9047d5e97d5b"}, {"is_disabled": 0, "is_reserved": 0, "fusion_lat": 0.0, "lat": 38.9168145, "fusion_lon": 0.0, "rental_uris": {"ios": "https://dc.lft.to/lastmile_qr_scan", "android": "https://dc.lft.to/lastmile_qr_scan"}, "lon": -77.03687533333333, "bike_id": "f47a064b1e95c95843fe2d3139e907b3", "type": "electric_scooter", "name": "f47a064b1e95c95843fe2d3139e907b3"}, {"is_disabled": 0, "is_reserved": 0, "fusion_lat": 0.0, "lat": 38.9177865, "fusion_lon": 0.0, "rental_uris": {"ios": "https://dc.lft.to/lastmile_qr_scan", "android": "https://dc.lft.to/lastmile_qr_scan"}, "lon": -77.03180283333333, "bike_id": "d2e180f73efdc53a6d16064352349fb1", "type": "electric_scooter", "name": "d2e180f73efdc53a6d16064352349fb1"}, {"is_disabled": 0, "is_reserved": 0, "fusion_lat": 0.0, "lat": 38.902811666666665, "fusion_lon": 0.0, "rental_uris": {"ios": "https://dc.lft.to/lastmile_qr_scan", "android": "https://dc.lft.to/lastmile_qr_scan"}, "lon": -77.03652766666667, "bike_id": "0fbebaa400427f1f80406c25e384c76d", "type": "electric_scooter", "name": "0fbebaa400427f1f80406c25e384c76d"}, {"is_disabled": 0, "is_reserved": 0, "fusion_lat": 0.0, "lat": 38.930798333333335, "fusion_lon": 0.0, "rental_uris": {"ios": "https://dc.lft.to/lastmile_qr_scan", "android": "https://dc.lft.to/lastmile_qr_scan"}, "lon": -77.0320365, "bike_id": "b46317a670d5060c9139407c68747785", "type": "electric_scooter", "name": "b46317a670d5060c9139407c68747785"}, {"is_disabled": 0, "is_reserved": 0, "fusion_lat": 0.0, "lat": 38.919687833333334, "fusion_lon": 0.0, "rental_uris": {"ios": "https://dc.lft.to/lastmile_qr_scan", "android": "https://dc.lft.to/lastmile_qr_scan"}, "lon": -77.0711705, "bike_id": "a23604f23a471d386cb12efcf6f48d01", "type": "electric_scooter", "name": "a23604f23a471d386cb12efcf6f48d01"}, {"is_disabled": 0, "is_reserved": 0, "fusion_lat": 0.0, "lat": 38.9444895, "fusion_lon": 0.0, "rental_uris": {"ios": "https://dc.lft.to/lastmile_qr_scan", "android": "https://dc.lft.to/lastmile_qr_scan"}, "lon": -77.029206, "bike_id": "3100e2c50401516f08e616fa84e74cea", "type": "electric_scooter", "name": "3100e2c50401516f08e616fa84e74cea"}, {"is_disabled": 0, "is_reserved": 0, "fusion_lat": 0.0, "lat": 38.9234325, "fusion_lon": 0.0, "rental_uris": {"ios": "https://dc.lft.to/lastmile_qr_scan", "android": "https://dc.lft.to/lastmile_qr_scan"}, "lon": -76.99870166666666, "bike_id": "d2dd99456585f7d657a650d5bc8df48a", "type": "electric_scooter", "name": "d2dd99456585f7d657a650d5bc8df48a"}, {"is_disabled": 0, "is_reserved": 0, "fusion_lat": 0.0, "lat": 38.87471716666667, "fusion_lon": 0.0, "rental_uris": {"ios": "https://dc.lft.to/lastmile_qr_scan", "android": "https://dc.lft.to/lastmile_qr_scan"}, "lon": -77.00511383333334, "bike_id": "3f50922249be2309a00ddc2bdcfe4311", "type": "electric_scooter", "name": "3f50922249be2309a00ddc2bdcfe4311"}, {"is_disabled": 0, "is_reserved": 0, "fusion_lat": 0.0, "lat": 38.888587666666666, "fusion_lon": 0.0, "rental_uris": {"ios": "https://dc.lft.to/lastmile_qr_scan", "android": "https://dc.lft.to/lastmile_qr_scan"}, "lon": -76.97905916666667, "bike_id": "db5bb8143ff0b7bc1e195d7e24c0eb34", "type": "electric_scooter", "name": "db5bb8143ff0b7bc1e195d7e24c0eb34"}, {"is_disabled": 0, "is_reserved": 0, "fusion_lat": 0.0, "lat": 38.9026, "fusion_lon": 0.0, "rental_uris": {"ios": "https://dc.lft.to/lastmile_qr_scan", "android": "https://dc.lft.to/lastmile_qr_scan"}, "lon": -77.01757083333334, "bike_id": "063414ded407ce2f834637c10156c779", "type": "electric_scooter", "name": "063414ded407ce2f834637c10156c779"}, {"is_disabled": 0, "is_reserved": 0, "fusion_lat": 0.0, "lat": 38.9003745, "fusion_lon": 0.0, "rental_uris": {"ios": "https://dc.lft.to/lastmile_qr_scan", "android": "https://dc.lft.to/lastmile_qr_scan"}, "lon": -77.03651233333333, "bike_id": "7cb71eafe1c9a90dc4293e3bfce2c497", "type": "electric_scooter", "name": "7cb71eafe1c9a90dc4293e3bfce2c497"}, {"is_disabled": 0, "is_reserved": 0, "fusion_lat": 0.0, "lat": 38.883557, "fusion_lon": 0.0, "rental_uris": {"ios": "https://dc.lft.to/lastmile_qr_scan", "android": "https://dc.lft.to/lastmile_qr_scan"}, "lon": -76.99499633333333, "bike_id": "f395cbd1e42a2b0643e6bbef2b1e7895", "type": "electric_scooter", "name": "f395cbd1e42a2b0643e6bbef2b1e7895"}, {"is_disabled": 0, "is_reserved": 0, "fusion_lat": 0.0, "lat": 38.862554333333335, "fusion_lon": 0.0, "rental_uris": {"ios": "https://dc.lft.to/lastmile_qr_scan", "android": "https://dc.lft.to/lastmile_qr_scan"}, "lon": -76.98341716666667, "bike_id": "eb3accb3348a97db2af3f714a57a2887", "type": "electric_bike", "name": "eb3accb3348a97db2af3f714a57a2887"}, {"is_disabled": 0, "is_reserved": 0, "fusion_lat": 0.0, "lat": 38.881805, "fusion_lon": 0.0, "rental_uris": {"ios": "https://dc.lft.to/lastmile_qr_scan", "android": "https://dc.lft.to/lastmile_qr_scan"}, "lon": -77.00896083333333, "bike_id": "b6ee1049e2558089ebc5e55a01438423", "type": "electric_scooter", "name": "b6ee1049e2558089ebc5e55a01438423"}, {"is_disabled": 0, "is_reserved": 0, "fusion_lat": 0.0, "lat": 38.93005016666667, "fusion_lon": 0.0, "rental_uris": {"ios": "https://dc.lft.to/lastmile_qr_scan", "android": "https://dc.lft.to/lastmile_qr_scan"}, "lon": -77.03800883333334, "bike_id": "7f7f4f7776ae0821b64fae693abdd698", "type": "electric_scooter", "name": "7f7f4f7776ae0821b64fae693abdd698"}, {"is_disabled": 0, "is_reserved": 0, "fusion_lat": 0.0, "lat": 38.956353166666666, "fusion_lon": 0.0, "rental_uris": {"ios": "https://dc.lft.to/lastmile_qr_scan", "android": "https://dc.lft.to/lastmile_qr_scan"}, "lon": -77.03630166666666, "bike_id": "4835ba876fa18c8147e77e425b9b5d40", "type": "electric_scooter", "name": "4835ba876fa18c8147e77e425b9b5d40"}, {"is_disabled": 0, "is_reserved": 0, "fusion_lat": 0.0, "lat": 38.900216666666665, "fusion_lon": 0.0, "rental_uris": {"ios": "https://dc.lft.to/lastmile_qr_scan", "android": "https://dc.lft.to/lastmile_qr_scan"}, "lon": -77.01991683333334, "bike_id": "852bf4922a20cd67a34c1b06fa10ec64", "type": "electric_scooter", "name": "852bf4922a20cd67a34c1b06fa10ec64"}, {"is_disabled": 0, "is_reserved": 0, "fusion_lat": 0.0, "lat": 38.900265833333336, "fusion_lon": 0.0, "rental_uris": {"ios": "https://dc.lft.to/lastmile_qr_scan", "android": "https://dc.lft.to/lastmile_qr_scan"}, "lon": -77.0335845, "bike_id": "fb1c3a552eaa95c30a0c03e268f60cdb", "type": "electric_scooter", "name": "fb1c3a552eaa95c30a0c03e268f60cdb"}, {"is_disabled": 0, "is_reserved": 0, "fusion_lat": 0.0, "lat": 38.9013305, "fusion_lon": 0.0, "rental_uris": {"ios": "https://dc.lft.to/lastmile_qr_scan", "android": "https://dc.lft.to/lastmile_qr_scan"}, "lon": -77.04118983333333, "bike_id": "12ab178efecb9132000810478df8aed8", "type": "electric_scooter", "name": "12ab178efecb9132000810478df8aed8"}, {"is_disabled": 0, "is_reserved": 0, "fusion_lat": 0.0, "lat": 38.92659166666667, "fusion_lon": 0.0, "rental_uris": {"ios": "https://dc.lft.to/lastmile_qr_scan", "android": "https://dc.lft.to/lastmile_qr_scan"}, "lon": -76.99294816666666, "bike_id": "c3fb8b0672ff00ec8cfbad1dd6bd83c1", "type": "electric_scooter", "name": "c3fb8b0672ff00ec8cfbad1dd6bd83c1"}, {"is_disabled": 0, "is_reserved": 0, "fusion_lat": 0.0, "lat": 38.893335666666665, "fusion_lon": 0.0, "rental_uris": {"ios": "https://dc.lft.to/lastmile_qr_scan", "android": "https://dc.lft.to/lastmile_qr_scan"}, "lon": -76.92889416666667, "bike_id": "93eafc3000b7d7088d4d312120455136", "type": "electric_scooter", "name": "93eafc3000b7d7088d4d312120455136"}, {"is_disabled": 0, "is_reserved": 0, "fusion_lat": 0.0, "lat": 38.92528216666667, "fusion_lon": 0.0, "rental_uris": {"ios": "https://dc.lft.to/lastmile_qr_scan", "android": "https://dc.lft.to/lastmile_qr_scan"}, "lon": -77.035356, "bike_id": "0f8bfb531da636b401166fb515d51915", "type": "electric_scooter", "name": "0f8bfb531da636b401166fb515d51915"}, {"is_disabled": 0, "is_reserved": 0, "fusion_lat": 0.0, "lat": 38.89744016666667, "fusion_lon": 0.0, "rental_uris": {"ios": "https://dc.lft.to/lastmile_qr_scan", "android": "https://dc.lft.to/lastmile_qr_scan"}, "lon": -77.03304616666667, "bike_id": "7cf18d8037eb2748dfe28025c2d57bcc", "type": "electric_scooter", "name": "7cf18d8037eb2748dfe28025c2d57bcc"}, {"is_disabled": 0, "is_reserved": 0, "fusion_lat": 0.0, "lat": 38.8748395, "fusion_lon": 0.0, "rental_uris": {"ios": "https://dc.lft.to/lastmile_qr_scan", "android": "https://dc.lft.to/lastmile_qr_scan"}, "lon": -77.0060495, "bike_id": "c3ffba3218e54b67a4d6b3f9f04fcb5c", "type": "electric_bike", "name": "c3ffba3218e54b67a4d6b3f9f04fcb5c"}, {"is_disabled": 0, "is_reserved": 0, "fusion_lat": 0.0, "lat": 38.896692333333334, "fusion_lon": 0.0, "rental_uris": {"ios": "https://dc.lft.to/lastmile_qr_scan", "android": "https://dc.lft.to/lastmile_qr_scan"}, "lon": -77.0511555, "bike_id": "f6f73b9bec15c2d7e369ce4d2e5b1856", "type": "electric_scooter", "name": "f6f73b9bec15c2d7e369ce4d2e5b1856"}, {"is_disabled": 0, "is_reserved": 0, "fusion_lat": 0.0, "lat": 38.942678, "fusion_lon": 0.0, "rental_uris": {"ios": "https://dc.lft.to/lastmile_qr_scan", "android": "https://dc.lft.to/lastmile_qr_scan"}, "lon": -76.98471383333333, "bike_id": "9e5d412353d1662f0e49446b9af9d522", "type": "electric_scooter", "name": "9e5d412353d1662f0e49446b9af9d522"}, {"is_disabled": 0, "is_reserved": 0, "fusion_lat": 0.0, "lat": 38.883571, "fusion_lon": 0.0, "rental_uris": {"ios": "https://dc.lft.to/lastmile_qr_scan", "android": "https://dc.lft.to/lastmile_qr_scan"}, "lon": -76.95768766666667, "bike_id": "64b67446b56a49433384a34f4225a02f", "type": "electric_scooter", "name": "64b67446b56a49433384a34f4225a02f"}, {"is_disabled": 0, "is_reserved": 0, "fusion_lat": 0.0, "lat": 38.94718233333333, "fusion_lon": 0.0, "rental_uris": {"ios": "https://dc.lft.to/lastmile_qr_scan", "android": "https://dc.lft.to/lastmile_qr_scan"}, "lon": -77.06802116666667, "bike_id": "bcc4797eaa114334776ad40ec347469c", "type": "electric_scooter", "name": "bcc4797eaa114334776ad40ec347469c"}, {"is_disabled": 0, "is_reserved": 0, "fusion_lat": 0.0, "lat": 38.90695383333333, "fusion_lon": 0.0, "rental_uris": {"ios": "https://dc.lft.to/lastmile_qr_scan", "android": "https://dc.lft.to/lastmile_qr_scan"}, "lon": -76.9525145, "bike_id": "54c43cb0bee55f9179b42ce20b97e325", "type": "electric_bike", "name": "54c43cb0bee55f9179b42ce20b97e325"}, {"is_disabled": 0, "is_reserved": 0, "fusion_lat": 0.0, "lat": 38.91774633333333, "fusion_lon": 0.0, "rental_uris": {"ios": "https://dc.lft.to/lastmile_qr_scan", "android": "https://dc.lft.to/lastmile_qr_scan"}, "lon": -77.02109366666667, "bike_id": "92df8c76958a1631b93078051d12c8dc", "type": "electric_scooter", "name": "92df8c76958a1631b93078051d12c8dc"}, {"is_disabled": 0, "is_reserved": 0, "fusion_lat": 0.0, "lat": 38.922356666666666, "fusion_lon": 0.0, "rental_uris": {"ios": "https://dc.lft.to/lastmile_qr_scan", "android": "https://dc.lft.to/lastmile_qr_scan"},