{"data": {"bikes": [{"is_disabled": 0, "rental_uris": {"ios": "https://dc.lft.to/lastmile_qr_scan", "android": "https://dc.lft.to/lastmile_qr_scan"}, "lon": -77.05272466666666, "fusion_lon": 0.0, "is_reserved": 0, "fusion_lat": 0.0, "type": "electric_bike", "lat": 38.94090966666667, "name": "6bd1c9ccd0cafa0ea150a433bce41912", "bike_id": "6bd1c9ccd0cafa0ea150a433bce41912"}, {"is_disabled": 0, "rental_uris": {"ios": "https://dc.lft.to/lastmile_qr_scan", "android": "https://dc.lft.to/lastmile_qr_scan"}, "lon": -77.0295715, "fusion_lon": 0.0, "is_reserved": 0, "fusion_lat": 0.0, "type": "electric_scooter", "lat": 38.91671183333333, "name": "5b8899b4c74e75fe2ec114239bea4e8f", "bike_id": "5b8899b4c74e75fe2ec114239bea4e8f"}, {"is_disabled": 0, "rental_uris": {"ios": "https://dc.lft.to/lastmile_qr_scan", "android": "https://dc.lft.to/lastmile_qr_scan"}, "lon": -77.03734716666666, "fusion_lon": 0.0, "is_reserved": 0, "fusion_lat": 0.0, "type": "electric_scooter", "lat": 38.91122716666667, "name": "36858e570a83912367bf806346d845e6", "bike_id": "36858e570a83912367bf806346d845e6"}, {"is_disabled": 0, "rental_uris": {"ios": "https://dc.lft.to/lastmile_qr_scan", "android": "https://dc.lft.to/lastmile_qr_scan"}, "lon": -77.03262933333333, "fusion_lon": 0.0, "is_reserved": 0, "fusion_lat": 0.0, "type": "electric_scooter", "lat": 38.93527566666667, "name": "30bcdd3cd7bb36da15a32d6fec38da44", "bike_id": "30bcdd3cd7bb36da15a32d6fec38da44"}, {"is_disabled": 0, "rental_uris": {"ios": "https://dc.lft.to/lastmile_qr_scan", "android": "https://dc.lft.to/lastmile_qr_scan"}, "lon": -77.00720783333334, "fusion_lon": 0.0, "is_reserved": 0, "fusion_lat": 0.0, "type": "electric_bike", "lat": 38.995052666666666, "name": "88ef093f2440c34a300186406bb1e997", "bike_id": "88ef093f2440c34a300186406bb1e997"}, {"is_disabled": 0, "rental_uris": {"ios": "https://dc.lft.to/lastmile_qr_scan", "android": "https://dc.lft.to/lastmile_qr_scan"}, "lon": -77.0387135, "fusion_lon": 0.0, "is_reserved": 0, "fusion_lat": 0.0, "type": "electric_scooter", "lat": 38.91712966666667, "name": "c5ea2fbda26ece43e74e732f1833c64d", "bike_id": "c5ea2fbda26ece43e74e732f1833c64d"}, {"is_disabled": 0, "rental_uris": {"ios": "https://dc.lft.to/lastmile_qr_scan", "android": "https://dc.lft.to/lastmile_qr_scan"}, "lon": -76.99626383333333, "fusion_lon": 0.0, "is_reserved": 0, "fusion_lat": 0.0, "type": "electric_scooter", "lat": 38.87736866666667, "name": "97d005f1c6e71eaa4bc34b1deb3e2947", "bike_id": "97d005f1c6e71eaa4bc34b1deb3e2947"}, {"is_disabled": 0, "rental_uris": {"ios": "https://dc.lft.to/lastmile_qr_scan", "android": "https://dc.lft.to/lastmile_qr_scan"}, "lon": -77.03372983333334, "fusion_lon": 0.0, "is_reserved": 0, "fusion_lat": 0.0, "type": "electric_scooter", "lat": 38.917009166666666, "name": "4d1bfe22abe4f26acd2281df62862948", "bike_id": "4d1bfe22abe4f26acd2281df62862948"}, {"is_disabled": 0, "rental_uris": {"ios": "https://dc.lft.to/lastmile_qr_scan", "android": "https://dc.lft.to/lastmile_qr_scan"}, "lon": -76.99853933333333, "fusion_lon": 0.0, "is_reserved": 0, "fusion_lat": 0.0, "type": "electric_scooter", "lat": 38.891873, "name": "358810adb6c8db616363381c2253dac5", "bike_id": "358810adb6c8db616363381c2253dac5"}, {"is_disabled": 0, "rental_uris": {"ios": "https://dc.lft.to/lastmile_qr_scan", "android": "https://dc.lft.to/lastmile_qr_scan"}, "lon": -77.0390785, "fusion_lon": 0.0, "is_reserved": 0, "fusion_lat": 0.0, "type": "electric_scooter", "lat": 38.90249216666667, "name": "fe2d5404132b834c147b81086f1811ef", "bike_id": "fe2d5404132b834c147b81086f1811ef"}, {"is_disabled": 0, "rental_uris": {"ios": "https://dc.lft.to/lastmile_qr_scan", "android": "https://dc.lft.to/lastmile_qr_scan"}, "lon": -77.02834533333333, "fusion_lon": 0.0, "is_reserved": 0, "fusion_lat": 0.0, "type": "electric_scooter", "lat": 38.88740283333333, "name": "f3d9d71f8be86a341a52040ff37c9c76", "bike_id": "f3d9d71f8be86a341a52040ff37c9c76"}, {"is_disabled": 0, "rental_uris": {"ios": "https://dc.lft.to/lastmile_qr_scan", "android": "https://dc.lft.to/lastmile_qr_scan"}, "lon": -77.03997133333333, "fusion_lon": 0.0, "is_reserved": 0, "fusion_lat": 0.0, "type": "electric_scooter", "lat": 38.8989, "name": "11e17e6891aff5b8f1ec94c947755508", "bike_id": "11e17e6891aff5b8f1ec94c947755508"}, {"is_disabled": 0, "rental_uris": {"ios": "https://dc.lft.to/lastmile_qr_scan", "android": "https://dc.lft.to/lastmile_qr_scan"}, "lon": -77.02732666666667, "fusion_lon": 0.0, "is_reserved": 0, "fusion_lat": 0.0, "type": "electric_scooter", "lat": 38.924830166666666, "name": "9a52f3e915e9c0bc1ad1bcb296110af4", "bike_id": "9a52f3e915e9c0bc1ad1bcb296110af4"}, {"is_disabled": 0, "rental_uris": {"ios": "https://dc.lft.to/lastmile_qr_scan", "android": "https://dc.lft.to/lastmile_qr_scan"}, "lon": -77.02965816666666, "fusion_lon": 0.0, "is_reserved": 0, "fusion_lat": 0.0, "type": "electric_scooter", "lat": 38.93197416666667, "name": "8287dfd21638412f72d7facd3fcd720d", "bike_id": "8287dfd21638412f72d7facd3fcd720d"}, {"is_disabled": 0, "rental_uris": {"ios": "https://dc.lft.to/lastmile_qr_scan", "android": "https://dc.lft.to/lastmile_qr_scan"}, "lon": -77.06280166666667, "fusion_lon": 0.0, "is_reserved": 0, "fusion_lat": 0.0, "type": "electric_scooter", "lat": 38.9045585, "name": "8ed6917987f1d1b25fb6509de26a66a4", "bike_id": "8ed6917987f1d1b25fb6509de26a66a4"}, {"is_disabled": 0, "rental_uris": {"ios": "https://dc.lft.to/lastmile_qr_scan", "android": "https://dc.lft.to/lastmile_qr_scan"}, "lon": -77.0325865, "fusion_lon": 0.0, "is_reserved": 0, "fusion_lat": 0.0, "type": "electric_scooter", "lat": 38.9397065, "name": "37b90261b63129a6920beb33df7778c3", "bike_id": "37b90261b63129a6920beb33df7778c3"}, {"is_disabled": 0, "rental_uris": {"ios": "https://dc.lft.to/lastmile_qr_scan", "android": "https://dc.lft.to/lastmile_qr_scan"}, "lon": -77.01355883333333, "fusion_lon": 0.0, "is_reserved": 0, "fusion_lat": 0.0, "type": "electric_scooter", "lat": 38.89221666666667, "name": "b7b39583521952e50873dc7679a1ef12", "bike_id": "b7b39583521952e50873dc7679a1ef12"}, {"is_disabled": 0, "rental_uris": {"ios": "https://dc.lft.to/lastmile_qr_scan", "android": "https://dc.lft.to/lastmile_qr_scan"}, "lon": -77.023415, "fusion_lon": 0.0, "is_reserved": 0, "fusion_lat": 0.0, "type": "electric_scooter", "lat": 38.8813805, "name": "e494ac3bf1f8816d5a488e23e21aaf79", "bike_id": "e494ac3bf1f8816d5a488e23e21aaf79"}, {"is_disabled": 0, "rental_uris": {"ios": "https://dc.lft.to/lastmile_qr_scan", "android": "https://dc.lft.to/lastmile_qr_scan"}, "lon": -77.01640316666666, "fusion_lon": 0.0, "is_reserved": 0, "fusion_lat": 0.0, "type": "electric_scooter", "lat": 38.91594633333333, "name": "d0b928613828e5648bc62bf44279f247", "bike_id": "d0b928613828e5648bc62bf44279f247"}, {"is_disabled": 0, "rental_uris": {"ios": "https://dc.lft.to/lastmile_qr_scan", "android": "https://dc.lft.to/lastmile_qr_scan"}, "lon": -77.04214916666666, "fusion_lon": 0.0, "is_reserved": 0, "fusion_lat": 0.0, "type": "electric_scooter", "lat": 38.91107266666667, "name": "4ff2732c5ca54191aaaefc77f38ccfa8", "bike_id": "4ff2732c5ca54191aaaefc77f38ccfa8"}, {"is_disabled": 0, "rental_uris": {"ios": "https://dc.lft.to/lastmile_qr_scan", "android": "https://dc.lft.to/lastmile_qr_scan"}, "lon": -77.02181566666667, "fusion_lon": 0.0, "is_reserved": 0, "fusion_lat": 0.0, "type": "electric_scooter", "lat": 38.89877716666667, "name": "c4d847e0c1d518299c855f1b4f5096bc", "bike_id": "c4d847e0c1d518299c855f1b4f5096bc"}, {"is_disabled": 0, "rental_uris": {"ios": "https://dc.lft.to/lastmile_qr_scan", "android": "https://dc.lft.to/lastmile_qr_scan"}, "lon": -77.01310466666666, "fusion_lon": 0.0, "is_reserved": 0, "fusion_lat": 0.0, "type": "electric_scooter", "lat": 38.89739683333333, "name": "b3dce6b6a3405aa6a9b235577c501e32", "bike_id": "b3dce6b6a3405aa6a9b235577c501e32"}, {"is_disabled": 0, "rental_uris": {"ios": "https://dc.lft.to/lastmile_qr_scan", "android": "https://dc.lft.to/lastmile_qr_scan"}, "lon": -76.98353333333333, "fusion_lon": 0.0, "is_reserved": 0, "fusion_lat": 0.0, "type": "electric_bike", "lat": 38.86262883333333, "name": "87193ecb0575badf5a188452b718a610", "bike_id": "87193ecb0575badf5a188452b718a610"}, {"is_disabled": 0, "rental_uris": {"ios": "https://dc.lft.to/lastmile_qr_scan", "android": "https://dc.lft.to/lastmile_qr_scan"}, "lon": -77.05131066666667, "fusion_lon": 0.0, "is_reserved": 0, "fusion_lat": 0.0, "type": "electric_scooter", "lat": 38.905289833333335, "name": "31ae007e856696aee71a045a1f577df2", "bike_id": "31ae007e856696aee71a045a1f577df2"}, {"is_disabled": 0, "rental_uris": {"ios": "https://dc.lft.to/lastmile_qr_scan", "android": "https://dc.lft.to/lastmile_qr_scan"}, "lon": -77.00490083333334, "fusion_lon": 0.0, "is_reserved": 0, "fusion_lat": 0.0, "type": "electric_scooter", "lat": 38.874559, "name": "d609202452a198cd8058530465babe83", "bike_id": "d609202452a198cd8058530465babe83"}, {"is_disabled": 0, "rental_uris": {"ios": "https://dc.lft.to/lastmile_qr_scan", "android": "https://dc.lft.to/lastmile_qr_scan"}, "lon": -77.03241333333334, "fusion_lon": 0.0, "is_reserved": 0, "fusion_lat": 0.0, "type": "electric_scooter", "lat": 38.92003183333333, "name": "b478210ef1e0505c7ecf0b82738ebe8b", "bike_id": "b478210ef1e0505c7ecf0b82738ebe8b"}, {"is_disabled": 0, "rental_uris": {"ios": "https://dc.lft.to/lastmile_qr_scan", "android": "https://dc.lft.to/lastmile_qr_scan"}, "lon": -77.01920783333334, "fusion_lon": 0.0, "is_reserved": 0, "fusion_lat": 0.0, "type": "electric_scooter", "lat": 38.9232215, "name": "ad128e906c92209142163d8b3e32dd38", "bike_id": "ad128e906c92209142163d8b3e32dd38"}, {"is_disabled": 0, "rental_uris": {"ios": "https://dc.lft.to/lastmile_qr_scan", "android": "https://dc.lft.to/lastmile_qr_scan"}, "lon": -77.03649833333333, "fusion_lon": 0.0, "is_reserved": 0, "fusion_lat": 0.0, "type": "electric_scooter", "lat": 38.92096033333333, "name": "8f6fe2ea9a0f56c83d5abc51a7c3bc60", "bike_id": "8f6fe2ea9a0f56c83d5abc51a7c3bc60"}, {"is_disabled": 0, "rental_uris": {"ios": "https://dc.lft.to/lastmile_qr_scan", "android": "https://dc.lft.to/lastmile_qr_scan"}, "lon": -77.03430383333334, "fusion_lon": 0.0, "is_reserved": 0, "fusion_lat": 0.0, "type": "electric_bike", "lat": 38.9662515, "name": "ff1243908a3c5021c8752ded0b4ca120", "bike_id": "ff1243908a3c5021c8752ded0b4ca120"}, {"is_disabled": 0, "rental_uris": {"ios": "https://dc.lft.to/lastmile_qr_scan", "android": "https://dc.lft.to/lastmile_qr_scan"}, "lon": -77.0187805, "fusion_lon": 0.0, "is_reserved": 0, "fusion_lat": 0.0, "type": "electric_scooter", "lat": 38.90609466666667, "name": "b569ce335112f7d4317a665102306d3c", "bike_id": "b569ce335112f7d4317a665102306d3c"}, {"is_disabled": 0, "rental_uris": {"ios": "https://dc.lft.to/lastmile_qr_scan", "android": "https://dc.lft.to/lastmile_qr_scan"}, "lon": -77.00784016666667, "fusion_lon": 0.0, "is_reserved": 0, "fusion_lat": 0.0, "type": "electric_scooter", "lat": 38.898800666666666, "name": "35109e8f821e878fd98ca59c6229ffb1", "bike_id": "35109e8f821e878fd98ca59c6229ffb1"}, {"is_disabled": 0, "rental_uris": {"ios": "https://dc.lft.to/lastmile_qr_scan", "android": "https://dc.lft.to/lastmile_qr_scan"}, "lon": -77.04345166666667, "fusion_lon": 0.0, "is_reserved": 0, "fusion_lat": 0.0, "type": "electric_scooter", "lat": 38.89872033333333, "name": "0f422b4d19841c03fd25d6b12273efac", "bike_id": "0f422b4d19841c03fd25d6b12273efac"}, {"is_disabled": 0, "rental_uris": {"ios": "https://dc.lft.to/lastmile_qr_scan", "android": "https://dc.lft.to/lastmile_qr_scan"}, "lon": -77.09817966666667, "fusion_lon": 0.0, "is_reserved": 0, "fusion_lat": 0.0, "type": "electric_bike", "lat": 38.85023733333333, "name": "e213880e9acf2cc61c6eb7079603d6cd", "bike_id": "e213880e9acf2cc61c6eb7079603d6cd"}, {"is_disabled": 0, "rental_uris": {"ios": "https://dc.lft.to/lastmile_qr_scan", "android": "https://dc.lft.to/lastmile_qr_scan"}, "lon": -76.938121, "fusion_lon": 0.0, "is_reserved": 0, "fusion_lat": 0.0, "type": "electric_scooter", "lat": 38.89845916666667, "name": "6083a9af24d3839dd1d79f289fe8c394", "bike_id": "6083a9af24d3839dd1d79f289fe8c394"}, {"is_disabled": 0, "rental_uris": {"ios": "https://dc.lft.to/lastmile_qr_scan", "android": "https://dc.lft.to/lastmile_qr_scan"}, "lon": -77.05133783333333, "fusion_lon": 0.0, "is_reserved": 0, "fusion_lat": 0.0, "type": "electric_scooter", "lat": 38.923652, "name": "5fd0bd5cefa892569c53947e056f450a", "bike_id": "5fd0bd5cefa892569c53947e056f450a"}, {"is_disabled": 0, "rental_uris": {"ios": "https://dc.lft.to/lastmile_qr_scan", "android": "https://dc.lft.to/lastmile_qr_scan"}, "lon": -77.03829116666667, "fusion_lon": 0.0, "is_reserved": 0, "fusion_lat": 0.0, "type": "electric_scooter", "lat": 38.92526983333333, "name": "5392788b37191fca18d4a74c512d8537", "bike_id": "5392788b37191fca18d4a74c512d8537"}, {"is_disabled": 0, "rental_uris": {"ios": "https://dc.lft.to/lastmile_qr_scan", "android": "https://dc.lft.to/lastmile_qr_scan"}, "lon": -77.01740716666667, "fusion_lon": 0.0, "is_reserved": 0, "fusion_lat": 0.0, "type": "electric_scooter", "lat": 38.902900833333334, "name": "b6f40fe04cd02f45acb8f6628197b9f3", "bike_id": "b6f40fe04cd02f45acb8f6628197b9f3"}, {"is_disabled": 0, "rental_uris": {"ios": "https://dc.lft.to/lastmile_qr_scan", "android": "https://dc.lft.to/lastmile_qr_scan"}, "lon": -77.01332733333334, "fusion_lon": 0.0, "is_reserved": 0, "fusion_lat": 0.0, "type": "electric_scooter", "lat": 38.89616066666667, "name": "7579202c1d49d70d8148975dc1c9c1eb", "bike_id": "7579202c1d49d70d8148975dc1c9c1eb"}, {"is_disabled": 0, "rental_uris": {"ios": "https://dc.lft.to/lastmile_qr_scan", "android": "https://dc.lft.to/lastmile_qr_scan"}, "lon": -77.0338215, "fusion_lon": 0.0, "is_reserved": 0, "fusion_lat": 0.0, "type": "electric_scooter", "lat": 38.9215925, "name": "8eb5918338dcd159eb7413ff7865cf93", "bike_id": "8eb5918338dcd159eb7413ff7865cf93"}, {"is_disabled": 0, "rental_uris": {"ios": "https://dc.lft.to/lastmile_qr_scan", "android": "https://dc.lft.to/lastmile_qr_scan"}, "lon": -77.00404516666667, "fusion_lon": 0.0, "is_reserved": 0, "fusion_lat": 0.0, "type": "electric_bike", "lat": 38.985429, "name": "0c7d8027a3989bc1dadf9c6086b9f477", "bike_id": "0c7d8027a3989bc1dadf9c6086b9f477"}, {"is_disabled": 0, "rental_uris": {"ios": "https://dc.lft.to/lastmile_qr_scan", "android": "https://dc.lft.to/lastmile_qr_scan"}, "lon": -77.045408, "fusion_lon": 0.0, "is_reserved": 0, "fusion_lat": 0.0, "type": "electric_scooter", "lat": 38.899603166666665, "name": "5e89de87ab5a629eb99391512a38cdfe", "bike_id": "5e89de87ab5a629eb99391512a38cdfe"}, {"is_disabled": 0, "rental_uris": {"ios": "https://dc.lft.to/lastmile_qr_scan", "android": "https://dc.lft.to/lastmile_qr_scan"}, "lon": -77.02944566666666, "fusion_lon": 0.0, "is_reserved": 0, "fusion_lat": 0.0, "type": "electric_scooter", "lat": 38.897505333333335, "name": "b3dc99f89d7df5189c8b74673a70f096", "bike_id": "b3dc99f89d7df5189c8b74673a70f096"}, {"is_disabled": 0, "rental_uris": {"ios": "https://dc.lft.to/lastmile_qr_scan", "android": "https://dc.lft.to/lastmile_qr_scan"}, "lon": -77.00379616666666, "fusion_lon": 0.0, "is_reserved": 0, "fusion_lat": 0.0, "type": "electric_scooter", "lat": 38.8927445, "name": "253d747583f4346daabd242f20f9c931", "bike_id": "253d747583f4346daabd242f20f9c931"}, {"is_disabled": 0, "rental_uris": {"ios": "https://dc.lft.to/lastmile_qr_scan", "android": "https://dc.lft.to/lastmile_qr_scan"}, "lon": -77.03202166666667, "fusion_lon": 0.0, "is_reserved": 0, "fusion_lat": 0.0, "type": "electric_scooter", "lat": 38.91473583333333, "name": "6ab6866e53cdd89cad310f0c83f6eab4", "bike_id": "6ab6866e53cdd89cad310f0c83f6eab4"}, {"is_disabled": 0, "rental_uris": {"ios": "https://dc.lft.to/lastmile_qr_scan", "android": "https://dc.lft.to/lastmile_qr_scan"}, "lon": -77.04166366666666, "fusion_lon": 0.0, "is_reserved": 0, "fusion_lat": 0.0, "type": "electric_scooter", "lat": 38.909291333333336, "name": "878247122721041b1de975f7f0e03a82", "bike_id": "878247122721041b1de975f7f0e03a82"}, {"is_disabled": 0, "rental_uris": {"ios": "https://dc.lft.to/lastmile_qr_scan", "android": "https://dc.lft.to/lastmile_qr_scan"}, "lon": -77.00731483333334, "fusion_lon": 0.0, "is_reserved": 0, "fusion_lat": 0.0, "type": "electric_scooter", "lat": 38.911949166666666, "name": "8b474d1b15a135f71a83f6ee77374eb7", "bike_id": "8b474d1b15a135f71a83f6ee77374eb7"}, {"is_disabled": 0, "rental_uris": {"ios": "https://dc.lft.to/lastmile_qr_scan", "android": "https://dc.lft.to/lastmile_qr_scan"}, "lon": -77.05006733333333, "fusion_lon": 0.0, "is_reserved": 0, "fusion_lat": 0.0, "type": "electric_scooter", "lat": 38.899215166666664, "name": "dad7444c0a96bccd412c470bf3ffd4b9", "bike_id": "dad7444c0a96bccd412c470bf3ffd4b9"}, {"is_disabled": 0, "rental_uris": {"ios": "https://dc.lft.to/lastmile_qr_scan", "android": "https://dc.lft.to/lastmile_qr_scan"}, "lon": -77.02224566666666, "fusion_lon": 0.0, "is_reserved": 0, "fusion_lat": 0.0, "type": "electric_scooter", "lat": 38.92073716666667, "name": "a2bc6c02c71209ee3efec3850655b539", "bike_id": "a2bc6c02c71209ee3efec3850655b539"}, {"is_disabled": 0, "rental_uris": {"ios": "https://dc.lft.to/lastmile_qr_scan", "android": "https://dc.lft.to/lastmile_qr_scan"}, "lon": -77.0199795, "fusion_lon": 0.0, "is_reserved": 0, "fusion_lat": 0.0, "type": "electric_scooter", "lat": 38.914914833333334, "name": "fdbe614f2429d7573236d7716d306aea", "bike_id": "fdbe614f2429d7573236d7716d306aea"}, {"is_disabled": 0, "rental_uris": {"ios": "https://dc.lft.to/lastmile_qr_scan", "android": "https://dc.lft.to/lastmile_qr_scan"}, "lon": -77.04229016666666, "fusion_lon": 0.0, "is_reserved": 0, "fusion_lat": 0.0, "type": "electric_scooter", "lat": 38.91110483333333, "name": "1e22c568ca890869c731cb98b7c0fb81", "bike_id": "1e22c568ca890869c731cb98b7c0fb81"}, {"is_disabled": 0, "rental_uris": {"ios": "https://dc.lft.to/lastmile_qr_scan", "android": "https://dc.lft.to/lastmile_qr_scan"}, "lon": -77.03490983333333, "fusion_lon": 0.0, "is_reserved": 0, "fusion_lat": 0.0, "type": "electric_scooter", "lat": 38.900530333333336, "name": "b9dbe9e4bf08751669ed41580dde6b9f", "bike_id": "b9dbe9e4bf08751669ed41580dde6b9f"}, {"is_disabled": 0, "rental_uris": {"ios": "https://dc.lft.to/lastmile_qr_scan", "android": "https://dc.lft.to/lastmile_qr_scan"}, "lon": -76.91722783333333, "fusion_lon": 0.0, "is_reserved": 0, "fusion_lat": 0.0, "type": "electric_bike", "lat": 38.880288166666666, "name": "1cae59d6c1df8a348132f80b2a620d40", "bike_id": "1cae59d6c1df8a348132f80b2a620d40"}, {"is_disabled": 0, "rental_uris": {"ios": "https://dc.lft.to/lastmile_qr_scan", "android": "https://dc.lft.to/lastmile_qr_scan"}, "lon": -77.03851166666666, "fusion_lon": 0.0, "is_reserved": 0, "fusion_lat": 0.0, "type": "electric_scooter", "lat": 38.9117325, "name": "ee1db2f3488afbdd0582f0d16c573997", "bike_id": "ee1db2f3488afbdd0582f0d16c573997"}, {"is_disabled": 0, "rental_uris": {"ios": "https://dc.lft.to/lastmile_qr_scan", "android": "https://dc.lft.to/lastmile_qr_scan"}, "lon": -76.99771033333333, "fusion_lon": 0.0, "is_reserved": 0, "fusion_lat": 0.0, "type": "electric_scooter", "lat": 38.91121066666667, "name": "2ccd361a68656fc2e20de232fadcf0c9", "bike_id": "2ccd361a68656fc2e20de232fadcf0c9"}, {"is_disabled": 0, "rental_uris": {"ios": "https://dc.lft.to/lastmile_qr_scan", "android": "https://dc.lft.to/lastmile_qr_scan"}, "lon": -77.02171566666667, "fusion_lon": 0.0, "is_reserved": 0, "fusion_lat": 0.0, "type": "electric_scooter", "lat": 38.91998683333333, "name": "950386d0a4531cd21420c9b049c0494b", "bike_id": "950386d0a4531cd21420c9b049c0494b"}, {"is_disabled": 0, "rental_uris": {"ios": "https://dc.lft.to/lastmile_qr_scan", "android": "https://dc.lft.to/lastmile_qr_scan"}, "lon": -77.03169783333334, "fusion_lon": 0.0, "is_reserved": 0, "fusion_lat": 0.0, "type": "electric_scooter", "lat": 38.89247366666667, "name": "8bc89ebf14617eabcccb3277aa038303", "bike_id": "8bc89ebf14617eabcccb3277aa038303"}, {"is_disabled": 0, "rental_uris": {"ios": "https://dc.lft.to/lastmile_qr_scan", "android": "https://dc.lft.to/lastmile_qr_scan"}, "lon": -77.00292316666666, "fusion_lon": 0.0, "is_reserved": 0, "fusion_lat": 0.0, "type": "electric_scooter", "lat": 38.89198183333333, "name": "d56aef3c27fc0fc0ddc5b588fb211281", "bike_id": "d56aef3c27fc0fc0ddc5b588fb211281"}, {"is_disabled": 0, "rental_uris": {"ios": "https://dc.lft.to/lastmile_qr_scan", "android": "https://dc.lft.to/lastmile_qr_scan"}, "lon": -77.0233645, "fusion_lon": 0.0, "is_reserved": 0, "fusion_lat": 0.0, "type": "electric_scooter", "lat": 38.92233783333333, "name": "00c410f0dc3c8a7a81a3923ae555081f", "bike_id": "00c410f0dc3c8a7a81a3923ae555081f"}, {"is_disabled": 0, "rental_uris": {"ios": "https://dc.lft.to/lastmile_qr_scan", "android": "https://dc.lft.to/lastmile_qr_scan"}, "lon": -77.04361766666666, "fusion_lon": 0.0, "is_reserved": 0, "fusion_lat": 0.0, "type": "electric_scooter", "lat": 38.896841333333334, "name": "9ccf2816beebf4d1065a8fa38eaf2c22", "bike_id": "9ccf2816beebf4d1065a8fa38eaf2c22"}, {"is_disabled": 0, "rental_uris": {"ios": "https://dc.lft.to/lastmile_qr_scan", "android": "https://dc.lft.to/lastmile_qr_scan"}, "lon": -77.050226, "fusion_lon": 0.0, "is_reserved": 0, "fusion_lat": 0.0, "type": "electric_scooter", "lat": 38.905203666666665, "name": "34188db380f17feabed68cbd99635fe2", "bike_id": "34188db380f17feabed68cbd99635fe2"}, {"is_disabled": 0, "rental_uris": {"ios": "https://dc.lft.to/lastmile_qr_scan", "android": "https://dc.lft.to/lastmile_qr_scan"}, "lon": -77.05504333333333, "fusion_lon": 0.0, "is_reserved": 0, "fusion_lat": 0.0, "type": "electric_scooter", "lat": 38.928394, "name": "ed39509432d36ee5a0c47604a993500a", "bike_id": "ed39509432d36ee5a0c47604a993500a"}, {"is_disabled": 0, "rental_uris": {"ios": "https://dc.lft.to/lastmile_qr_scan", "android": "https://dc.lft.to/lastmile_qr_scan"}, "lon": -77.00118783333333, "fusion_lon": 0.0, "is_reserved": 0, "fusion_lat": 0.0, "type": "electric_scooter", "lat": 38.878965, "name": "d4f1faa94304eca8a5d322a32be9d7a6", "bike_id": "d4f1faa94304eca8a5d322a32be9d7a6"}, {"is_disabled": 0, "rental_uris": {"ios": "https://dc.lft.to/lastmile_qr_scan", "android": "https://dc.lft.to/lastmile_qr_scan"}, "lon": -77.022099, "fusion_lon": 0.0, "is_reserved": 0, "fusion_lat": 0.0, "type": "electric_scooter", "lat": 38.908164666666664, "name": "5a8154b723902c7ecc87afc5f9893d58", "bike_id": "5a8154b723902c7ecc87afc5f9893d58"}, {"is_disabled": 0, "rental_uris": {"ios": "https://dc.lft.to/lastmile_qr_scan", "android": "https://dc.lft.to/lastmile_qr_scan"}, "lon": -77.03337616666667, "fusion_lon": 0.0, "is_reserved": 0, "fusion_lat": 0.0, "type": "electric_scooter", "lat": 38.917042, "name": "40ae3c54e61ed8f7d1a81edab0198923", "bike_id": "40ae3c54e61ed8f7d1a81edab0198923"}, {"is_disabled": 0, "rental_uris": {"ios": "https://dc.lft.to/lastmile_qr_scan", "android": "https://dc.lft.to/lastmile_qr_scan"}, "lon": -77.03460233333334, "fusion_lon": 0.0, "is_reserved": 0, "fusion_lat": 0.0, "type": "electric_scooter", "lat": 38.91580733333333, "name": "0edd2b9ea2119c3c304ba654e1ddafe0", "bike_id": "0edd2b9ea2119c3c304ba654e1ddafe0"}, {"is_disabled": 0, "rental_uris": {"ios": "https://dc.lft.to/lastmile_qr_scan", "android": "https://dc.lft.to/lastmile_qr_scan"}, "lon": -77.0119145, "fusion_lon": 0.0, "is_reserved": 0, "fusion_lat": 0.0, "type": "electric_scooter", "lat": 38.9002035, "name": "ece2230f32512a75abe71ff4ff2bb1eb", "bike_id": "ece2230f32512a75abe71ff4ff2bb1eb"}, {"is_disabled": 0, "rental_uris": {"ios": "https://dc.lft.to/lastmile_qr_scan", "android": "https://dc.lft.to/lastmile_qr_scan"}, "lon": -77.03493516666667, "fusion_lon": 0.0, "is_reserved": 0, "fusion_lat": 0.0, "type": "electric_scooter", "lat": 38.935757833333334, "name": "eb281db27614d7484c59c66140f6eef7", "bike_id": "eb281db27614d7484c59c66140f6eef7"}, {"is_disabled": 0, "rental_uris": {"ios": "https://dc.lft.to/lastmile_qr_scan", "android": "https://dc.lft.to/lastmile_qr_scan"}, "lon": -77.03873716666666, "fusion_lon": 0.0, "is_reserved": 0, "fusion_lat": 0.0, "type": "electric_scooter", "lat": 38.909749, "name": "b1eb16ac668d29aca376dd63a73ce3be", "bike_id": "b1eb16ac668d29aca376dd63a73ce3be"}, {"is_disabled": 0, "rental_uris": {"ios": "https://dc.lft.to/lastmile_qr_scan", "android": "https://dc.lft.to/lastmile_qr_scan"}, "lon": -77.0726775, "fusion_lon": 0.0, "is_reserved": 0, "fusion_lat": 0.0, "type": "electric_scooter", "lat": 38.934745666666664, "name": "ace8cd7b7974a73d636b976d33918480", "bike_id": "ace8cd7b7974a73d636b976d33918480"}, {"is_disabled": 0, "rental_uris": {"ios": "https://dc.lft.to/lastmile_qr_scan", "android": "https://dc.lft.to/lastmile_qr_scan"}, "lon": -76.94466783333333, "fusion_lon": 0.0, "is_reserved": 0, "fusion_lat": 0.0, "type": "electric_scooter", "lat": 38.890322, "name": "9f2fc6d2433d80db24e458f7c7416aed", "bike_id": "9f2fc6d2433d80db24e458f7c7416aed"}, {"is_disabled": 0, "rental_uris": {"ios": "https://dc.lft.to/lastmile_qr_scan", "android": "https://dc.lft.to/lastmile_qr_scan"}, "lon": -77.01994716666667, "fusion_lon": 0.0, "is_reserved": 0, "fusion_lat": 0.0, "type": "electric_scooter", "lat": 38.8858515, "name": "72222f5ae41b669d3b979b6c35a48fe2", "bike_id": "72222f5ae41b669d3b979b6c35a48fe2"}, {"is_disabled": 0, "rental_uris": {"ios": "https://dc.lft.to/lastmile_qr_scan", "android": "https://dc.lft.to/lastmile_qr_scan"}, "lon": -77.04620633333333, "fusion_lon": 0.0, "is_reserved": 0, "fusion_lat": 0.0, "type": "electric_scooter", "lat": 38.90254083333333, "name": "1eaa75cfa5a73ebc63b4c6b46ab59ada", "bike_id": "1eaa75cfa5a73ebc63b4c6b46ab59ada"}, {"is_disabled": 0, "rental_uris": {"ios": "https://dc.lft.to/lastmile_qr_scan", "android": "https://dc.lft.to/lastmile_qr_scan"}, "lon": -77.020088, "fusion_lon": 0.0, "is_reserved": 0, "fusion_lat": 0.0, "type": "electric_scooter", "lat": 38.92413116666667, "name": "62377c2bed3b1233423074edef2dd86a", "bike_id": "62377c2bed3b1233423074edef2dd86a"}, {"is_disabled": 0, "rental_uris": {"ios": "https://dc.lft.to/lastmile_qr_scan", "android": "https://dc.lft.to/lastmile_qr_scan"}, "lon": -77.03402816666667, "fusion_lon": 0.0, "is_reserved": 0, "fusion_lat": 0.0, "type": "electric_scooter", "lat": 38.92441633333333, "name": "adcf2018d366d248858a8d1bd6e0f23e", "bike_id": "adcf2018d366d248858a8d1bd6e0f23e"}, {"is_disabled": 0, "rental_uris": {"ios": "https://dc.lft.to/lastmile_qr_scan", "android": "https://dc.lft.to/lastmile_qr_scan"}, "lon": -77.045389, "fusion_lon": 0.0, "is_reserved": 0, "fusion_lat": 0.0, "type": "electric_scooter", "lat": 38.896164, "name": "0cd287e20a910e4d441a515e38b5fa76", "bike_id": "0cd287e20a910e4d441a515e38b5fa76"}, {"is_disabled": 0, "rental_uris": {"ios": "https://dc.lft.to/lastmile_qr_scan", "android": "https://dc.lft.to/lastmile_qr_scan"}, "lon": -77.04606233333334, "fusion_lon": 0.0, "is_reserved": 0, "fusion_lat": 0.0, "type": "electric_scooter", "lat": 38.932878333333335, "name": "9433a8fe8925bc03046d43fe5f071d39", "bike_id": "9433a8fe8925bc03046d43fe5f071d39"}, {"is_disabled": 0, "rental_uris": {"ios": "https://dc.lft.to/lastmile_qr_scan", "android": "https://dc.lft.to/lastmile_qr_scan"}, "lon": -77.0420375, "fusion_lon": 0.0, "is_reserved": 0, "fusion_lat": 0.0, "type": "electric_scooter", "lat": 38.922938, "name": "00af2a4836052cff67241ca8862830e8", "bike_id": "00af2a4836052cff67241ca8862830e8"}, {"is_disabled": 0, "rental_uris": {"ios": "https://dc.lft.to/lastmile_qr_scan", "android": "https://dc.lft.to/lastmile_qr_scan"}, "lon": -77.02508433333334, "fusion_lon": 0.0, "is_reserved": 0, "fusion_lat": 0.0, "type": "electric_scooter", "lat": 38.920826, "name": "6c9c1b7e98c55225a734672cf2867a49", "bike_id": "6c9c1b7e98c55225a734672cf2867a49"}, {"is_disabled": 0, "rental_uris": {"ios": "https://dc.lft.to/lastmile_qr_scan", "android": "https://dc.lft.to/lastmile_qr_scan"}, "lon": -76.9984815, "fusion_lon": 0.0, "is_reserved": 0, "fusion_lat": 0.0, "type": "electric_scooter", "lat": 38.906461, "name": "1cc10e84e25ff8bbba4c45e87cd6219e", "bike_id": "1cc10e84e25ff8bbba4c45e87cd6219e"}, {"is_disabled": 0, "rental_uris": {"ios": "https://dc.lft.to/lastmile_qr_scan", "android": "https://dc.lft.to/lastmile_qr_scan"}, "lon": -77.01293816666667, "fusion_lon": 0.0, "is_reserved": 0, "fusion_lat": 0.0, "type": "electric_scooter", "lat": 38.898427833333336, "name": "b59ac23c0a6d6bda543a41458c4a5b77", "bike_id": "b59ac23c0a6d6bda543a41458c4a5b77"}, {"is_disabled": 0, "rental_uris": {"ios": "https://dc.lft.to/lastmile_qr_scan", "android": "https://dc.lft.to/lastmile_qr_scan"}, "lon": -77.01143833333333, "fusion_lon": 0.0, "is_reserved": 0, "fusion_lat": 0.0, "type": "electric_scooter", "lat": 38.92966233333333, "name": "308c6d40f7aee6eb233fc5307272b89d", "bike_id": "308c6d40f7aee6eb233fc5307272b89d"}, {"is_disabled": 0, "rental_uris": {"ios": "https://dc.lft.to/lastmile_qr_scan", "android": "https://dc.lft.to/lastmile_qr_scan"}, "lon": -77.05793016666667, "fusion_lon": 0.0, "is_reserved": 0, "fusion_lat": 0.0, "type": "electric_scooter", "lat": 38.9348195, "name": "4601532e949711f3b806f3708dab72ca", "bike_id": "4601532e949711f3b806f3708dab72ca"}, {"is_disabled": 0, "rental_uris": {"ios": "https://dc.lft.to/lastmile_qr_scan", "android": "https://dc.lft.to/lastmile_qr_scan"}, "lon": -76.90302233333334, "fusion_lon": 0.0, "is_reserved": 0, "fusion_lat": 0.0, "type": "electric_bike", "lat": 39.00286666666667, "name": "e90d77d73347ad00a34f2bc23413936a", "bike_id": "e90d77d73347ad00a34f2bc23413936a"}, {"is_disabled": 0, "rental_uris": {"ios": "https://dc.lft.to/lastmile_qr_scan", "android": "https://dc.lft.to/lastmile_qr_scan"}, "lon": -76.99410916666666, "fusion_lon": 0.0, "is_reserved": 0, "fusion_lat": 0.0, "type": "electric_scooter", "lat": 38.877971, "name": "18b3d050df06333f8d66bf3e416a0de0", "bike_id": "18b3d050df06333f8d66bf3e416a0de0"}, {"is_disabled": 0, "rental_uris": {"ios": "https://dc.lft.to/lastmile_qr_scan", "android": "https://dc.lft.to/lastmile_qr_scan"}, "lon": -77.05997233333333, "fusion_lon": 0.0, "is_reserved": 0, "fusion_lat": 0.0, "type": "electric_scooter", "lat": 38.93818616666667, "name": "18c2833b2191396a8dce80613076d72b", "bike_id": "18c2833b2191396a8dce80613076d72b"}, {"is_disabled": 0, "rental_uris": {"ios": "https://dc.lft.to/lastmile_qr_scan", "android": "https://dc.lft.to/lastmile_qr_scan"}, "lon": -77.029665, "fusion_lon": 0.0, "is_reserved": 0, "fusion_lat": 0.0, "type": "electric_scooter", "lat": 38.89232533333333, "name": "bb63670ceefe905bc4271298809c997d", "bike_id": "bb63670ceefe905bc4271298809c997d"}, {"is_disabled": 0, "rental_uris": {"ios": "https://dc.lft.to/lastmile_qr_scan", "android": "https://dc.lft.to/lastmile_qr_scan"}, "lon": -77.01202416666666, "fusion_lon": 0.0, "is_reserved": 0, "fusion_lat": 0.0, "type": "electric_scooter", "lat": 38.8981905, "name": "8633215ea29157db715b981ab801d722", "bike_id": "8633215ea29157db715b981ab801d722"}, {"is_disabled": 0, "rental_uris": {"ios": "https://dc.lft.to/lastmile_qr_scan", "android": "https://dc.lft.to/lastmile_qr_scan"}, "lon": -77.0297255, "fusion_lon": 0.0, "is_reserved": 0, "fusion_lat": 0.0, "type": "electric_scooter", "lat": 38.907167666666666, "name": "e9d3d646ac947b7bbae48e5e99d9036f", "bike_id": "e9d3d646ac947b7bbae48e5e99d9036f"}, {"is_disabled": 0, "rental_uris": {"ios": "https://dc.lft.to/lastmile_qr_scan", "android": "https://dc.lft.to/lastmile_qr_scan"}, "lon": -77.02909983333333, "fusion_lon": 0.0, "is_reserved": 0, "fusion_lat": 0.0, "type": "electric_bike", "lat": 38.994944, "name": "b7a5671e18bc7c27f00b7e96dca56591", "bike_id": "b7a5671e18bc7c27f00b7e96dca56591"}, {"is_disabled": 0, "rental_uris": {"ios": "https://dc.lft.to/lastmile_qr_scan", "android": "https://dc.lft.to/lastmile_qr_scan"}, "lon": -77.00932716666667, "fusion_lon": 0.0, "is_reserved": 0, "fusion_lat": 0.0, "type": "electric_scooter", "lat": 38.874448, "name": "03c762f374d35f919bea158ee54fdd46", "bike_id": "03c762f374d35f919bea158ee54fdd46"}, {"is_disabled": 0, "rental_uris": {"ios": "https://dc.lft.to/lastmile_qr_scan", "android": "https://dc.lft.to/lastmile_qr_scan"}, "lon": -76.968925, "fusion_lon": 0.0, "is_reserved": 0, "fusion_lat": 0.0, "type": "electric_bike", "lat": 38.869847666666665, "name": "3e646e30c5a16c34dfe6f6a285ac2fa9", "bike_id": "3e646e30c5a16c34dfe6f6a285ac2fa9"}, {"is_disabled": 0, "rental_uris": {"ios": "https://dc.lft.to/lastmile_qr_scan", "android": "https://dc.lft.to/lastmile_qr_scan"}, "lon": -77.023403, "fusion_lon": 0.0, "is_reserved": 0, "fusion_lat": 0.0, "type": "electric_scooter", "lat": 38.94483783333333, "name": "462e05a6f3889bcfc2950abb18fa1382", "bike_id": "462e05a6f3889bcfc2950abb18fa1382"}, {"is_disabled": 0, "rental_uris": {"ios": "https://dc.lft.to/lastmile_qr_scan", "android": "https://dc.lft.to/lastmile_qr_scan"}, "lon": -77.01903233333333, "fusion_lon": 0.0, "is_reserved": 0, "fusion_lat": 0.0, "type": "electric_scooter", "lat": 38.923371833333334, "name": "d07aebc6f98900137a055640ab8d8fc1", "bike_id": "d07aebc6f98900137a055640ab8d8fc1"}, {"is_disabled": 0, "rental_uris": {"ios": "https://dc.lft.to/lastmile_qr_scan", "android": "https://dc.lft.to/lastmile_qr_scan"}, "lon": -77.043663, "fusion_lon": 0.0, "is_reserved": 0, "fusion_lat": 0.0, "type": "electric_scooter", "lat": 38.910321833333334, "name": "ec6f3a11d22b4a3aa2967f26635352ac", "bike_id": "ec6f3a11d22b4a3aa2967f26635352ac"}, {"is_disabled": 0, "rental_uris": {"ios": "https://dc.lft.to/lastmile_qr_scan", "android": "https://dc.lft.to/lastmile_qr_scan"}, "lon": -77.05049283333334, "fusion_lon": 0.0, "is_reserved": 0, "fusion_lat": 0.0, "type": "electric_scooter", "lat": 38.903058333333334, "name": "8171ad12004458d5f877a0d58903d5ab", "bike_id": "8171ad12004458d5f877a0d58903d5ab"}, {"is_disabled": 0, "rental_uris": {"ios": "https://dc.lft.to/lastmile_qr_scan", "android": "https://dc.lft.to/lastmile_qr_scan"}, "lon": -77.0468435, "fusion_lon": 0.0, "is_reserved": 0, "fusion_lat": 0.0, "type": "electric_scooter", "lat": 38.90300033333333, "name": "47bebc84c41797bc5eb0e37954ec1202", "bike_id": "47bebc84c41797bc5eb0e37954ec1202"}, {"is_disabled": 0, "rental_uris": {"ios": "https://dc.lft.to/lastmile_qr_scan", "android": "https://dc.lft.to/lastmile_qr_scan"}, "lon": -77.040101, "fusion_lon": 0.0, "is_reserved": 0, "fusion_lat": 0.0, "type": "electric_scooter", "lat": 38.93427166666667, "name": "cb7b6aa90b2c10b708b94d7916b7334b", "bike_id": "cb7b6aa90b2c10b708b94d7916b7334b"}, {"is_disabled": 0, "rental_uris": {"ios": "https://dc.lft.to/lastmile_qr_scan", "android": "https://dc.lft.to/lastmile_qr_scan"}, "lon": -77.020161, "fusion_lon": 0.0, "is_reserved": 0, "fusion_lat": 0.0, "type": "electric_scooter", "lat": 38.9016905, "name": "ed212c12ea1563b31026ec075ac7c518", "bike_id": "ed212c12ea1563b31026ec075ac7c518"}, {"is_disabled": 0, "rental_uris": {"ios": "https://dc.lft.to/lastmile_qr_scan", "android": "https://dc.lft.to/lastmile_qr_scan"}, "lon": -77.01956716666666, "fusion_lon": 0.0, "is_reserved": 0, "fusion_lat": 0.0, "type": "electric_scooter", "lat": 38.92333, "name": "50b43ad8b656a4de3a1caa9aec255163", "bike_id": "50b43ad8b656a4de3a1caa9aec255163"}, {"is_disabled": 0, "rental_uris": {"ios": "https://dc.lft.to/lastmile_qr_scan", "android": "https://dc.lft.to/lastmile_qr_scan"}, "lon": -76.9914615, "fusion_lon": 0.0, "is_reserved": 0, "fusion_lat": 0.0, "type": "electric_scooter", "lat": 38.873393666666665, "name": "087a9112042455a4d8ebf1675529e8a3", "bike_id": "087a9112042455a4d8ebf1675529e8a3"}, {"is_disabled": 0, "rental_uris": {"ios": "https://dc.lft.to/lastmile_qr_scan", "android": "https://dc.lft.to/lastmile_qr_scan"}, "lon": -77.128978, "fusion_lon": 0.0, "is_reserved": 0, "fusion_lat": 0.0, "type": "electric_bike", "lat": 38.90599783333333, "name": "7c53bda6973b3838a2107f26577944b1", "bike_id": "7c53bda6973b3838a2107f26577944b1"}, {"is_disabled": 0, "rental_uris": {"ios": "https://dc.lft.to/lastmile_qr_scan", "android": "https://dc.lft.to/lastmile_qr_scan"}, "lon": -76.996277, "fusion_lon": 0.0, "is_reserved": 0, "fusion_lat": 0.0, "type": "electric_scooter", "lat": 38.877340833333335, "name": "cc956f899044c94d61be9becf57f671f", "bike_id": "cc956f899044c94d61be9becf57f671f"}, {"is_disabled": 0, "rental_uris": {"ios": "https://dc.lft.to/lastmile_qr_scan", "android": "https://dc.lft.to/lastmile_qr_scan"}, "lon": -77.02708583333333, "fusion_lon": 0.0, "is_reserved": 0, "fusion_lat": 0.0, "type": "electric_scooter", "lat": 38.91666883333333, "name": "c8500d42d5147a5aebf6923d6f21ff78", "bike_id": "c8500d42d5147a5aebf6923d6f21ff78"}, {"is_disabled": 0, "rental_uris": {"ios": "https://dc.lft.to/lastmile_qr_scan", "android": "https://dc.lft.to/lastmile_qr_scan"}, "lon": -77.02944583333333, "fusion_lon": 0.0, "is_reserved": 0, "fusion_lat": 0.0, "type": "electric_scooter", "lat": 38.907245333333336, "name": "f40281af0877a18396caec62bb5ab22f", "bike_id": "f40281af0877a18396caec62bb5ab22f"}, {"is_disabled": 0, "rental_uris": {"ios": "https://dc.lft.to/lastmile_qr_scan", "android": "https://dc.lft.to/lastmile_qr_scan"}, "lon": -77.01764966666667, "fusion_lon": 0.0, "is_reserved": 0, "fusion_lat": 0.0, "type": "electric_scooter", "lat": 38.921075333333334, "name": "2770abbfecda9165b83a3a05ea8666e1", "bike_id": "2770abbfecda9165b83a3a05ea8666e1"}, {"is_disabled": 0, "rental_uris": {"ios": "https://dc.lft.to/lastmile_qr_scan", "android": "https://dc.lft.to/lastmile_qr_scan"}, "lon": -77.06684166666666, "fusion_lon": 0.0, "is_reserved": 0, "fusion_lat": 0.0, "type": "electric_scooter", "lat": 38.95027416666667, "name": "6884cf9d9bc7a700cf8762877501c8ed", "bike_id": "6884cf9d9bc7a700cf8762877501c8ed"}, {"is_disabled": 0, "rental_uris": {"ios": "https://dc.lft.to/lastmile_qr_scan", "android": "https://dc.lft.to/lastmile_qr_scan"}, "lon": -77.04875683333333, "fusion_lon": 0.0, "is_reserved": 0, "fusion_lat": 0.0, "type": "electric_scooter", "lat": 38.909709, "name": "8777d8a36cc7b6cfbe4abdb4f15ca2b4", "bike_id": "8777d8a36cc7b6cfbe4abdb4f15ca2b4"}, {"is_disabled": 0, "rental_uris": {"ios": "https://dc.lft.to/lastmile_qr_scan", "android": "https://dc.lft.to/lastmile_qr_scan"}, "lon": -77.03185283333333, "fusion_lon": 0.0, "is_reserved": 0, "fusion_lat": 0.0, "type": "electric_scooter", "lat": 38.9165015, "name": "25fb09d250b5ccf660c3b6ff0e4256f1", "bike_id": "25fb09d250b5ccf660c3b6ff0e4256f1"}, {"is_disabled": 0, "rental_uris": {"ios": "https://dc.lft.to/lastmile_qr_scan", "android": "https://dc.lft.to/lastmile_qr_scan"}, "lon": -77.04878433333333, "fusion_lon": 0.0, "is_reserved": 0, "fusion_lat": 0.0, "type": "electric_scooter", "lat": 38.9125955, "name": "51bc42d960aed35d79d8ea7c098b5b50", "bike_id": "51bc42d960aed35d79d8ea7c098b5b50"}, {"is_disabled": 0, "rental_uris": {"ios": "https://dc.lft.to/lastmile_qr_scan", "android": "https://dc.lft.to/lastmile_qr_scan"}, "lon": -77.00346116666667, "fusion_lon": 0.0, "is_reserved": 0, "fusion_lat": 0.0, "type": "electric_scooter", "lat": 38.916214333333336, "name": "c543cdb652bcff60ecab90000aa4355f", "bike_id": "c543cdb652bcff60ecab90000aa4355f"}, {"is_disabled": 0, "rental_uris": {"ios": "https://dc.lft.to/lastmile_qr_scan", "android": "https://dc.lft.to/lastmile_qr_scan"}, "lon": -77.01964616666666, "fusion_lon": 0.0, "is_reserved": 0, "fusion_lat": 0.0, "type": "electric_scooter", "lat": 38.9232235, "name": "95fdd48c5aec08bad72fd728266b98e2", "bike_id": "95fdd48c5aec08bad72fd728266b98e2"}, {"is_disabled": 0, "rental_uris": {"ios": "https://dc.lft.to/lastmile_qr_scan", "android": "https://dc.lft.to/lastmile_qr_scan"}, "lon": -76.984168, "fusion_lon": 0.0, "is_reserved": 0, "fusion_lat": 0.0, "type": "electric_bike", "lat": 38.855148, "name": "79a5aa02effcb0fb075556ae08370f23", "bike_id": "79a5aa02effcb0fb075556ae08370f23"}, {"is_disabled": 0, "rental_uris": {"ios": "https://dc.lft.to/lastmile_qr_scan", "android": "https://dc.lft.to/lastmile_qr_scan"}, "lon": -77.02201583333333, "fusion_lon": 0.0, "is_reserved": 0, "fusion_lat": 0.0, "type": "electric_scooter", "lat": 38.90534683333333, "name": "21bb83aa941dc7f88bc7836c9f05f9c7", "bike_id": "21bb83aa941dc7f88bc7836c9f05f9c7"}, {"is_disabled": 0, "rental_uris": {"ios": "https://dc.lft.to/lastmile_qr_scan", "android": "https://dc.lft.to/lastmile_qr_scan"}, "lon": -77.11410866666667, "fusion_lon": 0.0, "is_reserved": 0, "fusion_lat": 0.0, "type": "electric_bike", "lat": 38.8732725, "name": "fd84a4a3b26c87dadf2d54a546f9373d", "bike_id": "fd84a4a3b26c87dadf2d54a546f9373d"}, {"is_disabled": 0, "rental_uris": {"ios": "https://dc.lft.to/lastmile_qr_scan", "android": "https://dc.lft.to/lastmile_qr_scan"}, "lon": -77.03204583333333, "fusion_lon": 0.0, "is_reserved": 0, "fusion_lat": 0.0, "type": "electric_scooter", "lat": 38.91455466666667, "name": "6d7af85f63f0a6441ea6b80a396a1885", "bike_id": "6d7af85f63f0a6441ea6b80a396a1885"}, {"is_disabled": 0, "rental_uris": {"ios": "https://dc.lft.to/lastmile_qr_scan", "android": "https://dc.lft.to/lastmile_qr_scan"}, "lon": -77.03921466666667, "fusion_lon": 0.0, "is_reserved": 0, "fusion_lat": 0.0, "type": "electric_scooter", "lat": 38.91270933333333, "name": "0f99a02c0da2cdafb23a94206987da1f", "bike_id": "0f99a02c0da2cdafb23a94206987da1f"}, {"is_disabled": 0, "rental_uris": {"ios": "https://dc.lft.to/lastmile_qr_scan", "android": "https://dc.lft.to/lastmile_qr_scan"}, "lon": -76.9833505, "fusion_lon": 0.0, "is_reserved": 0, "fusion_lat": 0.0, "type": "electric_scooter", "lat": 38.89545916666667, "name": "fd27e7f320b2c5d1cd76d05cd91d847d", "bike_id": "fd27e7f320b2c5d1cd76d05cd91d847d"}, {"is_disabled": 0, "rental_uris": {"ios": "https://dc.lft.to/lastmile_qr_scan", "android": "https://dc.lft.to/lastmile_qr_scan"}, "lon": -77.03644916666667, "fusion_lon": 0.0, "is_reserved": 0, "fusion_lat": 0.0, "type": "electric_scooter", "lat": 38.90281183333333, "name": "48e98cc5be23cded444fcbd4f5b9f69a", "bike_id": "48e98cc5be23cded444fcbd4f5b9f69a"}, {"is_disabled": 0, "rental_uris": {"ios": "https://dc.lft.to/lastmile_qr_scan", "android": "https://dc.lft.to/lastmile_qr_scan"}, "lon": -77.01837966666666, "fusion_lon": 0.0, "is_reserved": 0, "fusion_lat": 0.0, "type": "electric_scooter", "lat": 38.91536216666667, "name": "8e00ed7c04f85e3bd9856e6cec39a3a1", "bike_id": "8e00ed7c04f85e3bd9856e6cec39a3a1"}, {"is_disabled": 0, "rental_uris": {"ios": "https://dc.lft.to/lastmile_qr_scan", "android": "https://dc.lft.to/lastmile_qr_scan"}, "lon": -77.00754616666667, "fusion_lon": 0.0, "is_reserved": 0, "fusion_lat": 0.0, "type": "electric_scooter", "lat": 38.87117816666667, "name": "877d79318f5319b13fa0ec6013e2b643", "bike_id": "877d79318f5319b13fa0ec6013e2b643"}, {"is_disabled": 0, "rental_uris": {"ios": "https://dc.lft.to/lastmile_qr_scan", "android": "https://dc.lft.to/lastmile_qr_scan"}, "lon": -77.05016916666666, "fusion_lon": 0.0, "is_reserved": 0, "fusion_lat": 0.0, "type": "electric_scooter", "lat": 38.90613716666667, "name": "5836e2705adb696a66c4090402aee111", "bike_id": "5836e2705adb696a66c4090402aee111"}, {"is_disabled": 0, "rental_uris": {"ios": "https://dc.lft.to/lastmile_qr_scan", "android": "https://dc.lft.to/lastmile_qr_scan"}, "lon": -76.98377866666667, "fusion_lon": 0.0, "is_reserved": 0, "fusion_lat": 0.0, "type": "electric_scooter", "lat": 38.891344333333336, "name": "d8f860485fa23a31b0d4981c4ee82fb1", "bike_id": "d8f860485fa23a31b0d4981c4ee82fb1"}, {"is_disabled": 0, "rental_uris": {"ios": "https://dc.lft.to/lastmile_qr_scan", "android": "https://dc.lft.to/lastmile_qr_scan"}, "lon": -77.02653516666666, "fusion_lon": 0.0, "is_reserved": 0, "fusion_lat": 0.0, "type": "electric_scooter", "lat": 38.92386, "name": "0ad0b6d435660f5b56ce6d6b8cc6d8cf", "bike_id": "0ad0b6d435660f5b56ce6d6b8cc6d8cf"}, {"is_disabled": 0, "rental_uris": {"ios": "https://dc.lft.to/lastmile_qr_scan", "android": "https://dc.lft.to/lastmile_qr_scan"}, "lon": -77.02286883333333, "fusion_lon": 0.0, "is_reserved": 0, "fusion_lat": 0.0, "type": "electric_scooter", "lat": 38.9251275, "name": "dfe1c5c07b46d8095c3e231e7720187d", "bike_id": "dfe1c5c07b46d8095c3e231e7720187d"}, {"is_disabled": 0, "rental_uris": {"ios": "https://dc.lft.to/lastmile_qr_scan", "android": "https://dc.lft.to/lastmile_qr_scan"}, "lon": -77.02406716666667, "fusion_lon": 0.0, "is_reserved": 0, "fusion_lat": 0.0, "type": "electric_scooter", "lat": 38.89721316666667, "name": "15af3bc857f255bb1b18e4c7871ed5d8", "bike_id": "15af3bc857f255bb1b18e4c7871ed5d8"}, {"is_disabled": 0, "rental_uris": {"ios": "https://dc.lft.to/lastmile_qr_scan", "android": "https://dc.lft.to/lastmile_qr_scan"}, "lon": -77.04324916666667, "fusion_lon": 0.0, "is_reserved": 0, "fusion_lat": 0.0, "type": "electric_scooter", "lat": 38.90041566666667, "name": "b1463ee7a17727f1cea2e0d6a01267f4", "bike_id": "b1463ee7a17727f1cea2e0d6a01267f4"}, {"is_disabled": 0, "rental_uris": {"ios": "https://dc.lft.to/lastmile_qr_scan", "android": "https://dc.lft.to/lastmile_qr_scan"}, "lon": -77.03319816666666, "fusion_lon": 0.0, "is_reserved": 0, "fusion_lat": 0.0, "type": "electric_scooter", "lat": 38.915671, "name": "aedc57f4a8971143711614945901fc0d", "bike_id": "aedc57f4a8971143711614945901fc0d"}, {"is_disabled": 0, "rental_uris": {"ios": "https://dc.lft.to/lastmile_qr_scan", "android": "https://dc.lft.to/lastmile_qr_scan"}, "lon": -77.0449725, "fusion_lon": 0.0, "is_reserved": 0, "fusion_lat": 0.0, "type": "electric_scooter", "lat": 38.911896666666664, "name": "1cc86da92fc2e94b7dbb3520b8ca8716", "bike_id": "1cc86da92fc2e94b7dbb3520b8ca8716"}, {"is_disabled": 0, "rental_uris": {"ios": "https://dc.lft.to/lastmile_qr_scan", "android": "https://dc.lft.to/lastmile_qr_scan"}, "lon": -77.01988466666667, "fusion_lon": 0.0, "is_reserved": 0, "fusion_lat": 0.0, "type": "electric_scooter", "lat": 38.91177916666667, "name": "07d04896ba25ad89a9c8f8237d8fd2f3", "bike_id": "07d04896ba25ad89a9c8f8237d8fd2f3"}, {"is_disabled": 0, "rental_uris": {"ios": "https://dc.lft.to/lastmile_qr_scan", "android": "https://dc.lft.to/lastmile_qr_scan"}, "lon": -77.07641866666667, "fusion_lon": 0.0, "is_reserved": 0, "fusion_lat": 0.0, "type": "electric_scooter", "lat": 38.908726, "name": "1585c7c96330f146289753aa0df0cbe1", "bike_id": "1585c7c96330f146289753aa0df0cbe1"}, {"is_disabled": 0, "rental_uris": {"ios": "https://dc.lft.to/lastmile_qr_scan", "android": "https://dc.lft.to/lastmile_qr_scan"}, "lon": -77.03908633333333, "fusion_lon": 0.0, "is_reserved": 0, "fusion_lat": 0.0, "type": "electric_scooter", "lat": 38.91420266666667, "name": "c26aca99f3174f30ad5d24c9e423fe4c", "bike_id": "c26aca99f3174f30ad5d24c9e423fe4c"}, {"is_disabled": 0, "rental_uris": {"ios": "https://dc.lft.to/lastmile_qr_scan", "android": "https://dc.lft.to/lastmile_qr_scan"}, "lon": -77.05173216666667, "fusion_lon": 0.0, "is_reserved": 0, "fusion_lat": 0.0, "type": "electric_scooter", "lat": 38.90240283333333, "name": "13fe8358bca3a750e493f38e97b818ec", "bike_id": "13fe8358bca3a750e493f38e97b818ec"}, {"is_disabled": 0, "rental_uris": {"ios": "https://dc.lft.to/lastmile_qr_scan", "android": "https://dc.lft.to/lastmile_qr_scan"}, "lon": -77.02108466666667, "fusion_lon": 0.0, "is_reserved": 0, "fusion_lat": 0.0, "type": "electric_scooter", "lat": 38.8947715, "name": "8a4414618aeca4c7bc3741212efbe877", "bike_id": "8a4414618aeca4c7bc3741212efbe877"}, {"is_disabled": 0, "rental_uris": {"ios": "https://dc.lft.to/lastmile_qr_scan", "android": "https://dc.lft.to/lastmile_qr_scan"}, "lon": -77.02774916666667, "fusion_lon": 0.0, "is_reserved": 0, "fusion_lat": 0.0, "type": "electric_scooter", "lat": 38.93064716666667, "name": "3e3014dfcc29caab6c205dd6ec3fcdbf", "bike_id": "3e3014dfcc29caab6c205dd6ec3fcdbf"}, {"is_disabled": 0, "rental_uris": {"ios": "https://dc.lft.to/lastmile_qr_scan", "android": "https://dc.lft.to/lastmile_qr_scan"}, "lon": -76.94663466666667, "fusion_lon": 0.0, "is_reserved": 0, "fusion_lat": 0.0, "type": "electric_scooter", "lat": 38.8986845, "name": "f6c11d01d51b1bd0819e6aeee81ff2af", "bike_id": "f6c11d01d51b1bd0819e6aeee81ff2af"}, {"is_disabled": 0, "rental_uris": {"ios": "https://dc.lft.to/lastmile_qr_scan", "android": "https://dc.lft.to/lastmile_qr_scan"}, "lon": -77.0294055, "fusion_lon": 0.0, "is_reserved": 0, "fusion_lat": 0.0, "type": "electric_scooter", "lat": 38.907257, "name": "373306ed836d643b485d86361fc79b8c", "bike_id": "373306ed836d643b485d86361fc79b8c"}, {"is_disabled": 0, "rental_uris": {"ios": "https://dc.lft.to/lastmile_qr_scan", "android": "https://dc.lft.to/lastmile_qr_scan"}, "lon": -77.00331966666667, "fusion_lon": 0.0, "is_reserved": 0, "fusion_lat": 0.0, "type": "electric_scooter", "lat": 38.8950375, "name": "0cf772c45d7fa6e28dcf2bd66df99e60", "bike_id": "0cf772c45d7fa6e28dcf2bd66df99e60"}, {"is_disabled": 0, "rental_uris": {"ios": "https://dc.lft.to/lastmile_qr_scan", "android": "https://dc.lft.to/lastmile_qr_scan"}, "lon": -77.03286966666667, "fusion_lon": 0.0, "is_reserved": 0, "fusion_lat": 0.0, "type": "electric_scooter", "lat": 38.933086, "name": "441e4c6128614efb519cca04c5c404d7", "bike_id": "441e4c6128614efb519cca04c5c404d7"}, {"is_disabled": 0, "rental_uris": {"ios": "https://dc.lft.to/lastmile_qr_scan", "android": "https://dc.lft.to/lastmile_qr_scan"}, "lon": -77.23414783333334, "fusion_lon": 0.0, "is_reserved": 0, "fusion_lat": 0.0, "type": "electric_bike", "lat": 38.875791666666665, "name": "f0414e0edd1bc463ae0e181dcab5fb4d", "bike_id": "f0414e0edd1bc463ae0e181dcab5fb4d"}, {"is_disabled": 0, "rental_uris": {"ios": "https://dc.lft.to/lastmile_qr_scan", "android": "https://dc.lft.to/lastmile_qr_scan"}, "lon": -76.99510166666667, "fusion_lon": 0.0, "is_reserved": 0, "fusion_lat": 0.0, "type": "electric_scooter", "lat": 38.880816333333335, "name": "bfd4988c2f9bf6a501c4e9cf6677b7f2", "bike_id": "bfd4988c2f9bf6a501c4e9cf6677b7f2"}, {"is_disabled": 0, "rental_uris": {"ios": "https://dc.lft.to/lastmile_qr_scan", "android": "https://dc.lft.to/lastmile_qr_scan"}, "lon": -77.00934216666667, "fusion_lon": 0.0, "is_reserved": 0, "fusion_lat": 0.0, "type": "electric_scooter", "lat": 38.91804533333333, "name": "1a21c70367c79706666aa894b4fb86b1", "bike_id": "1a21c70367c79706666aa894b4fb86b1"}, {"is_disabled": 0, "rental_uris": {"ios": "https://dc.lft.to/lastmile_qr_scan", "android": "https://dc.lft.to/lastmile_qr_scan"}, "lon": -77.0216905, "fusion_lon": 0.0, "is_reserved": 0, "fusion_lat": 0.0, "type": "electric_scooter", "lat": 38.91991766666666, "name": "73c2762ccd06e45a275cd688cc526560", "bike_id": "73c2762ccd06e45a275cd688cc526560"}, {"is_disabled": 0, "rental_uris": {"ios": "https://dc.lft.to/lastmile_qr_scan", "android": "https://dc.lft.to/lastmile_qr_scan"}, "lon": -77.0366325, "fusion_lon": 0.0, "is_reserved": 0, "fusion_lat": 0.0, "type": "electric_scooter", "lat": 38.912564, "name": "bb27c64d29d079822dd60844eda1dc95", "bike_id": "bb27c64d29d079822dd60844eda1dc95"}, {"is_disabled": 0, "rental_uris": {"ios": "https://dc.lft.to/lastmile_qr_scan", "android": "https://dc.lft.to/lastmile_qr_scan"}, "lon": -77.061005, "fusion_lon": 0.0, "is_reserved": 0, "fusion_lat": 0.0, "type": "electric_scooter", "lat": 38.902287, "name": "763d6167dd84e69ca48d76bfd05b1db3", "bike_id": "763d6167dd84e69ca48d76bfd05b1db3"}, {"is_disabled": 0, "rental_uris": {"ios": "https://dc.lft.to/lastmile_qr_scan", "android": "https://dc.lft.to/lastmile_qr_scan"}, "lon": -77.06656716666667, "fusion_lon": 0.0, "is_reserved": 0, "fusion_lat": 0.0, "type": "electric_scooter", "lat": 38.95069433333333, "name": "820b67b185d8d9d258ad3a4a906d1a1e", "bike_id": "820b67b185d8d9d258ad3a4a906d1a1e"}, {"is_disabled": 0, "rental_uris": {"ios": "https://dc.lft.to/lastmile_qr_scan", "android": "https://dc.lft.to/lastmile_qr_scan"}, "lon": -77.03271966666667, "fusion_lon": 0.0, "is_reserved": 0, "fusion_lat": 0.0, "type": "electric_scooter", "lat": 38.93735266666667, "name": "0d6be371838683957eb799c74a3b8fe0", "bike_id": "0d6be371838683957eb799c74a3b8fe0"}, {"is_disabled": 0, "rental_uris": {"ios": "https://dc.lft.to/lastmile_qr_scan", "android": "https://dc.lft.to/lastmile_qr_scan"}, "lon": -77.0519315, "fusion_lon": 0.0, "is_reserved": 0, "fusion_lat": 0.0, "type": "electric_scooter", "lat": 38.909806833333334, "name": "ce0750e15d7e4e6cd8d12d9568a91f4e", "bike_id": "ce0750e15d7e4e6cd8d12d9568a91f4e"}, {"is_disabled": 0, "rental_uris": {"ios": "https://dc.lft.to/lastmile_qr_scan", "android": "https://dc.lft.to/lastmile_qr_scan"}, "lon": -77.003288, "fusion_lon": 0.0, "is_reserved": 0, "fusion_lat": 0.0, "type": "electric_scooter", "lat": 38.90268, "name": "7c6bed86e489d12b0f8a5f8d7ba0de00", "bike_id": "7c6bed86e489d12b0f8a5f8d7ba0de00"}, {"is_disabled": 0, "rental_uris": {"ios": "https://dc.lft.to/lastmile_qr_scan", "android": "https://dc.lft.to/lastmile_qr_scan"}, "lon": -77.01851016666667, "fusion_lon": 0.0, "is_reserved": 0, "fusion_lat": 0.0, "type": "electric_scooter", "lat": 38.9737245, "name": "4f2cbbb0ab5b259a45d417b2f8ebf486", "bike_id": "4f2cbbb0ab5b259a45d417b2f8ebf486"}, {"is_disabled": 0, "rental_uris": {"ios": "https://dc.lft.to/lastmile_qr_scan", "android": "https://dc.lft.to/lastmile_qr_scan"}, "lon": -77.05021516666666, "fusion_lon": 0.0, "is_reserved": 0, "fusion_lat": 0.0, "type": "electric_scooter", "lat": 38.903703, "name": "2b5f64697e45ed991896fcf4dcfae220", "bike_id": "2b5f64697e45ed991896fcf4dcfae220"}, {"is_disabled": 0, "rental_uris": {"ios": "https://dc.lft.to/lastmile_qr_scan", "android": "https://dc.lft.to/lastmile_qr_scan"}, "lon": -77.02180616666666, "fusion_lon": 0.0, "is_reserved": 0, "fusion_lat": 0.0, "type": "electric_scooter", "lat": 38.9095565, "name": "c520ade358b459248862cbd4b0126da1", "bike_id": "c520ade358b459248862cbd4b0126da1"}, {"is_disabled": 0, "rental_uris": {"ios": "https://dc.lft.to/lastmile_qr_scan", "android": "https://dc.lft.to/lastmile_qr_scan"}, "lon": -77.03798766666667, "fusion_lon": 0.0, "is_reserved": 0, "fusion_lat": 0.0, "type": "electric_scooter", "lat": 38.930710833333336, "name": "719cb02bfbac639cd84eaf0e6302cfc2", "bike_id": "719cb02bfbac639cd84eaf0e6302cfc2"}, {"is_disabled": 0, "rental_uris": {"ios": "https://dc.lft.to/lastmile_qr_scan", "android": "https://dc.lft.to/lastmile_qr_scan"}, "lon": -77.02381816666667, "fusion_lon": 0.0, "is_reserved": 0, "fusion_lat": 0.0, "type": "electric_scooter", "lat": 38.95273733333333, "name": "d5de930195b354ebc662d4dcad1837ae", "bike_id": "d5de930195b354ebc662d4dcad1837ae"}, {"is_disabled": 0, "rental_uris": {"ios": "https://dc.lft.to/lastmile_qr_scan", "android": "https://dc.lft.to/lastmile_qr_scan"}, "lon": -77.034527, "fusion_lon": 0.0, "is_reserved": 0, "fusion_lat": 0.0, "type": "electric_scooter", "lat": 38.9025445, "name": "fdfec72a45e0c62072037f503a41f38e", "bike_id": "fdfec72a45e0c62072037f503a41f38e"}, {"is_disabled": 0, "rental_uris": {"ios": "https://dc.lft.to/lastmile_qr_scan", "android": "https://dc.lft.to/lastmile_qr_scan"}, "lon": -77.04065816666666, "fusion_lon": 0.0, "is_reserved": 0, "fusion_lat": 0.0, "type": "electric_scooter", "lat": 38.903666333333334, "name": "4a0099cf08779b7a568a30e01ef383cb", "bike_id": "4a0099cf08779b7a568a30e01ef383cb"}, {"is_disabled": 0, "rental_uris": {"ios": "https://dc.lft.to/lastmile_qr_scan", "android": "https://dc.lft.to/lastmile_qr_scan"}, "lon": -76.940867, "fusion_lon": 0.0, "is_reserved": 0, "fusion_lat": 0.0, "type": "electric_scooter", "lat": 38.89125083333333, "name": "2ba05d31bfefbefe6dd048d5dafb81f2", "bike_id": "2ba05d31bfefbefe6dd048d5dafb81f2"}, {"is_disabled": 0, "rental_uris": {"ios": "https://dc.lft.to/lastmile_qr_scan", "android": "https://dc.lft.to/lastmile_qr_scan"}, "lon": -77.04176316666667, "fusion_lon": 0.0, "is_reserved": 0, "fusion_lat": 0.0, "type": "electric_scooter", "lat": 38.90937616666667, "name": "47040872098b3a850b21bb81b2ddcd87", "bike_id": "47040872098b3a850b21bb81b2ddcd87"}, {"is_disabled": 0, "rental_uris": {"ios": "https://dc.lft.to/lastmile_qr_scan", "android": "https://dc.lft.to/lastmile_qr_scan"}, "lon": -77.03180716666667, "fusion_lon": 0.0, "is_reserved": 0, "fusion_lat": 0.0, "type": "electric_scooter", "lat": 38.919258, "name": "889580d9090f8c671415c71546bd0860", "bike_id": "889580d9090f8c671415c71546bd0860"}, {"is_disabled": 0, "rental_uris": {"ios": "https://dc.lft.to/lastmile_qr_scan", "android": "https://dc.lft.to/lastmile_qr_scan"}, "lon": -77.01769466666667, "fusion_lon": 0.0, "is_reserved": 0, "fusion_lat": 0.0, "type": "electric_scooter", "lat": 38.9023385, "name": "5c273ec39593907976fe1ae9007806ef", "bike_id": "5c273ec39593907976fe1ae9007806ef"}, {"is_disabled": 0, "rental_uris": {"ios": "https://dc.lft.to/lastmile_qr_scan", "android": "https://dc.lft.to/lastmile_qr_scan"}, "lon": -76.98862733333333, "fusion_lon": 0.0, "is_reserved": 0, "fusion_lat": 0.0, "type": "electric_scooter", "lat": 38.844192166666666, "name": "5af7f30c1916c8fac998d898c9fb2d9d", "bike_id": "5af7f30c1916c8fac998d898c9fb2d9d"}, {"is_disabled": 0, "rental_uris": {"ios": "https://dc.lft.to/lastmile_qr_scan", "android": "https://dc.lft.to/lastmile_qr_scan"}, "lon": -77.0604105, "fusion_lon": 0.0, "is_reserved": 0, "fusion_lat": 0.0, "type": "electric_scooter", "lat": 38.902225666666666, "name": "d84b48dd03427da6e54bd1795845b387", "bike_id": "d84b48dd03427da6e54bd1795845b387"}, {"is_disabled": 0, "rental_uris": {"ios": "https://dc.lft.to/lastmile_qr_scan", "android": "https://dc.lft.to/lastmile_qr_scan"}, "lon": -77.0240935, "fusion_lon": 0.0, "is_reserved": 0, "fusion_lat": 0.0, "type": "electric_scooter", "lat": 38.916466, "name": "8daa281e4013335252caa86458649a86", "bike_id": "8daa281e4013335252caa86458649a86"}, {"is_disabled": 0, "rental_uris": {"ios": "https://dc.lft.to/lastmile_qr_scan", "android": "https://dc.lft.to/lastmile_qr_scan"}, "lon": -77.06834616666667, "fusion_lon": 0.0, "is_reserved": 0, "fusion_lat": 0.0, "type": "electric_scooter", "lat": 38.904058166666665, "name": "5aa479a7e0a50758852180d88dd4cb82", "bike_id": "5aa479a7e0a50758852180d88dd4cb82"}, {"is_disabled": 0, "rental_uris": {"ios": "https://dc.lft.to/lastmile_qr_scan", "android": "https://dc.lft.to/lastmile_qr_scan"}, "lon": -77.026539, "fusion_lon": 0.0, "is_reserved": 0, "fusion_lat": 0.0, "type": "electric_scooter", "lat": 38.923807, "name": "8aa7faeefdc06fb3c62593f6d1573cc3", "bike_id": "8aa7faeefdc06fb3c62593f6d1573cc3"}, {"is_disabled": 0, "rental_uris": {"ios": "https://dc.lft.to/lastmile_qr_scan", "android": "https://dc.lft.to/lastmile_qr_scan"}, "lon": -77.05059466666667, "fusion_lon": 0.0, "is_reserved": 0, "fusion_lat": 0.0, "type": "electric_scooter", "lat": 38.903735, "name": "f04cb5cee6f0f796f62c1e5b28375868", "bike_id": "f04cb5cee6f0f796f62c1e5b28375868"}, {"is_disabled": 0, "rental_uris": {"ios": "https://dc.lft.to/lastmile_qr_scan", "android": "https://dc.lft.to/lastmile_qr_scan"}, "lon": -77.01827516666667, "fusion_lon": 0.0, "is_reserved": 0, "fusion_lat": 0.0, "type": "electric_scooter", "lat": 38.921489333333334, "name": "ff5f22097cd867a0b18d5caa7d8fe5c4", "bike_id": "ff5f22097cd867a0b18d5caa7d8fe5c4"}, {"is_disabled": 0, "rental_uris": {"ios": "https://dc.lft.to/lastmile_qr_scan", "android": "https://dc.lft.to/lastmile_qr_scan"}, "lon": -76.996797, "fusion_lon": 0.0, "is_reserved": 0, "fusion_lat": 0.0, "type": "electric_bike", "lat": 38.838233333333335, "name": "cf83c3c04d388fa347b4490149ae5101", "bike_id": "cf83c3c04d388fa347b4490149ae5101"}, {"is_disabled": 0, "rental_uris": {"ios": "https://dc.lft.to/lastmile_qr_scan", "android": "https://dc.lft.to/lastmile_qr_scan"}, "lon": -77.00049633333333, "fusion_lon": 0.0, "is_reserved": 0, "fusion_lat": 0.0, "type": "electric_scooter", "lat": 38.874972666666665, "name": "1925bbfd6a76f82f1778ca6e88cda1d1", "bike_id": "1925bbfd6a76f82f1778ca6e88cda1d1"}, {"is_disabled": 0, "rental_uris": {"ios": "https://dc.lft.to/lastmile_qr_scan", "android": "https://dc.lft.to/lastmile_qr_scan"}, "lon": -77.0366205, "fusion_lon": 0.0, "is_reserved": 0, "fusion_lat": 0.0, "type": "electric_scooter", "lat": 38.936340666666666, "name": "9c64af14e9af20c4b521f65fe788004c", "bike_id": "9c64af14e9af20c4b521f65fe788004c"}, {"is_disabled": 0, "rental_uris": {"ios": "https://dc.lft.to/lastmile_qr_scan", "android": "https://dc.lft.to/lastmile_qr_scan"}, "lon": -77.0105035, "fusion_lon": 0.0, "is_reserved": 0, "fusion_lat": 0.0, "type": "electric_bike", "lat": 38.877652, "name": "fd87ba957f665ef8253de20493f3f781", "bike_id": "fd87ba957f665ef8253de20493f3f781"}, {"is_disabled": 0, "rental_uris": {"ios": "https://dc.lft.to/lastmile_qr_scan", "android": "https://dc.lft.to/lastmile_qr_scan"}, "lon": -77.028203, "fusion_lon": 0.0, "is_reserved": 0, "fusion_lat": 0.0, "type": "electric_scooter", "lat": 38.89942383333333, "name": "900f0e02366658a9259ac561dc1c4352", "bike_id": "900f0e02366658a9259ac561dc1c4352"}, {"is_disabled": 0, "rental_uris": {"ios": "https://dc.lft.to/lastmile_qr_scan", "android": "https://dc.lft.to/lastmile_qr_scan"}, "lon": -77.02204866666666, "fusion_lon": 0.0, "is_reserved": 0, "fusion_lat": 0.0, "type": "electric_scooter", "lat": 38.910485333333334, "name": "85f47ce4e382a400346d44a5a34bd9b8", "bike_id": "85f47ce4e382a400346d44a5a34bd9b8"}, {"is_disabled": 0, "rental_uris": {"ios": "https://dc.lft.to/lastmile_qr_scan", "android": "https://dc.lft.to/lastmile_qr_scan"}, "lon": -77.0038065, "fusion_lon": 0.0, "is_reserved": 0, "fusion_lat": 0.0, "type": "electric_bike", "lat": 38.836034833333336, "name": "e439f6b5ecf837c85ca35e3958c496c9", "bike_id": "e439f6b5ecf837c85ca35e3958c496c9"}, {"is_disabled": 0, "rental_uris": {"ios": "https://dc.lft.to/lastmile_qr_scan", "android": "https://dc.lft.to/lastmile_qr_scan"}, "lon": -77.018564, "fusion_lon": 0.0, "is_reserved": 0, "fusion_lat": 0.0, "type": "electric_scooter", "lat": 38.94922616666667, "name": "8c651fad2751ca30d4014f40af7cb49d", "bike_id": "8c651fad2751ca30d4014f40af7cb49d"}, {"is_disabled": 0, "rental_uris": {"ios": "https://dc.lft.to/lastmile_qr_scan", "android": "https://dc.lft.to/lastmile_qr_scan"}, "lon": -77.0372885, "fusion_lon": 0.0, "is_reserved": 0, "fusion_lat": 0.0, "type": "electric_scooter", "lat": 38.9202755, "name": "375b12043aebfaed5115f54d35a4368a", "bike_id": "375b12043aebfaed5115f54d35a4368a"}, {"is_disabled": 0, "rental_uris": {"ios": "https://dc.lft.to/lastmile_qr_scan", "android": "https://dc.lft.to/lastmile_qr_scan"}, "lon": -77.0207485, "fusion_lon": 0.0, "is_reserved": 0, "fusion_lat": 0.0, "type": "electric_scooter", "lat": 38.930271, "name": "ac8c818ebe6e2d25f7e1997b9e58de53", "bike_id": "ac8c818ebe6e2d25f7e1997b9e58de53"}, {"is_disabled": 0, "rental_uris": {"ios": "https://dc.lft.to/lastmile_qr_scan", "android": "https://dc.lft.to/lastmile_qr_scan"}, "lon": -77.01379366666667, "fusion_lon": 0.0, "is_reserved": 0, "fusion_lat": 0.0, "type": "electric_scooter", "lat": 38.876078, "name": "9ec1d96da23c1425a73508736cdaeb20", "bike_id": "9ec1d96da23c1425a73508736cdaeb20"}, {"is_disabled": 0, "rental_uris": {"ios": "https://dc.lft.to/lastmile_qr_scan", "android": "https://dc.lft.to/lastmile_qr_scan"}, "lon": -76.96321633333334, "fusion_lon": 0.0, "is_reserved": 0, "fusion_lat": 0.0, "type": "electric_bike", "lat": 38.93897283333333, "name": "b85b95a656c64099dbcc4bc919466f26", "bike_id": "b85b95a656c64099dbcc4bc919466f26"}, {"is_disabled": 0, "rental_uris": {"ios": "https://dc.lft.to/lastmile_qr_scan", "android": "https://dc.lft.to/lastmile_qr_scan"}, "lon": -77.020872, "fusion_lon": 0.0, "is_reserved": 0, "fusion_lat": 0.0, "type": "electric_scooter", "lat": 38.92151783333333, "name": "b129f973630336403435b756c83bd990", "bike_id": "b129f973630336403435b756c83bd990"}, {"is_disabled": 0, "rental_uris": {"ios": "https://dc.lft.to/lastmile_qr_scan", "android": "https://dc.lft.to/lastmile_qr_scan"}, "lon": -77.000398, "fusion_lon": 0.0, "is_reserved": 0, "fusion_lat": 0.0, "type": "electric_scooter", "lat": 38.881225, "name": "84cf06b22c48c60ffdfd42bcfefc6f6b", "bike_id": "84cf06b22c48c60ffdfd42bcfefc6f6b"}, {"is_disabled": 0, "rental_uris": {"ios": "https://dc.lft.to/lastmile_qr_scan", "android": "https://dc.lft.to/lastmile_qr_scan"}, "lon": -76.98699566666667, "fusion_lon": 0.0, "is_reserved": 0, "fusion_lat": 0.0, "type": "electric_scooter", "lat": 38.90014033333333, "name": "537ef481f8637c0b48dba3de9f345901", "bike_id": "537ef481f8637c0b48dba3de9f345901"}, {"is_disabled": 0, "rental_uris": {"ios": "https://dc.lft.to/lastmile_qr_scan", "android": "https://dc.lft.to/lastmile_qr_scan"}, "lon": -77.00282983333334, "fusion_lon": 0.0, "is_reserved": 0, "fusion_lat": 0.0, "type": "electric_bike", "lat": 38.83839016666667, "name": "b3224bc6ac94337c67db24f6b934f866", "bike_id": "b3224bc6ac94337c67db24f6b934f866"}, {"is_disabled": 0, "rental_uris": {"ios": "https://dc.lft.to/lastmile_qr_scan", "android": "https://dc.lft.to/lastmile_qr_scan"}, "lon": -77.034615, "fusion_lon": 0.0, "is_reserved": 0, "fusion_lat": 0.0, "type": "electric_scooter", "lat": 38.92160883333333, "name": "fb6c4be8800b31da502ef7d1c68521e5", "bike_id": "fb6c4be8800b31da502ef7d1c68521e5"}, {"is_disabled": 0, "rental_uris": {"ios": "https://dc.lft.to/lastmile_qr_scan", "android": "https://dc.lft.to/lastmile_qr_scan"}, "lon": -77.0807725, "fusion_lon": 0.0, "is_reserved": 0, "fusion_lat": 0.0, "type": "electric_scooter", "lat": 38.91927116666667, "name": "0a2b764272f3071e52b88c6bb9c3e1c2", "bike_id": "0a2b764272f3071e52b88c6bb9c3e1c2"}, {"is_disabled": 0, "rental_uris": {"ios": "https://dc.lft.to/lastmile_qr_scan", "android": "https://dc.lft.to/lastmile_qr_scan"}, "lon": -77.02457266666667, "fusion_lon": 0.0, "is_reserved": 0, "fusion_lat": 0.0, "type": "electric_scooter", "lat": 38.91853783333333, "name": "3bb57074d1da5336ad24ff7a97c4b7fd", "bike_id": "3bb57074d1da5336ad24ff7a97c4b7fd"}, {"is_disabled": 0, "rental_uris": {"ios": "https://dc.lft.to/lastmile_qr_scan", "android": "https://dc.lft.to/lastmile_qr_scan"}, "lon": -77.03442183333334, "fusion_lon": 0.0, "is_reserved": 0, "fusion_lat": 0.0, "type": "electric_scooter", "lat": 38.91380616666667, "name": "1ec4e285453761fc645f39d1b531f545", "bike_id": "1ec4e285453761fc645f39d1b531f545"}, {"is_disabled": 0, "rental_uris": {"ios": "https://dc.lft.to/lastmile_qr_scan", "android": "https://dc.lft.to/lastmile_qr_scan"}, "lon": -77.01966066666667, "fusion_lon": 0.0, "is_reserved": 0, "fusion_lat": 0.0, "type": "electric_scooter", "lat": 38.923218, "name": "496b38e9aa07aef4d8a3b7c9b12ff932", "bike_id": "496b38e9aa07aef4d8a3b7c9b12ff932"}, {"is_disabled": 0, "rental_uris": {"ios": "https://dc.lft.to/lastmile_qr_scan", "android": "https://dc.lft.to/lastmile_qr_scan"}, "lon": -77.02571016666667, "fusion_lon": 0.0, "is_reserved": 0, "fusion_lat": 0.0, "type": "electric_scooter", "lat": 38.8874625, "name": "83ee1bf5a933b57b553ce61e753efdda", "bike_id": "83ee1bf5a933b57b553ce61e753efdda"}, {"is_disabled": 0, "rental_uris": {"ios": "https://dc.lft.to/lastmile_qr_scan", "android": "https://dc.lft.to/lastmile_qr_scan"}, "lon": -76.98857383333333, "fusion_lon": 0.0, "is_reserved": 0, "fusion_lat": 0.0, "type": "electric_scooter", "lat": 38.844258333333336, "name": "09f197468b04f078671bbf200d27f19d", "bike_id": "09f197468b04f078671bbf200d27f19d"}, {"is_disabled": 0, "rental_uris": {"ios": "https://dc.lft.to/lastmile_qr_scan", "android": "https://dc.lft.to/lastmile_qr_scan"}, "lon": -76.99027083333333, "fusion_lon": 0.0, "is_reserved": 0, "fusion_lat": 0.0, "type": "electric_bike", "lat": 38.83580083333333, "name": "fef98d0992644ab9078663c18cc79122", "bike_id": "fef98d0992644ab9078663c18cc79122"}, {"is_disabled": 0, "rental_uris": {"ios": "https://dc.lft.to/lastmile_qr_scan", "android": "https://dc.lft.to/lastmile_qr_scan"}, "lon": -77.024037, "fusion_lon": 0.0, "is_reserved": 0, "fusion_lat": 0.0, "type": "electric_scooter", "lat": 38.9249785, "name": "aabbac8baaafee31b5b4099addfe9f8a", "bike_id": "aabbac8baaafee31b5b4099addfe9f8a"}, {"is_disabled": 0, "rental_uris": {"ios": "https://dc.lft.to/lastmile_qr_scan", "android": "https://dc.lft.to/lastmile_qr_scan"}, "lon": -77.02381883333334, "fusion_lon": 0.0, "is_reserved": 0, "fusion_lat": 0.0, "type": "electric_scooter", "lat": 38.90970566666667, "name": "175d6ead5f144e0715cb98d53a35ecaa", "bike_id": "175d6ead5f144e0715cb98d53a35ecaa"}, {"is_disabled": 0, "rental_uris": {"ios": "https://dc.lft.to/lastmile_qr_scan", "android": "https://dc.lft.to/lastmile_qr_scan"}, "lon": -77.01695383333333, "fusion_lon": 0.0, "is_reserved": 0, "fusion_lat": 0.0, "type": "electric_scooter", "lat": 38.904727, "name": "34b267bb27f38da03f285d3ceba4f48a", "bike_id": "34b267bb27f38da03f285d3ceba4f48a"}, {"is_disabled": 0, "rental_uris": {"ios": "https://dc.lft.to/lastmile_qr_scan", "android": "https://dc.lft.to/lastmile_qr_scan"}, "lon": -77.03369966666666, "fusion_lon": 0.0, "is_reserved": 0, "fusion_lat": 0.0, "type": "electric_scooter", "lat": 38.89957283333333, "name": "362f16d33dd9cf2966f9f6987cd8cb4c", "bike_id": "362f16d33dd9cf2966f9f6987cd8cb4c"}, {"is_disabled": 0, "rental_uris": {"ios": "https://dc.lft.to/lastmile_qr_scan", "android": "https://dc.lft.to/lastmile_qr_scan"}, "lon": -77.03444283333333, "fusion_lon": 0.0, "is_reserved": 0, "fusion_lat": 0.0, "type": "electric_scooter", "lat": 38.90739666666666, "name": "70b997f3edd5f07afa21187bef49e802", "bike_id": "70b997f3edd5f07afa21187bef49e802"}, {"is_disabled": 0, "rental_uris": {"ios": "https://dc.lft.to/lastmile_qr_scan", "android": "https://dc.lft.to/lastmile_qr_scan"}, "lon": -77.0347335, "fusion_lon": 0.0, "is_reserved": 0, "fusion_lat": 0.0, "type": "electric_scooter", "lat": 38.9023115, "name": "131d5b83331456b851687fffec51f9ca", "bike_id": "131d5b83331456b851687fffec51f9ca"}, {"is_disabled": 0, "rental_uris": {"ios": "https://dc.lft.to/lastmile_qr_scan", "android": "https://dc.lft.to/lastmile_qr_scan"}, "lon": -77.00316733333334, "fusion_lon": 0.0, "is_reserved": 0, "fusion_lat": 0.0, "type": "electric_scooter", "lat": 38.8898875, "name": "b80131691d149eab65cc260f65b871cf", "bike_id": "b80131691d149eab65cc260f65b871cf"}, {"is_disabled": 0, "rental_uris": {"ios": "https://dc.lft.to/lastmile_qr_scan", "android": "https://dc.lft.to/lastmile_qr_scan"}, "lon": -76.98236116666666, "fusion_lon": 0.0, "is_reserved": 0, "fusion_lat": 0.0, "type": "electric_scooter", "lat": 38.908931, "name": "9d954811f2138fcc8dfeb41b0062aef8", "bike_id": "9d954811f2138fcc8dfeb41b0062aef8"}, {"is_disabled": 0, "rental_uris": {"ios": "https://dc.lft.to/lastmile_qr_scan", "android": "https://dc.lft.to/lastmile_qr_scan"}, "lon": -77.01416933333333, "fusion_lon": 0.0, "is_reserved": 0, "fusion_lat": 0.0, "type": "electric_scooter", "lat": 38.912543166666666, "name": "ecbfc018e9b0625afffdcdedde8f0e7c", "bike_id": "ecbfc018e9b0625afffdcdedde8f0e7c"}, {"is_disabled": 0, "rental_uris": {"ios": "https://dc.lft.to/lastmile_qr_scan", "android": "https://dc.lft.to/lastmile_qr_scan"}, "lon": -77.04844733333333, "fusion_lon": 0.0, "is_reserved": 0, "fusion_lat": 0.0, "type": "electric_scooter", "lat": 38.90966983333333, "name": "609c305350e8205c24e001499a40b9d6", "bike_id": "609c305350e8205c24e001499a40b9d6"}, {"is_disabled": 0, "rental_uris": {"ios": "https://dc.lft.to/lastmile_qr_scan", "android": "https://dc.lft.to/lastmile_qr_scan"}, "lon": -77.04000216666667, "fusion_lon": 0.0, "is_reserved": 0, "fusion_lat": 0.0, "type": "electric_scooter", "lat": 38.934314666666666, "name": "b3b28a90166721d385301ebc455c1984", "bike_id": "b3b28a90166721d385301ebc455c1984"}, {"is_disabled": 0, "rental_uris": {"ios": "https://dc.lft.to/lastmile_qr_scan", "android": "https://dc.lft.to/lastmile_qr_scan"}, "lon": -76.93211916666667, "fusion_lon": 0.0, "is_reserved": 0, "fusion_lat": 0.0, "type": "electric_scooter", "lat": 38.88055633333333, "name": "1565a5f7f524b952e1f617051d600235", "bike_id": "1565a5f7f524b952e1f617051d600235"}, {"is_disabled": 0, "rental_uris": {"ios": "https://dc.lft.to/lastmile_qr_scan", "android": "https://dc.lft.to/lastmile_qr_scan"}, "lon": -77.0380125, "fusion_lon": 0.0, "is_reserved": 0, "fusion_lat": 0.0, "type": "electric_scooter", "lat": 38.91985116666667, "name": "1e6437e83e49d54ca143890c71c5d7e3", "bike_id": "1e6437e83e49d54ca143890c71c5d7e3"}, {"is_disabled": 0, "rental_uris": {"ios": "https://dc.lft.to/lastmile_qr_scan", "android": "https://dc.lft.to/lastmile_qr_scan"}, "lon": -77.04133683333333, "fusion_lon": 0.0, "is_reserved": 0, "fusion_lat": 0.0, "type": "electric_scooter", "lat": 38.89352066666667, "name": "a990338a20e72d43f46506140a52277b", "bike_id": "a990338a20e72d43f46506140a52277b"}, {"is_disabled": 0, "rental_uris": {"ios": "https://dc.lft.to/lastmile_qr_scan", "android": "https://dc.lft.to/lastmile_qr_scan"}, "lon": -76.97317116666666, "fusion_lon": 0.0, "is_reserved": 0, "fusion_lat": 0.0, "type": "electric_bike", "lat": 38.917611666666666, "name": "96bc54bcfeab566d3c56add2389aa341", "bike_id": "96bc54bcfeab566d3c56add2389aa341"}, {"is_disabled": 0, "rental_uris": {"ios": "https://dc.lft.to/lastmile_qr_scan", "android": "https://dc.lft.to/lastmile_qr_scan"}, "lon": -77.01775283333333, "fusion_lon": 0.0, "is_reserved": 0, "fusion_lat": 0.0, "type": "electric_scooter", "lat": 38.921032, "name": "4b08d318fd002e910b60a0ffc04f197d", "bike_id": "4b08d318fd002e910b60a0ffc04f197d"}, {"is_disabled": 0, "rental_uris": {"ios": "https://dc.lft.to/lastmile_qr_scan", "android": "https://dc.lft.to/lastmile_qr_scan"}, "lon": -77.0330755, "fusion_lon": 0.0, "is_reserved": 0, "fusion_lat": 0.0, "type": "electric_scooter", "lat": 38.91911916666667, "name": "492c3455df81546a588b38132f85499f", "bike_id": "492c3455df81546a588b38132f85499f"}, {"is_disabled": 0, "rental_uris": {"ios": "https://dc.lft.to/lastmile_qr_scan", "android": "https://dc.lft.to/lastmile_qr_scan"}, "lon": -76.96090033333333, "fusion_lon": 0.0, "is_reserved": 0, "fusion_lat": 0.0, "type": "electric_bike", "lat": 38.918577666666664, "name": "8fd5eea08de3c87e1736f42289048e21", "bike_id": "8fd5eea08de3c87e1736f42289048e21"}, {"is_disabled": 0, "rental_uris": {"ios": "https://dc.lft.to/lastmile_qr_scan", "android": "https://dc.lft.to/lastmile_qr_scan"}, "lon": -77.04675083333333, "fusion_lon": 0.0, "is_reserved": 0, "fusion_lat": 0.0, "type": "electric_scooter", "lat": 38.9040215, "name": "5c3531ede16698ef2df541cbe1c4ff6e", "bike_id": "5c3531ede16698ef2df541cbe1c4ff6e"}, {"is_disabled": 0, "rental_uris": {"ios": "https://dc.lft.to/lastmile_qr_scan", "android": "https://dc.lft.to/lastmile_qr_scan"}, "lon": -76.91804166666667, "fusion_lon": 0.0, "is_reserved": 0, "fusion_lat": 0.0, "type": "electric_bike", "lat": 39.00008916666667, "name": "1c14589151cb546da60ec717775cbc0a", "bike_id": "1c14589151cb546da60ec717775cbc0a"}, {"is_disabled": 0, "rental_uris": {"ios": "https://dc.lft.to/lastmile_qr_scan", "android": "https://dc.lft.to/lastmile_qr_scan"}, "lon": -77.03440333333333, "fusion_lon": 0.0, "is_reserved": 0, "fusion_lat": 0.0, "type": "electric_scooter", "lat": 38.91796883333333, "name": "a0cad54453ae77953898cd564c353f51", "bike_id": "a0cad54453ae77953898cd564c353f51"}, {"is_disabled": 0, "rental_uris": {"ios": "https://dc.lft.to/lastmile_qr_scan", "android": "https://dc.lft.to/lastmile_qr_scan"}, "lon": -77.0775715, "fusion_lon": 0.0, "is_reserved": 0, "fusion_lat": 0.0, "type": "electric_bike", "lat": 38.84195883333334, "name": "e8a5792dbb4b2f1687cdbae8cb215051", "bike_id": "e8a5792dbb4b2f1687cdbae8cb215051"}, {"is_disabled": 0, "rental_uris": {"ios": "https://dc.lft.to/lastmile_qr_scan", "android": "https://dc.lft.to/lastmile_qr_scan"}, "lon": -76.92946366666666, "fusion_lon": 0.0, "is_reserved": 0, "fusion_lat": 0.0, "type": "electric_scooter", "lat": 38.9034875, "name": "1b8fddb6c8d65a75646ace03cdc0676b", "bike_id": "1b8fddb6c8d65a75646ace03cdc0676b"}, {"is_disabled": 0, "rental_uris": {"ios": "https://dc.lft.to/lastmile_qr_scan", "android": "https://dc.lft.to/lastmile_qr_scan"}, "lon": -77.041912, "fusion_lon": 0.0, "is_reserved": 0, "fusion_lat": 0.0, "type": "electric_scooter", "lat": 38.920541666666665, "name": "ad8faa1d94ab5403829b50380d403872", "bike_id": "ad8faa1d94ab5403829b50380d403872"}, {"is_disabled": 0, "rental_uris": {"ios": "https://dc.lft.to/lastmile_qr_scan", "android": "https://dc.lft.to/lastmile_qr_scan"}, "lon": -77.03468816666667, "fusion_lon": 0.0, "is_reserved": 0, "fusion_lat": 0.0, "type": "electric_scooter", "lat": 38.90258433333333, "name": "17f7b104d2750866ccfabf240fbed037", "bike_id": "17f7b104d2750866ccfabf240fbed037"}, {"is_disabled": 0, "rental_uris": {"ios": "https://dc.lft.to/lastmile_qr_scan", "android": "https://dc.lft.to/lastmile_qr_scan"}, "lon": -77.01782616666667, "fusion_lon": 0.0, "is_reserved": 0, "fusion_lat": 0.0, "type": "electric_scooter", "lat": 38.9196425, "name": "f7cb32e1cbc66c165c5801af94365321", "bike_id": "f7cb32e1cbc66c165c5801af94365321"}, {"is_disabled": 0, "rental_uris": {"ios": "https://dc.lft.to/lastmile_qr_scan", "android": "https://dc.lft.to/lastmile_qr_scan"}, "lon": -77.01708283333333, "fusion_lon": 0.0, "is_reserved": 0, "fusion_lat": 0.0, "type": "electric_scooter", "lat": 38.904568833333336, "name": "b7eee689bd9c4af366f72327a55b0a2c", "bike_id": "b7eee689bd9c4af366f72327a55b0a2c"}, {"is_disabled": 0, "rental_uris": {"ios": "https://dc.lft.to/lastmile_qr_scan", "android": "https://dc.lft.to/lastmile_qr_scan"}, "lon": -77.0717155, "fusion_lon": 0.0, "is_reserved": 0, "fusion_lat": 0.0, "type": "electric_scooter", "lat": 38.90765966666667, "name": "350d929a25edcda119399ead7febc9c0", "bike_id": "350d929a25edcda119399ead7febc9c0"}, {"is_disabled": 0, "rental_uris": {"ios": "https://dc.lft.to/lastmile_qr_scan", "android": "https://dc.lft.to/lastmile_qr_scan"}, "lon": -77.0256615, "fusion_lon": 0.0, "is_reserved": 0, "fusion_lat": 0.0, "type": "electric_scooter", "lat": 38.95393683333333, "name": "74ae6df5e106d936fef11e4daaefad68", "bike_id": "74ae6df5e106d936fef11e4daaefad68"}, {"is_disabled": 0, "rental_uris": {"ios": "https://dc.lft.to/lastmile_qr_scan", "android": "https://dc.lft.to/lastmile_qr_scan"}, "lon": -77.03872533333333, "fusion_lon": 0.0, "is_reserved": 0, "fusion_lat": 0.0, "type": "electric_scooter", "lat": 38.91710916666667, "name": "ac8f8e7b9769397ea406d2b3fa980605", "bike_id": "ac8f8e7b9769397ea406d2b3fa980605"}, {"is_disabled": 0, "rental_uris": {"ios": "https://dc.lft.to/lastmile_qr_scan", "android": "https://dc.lft.to/lastmile_qr_scan"}, "lon": -77.0363245, "fusion_lon": 0.0, "is_reserved": 0, "fusion_lat": 0.0, "type": "electric_scooter", "lat": 38.90385066666666, "name": "f5a755b94c5eb2e3ea6eb769f221bcf5", "bike_id": "f5a755b94c5eb2e3ea6eb769f221bcf5"}, {"is_disabled": 0, "rental_uris": {"ios": "https://dc.lft.to/lastmile_qr_scan", "android": "https://dc.lft.to/lastmile_qr_scan"}, "lon": -77.01520883333333, "fusion_lon": 0.0, "is_reserved": 0, "fusion_lat": 0.0, "type": "electric_scooter", "lat": 38.87269033333333, "name": "8ab1a427017adf1af5dff58c9e19fe40", "bike_id": "8ab1a427017adf1af5dff58c9e19fe40"}, {"is_disabled": 0, "rental_uris": {"ios": "https://dc.lft.to/lastmile_qr_scan", "android": "https://dc.lft.to/lastmile_qr_scan"}, "lon": -77.022864, "fusion_lon": 0.0, "is_reserved": 0, "fusion_lat": 0.0, "type": "electric_scooter", "lat": 38.92518116666667, "name": "81b0c7870dce9c3df45d7ce3e55c77fc", "bike_id": "81b0c7870dce9c3df45d7ce3e55c77fc"}, {"is_disabled": 0, "rental_uris": {"ios": "https://dc.lft.to/lastmile_qr_scan", "android": "https://dc.lft.to/lastmile_qr_scan"}, "lon": -77.0131225, "fusion_lon": 0.0, "is_reserved": 0, "fusion_lat": 0.0, "type": "electric_scooter", "lat": 38.92115283333333, "name": "d16efcff555c884d02a2f34c09533f38", "bike_id": "d16efcff555c884d02a2f34c09533f38"}, {"is_disabled": 0, "rental_uris": {"ios": "https://dc.lft.to/lastmile_qr_scan", "android": "https://dc.lft.to/lastmile_qr_scan"}, "lon": -77.0257845, "fusion_lon": 0.0, "is_reserved": 0, "fusion_lat": 0.0, "type": "electric_scooter", "lat": 38.925186333333336, "name": "48e5b18841554f6e7acfad13f650a607", "bike_id": "48e5b18841554f6e7acfad13f650a607"}, {"is_disabled": 0, "rental_uris": {"ios": "https://dc.lft.to/lastmile_qr_scan", "android": "https://dc.lft.to/lastmile_qr_scan"}, "lon": -76.98859533333334, "fusion_lon": 0.0, "is_reserved": 0, "fusion_lat": 0.0, "type": "electric_scooter", "lat": 38.90026133333333, "name": "b0ed67b4ea9817455d46925c6f0430ab", "bike_id": "b0ed67b4ea9817455d46925c6f0430ab"}, {"is_disabled": 0, "rental_uris": {"ios": "https://dc.lft.to/lastmile_qr_scan", "android": "https://dc.lft.to/lastmile_qr_scan"}, "lon": -77.06175766666667, "fusion_lon": 0.0, "is_reserved": 0, "fusion_lat": 0.0, "type": "electric_scooter", "lat": 38.94123183333333, "name": "2fe244abf4410b1a648e8a7e8fcd7815", "bike_id": "2fe244abf4410b1a648e8a7e8fcd7815"}, {"is_disabled": 0, "rental_uris": {"ios": "https://dc.lft.to/lastmile_qr_scan", "android": "https://dc.lft.to/lastmile_qr_scan"}, "lon": -77.043532, "fusion_lon": 0.0, "is_reserved": 0, "fusion_lat": 0.0, "type": "electric_scooter", "lat": 38.911272, "name": "75bd89d3bbe6c84ef7ea0d4f28e86f63", "bike_id": "75bd89d3bbe6c84ef7ea0d4f28e86f63"}, {"is_disabled": 0, "rental_uris": {"ios": "https://dc.lft.to/lastmile_qr_scan", "android": "https://dc.lft.to/lastmile_qr_scan"}, "lon": -77.029724, "fusion_lon": 0.0, "is_reserved": 0, "fusion_lat": 0.0, "type": "electric_scooter", "lat": 38.90715483333334, "name": "7cc21daacea1b0df05ba4acd28403f61", "bike_id": "7cc21daacea1b0df05ba4acd28403f61"}, {"is_disabled": 0, "rental_uris": {"ios": "https://dc.lft.to/lastmile_qr_scan", "android": "https://dc.lft.to/lastmile_qr_scan"}, "lon": -77.0401315, "fusion_lon": 0.0, "is_reserved": 0, "fusion_lat": 0.0, "type": "electric_scooter", "lat": 38.905688, "name": "45d4d87676bfc7c5b8537de79cd43e25", "bike_id": "45d4d87676bfc7c5b8537de79cd43e25"}, {"is_disabled": 0, "rental_uris": {"ios": "https://dc.lft.to/lastmile_qr_scan", "android": "https://dc.lft.to/lastmile_qr_scan"}, "lon": -77.02381716666666, "fusion_lon": 0.0, "is_reserved": 0, "fusion_lat": 0.0, "type": "electric_scooter", "lat": 38.909589, "name": "09ae07c1b605df38d6de27f42f490e57", "bike_id": "09ae07c1b605df38d6de27f42f490e57"}, {"is_disabled": 0, "rental_uris": {"ios": "https://dc.lft.to/lastmile_qr_scan", "android": "https://dc.lft.to/lastmile_qr_scan"}, "lon": -77.04361566666667, "fusion_lon": 0.0, "is_reserved": 0, "fusion_lat": 0.0, "type": "electric_scooter", "lat": 38.922496, "name": "8a14b01b712d7cffe3c11acded5b3185", "bike_id": "8a14b01b712d7cffe3c11acded5b3185"}, {"is_disabled": 0, "rental_uris": {"ios": "https://dc.lft.to/lastmile_qr_scan", "android": "https://dc.lft.to/lastmile_qr_scan"}, "lon": -77.018673, "fusion_lon": 0.0, "is_reserved": 0, "fusion_lat": 0.0, "type": "electric_scooter", "lat": 38.951539333333336, "name": "88cd0fd25ce3d3360a967785f106100b", "bike_id": "88cd0fd25ce3d3360a967785f106100b"}, {"is_disabled": 0, "rental_uris": {"ios": "https://dc.lft.to/lastmile_qr_scan", "android": "https://dc.lft.to/lastmile_qr_scan"}, "lon": -77.04643816666666, "fusion_lon": 0.0, "is_reserved": 0, "fusion_lat": 0.0, "type": "electric_scooter", "lat": 38.9009035, "name": "6dd9307dc2f7b3d9d9db6050a7617261", "bike_id": "6dd9307dc2f7b3d9d9db6050a7617261"}, {"is_disabled": 0, "rental_uris": {"ios": "https://dc.lft.to/lastmile_qr_scan", "android": "https://dc.lft.to/lastmile_qr_scan"}, "lon": -77.0005665, "fusion_lon": 0.0, "is_reserved": 0, "fusion_lat": 0.0, "type": "electric_scooter", "lat": 38.90021816666667, "name": "7ca7f0b0989f233596aad751a32feb6a", "bike_id": "7ca7f0b0989f233596aad751a32feb6a"}, {"is_disabled": 0, "rental_uris": {"ios": "https://dc.lft.to/lastmile_qr_scan", "android": "https://dc.lft.to/lastmile_qr_scan"}, "lon": -77.0221465, "fusion_lon": 0.0, "is_reserved": 0, "fusion_lat": 0.0, "type": "electric_scooter", "lat": 38.922051333333336, "name": "0ca82b0846a4a2b995702af2bb379311", "bike_id": "0ca82b0846a4a2b995702af2bb379311"}, {"is_disabled": 0, "rental_uris": {"ios": "https://dc.lft.to/lastmile_qr_scan", "android": "https://dc.lft.to/lastmile_qr_scan"}, "lon": -77.01197183333333, "fusion_lon": 0.0, "is_reserved": 0, "fusion_lat": 0.0, "type": "electric_scooter", "lat": 38.897882, "name": "e4429455b8d8790dbbb620d67394b683", "bike_id": "e4429455b8d8790dbbb620d67394b683"}, {"is_disabled": 0, "rental_uris": {"ios": "https://dc.lft.to/lastmile_qr_scan", "android": "https://dc.lft.to/lastmile_qr_scan"}, "lon": -77.022092, "fusion_lon": 0.0, "is_reserved": 0, "fusion_lat": 0.0, "type": "electric_bike", "lat": 38.96490716666667, "name": "32c6b76dee2abeb8554821f1353c4123", "bike_id": "32c6b76dee2abeb8554821f1353c4123"}, {"is_disabled": 0, "rental_uris": {"ios": "https://dc.lft.to/lastmile_qr_scan", "android": "https://dc.lft.to/lastmile_qr_scan"}, "lon": -77.032027, "fusion_lon": 0.0, "is_reserved": 0, "fusion_lat": 0.0, "type": "electric_scooter", "lat": 38.91779966666667, "name": "63db4a79a06141af10ff98de71208977", "bike_id": "63db4a79a06141af10ff98de71208977"}, {"is_disabled": 0, "rental_uris": {"ios": "https://dc.lft.to/lastmile_qr_scan", "android": "https://dc.lft.to/lastmile_qr_scan"}, "lon": -77.02582083333333, "fusion_lon": 0.0, "is_reserved": 0, "fusion_lat": 0.0, "type": "electric_scooter", "lat": 38.925261, "name": "4070d786549400792bdcf05c87362e17", "bike_id": "4070d786549400792bdcf05c87362e17"}, {"is_disabled": 0, "rental_uris": {"ios": "https://dc.lft.to/lastmile_qr_scan", "android": "https://dc.lft.to/lastmile_qr_scan"}, "lon": -77.04336966666666, "fusion_lon": 0.0, "is_reserved": 0, "fusion_lat": 0.0, "type": "electric_scooter", "lat": 38.90384233333333, "name": "4e0f79ccc6eb2c1ff81778a73e91306b", "bike_id": "4e0f79ccc6eb2c1ff81778a73e91306b"}, {"is_disabled": 0, "rental_uris": {"ios": "https://dc.lft.to/lastmile_qr_scan", "android": "https://dc.lft.to/lastmile_qr_scan"}, "lon": -77.03290516666667, "fusion_lon": 0.0, "is_reserved": 0, "fusion_lat": 0.0, "type": "electric_scooter", "lat": 38.923528833333336, "name": "90313a09e1287beb3d556878cb4cc6fc", "bike_id": "90313a09e1287beb3d556878cb4cc6fc"}, {"is_disabled": 0, "rental_uris": {"ios": "https://dc.lft.to/lastmile_qr_scan", "android": "https://dc.lft.to/lastmile_qr_scan"}, "lon": -77.045164, "fusion_lon": 0.0, "is_reserved": 0, "fusion_lat": 0.0, "type": "electric_scooter", "lat": 38.896120833333335, "name": "3b7ad6f73686c69f7b9be56d71a76cc1", "bike_id": "3b7ad6f73686c69f7b9be56d71a76cc1"}, {"is_disabled": 0, "rental_uris": {"ios": "https://dc.lft.to/lastmile_qr_scan", "android": "https://dc.lft.to/lastmile_qr_scan"}, "lon": -77.0446295, "fusion_lon": 0.0, "is_reserved": 0, "fusion_lat": 0.0, "type": "electric_scooter", "lat": 38.924677, "name": "1226476089d2fb00c48b424e4cb8c11d", "bike_id": "1226476089d2fb00c48b424e4cb8c11d"}, {"is_disabled": 0, "rental_uris": {"ios": "https://dc.lft.to/lastmile_qr_scan", "android": "https://dc.lft.to/lastmile_qr_scan"}, "lon": -77.02367666666666, "fusion_lon": 0.0, "is_reserved": 0, "fusion_lat": 0.0, "type": "electric_scooter", "lat": 38.89221833333333, "name": "97bfcbbf8791febc8d8a969a432ceda1", "bike_id": "97bfcbbf8791febc8d8a969a432ceda1"}, {"is_disabled": 0, "rental_uris": {"ios": "https://dc.lft.to/lastmile_qr_scan", "android": "https://dc.lft.to/lastmile_qr_scan"}, "lon": -77.01977933333333, "fusion_lon": 0.0, "is_reserved": 0, "fusion_lat": 0.0, "type": "electric_scooter", "lat": 38.887236333333334, "name": "e2bacc3fade317a5a5c1f7a5b8f7cc4f", "bike_id": "e2bacc3fade317a5a5c1f7a5b8f7cc4f"}, {"is_disabled": 0, "rental_uris": {"ios": "https://dc.lft.to/lastmile_qr_scan", "android": "https://dc.lft.to/lastmile_qr_scan"}, "lon": -77.03185783333333, "fusion_lon": 0.0, "is_reserved": 0, "fusion_lat": 0.0, "type": "electric_scooter", "lat": 38.90209083333333, "name": "e5cb5c0d34f9edb5f616f2cced1aedff", "bike_id": "e5cb5c0d34f9edb5f616f2cced1aedff"}, {"is_disabled": 0, "rental_uris": {"ios": "https://dc.lft.to/lastmile_qr_scan", "android": "https://dc.lft.to/lastmile_qr_scan"}, "lon": -77.02497716666667, "fusion_lon": 0.0, "is_reserved": 0, "fusion_lat": 0.0, "type": "electric_scooter", "lat": 38.91948516666667, "name": "89b0fd1b4f4b1d859ffdf14f6f1b6911", "bike_id": "89b0fd1b4f4b1d859ffdf14f6f1b6911"}, {"is_disabled": 0, "rental_uris": {"ios": "https://dc.lft.to/lastmile_qr_scan", "android": "https://dc.lft.to/lastmile_qr_scan"}, "lon": -76.95564033333333, "fusion_lon": 0.0, "is_reserved": 0, "fusion_lat": 0.0, "type": "electric_bike", "lat": 38.9850305, "name": "2a03366427ad4fb253d5cfd18833e930", "bike_id": "2a03366427ad4fb253d5cfd18833e930"}, {"is_disabled": 0, "rental_uris": {"ios": "https://dc.lft.to/lastmile_qr_scan", "android": "https://dc.lft.to/lastmile_qr_scan"}, "lon": -77.0110565, "fusion_lon": 0.0, "is_reserved": 0, "fusion_lat": 0.0, "type": "electric_scooter", "lat": 38.8953655, "name": "635af98dbbd29ef704e4b35726c0c82d", "bike_id": "635af98dbbd29ef704e4b35726c0c82d"}, {"is_disabled": 0, "rental_uris": {"ios": "https://dc.lft.to/lastmile_qr_scan", "android": "https://dc.lft.to/lastmile_qr_scan"}, "lon": -77.02546183333334, "fusion_lon": 0.0, "is_reserved": 0, "fusion_lat": 0.0, "type": "electric_scooter", "lat": 38.92057333333333, "name": "92f14173a4ba81ede5d4566270601988", "bike_id": "92f14173a4ba81ede5d4566270601988"}, {"is_disabled": 0, "rental_uris": {"ios": "https://dc.lft.to/lastmile_qr_scan", "android": "https://dc.lft.to/lastmile_qr_scan"}, "lon": -77.01201616666667, "fusion_lon": 0.0, "is_reserved": 0, "fusion_lat": 0.0, "type": "electric_bike", "lat": 38.95072316666667, "name": "a3360b114f1e618e1c3c4c6470a320cd", "bike_id": "a3360b114f1e618e1c3c4c6470a320cd"}, {"is_disabled": 0, "rental_uris": {"ios": "https://dc.lft.to/lastmile_qr_scan", "android": "https://dc.lft.to/lastmile_qr_scan"}, "lon": -77.02981333333334, "fusion_lon": 0.0, "is_reserved": 0, "fusion_lat": 0.0, "type": "electric_scooter", "lat": 38.9431405, "name": "3c5f2378cbde12e1aae56a577bcd9b92", "bike_id": "3c5f2378cbde12e1aae56a577bcd9b92"}, {"is_disabled": 0, "rental_uris": {"ios": "https://dc.lft.to/lastmile_qr_scan", "android": "https://dc.lft.to/lastmile_qr_scan"}, "lon": -77.03457216666666, "fusion_lon": 0.0, "is_reserved": 0, "fusion_lat": 0.0, "type": "electric_scooter", "lat": 38.905053, "name": "42edcb2b9ca4a5cb6e58195344bd66b1", "bike_id": "42edcb2b9ca4a5cb6e58195344bd66b1"}, {"is_disabled": 0, "rental_uris": {"ios": "https://dc.lft.to/lastmile_qr_scan", "android": "https://dc.lft.to/lastmile_qr_scan"}, "lon": -77.06299333333334, "fusion_lon": 0.0, "is_reserved": 0, "fusion_lat": 0.0, "type": "electric_scooter", "lat": 38.9039855, "name": "e8cb888342e3f071d501393eb0ccf8fa", "bike_id": "e8cb888342e3f071d501393eb0ccf8fa"}, {"is_disabled": 0, "rental_uris": {"ios": "https://dc.lft.to/lastmile_qr_scan", "android": "https://dc.lft.to/lastmile_qr_scan"}, "lon": -77.025564, "fusion_lon": 0.0, "is_reserved": 0, "fusion_lat": 0.0, "type": "electric_scooter", "lat": 38.91633816666667, "name": "0f51dd4efa8fd0bc8faff016fb53f75e", "bike_id": "0f51dd4efa8fd0bc8faff016fb53f75e"}, {"is_disabled": 0, "rental_uris": {"ios": "https://dc.lft.to/lastmile_qr_scan", "android": "https://dc.lft.to/lastmile_qr_scan"}, "lon": -77.01545233333333, "fusion_lon": 0.0, "is_reserved": 0, "fusion_lat": 0.0, "type": "electric_scooter", "lat": 38.891636166666665, "name": "8c14a2f41abf92446160ec05b976e422", "bike_id": "8c14a2f41abf92446160ec05b976e422"}, {"is_disabled": 0, "rental_uris": {"ios": "https://dc.lft.to/lastmile_qr_scan", "android": "https://dc.lft.to/lastmile_qr_scan"}, "lon": -77.02101383333333, "fusion_lon": 0.0, "is_reserved": 0, "fusion_lat": 0.0, "type": "electric_scooter", "lat": 38.923642, "name": "4b4aa04b25dac22d8b4c5ae79f91f38f", "bike_id": "4b4aa04b25dac22d8b4c5ae79f91f38f"}, {"is_disabled": 0, "rental_uris": {"ios": "https://dc.lft.to/lastmile_qr_scan", "android": "https://dc.lft.to/lastmile_qr_scan"}, "lon": -77.02807583333333, "fusion_lon": 0.0, "is_reserved": 0, "fusion_lat": 0.0, "type": "electric_scooter", "lat": 38.917538, "name": "266d3a4168b0bf2f521f1459a8287e06", "bike_id": "266d3a4168b0bf2f521f1459a8287e06"}, {"is_disabled": 0, "rental_uris": {"ios": "https://dc.lft.to/lastmile_qr_scan", "android": "https://dc.lft.to/lastmile_qr_scan"}, "lon": -77.00674633333334, "fusion_lon": 0.0, "is_reserved": 0, "fusion_lat": 0.0, "type": "electric_scooter", "lat": 38.899862666666664, "name": "076005f9757567d7a4cd2a50f3a73bfb", "bike_id": "076005f9757567d7a4cd2a50f3a73bfb"}, {"is_disabled": 0, "rental_uris": {"ios": "https://dc.lft.to/lastmile_qr_scan", "android": "https://dc.lft.to/lastmile_qr_scan"}, "lon": -77.03290566666666, "fusion_lon": 0.0, "is_reserved": 0, "fusion_lat": 0.0, "type": "electric_scooter", "lat": 38.914197, "name": "49fffa5626f63eadb96bc71010a54011", "bike_id": "49fffa5626f63eadb96bc71010a54011"}, {"is_disabled": 0, "rental_uris": {"ios": "https://dc.lft.to/lastmile_qr_scan", "android": "https://dc.lft.to/lastmile_qr_scan"}, "lon": -76.96712966666666, "fusion_lon": 0.0, "is_reserved": 0, "fusion_lat": 0.0, "type": "electric_scooter", "lat": 38.8597225, "name": "1ba50efafaea7fa070a449f32ae90176", "bike_id": "1ba50efafaea7fa070a449f32ae90176"}, {"is_disabled": 0, "rental_uris": {"ios": "https://dc.lft.to/lastmile_qr_scan", "android": "https://dc.lft.to/lastmile_qr_scan"}, "lon": -77.02515216666667, "fusion_lon": 0.0, "is_reserved": 0, "fusion_lat": 0.0, "type": "electric_scooter", "lat": 38.9208305, "name": "39766850d992673f4b5aa6ef7440d210", "bike_id": "39766850d992673f4b5aa6ef7440d210"}, {"is_disabled": 0, "rental_uris": {"ios": "https://dc.lft.to/lastmile_qr_scan", "android": "https://dc.lft.to/lastmile_qr_scan"}, "lon": -77.0309065, "fusion_lon": 0.0, "is_reserved": 0, "fusion_lat": 0.0, "type": "electric_scooter", "lat": 38.8954, "name": "2e3fa24523d51885578af6c9cb8ab47e", "bike_id": "2e3fa24523d51885578af6c9cb8ab47e"}, {"is_disabled": 0, "rental_uris": {"ios": "https://dc.lft.to/lastmile_qr_scan", "android": "https://dc.lft.to/lastmile_qr_scan"}, "lon": -77.0194655, "fusion_lon": 0.0, "is_reserved": 0, "fusion_lat": 0.0, "type": "electric_scooter", "lat": 38.924197, "name": "470b988d50ad68de64640e0f4fd4d4c0", "bike_id": "470b988d50ad68de64640e0f4fd4d4c0"}, {"is_disabled": 0, "rental_uris": {"ios": "https://dc.lft.to/lastmile_qr_scan", "android": "https://dc.lft.to/lastmile_qr_scan"}, "lon": -77.05507333333334, "fusion_lon": 0.0, "is_reserved": 0, "fusion_lat": 0.0, "type": "electric_scooter", "lat": 38.92839166666667, "name": "f3ac7d9f99c3f6ae25f2c9eb76891a19", "bike_id": "f3ac7d9f99c3f6ae25f2c9eb76891a19"}, {"is_disabled": 0, "rental_uris": {"ios": "https://dc.lft.to/lastmile_qr_scan", "android": "https://dc.lft.to/lastmile_qr_scan"}, "lon": -77.03303283333334, "fusion_lon": 0.0, "is_reserved": 0, "fusion_lat": 0.0, "type": "electric_scooter", "lat": 38.93786, "name": "fe2e75771448165d0867c21666c7102c", "bike_id": "fe2e75771448165d0867c21666c7102c"}, {"is_disabled": 0, "rental_uris": {"ios": "https://dc.lft.to/lastmile_qr_scan", "android": "https://dc.lft.to/lastmile_qr_scan"}, "lon": -77.00232, "fusion_lon": 0.0, "is_reserved": 0, "fusion_lat": 0.0, "type": "electric_bike", "lat": 38.9522205, "name": "41551a5cd632001155e27c2dc9b5edfe", "bike_id": "41551a5cd632001155e27c2dc9b5edfe"}, {"is_disabled": 0, "rental_uris": {"ios": "https://dc.lft.to/lastmile_qr_scan", "android": "https://dc.lft.to/lastmile_qr_scan"}, "lon": -77.01842833333333, "fusion_lon": 0.0, "is_reserved": 0, "fusion_lat": 0.0, "type": "electric_scooter", "lat": 38.903779166666666, "name": "fdd8dbea80c5df49ea54745d27b13cd0", "bike_id": "fdd8dbea80c5df49ea54745d27b13cd0"}, {"is_disabled": 0, "rental_uris": {"ios": "https://dc.lft.to/lastmile_qr_scan", "android": "https://dc.lft.to/lastmile_qr_scan"}, "lon": -77.02575966666667, "fusion_lon": 0.0, "is_reserved": 0, "fusion_lat": 0.0, "type": "electric_scooter", "lat": 38.91260583333333, "name": "aa8d2848dc7cedd9d4dafe3f0ad768c0", "bike_id": "aa8d2848dc7cedd9d4dafe3f0ad768c0"}, {"is_disabled": 0, "rental_uris": {"ios": "https://dc.lft.to/lastmile_qr_scan", "android": "https://dc.lft.to/lastmile_qr_scan"}, "lon": -77.07973716666666, "fusion_lon": 0.0, "is_reserved": 0, "fusion_lat": 0.0, "type": "electric_scooter", "lat": 38.919173, "name": "4c9d0af4f8f933f848efc40d602a02ec", "bike_id": "4c9d0af4f8f933f848efc40d602a02ec"}, {"is_disabled": 0, "rental_uris": {"ios": "https://dc.lft.to/lastmile_qr_scan", "android": "https://dc.lft.to/lastmile_qr_scan"}, "lon": -77.02999316666667, "fusion_lon": 0.0, "is_reserved": 0, "fusion_lat": 0.0, "type": "electric_scooter", "lat": 38.90269283333333, "name": "e5ac0f2e8c29ed8545b32c89846fdc0f", "bike_id": "e5ac0f2e8c29ed8545b32c89846fdc0f"}, {"is_disabled": 0, "rental_uris": {"ios": "https://dc.lft.to/lastmile_qr_scan", "android": "https://dc.lft.to/lastmile_qr_scan"}, "lon": -77.027672, "fusion_lon": 0.0, "is_reserved": 0, "fusion_lat": 0.0, "type": "electric_scooter", "lat": 38.934156333333334, "name": "cd067b9f54f9da386df1c3ec445f24d7", "bike_id": "cd067b9f54f9da386df1c3ec445f24d7"}, {"is_disabled": 0, "rental_uris": {"ios": "https://dc.lft.to/lastmile_qr_scan", "android": "https://dc.lft.to/lastmile_qr_scan"}, "lon": -77.038115, "fusion_lon": 0.0, "is_reserved": 0, "fusion_lat": 0.0, "type": "electric_scooter", "lat": 38.931009833333334, "name": "0a435e41588394dc083f77ca9b5015ac", "bike_id": "0a435e41588394dc083f77ca9b5015ac"}, {"is_disabled": 0, "rental_uris": {"ios": "https://dc.lft.to/lastmile_qr_scan", "android": "https://dc.lft.to/lastmile_qr_scan"}, "lon": -77.019887, "fusion_lon": 0.0, "is_reserved": 0, "fusion_lat": 0.0, "type": "electric_scooter", "lat": 38.87614466666667, "name": "ebbf3bc215ece6a0eff120d9198370b7", "bike_id": "ebbf3bc215ece6a0eff120d9198370b7"}, {"is_disabled": 0, "rental_uris": {"ios": "https://dc.lft.to/lastmile_qr_scan", "android": "https://dc.lft.to/lastmile_qr_scan"}, "lon": -77.00165616666666, "fusion_lon": 0.0, "is_reserved": 0, "fusion_lat": 0.0, "type": "electric_scooter", "lat": 38.919139, "name": "fb2136d5a4f1112feef8cec6c670169d", "bike_id": "fb2136d5a4f1112feef8cec6c670169d"}, {"is_disabled": 0, "rental_uris": {"ios": "https://dc.lft.to/lastmile_qr_scan", "android": "https://dc.lft.to/lastmile_qr_scan"}, "lon": -77.03762333333333, "fusion_lon": 0.0, "is_reserved": 0, "fusion_lat": 0.0, "type": "electric_scooter", "lat": 38.916916, "name": "a1f65414df82353bcfe539a5e9560b46", "bike_id": "a1f65414df82353bcfe539a5e9560b46"}, {"is_disabled": 0, "rental_uris": {"ios": "https://dc.lft.to/lastmile_qr_scan", "android": "https://dc.lft.to/lastmile_qr_scan"}, "lon": -77.029728, "fusion_lon": 0.0, "is_reserved": 0, "fusion_lat": 0.0, "type": "electric_scooter", "lat": 38.907255166666666, "name": "08f0bda8a778b85a97d6651f3e57305d", "bike_id": "08f0bda8a778b85a97d6651f3e57305d"}, {"is_disabled": 0, "rental_uris": {"ios": "https://dc.lft.to/lastmile_qr_scan", "android": "https://dc.lft.to/lastmile_qr_scan"}, "lon": -77.03205933333334, "fusion_lon": 0.0, "is_reserved": 0, "fusion_lat": 0.0, "type": "electric_scooter", "lat": 38.897200833333336, "name": "d766bd372989886cc2225274b275c2c8", "bike_id": "d766bd372989886cc2225274b275c2c8"}, {"is_disabled": 0, "rental_uris": {"ios": "https://dc.lft.to/lastmile_qr_scan", "android": "https://dc.lft.to/lastmile_qr_scan"}, "lon": -77.0344945, "fusion_lon": 0.0, "is_reserved": 0, "fusion_lat": 0.0, "type": "electric_scooter", "lat": 38.908152333333334, "name": "6c97c2d44257621348741dafb6778879", "bike_id": "6c97c2d44257621348741dafb6778879"}, {"is_disabled": 0, "rental_uris": {"ios": "https://dc.lft.to/lastmile_qr_scan", "android": "https://dc.lft.to/lastmile_qr_scan"}, "lon": -77.0443955, "fusion_lon": 0.0, "is_reserved": 0, "fusion_lat": 0.0, "type": "electric_scooter", "lat": 38.92233933333333, "name": "1bfaf2332cdf619cae69fe2e06c6c079", "bike_id": "1bfaf2332cdf619cae69fe2e06c6c079"}, {"is_disabled": 0, "rental_uris": {"ios": "https://dc.lft.to/lastmile_qr_scan", "android": "https://dc.lft.to/lastmile_qr_scan"}, "lon": -77.01089766666666, "fusion_lon": 0.0, "is_reserved": 0, "fusion_lat": 0.0, "type": "electric_scooter", "lat": 38.91627283333333, "name": "8b468ba268206078e90f9e3c38986a98", "bike_id": "8b468ba268206078e90f9e3c38986a98"}, {"is_disabled": 0, "rental_uris": {"ios": "https://dc.lft.to/lastmile_qr_scan", "android": "https://dc.lft.to/lastmile_qr_scan"},