{"data": {"bikes": [{"bike_id": "f4a646b1ac0cf20dbd4199f14c66ead6", "lon": -76.99751066666667, "lat": 38.83786216666667, "fusion_lon": 0.0, "rental_uris": {"ios": "https://dc.lft.to/lastmile_qr_scan", "android": "https://dc.lft.to/lastmile_qr_scan"}, "is_disabled": 0, "is_reserved": 0, "name": "f4a646b1ac0cf20dbd4199f14c66ead6", "type": "electric_bike", "fusion_lat": 0.0}, {"bike_id": "e84737fbad45bfd93faed7da292ccd82", "lon": -76.93186283333333, "lat": 38.898771833333335, "fusion_lon": 0.0, "rental_uris": {"ios": "https://dc.lft.to/lastmile_qr_scan", "android": "https://dc.lft.to/lastmile_qr_scan"}, "is_disabled": 0, "is_reserved": 0, "name": "e84737fbad45bfd93faed7da292ccd82", "type": "electric_scooter", "fusion_lat": 0.0}, {"bike_id": "3315e011f747127548f8a1e4d7263088", "lon": -77.04173316666666, "lat": 38.903808833333336, "fusion_lon": 0.0, "rental_uris": {"ios": "https://dc.lft.to/lastmile_qr_scan", "android": "https://dc.lft.to/lastmile_qr_scan"}, "is_disabled": 0, "is_reserved": 0, "name": "3315e011f747127548f8a1e4d7263088", "type": "electric_scooter", "fusion_lat": 0.0}, {"bike_id": "1c91ddd14f8be8ddecbe6dd13e105b74", "lon": -77.00703416666667, "lat": 38.879428, "fusion_lon": 0.0, "rental_uris": {"ios": "https://dc.lft.to/lastmile_qr_scan", "android": "https://dc.lft.to/lastmile_qr_scan"}, "is_disabled": 0, "is_reserved": 0, "name": "1c91ddd14f8be8ddecbe6dd13e105b74", "type": "electric_scooter", "fusion_lat": 0.0}, {"bike_id": "bd4e1530e0fdafaa6eea3d8cddcd55b0", "lon": -76.98610483333333, "lat": 38.86690183333333, "fusion_lon": 0.0, "rental_uris": {"ios": "https://dc.lft.to/lastmile_qr_scan", "android": "https://dc.lft.to/lastmile_qr_scan"}, "is_disabled": 0, "is_reserved": 0, "name": "bd4e1530e0fdafaa6eea3d8cddcd55b0", "type": "electric_scooter", "fusion_lat": 0.0}, {"bike_id": "aa07e9d1d3b4c2a2530108b8c54c90ac", "lon": -76.98497916666666, "lat": 38.91320133333333, "fusion_lon": 0.0, "rental_uris": {"ios": "https://dc.lft.to/lastmile_qr_scan", "android": "https://dc.lft.to/lastmile_qr_scan"}, "is_disabled": 0, "is_reserved": 0, "name": "aa07e9d1d3b4c2a2530108b8c54c90ac", "type": "electric_scooter", "fusion_lat": 0.0}, {"bike_id": "f06934fa9b1cf2154e08fd7a7671474f", "lon": -77.03214433333333, "lat": 38.897641166666666, "fusion_lon": 0.0, "rental_uris": {"ios": "https://dc.lft.to/lastmile_qr_scan", "android": "https://dc.lft.to/lastmile_qr_scan"}, "is_disabled": 0, "is_reserved": 0, "name": "f06934fa9b1cf2154e08fd7a7671474f", "type": "electric_scooter", "fusion_lat": 0.0}, {"bike_id": "67f38632834861968148c87c0ed3afdc", "lon": -77.02706266666667, "lat": 38.93153383333333, "fusion_lon": 0.0, "rental_uris": {"ios": "https://dc.lft.to/lastmile_qr_scan", "android": "https://dc.lft.to/lastmile_qr_scan"}, "is_disabled": 0, "is_reserved": 0, "name": "67f38632834861968148c87c0ed3afdc", "type": "electric_bike", "fusion_lat": 0.0}, {"bike_id": "95743044e6c919014b0f4641d3cc49f1", "lon": -77.0506, "lat": 38.924218833333335, "fusion_lon": 0.0, "rental_uris": {"ios": "https://dc.lft.to/lastmile_qr_scan", "android": "https://dc.lft.to/lastmile_qr_scan"}, "is_disabled": 0, "is_reserved": 0, "name": "95743044e6c919014b0f4641d3cc49f1", "type": "electric_scooter", "fusion_lat": 0.0}, {"bike_id": "892018052c72dab2fade72b5fc4e0461", "lon": -76.97212233333333, "lat": 38.983647500000004, "fusion_lon": 0.0, "rental_uris": {"ios": "https://dc.lft.to/lastmile_qr_scan", "android": "https://dc.lft.to/lastmile_qr_scan"}, "is_disabled": 0, "is_reserved": 0, "name": "892018052c72dab2fade72b5fc4e0461", "type": "electric_bike", "fusion_lat": 0.0}, {"bike_id": "11690c73cb6a51ddc5004bbbae79d7c0", "lon": -77.03907033333333, "lat": 38.9257675, "fusion_lon": 0.0, "rental_uris": {"ios": "https://dc.lft.to/lastmile_qr_scan", "android": "https://dc.lft.to/lastmile_qr_scan"}, "is_disabled": 0, "is_reserved": 0, "name": "11690c73cb6a51ddc5004bbbae79d7c0", "type": "electric_scooter", "fusion_lat": 0.0}, {"bike_id": "b0e3674bf4e681327f324da4285f2724", "lon": -76.96910733333333, "lat": 38.871606666666665, "fusion_lon": 0.0, "rental_uris": {"ios": "https://dc.lft.to/lastmile_qr_scan", "android": "https://dc.lft.to/lastmile_qr_scan"}, "is_disabled": 0, "is_reserved": 0, "name": "b0e3674bf4e681327f324da4285f2724", "type": "electric_scooter", "fusion_lat": 0.0}, {"bike_id": "facb9068a4b887752a0774d6d2fd8723", "lon": -76.99493566666666, "lat": 38.8624575, "fusion_lon": 0.0, "rental_uris": {"ios": "https://dc.lft.to/lastmile_qr_scan", "android": "https://dc.lft.to/lastmile_qr_scan"}, "is_disabled": 0, "is_reserved": 0, "name": "facb9068a4b887752a0774d6d2fd8723", "type": "electric_scooter", "fusion_lat": 0.0}, {"bike_id": "c8008a9cb3717995e271a35a585ffe24", "lon": -77.034507, "lat": 38.908757333333334, "fusion_lon": 0.0, "rental_uris": {"ios": "https://dc.lft.to/lastmile_qr_scan", "android": "https://dc.lft.to/lastmile_qr_scan"}, "is_disabled": 0, "is_reserved": 0, "name": "c8008a9cb3717995e271a35a585ffe24", "type": "electric_scooter", "fusion_lat": 0.0}, {"bike_id": "40484ed987d9b7410d81cc8ce0a7332e", "lon": -77.02960383333334, "lat": 38.884372666666664, "fusion_lon": 0.0, "rental_uris": {"ios": "https://dc.lft.to/lastmile_qr_scan", "android": "https://dc.lft.to/lastmile_qr_scan"}, "is_disabled": 0, "is_reserved": 0, "name": "40484ed987d9b7410d81cc8ce0a7332e", "type": "electric_scooter", "fusion_lat": 0.0}, {"bike_id": "0b323432800d75abc7709aedb878999a", "lon": -77.04533233333333, "lat": 38.90060416666667, "fusion_lon": 0.0, "rental_uris": {"ios": "https://dc.lft.to/lastmile_qr_scan", "android": "https://dc.lft.to/lastmile_qr_scan"}, "is_disabled": 0, "is_reserved": 0, "name": "0b323432800d75abc7709aedb878999a", "type": "electric_scooter", "fusion_lat": 0.0}, {"bike_id": "db02ce37074b44e95ba7b22f695bc250", "lon": -76.9734725, "lat": 38.89715433333333, "fusion_lon": 0.0, "rental_uris": {"ios": "https://dc.lft.to/lastmile_qr_scan", "android": "https://dc.lft.to/lastmile_qr_scan"}, "is_disabled": 0, "is_reserved": 0, "name": "db02ce37074b44e95ba7b22f695bc250", "type": "electric_scooter", "fusion_lat": 0.0}, {"bike_id": "c6a1622c458fd207da727b039fd50e55", "lon": -77.05082116666667, "lat": 38.923521666666666, "fusion_lon": 0.0, "rental_uris": {"ios": "https://dc.lft.to/lastmile_qr_scan", "android": "https://dc.lft.to/lastmile_qr_scan"}, "is_disabled": 0, "is_reserved": 0, "name": "c6a1622c458fd207da727b039fd50e55", "type": "electric_scooter", "fusion_lat": 0.0}, {"bike_id": "8b1ccf8e917f06008ed99008c07f4593", "lon": -77.02062066666667, "lat": 38.95744883333333, "fusion_lon": 0.0, "rental_uris": {"ios": "https://dc.lft.to/lastmile_qr_scan", "android": "https://dc.lft.to/lastmile_qr_scan"}, "is_disabled": 0, "is_reserved": 0, "name": "8b1ccf8e917f06008ed99008c07f4593", "type": "electric_scooter", "fusion_lat": 0.0}, {"bike_id": "c9e62f502352c87d47268812d76321ca", "lon": -77.0271065, "lat": 38.91818983333334, "fusion_lon": 0.0, "rental_uris": {"ios": "https://dc.lft.to/lastmile_qr_scan", "android": "https://dc.lft.to/lastmile_qr_scan"}, "is_disabled": 0, "is_reserved": 0, "name": "c9e62f502352c87d47268812d76321ca", "type": "electric_scooter", "fusion_lat": 0.0}, {"bike_id": "643ceb56ce296d0c81b72339bc748d7a", "lon": -76.9992605, "lat": 39.039918666666665, "fusion_lon": 0.0, "rental_uris": {"ios": "https://dc.lft.to/lastmile_qr_scan", "android": "https://dc.lft.to/lastmile_qr_scan"}, "is_disabled": 0, "is_reserved": 0, "name": "643ceb56ce296d0c81b72339bc748d7a", "type": "electric_bike", "fusion_lat": 0.0}, {"bike_id": "a714369c2ee02ca69a473e1b9c3910c3", "lon": -77.024964, "lat": 38.8991635, "fusion_lon": 0.0, "rental_uris": {"ios": "https://dc.lft.to/lastmile_qr_scan", "android": "https://dc.lft.to/lastmile_qr_scan"}, "is_disabled": 0, "is_reserved": 0, "name": "a714369c2ee02ca69a473e1b9c3910c3", "type": "electric_scooter", "fusion_lat": 0.0}, {"bike_id": "ac7728aef17d2317260d9b5be594c361", "lon": -77.04157716666667, "lat": 38.923493, "fusion_lon": 0.0, "rental_uris": {"ios": "https://dc.lft.to/lastmile_qr_scan", "android": "https://dc.lft.to/lastmile_qr_scan"}, "is_disabled": 0, "is_reserved": 0, "name": "ac7728aef17d2317260d9b5be594c361", "type": "electric_scooter", "fusion_lat": 0.0}, {"bike_id": "1da5116efda423dc500fce850343de50", "lon": -77.0076085, "lat": 38.89597916666666, "fusion_lon": 0.0, "rental_uris": {"ios": "https://dc.lft.to/lastmile_qr_scan", "android": "https://dc.lft.to/lastmile_qr_scan"}, "is_disabled": 0, "is_reserved": 0, "name": "1da5116efda423dc500fce850343de50", "type": "electric_scooter", "fusion_lat": 0.0}, {"bike_id": "4da7bb85f3bc77a960dd84fc2cc6f54b", "lon": -77.02000766666667, "lat": 38.966228666666666, "fusion_lon": 0.0, "rental_uris": {"ios": "https://dc.lft.to/lastmile_qr_scan", "android": "https://dc.lft.to/lastmile_qr_scan"}, "is_disabled": 0, "is_reserved": 0, "name": "4da7bb85f3bc77a960dd84fc2cc6f54b", "type": "electric_scooter", "fusion_lat": 0.0}, {"bike_id": "94a07440b12bb93ffc1f1c1b88377191", "lon": -77.043735, "lat": 38.892223, "fusion_lon": 0.0, "rental_uris": {"ios": "https://dc.lft.to/lastmile_qr_scan", "android": "https://dc.lft.to/lastmile_qr_scan"}, "is_disabled": 0, "is_reserved": 0, "name": "94a07440b12bb93ffc1f1c1b88377191", "type": "electric_scooter", "fusion_lat": 0.0}, {"bike_id": "810163f29c41a8e1d0d4760997b88e75", "lon": -77.05032866666667, "lat": 38.896738666666664, "fusion_lon": 0.0, "rental_uris": {"ios": "https://dc.lft.to/lastmile_qr_scan", "android": "https://dc.lft.to/lastmile_qr_scan"}, "is_disabled": 0, "is_reserved": 0, "name": "810163f29c41a8e1d0d4760997b88e75", "type": "electric_scooter", "fusion_lat": 0.0}, {"bike_id": "98db4ca504bacd3da9c2d8b5e202fb55", "lon": -77.00135483333334, "lat": 38.9051155, "fusion_lon": 0.0, "rental_uris": {"ios": "https://dc.lft.to/lastmile_qr_scan", "android": "https://dc.lft.to/lastmile_qr_scan"}, "is_disabled": 0, "is_reserved": 0, "name": "98db4ca504bacd3da9c2d8b5e202fb55", "type": "electric_scooter", "fusion_lat": 0.0}, {"bike_id": "7c84b6a41bd50d25957939fc478b4c75", "lon": -77.02991466666667, "lat": 38.900785166666665, "fusion_lon": 0.0, "rental_uris": {"ios": "https://dc.lft.to/lastmile_qr_scan", "android": "https://dc.lft.to/lastmile_qr_scan"}, "is_disabled": 0, "is_reserved": 0, "name": "7c84b6a41bd50d25957939fc478b4c75", "type": "electric_scooter", "fusion_lat": 0.0}, {"bike_id": "15ab4e98cad2d1c6478ccff2a3c4a66a", "lon": -77.02708483333333, "lat": 38.9084835, "fusion_lon": 0.0, "rental_uris": {"ios": "https://dc.lft.to/lastmile_qr_scan", "android": "https://dc.lft.to/lastmile_qr_scan"}, "is_disabled": 0, "is_reserved": 0, "name": "15ab4e98cad2d1c6478ccff2a3c4a66a", "type": "electric_scooter", "fusion_lat": 0.0}, {"bike_id": "49bb8890cf74e0dd1a821f2e45b01e53", "lon": -77.0158905, "lat": 38.9087705, "fusion_lon": 0.0, "rental_uris": {"ios": "https://dc.lft.to/lastmile_qr_scan", "android": "https://dc.lft.to/lastmile_qr_scan"}, "is_disabled": 0, "is_reserved": 0, "name": "49bb8890cf74e0dd1a821f2e45b01e53", "type": "electric_scooter", "fusion_lat": 0.0}, {"bike_id": "719011a52b41c3881a7ad7e1d941e4eb", "lon": -77.0410065, "lat": 38.905471166666665, "fusion_lon": 0.0, "rental_uris": {"ios": "https://dc.lft.to/lastmile_qr_scan", "android": "https://dc.lft.to/lastmile_qr_scan"}, "is_disabled": 0, "is_reserved": 0, "name": "719011a52b41c3881a7ad7e1d941e4eb", "type": "electric_scooter", "fusion_lat": 0.0}, {"bike_id": "076772f1601fcc80f2f513182c0a93d8", "lon": -76.99827133333334, "lat": 38.87680533333333, "fusion_lon": 0.0, "rental_uris": {"ios": "https://dc.lft.to/lastmile_qr_scan", "android": "https://dc.lft.to/lastmile_qr_scan"}, "is_disabled": 0, "is_reserved": 0, "name": "076772f1601fcc80f2f513182c0a93d8", "type": "electric_scooter", "fusion_lat": 0.0}, {"bike_id": "f4def3584bd0132315a7d8d19ee1860c", "lon": -77.0403035, "lat": 38.91793783333333, "fusion_lon": 0.0, "rental_uris": {"ios": "https://dc.lft.to/lastmile_qr_scan", "android": "https://dc.lft.to/lastmile_qr_scan"}, "is_disabled": 0, "is_reserved": 0, "name": "f4def3584bd0132315a7d8d19ee1860c", "type": "electric_scooter", "fusion_lat": 0.0}, {"bike_id": "26ce2fd912159330a7c00be18073a341", "lon": -76.9816465, "lat": 38.898579166666664, "fusion_lon": 0.0, "rental_uris": {"ios": "https://dc.lft.to/lastmile_qr_scan", "android": "https://dc.lft.to/lastmile_qr_scan"}, "is_disabled": 0, "is_reserved": 0, "name": "26ce2fd912159330a7c00be18073a341", "type": "electric_scooter", "fusion_lat": 0.0}, {"bike_id": "b51f16bee92dd9f792023ea196be29f8", "lon": -77.036719, "lat": 38.922366833333335, "fusion_lon": 0.0, "rental_uris": {"ios": "https://dc.lft.to/lastmile_qr_scan", "android": "https://dc.lft.to/lastmile_qr_scan"}, "is_disabled": 0, "is_reserved": 0, "name": "b51f16bee92dd9f792023ea196be29f8", "type": "electric_scooter", "fusion_lat": 0.0}, {"bike_id": "732cb74fd857d8277754410de210b23f", "lon": -77.0480395, "lat": 38.892238, "fusion_lon": 0.0, "rental_uris": {"ios": "https://dc.lft.to/lastmile_qr_scan", "android": "https://dc.lft.to/lastmile_qr_scan"}, "is_disabled": 0, "is_reserved": 0, "name": "732cb74fd857d8277754410de210b23f", "type": "electric_scooter", "fusion_lat": 0.0}, {"bike_id": "c627e44781e3213025c5da64d2391da7", "lon": -76.95577783333333, "lat": 38.886166333333335, "fusion_lon": 0.0, "rental_uris": {"ios": "https://dc.lft.to/lastmile_qr_scan", "android": "https://dc.lft.to/lastmile_qr_scan"}, "is_disabled": 0, "is_reserved": 0, "name": "c627e44781e3213025c5da64d2391da7", "type": "electric_scooter", "fusion_lat": 0.0}, {"bike_id": "98aa7846b002d54b06d545a3aa6fd2b2", "lon": -76.99044816666667, "lat": 38.863892166666666, "fusion_lon": 0.0, "rental_uris": {"ios": "https://dc.lft.to/lastmile_qr_scan", "android": "https://dc.lft.to/lastmile_qr_scan"}, "is_disabled": 0, "is_reserved": 0, "name": "98aa7846b002d54b06d545a3aa6fd2b2", "type": "electric_scooter", "fusion_lat": 0.0}, {"bike_id": "9ea03023d99a269aa7450dbf74ff0a58", "lon": -77.06172833333333, "lat": 38.807089500000004, "fusion_lon": 0.0, "rental_uris": {"ios": "https://dc.lft.to/lastmile_qr_scan", "android": "https://dc.lft.to/lastmile_qr_scan"}, "is_disabled": 0, "is_reserved": 0, "name": "9ea03023d99a269aa7450dbf74ff0a58", "type": "electric_bike", "fusion_lat": 0.0}, {"bike_id": "2d42fd57b1282c10029416db8e163b7a", "lon": -77.02828566666666, "lat": 38.88730733333333, "fusion_lon": 0.0, "rental_uris": {"ios": "https://dc.lft.to/lastmile_qr_scan", "android": "https://dc.lft.to/lastmile_qr_scan"}, "is_disabled": 0, "is_reserved": 0, "name": "2d42fd57b1282c10029416db8e163b7a", "type": "electric_scooter", "fusion_lat": 0.0}, {"bike_id": "0fea8bbfc612fdaf4c6e425cafe3c013", "lon": -77.04664483333333, "lat": 38.89751533333333, "fusion_lon": 0.0, "rental_uris": {"ios": "https://dc.lft.to/lastmile_qr_scan", "android": "https://dc.lft.to/lastmile_qr_scan"}, "is_disabled": 0, "is_reserved": 0, "name": "0fea8bbfc612fdaf4c6e425cafe3c013", "type": "electric_scooter", "fusion_lat": 0.0}, {"bike_id": "4eb2d34dc05e22cd5ccc2a59f4825c41", "lon": -77.0317115, "lat": 38.88473883333333, "fusion_lon": 0.0, "rental_uris": {"ios": "https://dc.lft.to/lastmile_qr_scan", "android": "https://dc.lft.to/lastmile_qr_scan"}, "is_disabled": 0, "is_reserved": 0, "name": "4eb2d34dc05e22cd5ccc2a59f4825c41", "type": "electric_scooter", "fusion_lat": 0.0}, {"bike_id": "0051656b3d8a88e1f1d695dfa3b6c454", "lon": -77.01312433333334, "lat": 38.900796666666665, "fusion_lon": 0.0, "rental_uris": {"ios": "https://dc.lft.to/lastmile_qr_scan", "android": "https://dc.lft.to/lastmile_qr_scan"}, "is_disabled": 0, "is_reserved": 0, "name": "0051656b3d8a88e1f1d695dfa3b6c454", "type": "electric_scooter", "fusion_lat": 0.0}, {"bike_id": "a719a50465a862c4e7e0c2319d5e5c17", "lon": -76.97545133333334, "lat": 38.90323816666667, "fusion_lon": 0.0, "rental_uris": {"ios": "https://dc.lft.to/lastmile_qr_scan", "android": "https://dc.lft.to/lastmile_qr_scan"}, "is_disabled": 0, "is_reserved": 0, "name": "a719a50465a862c4e7e0c2319d5e5c17", "type": "electric_scooter", "fusion_lat": 0.0}, {"bike_id": "e9e854c9ae5beb8098f5b1047f5a8625", "lon": -77.04342783333334, "lat": 38.901404, "fusion_lon": 0.0, "rental_uris": {"ios": "https://dc.lft.to/lastmile_qr_scan", "android": "https://dc.lft.to/lastmile_qr_scan"}, "is_disabled": 0, "is_reserved": 0, "name": "e9e854c9ae5beb8098f5b1047f5a8625", "type": "electric_scooter", "fusion_lat": 0.0}, {"bike_id": "1692a6ad32b11fd6f737875c936cab6b", "lon": -76.98591316666666, "lat": 38.86697266666667, "fusion_lon": 0.0, "rental_uris": {"ios": "https://dc.lft.to/lastmile_qr_scan", "android": "https://dc.lft.to/lastmile_qr_scan"}, "is_disabled": 0, "is_reserved": 0, "name": "1692a6ad32b11fd6f737875c936cab6b", "type": "electric_scooter", "fusion_lat": 0.0}, {"bike_id": "67a578e69018a611b0bcb44a935f9f14", "lon": -77.01424633333333, "lat": 38.92838, "fusion_lon": 0.0, "rental_uris": {"ios": "https://dc.lft.to/lastmile_qr_scan", "android": "https://dc.lft.to/lastmile_qr_scan"}, "is_disabled": 0, "is_reserved": 0, "name": "67a578e69018a611b0bcb44a935f9f14", "type": "electric_scooter", "fusion_lat": 0.0}, {"bike_id": "9cc044dd08515be6b28fd48d8c5bc6f0", "lon": -77.0321195, "lat": 38.922256, "fusion_lon": 0.0, "rental_uris": {"ios": "https://dc.lft.to/lastmile_qr_scan", "android": "https://dc.lft.to/lastmile_qr_scan"}, "is_disabled": 0, "is_reserved": 0, "name": "9cc044dd08515be6b28fd48d8c5bc6f0", "type": "electric_scooter", "fusion_lat": 0.0}, {"bike_id": "d0dc49b9211897304e0e563cad862a8d", "lon": -77.050806, "lat": 38.9234565, "fusion_lon": 0.0, "rental_uris": {"ios": "https://dc.lft.to/lastmile_qr_scan", "android": "https://dc.lft.to/lastmile_qr_scan"}, "is_disabled": 0, "is_reserved": 0, "name": "d0dc49b9211897304e0e563cad862a8d", "type": "electric_scooter", "fusion_lat": 0.0}, {"bike_id": "fef31178cd5934ac9e0368ad4f3acca7", "lon": -77.00609, "lat": 38.87180683333333, "fusion_lon": 0.0, "rental_uris": {"ios": "https://dc.lft.to/lastmile_qr_scan", "android": "https://dc.lft.to/lastmile_qr_scan"}, "is_disabled": 0, "is_reserved": 0, "name": "fef31178cd5934ac9e0368ad4f3acca7", "type": "electric_scooter", "fusion_lat": 0.0}, {"bike_id": "1e25dfc5ef6f5b05043576b0ef577a5f", "lon": -77.02816233333333, "lat": 38.917515, "fusion_lon": 0.0, "rental_uris": {"ios": "https://dc.lft.to/lastmile_qr_scan", "android": "https://dc.lft.to/lastmile_qr_scan"}, "is_disabled": 0, "is_reserved": 0, "name": "1e25dfc5ef6f5b05043576b0ef577a5f", "type": "electric_scooter", "fusion_lat": 0.0}, {"bike_id": "dac5890da853664f154ce27dec5c12d1", "lon": -76.999279, "lat": 38.84312966666667, "fusion_lon": 0.0, "rental_uris": {"ios": "https://dc.lft.to/lastmile_qr_scan", "android": "https://dc.lft.to/lastmile_qr_scan"}, "is_disabled": 0, "is_reserved": 0, "name": "dac5890da853664f154ce27dec5c12d1", "type": "electric_scooter", "fusion_lat": 0.0}, {"bike_id": "dc99c0da9621aa2e79a5057254ad1473", "lon": -77.03186483333333, "lat": 38.913488, "fusion_lon": 0.0, "rental_uris": {"ios": "https://dc.lft.to/lastmile_qr_scan", "android": "https://dc.lft.to/lastmile_qr_scan"}, "is_disabled": 0, "is_reserved": 0, "name": "dc99c0da9621aa2e79a5057254ad1473", "type": "electric_scooter", "fusion_lat": 0.0}, {"bike_id": "7fc4eb66fd9f34ad0625c54a1b644c02", "lon": -76.99697866666666, "lat": 38.884253, "fusion_lon": 0.0, "rental_uris": {"ios": "https://dc.lft.to/lastmile_qr_scan", "android": "https://dc.lft.to/lastmile_qr_scan"}, "is_disabled": 0, "is_reserved": 0, "name": "7fc4eb66fd9f34ad0625c54a1b644c02", "type": "electric_scooter", "fusion_lat": 0.0}, {"bike_id": "8c7724094cc917fc34e8f199de32ee51", "lon": -77.02603566666667, "lat": 38.920449833333336, "fusion_lon": 0.0, "rental_uris": {"ios": "https://dc.lft.to/lastmile_qr_scan", "android": "https://dc.lft.to/lastmile_qr_scan"}, "is_disabled": 0, "is_reserved": 0, "name": "8c7724094cc917fc34e8f199de32ee51", "type": "electric_scooter", "fusion_lat": 0.0}, {"bike_id": "0bdb8383575dae3499ee9aaa59b80d72", "lon": -77.03855783333333, "lat": 38.903671833333334, "fusion_lon": 0.0, "rental_uris": {"ios": "https://dc.lft.to/lastmile_qr_scan", "android": "https://dc.lft.to/lastmile_qr_scan"}, "is_disabled": 0, "is_reserved": 0, "name": "0bdb8383575dae3499ee9aaa59b80d72", "type": "electric_scooter", "fusion_lat": 0.0}, {"bike_id": "23c0e0f3e21c3ef4e43de27922ac7a33", "lon": -77.00942783333333, "lat": 38.87460133333333, "fusion_lon": 0.0, "rental_uris": {"ios": "https://dc.lft.to/lastmile_qr_scan", "android": "https://dc.lft.to/lastmile_qr_scan"}, "is_disabled": 0, "is_reserved": 0, "name": "23c0e0f3e21c3ef4e43de27922ac7a33", "type": "electric_scooter", "fusion_lat": 0.0}, {"bike_id": "cc474735a596094a37d6144042f5658e", "lon": -77.0005225, "lat": 38.883117666666664, "fusion_lon": 0.0, "rental_uris": {"ios": "https://dc.lft.to/lastmile_qr_scan", "android": "https://dc.lft.to/lastmile_qr_scan"}, "is_disabled": 0, "is_reserved": 0, "name": "cc474735a596094a37d6144042f5658e", "type": "electric_scooter", "fusion_lat": 0.0}, {"bike_id": "e63dff863a79a36f6e7d745987005d09", "lon": -77.03822083333333, "lat": 38.90720916666667, "fusion_lon": 0.0, "rental_uris": {"ios": "https://dc.lft.to/lastmile_qr_scan", "android": "https://dc.lft.to/lastmile_qr_scan"}, "is_disabled": 0, "is_reserved": 0, "name": "e63dff863a79a36f6e7d745987005d09", "type": "electric_scooter", "fusion_lat": 0.0}, {"bike_id": "966892808ff3a27bd6cd532d7c714ddb", "lon": -77.040503, "lat": 38.92875683333333, "fusion_lon": 0.0, "rental_uris": {"ios": "https://dc.lft.to/lastmile_qr_scan", "android": "https://dc.lft.to/lastmile_qr_scan"}, "is_disabled": 0, "is_reserved": 0, "name": "966892808ff3a27bd6cd532d7c714ddb", "type": "electric_scooter", "fusion_lat": 0.0}, {"bike_id": "32b19ed8d995116a7d6fb532be7e876a", "lon": -77.03010966666666, "lat": 38.91924433333333, "fusion_lon": 0.0, "rental_uris": {"ios": "https://dc.lft.to/lastmile_qr_scan", "android": "https://dc.lft.to/lastmile_qr_scan"}, "is_disabled": 0, "is_reserved": 0, "name": "32b19ed8d995116a7d6fb532be7e876a", "type": "electric_scooter", "fusion_lat": 0.0}, {"bike_id": "3f19ec62ae9a0f6f7e7a585ec5783910", "lon": -77.01309266666667, "lat": 38.90139283333333, "fusion_lon": 0.0, "rental_uris": {"ios": "https://dc.lft.to/lastmile_qr_scan", "android": "https://dc.lft.to/lastmile_qr_scan"}, "is_disabled": 0, "is_reserved": 0, "name": "3f19ec62ae9a0f6f7e7a585ec5783910", "type": "electric_scooter", "fusion_lat": 0.0}, {"bike_id": "7935842f0254f97ab90b993d3d435325", "lon": -76.93968383333333, "lat": 38.8931945, "fusion_lon": 0.0, "rental_uris": {"ios": "https://dc.lft.to/lastmile_qr_scan", "android": "https://dc.lft.to/lastmile_qr_scan"}, "is_disabled": 0, "is_reserved": 0, "name": "7935842f0254f97ab90b993d3d435325", "type": "electric_scooter", "fusion_lat": 0.0}, {"bike_id": "df1f214bd5341fd14a59912be24983a0", "lon": -77.0433815, "lat": 38.90607116666666, "fusion_lon": 0.0, "rental_uris": {"ios": "https://dc.lft.to/lastmile_qr_scan", "android": "https://dc.lft.to/lastmile_qr_scan"}, "is_disabled": 0, "is_reserved": 0, "name": "df1f214bd5341fd14a59912be24983a0", "type": "electric_scooter", "fusion_lat": 0.0}, {"bike_id": "670dbe6ca078879f09f6d7e625d0afb0", "lon": -77.03181533333333, "lat": 38.913298, "fusion_lon": 0.0, "rental_uris": {"ios": "https://dc.lft.to/lastmile_qr_scan", "android": "https://dc.lft.to/lastmile_qr_scan"}, "is_disabled": 0, "is_reserved": 0, "name": "670dbe6ca078879f09f6d7e625d0afb0", "type": "electric_scooter", "fusion_lat": 0.0}, {"bike_id": "6b73fce7ce4fa2365042d5a0bccb0b7f", "lon": -77.04346633333333, "lat": 38.89640766666667, "fusion_lon": 0.0, "rental_uris": {"ios": "https://dc.lft.to/lastmile_qr_scan", "android": "https://dc.lft.to/lastmile_qr_scan"}, "is_disabled": 0, "is_reserved": 0, "name": "6b73fce7ce4fa2365042d5a0bccb0b7f", "type": "electric_scooter", "fusion_lat": 0.0}, {"bike_id": "fab47729f2b3b98fe0581000d8a7d9a9", "lon": -77.0319295, "lat": 38.928605166666664, "fusion_lon": 0.0, "rental_uris": {"ios": "https://dc.lft.to/lastmile_qr_scan", "android": "https://dc.lft.to/lastmile_qr_scan"}, "is_disabled": 0, "is_reserved": 0, "name": "fab47729f2b3b98fe0581000d8a7d9a9", "type": "electric_scooter", "fusion_lat": 0.0}, {"bike_id": "8607b4db0f719ad445437143dbfe8ded", "lon": -77.06281316666667, "lat": 38.904478166666664, "fusion_lon": 0.0, "rental_uris": {"ios": "https://dc.lft.to/lastmile_qr_scan", "android": "https://dc.lft.to/lastmile_qr_scan"}, "is_disabled": 0, "is_reserved": 0, "name": "8607b4db0f719ad445437143dbfe8ded", "type": "electric_scooter", "fusion_lat": 0.0}, {"bike_id": "81648f15e3f611362866b2fd992c1e02", "lon": -76.9700925, "lat": 38.85064116666667, "fusion_lon": 0.0, "rental_uris": {"ios": "https://dc.lft.to/lastmile_qr_scan", "android": "https://dc.lft.to/lastmile_qr_scan"}, "is_disabled": 0, "is_reserved": 0, "name": "81648f15e3f611362866b2fd992c1e02", "type": "electric_scooter", "fusion_lat": 0.0}, {"bike_id": "822d723744bf8211f657b23a484a0dc3", "lon": -77.04026883333333, "lat": 38.91885033333333, "fusion_lon": 0.0, "rental_uris": {"ios": "https://dc.lft.to/lastmile_qr_scan", "android": "https://dc.lft.to/lastmile_qr_scan"}, "is_disabled": 0, "is_reserved": 0, "name": "822d723744bf8211f657b23a484a0dc3", "type": "electric_scooter", "fusion_lat": 0.0}, {"bike_id": "1548976ff5b1065e7e0da4837403c149", "lon": -77.065356, "lat": 38.950727666666666, "fusion_lon": 0.0, "rental_uris": {"ios": "https://dc.lft.to/lastmile_qr_scan", "android": "https://dc.lft.to/lastmile_qr_scan"}, "is_disabled": 0, "is_reserved": 0, "name": "1548976ff5b1065e7e0da4837403c149", "type": "electric_scooter", "fusion_lat": 0.0}, {"bike_id": "b8b1227e17753ce9a914f10e0e046f61", "lon": -77.0384585, "lat": 38.9114945, "fusion_lon": 0.0, "rental_uris": {"ios": "https://dc.lft.to/lastmile_qr_scan", "android": "https://dc.lft.to/lastmile_qr_scan"}, "is_disabled": 0, "is_reserved": 0, "name": "b8b1227e17753ce9a914f10e0e046f61", "type": "electric_scooter", "fusion_lat": 0.0}, {"bike_id": "d5c5238ced8125371d6971f8c8b376f8", "lon": -77.0344195, "lat": 38.9097015, "fusion_lon": 0.0, "rental_uris": {"ios": "https://dc.lft.to/lastmile_qr_scan", "android": "https://dc.lft.to/lastmile_qr_scan"}, "is_disabled": 0, "is_reserved": 0, "name": "d5c5238ced8125371d6971f8c8b376f8", "type": "electric_scooter", "fusion_lat": 0.0}, {"bike_id": "a9f4068bb035d378b1624266bed5588c", "lon": -77.02975333333333, "lat": 38.9226655, "fusion_lon": 0.0, "rental_uris": {"ios": "https://dc.lft.to/lastmile_qr_scan", "android": "https://dc.lft.to/lastmile_qr_scan"}, "is_disabled": 0, "is_reserved": 0, "name": "a9f4068bb035d378b1624266bed5588c", "type": "electric_scooter", "fusion_lat": 0.0}, {"bike_id": "a99fb4b5f4f692b35651ce092a578b3c", "lon": -77.03200233333334, "lat": 38.91794066666667, "fusion_lon": 0.0, "rental_uris": {"ios": "https://dc.lft.to/lastmile_qr_scan", "android": "https://dc.lft.to/lastmile_qr_scan"}, "is_disabled": 0, "is_reserved": 0, "name": "a99fb4b5f4f692b35651ce092a578b3c", "type": "electric_scooter", "fusion_lat": 0.0}, {"bike_id": "3928d05342bc2473e1680d5a53006244", "lon": -77.01809683333333, "lat": 38.920922833333336, "fusion_lon": 0.0, "rental_uris": {"ios": "https://dc.lft.to/lastmile_qr_scan", "android": "https://dc.lft.to/lastmile_qr_scan"}, "is_disabled": 0, "is_reserved": 0, "name": "3928d05342bc2473e1680d5a53006244", "type": "electric_scooter", "fusion_lat": 0.0}, {"bike_id": "796da72e6ba42194e5e9cfff2bc713e7", "lon": -76.911935, "lat": 38.891809333333335, "fusion_lon": 0.0, "rental_uris": {"ios": "https://dc.lft.to/lastmile_qr_scan", "android": "https://dc.lft.to/lastmile_qr_scan"}, "is_disabled": 0, "is_reserved": 0, "name": "796da72e6ba42194e5e9cfff2bc713e7", "type": "electric_scooter", "fusion_lat": 0.0}, {"bike_id": "087878b91f23cd55a19e9da828543f5f", "lon": -77.04377183333334, "lat": 38.90088633333333, "fusion_lon": 0.0, "rental_uris": {"ios": "https://dc.lft.to/lastmile_qr_scan", "android": "https://dc.lft.to/lastmile_qr_scan"}, "is_disabled": 0, "is_reserved": 0, "name": "087878b91f23cd55a19e9da828543f5f", "type": "electric_scooter", "fusion_lat": 0.0}, {"bike_id": "768f272b19416b8072836bed6098b3be", "lon": -76.97744033333333, "lat": 38.87169466666667, "fusion_lon": 0.0, "rental_uris": {"ios": "https://dc.lft.to/lastmile_qr_scan", "android": "https://dc.lft.to/lastmile_qr_scan"}, "is_disabled": 0, "is_reserved": 0, "name": "768f272b19416b8072836bed6098b3be", "type": "electric_scooter", "fusion_lat": 0.0}, {"bike_id": "3908e8416533d9598ef6ce9fa023abf2", "lon": -77.00784533333334, "lat": 38.92693383333334, "fusion_lon": 0.0, "rental_uris": {"ios": "https://dc.lft.to/lastmile_qr_scan", "android": "https://dc.lft.to/lastmile_qr_scan"}, "is_disabled": 0, "is_reserved": 0, "name": "3908e8416533d9598ef6ce9fa023abf2", "type": "electric_scooter", "fusion_lat": 0.0}, {"bike_id": "b45d2b0a5d3a662ba13465e9df6f8453", "lon": -77.08962366666667, "lat": 38.918121, "fusion_lon": 0.0, "rental_uris": {"ios": "https://dc.lft.to/lastmile_qr_scan", "android": "https://dc.lft.to/lastmile_qr_scan"}, "is_disabled": 0, "is_reserved": 0, "name": "b45d2b0a5d3a662ba13465e9df6f8453", "type": "electric_scooter", "fusion_lat": 0.0}, {"bike_id": "c1d554f7969cc5a235bcee25c71468f7", "lon": -77.02575666666667, "lat": 38.913992666666665, "fusion_lon": 0.0, "rental_uris": {"ios": "https://dc.lft.to/lastmile_qr_scan", "android": "https://dc.lft.to/lastmile_qr_scan"}, "is_disabled": 0, "is_reserved": 0, "name": "c1d554f7969cc5a235bcee25c71468f7", "type": "electric_scooter", "fusion_lat": 0.0}, {"bike_id": "17c4cde7b5afdf729444c59ab552aafb", "lon": -77.02030183333333, "lat": 38.91302116666667, "fusion_lon": 0.0, "rental_uris": {"ios": "https://dc.lft.to/lastmile_qr_scan", "android": "https://dc.lft.to/lastmile_qr_scan"}, "is_disabled": 0, "is_reserved": 0, "name": "17c4cde7b5afdf729444c59ab552aafb", "type": "electric_scooter", "fusion_lat": 0.0}, {"bike_id": "1c545b17171c40bf2e5d97a9a1934bca", "lon": -76.9735795, "lat": 38.9632625, "fusion_lon": 0.0, "rental_uris": {"ios": "https://dc.lft.to/lastmile_qr_scan", "android": "https://dc.lft.to/lastmile_qr_scan"}, "is_disabled": 0, "is_reserved": 0, "name": "1c545b17171c40bf2e5d97a9a1934bca", "type": "electric_bike", "fusion_lat": 0.0}, {"bike_id": "eac8afb41f3c3e265bc4c9a396dbf6f6", "lon": -77.04176233333334, "lat": 38.9189105, "fusion_lon": 0.0, "rental_uris": {"ios": "https://dc.lft.to/lastmile_qr_scan", "android": "https://dc.lft.to/lastmile_qr_scan"}, "is_disabled": 0, "is_reserved": 0, "name": "eac8afb41f3c3e265bc4c9a396dbf6f6", "type": "electric_scooter", "fusion_lat": 0.0}, {"bike_id": "4db46c972f52098674410136bbaaaec8", "lon": -77.04166833333333, "lat": 38.90482266666667, "fusion_lon": 0.0, "rental_uris": {"ios": "https://dc.lft.to/lastmile_qr_scan", "android": "https://dc.lft.to/lastmile_qr_scan"}, "is_disabled": 0, "is_reserved": 0, "name": "4db46c972f52098674410136bbaaaec8", "type": "electric_scooter", "fusion_lat": 0.0}, {"bike_id": "0a56434f440b11eb0507eb7b7ced0a6f", "lon": -77.03474616666666, "lat": 38.917077, "fusion_lon": 0.0, "rental_uris": {"ios": "https://dc.lft.to/lastmile_qr_scan", "android": "https://dc.lft.to/lastmile_qr_scan"}, "is_disabled": 0, "is_reserved": 0, "name": "0a56434f440b11eb0507eb7b7ced0a6f", "type": "electric_scooter", "fusion_lat": 0.0}, {"bike_id": "693e1aa4dcd4d48b7e95a97419708fba", "lon": -76.9809285, "lat": 38.953534833333336, "fusion_lon": 0.0, "rental_uris": {"ios": "https://dc.lft.to/lastmile_qr_scan", "android": "https://dc.lft.to/lastmile_qr_scan"}, "is_disabled": 0, "is_reserved": 0, "name": "693e1aa4dcd4d48b7e95a97419708fba", "type": "electric_bike", "fusion_lat": 0.0}, {"bike_id": "14ff65070801804845d7517e6cf54f98", "lon": -77.03791166666667, "lat": 38.93596733333333, "fusion_lon": 0.0, "rental_uris": {"ios": "https://dc.lft.to/lastmile_qr_scan", "android": "https://dc.lft.to/lastmile_qr_scan"}, "is_disabled": 0, "is_reserved": 0, "name": "14ff65070801804845d7517e6cf54f98", "type": "electric_scooter", "fusion_lat": 0.0}, {"bike_id": "c79f91571eeacf97844d5e2de65844f6", "lon": -77.07014116666667, "lat": 38.9051085, "fusion_lon": 0.0, "rental_uris": {"ios": "https://dc.lft.to/lastmile_qr_scan", "android": "https://dc.lft.to/lastmile_qr_scan"}, "is_disabled": 0, "is_reserved": 0, "name": "c79f91571eeacf97844d5e2de65844f6", "type": "electric_scooter", "fusion_lat": 0.0}, {"bike_id": "56250697366a790537aaa1a58c9ef4ad", "lon": -77.04274283333334, "lat": 38.907854, "fusion_lon": 0.0, "rental_uris": {"ios": "https://dc.lft.to/lastmile_qr_scan", "android": "https://dc.lft.to/lastmile_qr_scan"}, "is_disabled": 0, "is_reserved": 0, "name": "56250697366a790537aaa1a58c9ef4ad", "type": "electric_scooter", "fusion_lat": 0.0}, {"bike_id": "322c21027a02f33d801cd3968e761c23", "lon": -77.01223783333333, "lat": 38.930427, "fusion_lon": 0.0, "rental_uris": {"ios": "https://dc.lft.to/lastmile_qr_scan", "android": "https://dc.lft.to/lastmile_qr_scan"}, "is_disabled": 0, "is_reserved": 0, "name": "322c21027a02f33d801cd3968e761c23", "type": "electric_scooter", "fusion_lat": 0.0}, {"bike_id": "6cef32e78e1da56a894d65d6cf1ec864", "lon": -77.01112066666667, "lat": 38.96308116666667, "fusion_lon": 0.0, "rental_uris": {"ios": "https://dc.lft.to/lastmile_qr_scan", "android": "https://dc.lft.to/lastmile_qr_scan"}, "is_disabled": 0, "is_reserved": 0, "name": "6cef32e78e1da56a894d65d6cf1ec864", "type": "electric_bike", "fusion_lat": 0.0}, {"bike_id": "44237162218b871a460e3ce653595d3d", "lon": -76.92749716666667, "lat": 38.89865283333334, "fusion_lon": 0.0, "rental_uris": {"ios": "https://dc.lft.to/lastmile_qr_scan", "android": "https://dc.lft.to/lastmile_qr_scan"}, "is_disabled": 0, "is_reserved": 0, "name": "44237162218b871a460e3ce653595d3d", "type": "electric_scooter", "fusion_lat": 0.0}, {"bike_id": "d8f46f07843cae9867b41fad3b17396c", "lon": -76.98417466666666, "lat": 38.85539883333333, "fusion_lon": 0.0, "rental_uris": {"ios": "https://dc.lft.to/lastmile_qr_scan", "android": "https://dc.lft.to/lastmile_qr_scan"}, "is_disabled": 0, "is_reserved": 0, "name": "d8f46f07843cae9867b41fad3b17396c", "type": "electric_scooter", "fusion_lat": 0.0}, {"bike_id": "1090cdc4ec3bc29925373eef2ed4e746", "lon": -77.0127675, "lat": 38.9565135, "fusion_lon": 0.0, "rental_uris": {"ios": "https://dc.lft.to/lastmile_qr_scan", "android": "https://dc.lft.to/lastmile_qr_scan"}, "is_disabled": 0, "is_reserved": 0, "name": "1090cdc4ec3bc29925373eef2ed4e746", "type": "electric_bike", "fusion_lat": 0.0}, {"bike_id": "8dd8ea1b47eabd173287550df7ae22d3", "lon": -77.0015575, "lat": 38.9073435, "fusion_lon": 0.0, "rental_uris": {"ios": "https://dc.lft.to/lastmile_qr_scan", "android": "https://dc.lft.to/lastmile_qr_scan"}, "is_disabled": 0, "is_reserved": 0, "name": "8dd8ea1b47eabd173287550df7ae22d3", "type": "electric_scooter", "fusion_lat": 0.0}, {"bike_id": "490d9a1102d3aef5f752962e02b392f9", "lon": -77.02192866666667, "lat": 38.920568333333335, "fusion_lon": 0.0, "rental_uris": {"ios": "https://dc.lft.to/lastmile_qr_scan", "android": "https://dc.lft.to/lastmile_qr_scan"}, "is_disabled": 0, "is_reserved": 0, "name": "490d9a1102d3aef5f752962e02b392f9", "type": "electric_scooter", "fusion_lat": 0.0}, {"bike_id": "bad5e31ba19668dd90433101cc3785ac", "lon": -77.04060116666666, "lat": 38.917683333333336, "fusion_lon": 0.0, "rental_uris": {"ios": "https://dc.lft.to/lastmile_qr_scan", "android": "https://dc.lft.to/lastmile_qr_scan"}, "is_disabled": 0, "is_reserved": 0, "name": "bad5e31ba19668dd90433101cc3785ac", "type": "electric_scooter", "fusion_lat": 0.0}, {"bike_id": "9390797e200c4535dec324380520a2db", "lon": -76.930201, "lat": 38.900835666666666, "fusion_lon": 0.0, "rental_uris": {"ios": "https://dc.lft.to/lastmile_qr_scan", "android": "https://dc.lft.to/lastmile_qr_scan"}, "is_disabled": 0, "is_reserved": 0, "name": "9390797e200c4535dec324380520a2db", "type": "electric_scooter", "fusion_lat": 0.0}, {"bike_id": "272ff96ab0feb104a0a6bbe118c613b5", "lon": -77.02707016666666, "lat": 38.90385966666667, "fusion_lon": 0.0, "rental_uris": {"ios": "https://dc.lft.to/lastmile_qr_scan", "android": "https://dc.lft.to/lastmile_qr_scan"}, "is_disabled": 0, "is_reserved": 0, "name": "272ff96ab0feb104a0a6bbe118c613b5", "type": "electric_bike", "fusion_lat": 0.0}, {"bike_id": "1d07a1a472c3bfb56190f6fb3d9c8bd6", "lon": -77.03987316666667, "lat": 38.9245835, "fusion_lon": 0.0, "rental_uris": {"ios": "https://dc.lft.to/lastmile_qr_scan", "android": "https://dc.lft.to/lastmile_qr_scan"}, "is_disabled": 0, "is_reserved": 0, "name": "1d07a1a472c3bfb56190f6fb3d9c8bd6", "type": "electric_scooter", "fusion_lat": 0.0}, {"bike_id": "9b36624d4e5e9e00c2da7b731643ec70", "lon": -77.013126, "lat": 38.92979866666667, "fusion_lon": 0.0, "rental_uris": {"ios": "https://dc.lft.to/lastmile_qr_scan", "android": "https://dc.lft.to/lastmile_qr_scan"}, "is_disabled": 0, "is_reserved": 0, "name": "9b36624d4e5e9e00c2da7b731643ec70", "type": "electric_scooter", "fusion_lat": 0.0}, {"bike_id": "31b4365ed30ecfca64636a7a2a80bed2", "lon": -77.02973133333333, "lat": 38.8962405, "fusion_lon": 0.0, "rental_uris": {"ios": "https://dc.lft.to/lastmile_qr_scan", "android": "https://dc.lft.to/lastmile_qr_scan"}, "is_disabled": 0, "is_reserved": 0, "name": "31b4365ed30ecfca64636a7a2a80bed2", "type": "electric_scooter", "fusion_lat": 0.0}, {"bike_id": "46906b7a3e8e0ad0a46c485024d34be9", "lon": -77.00563333333334, "lat": 38.835835833333334, "fusion_lon": 0.0, "rental_uris": {"ios": "https://dc.lft.to/lastmile_qr_scan", "android": "https://dc.lft.to/lastmile_qr_scan"}, "is_disabled": 0, "is_reserved": 0, "name": "46906b7a3e8e0ad0a46c485024d34be9", "type": "electric_scooter", "fusion_lat": 0.0}, {"bike_id": "2544c764c0d52cd41f907460f8244a5c", "lon": -77.02726866666667, "lat": 38.95182783333333, "fusion_lon": 0.0, "rental_uris": {"ios": "https://dc.lft.to/lastmile_qr_scan", "android": "https://dc.lft.to/lastmile_qr_scan"}, "is_disabled": 0, "is_reserved": 0, "name": "2544c764c0d52cd41f907460f8244a5c", "type": "electric_scooter", "fusion_lat": 0.0}, {"bike_id": "96288e24a23dd4c5251880f63d7e1ad2", "lon": -77.0243335, "lat": 38.918592333333336, "fusion_lon": 0.0, "rental_uris": {"ios": "https://dc.lft.to/lastmile_qr_scan", "android": "https://dc.lft.to/lastmile_qr_scan"}, "is_disabled": 0, "is_reserved": 0, "name": "96288e24a23dd4c5251880f63d7e1ad2", "type": "electric_scooter", "fusion_lat": 0.0}, {"bike_id": "4a6f7c06e3e3159bb0f5e7a61b14f8e1", "lon": -77.026917, "lat": 38.916857666666665, "fusion_lon": 0.0, "rental_uris": {"ios": "https://dc.lft.to/lastmile_qr_scan", "android": "https://dc.lft.to/lastmile_qr_scan"}, "is_disabled": 0, "is_reserved": 0, "name": "4a6f7c06e3e3159bb0f5e7a61b14f8e1", "type": "electric_scooter", "fusion_lat": 0.0}, {"bike_id": "1f770cc136d27e4b92a5801a0e7dd45c", "lon": -77.02653116666667, "lat": 38.994285833333336, "fusion_lon": 0.0, "rental_uris": {"ios": "https://dc.lft.to/lastmile_qr_scan", "android": "https://dc.lft.to/lastmile_qr_scan"}, "is_disabled": 0, "is_reserved": 0, "name": "1f770cc136d27e4b92a5801a0e7dd45c", "type": "electric_bike", "fusion_lat": 0.0}, {"bike_id": "8154621ea5e63b9f402085caace0f762", "lon": -77.0138985, "lat": 38.919509833333336, "fusion_lon": 0.0, "rental_uris": {"ios": "https://dc.lft.to/lastmile_qr_scan", "android": "https://dc.lft.to/lastmile_qr_scan"}, "is_disabled": 0, "is_reserved": 0, "name": "8154621ea5e63b9f402085caace0f762", "type": "electric_scooter", "fusion_lat": 0.0}, {"bike_id": "e2c54919999a67b04d5da019af07c045", "lon": -77.05088116666667, "lat": 38.923437666666665, "fusion_lon": 0.0, "rental_uris": {"ios": "https://dc.lft.to/lastmile_qr_scan", "android": "https://dc.lft.to/lastmile_qr_scan"}, "is_disabled": 0, "is_reserved": 0, "name": "e2c54919999a67b04d5da019af07c045", "type": "electric_scooter", "fusion_lat": 0.0}, {"bike_id": "173ae2b28c48f4f63abb6d34537c464e", "lon": -77.05235366666666, "lat": 38.924654, "fusion_lon": 0.0, "rental_uris": {"ios": "https://dc.lft.to/lastmile_qr_scan", "android": "https://dc.lft.to/lastmile_qr_scan"}, "is_disabled": 0, "is_reserved": 0, "name": "173ae2b28c48f4f63abb6d34537c464e", "type": "electric_scooter", "fusion_lat": 0.0}, {"bike_id": "a90888c612933d9be498d45914ef9eb7", "lon": -76.98491233333333, "lat": 38.904405833333335, "fusion_lon": 0.0, "rental_uris": {"ios": "https://dc.lft.to/lastmile_qr_scan", "android": "https://dc.lft.to/lastmile_qr_scan"}, "is_disabled": 0, "is_reserved": 0, "name": "a90888c612933d9be498d45914ef9eb7", "type": "electric_scooter", "fusion_lat": 0.0}, {"bike_id": "80114f50b9820ee52771b8028a0924bc", "lon": -77.002559, "lat": 38.905724, "fusion_lon": 0.0, "rental_uris": {"ios": "https://dc.lft.to/lastmile_qr_scan", "android": "https://dc.lft.to/lastmile_qr_scan"}, "is_disabled": 0, "is_reserved": 0, "name": "80114f50b9820ee52771b8028a0924bc", "type": "electric_scooter", "fusion_lat": 0.0}, {"bike_id": "616a55e0a1ba8911e64842263b0b178f", "lon": -77.03155483333333, "lat": 38.9162565, "fusion_lon": 0.0, "rental_uris": {"ios": "https://dc.lft.to/lastmile_qr_scan", "android": "https://dc.lft.to/lastmile_qr_scan"}, "is_disabled": 0, "is_reserved": 0, "name": "616a55e0a1ba8911e64842263b0b178f", "type": "electric_scooter", "fusion_lat": 0.0}, {"bike_id": "651199fbb3eb8c5c1cb9bf6cf57d2a04", "lon": -77.017432, "lat": 38.90255883333333, "fusion_lon": 0.0, "rental_uris": {"ios": "https://dc.lft.to/lastmile_qr_scan", "android": "https://dc.lft.to/lastmile_qr_scan"}, "is_disabled": 0, "is_reserved": 0, "name": "651199fbb3eb8c5c1cb9bf6cf57d2a04", "type": "electric_scooter", "fusion_lat": 0.0}, {"bike_id": "8cad7c697e083d32b67c29d1793ee659", "lon": -77.03672316666666, "lat": 38.9025245, "fusion_lon": 0.0, "rental_uris": {"ios": "https://dc.lft.to/lastmile_qr_scan", "android": "https://dc.lft.to/lastmile_qr_scan"}, "is_disabled": 0, "is_reserved": 0, "name": "8cad7c697e083d32b67c29d1793ee659", "type": "electric_scooter", "fusion_lat": 0.0}, {"bike_id": "b2a0f61f301922812b12fd5391745627", "lon": -76.98049033333334, "lat": 38.9002995, "fusion_lon": 0.0, "rental_uris": {"ios": "https://dc.lft.to/lastmile_qr_scan", "android": "https://dc.lft.to/lastmile_qr_scan"}, "is_disabled": 0, "is_reserved": 0, "name": "b2a0f61f301922812b12fd5391745627", "type": "electric_scooter", "fusion_lat": 0.0}, {"bike_id": "cb2fa766073bdfb12a1dd85a36750507", "lon": -77.01279216666667, "lat": 38.956717833333336, "fusion_lon": 0.0, "rental_uris": {"ios": "https://dc.lft.to/lastmile_qr_scan", "android": "https://dc.lft.to/lastmile_qr_scan"}, "is_disabled": 0, "is_reserved": 0, "name": "cb2fa766073bdfb12a1dd85a36750507", "type": "electric_scooter", "fusion_lat": 0.0}, {"bike_id": "2367b09550853dbfcf713423b5ea7859", "lon": -77.01949, "lat": 38.924235, "fusion_lon": 0.0, "rental_uris": {"ios": "https://dc.lft.to/lastmile_qr_scan", "android": "https://dc.lft.to/lastmile_qr_scan"}, "is_disabled": 0, "is_reserved": 0, "name": "2367b09550853dbfcf713423b5ea7859", "type": "electric_scooter", "fusion_lat": 0.0}, {"bike_id": "75081dbe055dfd80d6a9353a579b34da", "lon": -76.99782233333333, "lat": 38.829143333333334, "fusion_lon": 0.0, "rental_uris": {"ios": "https://dc.lft.to/lastmile_qr_scan", "android": "https://dc.lft.to/lastmile_qr_scan"}, "is_disabled": 0, "is_reserved": 0, "name": "75081dbe055dfd80d6a9353a579b34da", "type": "electric_bike", "fusion_lat": 0.0}, {"bike_id": "659acad171df10260625d82f347272f2", "lon": -77.030801, "lat": 38.938638166666664, "fusion_lon": 0.0, "rental_uris": {"ios": "https://dc.lft.to/lastmile_qr_scan", "android": "https://dc.lft.to/lastmile_qr_scan"}, "is_disabled": 0, "is_reserved": 0, "name": "659acad171df10260625d82f347272f2", "type": "electric_scooter", "fusion_lat": 0.0}, {"bike_id": "a17f056fd528031337af06360b8bd4b0", "lon": -77.002208, "lat": 38.9066025, "fusion_lon": 0.0, "rental_uris": {"ios": "https://dc.lft.to/lastmile_qr_scan", "android": "https://dc.lft.to/lastmile_qr_scan"}, "is_disabled": 0, "is_reserved": 0, "name": "a17f056fd528031337af06360b8bd4b0", "type": "electric_scooter", "fusion_lat": 0.0}, {"bike_id": "6fcbd14b1ff67ffd109ae0d66f42e250", "lon": -77.0307645, "lat": 38.9308395, "fusion_lon": 0.0, "rental_uris": {"ios": "https://dc.lft.to/lastmile_qr_scan", "android": "https://dc.lft.to/lastmile_qr_scan"}, "is_disabled": 0, "is_reserved": 0, "name": "6fcbd14b1ff67ffd109ae0d66f42e250", "type": "electric_scooter", "fusion_lat": 0.0}, {"bike_id": "1c930dc8327c13ce009bd32cc38ba37c", "lon": -77.00804816666667, "lat": 38.896379333333336, "fusion_lon": 0.0, "rental_uris": {"ios": "https://dc.lft.to/lastmile_qr_scan", "android": "https://dc.lft.to/lastmile_qr_scan"}, "is_disabled": 0, "is_reserved": 0, "name": "1c930dc8327c13ce009bd32cc38ba37c", "type": "electric_scooter", "fusion_lat": 0.0}, {"bike_id": "42ea5279adac3ec8d0dcc130de633118", "lon": -77.06769166666666, "lat": 38.90408083333333, "fusion_lon": 0.0, "rental_uris": {"ios": "https://dc.lft.to/lastmile_qr_scan", "android": "https://dc.lft.to/lastmile_qr_scan"}, "is_disabled": 0, "is_reserved": 0, "name": "42ea5279adac3ec8d0dcc130de633118", "type": "electric_scooter", "fusion_lat": 0.0}, {"bike_id": "7ac61a228666fcefed54c482a892594c", "lon": -77.05129216666667, "lat": 38.905968, "fusion_lon": 0.0, "rental_uris": {"ios": "https://dc.lft.to/lastmile_qr_scan", "android": "https://dc.lft.to/lastmile_qr_scan"}, "is_disabled": 0, "is_reserved": 0, "name": "7ac61a228666fcefed54c482a892594c", "type": "electric_scooter", "fusion_lat": 0.0}, {"bike_id": "0adcbbc55a68b71ac92e8addfa3a6add", "lon": -77.01951466666667, "lat": 38.919307333333336, "fusion_lon": 0.0, "rental_uris": {"ios": "https://dc.lft.to/lastmile_qr_scan", "android": "https://dc.lft.to/lastmile_qr_scan"}, "is_disabled": 0, "is_reserved": 0, "name": "0adcbbc55a68b71ac92e8addfa3a6add", "type": "electric_scooter", "fusion_lat": 0.0}, {"bike_id": "175d5f0034de37b4268e3302ae59e059", "lon": -77.032573, "lat": 38.898973833333336, "fusion_lon": 0.0, "rental_uris": {"ios": "https://dc.lft.to/lastmile_qr_scan", "android": "https://dc.lft.to/lastmile_qr_scan"}, "is_disabled": 0, "is_reserved": 0, "name": "175d5f0034de37b4268e3302ae59e059", "type": "electric_scooter", "fusion_lat": 0.0}, {"bike_id": "a6e2dfb073a239ac19fdb4992c745d3e", "lon": -76.99044566666667, "lat": 38.8638675, "fusion_lon": 0.0, "rental_uris": {"ios": "https://dc.lft.to/lastmile_qr_scan", "android": "https://dc.lft.to/lastmile_qr_scan"}, "is_disabled": 0, "is_reserved": 0, "name": "a6e2dfb073a239ac19fdb4992c745d3e", "type": "electric_scooter", "fusion_lat": 0.0}, {"bike_id": "df445dfb9a4f17e7b66d0005d722ca56", "lon": -77.0385175, "lat": 38.910633, "fusion_lon": 0.0, "rental_uris": {"ios": "https://dc.lft.to/lastmile_qr_scan", "android": "https://dc.lft.to/lastmile_qr_scan"}, "is_disabled": 0, "is_reserved": 0, "name": "df445dfb9a4f17e7b66d0005d722ca56", "type": "electric_scooter", "fusion_lat": 0.0}, {"bike_id": "9cb08a5826c7c4cc77dbc1b7c6e4fdd3", "lon": -77.0440685, "lat": 38.9259285, "fusion_lon": 0.0, "rental_uris": {"ios": "https://dc.lft.to/lastmile_qr_scan", "android": "https://dc.lft.to/lastmile_qr_scan"}, "is_disabled": 0, "is_reserved": 0, "name": "9cb08a5826c7c4cc77dbc1b7c6e4fdd3", "type": "electric_scooter", "fusion_lat": 0.0}, {"bike_id": "33402bc171c5c5654b0cde1bb9732d5b", "lon": -76.993387, "lat": 38.910335, "fusion_lon": 0.0, "rental_uris": {"ios": "https://dc.lft.to/lastmile_qr_scan", "android": "https://dc.lft.to/lastmile_qr_scan"}, "is_disabled": 0, "is_reserved": 0, "name": "33402bc171c5c5654b0cde1bb9732d5b", "type": "electric_scooter", "fusion_lat": 0.0}, {"bike_id": "36582a38493bc6c544f2306a60abac80", "lon": -77.01213083333333, "lat": 38.914449, "fusion_lon": 0.0, "rental_uris": {"ios": "https://dc.lft.to/lastmile_qr_scan", "android": "https://dc.lft.to/lastmile_qr_scan"}, "is_disabled": 0, "is_reserved": 0, "name": "36582a38493bc6c544f2306a60abac80", "type": "electric_scooter", "fusion_lat": 0.0}, {"bike_id": "482d16f2d738722ab300f5057c76d598", "lon": -77.05605666666666, "lat": 38.931656333333336, "fusion_lon": 0.0, "rental_uris": {"ios": "https://dc.lft.to/lastmile_qr_scan", "android": "https://dc.lft.to/lastmile_qr_scan"}, "is_disabled": 0, "is_reserved": 0, "name": "482d16f2d738722ab300f5057c76d598", "type": "electric_scooter", "fusion_lat": 0.0}, {"bike_id": "ce320920c285bd18fc5e10c53047ded0", "lon": -77.03671233333333, "lat": 38.921241, "fusion_lon": 0.0, "rental_uris": {"ios": "https://dc.lft.to/lastmile_qr_scan", "android": "https://dc.lft.to/lastmile_qr_scan"}, "is_disabled": 0, "is_reserved": 0, "name": "ce320920c285bd18fc5e10c53047ded0", "type": "electric_scooter", "fusion_lat": 0.0}, {"bike_id": "daf534ce54722b35f97e0923f0786109", "lon": -77.0523465, "lat": 38.92468816666667, "fusion_lon": 0.0, "rental_uris": {"ios": "https://dc.lft.to/lastmile_qr_scan", "android": "https://dc.lft.to/lastmile_qr_scan"}, "is_disabled": 0, "is_reserved": 0, "name": "daf534ce54722b35f97e0923f0786109", "type": "electric_scooter", "fusion_lat": 0.0}, {"bike_id": "3b58fff874cdc6e078cf8e3676c07e1c", "lon": -77.029814, "lat": 38.920532666666666, "fusion_lon": 0.0, "rental_uris": {"ios": "https://dc.lft.to/lastmile_qr_scan", "android": "https://dc.lft.to/lastmile_qr_scan"}, "is_disabled": 0, "is_reserved": 0, "name": "3b58fff874cdc6e078cf8e3676c07e1c", "type": "electric_scooter", "fusion_lat": 0.0}, {"bike_id": "7e684f881ee446cbac48d987a577afb8", "lon": -77.02750533333334, "lat": 38.939623, "fusion_lon": 0.0, "rental_uris": {"ios": "https://dc.lft.to/lastmile_qr_scan", "android": "https://dc.lft.to/lastmile_qr_scan"}, "is_disabled": 0, "is_reserved": 0, "name": "7e684f881ee446cbac48d987a577afb8", "type": "electric_scooter", "fusion_lat": 0.0}, {"bike_id": "e4a5304a01112d40851101aa10363f28", "lon": -77.04263083333333, "lat": 38.892221166666666, "fusion_lon": 0.0, "rental_uris": {"ios": "https://dc.lft.to/lastmile_qr_scan", "android": "https://dc.lft.to/lastmile_qr_scan"}, "is_disabled": 0, "is_reserved": 0, "name": "e4a5304a01112d40851101aa10363f28", "type": "electric_scooter", "fusion_lat": 0.0}, {"bike_id": "d30edb420b9b6fc09a9e6c5ae6772ae7", "lon": -77.04199033333333, "lat": 38.918703666666666, "fusion_lon": 0.0, "rental_uris": {"ios": "https://dc.lft.to/lastmile_qr_scan", "android": "https://dc.lft.to/lastmile_qr_scan"}, "is_disabled": 0, "is_reserved": 0, "name": "d30edb420b9b6fc09a9e6c5ae6772ae7", "type": "electric_scooter", "fusion_lat": 0.0}, {"bike_id": "d0bad639a8da4aa13c50077d9658d04f", "lon": -76.99619383333334, "lat": 38.885943, "fusion_lon": 0.0, "rental_uris": {"ios": "https://dc.lft.to/lastmile_qr_scan", "android": "https://dc.lft.to/lastmile_qr_scan"}, "is_disabled": 0, "is_reserved": 0, "name": "d0bad639a8da4aa13c50077d9658d04f", "type": "electric_scooter", "fusion_lat": 0.0}, {"bike_id": "a0c50261355cba8bc959fa2bb7b843d2", "lon": -77.05749633333333, "lat": 38.935410833333336, "fusion_lon": 0.0, "rental_uris": {"ios": "https://dc.lft.to/lastmile_qr_scan", "android": "https://dc.lft.to/lastmile_qr_scan"}, "is_disabled": 0, "is_reserved": 0, "name": "a0c50261355cba8bc959fa2bb7b843d2", "type": "electric_scooter", "fusion_lat": 0.0}, {"bike_id": "12eeab6d1a51b749b36200f2a8cc6d1c", "lon": -77.04315716666666, "lat": 38.923253333333335, "fusion_lon": 0.0, "rental_uris": {"ios": "https://dc.lft.to/lastmile_qr_scan", "android": "https://dc.lft.to/lastmile_qr_scan"}, "is_disabled": 0, "is_reserved": 0, "name": "12eeab6d1a51b749b36200f2a8cc6d1c", "type": "electric_scooter", "fusion_lat": 0.0}, {"bike_id": "115eafff62f6a453c048e0bcf7a0018c", "lon": -76.93089683333334, "lat": 38.877995, "fusion_lon": 0.0, "rental_uris": {"ios": "https://dc.lft.to/lastmile_qr_scan", "android": "https://dc.lft.to/lastmile_qr_scan"}, "is_disabled": 0, "is_reserved": 0, "name": "115eafff62f6a453c048e0bcf7a0018c", "type": "electric_scooter", "fusion_lat": 0.0}, {"bike_id": "88b90e959ad48547e24129e71531e549", "lon": -77.02963216666667, "lat": 38.917220666666665, "fusion_lon": 0.0, "rental_uris": {"ios": "https://dc.lft.to/lastmile_qr_scan", "android": "https://dc.lft.to/lastmile_qr_scan"}, "is_disabled": 0, "is_reserved": 0, "name": "88b90e959ad48547e24129e71531e549", "type": "electric_scooter", "fusion_lat": 0.0}, {"bike_id": "d08ce70432b20decee71bba0327273e0", "lon": -77.03460866666667, "lat": 38.90877966666667, "fusion_lon": 0.0, "rental_uris": {"ios": "https://dc.lft.to/lastmile_qr_scan", "android": "https://dc.lft.to/lastmile_qr_scan"}, "is_disabled": 0, "is_reserved": 0, "name": "d08ce70432b20decee71bba0327273e0", "type": "electric_scooter", "fusion_lat": 0.0}, {"bike_id": "6a23eefaeda2ff5b776816492b0e3e1f", "lon": -77.03182166666667, "lat": 38.915815333333335, "fusion_lon": 0.0, "rental_uris": {"ios": "https://dc.lft.to/lastmile_qr_scan", "android": "https://dc.lft.to/lastmile_qr_scan"}, "is_disabled": 0, "is_reserved": 0, "name": "6a23eefaeda2ff5b776816492b0e3e1f", "type": "electric_scooter", "fusion_lat": 0.0}, {"bike_id": "9175f5fa2ac960ba55ca4bd82ef0607a", "lon": -77.0061195, "lat": 38.871788333333335, "fusion_lon": 0.0, "rental_uris": {"ios": "https://dc.lft.to/lastmile_qr_scan", "android": "https://dc.lft.to/lastmile_qr_scan"}, "is_disabled": 0, "is_reserved": 0, "name": "9175f5fa2ac960ba55ca4bd82ef0607a", "type": "electric_scooter", "fusion_lat": 0.0}, {"bike_id": "d0b853df45292d4f91d461b3aa1c2f3e", "lon": -77.0006355, "lat": 38.87938466666667, "fusion_lon": 0.0, "rental_uris": {"ios": "https://dc.lft.to/lastmile_qr_scan", "android": "https://dc.lft.to/lastmile_qr_scan"}, "is_disabled": 0, "is_reserved": 0, "name": "d0b853df45292d4f91d461b3aa1c2f3e", "type": "electric_scooter", "fusion_lat": 0.0}, {"bike_id": "29266a1f88f87baf466cf02e5aa4a237", "lon": -76.99045366666667, "lat": 38.863866, "fusion_lon": 0.0, "rental_uris": {"ios": "https://dc.lft.to/lastmile_qr_scan", "android": "https://dc.lft.to/lastmile_qr_scan"}, "is_disabled": 0, "is_reserved": 0, "name": "29266a1f88f87baf466cf02e5aa4a237", "type": "electric_scooter", "fusion_lat": 0.0}, {"bike_id": "0564000c8ad88cc5d3e2c46b6837b36b", "lon": -76.98674833333334, "lat": 38.899606666666664, "fusion_lon": 0.0, "rental_uris": {"ios": "https://dc.lft.to/lastmile_qr_scan", "android": "https://dc.lft.to/lastmile_qr_scan"}, "is_disabled": 0, "is_reserved": 0, "name": "0564000c8ad88cc5d3e2c46b6837b36b", "type": "electric_bike", "fusion_lat": 0.0}, {"bike_id": "12eb89766b5c4fbd1e75466c53e1df04", "lon": -76.99268816666667, "lat": 38.910841833333336, "fusion_lon": 0.0, "rental_uris": {"ios": "https://dc.lft.to/lastmile_qr_scan", "android": "https://dc.lft.to/lastmile_qr_scan"}, "is_disabled": 0, "is_reserved": 0, "name": "12eb89766b5c4fbd1e75466c53e1df04", "type": "electric_scooter", "fusion_lat": 0.0}, {"bike_id": "141eb39d0cb7e8a9e4b9d78bef077e30", "lon": -77.01461483333334, "lat": 38.926598, "fusion_lon": 0.0, "rental_uris": {"ios": "https://dc.lft.to/lastmile_qr_scan", "android": "https://dc.lft.to/lastmile_qr_scan"}, "is_disabled": 0, "is_reserved": 0, "name": "141eb39d0cb7e8a9e4b9d78bef077e30", "type": "electric_scooter", "fusion_lat": 0.0}, {"bike_id": "42fc72661de95abb5ba609c8bc5f2671", "lon": -76.93038416666667, "lat": 38.88381583333334, "fusion_lon": 0.0, "rental_uris": {"ios": "https://dc.lft.to/lastmile_qr_scan", "android": "https://dc.lft.to/lastmile_qr_scan"}, "is_disabled": 0, "is_reserved": 0, "name": "42fc72661de95abb5ba609c8bc5f2671", "type": "electric_scooter", "fusion_lat": 0.0}, {"bike_id": "d6def63d2012295de3f8ea9ba486b464", "lon": -77.09020316666667, "lat": 38.9362715, "fusion_lon": 0.0, "rental_uris": {"ios": "https://dc.lft.to/lastmile_qr_scan", "android": "https://dc.lft.to/lastmile_qr_scan"}, "is_disabled": 0, "is_reserved": 0, "name": "d6def63d2012295de3f8ea9ba486b464", "type": "electric_bike", "fusion_lat": 0.0}, {"bike_id": "18a7c3dcfb8819d7f4219ec5980d727d", "lon": -77.04176416666667, "lat": 38.90137033333333, "fusion_lon": 0.0, "rental_uris": {"ios": "https://dc.lft.to/lastmile_qr_scan", "android": "https://dc.lft.to/lastmile_qr_scan"}, "is_disabled": 0, "is_reserved": 0, "name": "18a7c3dcfb8819d7f4219ec5980d727d", "type": "electric_scooter", "fusion_lat": 0.0}, {"bike_id": "d8a7cf6d9eff4dbb820d521503c12368", "lon": -77.07044033333334, "lat": 38.801232, "fusion_lon": 0.0, "rental_uris": {"ios": "https://dc.lft.to/lastmile_qr_scan", "android": "https://dc.lft.to/lastmile_qr_scan"}, "is_disabled": 0, "is_reserved": 0, "name": "d8a7cf6d9eff4dbb820d521503c12368", "type": "electric_bike", "fusion_lat": 0.0}, {"bike_id": "761fb6d427cedea28fc009655d674553", "lon": -77.0280175, "lat": 38.93099383333333, "fusion_lon": 0.0, "rental_uris": {"ios": "https://dc.lft.to/lastmile_qr_scan", "android": "https://dc.lft.to/lastmile_qr_scan"}, "is_disabled": 0, "is_reserved": 0, "name": "761fb6d427cedea28fc009655d674553", "type": "electric_scooter", "fusion_lat": 0.0}, {"bike_id": "622fdf129842501af0a79d5b56a5b66c", "lon": -77.023529, "lat": 38.93528666666667, "fusion_lon": 0.0, "rental_uris": {"ios": "https://dc.lft.to/lastmile_qr_scan", "android": "https://dc.lft.to/lastmile_qr_scan"}, "is_disabled": 0, "is_reserved": 0, "name": "622fdf129842501af0a79d5b56a5b66c", "type": "electric_scooter", "fusion_lat": 0.0}, {"bike_id": "a70e3fbc71e71d9aed3d7ecc29f5ba02", "lon": -77.01672733333334, "lat": 38.920933833333336, "fusion_lon": 0.0, "rental_uris": {"ios": "https://dc.lft.to/lastmile_qr_scan", "android": "https://dc.lft.to/lastmile_qr_scan"}, "is_disabled": 0, "is_reserved": 0, "name": "a70e3fbc71e71d9aed3d7ecc29f5ba02", "type": "electric_scooter", "fusion_lat": 0.0}, {"bike_id": "d0bb2ce8739fea0d0b125d7bf4b3f7c2", "lon": -77.03134283333333, "lat": 38.892416833333336, "fusion_lon": 0.0, "rental_uris": {"ios": "https://dc.lft.to/lastmile_qr_scan", "android": "https://dc.lft.to/lastmile_qr_scan"}, "is_disabled": 0, "is_reserved": 0, "name": "d0bb2ce8739fea0d0b125d7bf4b3f7c2", "type": "electric_scooter", "fusion_lat": 0.0}, {"bike_id": "4ff73539435e0b4e9d2b999640fcb1c7", "lon": -76.9854105, "lat": 38.908853, "fusion_lon": 0.0, "rental_uris": {"ios": "https://dc.lft.to/lastmile_qr_scan", "android": "https://dc.lft.to/lastmile_qr_scan"}, "is_disabled": 0, "is_reserved": 0, "name": "4ff73539435e0b4e9d2b999640fcb1c7", "type": "electric_scooter", "fusion_lat": 0.0}, {"bike_id": "6ef3676ae31309b8c16fcbcbdd5eab97", "lon": -77.027299, "lat": 38.88744766666667, "fusion_lon": 0.0, "rental_uris": {"ios": "https://dc.lft.to/lastmile_qr_scan", "android": "https://dc.lft.to/lastmile_qr_scan"}, "is_disabled": 0, "is_reserved": 0, "name": "6ef3676ae31309b8c16fcbcbdd5eab97", "type": "electric_scooter", "fusion_lat": 0.0}, {"bike_id": "c9d6eb249f940a5de502d72388e4d16e", "lon": -77.041751, "lat": 38.917038166666664, "fusion_lon": 0.0, "rental_uris": {"ios": "https://dc.lft.to/lastmile_qr_scan", "android": "https://dc.lft.to/lastmile_qr_scan"}, "is_disabled": 0, "is_reserved": 0, "name": "c9d6eb249f940a5de502d72388e4d16e", "type": "electric_scooter", "fusion_lat": 0.0}, {"bike_id": "2370f2a60dc053ef4acf2a6d15c76fbb", "lon": -77.0045385, "lat": 38.876381333333335, "fusion_lon": 0.0, "rental_uris": {"ios": "https://dc.lft.to/lastmile_qr_scan", "android": "https://dc.lft.to/lastmile_qr_scan"}, "is_disabled": 0, "is_reserved": 0, "name": "2370f2a60dc053ef4acf2a6d15c76fbb", "type": "electric_scooter", "fusion_lat": 0.0}, {"bike_id": "76d326e07d2485da2f78c0107d1ac226", "lon": -77.02988266666667, "lat": 38.92039316666666, "fusion_lon": 0.0, "rental_uris": {"ios": "https://dc.lft.to/lastmile_qr_scan", "android": "https://dc.lft.to/lastmile_qr_scan"}, "is_disabled": 0, "is_reserved": 0, "name": "76d326e07d2485da2f78c0107d1ac226", "type": "electric_scooter", "fusion_lat": 0.0}, {"bike_id": "750d7c25e5c46b54a0336e1f01be6c59", "lon": -76.9851435, "lat": 38.90344316666667, "fusion_lon": 0.0, "rental_uris": {"ios": "https://dc.lft.to/lastmile_qr_scan", "android": "https://dc.lft.to/lastmile_qr_scan"}, "is_disabled": 0, "is_reserved": 0, "name": "750d7c25e5c46b54a0336e1f01be6c59", "type": "electric_scooter", "fusion_lat": 0.0}, {"bike_id": "f6ac68b11beb5d9a036fa57b77f5d311", "lon": -77.02209966666666, "lat": 38.915528, "fusion_lon": 0.0, "rental_uris": {"ios": "https://dc.lft.to/lastmile_qr_scan", "android": "https://dc.lft.to/lastmile_qr_scan"}, "is_disabled": 0, "is_reserved": 0, "name": "f6ac68b11beb5d9a036fa57b77f5d311", "type": "electric_scooter", "fusion_lat": 0.0}, {"bike_id": "a5279b39be17f255924bd520ed411dd9", "lon": -76.95466766666667, "lat": 38.88681283333333, "fusion_lon": 0.0, "rental_uris": {"ios": "https://dc.lft.to/lastmile_qr_scan", "android": "https://dc.lft.to/lastmile_qr_scan"}, "is_disabled": 0, "is_reserved": 0, "name": "a5279b39be17f255924bd520ed411dd9", "type": "electric_scooter", "fusion_lat": 0.0}, {"bike_id": "a45c76cd5b94315011063c6241423ebd", "lon": -76.97675266666667, "lat": 38.95249366666667, "fusion_lon": 0.0, "rental_uris": {"ios": "https://dc.lft.to/lastmile_qr_scan", "android": "https://dc.lft.to/lastmile_qr_scan"}, "is_disabled": 0, "is_reserved": 0, "name": "a45c76cd5b94315011063c6241423ebd", "type": "electric_bike", "fusion_lat": 0.0}, {"bike_id": "e3cea009d8af4299d9afc11f364121a9", "lon": -77.01517233333334, "lat": 38.9678005, "fusion_lon": 0.0, "rental_uris": {"ios": "https://dc.lft.to/lastmile_qr_scan", "android": "https://dc.lft.to/lastmile_qr_scan"}, "is_disabled": 0, "is_reserved": 0, "name": "e3cea009d8af4299d9afc11f364121a9", "type": "electric_scooter", "fusion_lat": 0.0}, {"bike_id": "b09749fa2ae690e5e897ca90cb147069", "lon": -77.0220745, "lat": 38.894063, "fusion_lon": 0.0, "rental_uris": {"ios": "https://dc.lft.to/lastmile_qr_scan", "android": "https://dc.lft.to/lastmile_qr_scan"}, "is_disabled": 0, "is_reserved": 0, "name": "b09749fa2ae690e5e897ca90cb147069", "type": "electric_scooter", "fusion_lat": 0.0}, {"bike_id": "3811be133a1c79d2f15c1b8edd59dd3f", "lon": -77.0101985, "lat": 38.906536833333334, "fusion_lon": 0.0, "rental_uris": {"ios": "https://dc.lft.to/lastmile_qr_scan", "android": "https://dc.lft.to/lastmile_qr_scan"}, "is_disabled": 0, "is_reserved": 0, "name": "3811be133a1c79d2f15c1b8edd59dd3f", "type": "electric_scooter", "fusion_lat": 0.0}, {"bike_id": "09483b61fab307ffbdbdd4dc61f6b8ba", "lon": -77.02215133333333, "lat": 38.92092433333333, "fusion_lon": 0.0, "rental_uris": {"ios": "https://dc.lft.to/lastmile_qr_scan", "android": "https://dc.lft.to/lastmile_qr_scan"}, "is_disabled": 0, "is_reserved": 0, "name": "09483b61fab307ffbdbdd4dc61f6b8ba", "type": "electric_scooter", "fusion_lat": 0.0}, {"bike_id": "f4a68c7f416af928531088e1ee329577", "lon": -77.04822416666667, "lat": 38.918767833333334, "fusion_lon": 0.0, "rental_uris": {"ios": "https://dc.lft.to/lastmile_qr_scan", "android": "https://dc.lft.to/lastmile_qr_scan"}, "is_disabled": 0, "is_reserved": 0, "name": "f4a68c7f416af928531088e1ee329577", "type": "electric_scooter", "fusion_lat": 0.0}, {"bike_id": "0c23129c39ecca805aaa0eee1c9c9de0", "lon": -77.08397983333333, "lat": 38.928922166666666, "fusion_lon": 0.0, "rental_uris": {"ios": "https://dc.lft.to/lastmile_qr_scan", "android": "https://dc.lft.to/lastmile_qr_scan"}, "is_disabled": 0, "is_reserved": 0, "name": "0c23129c39ecca805aaa0eee1c9c9de0", "type": "electric_bike", "fusion_lat": 0.0}, {"bike_id": "831468312fc9db94715171b2637fc7d3", "lon": -77.00710716666667, "lat": 38.946039666666664, "fusion_lon": 0.0, "rental_uris": {"ios": "https://dc.lft.to/lastmile_qr_scan", "android": "https://dc.lft.to/lastmile_qr_scan"}, "is_disabled": 0, "is_reserved": 0, "name": "831468312fc9db94715171b2637fc7d3", "type": "electric_bike", "fusion_lat": 0.0}, {"bike_id": "9e96cf4743030963f915a5aeb72af2d8", "lon": -76.99345983333333, "lat": 38.9000705, "fusion_lon": 0.0, "rental_uris": {"ios": "https://dc.lft.to/lastmile_qr_scan", "android": "https://dc.lft.to/lastmile_qr_scan"}, "is_disabled": 0, "is_reserved": 0, "name": "9e96cf4743030963f915a5aeb72af2d8", "type": "electric_scooter", "fusion_lat": 0.0}, {"bike_id": "eed384e60298a706373287ac8c81e8b7", "lon": -77.04019333333333, "lat": 38.91840216666667, "fusion_lon": 0.0, "rental_uris": {"ios": "https://dc.lft.to/lastmile_qr_scan", "android": "https://dc.lft.to/lastmile_qr_scan"}, "is_disabled": 0, "is_reserved": 0, "name": "eed384e60298a706373287ac8c81e8b7", "type": "electric_scooter", "fusion_lat": 0.0}, {"bike_id": "4e4b74d1ee128c39155020fef18d4ca9", "lon": -77.11787233333334, "lat": 39.054957, "fusion_lon": 0.0, "rental_uris": {"ios": "https://dc.lft.to/lastmile_qr_scan", "android": "https://dc.lft.to/lastmile_qr_scan"}, "is_disabled": 0, "is_reserved": 0, "name": "4e4b74d1ee128c39155020fef18d4ca9", "type": "electric_bike", "fusion_lat": 0.0}, {"bike_id": "7b5ab542aaf1a8c76468fcc5c3b245c9", "lon": -77.02065616666667, "lat": 38.92074566666667, "fusion_lon": 0.0, "rental_uris": {"ios": "https://dc.lft.to/lastmile_qr_scan", "android": "https://dc.lft.to/lastmile_qr_scan"}, "is_disabled": 0, "is_reserved": 0, "name": "7b5ab542aaf1a8c76468fcc5c3b245c9", "type": "electric_scooter", "fusion_lat": 0.0}, {"bike_id": "d90644e461dda545510eda625b24c7a0", "lon": -77.04007683333333, "lat": 38.91004366666667, "fusion_lon": 0.0, "rental_uris": {"ios": "https://dc.lft.to/lastmile_qr_scan", "android": "https://dc.lft.to/lastmile_qr_scan"}, "is_disabled": 0, "is_reserved": 0, "name": "d90644e461dda545510eda625b24c7a0", "type": "electric_scooter", "fusion_lat": 0.0}, {"bike_id": "1abf2cc669aa846e21940df7accdd1cd", "lon": -77.14526216666667, "lat": 39.080084666666664, "fusion_lon": 0.0, "rental_uris": {"ios": "https://dc.lft.to/lastmile_qr_scan", "android": "https://dc.lft.to/lastmile_qr_scan"}, "is_disabled": 0, "is_reserved": 0, "name": "1abf2cc669aa846e21940df7accdd1cd", "type": "electric_bike", "fusion_lat": 0.0}, {"bike_id": "73a68b3adaea1650f7388781b91eeeff", "lon": -76.95748983333333, "lat": 38.88460883333333, "fusion_lon": 0.0, "rental_uris": {"ios": "https://dc.lft.to/lastmile_qr_scan", "android": "https://dc.lft.to/lastmile_qr_scan"}, "is_disabled": 0, "is_reserved": 0, "name": "73a68b3adaea1650f7388781b91eeeff", "type": "electric_scooter", "fusion_lat": 0.0}, {"bike_id": "cdd43c9fc83ae376e6558da60aef6281", "lon": -77.00870683333333, "lat": 38.926609, "fusion_lon": 0.0, "rental_uris": {"ios": "https://dc.lft.to/lastmile_qr_scan", "android": "https://dc.lft.to/lastmile_qr_scan"}, "is_disabled": 0, "is_reserved": 0, "name": "cdd43c9fc83ae376e6558da60aef6281", "type": "electric_scooter", "fusion_lat": 0.0}, {"bike_id": "d3f9c030131c6c4cbed54f9c9ade9262", "lon": -77.05072033333333, "lat": 38.90050216666667, "fusion_lon": 0.0, "rental_uris": {"ios": "https://dc.lft.to/lastmile_qr_scan", "android": "https://dc.lft.to/lastmile_qr_scan"}, "is_disabled": 0, "is_reserved": 0, "name": "d3f9c030131c6c4cbed54f9c9ade9262", "type": "electric_scooter", "fusion_lat": 0.0}, {"bike_id": "60711e89639acc3fc13cb540122cfdff", "lon": -77.2230005, "lat": 38.913134166666666, "fusion_lon": 0.0, "rental_uris": {"ios": "https://dc.lft.to/lastmile_qr_scan", "android": "https://dc.lft.to/lastmile_qr_scan"}, "is_disabled": 0, "is_reserved": 0, "name": "60711e89639acc3fc13cb540122cfdff", "type": "electric_bike", "fusion_lat": 0.0}, {"bike_id": "100b0146dd5654aefc072711ea84b0af", "lon": -77.02497916666667, "lat": 38.94216616666667, "fusion_lon": 0.0, "rental_uris": {"ios": "https://dc.lft.to/lastmile_qr_scan", "android": "https://dc.lft.to/lastmile_qr_scan"}, "is_disabled": 0, "is_reserved": 0, "name": "100b0146dd5654aefc072711ea84b0af", "type": "electric_scooter", "fusion_lat": 0.0}, {"bike_id": "91cd7320aa1eaf69afa37603a510e568", "lon": -76.9906135, "lat": 38.863731, "fusion_lon": 0.0, "rental_uris": {"ios": "https://dc.lft.to/lastmile_qr_scan", "android": "https://dc.lft.to/lastmile_qr_scan"}, "is_disabled": 0, "is_reserved": 0, "name": "91cd7320aa1eaf69afa37603a510e568", "type": "electric_scooter", "fusion_lat": 0.0}, {"bike_id": "41143982e543ca01e1a63d007fedf26a", "lon": -76.990331, "lat": 38.88865333333333, "fusion_lon": 0.0, "rental_uris": {"ios": "https://dc.lft.to/lastmile_qr_scan", "android": "https://dc.lft.to/lastmile_qr_scan"}, "is_disabled": 0, "is_reserved": 0, "name": "41143982e543ca01e1a63d007fedf26a", "type": "electric_scooter", "fusion_lat": 0.0}, {"bike_id": "83919c35236e24469ebc34e90c72ab7f", "lon": -77.02718666666667, "lat": 38.9409115, "fusion_lon": 0.0, "rental_uris": {"ios": "https://dc.lft.to/lastmile_qr_scan", "android": "https://dc.lft.to/lastmile_qr_scan"}, "is_disabled": 0, "is_reserved": 0, "name": "83919c35236e24469ebc34e90c72ab7f", "type": "electric_scooter", "fusion_lat": 0.0}, {"bike_id": "6670d72b6cc7a0f4fcbe759301aae959", "lon": -77.029576, "lat": 38.914191833333334, "fusion_lon": 0.0, "rental_uris": {"ios": "https://dc.lft.to/lastmile_qr_scan", "android": "https://dc.lft.to/lastmile_qr_scan"}, "is_disabled": 0, "is_reserved": 0, "name": "6670d72b6cc7a0f4fcbe759301aae959", "type": "electric_scooter", "fusion_lat": 0.0}, {"bike_id": "8a563b4097fe9dabcb91e4b17af08941", "lon": -76.97741716666667, "lat": 38.87168916666667, "fusion_lon": 0.0, "rental_uris": {"ios": "https://dc.lft.to/lastmile_qr_scan", "android": "https://dc.lft.to/lastmile_qr_scan"}, "is_disabled": 0, "is_reserved": 0, "name": "8a563b4097fe9dabcb91e4b17af08941", "type": "electric_scooter", "fusion_lat": 0.0}, {"bike_id": "f558695575eab68a3c6b8073cf242c6d", "lon": -77.03954033333333, "lat": 38.91492516666667, "fusion_lon": 0.0, "rental_uris": {"ios": "https://dc.lft.to/lastmile_qr_scan", "android": "https://dc.lft.to/lastmile_qr_scan"}, "is_disabled": 0, "is_reserved": 0, "name": "f558695575eab68a3c6b8073cf242c6d", "type": "electric_scooter", "fusion_lat": 0.0}, {"bike_id": "3f8b8138e62040c7c39b049431542f8c", "lon": -77.03848116666667, "lat": 38.90666566666667, "fusion_lon": 0.0, "rental_uris": {"ios": "https://dc.lft.to/lastmile_qr_scan", "android": "https://dc.lft.to/lastmile_qr_scan"}, "is_disabled": 0, "is_reserved": 0, "name": "3f8b8138e62040c7c39b049431542f8c", "type": "electric_scooter", "fusion_lat": 0.0}, {"bike_id": "cd9d08437cf17ddd4935a1ff6ca86f58", "lon": -77.020807, "lat": 38.921384333333336, "fusion_lon": 0.0, "rental_uris": {"ios": "https://dc.lft.to/lastmile_qr_scan", "android": "https://dc.lft.to/lastmile_qr_scan"}, "is_disabled": 0, "is_reserved": 0, "name": "cd9d08437cf17ddd4935a1ff6ca86f58", "type": "electric_scooter", "fusion_lat": 0.0}, {"bike_id": "3150494f5789bac52f92e81283b4bac4", "lon": -77.0649235, "lat": 38.910164333333334, "fusion_lon": 0.0, "rental_uris": {"ios": "https://dc.lft.to/lastmile_qr_scan", "android": "https://dc.lft.to/lastmile_qr_scan"}, "is_disabled": 0, "is_reserved": 0, "name": "3150494f5789bac52f92e81283b4bac4", "type": "electric_scooter", "fusion_lat": 0.0}, {"bike_id": "fb8be14c649ab603c262f99644c5c31a", "lon": -77.030985, "lat": 38.93385033333333, "fusion_lon": 0.0, "rental_uris": {"ios": "https://dc.lft.to/lastmile_qr_scan", "android": "https://dc.lft.to/lastmile_qr_scan"}, "is_disabled": 0, "is_reserved": 0, "name": "fb8be14c649ab603c262f99644c5c31a", "type": "electric_scooter", "fusion_lat": 0.0}, {"bike_id": "8322c13c8a975948fe11e1f8548b2478", "lon": -76.98054116666667, "lat": 38.90142933333333, "fusion_lon": 0.0, "rental_uris": {"ios": "https://dc.lft.to/lastmile_qr_scan", "android": "https://dc.lft.to/lastmile_qr_scan"}, "is_disabled": 0, "is_reserved": 0, "name": "8322c13c8a975948fe11e1f8548b2478", "type": "electric_scooter", "fusion_lat": 0.0}, {"bike_id": "39540b188b2a7456df02be481ed2ef47", "lon": -77.01138333333333, "lat": 38.907327333333335, "fusion_lon": 0.0, "rental_uris": {"ios": "https://dc.lft.to/lastmile_qr_scan", "android": "https://dc.lft.to/lastmile_qr_scan"}, "is_disabled": 0, "is_reserved": 0, "name": "39540b188b2a7456df02be481ed2ef47", "type": "electric_scooter", "fusion_lat": 0.0}, {"bike_id": "55f17b9bd7321ec66eef6b6e8a93637d", "lon": -77.01626266666666, "lat": 38.90171183333333, "fusion_lon": 0.0, "rental_uris": {"ios": "https://dc.lft.to/lastmile_qr_scan", "android": "https://dc.lft.to/lastmile_qr_scan"}, "is_disabled": 0, "is_reserved": 0, "name": "55f17b9bd7321ec66eef6b6e8a93637d", "type": "electric_scooter", "fusion_lat": 0.0}, {"bike_id": "f82da6e89edee8e1252b234030bedb22", "lon": -77.088564, "lat": 38.93361383333333, "fusion_lon": 0.0, "rental_uris": {"ios": "https://dc.lft.to/lastmile_qr_scan", "android": "https://dc.lft.to/lastmile_qr_scan"}, "is_disabled": 0, "is_reserved": 0, "name": "f82da6e89edee8e1252b234030bedb22", "type": "electric_scooter", "fusion_lat": 0.0}, {"bike_id": "515f8ab0f3097ca9553f9a37eeab7830", "lon": -76.99131766666666, "lat": 38.8891535, "fusion_lon": 0.0, "rental_uris": {"ios": "https://dc.lft.to/lastmile_qr_scan", "android": "https://dc.lft.to/lastmile_qr_scan"}, "is_disabled": 0, "is_reserved": 0, "name": "515f8ab0f3097ca9553f9a37eeab7830", "type": "electric_scooter", "fusion_lat": 0.0}, {"bike_id": "f0cb708a98fe8aa09c29074039eb97de", "lon": -76.97223916666667, "lat": 38.900361833333335, "fusion_lon": 0.0, "rental_uris": {"ios": "https://dc.lft.to/lastmile_qr_scan", "android": "https://dc.lft.to/lastmile_qr_scan"}, "is_disabled": 0, "is_reserved": 0, "name": "f0cb708a98fe8aa09c29074039eb97de", "type": "electric_bike", "fusion_lat": 0.0}, {"bike_id": "fffbd0c29fc6b99097b71641ff3547aa", "lon": -77.0337355, "lat": 38.9451235, "fusion_lon": 0.0, "rental_uris": {"ios": "https://dc.lft.to/lastmile_qr_scan", "android": "https://dc.lft.to/lastmile_qr_scan"}, "is_disabled": 0, "is_reserved": 0, "name": "fffbd0c29fc6b99097b71641ff3547aa", "type": "electric_scooter", "fusion_lat": 0.0}, {"bike_id": "d7eeeee824dbd3b522a924f0d4518fb3", "lon": -77.03078366666666, "lat": 39.04231216666667, "fusion_lon": 0.0, "rental_uris": {"ios": "https://dc.lft.to/lastmile_qr_scan", "android": "https://dc.lft.to/lastmile_qr_scan"}, "is_disabled": 0, "is_reserved": 0, "name": "d7eeeee824dbd3b522a924f0d4518fb3", "type": "electric_bike", "fusion_lat": 0.0}, {"bike_id": "5157db0b7c579cb81a394a96374e0405", "lon": -77.00203183333333, "lat": 38.873706, "fusion_lon": 0.0, "rental_uris": {"ios": "https://dc.lft.to/lastmile_qr_scan", "android": "https://dc.lft.to/lastmile_qr_scan"}, "is_disabled": 0, "is_reserved": 0, "name": "5157db0b7c579cb81a394a96374e0405", "type": "electric_scooter", "fusion_lat": 0.0}, {"bike_id": "d5fdbac7d41b606d9a670447f0eae6be", "lon": -77.01225416666666, "lat": 38.869777166666665, "fusion_lon": 0.0, "rental_uris": {"ios": "https://dc.lft.to/lastmile_qr_scan", "android": "https://dc.lft.to/lastmile_qr_scan"}, "is_disabled": 0, "is_reserved": 0, "name": "d5fdbac7d41b606d9a670447f0eae6be", "type": "electric_scooter", "fusion_lat": 0.0}, {"bike_id": "b3e654a7111080c11cebed76357d048d", "lon": -76.965086, "lat": 38.876476333333336, "fusion_lon": 0.0, "rental_uris": {"ios": "https://dc.lft.to/lastmile_qr_scan", "android": "https://dc.lft.to/lastmile_qr_scan"}, "is_disabled": 0, "is_reserved": 0, "name": "b3e654a7111080c11cebed76357d048d", "type": "electric_scooter", "fusion_lat": 0.0}, {"bike_id": "20595e981aba0366c6ba04a13b28261d", "lon": -76.9995535, "lat": 38.90321633333333, "fusion_lon": 0.0, "rental_uris": {"ios": "https://dc.lft.to/lastmile_qr_scan", "android": "https://dc.lft.to/lastmile_qr_scan"}, "is_disabled": 0, "is_reserved": 0, "name": "20595e981aba0366c6ba04a13b28261d", "type": "electric_scooter", "fusion_lat": 0.0}, {"bike_id": "00563cf1d91a47c0bf4a64b9aa15086d", "lon": -77.020234, "lat": 38.9244425, "fusion_lon": 0.0, "rental_uris": {"ios": "https://dc.lft.to/lastmile_qr_scan", "android": "https://dc.lft.to/lastmile_qr_scan"}, "is_disabled": 0, "is_reserved": 0, "name": "00563cf1d91a47c0bf4a64b9aa15086d", "type": "electric_scooter", "fusion_lat": 0.0}, {"bike_id": "336d88bba9015f4f39ee98d1858c823f", "lon": -76.99352366666666, "lat": 38.95504966666667, "fusion_lon": 0.0, "rental_uris": {"ios": "https://dc.lft.to/lastmile_qr_scan", "android": "https://dc.lft.to/lastmile_qr_scan"}, "is_disabled": 0, "is_reserved": 0, "name": "336d88bba9015f4f39ee98d1858c823f", "type": "electric_bike", "fusion_lat": 0.0}, {"bike_id": "9a01aa3d3720d6afdb09d685eda1c77b", "lon": -77.02887733333333, "lat": 38.91949566666667, "fusion_lon": 0.0, "rental_uris": {"ios": "https://dc.lft.to/lastmile_qr_scan", "android": "https://dc.lft.to/lastmile_qr_scan"}, "is_disabled": 0, "is_reserved": 0, "name": "9a01aa3d3720d6afdb09d685eda1c77b", "type": "electric_scooter", "fusion_lat": 0.0}, {"bike_id": "79abef975e2fe6b37b69708d2e4a8a6d", "lon": -77.043081, "lat": 38.89220816666667, "fusion_lon": 0.0, "rental_uris": {"ios": "https://dc.lft.to/lastmile_qr_scan", "android": "https://dc.lft.to/lastmile_qr_scan"}, "is_disabled": 0, "is_reserved": 0, "name": "79abef975e2fe6b37b69708d2e4a8a6d", "type": "electric_scooter", "fusion_lat": 0.0}, {"bike_id": "6baa47d012382c5f24738873a85049f6", "lon": -77.015124, "lat": 38.958359333333334, "fusion_lon": 0.0, "rental_uris": {"ios": "https://dc.lft.to/lastmile_qr_scan", "android": "https://dc.lft.to/lastmile_qr_scan"}, "is_disabled": 0, "is_reserved": 0, "name": "6baa47d012382c5f24738873a85049f6", "type": "electric_scooter", "fusion_lat": 0.0}, {"bike_id": "60662f5714b079c87ff2c4d676abd9cd", "lon": -77.01229483333333, "lat": 38.90032216666667, "fusion_lon": 0.0, "rental_uris": {"ios": "https://dc.lft.to/lastmile_qr_scan", "android": "https://dc.lft.to/lastmile_qr_scan"}, "is_disabled": 0, "is_reserved": 0, "name": "60662f5714b079c87ff2c4d676abd9cd", "type": "electric_scooter", "fusion_lat": 0.0}, {"bike_id": "a420d9673023c169cb80d85d9ed28f55", "lon": -77.02524133333333, "lat": 38.92141783333334, "fusion_lon": 0.0, "rental_uris": {"ios": "https://dc.lft.to/lastmile_qr_scan", "android": "https://dc.lft.to/lastmile_qr_scan"}, "is_disabled": 0, "is_reserved": 0, "name": "a420d9673023c169cb80d85d9ed28f55", "type": "electric_scooter", "fusion_lat": 0.0}, {"bike_id": "cef3a0eb16deb6593ef444cd946d4854", "lon": -77.027182, "lat": 38.9513645, "fusion_lon": 0.0, "rental_uris": {"ios": "https://dc.lft.to/lastmile_qr_scan", "android": "https://dc.lft.to/lastmile_qr_scan"}, "is_disabled": 0, "is_reserved": 0, "name": "cef3a0eb16deb6593ef444cd946d4854", "type": "electric_scooter", "fusion_lat": 0.0}, {"bike_id": "fff6bad283ee4f1b3979461a118b8cad", "lon": -77.027616, "lat": 38.9561315, "fusion_lon": 0.0, "rental_uris": {"ios": "https://dc.lft.to/lastmile_qr_scan", "android": "https://dc.lft.to/lastmile_qr_scan"}, "is_disabled": 0, "is_reserved": 0, "name": "fff6bad283ee4f1b3979461a118b8cad", "type": "electric_scooter", "fusion_lat": 0.0}, {"bike_id": "f074d5a987e1a0329c923bf772defb6d", "lon": -77.0319405, "lat": 38.93049033333333, "fusion_lon": 0.0, "rental_uris": {"ios": "https://dc.lft.to/lastmile_qr_scan", "android": "https://dc.lft.to/lastmile_qr_scan"}, "is_disabled": 0, "is_reserved": 0, "name": "f074d5a987e1a0329c923bf772defb6d", "type": "electric_scooter", "fusion_lat": 0.0}, {"bike_id": "e1c1cbf7e088d6f7f956912efcb46d47", "lon": -77.02491866666666, "lat": 38.89928583333333, "fusion_lon": 0.0, "rental_uris": {"ios": "https://dc.lft.to/lastmile_qr_scan", "android": "https://dc.lft.to/lastmile_qr_scan"}, "is_disabled": 0, "is_reserved": 0, "name": "e1c1cbf7e088d6f7f956912efcb46d47", "type": "electric_scooter", "fusion_lat": 0.0}, {"bike_id": "b7605f304d1d9fd2150e404d9be9624b", "lon": -77.0208355, "lat": 38.921543666666665, "fusion_lon": 0.0, "rental_uris": {"ios": "https://dc.lft.to/lastmile_qr_scan", "android": "https://dc.lft.to/lastmile_qr_scan"}, "is_disabled": 0, "is_reserved": 0, "name": "b7605f304d1d9fd2150e404d9be9624b", "type": "electric_scooter", "fusion_lat": 0.0}, {"bike_id": "7fd9ac986770bf819a7884a02566dc3b", "lon": -77.05907466666666, "lat": 38.902783666666664, "fusion_lon": 0.0, "rental_uris": {"ios": "https://dc.lft.to/lastmile_qr_scan", "android": "https://dc.lft.to/lastmile_qr_scan"}, "is_disabled": 0, "is_reserved": 0, "name": "7fd9ac986770bf819a7884a02566dc3b", "type": "electric_scooter", "fusion_lat": 0.0}, {"bike_id": "1025160c1820695aac6e90eff8542916", "lon": -77.04338583333333, "lat": 38.92155733333333, "fusion_lon": 0.0, "rental_uris": {"ios": "https://dc.lft.to/lastmile_qr_scan", "android": "https://dc.lft.to/lastmile_qr_scan"}, "is_disabled": 0, "is_reserved": 0, "name": "1025160c1820695aac6e90eff8542916", "type": "electric_scooter", "fusion_lat": 0.0}, {"bike_id": "de12f8f02b9d8341ccbc5d42c93a1e8c", "lon": -77.02148983333333, "lat": 38.924445666666664, "fusion_lon": 0.0, "rental_uris": {"ios": "https://dc.lft.to/lastmile_qr_scan", "android": "https://dc.lft.to/lastmile_qr_scan"}, "is_disabled": 0, "is_reserved": 0, "name": "de12f8f02b9d8341ccbc5d42c93a1e8c", "type": "electric_scooter", "fusion_lat": 0.0}, {"bike_id": "ca7fb6238fd938d9d638e31225461544", "lon": -77.07162916666667, "lat": 38.90870866666667, "fusion_lon": 0.0, "rental_uris": {"ios": "https://dc.lft.to/lastmile_qr_scan", "android": "https://dc.lft.to/lastmile_qr_scan"}, "is_disabled": 0, "is_reserved": 0, "name": "ca7fb6238fd938d9d638e31225461544", "type": "electric_scooter", "fusion_lat": 0.0}, {"bike_id": "14676b2320d207991d2b267d02e447d3", "lon": -77.02396516666667, "lat": 38.934316, "fusion_lon": 0.0, "rental_uris": {"ios": "https://dc.lft.to/lastmile_qr_scan", "android": "https://dc.lft.to/lastmile_qr_scan"}, "is_disabled": 0, "is_reserved": 0, "name": "14676b2320d207991d2b267d02e447d3", "type": "electric_bike", "fusion_lat": 0.0}, {"bike_id": "bac7a182a5d8904e6dc894dfba58f78a", "lon": -77.12357583333333, "lat": 38.82949416666666, "fusion_lon": 0.0, "rental_uris": {"ios": "https://dc.lft.to/lastmile_qr_scan", "android": "https://dc.lft.to/lastmile_qr_scan"}, "is_disabled": 0, "is_reserved": 0, "name": "bac7a182a5d8904e6dc894dfba58f78a", "type": "electric_bike", "fusion_lat": 0.0}, {"bike_id": "e34824807ab1cadc298f90592ca37211", "lon": -77.03802433333334, "lat": 38.9361025, "fusion_lon": 0.0, "rental_uris": {"ios": "https://dc.lft.to/lastmile_qr_scan", "android": "https://dc.lft.to/lastmile_qr_scan"}, "is_disabled": 0, "is_reserved": 0, "name": "e34824807ab1cadc298f90592ca37211", "type": "electric_scooter", "fusion_lat": 0.0}, {"bike_id": "1ec4c1d08a53227cc5285eebaaed9125", "lon": -76.989377, "lat": 38.920440666666664, "fusion_lon": 0.0, "rental_uris": {"ios": "https://dc.lft.to/lastmile_qr_scan", "android": "https://dc.lft.to/lastmile_qr_scan"}, "is_disabled": 0, "is_reserved": 0, "name": "1ec4c1d08a53227cc5285eebaaed9125", "type": "electric_scooter", "fusion_lat": 0.0}, {"bike_id": "4711e8781b891031badfbe1050401979", "lon": -77.02238466666667, "lat": 38.911154333333336, "fusion_lon": 0.0, "rental_uris": {"ios": "https://dc.lft.to/lastmile_qr_scan", "android": "https://dc.lft.to/lastmile_qr_scan"}, "is_disabled": 0, "is_reserved": 0, "name": "4711e8781b891031badfbe1050401979", "type": "electric_scooter", "fusion_lat": 0.0}, {"bike_id": "eec16982d12fe99c54a2de7ca45a6b7f", "lon": -77.0413465, "lat": 38.923701, "fusion_lon": 0.0, "rental_uris": {"ios": "https://dc.lft.to/lastmile_qr_scan", "android": "https://dc.lft.to/lastmile_qr_scan"}, "is_disabled": 0, "is_reserved": 0, "name": "eec16982d12fe99c54a2de7ca45a6b7f", "type": "electric_scooter", "fusion_lat": 0.0}, {"bike_id": "1e40eb9637b950cec653f8f8b1cac43c", "lon": -76.99485983333334, "lat": 38.862187666666664, "fusion_lon": 0.0, "rental_uris": {"ios": "https://dc.lft.to/lastmile_qr_scan", "android": "https://dc.lft.to/lastmile_qr_scan"}, "is_disabled": 0, "is_reserved": 0, "name": "1e40eb9637b950cec653f8f8b1cac43c", "type": "electric_scooter", "fusion_lat": 0.0}, {"bike_id": "f1889238173649bdcdbcd8044ee4f914", "lon": -77.03943916666667, "lat": 38.90042433333333, "fusion_lon": 0.0, "rental_uris": {"ios": "https://dc.lft.to/lastmile_qr_scan", "android": "https://dc.lft.to/lastmile_qr_scan"}, "is_disabled": 0, "is_reserved": 0, "name": "f1889238173649bdcdbcd8044ee4f914", "type": "electric_scooter", "fusion_lat": 0.0}, {"bike_id": "79e559b90a38d097dd9074ec495f4e70", "lon": -77.01743316666666, "lat": 38.90247383333333, "fusion_lon": 0.0, "rental_uris": {"ios": "https://dc.lft.to/lastmile_qr_scan", "android": "https://dc.lft.to/lastmile_qr_scan"}, "is_disabled": 0, "is_reserved": 0, "name": "79e559b90a38d097dd9074ec495f4e70", "type": "electric_scooter", "fusion_lat": 0.0}, {"bike_id": "77636446f8aecf378cf2187167a14747", "lon": -77.036703, "lat": 38.92124233333333, "fusion_lon": 0.0, "rental_uris": {"ios": "https://dc.lft.to/lastmile_qr_scan", "android": "https://dc.lft.to/lastmile_qr_scan"}, "is_disabled": 0, "is_reserved": 0, "name": "77636446f8aecf378cf2187167a14747", "type": "electric_scooter", "fusion_lat": 0.0}, {"bike_id": "0b644688556ae87e0d6250a094ae99ed", "lon": -77.03207433333333, "lat": 38.914523, "fusion_lon": 0.0, "rental_uris": {"ios": "https://dc.lft.to/lastmile_qr_scan", "android": "https://dc.lft.to/lastmile_qr_scan"}, "is_disabled": 0, "is_reserved": 0, "name": "0b644688556ae87e0d6250a094ae99ed", "type": "electric_scooter", "fusion_lat": 0.0}, {"bike_id": "e89e2a1c4977efd8c886823de7bf35f1", "lon": -77.04005183333334, "lat": 38.910057, "fusion_lon": 0.0, "rental_uris": {"ios": "https://dc.lft.to/lastmile_qr_scan", "android": "https://dc.lft.to/lastmile_qr_scan"}, "is_disabled": 0, "is_reserved": 0, "name": "e89e2a1c4977efd8c886823de7bf35f1", "type": "electric_scooter", "fusion_lat": 0.0}, {"bike_id": "59b3848ec6a27b17d133e8b68e276b11", "lon": -77.02692166666667, "lat": 38.9010175, "fusion_lon": 0.0, "rental_uris": {"ios": "https://dc.lft.to/lastmile_qr_scan", "android": "https://dc.lft.to/lastmile_qr_scan"}, "is_disabled": 0, "is_reserved": 0, "name": "59b3848ec6a27b17d133e8b68e276b11", "type": "electric_scooter", "fusion_lat": 0.0}, {"bike_id": "c7f6c9c9964f928d5e7e0966c63239a2", "lon": -77.03845033333333, "lat": 38.903106333333334, "fusion_lon": 0.0, "rental_uris": {"ios": "https://dc.lft.to/lastmile_qr_scan", "android": "https://dc.lft.to/lastmile_qr_scan"}, "is_disabled": 0, "is_reserved": 0, "name": "c7f6c9c9964f928d5e7e0966c63239a2", "type": "electric_scooter", "fusion_lat": 0.0}, {"bike_id": "b2208edb98a0d4a1771e90f46b2f98fc", "lon": -77.00540716666667, "lat": 38.8746075, "fusion_lon": 0.0, "rental_uris": {"ios": "https://dc.lft.to/lastmile_qr_scan", "android": "https://dc.lft.to/lastmile_qr_scan"}, "is_disabled": 0, "is_reserved": 0, "name": "b2208edb98a0d4a1771e90f46b2f98fc", "type": "electric_scooter", "fusion_lat": 0.0}, {"bike_id": "abcfb9e3106c4688032d5a43aaedfca0", "lon": -77.0321465, "lat": 38.92009866666667, "fusion_lon": 0.0, "rental_uris": {"ios": "https://dc.lft.to/lastmile_qr_scan", "android": "https://dc.lft.to/lastmile_qr_scan"}, "is_disabled": 0, "is_reserved": 0, "name": "abcfb9e3106c4688032d5a43aaedfca0", "type": "electric_scooter", "fusion_lat": 0.0}, {"bike_id": "2045be78fb2aaa51d0abfd40df8156b5", "lon": -77.02493733333333, "lat": 38.90651533333333, "fusion_lon": 0.0, "rental_uris": {"ios": "https://dc.lft.to/lastmile_qr_scan", "android": "https://dc.lft.to/lastmile_qr_scan"}, "is_disabled": 0, "is_reserved": 0, "name": "2045be78fb2aaa51d0abfd40df8156b5", "type": "electric_scooter", "fusion_lat": 0.0}, {"bike_id": "b3a8d0d715808bdf2aa84097f34fc01f", "lon": -76.97305083333333, "lat": 38.91990116666667, "fusion_lon": 0.0, "rental_uris": {"ios": "https://dc.lft.to/lastmile_qr_scan", "android": "https://dc.lft.to/lastmile_qr_scan"}, "is_disabled": 0, "is_reserved": 0, "name": "b3a8d0d715808bdf2aa84097f34fc01f", "type": "electric_scooter", "fusion_lat": 0.0}, {"bike_id": "e5d6402baa624bece7971ab110c8dee5", "lon": -77.03835383333333, "lat": 38.90777966666667, "fusion_lon": 0.0, "rental_uris": {"ios": "https://dc.lft.to/lastmile_qr_scan", "android": "https://dc.lft.to/lastmile_qr_scan"}, "is_disabled": 0, "is_reserved": 0, "name": "e5d6402baa624bece7971ab110c8dee5", "type": "electric_scooter", "fusion_lat": 0.0}, {"bike_id": "2c757358a39025bb41e4985b30b1867b", "lon": -77.0249815, "lat": 38.919207666666665, "fusion_lon": 0.0, "rental_uris": {"ios": "https://dc.lft.to/lastmile_qr_scan", "android": "https://dc.lft.to/lastmile_qr_scan"}, "is_disabled": 0, "is_reserved": 0, "name": "2c757358a39025bb41e4985b30b1867b", "type": "electric_scooter", "fusion_lat": 0.0}, {"bike_id": "0871639a5041926da236be92c2e82990", "lon": -77.04287033333334, "lat": 38.922931166666665, "fusion_lon": 0.0, "rental_uris": {"ios": "https://dc.lft.to/lastmile_qr_scan", "android": "https://dc.lft.to/lastmile_qr_scan"}, "is_disabled": 0, "is_reserved": 0, "name": "0871639a5041926da236be92c2e82990", "type": "electric_scooter", "fusion_lat": 0.0}, {"bike_id": "bbfb38f01a42ef837bbdd076ee560858", "lon": -76.98574916666666, "lat": 38.914859, "fusion_lon": 0.0, "rental_uris": {"ios": "https://dc.lft.to/lastmile_qr_scan", "android": "https://dc.lft.to/lastmile_qr_scan"}, "is_disabled": 0, "is_reserved": 0, "name": "bbfb38f01a42ef837bbdd076ee560858", "type": "electric_scooter", "fusion_lat": 0.0}, {"bike_id": "5e52063c12759245b101da09b47eb861", "lon": -77.0333515, "lat": 38.9211245, "fusion_lon": 0.0, "rental_uris": {"ios": "https://dc.lft.to/lastmile_qr_scan", "android": "https://dc.lft.to/lastmile_qr_scan"}, "is_disabled": 0, "is_reserved": 0, "name": "5e52063c12759245b101da09b47eb861", "type": "electric_scooter", "fusion_lat": 0.0}, {"bike_id": "fb5c165fb21e0255c5e54b70491d7fc2", "lon": -77.05074316666666, "lat": 38.9235545, "fusion_lon": 0.0, "rental_uris": {"ios": "https://dc.lft.to/lastmile_qr_scan", "android": "https://dc.lft.to/lastmile_qr_scan"}, "is_disabled": 0, "is_reserved": 0, "name": "fb5c165fb21e0255c5e54b70491d7fc2", "type": "electric_scooter", "fusion_lat": 0.0}, {"bike_id": "1429e5fb39832df4f74f4e5a45715ed2", "lon": -77.01303466666667, "lat": 38.92999233333333, "fusion_lon": 0.0, "rental_uris": {"ios": "https://dc.lft.to/lastmile_qr_scan", "android": "https://dc.lft.to/lastmile_qr_scan"}, "is_disabled": 0, "is_reserved": 0, "name": "1429e5fb39832df4f74f4e5a45715ed2", "type": "electric_scooter", "fusion_lat": 0.0}, {"bike_id": "78a5c23009dc5dbd48d9ff02187d84a6", "lon": -77.043769, "lat": 38.892186833333334, "fusion_lon": 0.0, "rental_uris": {"ios": "https://dc.lft.to/lastmile_qr_scan", "android": "https://dc.lft.to/lastmile_qr_scan"}, "is_disabled": 0, "is_reserved": 0, "name": "78a5c23009dc5dbd48d9ff02187d84a6", "type": "electric_scooter", "fusion_lat": 0.0}, {"bike_id": "c92ddbdb7ff79411065df1d56cb70234", "lon": -77.01218266666666, "lat": 38.917581166666665, "fusion_lon": 0.0, "rental_uris": {"ios": "https://dc.lft.to/lastmile_qr_scan", "android": "https://dc.lft.to/lastmile_qr_scan"}, "is_disabled": 0, "is_reserved": 0, "name": "c92ddbdb7ff79411065df1d56cb70234", "type": "electric_scooter", "fusion_lat": 0.0}, {"bike_id": "a07b5dbc064be0c82323245a7a9f7086", "lon": -76.99802866666667, "lat": 38.90530033333334, "fusion_lon": 0.0, "rental_uris": {"ios": "https://dc.lft.to/lastmile_qr_scan", "android": "https://dc.lft.to/lastmile_qr_scan"}, "is_disabled": 0, "is_reserved": 0, "name": "a07b5dbc064be0c82323245a7a9f7086", "type": "electric_bike", "fusion_lat": 0.0}, {"bike_id": "aa6532c06fae8186ad5ec319904a9836", "lon": -76.98262666666666, "lat": 38.866377, "fusion_lon": 0.0, "rental_uris": {"ios": "https://dc.lft.to/lastmile_qr_scan", "android": "https://dc.lft.to/lastmile_qr_scan"}, "is_disabled": 0, "is_reserved": 0, "name": "aa6532c06fae8186ad5ec319904a9836", "type": "electric_scooter", "fusion_lat": 0.0}, {"bike_id": "a7fc8cea87788ff7af0f4fd958c812d3", "lon": -77.005823, "lat": 38.87646383333333, "fusion_lon": 0.0, "rental_uris": {"ios": "https://dc.lft.to/lastmile_qr_scan", "android": "https://dc.lft.to/lastmile_qr_scan"}, "is_disabled": 0, "is_reserved": 0, "name": "a7fc8cea87788ff7af0f4fd958c812d3", "type": "electric_scooter", "fusion_lat": 0.0}, {"bike_id": "257af7b537eb0bbf0ba7fe06b76e4610", "lon": -77.03331, "lat": 38.949964, "fusion_lon": 0.0, "rental_uris": {"ios": "https://dc.lft.to/lastmile_qr_scan", "android": "https://dc.lft.to/lastmile_qr_scan"}, "is_disabled": 0, "is_reserved": 0, "name": "257af7b537eb0bbf0ba7fe06b76e4610", "type": "electric_scooter", "fusion_lat": 0.0}, {"bike_id": "9dae017a7d068bf3b87cba05c8edf19c", "lon": -77.00139116666666, "lat": 38.894723166666665, "fusion_lon": 0.0, "rental_uris": {"ios": "https://dc.lft.to/lastmile_qr_scan", "android": "https://dc.lft.to/lastmile_qr_scan"}, "is_disabled": 0, "is_reserved": 0, "name": "9dae017a7d068bf3b87cba05c8edf19c", "type": "electric_scooter", "fusion_lat": 0.0}, {"bike_id": "36d589a9d7e20153bcf57db4a77eb29a", "lon": -77.04053, "lat": 38.92548466666667, "fusion_lon": 0.0, "rental_uris": {"ios": "https://dc.lft.to/lastmile_qr_scan", "android": "https://dc.lft.to/lastmile_qr_scan"}, "is_disabled": 0, "is_reserved": 0, "name": "36d589a9d7e20153bcf57db4a77eb29a", "type": "electric_scooter", "fusion_lat": 0.0}, {"bike_id": "79f413e7fa53cf8c3462bc43604ceb8e", "lon": -77.0251085, "lat": 38.942078, "fusion_lon": 0.0, "rental_uris": {"ios": "https://dc.lft.to/lastmile_qr_scan", "android": "https://dc.lft.to/lastmile_qr_scan"}, "is_disabled": 0, "is_reserved": 0, "name": "79f413e7fa53cf8c3462bc43604ceb8e", "type": "electric_scooter", "fusion_lat": 0.0}, {"bike_id": "cdf47709ffcba966a743c111975ae895", "lon": -77.0321515, "lat": 38.916289, "fusion_lon": 0.0, "rental_uris": {"ios": "https://dc.lft.to/lastmile_qr_scan", "android": "https://dc.lft.to/lastmile_qr_scan"}, "is_disabled": 0, "is_reserved": 0, "name": "cdf47709ffcba966a743c111975ae895", "type": "electric_scooter", "fusion_lat": 0.0}, {"bike_id": "04923e64a46f208b5e819cf45a1d53c5", "lon": -77.0153835, "lat": 38.94128283333333, "fusion_lon": 0.0, "rental_uris": {"ios": "https://dc.lft.to/lastmile_qr_scan", "android": "https://dc.lft.to/lastmile_qr_scan"}, "is_disabled": 0, "is_reserved": 0, "name": "04923e64a46f208b5e819cf45a1d53c5", "type": "electric_scooter", "fusion_lat": 0.0}, {"bike_id": "fb22ff1b5851ddfad30364bb4516fd81", "lon": -76.98817866666667, "lat": 38.901825333333335, "fusion_lon": 0.0, "rental_uris": {"ios": "https://dc.lft.to/lastmile_qr_scan", "android": "https://dc.lft.to/lastmile_qr_scan"}, "is_disabled": 0, "is_reserved": 0, "name": "fb22ff1b5851ddfad30364bb4516fd81", "type": "electric_scooter", "fusion_lat": 0.0}, {"bike_id": "36d240a87308073a55bd7964d3f604e1", "lon": -77.03360233333333, "lat": 38.9013215, "fusion_lon": 0.0, "rental_uris": {"ios": "https://dc.lft.to/lastmile_qr_scan", "android": "https://dc.lft.to/lastmile_qr_scan"}, "is_disabled": 0, "is_reserved": 0, "name": "36d240a87308073a55bd7964d3f604e1", "type": "electric_scooter", "fusion_lat": 0.0}, {"bike_id": "1aa828fc3dfce589574784b168fe282a", "lon": -77.03677916666666, "lat": 38.923278, "fusion_lon": 0.0, "rental_uris": {"ios": "https://dc.lft.to/lastmile_qr_scan", "android": "https://dc.lft.to/lastmile_qr_scan"}, "is_disabled": 0, "is_reserved": 0, "name": "1aa828fc3dfce589574784b168fe282a", "type": "electric_scooter", "fusion_lat": 0.0}, {"bike_id": "3cc8a8f4aa91a63a225653d2c3f113c3", "lon": -77.04350716666667, "lat": 38.903979, "fusion_lon": 0.0, "rental_uris": {"ios": "https://dc.lft.to/lastmile_qr_scan", "android": "https://dc.lft.to/lastmile_qr_scan"}, "is_disabled": 0, "is_reserved": 0, "name": "3cc8a8f4aa91a63a225653d2c3f113c3", "type": "electric_scooter", "fusion_lat": 0.0}, {"bike_id": "6d902e303142b16afaf7842b86f132be", "lon": -77.02222966666666, "lat": 38.90313233333333, "fusion_lon": 0.0, "rental_uris": {"ios": "https://dc.lft.to/lastmile_qr_scan", "android": "https://dc.lft.to/lastmile_qr_scan"}, "is_disabled": 0, "is_reserved": 0, "name": "6d902e303142b16afaf7842b86f132be", "type": "electric_scooter", "fusion_lat": 0.0}, {"bike_id": "3719d075b1d558efcacd4140758a4bd7", "lon": -77.03446, "lat": 38.9102315, "fusion_lon": 0.0, "rental_uris": {"ios": "https://dc.lft.to/lastmile_qr_scan", "android": "https://dc.lft.to/lastmile_qr_scan"}, "is_disabled": 0, "is_reserved": 0, "name": "3719d075b1d558efcacd4140758a4bd7", "type": "electric_scooter", "fusion_lat": 0.0}, {"bike_id": "90f14546a8bfc04603cfd732ad1081f6", "lon": -77.01220016666667, "lat": 38.91975566666667, "fusion_lon": 0.0, "rental_uris": {"ios": "https://dc.lft.to/lastmile_qr_scan", "android": "https://dc.lft.to/lastmile_qr_scan"}, "is_disabled": 0, "is_reserved": 0, "name": "90f14546a8bfc04603cfd732ad1081f6", "type": "electric_scooter", "fusion_lat": 0.0}, {"bike_id": "f665be59022fa897ede584335b7f4a71", "lon": -77.0262575, "lat": 38.962233166666664, "fusion_lon": 0.0, "rental_uris": {"ios": "https://dc.lft.to/lastmile_qr_scan", "android": "https://dc.lft.to/lastmile_qr_scan"}, "is_disabled": 0, "is_reserved": 0, "name": "f665be59022fa897ede584335b7f4a71", "type": "electric_bike", "fusion_lat": 0.0}, {"bike_id": "e2d2c0364cf5a781487ecb096fc40248", "lon": -77.03336966666667, "lat": 38.92894616666667, "fusion_lon": 0.0, "rental_uris": {"ios": "https://dc.lft.to/lastmile_qr_scan", "android": "https://dc.lft.to/lastmile_qr_scan"}, "is_disabled": 0, "is_reserved": 0, "name": "e2d2c0364cf5a781487ecb096fc40248", "type": "electric_scooter", "fusion_lat": 0.0}, {"bike_id": "15d87f06c0b79ae46bbeaf40e7821966", "lon": -77.02111866666667, "lat": 38.90603466666666, "fusion_lon": 0.0, "rental_uris": {"ios": "https://dc.lft.to/lastmile_qr_scan", "android": "https://dc.lft.to/lastmile_qr_scan"}, "is_disabled": 0, "is_reserved": 0, "name": "15d87f06c0b79ae46bbeaf40e7821966", "type": "electric_scooter", "fusion_lat": 0.0}, {"bike_id": "a3165e02b8d648bdce664433e8c0d81d", "lon": -76.974233, "lat": 38.90498133333333, "fusion_lon": 0.0, "rental_uris": {"ios": "https://dc.lft.to/lastmile_qr_scan", "android": "https://dc.lft.to/lastmile_qr_scan"}, "is_disabled": 0, "is_reserved": 0, "name": "a3165e02b8d648bdce664433e8c0d81d", "type": "electric_bike", "fusion_lat": 0.0}, {"bike_id": "fac442a2f34b7fcfa1114b23c6b835e1", "lon": -77.043645, "lat": 38.90090083333333, "fusion_lon": 0.0, "rental_uris": {"ios": "https://dc.lft.to/lastmile_qr_scan", "android": "https://dc.lft.to/lastmile_qr_scan"}, "is_disabled": 0, "is_reserved": 0, "name": "fac442a2f34b7fcfa1114b23c6b835e1", "type": "electric_scooter", "fusion_lat": 0.0}, {"bike_id": "37109bb296e28ab757af8d8f5e9d814e", "lon": -77.02295266666667, "lat": 38.9145495, "fusion_lon": 0.0, "rental_uris": {"ios": "https://dc.lft.to/lastmile_qr_scan", "android": "https://dc.lft.to/lastmile_qr_scan"}, "is_disabled": 0, "is_reserved": 0, "name": "37109bb296e28ab757af8d8f5e9d814e", "type": "electric_scooter", "fusion_lat": 0.0}, {"bike_id": "3b03216f25431526abef2a2986018d28", "lon": -76.9963595, "lat": 38.8852635, "fusion_lon": 0.0, "rental_uris": {"ios": "https://dc.lft.to/lastmile_qr_scan", "android": "https://dc.lft.to/lastmile_qr_scan"}, "is_disabled": 0, "is_reserved": 0, "name": "3b03216f25431526abef2a2986018d28", "type": "electric_scooter", "fusion_lat": 0.0}, {"bike_id": "e35cf439f94aa2c8d38a175aaf484cc2", "lon": -76.92622116666666, "lat": 38.8845805, "fusion_lon": 0.0, "rental_uris": {"ios": "https://dc.lft.to/lastmile_qr_scan", "android": "https://dc.lft.to/lastmile_qr_scan"}, "is_disabled": 0, "is_reserved": 0, "name": "e35cf439f94aa2c8d38a175aaf484cc2", "type": "electric_scooter", "fusion_lat": 0.0}, {"bike_id": "44a5ecada1482412257fbe2087b8357e", "lon": -77.02820783333334, "lat": 38.90372333333333, "fusion_lon": 0.0, "rental_uris": {"ios": "https://dc.lft.to/lastmile_qr_scan", "android": "https://dc.lft.to/lastmile_qr_scan"}, "is_disabled": 0, "is_reserved": 0, "name": "44a5ecada1482412257fbe2087b8357e", "type": "electric_scooter", "fusion_lat": 0.0}, {"bike_id": "10bf3f9800b5e72a2b21ceaecd3e2255", "lon": -77.0320885, "lat": 38.89237983333334, "fusion_lon": 0.0, "rental_uris": {"ios": "https://dc.lft.to/lastmile_qr_scan", "android": "https://dc.lft.to/lastmile_qr_scan"}, "is_disabled": 0, "is_reserved": 0, "name": "10bf3f9800b5e72a2b21ceaecd3e2255", "type": "electric_scooter", "fusion_lat": 0.0}, {"bike_id": "78e6fb3fac782acbae41784e9931e039", "lon": -77.0283025, "lat": 38.965052, "fusion_lon": 0.0, "rental_uris": {"ios": "https://dc.lft.to/lastmile_qr_scan", "android": "https://dc.lft.to/lastmile_qr_scan"}, "is_disabled": 0, "is_reserved": 0, "name": "78e6fb3fac782acbae41784e9931e039", "type": "electric_bike", "fusion_lat": 0.0},