{"data": {"bikes": [{"fusion_lat": 0.0, "name": "efc9ad8a676b7d6d1abeb15318463baa", "is_disabled": 0, "rental_uris": {"android": "https://dc.lft.to/lastmile_qr_scan", "ios": "https://dc.lft.to/lastmile_qr_scan"}, "fusion_lon": 0.0, "lat": 38.92516233333333, "bike_id": "efc9ad8a676b7d6d1abeb15318463baa", "type": "electric_scooter", "is_reserved": 0, "lon": -77.050348}, {"fusion_lat": 0.0, "name": "f0d12b35e38196d69d579fbf2da85092", "is_disabled": 0, "rental_uris": {"android": "https://dc.lft.to/lastmile_qr_scan", "ios": "https://dc.lft.to/lastmile_qr_scan"}, "fusion_lon": 0.0, "lat": 38.90622616666667, "bike_id": "f0d12b35e38196d69d579fbf2da85092", "type": "electric_scooter", "is_reserved": 0, "lon": -77.00574083333333}, {"fusion_lat": 0.0, "name": "6037b20fe1b8bb02a7f23617a37e5f36", "is_disabled": 0, "rental_uris": {"android": "https://dc.lft.to/lastmile_qr_scan", "ios": "https://dc.lft.to/lastmile_qr_scan"}, "fusion_lon": 0.0, "lat": 38.891743166666664, "bike_id": "6037b20fe1b8bb02a7f23617a37e5f36", "type": "electric_scooter", "is_reserved": 0, "lon": -76.9265155}, {"fusion_lat": 0.0, "name": "8e800c14ffe7e7d511c13259a3279dc5", "is_disabled": 0, "rental_uris": {"android": "https://dc.lft.to/lastmile_qr_scan", "ios": "https://dc.lft.to/lastmile_qr_scan"}, "fusion_lon": 0.0, "lat": 38.90812283333333, "bike_id": "8e800c14ffe7e7d511c13259a3279dc5", "type": "electric_scooter", "is_reserved": 0, "lon": -77.04173433333334}, {"fusion_lat": 0.0, "name": "f85e796fd70c6478028219508854f79c", "is_disabled": 0, "rental_uris": {"android": "https://dc.lft.to/lastmile_qr_scan", "ios": "https://dc.lft.to/lastmile_qr_scan"}, "fusion_lon": 0.0, "lat": 38.92099433333333, "bike_id": "f85e796fd70c6478028219508854f79c", "type": "electric_scooter", "is_reserved": 0, "lon": -77.03170133333333}, {"fusion_lat": 0.0, "name": "f07daa65fb8f4e3d3300fa0e2578edad", "is_disabled": 0, "rental_uris": {"android": "https://dc.lft.to/lastmile_qr_scan", "ios": "https://dc.lft.to/lastmile_qr_scan"}, "fusion_lon": 0.0, "lat": 38.932060166666666, "bike_id": "f07daa65fb8f4e3d3300fa0e2578edad", "type": "electric_scooter", "is_reserved": 0, "lon": -77.03501516666667}, {"fusion_lat": 0.0, "name": "df7a2a74ecb799fbe11744c2a2627837", "is_disabled": 0, "rental_uris": {"android": "https://dc.lft.to/lastmile_qr_scan", "ios": "https://dc.lft.to/lastmile_qr_scan"}, "fusion_lon": 0.0, "lat": 38.92144316666667, "bike_id": "df7a2a74ecb799fbe11744c2a2627837", "type": "electric_scooter", "is_reserved": 0, "lon": -77.01926116666667}, {"fusion_lat": 0.0, "name": "9fa386c3d9e488bee095f75e1ca5dc52", "is_disabled": 0, "rental_uris": {"android": "https://dc.lft.to/lastmile_qr_scan", "ios": "https://dc.lft.to/lastmile_qr_scan"}, "fusion_lon": 0.0, "lat": 38.90492716666667, "bike_id": "9fa386c3d9e488bee095f75e1ca5dc52", "type": "electric_scooter", "is_reserved": 0, "lon": -77.0295465}, {"fusion_lat": 0.0, "name": "a9499a734aab39501d5618ea8429c2f9", "is_disabled": 0, "rental_uris": {"android": "https://dc.lft.to/lastmile_qr_scan", "ios": "https://dc.lft.to/lastmile_qr_scan"}, "fusion_lon": 0.0, "lat": 38.9053125, "bike_id": "a9499a734aab39501d5618ea8429c2f9", "type": "electric_scooter", "is_reserved": 0, "lon": -77.02946133333333}, {"fusion_lat": 0.0, "name": "be62b0f461c53a4143948bf1bead68c2", "is_disabled": 0, "rental_uris": {"android": "https://dc.lft.to/lastmile_qr_scan", "ios": "https://dc.lft.to/lastmile_qr_scan"}, "fusion_lon": 0.0, "lat": 38.90861133333333, "bike_id": "be62b0f461c53a4143948bf1bead68c2", "type": "electric_scooter", "is_reserved": 0, "lon": -77.02361183333333}, {"fusion_lat": 0.0, "name": "8c1610aea318b8f2db1b32142987b846", "is_disabled": 0, "rental_uris": {"android": "https://dc.lft.to/lastmile_qr_scan", "ios": "https://dc.lft.to/lastmile_qr_scan"}, "fusion_lon": 0.0, "lat": 38.90708166666667, "bike_id": "8c1610aea318b8f2db1b32142987b846", "type": "electric_scooter", "is_reserved": 0, "lon": -77.02395516666667}, {"fusion_lat": 0.0, "name": "42aea19ebae22ab6fe92864b7ba03358", "is_disabled": 0, "rental_uris": {"android": "https://dc.lft.to/lastmile_qr_scan", "ios": "https://dc.lft.to/lastmile_qr_scan"}, "fusion_lon": 0.0, "lat": 38.92755566666666, "bike_id": "42aea19ebae22ab6fe92864b7ba03358", "type": "electric_scooter", "is_reserved": 0, "lon": -77.05274033333333}, {"fusion_lat": 0.0, "name": "05011ddedee4b061dc817233327b0f66", "is_disabled": 0, "rental_uris": {"android": "https://dc.lft.to/lastmile_qr_scan", "ios": "https://dc.lft.to/lastmile_qr_scan"}, "fusion_lon": 0.0, "lat": 38.919745666666664, "bike_id": "05011ddedee4b061dc817233327b0f66", "type": "electric_scooter", "is_reserved": 0, "lon": -77.023351}, {"fusion_lat": 0.0, "name": "ca1232b8ec2096b22ba4a0e6249fd388", "is_disabled": 0, "rental_uris": {"android": "https://dc.lft.to/lastmile_qr_scan", "ios": "https://dc.lft.to/lastmile_qr_scan"}, "fusion_lon": 0.0, "lat": 38.90111483333333, "bike_id": "ca1232b8ec2096b22ba4a0e6249fd388", "type": "electric_scooter", "is_reserved": 0, "lon": -77.02606483333334}, {"fusion_lat": 0.0, "name": "8b937492c167e62895adcfaea2869fec", "is_disabled": 0, "rental_uris": {"android": "https://dc.lft.to/lastmile_qr_scan", "ios": "https://dc.lft.to/lastmile_qr_scan"}, "fusion_lon": 0.0, "lat": 38.937599, "bike_id": "8b937492c167e62895adcfaea2869fec", "type": "electric_scooter", "is_reserved": 0, "lon": -77.03253466666666}, {"fusion_lat": 0.0, "name": "ac46ceb08ae3762d6d3734220e5413e2", "is_disabled": 0, "rental_uris": {"android": "https://dc.lft.to/lastmile_qr_scan", "ios": "https://dc.lft.to/lastmile_qr_scan"}, "fusion_lon": 0.0, "lat": 38.92788683333333, "bike_id": "ac46ceb08ae3762d6d3734220e5413e2", "type": "electric_scooter", "is_reserved": 0, "lon": -77.05315766666666}, {"fusion_lat": 0.0, "name": "4c50a096fa71ec94ae08fc41dcc3d468", "is_disabled": 0, "rental_uris": {"android": "https://dc.lft.to/lastmile_qr_scan", "ios": "https://dc.lft.to/lastmile_qr_scan"}, "fusion_lon": 0.0, "lat": 38.9176475, "bike_id": "4c50a096fa71ec94ae08fc41dcc3d468", "type": "electric_scooter", "is_reserved": 0, "lon": -77.01464166666666}, {"fusion_lat": 0.0, "name": "bb35b57e638baaa0cfc8011574c9c52c", "is_disabled": 0, "rental_uris": {"android": "https://dc.lft.to/lastmile_qr_scan", "ios": "https://dc.lft.to/lastmile_qr_scan"}, "fusion_lon": 0.0, "lat": 38.909790666666666, "bike_id": "bb35b57e638baaa0cfc8011574c9c52c", "type": "electric_scooter", "is_reserved": 0, "lon": -77.03428866666667}, {"fusion_lat": 0.0, "name": "e2c824b703c4cd51af442d5cdca883f1", "is_disabled": 0, "rental_uris": {"android": "https://dc.lft.to/lastmile_qr_scan", "ios": "https://dc.lft.to/lastmile_qr_scan"}, "fusion_lon": 0.0, "lat": 38.90695866666667, "bike_id": "e2c824b703c4cd51af442d5cdca883f1", "type": "electric_scooter", "is_reserved": 0, "lon": -77.03177866666667}, {"fusion_lat": 0.0, "name": "6b89f6fa24656952b53c455affe3ddd4", "is_disabled": 0, "rental_uris": {"android": "https://dc.lft.to/lastmile_qr_scan", "ios": "https://dc.lft.to/lastmile_qr_scan"}, "fusion_lon": 0.0, "lat": 38.9140465, "bike_id": "6b89f6fa24656952b53c455affe3ddd4", "type": "electric_scooter", "is_reserved": 0, "lon": -77.02208033333334}, {"fusion_lat": 0.0, "name": "8ba098e039022c169158f74a888e9b57", "is_disabled": 0, "rental_uris": {"android": "https://dc.lft.to/lastmile_qr_scan", "ios": "https://dc.lft.to/lastmile_qr_scan"}, "fusion_lon": 0.0, "lat": 38.900309666666665, "bike_id": "8ba098e039022c169158f74a888e9b57", "type": "electric_scooter", "is_reserved": 0, "lon": -76.99855333333333}, {"fusion_lat": 0.0, "name": "1558776ba61d99b99b3aa29040d1bdae", "is_disabled": 0, "rental_uris": {"android": "https://dc.lft.to/lastmile_qr_scan", "ios": "https://dc.lft.to/lastmile_qr_scan"}, "fusion_lon": 0.0, "lat": 38.919959, "bike_id": "1558776ba61d99b99b3aa29040d1bdae", "type": "electric_scooter", "is_reserved": 0, "lon": -77.03225866666666}, {"fusion_lat": 0.0, "name": "9f40e58816c4845c9b33c3a2c8c1eb7b", "is_disabled": 0, "rental_uris": {"android": "https://dc.lft.to/lastmile_qr_scan", "ios": "https://dc.lft.to/lastmile_qr_scan"}, "fusion_lon": 0.0, "lat": 38.905699166666665, "bike_id": "9f40e58816c4845c9b33c3a2c8c1eb7b", "type": "electric_scooter", "is_reserved": 0, "lon": -77.01696266666667}, {"fusion_lat": 0.0, "name": "0188e561d0237ca0935f317f003d62e1", "is_disabled": 0, "rental_uris": {"android": "https://dc.lft.to/lastmile_qr_scan", "ios": "https://dc.lft.to/lastmile_qr_scan"}, "fusion_lon": 0.0, "lat": 38.923452, "bike_id": "0188e561d0237ca0935f317f003d62e1", "type": "electric_scooter", "is_reserved": 0, "lon": -77.05177833333333}, {"fusion_lat": 0.0, "name": "316646d467f34846e3b799dbfa651f05", "is_disabled": 0, "rental_uris": {"android": "https://dc.lft.to/lastmile_qr_scan", "ios": "https://dc.lft.to/lastmile_qr_scan"}, "fusion_lon": 0.0, "lat": 38.905283833333336, "bike_id": "316646d467f34846e3b799dbfa651f05", "type": "electric_scooter", "is_reserved": 0, "lon": -77.02709833333333}, {"fusion_lat": 0.0, "name": "ae0f0efa9f1af6b65caa8512196658c7", "is_disabled": 0, "rental_uris": {"android": "https://dc.lft.to/lastmile_qr_scan", "ios": "https://dc.lft.to/lastmile_qr_scan"}, "fusion_lon": 0.0, "lat": 38.90780733333333, "bike_id": "ae0f0efa9f1af6b65caa8512196658c7", "type": "electric_scooter", "is_reserved": 0, "lon": -77.03856383333333}, {"fusion_lat": 0.0, "name": "0af911b93dc4bbe0895a59b900ad3f6f", "is_disabled": 0, "rental_uris": {"android": "https://dc.lft.to/lastmile_qr_scan", "ios": "https://dc.lft.to/lastmile_qr_scan"}, "fusion_lon": 0.0, "lat": 38.888189, "bike_id": "0af911b93dc4bbe0895a59b900ad3f6f", "type": "electric_scooter", "is_reserved": 0, "lon": -77.01494383333333}, {"fusion_lat": 0.0, "name": "786ac149ca9130f69a82ebc05e29de4b", "is_disabled": 0, "rental_uris": {"android": "https://dc.lft.to/lastmile_qr_scan", "ios": "https://dc.lft.to/lastmile_qr_scan"}, "fusion_lon": 0.0, "lat": 38.901299333333334, "bike_id": "786ac149ca9130f69a82ebc05e29de4b", "type": "electric_scooter", "is_reserved": 0, "lon": -77.04431566666666}, {"fusion_lat": 0.0, "name": "fa3cb6439d140d4d7194f3813aaba8a1", "is_disabled": 0, "rental_uris": {"android": "https://dc.lft.to/lastmile_qr_scan", "ios": "https://dc.lft.to/lastmile_qr_scan"}, "fusion_lon": 0.0, "lat": 38.86517416666667, "bike_id": "fa3cb6439d140d4d7194f3813aaba8a1", "type": "electric_bike", "is_reserved": 0, "lon": -77.12938583333333}, {"fusion_lat": 0.0, "name": "8317ef5caa6c1f021b43cdffba3a9b76", "is_disabled": 0, "rental_uris": {"android": "https://dc.lft.to/lastmile_qr_scan", "ios": "https://dc.lft.to/lastmile_qr_scan"}, "fusion_lon": 0.0, "lat": 38.91479983333333, "bike_id": "8317ef5caa6c1f021b43cdffba3a9b76", "type": "electric_scooter", "is_reserved": 0, "lon": -77.02586166666667}, {"fusion_lat": 0.0, "name": "fbb7e5ab1aee435011263ea0b205e37d", "is_disabled": 0, "rental_uris": {"android": "https://dc.lft.to/lastmile_qr_scan", "ios": "https://dc.lft.to/lastmile_qr_scan"}, "fusion_lon": 0.0, "lat": 38.906734666666665, "bike_id": "fbb7e5ab1aee435011263ea0b205e37d", "type": "electric_scooter", "is_reserved": 0, "lon": -77.03425733333333}, {"fusion_lat": 0.0, "name": "b1eaf5881d550966e54ac3ae1ba93461", "is_disabled": 0, "rental_uris": {"android": "https://dc.lft.to/lastmile_qr_scan", "ios": "https://dc.lft.to/lastmile_qr_scan"}, "fusion_lon": 0.0, "lat": 38.918176333333335, "bike_id": "b1eaf5881d550966e54ac3ae1ba93461", "type": "electric_scooter", "is_reserved": 0, "lon": -77.02475166666666}, {"fusion_lat": 0.0, "name": "36ef727dd57c67d227a13c9cb70f3aea", "is_disabled": 0, "rental_uris": {"android": "https://dc.lft.to/lastmile_qr_scan", "ios": "https://dc.lft.to/lastmile_qr_scan"}, "fusion_lon": 0.0, "lat": 38.89816483333333, "bike_id": "36ef727dd57c67d227a13c9cb70f3aea", "type": "electric_bike", "is_reserved": 0, "lon": -77.00596233333333}, {"fusion_lat": 0.0, "name": "8e235d1654a06435afd8a89403381a66", "is_disabled": 0, "rental_uris": {"android": "https://dc.lft.to/lastmile_qr_scan", "ios": "https://dc.lft.to/lastmile_qr_scan"}, "fusion_lon": 0.0, "lat": 38.920429, "bike_id": "8e235d1654a06435afd8a89403381a66", "type": "electric_scooter", "is_reserved": 0, "lon": -77.0259005}, {"fusion_lat": 0.0, "name": "bd2ab54d27e5dec23871e20a8b0bb630", "is_disabled": 0, "rental_uris": {"android": "https://dc.lft.to/lastmile_qr_scan", "ios": "https://dc.lft.to/lastmile_qr_scan"}, "fusion_lon": 0.0, "lat": 38.91563633333333, "bike_id": "bd2ab54d27e5dec23871e20a8b0bb630", "type": "electric_scooter", "is_reserved": 0, "lon": -77.031387}, {"fusion_lat": 0.0, "name": "18f79a11c2d0be119d1e838134515d85", "is_disabled": 0, "rental_uris": {"android": "https://dc.lft.to/lastmile_qr_scan", "ios": "https://dc.lft.to/lastmile_qr_scan"}, "fusion_lon": 0.0, "lat": 38.92248166666667, "bike_id": "18f79a11c2d0be119d1e838134515d85", "type": "electric_scooter", "is_reserved": 0, "lon": -77.0366085}, {"fusion_lat": 0.0, "name": "53f1d206e3fa2d298018f4e276f3a4e9", "is_disabled": 0, "rental_uris": {"android": "https://dc.lft.to/lastmile_qr_scan", "ios": "https://dc.lft.to/lastmile_qr_scan"}, "fusion_lon": 0.0, "lat": 38.9079545, "bike_id": "53f1d206e3fa2d298018f4e276f3a4e9", "type": "electric_scooter", "is_reserved": 0, "lon": -77.03461883333334}, {"fusion_lat": 0.0, "name": "cd126424ec01f2f48c4dfce759246e25", "is_disabled": 0, "rental_uris": {"android": "https://dc.lft.to/lastmile_qr_scan", "ios": "https://dc.lft.to/lastmile_qr_scan"}, "fusion_lon": 0.0, "lat": 38.8990365, "bike_id": "cd126424ec01f2f48c4dfce759246e25", "type": "electric_scooter", "is_reserved": 0, "lon": -76.991634}, {"fusion_lat": 0.0, "name": "858e2e2d74bc268d1aa7614007acba19", "is_disabled": 0, "rental_uris": {"android": "https://dc.lft.to/lastmile_qr_scan", "ios": "https://dc.lft.to/lastmile_qr_scan"}, "fusion_lon": 0.0, "lat": 38.89964366666667, "bike_id": "858e2e2d74bc268d1aa7614007acba19", "type": "electric_scooter", "is_reserved": 0, "lon": -77.01615283333334}, {"fusion_lat": 0.0, "name": "0aa9f35b2bf3f94e805fc4eacb6d6c39", "is_disabled": 0, "rental_uris": {"android": "https://dc.lft.to/lastmile_qr_scan", "ios": "https://dc.lft.to/lastmile_qr_scan"}, "fusion_lon": 0.0, "lat": 38.91712283333333, "bike_id": "0aa9f35b2bf3f94e805fc4eacb6d6c39", "type": "electric_scooter", "is_reserved": 0, "lon": -76.97663716666666}, {"fusion_lat": 0.0, "name": "618b2dbbdfd9fb933ec1d284e9b8c171", "is_disabled": 0, "rental_uris": {"android": "https://dc.lft.to/lastmile_qr_scan", "ios": "https://dc.lft.to/lastmile_qr_scan"}, "fusion_lon": 0.0, "lat": 38.90791466666667, "bike_id": "618b2dbbdfd9fb933ec1d284e9b8c171", "type": "electric_scooter", "is_reserved": 0, "lon": -77.038534}, {"fusion_lat": 0.0, "name": "bcd6673516f5295938643e26702b579d", "is_disabled": 0, "rental_uris": {"android": "https://dc.lft.to/lastmile_qr_scan", "ios": "https://dc.lft.to/lastmile_qr_scan"}, "fusion_lon": 0.0, "lat": 38.920905, "bike_id": "bcd6673516f5295938643e26702b579d", "type": "electric_scooter", "is_reserved": 0, "lon": -77.02401666666667}, {"fusion_lat": 0.0, "name": "7d9045824d77305e0689b2b0e96ff12c", "is_disabled": 0, "rental_uris": {"android": "https://dc.lft.to/lastmile_qr_scan", "ios": "https://dc.lft.to/lastmile_qr_scan"}, "fusion_lon": 0.0, "lat": 38.91913266666667, "bike_id": "7d9045824d77305e0689b2b0e96ff12c", "type": "electric_scooter", "is_reserved": 0, "lon": -77.03219833333333}, {"fusion_lat": 0.0, "name": "a8df203768dd2838a1624cb38bbd02b7", "is_disabled": 0, "rental_uris": {"android": "https://dc.lft.to/lastmile_qr_scan", "ios": "https://dc.lft.to/lastmile_qr_scan"}, "fusion_lon": 0.0, "lat": 38.87967416666667, "bike_id": "a8df203768dd2838a1624cb38bbd02b7", "type": "electric_bike", "is_reserved": 0, "lon": -76.91614883333334}, {"fusion_lat": 0.0, "name": "0f7ec0a5ab6b74f1499095631a9d0a87", "is_disabled": 0, "rental_uris": {"android": "https://dc.lft.to/lastmile_qr_scan", "ios": "https://dc.lft.to/lastmile_qr_scan"}, "fusion_lon": 0.0, "lat": 38.927927833333335, "bike_id": "0f7ec0a5ab6b74f1499095631a9d0a87", "type": "electric_scooter", "is_reserved": 0, "lon": -77.02461716666667}, {"fusion_lat": 0.0, "name": "2729a5b7bdc9a428bdfab411ca8b40c8", "is_disabled": 0, "rental_uris": {"android": "https://dc.lft.to/lastmile_qr_scan", "ios": "https://dc.lft.to/lastmile_qr_scan"}, "fusion_lon": 0.0, "lat": 38.90092966666667, "bike_id": "2729a5b7bdc9a428bdfab411ca8b40c8", "type": "electric_scooter", "is_reserved": 0, "lon": -76.983287}, {"fusion_lat": 0.0, "name": "e69cd994aa9ca0fac62777d83c314e42", "is_disabled": 0, "rental_uris": {"android": "https://dc.lft.to/lastmile_qr_scan", "ios": "https://dc.lft.to/lastmile_qr_scan"}, "fusion_lon": 0.0, "lat": 38.9560795, "bike_id": "e69cd994aa9ca0fac62777d83c314e42", "type": "electric_scooter", "is_reserved": 0, "lon": -77.03355366666666}, {"fusion_lat": 0.0, "name": "cddbab829848b7d8b2877460f2df983b", "is_disabled": 0, "rental_uris": {"android": "https://dc.lft.to/lastmile_qr_scan", "ios": "https://dc.lft.to/lastmile_qr_scan"}, "fusion_lon": 0.0, "lat": 38.9101965, "bike_id": "cddbab829848b7d8b2877460f2df983b", "type": "electric_scooter", "is_reserved": 0, "lon": -77.0426435}, {"fusion_lat": 0.0, "name": "53f44bbfddd8cebe2899e85857e8feb4", "is_disabled": 0, "rental_uris": {"android": "https://dc.lft.to/lastmile_qr_scan", "ios": "https://dc.lft.to/lastmile_qr_scan"}, "fusion_lon": 0.0, "lat": 38.906605166666665, "bike_id": "53f44bbfddd8cebe2899e85857e8feb4", "type": "electric_scooter", "is_reserved": 0, "lon": -77.02709116666666}, {"fusion_lat": 0.0, "name": "828e988a16e2480e8e42237eb72561b3", "is_disabled": 0, "rental_uris": {"android": "https://dc.lft.to/lastmile_qr_scan", "ios": "https://dc.lft.to/lastmile_qr_scan"}, "fusion_lon": 0.0, "lat": 38.924980833333336, "bike_id": "828e988a16e2480e8e42237eb72561b3", "type": "electric_bike", "is_reserved": 0, "lon": -77.23384216666666}, {"fusion_lat": 0.0, "name": "d045afedbe69385cc845b68544ea60a6", "is_disabled": 0, "rental_uris": {"android": "https://dc.lft.to/lastmile_qr_scan", "ios": "https://dc.lft.to/lastmile_qr_scan"}, "fusion_lon": 0.0, "lat": 38.9326915, "bike_id": "d045afedbe69385cc845b68544ea60a6", "type": "electric_scooter", "is_reserved": 0, "lon": -77.01917733333333}, {"fusion_lat": 0.0, "name": "9a4711ee5e28f98690ef938f99852046", "is_disabled": 0, "rental_uris": {"android": "https://dc.lft.to/lastmile_qr_scan", "ios": "https://dc.lft.to/lastmile_qr_scan"}, "fusion_lon": 0.0, "lat": 38.900969833333335, "bike_id": "9a4711ee5e28f98690ef938f99852046", "type": "electric_scooter", "is_reserved": 0, "lon": -77.05692116666667}, {"fusion_lat": 0.0, "name": "074bf817a6df86def343d80ab6e6f4ba", "is_disabled": 0, "rental_uris": {"android": "https://dc.lft.to/lastmile_qr_scan", "ios": "https://dc.lft.to/lastmile_qr_scan"}, "fusion_lon": 0.0, "lat": 38.90717516666667, "bike_id": "074bf817a6df86def343d80ab6e6f4ba", "type": "electric_scooter", "is_reserved": 0, "lon": -77.07609566666666}, {"fusion_lat": 0.0, "name": "7c1047040a8d8d328985e3b1dbab33e1", "is_disabled": 0, "rental_uris": {"android": "https://dc.lft.to/lastmile_qr_scan", "ios": "https://dc.lft.to/lastmile_qr_scan"}, "fusion_lon": 0.0, "lat": 38.91889533333333, "bike_id": "7c1047040a8d8d328985e3b1dbab33e1", "type": "electric_scooter", "is_reserved": 0, "lon": -77.03498133333333}, {"fusion_lat": 0.0, "name": "0efe95f3e07d6c6d564bad822bfc029b", "is_disabled": 0, "rental_uris": {"android": "https://dc.lft.to/lastmile_qr_scan", "ios": "https://dc.lft.to/lastmile_qr_scan"}, "fusion_lon": 0.0, "lat": 38.907305666666666, "bike_id": "0efe95f3e07d6c6d564bad822bfc029b", "type": "electric_scooter", "is_reserved": 0, "lon": -77.02950416666667}, {"fusion_lat": 0.0, "name": "93cb58a6c086d3785c5bc19ceec46013", "is_disabled": 0, "rental_uris": {"android": "https://dc.lft.to/lastmile_qr_scan", "ios": "https://dc.lft.to/lastmile_qr_scan"}, "fusion_lon": 0.0, "lat": 38.90685883333333, "bike_id": "93cb58a6c086d3785c5bc19ceec46013", "type": "electric_scooter", "is_reserved": 0, "lon": -77.03631216666666}, {"fusion_lat": 0.0, "name": "3974c68f3afa83d5bbb414549e5f9e5c", "is_disabled": 0, "rental_uris": {"android": "https://dc.lft.to/lastmile_qr_scan", "ios": "https://dc.lft.to/lastmile_qr_scan"}, "fusion_lon": 0.0, "lat": 38.91106816666667, "bike_id": "3974c68f3afa83d5bbb414549e5f9e5c", "type": "electric_scooter", "is_reserved": 0, "lon": -77.04203883333334}, {"fusion_lat": 0.0, "name": "410bf7a92c88363b390384ddabeca52d", "is_disabled": 0, "rental_uris": {"android": "https://dc.lft.to/lastmile_qr_scan", "ios": "https://dc.lft.to/lastmile_qr_scan"}, "fusion_lon": 0.0, "lat": 38.905621, "bike_id": "410bf7a92c88363b390384ddabeca52d", "type": "electric_scooter", "is_reserved": 0, "lon": -76.98145833333334}, {"fusion_lat": 0.0, "name": "0322f4f18830ad291379cbea56cffeaf", "is_disabled": 0, "rental_uris": {"android": "https://dc.lft.to/lastmile_qr_scan", "ios": "https://dc.lft.to/lastmile_qr_scan"}, "fusion_lon": 0.0, "lat": 38.88499, "bike_id": "0322f4f18830ad291379cbea56cffeaf", "type": "electric_scooter", "is_reserved": 0, "lon": -77.00895716666666}, {"fusion_lat": 0.0, "name": "46dd1a9eb4c091917da829e410e50471", "is_disabled": 0, "rental_uris": {"android": "https://dc.lft.to/lastmile_qr_scan", "ios": "https://dc.lft.to/lastmile_qr_scan"}, "fusion_lon": 0.0, "lat": 38.910197, "bike_id": "46dd1a9eb4c091917da829e410e50471", "type": "electric_scooter", "is_reserved": 0, "lon": -77.04265933333333}, {"fusion_lat": 0.0, "name": "7d8499d48a67d8e80be8ba25d0a9a8c6", "is_disabled": 0, "rental_uris": {"android": "https://dc.lft.to/lastmile_qr_scan", "ios": "https://dc.lft.to/lastmile_qr_scan"}, "fusion_lon": 0.0, "lat": 38.93176233333333, "bike_id": "7d8499d48a67d8e80be8ba25d0a9a8c6", "type": "electric_scooter", "is_reserved": 0, "lon": -77.05653933333333}, {"fusion_lat": 0.0, "name": "53bf3e56eed8f4bcd604b42ec256ec3a", "is_disabled": 0, "rental_uris": {"android": "https://dc.lft.to/lastmile_qr_scan", "ios": "https://dc.lft.to/lastmile_qr_scan"}, "fusion_lon": 0.0, "lat": 38.901172333333335, "bike_id": "53bf3e56eed8f4bcd604b42ec256ec3a", "type": "electric_scooter", "is_reserved": 0, "lon": -77.03387933333333}, {"fusion_lat": 0.0, "name": "c5193cffededdaae421c4899a0a92a9e", "is_disabled": 0, "rental_uris": {"android": "https://dc.lft.to/lastmile_qr_scan", "ios": "https://dc.lft.to/lastmile_qr_scan"}, "fusion_lon": 0.0, "lat": 38.89675283333333, "bike_id": "c5193cffededdaae421c4899a0a92a9e", "type": "electric_scooter", "is_reserved": 0, "lon": -76.9320405}, {"fusion_lat": 0.0, "name": "5cb4d4bf86f756ad3ce832d117fca94f", "is_disabled": 0, "rental_uris": {"android": "https://dc.lft.to/lastmile_qr_scan", "ios": "https://dc.lft.to/lastmile_qr_scan"}, "fusion_lon": 0.0, "lat": 38.90980016666666, "bike_id": "5cb4d4bf86f756ad3ce832d117fca94f", "type": "electric_scooter", "is_reserved": 0, "lon": -77.03424316666667}, {"fusion_lat": 0.0, "name": "097a7e8f12890b2ea85227d8d318362e", "is_disabled": 0, "rental_uris": {"android": "https://dc.lft.to/lastmile_qr_scan", "ios": "https://dc.lft.to/lastmile_qr_scan"}, "fusion_lon": 0.0, "lat": 38.9019835, "bike_id": "097a7e8f12890b2ea85227d8d318362e", "type": "electric_scooter", "is_reserved": 0, "lon": -77.02374116666667}, {"fusion_lat": 0.0, "name": "b6147b27e653607e1ed858e4133e8f3f", "is_disabled": 0, "rental_uris": {"android": "https://dc.lft.to/lastmile_qr_scan", "ios": "https://dc.lft.to/lastmile_qr_scan"}, "fusion_lon": 0.0, "lat": 38.92381116666667, "bike_id": "b6147b27e653607e1ed858e4133e8f3f", "type": "electric_scooter", "is_reserved": 0, "lon": -77.02737016666667}, {"fusion_lat": 0.0, "name": "3d808c0c3ff804dd3bdbd73e9e8462e4", "is_disabled": 0, "rental_uris": {"android": "https://dc.lft.to/lastmile_qr_scan", "ios": "https://dc.lft.to/lastmile_qr_scan"}, "fusion_lon": 0.0, "lat": 38.836243833333334, "bike_id": "3d808c0c3ff804dd3bdbd73e9e8462e4", "type": "electric_bike", "is_reserved": 0, "lon": -77.06942816666667}, {"fusion_lat": 0.0, "name": "fc61db052b029f1e1ebbd6573c812c78", "is_disabled": 0, "rental_uris": {"android": "https://dc.lft.to/lastmile_qr_scan", "ios": "https://dc.lft.to/lastmile_qr_scan"}, "fusion_lon": 0.0, "lat": 38.906802, "bike_id": "fc61db052b029f1e1ebbd6573c812c78", "type": "electric_scooter", "is_reserved": 0, "lon": -76.951967}, {"fusion_lat": 0.0, "name": "2c6bc7cabe06be68ce6886894c497cdd", "is_disabled": 0, "rental_uris": {"android": "https://dc.lft.to/lastmile_qr_scan", "ios": "https://dc.lft.to/lastmile_qr_scan"}, "fusion_lon": 0.0, "lat": 38.907169, "bike_id": "2c6bc7cabe06be68ce6886894c497cdd", "type": "electric_scooter", "is_reserved": 0, "lon": -77.027143}, {"fusion_lat": 0.0, "name": "2b5c5eb54b86b0a5a5de2ee3a0d43e69", "is_disabled": 0, "rental_uris": {"android": "https://dc.lft.to/lastmile_qr_scan", "ios": "https://dc.lft.to/lastmile_qr_scan"}, "fusion_lon": 0.0, "lat": 38.897083, "bike_id": "2b5c5eb54b86b0a5a5de2ee3a0d43e69", "type": "electric_scooter", "is_reserved": 0, "lon": -77.04735666666667}, {"fusion_lat": 0.0, "name": "4c701cbc492567fb547812446f1fc221", "is_disabled": 0, "rental_uris": {"android": "https://dc.lft.to/lastmile_qr_scan", "ios": "https://dc.lft.to/lastmile_qr_scan"}, "fusion_lon": 0.0, "lat": 38.921245166666665, "bike_id": "4c701cbc492567fb547812446f1fc221", "type": "electric_scooter", "is_reserved": 0, "lon": -77.04221666666666}, {"fusion_lat": 0.0, "name": "444d2d38132daa263b7be7237a11188f", "is_disabled": 0, "rental_uris": {"android": "https://dc.lft.to/lastmile_qr_scan", "ios": "https://dc.lft.to/lastmile_qr_scan"}, "fusion_lon": 0.0, "lat": 38.91855433333333, "bike_id": "444d2d38132daa263b7be7237a11188f", "type": "electric_bike", "is_reserved": 0, "lon": -76.96090466666666}, {"fusion_lat": 0.0, "name": "e02070346e5b514b82497a9c3a2cc558", "is_disabled": 0, "rental_uris": {"android": "https://dc.lft.to/lastmile_qr_scan", "ios": "https://dc.lft.to/lastmile_qr_scan"}, "fusion_lon": 0.0, "lat": 38.90710466666667, "bike_id": "e02070346e5b514b82497a9c3a2cc558", "type": "electric_scooter", "is_reserved": 0, "lon": -77.02394066666666}, {"fusion_lat": 0.0, "name": "6c9dccf330f2f982bf4e69a5bf51d967", "is_disabled": 0, "rental_uris": {"android": "https://dc.lft.to/lastmile_qr_scan", "ios": "https://dc.lft.to/lastmile_qr_scan"}, "fusion_lon": 0.0, "lat": 38.918087666666665, "bike_id": "6c9dccf330f2f982bf4e69a5bf51d967", "type": "electric_scooter", "is_reserved": 0, "lon": -77.0343945}, {"fusion_lat": 0.0, "name": "7eafd24f02bf4ee0ac9fac25c1d2b2f8", "is_disabled": 0, "rental_uris": {"android": "https://dc.lft.to/lastmile_qr_scan", "ios": "https://dc.lft.to/lastmile_qr_scan"}, "fusion_lon": 0.0, "lat": 38.920251, "bike_id": "7eafd24f02bf4ee0ac9fac25c1d2b2f8", "type": "electric_scooter", "is_reserved": 0, "lon": -77.04398883333333}, {"fusion_lat": 0.0, "name": "58b55229fab8fe36a505d6595be5f77a", "is_disabled": 0, "rental_uris": {"android": "https://dc.lft.to/lastmile_qr_scan", "ios": "https://dc.lft.to/lastmile_qr_scan"}, "fusion_lon": 0.0, "lat": 38.887438333333336, "bike_id": "58b55229fab8fe36a505d6595be5f77a", "type": "electric_scooter", "is_reserved": 0, "lon": -77.025697}, {"fusion_lat": 0.0, "name": "376a41bfc1c486fb099fcd96aca2b61d", "is_disabled": 0, "rental_uris": {"android": "https://dc.lft.to/lastmile_qr_scan", "ios": "https://dc.lft.to/lastmile_qr_scan"}, "fusion_lon": 0.0, "lat": 38.92487966666667, "bike_id": "376a41bfc1c486fb099fcd96aca2b61d", "type": "electric_scooter", "is_reserved": 0, "lon": -77.02139116666666}, {"fusion_lat": 0.0, "name": "f3c2869952a3479f8142ba8ab6961135", "is_disabled": 0, "rental_uris": {"android": "https://dc.lft.to/lastmile_qr_scan", "ios": "https://dc.lft.to/lastmile_qr_scan"}, "fusion_lon": 0.0, "lat": 38.93478, "bike_id": "f3c2869952a3479f8142ba8ab6961135", "type": "electric_scooter", "is_reserved": 0, "lon": -77.07275833333334}, {"fusion_lat": 0.0, "name": "60b42c901cce99343504f8cfc80c4d73", "is_disabled": 0, "rental_uris": {"android": "https://dc.lft.to/lastmile_qr_scan", "ios": "https://dc.lft.to/lastmile_qr_scan"}, "fusion_lon": 0.0, "lat": 38.90562233333333, "bike_id": "60b42c901cce99343504f8cfc80c4d73", "type": "electric_scooter", "is_reserved": 0, "lon": -77.02098766666667}, {"fusion_lat": 0.0, "name": "8ce3efe1b6670f644ffead93c7580c6f", "is_disabled": 0, "rental_uris": {"android": "https://dc.lft.to/lastmile_qr_scan", "ios": "https://dc.lft.to/lastmile_qr_scan"}, "fusion_lon": 0.0, "lat": 38.872112666666666, "bike_id": "8ce3efe1b6670f644ffead93c7580c6f", "type": "electric_scooter", "is_reserved": 0, "lon": -77.0176125}, {"fusion_lat": 0.0, "name": "8bc0436e471f7aa6cbaacf7ebebcdb2b", "is_disabled": 0, "rental_uris": {"android": "https://dc.lft.to/lastmile_qr_scan", "ios": "https://dc.lft.to/lastmile_qr_scan"}, "fusion_lon": 0.0, "lat": 38.9193875, "bike_id": "8bc0436e471f7aa6cbaacf7ebebcdb2b", "type": "electric_scooter", "is_reserved": 0, "lon": -77.030591}, {"fusion_lat": 0.0, "name": "e44dc18cffadc16213de6d4204e86cf7", "is_disabled": 0, "rental_uris": {"android": "https://dc.lft.to/lastmile_qr_scan", "ios": "https://dc.lft.to/lastmile_qr_scan"}, "fusion_lon": 0.0, "lat": 38.909547833333335, "bike_id": "e44dc18cffadc16213de6d4204e86cf7", "type": "electric_scooter", "is_reserved": 0, "lon": -76.98539166666667}, {"fusion_lat": 0.0, "name": "d012864ef8d0a64263f61c571db5e157", "is_disabled": 0, "rental_uris": {"android": "https://dc.lft.to/lastmile_qr_scan", "ios": "https://dc.lft.to/lastmile_qr_scan"}, "fusion_lon": 0.0, "lat": 38.920367166666665, "bike_id": "d012864ef8d0a64263f61c571db5e157", "type": "electric_scooter", "is_reserved": 0, "lon": -77.071461}, {"fusion_lat": 0.0, "name": "26afd7ae4779f85e12eb0a85d89b176e", "is_disabled": 0, "rental_uris": {"android": "https://dc.lft.to/lastmile_qr_scan", "ios": "https://dc.lft.to/lastmile_qr_scan"}, "fusion_lon": 0.0, "lat": 38.9977965, "bike_id": "26afd7ae4779f85e12eb0a85d89b176e", "type": "electric_bike", "is_reserved": 0, "lon": -77.04719016666667}, {"fusion_lat": 0.0, "name": "45bbede6b79fd107ce0582147b8a4d17", "is_disabled": 0, "rental_uris": {"android": "https://dc.lft.to/lastmile_qr_scan", "ios": "https://dc.lft.to/lastmile_qr_scan"}, "fusion_lon": 0.0, "lat": 38.90389366666667, "bike_id": "45bbede6b79fd107ce0582147b8a4d17", "type": "electric_scooter", "is_reserved": 0, "lon": -77.04825533333333}, {"fusion_lat": 0.0, "name": "66ab0b6721249c01e352ae98aa963802", "is_disabled": 0, "rental_uris": {"android": "https://dc.lft.to/lastmile_qr_scan", "ios": "https://dc.lft.to/lastmile_qr_scan"}, "fusion_lon": 0.0, "lat": 38.93238783333334, "bike_id": "66ab0b6721249c01e352ae98aa963802", "type": "electric_scooter", "is_reserved": 0, "lon": -77.0326665}, {"fusion_lat": 0.0, "name": "f22cc8db36ced8fc1cf842619706ba4f", "is_disabled": 0, "rental_uris": {"android": "https://dc.lft.to/lastmile_qr_scan", "ios": "https://dc.lft.to/lastmile_qr_scan"}, "fusion_lon": 0.0, "lat": 38.90014516666667, "bike_id": "f22cc8db36ced8fc1cf842619706ba4f", "type": "electric_scooter", "is_reserved": 0, "lon": -76.98815433333333}, {"fusion_lat": 0.0, "name": "f59ea203eaf96dbaf40e37b7a1b64be3", "is_disabled": 0, "rental_uris": {"android": "https://dc.lft.to/lastmile_qr_scan", "ios": "https://dc.lft.to/lastmile_qr_scan"}, "fusion_lon": 0.0, "lat": 38.9368805, "bike_id": "f59ea203eaf96dbaf40e37b7a1b64be3", "type": "electric_scooter", "is_reserved": 0, "lon": -77.036355}, {"fusion_lat": 0.0, "name": "83d44e21420f2feda91fcf6bf6f395d7", "is_disabled": 0, "rental_uris": {"android": "https://dc.lft.to/lastmile_qr_scan", "ios": "https://dc.lft.to/lastmile_qr_scan"}, "fusion_lon": 0.0, "lat": 38.900319833333334, "bike_id": "83d44e21420f2feda91fcf6bf6f395d7", "type": "electric_scooter", "is_reserved": 0, "lon": -76.9963485}, {"fusion_lat": 0.0, "name": "acc2b06be7609eccc4bfe4b550231bd2", "is_disabled": 0, "rental_uris": {"android": "https://dc.lft.to/lastmile_qr_scan", "ios": "https://dc.lft.to/lastmile_qr_scan"}, "fusion_lon": 0.0, "lat": 38.902117, "bike_id": "acc2b06be7609eccc4bfe4b550231bd2", "type": "electric_scooter", "is_reserved": 0, "lon": -77.0177755}, {"fusion_lat": 0.0, "name": "8d1fc2bcb8d23888e7bffb304b766aba", "is_disabled": 0, "rental_uris": {"android": "https://dc.lft.to/lastmile_qr_scan", "ios": "https://dc.lft.to/lastmile_qr_scan"}, "fusion_lon": 0.0, "lat": 38.9008155, "bike_id": "8d1fc2bcb8d23888e7bffb304b766aba", "type": "electric_scooter", "is_reserved": 0, "lon": -77.047535}, {"fusion_lat": 0.0, "name": "70374de1bdc41276d883e7f4b27dc219", "is_disabled": 0, "rental_uris": {"android": "https://dc.lft.to/lastmile_qr_scan", "ios": "https://dc.lft.to/lastmile_qr_scan"}, "fusion_lon": 0.0, "lat": 38.919564666666666, "bike_id": "70374de1bdc41276d883e7f4b27dc219", "type": "electric_scooter", "is_reserved": 0, "lon": -77.01785916666667}, {"fusion_lat": 0.0, "name": "317cc326502ed1d569daa702870f72fc", "is_disabled": 0, "rental_uris": {"android": "https://dc.lft.to/lastmile_qr_scan", "ios": "https://dc.lft.to/lastmile_qr_scan"}, "fusion_lon": 0.0, "lat": 38.92570516666667, "bike_id": "317cc326502ed1d569daa702870f72fc", "type": "electric_scooter", "is_reserved": 0, "lon": -77.05266566666667}, {"fusion_lat": 0.0, "name": "0149a925521fe6e3afe5ffded5ded76a", "is_disabled": 0, "rental_uris": {"android": "https://dc.lft.to/lastmile_qr_scan", "ios": "https://dc.lft.to/lastmile_qr_scan"}, "fusion_lon": 0.0, "lat": 38.88478966666667, "bike_id": "0149a925521fe6e3afe5ffded5ded76a", "type": "electric_scooter", "is_reserved": 0, "lon": -77.02435983333334}, {"fusion_lat": 0.0, "name": "7b60ba9bfb26448e37ccdaa49f8db5b5", "is_disabled": 0, "rental_uris": {"android": "https://dc.lft.to/lastmile_qr_scan", "ios": "https://dc.lft.to/lastmile_qr_scan"}, "fusion_lon": 0.0, "lat": 38.901983666666666, "bike_id": "7b60ba9bfb26448e37ccdaa49f8db5b5", "type": "electric_scooter", "is_reserved": 0, "lon": -77.02456433333333}, {"fusion_lat": 0.0, "name": "78cab6eb2bcd27e005fceb63d40bd025", "is_disabled": 0, "rental_uris": {"android": "https://dc.lft.to/lastmile_qr_scan", "ios": "https://dc.lft.to/lastmile_qr_scan"}, "fusion_lon": 0.0, "lat": 38.901302, "bike_id": "78cab6eb2bcd27e005fceb63d40bd025", "type": "electric_scooter", "is_reserved": 0, "lon": -77.00211516666667}, {"fusion_lat": 0.0, "name": "bf08ee0b19da3c396390be9721095a50", "is_disabled": 0, "rental_uris": {"android": "https://dc.lft.to/lastmile_qr_scan", "ios": "https://dc.lft.to/lastmile_qr_scan"}, "fusion_lon": 0.0, "lat": 38.90271416666667, "bike_id": "bf08ee0b19da3c396390be9721095a50", "type": "electric_scooter", "is_reserved": 0, "lon": -76.9290305}, {"fusion_lat": 0.0, "name": "fe50489ce3ded266374645f9d433c81f", "is_disabled": 0, "rental_uris": {"android": "https://dc.lft.to/lastmile_qr_scan", "ios": "https://dc.lft.to/lastmile_qr_scan"}, "fusion_lon": 0.0, "lat": 38.92001116666667, "bike_id": "fe50489ce3ded266374645f9d433c81f", "type": "electric_scooter", "is_reserved": 0, "lon": -77.0216915}, {"fusion_lat": 0.0, "name": "43a44b9d54034b2d78f0d19d13dffc36", "is_disabled": 0, "rental_uris": {"android": "https://dc.lft.to/lastmile_qr_scan", "ios": "https://dc.lft.to/lastmile_qr_scan"}, "fusion_lon": 0.0, "lat": 38.91712033333334, "bike_id": "43a44b9d54034b2d78f0d19d13dffc36", "type": "electric_scooter", "is_reserved": 0, "lon": -76.97658083333333}, {"fusion_lat": 0.0, "name": "76346e9c5d7e39a731accb5f4c3f79cf", "is_disabled": 0, "rental_uris": {"android": "https://dc.lft.to/lastmile_qr_scan", "ios": "https://dc.lft.to/lastmile_qr_scan"}, "fusion_lon": 0.0, "lat": 38.92038083333333, "bike_id": "76346e9c5d7e39a731accb5f4c3f79cf", "type": "electric_scooter", "is_reserved": 0, "lon": -77.025904}, {"fusion_lat": 0.0, "name": "d0cc6b507e48f04bc2fcbb26c26f5972", "is_disabled": 0, "rental_uris": {"android": "https://dc.lft.to/lastmile_qr_scan", "ios": "https://dc.lft.to/lastmile_qr_scan"}, "fusion_lon": 0.0, "lat": 38.938993333333336, "bike_id": "d0cc6b507e48f04bc2fcbb26c26f5972", "type": "electric_scooter", "is_reserved": 0, "lon": -77.02481433333334}, {"fusion_lat": 0.0, "name": "b5c8a4cafb33f9ca94fb6324e7b57990", "is_disabled": 0, "rental_uris": {"android": "https://dc.lft.to/lastmile_qr_scan", "ios": "https://dc.lft.to/lastmile_qr_scan"}, "fusion_lon": 0.0, "lat": 38.920006, "bike_id": "b5c8a4cafb33f9ca94fb6324e7b57990", "type": "electric_scooter", "is_reserved": 0, "lon": -77.0321805}, {"fusion_lat": 0.0, "name": "5c3e07e400f62f58bcd9618be8d5a3ac", "is_disabled": 0, "rental_uris": {"android": "https://dc.lft.to/lastmile_qr_scan", "ios": "https://dc.lft.to/lastmile_qr_scan"}, "fusion_lon": 0.0, "lat": 38.916853833333334, "bike_id": "5c3e07e400f62f58bcd9618be8d5a3ac", "type": "electric_scooter", "is_reserved": 0, "lon": -77.0295535}, {"fusion_lat": 0.0, "name": "a6d2f8ffe11348eb8f9b3f97413cddf4", "is_disabled": 0, "rental_uris": {"android": "https://dc.lft.to/lastmile_qr_scan", "ios": "https://dc.lft.to/lastmile_qr_scan"}, "fusion_lon": 0.0, "lat": 38.907315, "bike_id": "a6d2f8ffe11348eb8f9b3f97413cddf4", "type": "electric_scooter", "is_reserved": 0, "lon": -77.029513}, {"fusion_lat": 0.0, "name": "47a55951f0faba7274e2be96a07ba9a9", "is_disabled": 0, "rental_uris": {"android": "https://dc.lft.to/lastmile_qr_scan", "ios": "https://dc.lft.to/lastmile_qr_scan"}, "fusion_lon": 0.0, "lat": 38.91684816666667, "bike_id": "47a55951f0faba7274e2be96a07ba9a9", "type": "electric_scooter", "is_reserved": 0, "lon": -77.02958916666667}, {"fusion_lat": 0.0, "name": "eb26d2c1e2a16925bafbdd6a3ba9d728", "is_disabled": 0, "rental_uris": {"android": "https://dc.lft.to/lastmile_qr_scan", "ios": "https://dc.lft.to/lastmile_qr_scan"}, "fusion_lon": 0.0, "lat": 38.948693166666665, "bike_id": "eb26d2c1e2a16925bafbdd6a3ba9d728", "type": "electric_scooter", "is_reserved": 0, "lon": -77.0257925}, {"fusion_lat": 0.0, "name": "c0d68c1d0bc4731d60cde6a57f933ccb", "is_disabled": 0, "rental_uris": {"android": "https://dc.lft.to/lastmile_qr_scan", "ios": "https://dc.lft.to/lastmile_qr_scan"}, "fusion_lon": 0.0, "lat": 38.912728333333334, "bike_id": "c0d68c1d0bc4731d60cde6a57f933ccb", "type": "electric_scooter", "is_reserved": 0, "lon": -77.02234933333334}, {"fusion_lat": 0.0, "name": "65b7dc86b6ece651d752eb18b6bd381a", "is_disabled": 0, "rental_uris": {"android": "https://dc.lft.to/lastmile_qr_scan", "ios": "https://dc.lft.to/lastmile_qr_scan"}, "fusion_lon": 0.0, "lat": 38.912734666666665, "bike_id": "65b7dc86b6ece651d752eb18b6bd381a", "type": "electric_scooter", "is_reserved": 0, "lon": -77.04505033333334}, {"fusion_lat": 0.0, "name": "2eb1a535cce783bf791e3c06c6104321", "is_disabled": 0, "rental_uris": {"android": "https://dc.lft.to/lastmile_qr_scan", "ios": "https://dc.lft.to/lastmile_qr_scan"}, "fusion_lon": 0.0, "lat": 38.914261333333336, "bike_id": "2eb1a535cce783bf791e3c06c6104321", "type": "electric_scooter", "is_reserved": 0, "lon": -77.02196033333334}, {"fusion_lat": 0.0, "name": "256e4a1cddf72b4082eb062e80f2afed", "is_disabled": 0, "rental_uris": {"android": "https://dc.lft.to/lastmile_qr_scan", "ios": "https://dc.lft.to/lastmile_qr_scan"}, "fusion_lon": 0.0, "lat": 38.96179566666667, "bike_id": "256e4a1cddf72b4082eb062e80f2afed", "type": "electric_bike", "is_reserved": 0, "lon": -77.07363283333333}, {"fusion_lat": 0.0, "name": "46f1a0b70b75b0952120cfc57f81c96e", "is_disabled": 0, "rental_uris": {"android": "https://dc.lft.to/lastmile_qr_scan", "ios": "https://dc.lft.to/lastmile_qr_scan"}, "fusion_lon": 0.0, "lat": 38.9037745, "bike_id": "46f1a0b70b75b0952120cfc57f81c96e", "type": "electric_scooter", "is_reserved": 0, "lon": -77.0602505}, {"fusion_lat": 0.0, "name": "4504f3ac1d4e76fb809d1fcb06e22bc3", "is_disabled": 0, "rental_uris": {"android": "https://dc.lft.to/lastmile_qr_scan", "ios": "https://dc.lft.to/lastmile_qr_scan"}, "fusion_lon": 0.0, "lat": 38.930816166666666, "bike_id": "4504f3ac1d4e76fb809d1fcb06e22bc3", "type": "electric_scooter", "is_reserved": 0, "lon": -77.027938}, {"fusion_lat": 0.0, "name": "a265caeb2fc87d3136faaa574ddf389a", "is_disabled": 0, "rental_uris": {"android": "https://dc.lft.to/lastmile_qr_scan", "ios": "https://dc.lft.to/lastmile_qr_scan"}, "fusion_lon": 0.0, "lat": 38.887404333333336, "bike_id": "a265caeb2fc87d3136faaa574ddf389a", "type": "electric_scooter", "is_reserved": 0, "lon": -77.0213075}, {"fusion_lat": 0.0, "name": "dce7bf6ff4242cfb0a748cd3dc1c0d6e", "is_disabled": 0, "rental_uris": {"android": "https://dc.lft.to/lastmile_qr_scan", "ios": "https://dc.lft.to/lastmile_qr_scan"}, "fusion_lon": 0.0, "lat": 38.90040883333333, "bike_id": "dce7bf6ff4242cfb0a748cd3dc1c0d6e", "type": "electric_scooter", "is_reserved": 0, "lon": -77.0019945}, {"fusion_lat": 0.0, "name": "72b84ff1f782934e610f7ef9d25a5db5", "is_disabled": 0, "rental_uris": {"android": "https://dc.lft.to/lastmile_qr_scan", "ios": "https://dc.lft.to/lastmile_qr_scan"}, "fusion_lon": 0.0, "lat": 38.923855833333334, "bike_id": "72b84ff1f782934e610f7ef9d25a5db5", "type": "electric_scooter", "is_reserved": 0, "lon": -77.02166666666666}, {"fusion_lat": 0.0, "name": "2d270fa85fdffedd21a9c959248f75ad", "is_disabled": 0, "rental_uris": {"android": "https://dc.lft.to/lastmile_qr_scan", "ios": "https://dc.lft.to/lastmile_qr_scan"}, "fusion_lon": 0.0, "lat": 38.89222733333333, "bike_id": "2d270fa85fdffedd21a9c959248f75ad", "type": "electric_scooter", "is_reserved": 0, "lon": -77.04643116666666}, {"fusion_lat": 0.0, "name": "cb61d791da266cd1557c90bfbcff9142", "is_disabled": 0, "rental_uris": {"android": "https://dc.lft.to/lastmile_qr_scan", "ios": "https://dc.lft.to/lastmile_qr_scan"}, "fusion_lon": 0.0, "lat": 38.9322095, "bike_id": "cb61d791da266cd1557c90bfbcff9142", "type": "electric_scooter", "is_reserved": 0, "lon": -76.99493383333333}, {"fusion_lat": 0.0, "name": "380ecff698e51431af5fdbaf5440565b", "is_disabled": 0, "rental_uris": {"android": "https://dc.lft.to/lastmile_qr_scan", "ios": "https://dc.lft.to/lastmile_qr_scan"}, "fusion_lon": 0.0, "lat": 38.896436, "bike_id": "380ecff698e51431af5fdbaf5440565b", "type": "electric_scooter", "is_reserved": 0, "lon": -77.00921416666667}, {"fusion_lat": 0.0, "name": "2e0fb06373c37f3d47490b3f7fbab283", "is_disabled": 0, "rental_uris": {"android": "https://dc.lft.to/lastmile_qr_scan", "ios": "https://dc.lft.to/lastmile_qr_scan"}, "fusion_lon": 0.0, "lat": 38.92344466666667, "bike_id": "2e0fb06373c37f3d47490b3f7fbab283", "type": "electric_scooter", "is_reserved": 0, "lon": -77.05182583333334}, {"fusion_lat": 0.0, "name": "dc9e047d790854526d3307bc0a3e0ca2", "is_disabled": 0, "rental_uris": {"android": "https://dc.lft.to/lastmile_qr_scan", "ios": "https://dc.lft.to/lastmile_qr_scan"}, "fusion_lon": 0.0, "lat": 38.8846025, "bike_id": "dc9e047d790854526d3307bc0a3e0ca2", "type": "electric_scooter", "is_reserved": 0, "lon": -76.92625466666667}, {"fusion_lat": 0.0, "name": "2b7084dcc9bf13c7369b2acfaad03965", "is_disabled": 0, "rental_uris": {"android": "https://dc.lft.to/lastmile_qr_scan", "ios": "https://dc.lft.to/lastmile_qr_scan"}, "fusion_lon": 0.0, "lat": 38.89603983333333, "bike_id": "2b7084dcc9bf13c7369b2acfaad03965", "type": "electric_scooter", "is_reserved": 0, "lon": -76.98107966666667}, {"fusion_lat": 0.0, "name": "07b7b640976ef1bb86c3e73f07a24b3d", "is_disabled": 0, "rental_uris": {"android": "https://dc.lft.to/lastmile_qr_scan", "ios": "https://dc.lft.to/lastmile_qr_scan"}, "fusion_lon": 0.0, "lat": 38.91817533333333, "bike_id": "07b7b640976ef1bb86c3e73f07a24b3d", "type": "electric_scooter", "is_reserved": 0, "lon": -77.0451975}, {"fusion_lat": 0.0, "name": "07e9e76ba1d67c3efc651cf8261f783d", "is_disabled": 0, "rental_uris": {"android": "https://dc.lft.to/lastmile_qr_scan", "ios": "https://dc.lft.to/lastmile_qr_scan"}, "fusion_lon": 0.0, "lat": 38.90666266666667, "bike_id": "07e9e76ba1d67c3efc651cf8261f783d", "type": "electric_scooter", "is_reserved": 0, "lon": -77.01062066666667}, {"fusion_lat": 0.0, "name": "fef473539b1c314c56741054092a017d", "is_disabled": 0, "rental_uris": {"android": "https://dc.lft.to/lastmile_qr_scan", "ios": "https://dc.lft.to/lastmile_qr_scan"}, "fusion_lon": 0.0, "lat": 38.91804616666667, "bike_id": "fef473539b1c314c56741054092a017d", "type": "electric_scooter", "is_reserved": 0, "lon": -77.02711216666667}, {"fusion_lat": 0.0, "name": "9b2dd7141e95e96d946ceca9249fcb72", "is_disabled": 0, "rental_uris": {"android": "https://dc.lft.to/lastmile_qr_scan", "ios": "https://dc.lft.to/lastmile_qr_scan"}, "fusion_lon": 0.0, "lat": 38.90571583333333, "bike_id": "9b2dd7141e95e96d946ceca9249fcb72", "type": "electric_scooter", "is_reserved": 0, "lon": -77.03075566666666}, {"fusion_lat": 0.0, "name": "495f5a18f8b0026625f8b02784b4bd65", "is_disabled": 0, "rental_uris": {"android": "https://dc.lft.to/lastmile_qr_scan", "ios": "https://dc.lft.to/lastmile_qr_scan"}, "fusion_lon": 0.0, "lat": 38.98781233333333, "bike_id": "495f5a18f8b0026625f8b02784b4bd65", "type": "electric_bike", "is_reserved": 0, "lon": -77.14104583333334}, {"fusion_lat": 0.0, "name": "3c3896b5284a9d2c1c42415e730b91d1", "is_disabled": 0, "rental_uris": {"android": "https://dc.lft.to/lastmile_qr_scan", "ios": "https://dc.lft.to/lastmile_qr_scan"}, "fusion_lon": 0.0, "lat": 38.94162133333333, "bike_id": "3c3896b5284a9d2c1c42415e730b91d1", "type": "electric_bike", "is_reserved": 0, "lon": -76.96649216666667}, {"fusion_lat": 0.0, "name": "f2ed367fa04dce58392491147b5813b7", "is_disabled": 0, "rental_uris": {"android": "https://dc.lft.to/lastmile_qr_scan", "ios": "https://dc.lft.to/lastmile_qr_scan"}, "fusion_lon": 0.0, "lat": 38.91598466666667, "bike_id": "f2ed367fa04dce58392491147b5813b7", "type": "electric_scooter", "is_reserved": 0, "lon": -77.02292566666667}, {"fusion_lat": 0.0, "name": "76cf49baa350ac7e2b7efef5fb83e0d9", "is_disabled": 0, "rental_uris": {"android": "https://dc.lft.to/lastmile_qr_scan", "ios": "https://dc.lft.to/lastmile_qr_scan"}, "fusion_lon": 0.0, "lat": 38.895460666666665, "bike_id": "76cf49baa350ac7e2b7efef5fb83e0d9", "type": "electric_scooter", "is_reserved": 0, "lon": -76.98339283333334}, {"fusion_lat": 0.0, "name": "cff8cef77affb33bf77d92d85d752704", "is_disabled": 0, "rental_uris": {"android": "https://dc.lft.to/lastmile_qr_scan", "ios": "https://dc.lft.to/lastmile_qr_scan"}, "fusion_lon": 0.0, "lat": 38.9084195, "bike_id": "cff8cef77affb33bf77d92d85d752704", "type": "electric_scooter", "is_reserved": 0, "lon": -77.0239485}, {"fusion_lat": 0.0, "name": "1ba6e058cdc7c035599fe4adf440a0ec", "is_disabled": 0, "rental_uris": {"android": "https://dc.lft.to/lastmile_qr_scan", "ios": "https://dc.lft.to/lastmile_qr_scan"}, "fusion_lon": 0.0, "lat": 38.9180885, "bike_id": "1ba6e058cdc7c035599fe4adf440a0ec", "type": "electric_scooter", "is_reserved": 0, "lon": -77.03436366666666}, {"fusion_lat": 0.0, "name": "64de932393003b94db846def542286f7", "is_disabled": 0, "rental_uris": {"android": "https://dc.lft.to/lastmile_qr_scan", "ios": "https://dc.lft.to/lastmile_qr_scan"}, "fusion_lon": 0.0, "lat": 38.940841166666665, "bike_id": "64de932393003b94db846def542286f7", "type": "electric_bike", "is_reserved": 0, "lon": -77.00025583333333}, {"fusion_lat": 0.0, "name": "f38db89f7ca350dc33d78073586f89dc", "is_disabled": 0, "rental_uris": {"android": "https://dc.lft.to/lastmile_qr_scan", "ios": "https://dc.lft.to/lastmile_qr_scan"}, "fusion_lon": 0.0, "lat": 38.9146985, "bike_id": "f38db89f7ca350dc33d78073586f89dc", "type": "electric_scooter", "is_reserved": 0, "lon": -77.04561666666666}, {"fusion_lat": 0.0, "name": "081c9b80378ffd024a84599edfac9f89", "is_disabled": 0, "rental_uris": {"android": "https://dc.lft.to/lastmile_qr_scan", "ios": "https://dc.lft.to/lastmile_qr_scan"}, "fusion_lon": 0.0, "lat": 38.87367616666667, "bike_id": "081c9b80378ffd024a84599edfac9f89", "type": "electric_scooter", "is_reserved": 0, "lon": -77.00129333333334}, {"fusion_lat": 0.0, "name": "fae6b90a5db3b17743330b0a92cdfa0c", "is_disabled": 0, "rental_uris": {"android": "https://dc.lft.to/lastmile_qr_scan", "ios": "https://dc.lft.to/lastmile_qr_scan"}, "fusion_lon": 0.0, "lat": 38.934428833333335, "bike_id": "fae6b90a5db3b17743330b0a92cdfa0c", "type": "electric_bike", "is_reserved": 0, "lon": -77.02100033333333}, {"fusion_lat": 0.0, "name": "7eb8d0feb59158fd0d345a48050f88da", "is_disabled": 0, "rental_uris": {"android": "https://dc.lft.to/lastmile_qr_scan", "ios": "https://dc.lft.to/lastmile_qr_scan"}, "fusion_lon": 0.0, "lat": 38.90024833333333, "bike_id": "7eb8d0feb59158fd0d345a48050f88da", "type": "electric_scooter", "is_reserved": 0, "lon": -76.99635783333333}, {"fusion_lat": 0.0, "name": "a6d699ffd276a1f63c99e695ce65f072", "is_disabled": 0, "rental_uris": {"android": "https://dc.lft.to/lastmile_qr_scan", "ios": "https://dc.lft.to/lastmile_qr_scan"}, "fusion_lon": 0.0, "lat": 38.951987333333335, "bike_id": "a6d699ffd276a1f63c99e695ce65f072", "type": "electric_scooter", "is_reserved": 0, "lon": -77.01251916666666}, {"fusion_lat": 0.0, "name": "d6dbbf7c229fbf0388e3d2cad39c17db", "is_disabled": 0, "rental_uris": {"android": "https://dc.lft.to/lastmile_qr_scan", "ios": "https://dc.lft.to/lastmile_qr_scan"}, "fusion_lon": 0.0, "lat": 38.87644383333333, "bike_id": "d6dbbf7c229fbf0388e3d2cad39c17db", "type": "electric_scooter", "is_reserved": 0, "lon": -77.00068866666666}, {"fusion_lat": 0.0, "name": "45a038d444afef87068e4d147629de41", "is_disabled": 0, "rental_uris": {"android": "https://dc.lft.to/lastmile_qr_scan", "ios": "https://dc.lft.to/lastmile_qr_scan"}, "fusion_lon": 0.0, "lat": 38.897246833333334, "bike_id": "45a038d444afef87068e4d147629de41", "type": "electric_scooter", "is_reserved": 0, "lon": -77.0272935}, {"fusion_lat": 0.0, "name": "3ed86db4b7c0db85e366f490a16c16e2", "is_disabled": 0, "rental_uris": {"android": "https://dc.lft.to/lastmile_qr_scan", "ios": "https://dc.lft.to/lastmile_qr_scan"}, "fusion_lon": 0.0, "lat": 38.907330333333334, "bike_id": "3ed86db4b7c0db85e366f490a16c16e2", "type": "electric_scooter", "is_reserved": 0, "lon": -77.043361}, {"fusion_lat": 0.0, "name": "c7cdbd87248a9004595a2e347d544206", "is_disabled": 0, "rental_uris": {"android": "https://dc.lft.to/lastmile_qr_scan", "ios": "https://dc.lft.to/lastmile_qr_scan"}, "fusion_lon": 0.0, "lat": 38.928572333333335, "bike_id": "c7cdbd87248a9004595a2e347d544206", "type": "electric_scooter", "is_reserved": 0, "lon": -77.03296783333333}, {"fusion_lat": 0.0, "name": "20b446f82201fb8a39c6d6e384d33fe8", "is_disabled": 0, "rental_uris": {"android": "https://dc.lft.to/lastmile_qr_scan", "ios": "https://dc.lft.to/lastmile_qr_scan"}, "fusion_lon": 0.0, "lat": 38.9192415, "bike_id": "20b446f82201fb8a39c6d6e384d33fe8", "type": "electric_scooter", "is_reserved": 0, "lon": -77.03420216666666}, {"fusion_lat": 0.0, "name": "8b1c81aac7719e6d64a40d8f04bc5358", "is_disabled": 0, "rental_uris": {"android": "https://dc.lft.to/lastmile_qr_scan", "ios": "https://dc.lft.to/lastmile_qr_scan"}, "fusion_lon": 0.0, "lat": 38.90503866666667, "bike_id": "8b1c81aac7719e6d64a40d8f04bc5358", "type": "electric_scooter", "is_reserved": 0, "lon": -77.0300975}, {"fusion_lat": 0.0, "name": "07b521b871736b5ae3367e9782c115e8", "is_disabled": 0, "rental_uris": {"android": "https://dc.lft.to/lastmile_qr_scan", "ios": "https://dc.lft.to/lastmile_qr_scan"}, "fusion_lon": 0.0, "lat": 38.910316, "bike_id": "07b521b871736b5ae3367e9782c115e8", "type": "electric_scooter", "is_reserved": 0, "lon": -77.0414655}, {"fusion_lat": 0.0, "name": "ce65a9fc1b05296ffa3ae5024b0bd3f0", "is_disabled": 0, "rental_uris": {"android": "https://dc.lft.to/lastmile_qr_scan", "ios": "https://dc.lft.to/lastmile_qr_scan"}, "fusion_lon": 0.0, "lat": 38.905009, "bike_id": "ce65a9fc1b05296ffa3ae5024b0bd3f0", "type": "electric_scooter", "is_reserved": 0, "lon": -77.0481885}, {"fusion_lat": 0.0, "name": "eb5b1bea7c69dbf8ce1a86ea96f436b0", "is_disabled": 0, "rental_uris": {"android": "https://dc.lft.to/lastmile_qr_scan", "ios": "https://dc.lft.to/lastmile_qr_scan"}, "fusion_lon": 0.0, "lat": 38.889297666666664, "bike_id": "eb5b1bea7c69dbf8ce1a86ea96f436b0", "type": "electric_bike", "is_reserved": 0, "lon": -76.9917845}, {"fusion_lat": 0.0, "name": "c4602fedfca89d4393b4af602157597c", "is_disabled": 0, "rental_uris": {"android": "https://dc.lft.to/lastmile_qr_scan", "ios": "https://dc.lft.to/lastmile_qr_scan"}, "fusion_lon": 0.0, "lat": 38.92374216666666, "bike_id": "c4602fedfca89d4393b4af602157597c", "type": "electric_scooter", "is_reserved": 0, "lon": -77.03526783333334}, {"fusion_lat": 0.0, "name": "072f05464abb736dcd48995d409adb3c", "is_disabled": 0, "rental_uris": {"android": "https://dc.lft.to/lastmile_qr_scan", "ios": "https://dc.lft.to/lastmile_qr_scan"}, "fusion_lon": 0.0, "lat": 38.91006016666667, "bike_id": "072f05464abb736dcd48995d409adb3c", "type": "electric_scooter", "is_reserved": 0, "lon": -77.02208633333333}, {"fusion_lat": 0.0, "name": "1db6edfc7170533a545621d7cdadb073", "is_disabled": 0, "rental_uris": {"android": "https://dc.lft.to/lastmile_qr_scan", "ios": "https://dc.lft.to/lastmile_qr_scan"}, "fusion_lon": 0.0, "lat": 38.877234666666666, "bike_id": "1db6edfc7170533a545621d7cdadb073", "type": "electric_scooter", "is_reserved": 0, "lon": -77.00600366666667}, {"fusion_lat": 0.0, "name": "e530e816398a9275f5c91af953c946cd", "is_disabled": 0, "rental_uris": {"android": "https://dc.lft.to/lastmile_qr_scan", "ios": "https://dc.lft.to/lastmile_qr_scan"}, "fusion_lon": 0.0, "lat": 38.90518183333333, "bike_id": "e530e816398a9275f5c91af953c946cd", "type": "electric_scooter", "is_reserved": 0, "lon": -77.04784783333334}, {"fusion_lat": 0.0, "name": "0c7464166d33239b8689f73b37ee4ca9", "is_disabled": 0, "rental_uris": {"android": "https://dc.lft.to/lastmile_qr_scan", "ios": "https://dc.lft.to/lastmile_qr_scan"}, "fusion_lon": 0.0, "lat": 38.90064233333333, "bike_id": "0c7464166d33239b8689f73b37ee4ca9", "type": "electric_scooter", "is_reserved": 0, "lon": -76.93388833333333}, {"fusion_lat": 0.0, "name": "a185fdbce692ee9340b5faf71cc91895", "is_disabled": 0, "rental_uris": {"android": "https://dc.lft.to/lastmile_qr_scan", "ios": "https://dc.lft.to/lastmile_qr_scan"}, "fusion_lon": 0.0, "lat": 38.901743333333336, "bike_id": "a185fdbce692ee9340b5faf71cc91895", "type": "electric_scooter", "is_reserved": 0, "lon": -77.025013}, {"fusion_lat": 0.0, "name": "7fcd5049a6c5d20512921b563fbe46b2", "is_disabled": 0, "rental_uris": {"android": "https://dc.lft.to/lastmile_qr_scan", "ios": "https://dc.lft.to/lastmile_qr_scan"}, "fusion_lon": 0.0, "lat": 38.89831016666667, "bike_id": "7fcd5049a6c5d20512921b563fbe46b2", "type": "electric_scooter", "is_reserved": 0, "lon": -76.946336}, {"fusion_lat": 0.0, "name": "6474188f7ce037d0dc0d6b7911b891e6", "is_disabled": 0, "rental_uris": {"android": "https://dc.lft.to/lastmile_qr_scan", "ios": "https://dc.lft.to/lastmile_qr_scan"}, "fusion_lon": 0.0, "lat": 38.90640716666667, "bike_id": "6474188f7ce037d0dc0d6b7911b891e6", "type": "electric_scooter", "is_reserved": 0, "lon": -77.02603016666667}, {"fusion_lat": 0.0, "name": "1c5ee2cfc08e3d3c3b654f33d75bf088", "is_disabled": 0, "rental_uris": {"android": "https://dc.lft.to/lastmile_qr_scan", "ios": "https://dc.lft.to/lastmile_qr_scan"}, "fusion_lon": 0.0, "lat": 38.905781166666664, "bike_id": "1c5ee2cfc08e3d3c3b654f33d75bf088", "type": "electric_scooter", "is_reserved": 0, "lon": -77.00883316666666}, {"fusion_lat": 0.0, "name": "259e0cb6682ff73f2fca2dc14b57201b", "is_disabled": 0, "rental_uris": {"android": "https://dc.lft.to/lastmile_qr_scan", "ios": "https://dc.lft.to/lastmile_qr_scan"}, "fusion_lon": 0.0, "lat": 38.9548575, "bike_id": "259e0cb6682ff73f2fca2dc14b57201b", "type": "electric_bike", "is_reserved": 0, "lon": -77.02669233333333}, {"fusion_lat": 0.0, "name": "db4476f0fc12612793fec16957738899", "is_disabled": 0, "rental_uris": {"android": "https://dc.lft.to/lastmile_qr_scan", "ios": "https://dc.lft.to/lastmile_qr_scan"}, "fusion_lon": 0.0, "lat": 38.914410833333335, "bike_id": "db4476f0fc12612793fec16957738899", "type": "electric_scooter", "is_reserved": 0, "lon": -77.04500916666667}, {"fusion_lat": 0.0, "name": "092fa79623f1e1b13a50859be359a23a", "is_disabled": 0, "rental_uris": {"android": "https://dc.lft.to/lastmile_qr_scan", "ios": "https://dc.lft.to/lastmile_qr_scan"}, "fusion_lon": 0.0, "lat": 38.905741666666664, "bike_id": "092fa79623f1e1b13a50859be359a23a", "type": "electric_scooter", "is_reserved": 0, "lon": -77.04682366666667}, {"fusion_lat": 0.0, "name": "908e776c9f46959583191db61a348bdb", "is_disabled": 0, "rental_uris": {"android": "https://dc.lft.to/lastmile_qr_scan", "ios": "https://dc.lft.to/lastmile_qr_scan"}, "fusion_lon": 0.0, "lat": 38.899536, "bike_id": "908e776c9f46959583191db61a348bdb", "type": "electric_scooter", "is_reserved": 0, "lon": -76.9855965}, {"fusion_lat": 0.0, "name": "80183ed8eb10f0b7298d4a2f8e29da90", "is_disabled": 0, "rental_uris": {"android": "https://dc.lft.to/lastmile_qr_scan", "ios": "https://dc.lft.to/lastmile_qr_scan"}, "fusion_lon": 0.0, "lat": 38.904902666666665, "bike_id": "80183ed8eb10f0b7298d4a2f8e29da90", "type": "electric_scooter", "is_reserved": 0, "lon": -77.04105966666667}, {"fusion_lat": 0.0, "name": "a01c0609e0d5fe7224cf614797af00d9", "is_disabled": 0, "rental_uris": {"android": "https://dc.lft.to/lastmile_qr_scan", "ios": "https://dc.lft.to/lastmile_qr_scan"}, "fusion_lon": 0.0, "lat": 38.88988466666667, "bike_id": "a01c0609e0d5fe7224cf614797af00d9", "type": "electric_scooter", "is_reserved": 0, "lon": -76.91417716666666}, {"fusion_lat": 0.0, "name": "5f6b836cbd22f4676eb811d3d0e7c165", "is_disabled": 0, "rental_uris": {"android": "https://dc.lft.to/lastmile_qr_scan", "ios": "https://dc.lft.to/lastmile_qr_scan"}, "fusion_lon": 0.0, "lat": 38.9061655, "bike_id": "5f6b836cbd22f4676eb811d3d0e7c165", "type": "electric_scooter", "is_reserved": 0, "lon": -77.00584066666667}, {"fusion_lat": 0.0, "name": "059ae2f413f6f4bc3c08268248b34475", "is_disabled": 0, "rental_uris": {"android": "https://dc.lft.to/lastmile_qr_scan", "ios": "https://dc.lft.to/lastmile_qr_scan"}, "fusion_lon": 0.0, "lat": 38.93171733333333, "bike_id": "059ae2f413f6f4bc3c08268248b34475", "type": "electric_scooter", "is_reserved": 0, "lon": -77.07850866666666}, {"fusion_lat": 0.0, "name": "f9875daaeead542ca870fffc7f793d48", "is_disabled": 0, "rental_uris": {"android": "https://dc.lft.to/lastmile_qr_scan", "ios": "https://dc.lft.to/lastmile_qr_scan"}, "fusion_lon": 0.0, "lat": 38.9110665, "bike_id": "f9875daaeead542ca870fffc7f793d48", "type": "electric_scooter", "is_reserved": 0, "lon": -77.0420585}, {"fusion_lat": 0.0, "name": "c97901d4b995cbd7a16f4fb543f5e897", "is_disabled": 0, "rental_uris": {"android": "https://dc.lft.to/lastmile_qr_scan", "ios": "https://dc.lft.to/lastmile_qr_scan"}, "fusion_lon": 0.0, "lat": 38.948662166666665, "bike_id": "c97901d4b995cbd7a16f4fb543f5e897", "type": "electric_scooter", "is_reserved": 0, "lon": -77.02576516666667}, {"fusion_lat": 0.0, "name": "6a10d725c5ff645fd968d39059893a91", "is_disabled": 0, "rental_uris": {"android": "https://dc.lft.to/lastmile_qr_scan", "ios": "https://dc.lft.to/lastmile_qr_scan"}, "fusion_lon": 0.0, "lat": 38.9579405, "bike_id": "6a10d725c5ff645fd968d39059893a91", "type": "electric_bike", "is_reserved": 0, "lon": -76.96041816666667}, {"fusion_lat": 0.0, "name": "f5e1a400fd3cf11cd9cbe9992bec0d8c", "is_disabled": 0, "rental_uris": {"android": "https://dc.lft.to/lastmile_qr_scan", "ios": "https://dc.lft.to/lastmile_qr_scan"}, "fusion_lon": 0.0, "lat": 38.9172805, "bike_id": "f5e1a400fd3cf11cd9cbe9992bec0d8c", "type": "electric_scooter", "is_reserved": 0, "lon": -77.02815266666667}, {"fusion_lat": 0.0, "name": "b53437a38dca757f0046be5726a35fe4", "is_disabled": 0, "rental_uris": {"android": "https://dc.lft.to/lastmile_qr_scan", "ios": "https://dc.lft.to/lastmile_qr_scan"}, "fusion_lon": 0.0, "lat": 38.89826566666667, "bike_id": "b53437a38dca757f0046be5726a35fe4", "type": "electric_scooter", "is_reserved": 0, "lon": -77.025846}, {"fusion_lat": 0.0, "name": "1f22e6f1b8c92e18e4539cfdb10ed85b", "is_disabled": 0, "rental_uris": {"android": "https://dc.lft.to/lastmile_qr_scan", "ios": "https://dc.lft.to/lastmile_qr_scan"}, "fusion_lon": 0.0, "lat": 38.90092333333333, "bike_id": "1f22e6f1b8c92e18e4539cfdb10ed85b", "type": "electric_scooter", "is_reserved": 0, "lon": -76.98338883333334}, {"fusion_lat": 0.0, "name": "2004009c7b64e0a9dd4210c93eb55a46", "is_disabled": 0, "rental_uris": {"android": "https://dc.lft.to/lastmile_qr_scan", "ios": "https://dc.lft.to/lastmile_qr_scan"}, "fusion_lon": 0.0, "lat": 38.911218, "bike_id": "2004009c7b64e0a9dd4210c93eb55a46", "type": "electric_scooter", "is_reserved": 0, "lon": -76.99757466666667}, {"fusion_lat": 0.0, "name": "0662797ac7d80905b06842cf3502a2e0", "is_disabled": 0, "rental_uris": {"android": "https://dc.lft.to/lastmile_qr_scan", "ios": "https://dc.lft.to/lastmile_qr_scan"}, "fusion_lon": 0.0, "lat": 38.931299, "bike_id": "0662797ac7d80905b06842cf3502a2e0", "type": "electric_scooter", "is_reserved": 0, "lon": -77.03855083333333}, {"fusion_lat": 0.0, "name": "4abb03dd360ca57830ba652672648077", "is_disabled": 0, "rental_uris": {"android": "https://dc.lft.to/lastmile_qr_scan", "ios": "https://dc.lft.to/lastmile_qr_scan"}, "fusion_lon": 0.0, "lat": 38.95627066666667, "bike_id": "4abb03dd360ca57830ba652672648077", "type": "electric_bike", "is_reserved": 0, "lon": -76.93899816666666}, {"fusion_lat": 0.0, "name": "26fbddeffc5cdc53f8bf015f6686ca49", "is_disabled": 0, "rental_uris": {"android": "https://dc.lft.to/lastmile_qr_scan", "ios": "https://dc.lft.to/lastmile_qr_scan"}, "fusion_lon": 0.0, "lat": 38.9198455, "bike_id": "26fbddeffc5cdc53f8bf015f6686ca49", "type": "electric_scooter", "is_reserved": 0, "lon": -77.02617866666667}, {"fusion_lat": 0.0, "name": "618a0657033b76659a630bf61b22176b", "is_disabled": 0, "rental_uris": {"android": "https://dc.lft.to/lastmile_qr_scan", "ios": "https://dc.lft.to/lastmile_qr_scan"}, "fusion_lon": 0.0, "lat": 38.9148265, "bike_id": "618a0657033b76659a630bf61b22176b", "type": "electric_scooter", "is_reserved": 0, "lon": -77.04611283333334}, {"fusion_lat": 0.0, "name": "f33336f9643a42a545e0a58b3331e306", "is_disabled": 0, "rental_uris": {"android": "https://dc.lft.to/lastmile_qr_scan", "ios": "https://dc.lft.to/lastmile_qr_scan"}, "fusion_lon": 0.0, "lat": 38.895286, "bike_id": "f33336f9643a42a545e0a58b3331e306", "type": "electric_scooter", "is_reserved": 0, "lon": -76.93412116666667}, {"fusion_lat": 0.0, "name": "e3f41e75dbafc146119d4214f96549de", "is_disabled": 0, "rental_uris": {"android": "https://dc.lft.to/lastmile_qr_scan", "ios": "https://dc.lft.to/lastmile_qr_scan"}, "fusion_lon": 0.0, "lat": 38.9051235, "bike_id": "e3f41e75dbafc146119d4214f96549de", "type": "electric_scooter", "is_reserved": 0, "lon": -77.06472133333334}, {"fusion_lat": 0.0, "name": "a98901ccabc8c1e4033941dc800a03ad", "is_disabled": 0, "rental_uris": {"android": "https://dc.lft.to/lastmile_qr_scan", "ios": "https://dc.lft.to/lastmile_qr_scan"}, "fusion_lon": 0.0, "lat": 38.899037, "bike_id": "a98901ccabc8c1e4033941dc800a03ad", "type": "electric_scooter", "is_reserved": 0, "lon": -76.99383166666667}, {"fusion_lat": 0.0, "name": "4043842040cf50f1caa2352753bb85b7", "is_disabled": 0, "rental_uris": {"android": "https://dc.lft.to/lastmile_qr_scan", "ios": "https://dc.lft.to/lastmile_qr_scan"}, "fusion_lon": 0.0, "lat": 38.916781666666665, "bike_id": "4043842040cf50f1caa2352753bb85b7", "type": "electric_scooter", "is_reserved": 0, "lon": -77.015815}, {"fusion_lat": 0.0, "name": "f4e9bb6031480c5ebcfa57d538407979", "is_disabled": 0, "rental_uris": {"android": "https://dc.lft.to/lastmile_qr_scan", "ios": "https://dc.lft.to/lastmile_qr_scan"}, "fusion_lon": 0.0, "lat": 38.877106, "bike_id": "f4e9bb6031480c5ebcfa57d538407979", "type": "electric_scooter", "is_reserved": 0, "lon": -77.01759666666666}, {"fusion_lat": 0.0, "name": "8e3dbc50d7624c044b9afe6a2402f476", "is_disabled": 0, "rental_uris": {"android": "https://dc.lft.to/lastmile_qr_scan", "ios": "https://dc.lft.to/lastmile_qr_scan"}, "fusion_lon": 0.0, "lat": 38.91114066666667, "bike_id": "8e3dbc50d7624c044b9afe6a2402f476", "type": "electric_scooter", "is_reserved": 0, "lon": -76.99757666666666}, {"fusion_lat": 0.0, "name": "0afbc9fa8480099240d4c7590203f9a8", "is_disabled": 0, "rental_uris": {"android": "https://dc.lft.to/lastmile_qr_scan", "ios": "https://dc.lft.to/lastmile_qr_scan"}, "fusion_lon": 0.0, "lat": 38.93958216666667, "bike_id": "0afbc9fa8480099240d4c7590203f9a8", "type": "electric_scooter", "is_reserved": 0, "lon": -77.02187966666666}, {"fusion_lat": 0.0, "name": "cbbfac19c88197727427a3c2e0fcf466", "is_disabled": 0, "rental_uris": {"android": "https://dc.lft.to/lastmile_qr_scan", "ios": "https://dc.lft.to/lastmile_qr_scan"}, "fusion_lon": 0.0, "lat": 38.895058166666665, "bike_id": "cbbfac19c88197727427a3c2e0fcf466", "type": "electric_scooter", "is_reserved": 0, "lon": -77.03960683333334}, {"fusion_lat": 0.0, "name": "c2fa846c781b93515a65e9f17c9aedbc", "is_disabled": 0, "rental_uris": {"android": "https://dc.lft.to/lastmile_qr_scan", "ios": "https://dc.lft.to/lastmile_qr_scan"}, "fusion_lon": 0.0, "lat": 38.90234366666667, "bike_id": "c2fa846c781b93515a65e9f17c9aedbc", "type": "electric_scooter", "is_reserved": 0, "lon": -77.06150583333333}, {"fusion_lat": 0.0, "name": "bddb71d8cec7b5a29f5802af1c3f8c30", "is_disabled": 0, "rental_uris": {"android": "https://dc.lft.to/lastmile_qr_scan", "ios": "https://dc.lft.to/lastmile_qr_scan"}, "fusion_lon": 0.0, "lat": 38.90732766666667, "bike_id": "bddb71d8cec7b5a29f5802af1c3f8c30", "type": "electric_scooter", "is_reserved": 0, "lon": -77.0415655}, {"fusion_lat": 0.0, "name": "c48888593d53a45251c0946a2d378c4c", "is_disabled": 0, "rental_uris": {"android": "https://dc.lft.to/lastmile_qr_scan", "ios": "https://dc.lft.to/lastmile_qr_scan"}, "fusion_lon": 0.0, "lat": 38.930978833333334, "bike_id": "c48888593d53a45251c0946a2d378c4c", "type": "electric_scooter", "is_reserved": 0, "lon": -77.0266225}, {"fusion_lat": 0.0, "name": "f3db1aab852d102babc85dea6e17707f", "is_disabled": 0, "rental_uris": {"android": "https://dc.lft.to/lastmile_qr_scan", "ios": "https://dc.lft.to/lastmile_qr_scan"}, "fusion_lon": 0.0, "lat": 38.92451916666667, "bike_id": "f3db1aab852d102babc85dea6e17707f", "type": "electric_scooter", "is_reserved": 0, "lon": -77.04020916666667}, {"fusion_lat": 0.0, "name": "dc3f657500989d56ea99809aa295412c", "is_disabled": 0, "rental_uris": {"android": "https://dc.lft.to/lastmile_qr_scan", "ios": "https://dc.lft.to/lastmile_qr_scan"}, "fusion_lon": 0.0, "lat": 38.88119566666667, "bike_id": "dc3f657500989d56ea99809aa295412c", "type": "electric_bike", "is_reserved": 0, "lon": -77.00180633333333}, {"fusion_lat": 0.0, "name": "b102a8a641d1aec57c5553e71e748c43", "is_disabled": 0, "rental_uris": {"android": "https://dc.lft.to/lastmile_qr_scan", "ios": "https://dc.lft.to/lastmile_qr_scan"}, "fusion_lon": 0.0, "lat": 38.90968866666667, "bike_id": "b102a8a641d1aec57c5553e71e748c43", "type": "electric_scooter", "is_reserved": 0, "lon": -77.03209166666667}, {"fusion_lat": 0.0, "name": "5ef233a95d1c8227bb6a26470c090567", "is_disabled": 0, "rental_uris": {"android": "https://dc.lft.to/lastmile_qr_scan", "ios": "https://dc.lft.to/lastmile_qr_scan"}, "fusion_lon": 0.0, "lat": 38.892224666666664, "bike_id": "5ef233a95d1c8227bb6a26470c090567", "type": "electric_scooter", "is_reserved": 0, "lon": -77.048692}, {"fusion_lat": 0.0, "name": "82d72ad1dc7aab6830659634329c02cf", "is_disabled": 0, "rental_uris": {"android": "https://dc.lft.to/lastmile_qr_scan", "ios": "https://dc.lft.to/lastmile_qr_scan"}, "fusion_lon": 0.0, "lat": 38.90504883333333, "bike_id": "82d72ad1dc7aab6830659634329c02cf", "type": "electric_scooter", "is_reserved": 0, "lon": -77.00728316666667}, {"fusion_lat": 0.0, "name": "17ceacb8eb310cda3cf7e298fb329421", "is_disabled": 0, "rental_uris": {"android": "https://dc.lft.to/lastmile_qr_scan", "ios": "https://dc.lft.to/lastmile_qr_scan"}, "fusion_lon": 0.0, "lat": 38.934901333333336, "bike_id": "17ceacb8eb310cda3cf7e298fb329421", "type": "electric_scooter", "is_reserved": 0, "lon": -77.02719033333334}, {"fusion_lat": 0.0, "name": "f72fb864d9f0ac0f356e70633cef972c", "is_disabled": 0, "rental_uris": {"android": "https://dc.lft.to/lastmile_qr_scan", "ios": "https://dc.lft.to/lastmile_qr_scan"}, "fusion_lon": 0.0, "lat": 38.907008166666664, "bike_id": "f72fb864d9f0ac0f356e70633cef972c", "type": "electric_scooter", "is_reserved": 0, "lon": -77.05133933333333}, {"fusion_lat": 0.0, "name": "79a6c398616393ea58ac676c911c58e7", "is_disabled": 0, "rental_uris": {"android": "https://dc.lft.to/lastmile_qr_scan", "ios": "https://dc.lft.to/lastmile_qr_scan"}, "fusion_lon": 0.0, "lat": 38.89236983333333, "bike_id": "79a6c398616393ea58ac676c911c58e7", "type": "electric_scooter", "is_reserved": 0, "lon": -77.02384333333333}, {"fusion_lat": 0.0, "name": "ef32966c9f13b9a389e4fbc8786ce543", "is_disabled": 0, "rental_uris": {"android": "https://dc.lft.to/lastmile_qr_scan", "ios": "https://dc.lft.to/lastmile_qr_scan"}, "fusion_lon": 0.0, "lat": 38.89218066666667, "bike_id": "ef32966c9f13b9a389e4fbc8786ce543", "type": "electric_scooter", "is_reserved": 0, "lon": -77.0321665}, {"fusion_lat": 0.0, "name": "d289b059ad93942bf1365c438c2eb397", "is_disabled": 0, "rental_uris": {"android": "https://dc.lft.to/lastmile_qr_scan", "ios": "https://dc.lft.to/lastmile_qr_scan"}, "fusion_lon": 0.0, "lat": 38.91116783333333, "bike_id": "d289b059ad93942bf1365c438c2eb397", "type": "electric_scooter", "is_reserved": 0, "lon": -77.02195516666667}, {"fusion_lat": 0.0, "name": "f538fefeeea0a47e6d78dcae799d6299", "is_disabled": 0, "rental_uris": {"android": "https://dc.lft.to/lastmile_qr_scan", "ios": "https://dc.lft.to/lastmile_qr_scan"}, "fusion_lon": 0.0, "lat": 38.9127185, "bike_id": "f538fefeeea0a47e6d78dcae799d6299", "type": "electric_scooter", "is_reserved": 0, "lon": -77.0223545}, {"fusion_lat": 0.0, "name": "4834df38fb7926fa716b740402e8ca3f", "is_disabled": 0, "rental_uris": {"android": "https://dc.lft.to/lastmile_qr_scan", "ios": "https://dc.lft.to/lastmile_qr_scan"}, "fusion_lon": 0.0, "lat": 38.89594116666667, "bike_id": "4834df38fb7926fa716b740402e8ca3f", "type": "electric_scooter", "is_reserved": 0, "lon": -77.02680233333334}, {"fusion_lat": 0.0, "name": "208790fabe109cd6b17d36623aabb7e8", "is_disabled": 0, "rental_uris": {"android": "https://dc.lft.to/lastmile_qr_scan", "ios": "https://dc.lft.to/lastmile_qr_scan"}, "fusion_lon": 0.0, "lat": 38.9210805, "bike_id": "208790fabe109cd6b17d36623aabb7e8", "type": "electric_scooter", "is_reserved": 0, "lon": -77.02991233333333}, {"fusion_lat": 0.0, "name": "f3f4a77df6e6f8ceeebb66150d7425c0", "is_disabled": 0, "rental_uris": {"android": "https://dc.lft.to/lastmile_qr_scan", "ios": "https://dc.lft.to/lastmile_qr_scan"}, "fusion_lon": 0.0, "lat": 38.822167, "bike_id": "f3f4a77df6e6f8ceeebb66150d7425c0", "type": "electric_bike", "is_reserved": 0, "lon": -77.00187683333333}, {"fusion_lat": 0.0, "name": "5ebdd41e146bcdfc39723268d8d4f5bd", "is_disabled": 0, "rental_uris": {"android": "https://dc.lft.to/lastmile_qr_scan", "ios": "https://dc.lft.to/lastmile_qr_scan"}, "fusion_lon": 0.0, "lat": 38.89913683333333, "bike_id": "5ebdd41e146bcdfc39723268d8d4f5bd", "type": "electric_scooter", "is_reserved": 0, "lon": -76.94546616666666}, {"fusion_lat": 0.0, "name": "97c2a442e2413eda33a03b53d0980079", "is_disabled": 0, "rental_uris": {"android": "https://dc.lft.to/lastmile_qr_scan", "ios": "https://dc.lft.to/lastmile_qr_scan"}, "fusion_lon": 0.0, "lat": 38.9140405, "bike_id": "97c2a442e2413eda33a03b53d0980079", "type": "electric_scooter", "is_reserved": 0, "lon": -77.00849766666667}, {"fusion_lat": 0.0, "name": "d496fd23694f3f968f9b153390905a9c", "is_disabled": 0, "rental_uris": {"android": "https://dc.lft.to/lastmile_qr_scan", "ios": "https://dc.lft.to/lastmile_qr_scan"}, "fusion_lon": 0.0, "lat": 38.84297016666667, "bike_id": "d496fd23694f3f968f9b153390905a9c", "type": "electric_bike", "is_reserved": 0, "lon": -77.10865866666667}, {"fusion_lat": 0.0, "name": "0b802961ff10c794b720f0ac34ea5711", "is_disabled": 0, "rental_uris": {"android": "https://dc.lft.to/lastmile_qr_scan", "ios": "https://dc.lft.to/lastmile_qr_scan"}, "fusion_lon": 0.0, "lat": 38.94736733333333, "bike_id": "0b802961ff10c794b720f0ac34ea5711", "type": "electric_scooter", "is_reserved": 0, "lon": -77.016196}, {"fusion_lat": 0.0, "name": "e8d7e180d0edda885c89448980ab1afc", "is_disabled": 0, "rental_uris": {"android": "https://dc.lft.to/lastmile_qr_scan", "ios": "https://dc.lft.to/lastmile_qr_scan"}, "fusion_lon": 0.0, "lat": 38.9622235, "bike_id": "e8d7e180d0edda885c89448980ab1afc", "type": "electric_bike", "is_reserved": 0, "lon": -77.02629533333334}, {"fusion_lat": 0.0, "name": "67513de4c17f128d3fcf0cce852c17de", "is_disabled": 0, "rental_uris": {"android": "https://dc.lft.to/lastmile_qr_scan", "ios": "https://dc.lft.to/lastmile_qr_scan"}, "fusion_lon": 0.0, "lat": 38.92919533333333, "bike_id": "67513de4c17f128d3fcf0cce852c17de", "type": "electric_scooter", "is_reserved": 0, "lon": -77.021652}, {"fusion_lat": 0.0, "name": "59c5509b9ae81d7f074818b28e96dcd2", "is_disabled": 0, "rental_uris": {"android": "https://dc.lft.to/lastmile_qr_scan", "ios": "https://dc.lft.to/lastmile_qr_scan"}, "fusion_lon": 0.0, "lat": 38.90627333333333, "bike_id": "59c5509b9ae81d7f074818b28e96dcd2", "type": "electric_scooter", "is_reserved": 0, "lon": -77.02602133333333}, {"fusion_lat": 0.0, "name": "d965e013d885727c6f3145bd2fd4d884", "is_disabled": 0, "rental_uris": {"android": "https://dc.lft.to/lastmile_qr_scan", "ios": "https://dc.lft.to/lastmile_qr_scan"}, "fusion_lon": 0.0, "lat": 38.91749633333333, "bike_id": "d965e013d885727c6f3145bd2fd4d884", "type": "electric_scooter", "is_reserved": 0, "lon": -77.06940033333333}, {"fusion_lat": 0.0, "name": "f96e0b21b62467153386936800ae01d1", "is_disabled": 0, "rental_uris": {"android": "https://dc.lft.to/lastmile_qr_scan", "ios": "https://dc.lft.to/lastmile_qr_scan"}, "fusion_lon": 0.0, "lat": 38.88014166666667, "bike_id": "f96e0b21b62467153386936800ae01d1", "type": "electric_scooter", "is_reserved": 0, "lon": -76.980766}, {"fusion_lat": 0.0, "name": "7705ec1c88e035238efe2b3cfcbe39ea", "is_disabled": 0, "rental_uris": {"android": "https://dc.lft.to/lastmile_qr_scan", "ios": "https://dc.lft.to/lastmile_qr_scan"}, "fusion_lon": 0.0, "lat": 38.9117535, "bike_id": "7705ec1c88e035238efe2b3cfcbe39ea", "type": "electric_scooter", "is_reserved": 0, "lon": -77.04174933333333}, {"fusion_lat": 0.0, "name": "339e82efecf24c5952a452d209cfbe5b", "is_disabled": 0, "rental_uris": {"android": "https://dc.lft.to/lastmile_qr_scan", "ios": "https://dc.lft.to/lastmile_qr_scan"}, "fusion_lon": 0.0, "lat": 38.911077, "bike_id": "339e82efecf24c5952a452d209cfbe5b", "type": "electric_scooter", "is_reserved": 0, "lon": -77.04373783333334}, {"fusion_lat": 0.0, "name": "b2b57b9b7d6f8f48494a8b13b3c70eca", "is_disabled": 0, "rental_uris": {"android": "https://dc.lft.to/lastmile_qr_scan", "ios": "https://dc.lft.to/lastmile_qr_scan"}, "fusion_lon": 0.0, "lat": 38.89237033333333, "bike_id": "b2b57b9b7d6f8f48494a8b13b3c70eca", "type": "electric_scooter", "is_reserved": 0, "lon": -77.02384716666667}, {"fusion_lat": 0.0, "name": "1a963ae38fa7c899599c756f62378dbd", "is_disabled": 0, "rental_uris": {"android": "https://dc.lft.to/lastmile_qr_scan", "ios": "https://dc.lft.to/lastmile_qr_scan"}, "fusion_lon": 0.0, "lat": 38.9162405, "bike_id": "1a963ae38fa7c899599c756f62378dbd", "type": "electric_scooter", "is_reserved": 0, "lon": -77.029705}, {"fusion_lat": 0.0, "name": "40f6d5ca7af2bfceadfbb12f9a38aafa", "is_disabled": 0, "rental_uris": {"android": "https://dc.lft.to/lastmile_qr_scan", "ios": "https://dc.lft.to/lastmile_qr_scan"}, "fusion_lon": 0.0, "lat": 38.91260916666667, "bike_id": "40f6d5ca7af2bfceadfbb12f9a38aafa", "type": "electric_scooter", "is_reserved": 0, "lon": -77.03164216666667}, {"fusion_lat": 0.0, "name": "3eb13f6a2508370b033fa8f524cf9c38", "is_disabled": 0, "rental_uris": {"android": "https://dc.lft.to/lastmile_qr_scan", "ios": "https://dc.lft.to/lastmile_qr_scan"}, "fusion_lon": 0.0, "lat": 38.86990183333333, "bike_id": "3eb13f6a2508370b033fa8f524cf9c38", "type": "electric_scooter", "is_reserved": 0, "lon": -76.97731366666666}, {"fusion_lat": 0.0, "name": "fcead15476936ceea1297b47ced5791d", "is_disabled": 0, "rental_uris": {"android": "https://dc.lft.to/lastmile_qr_scan", "ios": "https://dc.lft.to/lastmile_qr_scan"}, "fusion_lon": 0.0, "lat": 38.906792333333335, "bike_id": "fcead15476936ceea1297b47ced5791d", "type": "electric_scooter", "is_reserved": 0, "lon": -77.03643516666666}, {"fusion_lat": 0.0, "name": "70c1451b610171dcaef2cf36c9459cd6", "is_disabled": 0, "rental_uris": {"android": "https://dc.lft.to/lastmile_qr_scan", "ios": "https://dc.lft.to/lastmile_qr_scan"}, "fusion_lon": 0.0, "lat": 38.91682683333333, "bike_id": "70c1451b610171dcaef2cf36c9459cd6", "type": "electric_scooter", "is_reserved": 0, "lon": -77.0297695}, {"fusion_lat": 0.0, "name": "15e0cccbc1bf39c9d9269c3eab3da98b", "is_disabled": 0, "rental_uris": {"android": "https://dc.lft.to/lastmile_qr_scan", "ios": "https://dc.lft.to/lastmile_qr_scan"}, "fusion_lon": 0.0, "lat": 38.847560333333334, "bike_id": "15e0cccbc1bf39c9d9269c3eab3da98b", "type": "electric_scooter", "is_reserved": 0, "lon": -76.995048}, {"fusion_lat": 0.0, "name": "c4029fe824be5d6c630cb59aa36dcecc", "is_disabled": 0, "rental_uris": {"android": "https://dc.lft.to/lastmile_qr_scan", "ios": "https://dc.lft.to/lastmile_qr_scan"}, "fusion_lon": 0.0, "lat": 38.9160115, "bike_id": "c4029fe824be5d6c630cb59aa36dcecc", "type": "electric_scooter", "is_reserved": 0, "lon": -76.99360966666667}, {"fusion_lat": 0.0, "name": "33289eeb72d85ee49b2bffcd99be36ab", "is_disabled": 0, "rental_uris": {"android": "https://dc.lft.to/lastmile_qr_scan", "ios": "https://dc.lft.to/lastmile_qr_scan"}, "fusion_lon": 0.0, "lat": 38.9171595, "bike_id": "33289eeb72d85ee49b2bffcd99be36ab", "type": "electric_scooter", "is_reserved": 0, "lon": -77.0280055}, {"fusion_lat": 0.0, "name": "e9b8150d27c710ad7748fe7d1c641eac", "is_disabled": 0, "rental_uris": {"android": "https://dc.lft.to/lastmile_qr_scan", "ios": "https://dc.lft.to/lastmile_qr_scan"}, "fusion_lon": 0.0, "lat": 38.912923166666666, "bike_id": "e9b8150d27c710ad7748fe7d1c641eac", "type": "electric_scooter", "is_reserved": 0, "lon": -77.02387583333334}, {"fusion_lat": 0.0, "name": "328789f12f5a74e3a16d71663a768d74", "is_disabled": 0, "rental_uris": {"android": "https://dc.lft.to/lastmile_qr_scan", "ios": "https://dc.lft.to/lastmile_qr_scan"}, "fusion_lon": 0.0, "lat": 38.89715916666667, "bike_id": "328789f12f5a74e3a16d71663a768d74", "type": "electric_scooter", "is_reserved": 0, "lon": -77.02722116666666}, {"fusion_lat": 0.0, "name": "2ca08979a31fc139bc073bd2a7645b6d", "is_disabled": 0, "rental_uris": {"android": "https://dc.lft.to/lastmile_qr_scan", "ios": "https://dc.lft.to/lastmile_qr_scan"}, "fusion_lon": 0.0, "lat": 38.9169525, "bike_id": "2ca08979a31fc139bc073bd2a7645b6d", "type": "electric_scooter", "is_reserved": 0, "lon": -77.02292533333333}, {"fusion_lat": 0.0, "name": "f547894304e0cfc922d12cd96723a8be", "is_disabled": 0, "rental_uris": {"android": "https://dc.lft.to/lastmile_qr_scan", "ios": "https://dc.lft.to/lastmile_qr_scan"}, "fusion_lon": 0.0, "lat": 38.86665716666667, "bike_id": "f547894304e0cfc922d12cd96723a8be", "type": "electric_scooter", "is_reserved": 0, "lon": -77.01036716666667}, {"fusion_lat": 0.0, "name": "b9a837bd02c34a24d72198be1d9dd363", "is_disabled": 0, "rental_uris": {"android": "https://dc.lft.to/lastmile_qr_scan", "ios": "https://dc.lft.to/lastmile_qr_scan"}, "fusion_lon": 0.0, "lat": 38.907251, "bike_id": "b9a837bd02c34a24d72198be1d9dd363", "type": "electric_scooter", "is_reserved": 0, "lon": -77.03305616666667}, {"fusion_lat": 0.0, "name": "43a960ecf5da629dba8e3da7cdeb005c", "is_disabled": 0, "rental_uris": {"android": "https://dc.lft.to/lastmile_qr_scan", "ios": "https://dc.lft.to/lastmile_qr_scan"}, "fusion_lon": 0.0, "lat": 38.85363733333333, "bike_id": "43a960ecf5da629dba8e3da7cdeb005c", "type": "electric_bike", "is_reserved": 0, "lon": -77.13464316666666}, {"fusion_lat": 0.0, "name": "187901c4ccd773b8a2747835344c3984", "is_disabled": 0, "rental_uris": {"android": "https://dc.lft.to/lastmile_qr_scan", "ios": "https://dc.lft.to/lastmile_qr_scan"}, "fusion_lon": 0.0, "lat": 38.926588333333335, "bike_id": "187901c4ccd773b8a2747835344c3984", "type": "electric_scooter", "is_reserved": 0, "lon": -77.04311633333333}, {"fusion_lat": 0.0, "name": "ac80610b1797e81e0a2ca5d409d9f275", "is_disabled": 0, "rental_uris": {"android": "https://dc.lft.to/lastmile_qr_scan", "ios": "https://dc.lft.to/lastmile_qr_scan"}, "fusion_lon": 0.0, "lat": 38.89727166666667, "bike_id": "ac80610b1797e81e0a2ca5d409d9f275", "type": "electric_scooter", "is_reserved": 0, "lon": -77.05523666666667}, {"fusion_lat": 0.0, "name": "865f307d3419a9e20d8c990703fcf840", "is_disabled": 0, "rental_uris": {"android": "https://dc.lft.to/lastmile_qr_scan", "ios": "https://dc.lft.to/lastmile_qr_scan"}, "fusion_lon": 0.0, "lat": 38.954229, "bike_id": "865f307d3419a9e20d8c990703fcf840", "type": "electric_scooter", "is_reserved": 0, "lon": -77.02761616666666}, {"fusion_lat": 0.0, "name": "624acd7d7cc96eb50819da270221269a", "is_disabled": 0, "rental_uris": {"android": "https://dc.lft.to/lastmile_qr_scan", "ios": "https://dc.lft.to/lastmile_qr_scan"}, "fusion_lon": 0.0, "lat": 38.93572616666667, "bike_id": "624acd7d7cc96eb50819da270221269a", "type": "electric_bike", "is_reserved": 0, "lon": -77.02121116666666}, {"fusion_lat": 0.0, "name": "cfd63ea6df3d690e3798e9882b77e90e", "is_disabled": 0, "rental_uris": {"android": "https://dc.lft.to/lastmile_qr_scan", "ios": "https://dc.lft.to/lastmile_qr_scan"}, "fusion_lon": 0.0, "lat": 38.9555685, "bike_id": "cfd63ea6df3d690e3798e9882b77e90e", "type": "electric_bike", "is_reserved": 0, "lon": -77.0244265}, {"fusion_lat": 0.0, "name": "3bebab5cb1698239831790cdc076d587", "is_disabled": 0, "rental_uris": {"android": "https://dc.lft.to/lastmile_qr_scan", "ios": "https://dc.lft.to/lastmile_qr_scan"}, "fusion_lon": 0.0, "lat": 38.902005, "bike_id": "3bebab5cb1698239831790cdc076d587", "type": "electric_scooter", "is_reserved": 0, "lon": -77.022178}, {"fusion_lat": 0.0, "name": "f30c3b3086f50465e7fcf67521d2e581", "is_disabled": 0, "rental_uris": {"android": "https://dc.lft.to/lastmile_qr_scan", "ios": "https://dc.lft.to/lastmile_qr_scan"}, "fusion_lon": 0.0, "lat": 38.91266616666667, "bike_id": "f30c3b3086f50465e7fcf67521d2e581", "type": "electric_scooter", "is_reserved": 0, "lon": -77.030568}, {"fusion_lat": 0.0, "name": "f1c7cbc372e1a356a38955cbe77365a3", "is_disabled": 0, "rental_uris": {"android": "https://dc.lft.to/lastmile_qr_scan", "ios": "https://dc.lft.to/lastmile_qr_scan"}, "fusion_lon": 0.0, "lat": 39.014182, "bike_id": "f1c7cbc372e1a356a38955cbe77365a3", "type": "electric_bike", "is_reserved": 0, "lon": -77.04501033333334}, {"fusion_lat": 0.0, "name": "fa64fec82b3e4f9e4b72b570a895b23a", "is_disabled": 0, "rental_uris": {"android": "https://dc.lft.to/lastmile_qr_scan", "ios": "https://dc.lft.to/lastmile_qr_scan"}, "fusion_lon": 0.0, "lat": 38.9055915, "bike_id": "fa64fec82b3e4f9e4b72b570a895b23a", "type": "electric_scooter", "is_reserved": 0, "lon": -77.0168965}, {"fusion_lat": 0.0, "name": "3cd0cb6347dc90f6e1cae60b30a5b48f", "is_disabled": 0, "rental_uris": {"android": "https://dc.lft.to/lastmile_qr_scan", "ios": "https://dc.lft.to/lastmile_qr_scan"}, "fusion_lon": 0.0, "lat": 38.95530516666667, "bike_id": "3cd0cb6347dc90f6e1cae60b30a5b48f", "type": "electric_bike", "is_reserved": 0, "lon": -77.02474116666667}, {"fusion_lat": 0.0, "name": "316de5ed599f88784b374e8ca3442bde", "is_disabled": 0, "rental_uris": {"android": "https://dc.lft.to/lastmile_qr_scan", "ios": "https://dc.lft.to/lastmile_qr_scan"}, "fusion_lon": 0.0, "lat": 38.8737265, "bike_id": "316de5ed599f88784b374e8ca3442bde", "type": "electric_scooter", "is_reserved": 0, "lon": -77.00128666666667}, {"fusion_lat": 0.0, "name": "34b8869cd12b59fccc1fa1d035a37418", "is_disabled": 0, "rental_uris": {"android": "https://dc.lft.to/lastmile_qr_scan", "ios": "https://dc.lft.to/lastmile_qr_scan"}, "fusion_lon": 0.0, "lat": 38.915440333333336, "bike_id": "34b8869cd12b59fccc1fa1d035a37418", "type": "electric_scooter", "is_reserved": 0, "lon": -77.0385545}, {"fusion_lat": 0.0, "name": "567a3f1428abe1da449ac60bb57b4def", "is_disabled": 0, "rental_uris": {"android": "https://dc.lft.to/lastmile_qr_scan", "ios": "https://dc.lft.to/lastmile_qr_scan"}, "fusion_lon": 0.0, "lat": 38.881818333333335, "bike_id": "567a3f1428abe1da449ac60bb57b4def", "type": "electric_scooter", "is_reserved": 0, "lon": -77.02774566666666}, {"fusion_lat": 0.0, "name": "3c6c47c131861d555a43b78a1b0dcb1d", "is_disabled": 0, "rental_uris": {"android": "https://dc.lft.to/lastmile_qr_scan", "ios": "https://dc.lft.to/lastmile_qr_scan"}, "fusion_lon": 0.0, "lat": 38.905468, "bike_id": "3c6c47c131861d555a43b78a1b0dcb1d", "type": "electric_scooter", "is_reserved": 0, "lon": -77.02206783333334}, {"fusion_lat": 0.0, "name": "d3d5333e28e614550300dfadb5c9c9f2", "is_disabled": 0, "rental_uris": {"android": "https://dc.lft.to/lastmile_qr_scan", "ios": "https://dc.lft.to/lastmile_qr_scan"}, "fusion_lon": 0.0, "lat": 38.899871, "bike_id": "d3d5333e28e614550300dfadb5c9c9f2", "type": "electric_scooter", "is_reserved": 0, "lon": -77.02146333333333}, {"fusion_lat": 0.0, "name": "582faf88aff62f064d559383b511eb7b", "is_disabled": 0, "rental_uris": {"android": "https://dc.lft.to/lastmile_qr_scan", "ios": "https://dc.lft.to/lastmile_qr_scan"}, "fusion_lon": 0.0, "lat": 38.8956255, "bike_id": "582faf88aff62f064d559383b511eb7b", "type": "electric_bike", "is_reserved": 0, "lon": -77.12731133333334}, {"fusion_lat": 0.0, "name": "4be7cba72da2441a6b322f611fb14583", "is_disabled": 0, "rental_uris": {"android": "https://dc.lft.to/lastmile_qr_scan", "ios": "https://dc.lft.to/lastmile_qr_scan"}, "fusion_lon": 0.0, "lat": 38.9611745, "bike_id": "4be7cba72da2441a6b322f611fb14583", "type": "electric_scooter", "is_reserved": 0, "lon": -77.02797883333334}, {"fusion_lat": 0.0, "name": "5b50cb412bdde22c4378921142d3a638", "is_disabled": 0, "rental_uris": {"android": "https://dc.lft.to/lastmile_qr_scan", "ios": "https://dc.lft.to/lastmile_qr_scan"}, "fusion_lon": 0.0, "lat": 38.9014555, "bike_id": "5b50cb412bdde22c4378921142d3a638", "type": "electric_scooter", "is_reserved": 0, "lon": -77.04167083333333}, {"fusion_lat": 0.0, "name": "e999ee15000e6eebed8ff844b30eb361", "is_disabled": 0, "rental_uris": {"android": "https://dc.lft.to/lastmile_qr_scan", "ios": "https://dc.lft.to/lastmile_qr_scan"}, "fusion_lon": 0.0, "lat": 38.90732783333333, "bike_id": "e999ee15000e6eebed8ff844b30eb361", "type": "electric_scooter", "is_reserved": 0, "lon": -77.01093916666666}, {"fusion_lat": 0.0, "name": "6e153d41ad6f298efa9c510c15087616", "is_disabled": 0, "rental_uris": {"android": "https://dc.lft.to/lastmile_qr_scan", "ios": "https://dc.lft.to/lastmile_qr_scan"}, "fusion_lon": 0.0, "lat": 38.93443083333333, "bike_id": "6e153d41ad6f298efa9c510c15087616", "type": "electric_scooter", "is_reserved": 0, "lon": -77.0577475}, {"fusion_lat": 0.0, "name": "a5dbb7140c4df900f2e0930a3d395c61", "is_disabled": 0, "rental_uris": {"android": "https://dc.lft.to/lastmile_qr_scan", "ios": "https://dc.lft.to/lastmile_qr_scan"}, "fusion_lon": 0.0, "lat": 38.90703883333333, "bike_id": "a5dbb7140c4df900f2e0930a3d395c61", "type": "electric_scooter", "is_reserved": 0, "lon": -76.98852766666667}, {"fusion_lat": 0.0, "name": "ebed6a640877da04c956ff46bc0ecf59", "is_disabled": 0, "rental_uris": {"android": "https://dc.lft.to/lastmile_qr_scan", "ios": "https://dc.lft.to/lastmile_qr_scan"}, "fusion_lon": 0.0, "lat": 38.901742666666664, "bike_id": "ebed6a640877da04c956ff46bc0ecf59", "type": "electric_scooter", "is_reserved": 0, "lon": -77.02489666666666}, {"fusion_lat": 0.0, "name": "5d59e0ad64002875574e822eff2713ab", "is_disabled": 0, "rental_uris": {"android": "https://dc.lft.to/lastmile_qr_scan", "ios": "https://dc.lft.to/lastmile_qr_scan"}, "fusion_lon": 0.0, "lat": 38.924565666666666, "bike_id": "5d59e0ad64002875574e822eff2713ab", "type": "electric_scooter", "is_reserved": 0, "lon": -76.97106}, {"fusion_lat": 0.0, "name": "16993808a510730e14f52814c12b2247", "is_disabled": 0, "rental_uris": {"android": "https://dc.lft.to/lastmile_qr_scan", "ios": "https://dc.lft.to/lastmile_qr_scan"}, "fusion_lon": 0.0, "lat": 38.9236025, "bike_id": "16993808a510730e14f52814c12b2247", "type": "electric_scooter", "is_reserved": 0, "lon": -77.051915}, {"fusion_lat": 0.0, "name": "3317575e155f365a89279339ea50e6e2", "is_disabled": 0, "rental_uris": {"android": "https://dc.lft.to/lastmile_qr_scan", "ios": "https://dc.lft.to/lastmile_qr_scan"}, "fusion_lon": 0.0, "lat": 38.924760166666665, "bike_id": "3317575e155f365a89279339ea50e6e2", "type": "electric_scooter", "is_reserved": 0, "lon": -77.03095883333333}, {"fusion_lat": 0.0, "name": "bec6c612713759806df7b419d658f505", "is_disabled": 0, "rental_uris": {"android": "https://dc.lft.to/lastmile_qr_scan", "ios": "https://dc.lft.to/lastmile_qr_scan"}, "fusion_lon": 0.0, "lat": 38.9149725, "bike_id": "bec6c612713759806df7b419d658f505", "type": "electric_scooter", "is_reserved": 0, "lon": -77.012266}, {"fusion_lat": 0.0, "name": "42079d5ab586adb493a065cde77fb7e7", "is_disabled": 0, "rental_uris": {"android": "https://dc.lft.to/lastmile_qr_scan", "ios": "https://dc.lft.to/lastmile_qr_scan"}, "fusion_lon": 0.0, "lat": 38.91815666666667, "bike_id": "42079d5ab586adb493a065cde77fb7e7", "type": "electric_scooter", "is_reserved": 0, "lon": -77.0402515}, {"fusion_lat": 0.0, "name": "dc9cb81543854c1d796cece8b7562ef1", "is_disabled": 0, "rental_uris": {"android": "https://dc.lft.to/lastmile_qr_scan", "ios": "https://dc.lft.to/lastmile_qr_scan"}, "fusion_lon": 0.0, "lat": 38.90755166666667, "bike_id": "dc9cb81543854c1d796cece8b7562ef1", "type": "electric_scooter", "is_reserved": 0, "lon": -77.03548916666666}, {"fusion_lat": 0.0, "name": "6840f0ebf586e45d792631517c6a9923", "is_disabled": 0, "rental_uris": {"android": "https://dc.lft.to/lastmile_qr_scan", "ios": "https://dc.lft.to/lastmile_qr_scan"}, "fusion_lon": 0.0, "lat": 38.89986916666667, "bike_id": "6840f0ebf586e45d792631517c6a9923", "type": "electric_scooter", "is_reserved": 0, "lon": -77.051202}, {"fusion_lat": 0.0, "name": "c729bb934b64123065c412fd0f2f2531", "is_disabled": 0, "rental_uris": {"android": "https://dc.lft.to/lastmile_qr_scan", "ios": "https://dc.lft.to/lastmile_qr_scan"}, "fusion_lon": 0.0, "lat": 38.88381066666667, "bike_id": "c729bb934b64123065c412fd0f2f2531", "type": "electric_scooter", "is_reserved": 0, "lon": -77.00528233333333}, {"fusion_lat": 0.0, "name": "9bea7d792c0733e75c625ba9114d378b", "is_disabled": 0, "rental_uris": {"android": "https://dc.lft.to/lastmile_qr_scan", "ios": "https://dc.lft.to/lastmile_qr_scan"}, "fusion_lon": 0.0, "lat": 38.84423833333334, "bike_id": "9bea7d792c0733e75c625ba9114d378b", "type": "electric_scooter", "is_reserved": 0, "lon": -76.99780133333333}, {"fusion_lat": 0.0, "name": "b48911fec999d57911f127ddc084fe88", "is_disabled": 0, "rental_uris": {"android": "https://dc.lft.to/lastmile_qr_scan", "ios": "https://dc.lft.to/lastmile_qr_scan"}, "fusion_lon": 0.0, "lat": 38.916795, "bike_id": "b48911fec999d57911f127ddc084fe88", "type": "electric_scooter", "is_reserved": 0, "lon": -77.028996}, {"fusion_lat": 0.0, "name": "f1b2607b97ce1f9f30ee8c954cf8f1ae", "is_disabled": 0, "rental_uris": {"android": "https://dc.lft.to/lastmile_qr_scan", "ios": "https://dc.lft.to/lastmile_qr_scan"}, "fusion_lon": 0.0, "lat": 38.92110733333333, "bike_id": "f1b2607b97ce1f9f30ee8c954cf8f1ae", "type": "electric_scooter", "is_reserved": 0, "lon": -77.01771133333334}, {"fusion_lat": 0.0, "name": "a487d7b9b1b66ba95af9d7503b4131f3", "is_disabled": 0, "rental_uris": {"android": "https://dc.lft.to/lastmile_qr_scan", "ios": "https://dc.lft.to/lastmile_qr_scan"}, "fusion_lon": 0.0, "lat": 38.8520365, "bike_id": "a487d7b9b1b66ba95af9d7503b4131f3", "type": "electric_bike", "is_reserved": 0, "lon": -76.96292566666666}, {"fusion_lat": 0.0, "name": "810eed799bf943b70260f948b1fd31f1", "is_disabled": 0, "rental_uris": {"android": "https://dc.lft.to/lastmile_qr_scan", "ios": "https://dc.lft.to/lastmile_qr_scan"}, "fusion_lon": 0.0, "lat": 38.9247615, "bike_id": "810eed799bf943b70260f948b1fd31f1", "type": "electric_scooter", "is_reserved": 0, "lon": -77.05208516666667}, {"fusion_lat": 0.0, "name": "d56133386ab0e02740ff65955b6561fb", "is_disabled": 0, "rental_uris": {"android": "https://dc.lft.to/lastmile_qr_scan", "ios": "https://dc.lft.to/lastmile_qr_scan"}, "fusion_lon": 0.0, "lat": 38.886726, "bike_id": "d56133386ab0e02740ff65955b6561fb", "type": "electric_scooter", "is_reserved": 0, "lon": -77.00198683333333}, {"fusion_lat": 0.0, "name": "15eac5acfdf96707d2b89b18af5fdf25", "is_disabled": 0, "rental_uris": {"android": "https://dc.lft.to/lastmile_qr_scan", "ios": "https://dc.lft.to/lastmile_qr_scan"}, "fusion_lon": 0.0, "lat": 38.887409166666664, "bike_id": "15eac5acfdf96707d2b89b18af5fdf25", "type": "electric_scooter", "is_reserved": 0, "lon": -77.02126066666666}, {"fusion_lat": 0.0, "name": "07cda871371798d757fa546a2a9701d3", "is_disabled": 0, "rental_uris": {"android": "https://dc.lft.to/lastmile_qr_scan", "ios": "https://dc.lft.to/lastmile_qr_scan"}, "fusion_lon": 0.0, "lat": 38.90781466666667, "bike_id": "07cda871371798d757fa546a2a9701d3", "type": "electric_scooter", "is_reserved": 0, "lon": -77.07254833333333}, {"fusion_lat": 0.0, "name": "3cff2e9c363db19457aca170144361a1", "is_disabled": 0, "rental_uris": {"android": "https://dc.lft.to/lastmile_qr_scan", "ios": "https://dc.lft.to/lastmile_qr_scan"}, "fusion_lon": 0.0, "lat": 38.906038, "bike_id": "3cff2e9c363db19457aca170144361a1", "type": "electric_scooter", "is_reserved": 0, "lon": -77.06296516666667}, {"fusion_lat": 0.0, "name": "3a07e709e2932e05ced5ac5188ad1e52", "is_disabled": 0, "rental_uris": {"android": "https://dc.lft.to/lastmile_qr_scan", "ios": "https://dc.lft.to/lastmile_qr_scan"}, "fusion_lon": 0.0, "lat": 38.916750666666665, "bike_id": "3a07e709e2932e05ced5ac5188ad1e52", "type": "electric_scooter", "is_reserved": 0, "lon": -77.02724166666667}, {"fusion_lat": 0.0, "name": "fa4dab97903bd67f3d07f1f4bd01fdc0", "is_disabled": 0, "rental_uris": {"android": "https://dc.lft.to/lastmile_qr_scan", "ios": "https://dc.lft.to/lastmile_qr_scan"}, "fusion_lon": 0.0, "lat": 38.90541133333333, "bike_id": "fa4dab97903bd67f3d07f1f4bd01fdc0", "type": "electric_scooter", "is_reserved": 0, "lon": -77.02961133333334}, {"fusion_lat": 0.0, "name": "9a7d6b56951f5253c28fdcc83308d0b5", "is_disabled": 0, "rental_uris": {"android": "https://dc.lft.to/lastmile_qr_scan", "ios": "https://dc.lft.to/lastmile_qr_scan"}, "fusion_lon": 0.0, "lat": 38.91563716666667, "bike_id": "9a7d6b56951f5253c28fdcc83308d0b5", "type": "electric_scooter", "is_reserved": 0, "lon": -77.03183633333333}, {"fusion_lat": 0.0, "name": "b83d30fcc4ab1e11036b40ccc8c71665", "is_disabled": 0, "rental_uris": {"android": "https://dc.lft.to/lastmile_qr_scan", "ios": "https://dc.lft.to/lastmile_qr_scan"}, "fusion_lon": 0.0, "lat": 38.90395266666667, "bike_id": "b83d30fcc4ab1e11036b40ccc8c71665", "type": "electric_scooter", "is_reserved": 0, "lon": -77.024816}, {"fusion_lat": 0.0, "name": "67997dfe9d799ac734cb71d96dcddf7a", "is_disabled": 0, "rental_uris": {"android": "https://dc.lft.to/lastmile_qr_scan", "ios": "https://dc.lft.to/lastmile_qr_scan"}, "fusion_lon": 0.0, "lat": 38.919874, "bike_id": "67997dfe9d799ac734cb71d96dcddf7a", "type": "electric_scooter", "is_reserved": 0, "lon": -77.03226733333334}, {"fusion_lat": 0.0, "name": "23280ea5cafff3a06bc6c749bcdaddbe", "is_disabled": 0, "rental_uris": {"android": "https://dc.lft.to/lastmile_qr_scan", "ios": "https://dc.lft.to/lastmile_qr_scan"}, "fusion_lon": 0.0, "lat": 38.9149985, "bike_id": "23280ea5cafff3a06bc6c749bcdaddbe", "type": "electric_scooter", "is_reserved": 0, "lon": -77.01224816666667}, {"fusion_lat": 0.0, "name": "d1945d4788c60c492b05cd7b25dd4574", "is_disabled": 0, "rental_uris": {"android": "https://dc.lft.to/lastmile_qr_scan", "ios": "https://dc.lft.to/lastmile_qr_scan"}, "fusion_lon": 0.0, "lat": 38.92417583333334, "bike_id": "d1945d4788c60c492b05cd7b25dd4574", "type": "electric_scooter", "is_reserved": 0, "lon": -77.01948083333333}, {"fusion_lat": 0.0, "name": "0c87c2a8af16c30c514b42002a461580", "is_disabled": 0, "rental_uris": {"android": "https://dc.lft.to/lastmile_qr_scan", "ios": "https://dc.lft.to/lastmile_qr_scan"}, "fusion_lon": 0.0, "lat": 38.892260666666665, "bike_id": "0c87c2a8af16c30c514b42002a461580", "type": "electric_scooter", "is_reserved": 0, "lon": -77.04091733333334}, {"fusion_lat": 0.0, "name": "63175a8bfcb1e33df516d9827a417ac7", "is_disabled": 0, "rental_uris": {"android": "https://dc.lft.to/lastmile_qr_scan", "ios": "https://dc.lft.to/lastmile_qr_scan"}, "fusion_lon": 0.0, "lat": 38.9206605, "bike_id": "63175a8bfcb1e33df516d9827a417ac7", "type": "electric_scooter", "is_reserved": 0, "lon": -77.02220133333333}, {"fusion_lat": 0.0, "name": "1dd9db2bc31ad46d35cdee89d38f7661", "is_disabled": 0, "rental_uris": {"android": "https://dc.lft.to/lastmile_qr_scan", "ios": "https://dc.lft.to/lastmile_qr_scan"}, "fusion_lon": 0.0, "lat": 38.92151883333333, "bike_id": "1dd9db2bc31ad46d35cdee89d38f7661", "type": "electric_scooter", "is_reserved": 0, "lon": -77.03869416666667}, {"fusion_lat": 0.0, "name": "a81e0c758c512bdd782503a2e14a43f5", "is_disabled": 0, "rental_uris": {"android": "https://dc.lft.to/lastmile_qr_scan", "ios": "https://dc.lft.to/lastmile_qr_scan"}, "fusion_lon": 0.0, "lat": 38.88623116666667, "bike_id": "a81e0c758c512bdd782503a2e14a43f5", "type": "electric_scooter", "is_reserved": 0, "lon": -77.0282255}, {"fusion_lat": 0.0, "name": "b66c39039dbb2c00c33f14e1db703642", "is_disabled": 0, "rental_uris": {"android": "https://dc.lft.to/lastmile_qr_scan", "ios": "https://dc.lft.to/lastmile_qr_scan"}, "fusion_lon": 0.0, "lat": 38.916953666666664, "bike_id": "b66c39039dbb2c00c33f14e1db703642", "type": "electric_scooter", "is_reserved": 0, "lon": -77.02296583333333}, {"fusion_lat": 0.0, "name": "c2c1b3b850c87a515b2609d3429ec56e", "is_disabled": 0, "rental_uris": {"android": "https://dc.lft.to/lastmile_qr_scan", "ios": "https://dc.lft.to/lastmile_qr_scan"}, "fusion_lon": 0.0, "lat": 38.89221166666667, "bike_id": "c2c1b3b850c87a515b2609d3429ec56e", "type": "electric_scooter", "is_reserved": 0, "lon": -77.02224666666666}, {"fusion_lat": 0.0, "name": "217f5f37a800970645977e61a2c98e27", "is_disabled": 0, "rental_uris": {"android": "https://dc.lft.to/lastmile_qr_scan", "ios": "https://dc.lft.to/lastmile_qr_scan"}, "fusion_lon": 0.0, "lat": 38.91566683333333, "bike_id": "217f5f37a800970645977e61a2c98e27", "type": "electric_scooter", "is_reserved": 0, "lon": -77.01049966666666}, {"fusion_lat": 0.0, "name": "c2dc8a045b18dea7c039064fafd1b1e4", "is_disabled": 0, "rental_uris": {"android": "https://dc.lft.to/lastmile_qr_scan", "ios": "https://dc.lft.to/lastmile_qr_scan"}, "fusion_lon": 0.0, "lat": 38.912002333333334, "bike_id": "c2dc8a045b18dea7c039064fafd1b1e4", "type": "electric_scooter", "is_reserved": 0, "lon": -77.03594766666667}, {"fusion_lat": 0.0, "name": "cfe214e6ccca4353fb801305686dce13", "is_disabled": 0, "rental_uris": {"android": "https://dc.lft.to/lastmile_qr_scan", "ios": "https://dc.lft.to/lastmile_qr_scan"}, "fusion_lon": 0.0, "lat": 39.03618633333333, "bike_id": "cfe214e6ccca4353fb801305686dce13", "type": "electric_bike", "is_reserved": 0, "lon": -77.05540483333333}, {"fusion_lat": 0.0, "name": "e2a13d0e62219978655183a678f9fb16", "is_disabled": 0, "rental_uris": {"android": "https://dc.lft.to/lastmile_qr_scan", "ios": "https://dc.lft.to/lastmile_qr_scan"}, "fusion_lon": 0.0, "lat": 38.91774816666667, "bike_id": "e2a13d0e62219978655183a678f9fb16", "type": "electric_scooter", "is_reserved": 0, "lon": -77.03210466666667}, {"fusion_lat": 0.0, "name": "6f24b0f20973308de24b435b48471865", "is_disabled": 0, "rental_uris": {"android": "https://dc.lft.to/lastmile_qr_scan", "ios": "https://dc.lft.to/lastmile_qr_scan"},