{"data": {"bikes": [{"bike_id": "10facc91a1411bc80734ff39fd9171c8", "type": "electric_scooter", "is_disabled": 0, "lat": 38.8919335, "rental_uris": {"ios": "https://dc.lft.to/lastmile_qr_scan", "android": "https://dc.lft.to/lastmile_qr_scan"}, "is_reserved": 0, "fusion_lon": 0.0, "fusion_lat": 0.0, "lon": -77.0298155, "name": "10facc91a1411bc80734ff39fd9171c8"}, {"bike_id": "64b791a392d069af93a65fc9ad53cb8d", "type": "electric_scooter", "is_disabled": 0, "lat": 38.905885, "rental_uris": {"ios": "https://dc.lft.to/lastmile_qr_scan", "android": "https://dc.lft.to/lastmile_qr_scan"}, "is_reserved": 0, "fusion_lon": 0.0, "fusion_lat": 0.0, "lon": -77.070129, "name": "64b791a392d069af93a65fc9ad53cb8d"}, {"bike_id": "39985f5013c7ac64398739e3b764a2c3", "type": "electric_scooter", "is_disabled": 0, "lat": 38.921470166666666, "rental_uris": {"ios": "https://dc.lft.to/lastmile_qr_scan", "android": "https://dc.lft.to/lastmile_qr_scan"}, "is_reserved": 0, "fusion_lon": 0.0, "fusion_lat": 0.0, "lon": -77.03867566666666, "name": "39985f5013c7ac64398739e3b764a2c3"}, {"bike_id": "3a53e6c1a9b391f69118a4371ab6ed5f", "type": "electric_scooter", "is_disabled": 0, "lat": 38.91934833333333, "rental_uris": {"ios": "https://dc.lft.to/lastmile_qr_scan", "android": "https://dc.lft.to/lastmile_qr_scan"}, "is_reserved": 0, "fusion_lon": 0.0, "fusion_lat": 0.0, "lon": -77.04624183333334, "name": "3a53e6c1a9b391f69118a4371ab6ed5f"}, {"bike_id": "84b2b28acbcd2106c2437c78a235dd85", "type": "electric_scooter", "is_disabled": 0, "lat": 38.90006666666667, "rental_uris": {"ios": "https://dc.lft.to/lastmile_qr_scan", "android": "https://dc.lft.to/lastmile_qr_scan"}, "is_reserved": 0, "fusion_lon": 0.0, "fusion_lat": 0.0, "lon": -76.99351066666667, "name": "84b2b28acbcd2106c2437c78a235dd85"}, {"bike_id": "3bdd3475dc3e9da90b4899ad9a4bf4bc", "type": "electric_scooter", "is_disabled": 0, "lat": 38.90846833333333, "rental_uris": {"ios": "https://dc.lft.to/lastmile_qr_scan", "android": "https://dc.lft.to/lastmile_qr_scan"}, "is_reserved": 0, "fusion_lon": 0.0, "fusion_lat": 0.0, "lon": -77.00286416666667, "name": "3bdd3475dc3e9da90b4899ad9a4bf4bc"}, {"bike_id": "83007c5ab11c20a45a710b3087de5d97", "type": "electric_scooter", "is_disabled": 0, "lat": 38.96133283333333, "rental_uris": {"ios": "https://dc.lft.to/lastmile_qr_scan", "android": "https://dc.lft.to/lastmile_qr_scan"}, "is_reserved": 0, "fusion_lon": 0.0, "fusion_lat": 0.0, "lon": -77.009708, "name": "83007c5ab11c20a45a710b3087de5d97"}, {"bike_id": "c7ac3dcebad603e4d66448855f403ff9", "type": "electric_bike", "is_disabled": 0, "lat": 38.897407666666666, "rental_uris": {"ios": "https://dc.lft.to/lastmile_qr_scan", "android": "https://dc.lft.to/lastmile_qr_scan"}, "is_reserved": 0, "fusion_lon": 0.0, "fusion_lat": 0.0, "lon": -76.92046466666666, "name": "c7ac3dcebad603e4d66448855f403ff9"}, {"bike_id": "a0ef0c8d7844798d112030b20be40682", "type": "electric_scooter", "is_disabled": 0, "lat": 38.91697633333333, "rental_uris": {"ios": "https://dc.lft.to/lastmile_qr_scan", "android": "https://dc.lft.to/lastmile_qr_scan"}, "is_reserved": 0, "fusion_lon": 0.0, "fusion_lat": 0.0, "lon": -77.03750583333333, "name": "a0ef0c8d7844798d112030b20be40682"}, {"bike_id": "868ad546c9d3c190c54c89e321c723a9", "type": "electric_scooter", "is_disabled": 0, "lat": 38.9192345, "rental_uris": {"ios": "https://dc.lft.to/lastmile_qr_scan", "android": "https://dc.lft.to/lastmile_qr_scan"}, "is_reserved": 0, "fusion_lon": 0.0, "fusion_lat": 0.0, "lon": -77.03359966666666, "name": "868ad546c9d3c190c54c89e321c723a9"}, {"bike_id": "095ad35226d90c86aa0896e591f345ae", "type": "electric_scooter", "is_disabled": 0, "lat": 38.91820033333333, "rental_uris": {"ios": "https://dc.lft.to/lastmile_qr_scan", "android": "https://dc.lft.to/lastmile_qr_scan"}, "is_reserved": 0, "fusion_lon": 0.0, "fusion_lat": 0.0, "lon": -77.04947666666666, "name": "095ad35226d90c86aa0896e591f345ae"}, {"bike_id": "cba1fdb743c6ca97641c4e794b7165d5", "type": "electric_scooter", "is_disabled": 0, "lat": 38.9265445, "rental_uris": {"ios": "https://dc.lft.to/lastmile_qr_scan", "android": "https://dc.lft.to/lastmile_qr_scan"}, "is_reserved": 0, "fusion_lon": 0.0, "fusion_lat": 0.0, "lon": -77.037334, "name": "cba1fdb743c6ca97641c4e794b7165d5"}, {"bike_id": "980abbd709cbb1a6a3dba1409e75680d", "type": "electric_scooter", "is_disabled": 0, "lat": 38.905518, "rental_uris": {"ios": "https://dc.lft.to/lastmile_qr_scan", "android": "https://dc.lft.to/lastmile_qr_scan"}, "is_reserved": 0, "fusion_lon": 0.0, "fusion_lat": 0.0, "lon": -77.03827116666666, "name": "980abbd709cbb1a6a3dba1409e75680d"}, {"bike_id": "bf41b0ae6c9ae986d2403ccbf9b3143d", "type": "electric_scooter", "is_disabled": 0, "lat": 38.860039, "rental_uris": {"ios": "https://dc.lft.to/lastmile_qr_scan", "android": "https://dc.lft.to/lastmile_qr_scan"}, "is_reserved": 0, "fusion_lon": 0.0, "fusion_lat": 0.0, "lon": -76.985199, "name": "bf41b0ae6c9ae986d2403ccbf9b3143d"}, {"bike_id": "5f606aeaca2da8160016a4bc86371ca4", "type": "electric_scooter", "is_disabled": 0, "lat": 38.90418566666666, "rental_uris": {"ios": "https://dc.lft.to/lastmile_qr_scan", "android": "https://dc.lft.to/lastmile_qr_scan"}, "is_reserved": 0, "fusion_lon": 0.0, "fusion_lat": 0.0, "lon": -77.054677, "name": "5f606aeaca2da8160016a4bc86371ca4"}, {"bike_id": "b4e6179e5038320ae47b6ba8d74571ec", "type": "electric_scooter", "is_disabled": 0, "lat": 38.9367215, "rental_uris": {"ios": "https://dc.lft.to/lastmile_qr_scan", "android": "https://dc.lft.to/lastmile_qr_scan"}, "is_reserved": 0, "fusion_lon": 0.0, "fusion_lat": 0.0, "lon": -77.0356655, "name": "b4e6179e5038320ae47b6ba8d74571ec"}, {"bike_id": "20853232a9bbe55ccee287da99cc2b8b", "type": "electric_scooter", "is_disabled": 0, "lat": 38.862477, "rental_uris": {"ios": "https://dc.lft.to/lastmile_qr_scan", "android": "https://dc.lft.to/lastmile_qr_scan"}, "is_reserved": 0, "fusion_lon": 0.0, "fusion_lat": 0.0, "lon": -76.99503233333333, "name": "20853232a9bbe55ccee287da99cc2b8b"}, {"bike_id": "e73eac71d1635b38734f176c6a9d40e4", "type": "electric_scooter", "is_disabled": 0, "lat": 38.962027, "rental_uris": {"ios": "https://dc.lft.to/lastmile_qr_scan", "android": "https://dc.lft.to/lastmile_qr_scan"}, "is_reserved": 0, "fusion_lon": 0.0, "fusion_lat": 0.0, "lon": -77.022285, "name": "e73eac71d1635b38734f176c6a9d40e4"}, {"bike_id": "3ec7fb72dd67111bfbaa011715dad89e", "type": "electric_scooter", "is_disabled": 0, "lat": 38.927424333333335, "rental_uris": {"ios": "https://dc.lft.to/lastmile_qr_scan", "android": "https://dc.lft.to/lastmile_qr_scan"}, "is_reserved": 0, "fusion_lon": 0.0, "fusion_lat": 0.0, "lon": -77.02537383333333, "name": "3ec7fb72dd67111bfbaa011715dad89e"}, {"bike_id": "de6b388d7060e399be37014ea0b74b20", "type": "electric_scooter", "is_disabled": 0, "lat": 38.89298016666667, "rental_uris": {"ios": "https://dc.lft.to/lastmile_qr_scan", "android": "https://dc.lft.to/lastmile_qr_scan"}, "is_reserved": 0, "fusion_lon": 0.0, "fusion_lat": 0.0, "lon": -77.012316, "name": "de6b388d7060e399be37014ea0b74b20"}, {"bike_id": "69435b38028b33033ca93c5744018655", "type": "electric_bike", "is_disabled": 0, "lat": 38.896081833333334, "rental_uris": {"ios": "https://dc.lft.to/lastmile_qr_scan", "android": "https://dc.lft.to/lastmile_qr_scan"}, "is_reserved": 0, "fusion_lon": 0.0, "fusion_lat": 0.0, "lon": -77.02245033333334, "name": "69435b38028b33033ca93c5744018655"}, {"bike_id": "e618d249392038e51bdd530ee4baa123", "type": "electric_bike", "is_disabled": 0, "lat": 38.983685, "rental_uris": {"ios": "https://dc.lft.to/lastmile_qr_scan", "android": "https://dc.lft.to/lastmile_qr_scan"}, "is_reserved": 0, "fusion_lon": 0.0, "fusion_lat": 0.0, "lon": -76.9721715, "name": "e618d249392038e51bdd530ee4baa123"}, {"bike_id": "e8f0c4210b8b48ddc1fee64ba107ea03", "type": "electric_scooter", "is_disabled": 0, "lat": 38.90509983333333, "rental_uris": {"ios": "https://dc.lft.to/lastmile_qr_scan", "android": "https://dc.lft.to/lastmile_qr_scan"}, "is_reserved": 0, "fusion_lon": 0.0, "fusion_lat": 0.0, "lon": -77.02976933333333, "name": "e8f0c4210b8b48ddc1fee64ba107ea03"}, {"bike_id": "363e52296b0ab2cd5ada83863c831837", "type": "electric_scooter", "is_disabled": 0, "lat": 38.86471433333333, "rental_uris": {"ios": "https://dc.lft.to/lastmile_qr_scan", "android": "https://dc.lft.to/lastmile_qr_scan"}, "is_reserved": 0, "fusion_lon": 0.0, "fusion_lat": 0.0, "lon": -76.98235383333333, "name": "363e52296b0ab2cd5ada83863c831837"}, {"bike_id": "b9c5d6f1e236150ce4dfab4704e33f38", "type": "electric_bike", "is_disabled": 0, "lat": 38.897345333333334, "rental_uris": {"ios": "https://dc.lft.to/lastmile_qr_scan", "android": "https://dc.lft.to/lastmile_qr_scan"}, "is_reserved": 0, "fusion_lon": 0.0, "fusion_lat": 0.0, "lon": -76.99214166666667, "name": "b9c5d6f1e236150ce4dfab4704e33f38"}, {"bike_id": "1fa0ea34bd750bf3c37f9e4559a5687d", "type": "electric_scooter", "is_disabled": 0, "lat": 38.94272733333333, "rental_uris": {"ios": "https://dc.lft.to/lastmile_qr_scan", "android": "https://dc.lft.to/lastmile_qr_scan"}, "is_reserved": 0, "fusion_lon": 0.0, "fusion_lat": 0.0, "lon": -77.032557, "name": "1fa0ea34bd750bf3c37f9e4559a5687d"}, {"bike_id": "b36263a502d0ed9b03457764e3fe3ae0", "type": "electric_scooter", "is_disabled": 0, "lat": 38.895369333333335, "rental_uris": {"ios": "https://dc.lft.to/lastmile_qr_scan", "android": "https://dc.lft.to/lastmile_qr_scan"}, "is_reserved": 0, "fusion_lon": 0.0, "fusion_lat": 0.0, "lon": -77.01100083333333, "name": "b36263a502d0ed9b03457764e3fe3ae0"}, {"bike_id": "3e157e5425cf3f6b02ee3082bb4faa73", "type": "electric_scooter", "is_disabled": 0, "lat": 38.903603333333336, "rental_uris": {"ios": "https://dc.lft.to/lastmile_qr_scan", "android": "https://dc.lft.to/lastmile_qr_scan"}, "is_reserved": 0, "fusion_lon": 0.0, "fusion_lat": 0.0, "lon": -77.043496, "name": "3e157e5425cf3f6b02ee3082bb4faa73"}, {"bike_id": "f04f60a69c9987a063ecf66707ec57fd", "type": "electric_scooter", "is_disabled": 0, "lat": 38.87419966666667, "rental_uris": {"ios": "https://dc.lft.to/lastmile_qr_scan", "android": "https://dc.lft.to/lastmile_qr_scan"}, "is_reserved": 0, "fusion_lon": 0.0, "fusion_lat": 0.0, "lon": -76.9691025, "name": "f04f60a69c9987a063ecf66707ec57fd"}, {"bike_id": "c7dc65ca4b85c883aa12e8f234cbd67b", "type": "electric_scooter", "is_disabled": 0, "lat": 38.9184755, "rental_uris": {"ios": "https://dc.lft.to/lastmile_qr_scan", "android": "https://dc.lft.to/lastmile_qr_scan"}, "is_reserved": 0, "fusion_lon": 0.0, "fusion_lat": 0.0, "lon": -77.03206333333333, "name": "c7dc65ca4b85c883aa12e8f234cbd67b"}, {"bike_id": "cd8d55e68953e73b01c9d4e99e9152b5", "type": "electric_scooter", "is_disabled": 0, "lat": 38.86372333333333, "rental_uris": {"ios": "https://dc.lft.to/lastmile_qr_scan", "android": "https://dc.lft.to/lastmile_qr_scan"}, "is_reserved": 0, "fusion_lon": 0.0, "fusion_lat": 0.0, "lon": -76.99059216666667, "name": "cd8d55e68953e73b01c9d4e99e9152b5"}, {"bike_id": "473bb9058bb34dadb848160f51794949", "type": "electric_scooter", "is_disabled": 0, "lat": 38.95474166666666, "rental_uris": {"ios": "https://dc.lft.to/lastmile_qr_scan", "android": "https://dc.lft.to/lastmile_qr_scan"}, "is_reserved": 0, "fusion_lon": 0.0, "fusion_lat": 0.0, "lon": -77.08215733333333, "name": "473bb9058bb34dadb848160f51794949"}, {"bike_id": "1f0b8ac40b0dbd55658db0dd841ee4bc", "type": "electric_scooter", "is_disabled": 0, "lat": 38.9055685, "rental_uris": {"ios": "https://dc.lft.to/lastmile_qr_scan", "android": "https://dc.lft.to/lastmile_qr_scan"}, "is_reserved": 0, "fusion_lon": 0.0, "fusion_lat": 0.0, "lon": -77.006029, "name": "1f0b8ac40b0dbd55658db0dd841ee4bc"}, {"bike_id": "9d819b3e36f6df3ca0a0b838c2a3c7a4", "type": "electric_bike", "is_disabled": 0, "lat": 38.836070666666664, "rental_uris": {"ios": "https://dc.lft.to/lastmile_qr_scan", "android": "https://dc.lft.to/lastmile_qr_scan"}, "is_reserved": 0, "fusion_lon": 0.0, "fusion_lat": 0.0, "lon": -77.00381683333333, "name": "9d819b3e36f6df3ca0a0b838c2a3c7a4"}, {"bike_id": "c4a1842a48b37be2e9a38bebde6c0821", "type": "electric_bike", "is_disabled": 0, "lat": 38.85935333333333, "rental_uris": {"ios": "https://dc.lft.to/lastmile_qr_scan", "android": "https://dc.lft.to/lastmile_qr_scan"}, "is_reserved": 0, "fusion_lon": 0.0, "fusion_lat": 0.0, "lon": -77.11830516666667, "name": "c4a1842a48b37be2e9a38bebde6c0821"}, {"bike_id": "1059ac105eb0c86310fff90b99ef02a8", "type": "electric_scooter", "is_disabled": 0, "lat": 38.932044, "rental_uris": {"ios": "https://dc.lft.to/lastmile_qr_scan", "android": "https://dc.lft.to/lastmile_qr_scan"}, "is_reserved": 0, "fusion_lon": 0.0, "fusion_lat": 0.0, "lon": -77.0367035, "name": "1059ac105eb0c86310fff90b99ef02a8"}, {"bike_id": "f82ea81562db364ef50909e4563c2242", "type": "electric_bike", "is_disabled": 0, "lat": 38.823667, "rental_uris": {"ios": "https://dc.lft.to/lastmile_qr_scan", "android": "https://dc.lft.to/lastmile_qr_scan"}, "is_reserved": 0, "fusion_lon": 0.0, "fusion_lat": 0.0, "lon": -77.002231, "name": "f82ea81562db364ef50909e4563c2242"}, {"bike_id": "595f93c392da6c347e2c66940e3f1e94", "type": "electric_bike", "is_disabled": 0, "lat": 38.89805066666667, "rental_uris": {"ios": "https://dc.lft.to/lastmile_qr_scan", "android": "https://dc.lft.to/lastmile_qr_scan"}, "is_reserved": 0, "fusion_lon": 0.0, "fusion_lat": 0.0, "lon": -76.99064883333334, "name": "595f93c392da6c347e2c66940e3f1e94"}, {"bike_id": "9b03929c1f1bae43ce1bef8e997dd103", "type": "electric_scooter", "is_disabled": 0, "lat": 38.89232366666667, "rental_uris": {"ios": "https://dc.lft.to/lastmile_qr_scan", "android": "https://dc.lft.to/lastmile_qr_scan"}, "is_reserved": 0, "fusion_lon": 0.0, "fusion_lat": 0.0, "lon": -77.02381733333333, "name": "9b03929c1f1bae43ce1bef8e997dd103"}, {"bike_id": "e4646e01d00396c8a8249834abb1841f", "type": "electric_scooter", "is_disabled": 0, "lat": 38.90593416666667, "rental_uris": {"ios": "https://dc.lft.to/lastmile_qr_scan", "android": "https://dc.lft.to/lastmile_qr_scan"}, "is_reserved": 0, "fusion_lon": 0.0, "fusion_lat": 0.0, "lon": -77.06806183333333, "name": "e4646e01d00396c8a8249834abb1841f"}, {"bike_id": "0e33d1a1611f6b469d73dfdfc67b6a3f", "type": "electric_scooter", "is_disabled": 0, "lat": 38.9222855, "rental_uris": {"ios": "https://dc.lft.to/lastmile_qr_scan", "android": "https://dc.lft.to/lastmile_qr_scan"}, "is_reserved": 0, "fusion_lon": 0.0, "fusion_lat": 0.0, "lon": -77.0471845, "name": "0e33d1a1611f6b469d73dfdfc67b6a3f"}, {"bike_id": "db84e519061ae7fab27c964d78aedbe3", "type": "electric_scooter", "is_disabled": 0, "lat": 38.92078883333333, "rental_uris": {"ios": "https://dc.lft.to/lastmile_qr_scan", "android": "https://dc.lft.to/lastmile_qr_scan"}, "is_reserved": 0, "fusion_lon": 0.0, "fusion_lat": 0.0, "lon": -77.00452133333333, "name": "db84e519061ae7fab27c964d78aedbe3"}, {"bike_id": "2e9f8bf661667bca8e33459ad34b18e3", "type": "electric_scooter", "is_disabled": 0, "lat": 38.941308166666666, "rental_uris": {"ios": "https://dc.lft.to/lastmile_qr_scan", "android": "https://dc.lft.to/lastmile_qr_scan"}, "is_reserved": 0, "fusion_lon": 0.0, "fusion_lat": 0.0, "lon": -77.01546133333333, "name": "2e9f8bf661667bca8e33459ad34b18e3"}, {"bike_id": "f8a0ef66826b5afd089a24d7d9356726", "type": "electric_scooter", "is_disabled": 0, "lat": 38.91591483333333, "rental_uris": {"ios": "https://dc.lft.to/lastmile_qr_scan", "android": "https://dc.lft.to/lastmile_qr_scan"}, "is_reserved": 0, "fusion_lon": 0.0, "fusion_lat": 0.0, "lon": -77.044743, "name": "f8a0ef66826b5afd089a24d7d9356726"}, {"bike_id": "660c7de1b53aab2dec0636b56631904d", "type": "electric_bike", "is_disabled": 0, "lat": 38.96957066666667, "rental_uris": {"ios": "https://dc.lft.to/lastmile_qr_scan", "android": "https://dc.lft.to/lastmile_qr_scan"}, "is_reserved": 0, "fusion_lon": 0.0, "fusion_lat": 0.0, "lon": -76.95750816666667, "name": "660c7de1b53aab2dec0636b56631904d"}, {"bike_id": "726a154b07466565c3dd484208d4cf0d", "type": "electric_scooter", "is_disabled": 0, "lat": 38.93543, "rental_uris": {"ios": "https://dc.lft.to/lastmile_qr_scan", "android": "https://dc.lft.to/lastmile_qr_scan"}, "is_reserved": 0, "fusion_lon": 0.0, "fusion_lat": 0.0, "lon": -77.05860866666667, "name": "726a154b07466565c3dd484208d4cf0d"}, {"bike_id": "162a9a2444ac8ae29d50d53c2a74a3f2", "type": "electric_scooter", "is_disabled": 0, "lat": 38.90232683333333, "rental_uris": {"ios": "https://dc.lft.to/lastmile_qr_scan", "android": "https://dc.lft.to/lastmile_qr_scan"}, "is_reserved": 0, "fusion_lon": 0.0, "fusion_lat": 0.0, "lon": -77.00199283333333, "name": "162a9a2444ac8ae29d50d53c2a74a3f2"}, {"bike_id": "d8fd784f52cfe43f8fbeceefec01d155", "type": "electric_scooter", "is_disabled": 0, "lat": 38.90054716666667, "rental_uris": {"ios": "https://dc.lft.to/lastmile_qr_scan", "android": "https://dc.lft.to/lastmile_qr_scan"}, "is_reserved": 0, "fusion_lon": 0.0, "fusion_lat": 0.0, "lon": -77.0467055, "name": "d8fd784f52cfe43f8fbeceefec01d155"}, {"bike_id": "e29a239edb87e58bb0047b9fa1dd7ad2", "type": "electric_scooter", "is_disabled": 0, "lat": 38.8829875, "rental_uris": {"ios": "https://dc.lft.to/lastmile_qr_scan", "android": "https://dc.lft.to/lastmile_qr_scan"}, "is_reserved": 0, "fusion_lon": 0.0, "fusion_lat": 0.0, "lon": -76.948525, "name": "e29a239edb87e58bb0047b9fa1dd7ad2"}, {"bike_id": "db8a2e952feec4f01406b620d3a23dac", "type": "electric_scooter", "is_disabled": 0, "lat": 38.92467166666667, "rental_uris": {"ios": "https://dc.lft.to/lastmile_qr_scan", "android": "https://dc.lft.to/lastmile_qr_scan"}, "is_reserved": 0, "fusion_lon": 0.0, "fusion_lat": 0.0, "lon": -77.0283115, "name": "db8a2e952feec4f01406b620d3a23dac"}, {"bike_id": "9c4eafe8858da2f542cdd00daa032fb0", "type": "electric_scooter", "is_disabled": 0, "lat": 38.925889166666664, "rental_uris": {"ios": "https://dc.lft.to/lastmile_qr_scan", "android": "https://dc.lft.to/lastmile_qr_scan"}, "is_reserved": 0, "fusion_lon": 0.0, "fusion_lat": 0.0, "lon": -77.04405816666667, "name": "9c4eafe8858da2f542cdd00daa032fb0"}, {"bike_id": "2e9fd4c9220f7915aea01f8aca2a4dbb", "type": "electric_scooter", "is_disabled": 0, "lat": 38.864652666666665, "rental_uris": {"ios": "https://dc.lft.to/lastmile_qr_scan", "android": "https://dc.lft.to/lastmile_qr_scan"}, "is_reserved": 0, "fusion_lon": 0.0, "fusion_lat": 0.0, "lon": -76.97738983333333, "name": "2e9fd4c9220f7915aea01f8aca2a4dbb"}, {"bike_id": "769fc278375eb664643993649c504683", "type": "electric_scooter", "is_disabled": 0, "lat": 38.912763, "rental_uris": {"ios": "https://dc.lft.to/lastmile_qr_scan", "android": "https://dc.lft.to/lastmile_qr_scan"}, "is_reserved": 0, "fusion_lon": 0.0, "fusion_lat": 0.0, "lon": -77.02715716666667, "name": "769fc278375eb664643993649c504683"}, {"bike_id": "0f36de757d88219edc31524784f2bb14", "type": "electric_scooter", "is_disabled": 0, "lat": 38.86241533333333, "rental_uris": {"ios": "https://dc.lft.to/lastmile_qr_scan", "android": "https://dc.lft.to/lastmile_qr_scan"}, "is_reserved": 0, "fusion_lon": 0.0, "fusion_lat": 0.0, "lon": -76.99495716666667, "name": "0f36de757d88219edc31524784f2bb14"}, {"bike_id": "07e33e9165ef1c089c901fdb63d53670", "type": "electric_scooter", "is_disabled": 0, "lat": 38.90268616666667, "rental_uris": {"ios": "https://dc.lft.to/lastmile_qr_scan", "android": "https://dc.lft.to/lastmile_qr_scan"}, "is_reserved": 0, "fusion_lon": 0.0, "fusion_lat": 0.0, "lon": -77.01754716666666, "name": "07e33e9165ef1c089c901fdb63d53670"}, {"bike_id": "32effa27710205538d047edbf9124303", "type": "electric_scooter", "is_disabled": 0, "lat": 38.914083833333336, "rental_uris": {"ios": "https://dc.lft.to/lastmile_qr_scan", "android": "https://dc.lft.to/lastmile_qr_scan"}, "is_reserved": 0, "fusion_lon": 0.0, "fusion_lat": 0.0, "lon": -77.024258, "name": "32effa27710205538d047edbf9124303"}, {"bike_id": "0b1413bfd78052a7e7d94198eaecc788", "type": "electric_scooter", "is_disabled": 0, "lat": 38.90157816666667, "rental_uris": {"ios": "https://dc.lft.to/lastmile_qr_scan", "android": "https://dc.lft.to/lastmile_qr_scan"}, "is_reserved": 0, "fusion_lon": 0.0, "fusion_lat": 0.0, "lon": -77.022054, "name": "0b1413bfd78052a7e7d94198eaecc788"}, {"bike_id": "a790bc731a65e55de948e94d317b16cb", "type": "electric_scooter", "is_disabled": 0, "lat": 38.90471633333333, "rental_uris": {"ios": "https://dc.lft.to/lastmile_qr_scan", "android": "https://dc.lft.to/lastmile_qr_scan"}, "is_reserved": 0, "fusion_lon": 0.0, "fusion_lat": 0.0, "lon": -77.06618866666666, "name": "a790bc731a65e55de948e94d317b16cb"}, {"bike_id": "1b631e2b95efaa65816b46170c88b50c", "type": "electric_scooter", "is_disabled": 0, "lat": 38.88534166666667, "rental_uris": {"ios": "https://dc.lft.to/lastmile_qr_scan", "android": "https://dc.lft.to/lastmile_qr_scan"}, "is_reserved": 0, "fusion_lon": 0.0, "fusion_lat": 0.0, "lon": -76.9983125, "name": "1b631e2b95efaa65816b46170c88b50c"}, {"bike_id": "fd01a7585e59e5a227e24698dee3a186", "type": "electric_scooter", "is_disabled": 0, "lat": 38.9012595, "rental_uris": {"ios": "https://dc.lft.to/lastmile_qr_scan", "android": "https://dc.lft.to/lastmile_qr_scan"}, "is_reserved": 0, "fusion_lon": 0.0, "fusion_lat": 0.0, "lon": -77.01834916666667, "name": "fd01a7585e59e5a227e24698dee3a186"}, {"bike_id": "4e32052b3275a63d2ba86a06088c5c94", "type": "electric_scooter", "is_disabled": 0, "lat": 38.90441916666666, "rental_uris": {"ios": "https://dc.lft.to/lastmile_qr_scan", "android": "https://dc.lft.to/lastmile_qr_scan"}, "is_reserved": 0, "fusion_lon": 0.0, "fusion_lat": 0.0, "lon": -77.0346, "name": "4e32052b3275a63d2ba86a06088c5c94"}, {"bike_id": "c50e2e7bda013ae96859f56664bd4709", "type": "electric_scooter", "is_disabled": 0, "lat": 38.878802666666665, "rental_uris": {"ios": "https://dc.lft.to/lastmile_qr_scan", "android": "https://dc.lft.to/lastmile_qr_scan"}, "is_reserved": 0, "fusion_lon": 0.0, "fusion_lat": 0.0, "lon": -77.0231605, "name": "c50e2e7bda013ae96859f56664bd4709"}, {"bike_id": "ebaa0a41e80b7c75b7f3b43199637372", "type": "electric_scooter", "is_disabled": 0, "lat": 38.95661416666667, "rental_uris": {"ios": "https://dc.lft.to/lastmile_qr_scan", "android": "https://dc.lft.to/lastmile_qr_scan"}, "is_reserved": 0, "fusion_lon": 0.0, "fusion_lat": 0.0, "lon": -77.02398566666666, "name": "ebaa0a41e80b7c75b7f3b43199637372"}, {"bike_id": "64212646dc3b1b122d462f71ca196098", "type": "electric_scooter", "is_disabled": 0, "lat": 38.911091666666664, "rental_uris": {"ios": "https://dc.lft.to/lastmile_qr_scan", "android": "https://dc.lft.to/lastmile_qr_scan"}, "is_reserved": 0, "fusion_lon": 0.0, "fusion_lat": 0.0, "lon": -77.0214555, "name": "64212646dc3b1b122d462f71ca196098"}, {"bike_id": "2f786a42c3928739cbc2b6f469415511", "type": "electric_scooter", "is_disabled": 0, "lat": 38.92314433333333, "rental_uris": {"ios": "https://dc.lft.to/lastmile_qr_scan", "android": "https://dc.lft.to/lastmile_qr_scan"}, "is_reserved": 0, "fusion_lon": 0.0, "fusion_lat": 0.0, "lon": -77.03907933333333, "name": "2f786a42c3928739cbc2b6f469415511"}, {"bike_id": "06a09417dc6dd9a9812d6d0c9e245b3e", "type": "electric_scooter", "is_disabled": 0, "lat": 38.88630283333333, "rental_uris": {"ios": "https://dc.lft.to/lastmile_qr_scan", "android": "https://dc.lft.to/lastmile_qr_scan"}, "is_reserved": 0, "fusion_lon": 0.0, "fusion_lat": 0.0, "lon": -76.99617183333334, "name": "06a09417dc6dd9a9812d6d0c9e245b3e"}, {"bike_id": "7b7d98328aa596c834b6ea01b7b1e7c5", "type": "electric_scooter", "is_disabled": 0, "lat": 38.890064333333335, "rental_uris": {"ios": "https://dc.lft.to/lastmile_qr_scan", "android": "https://dc.lft.to/lastmile_qr_scan"}, "is_reserved": 0, "fusion_lon": 0.0, "fusion_lat": 0.0, "lon": -76.9375155, "name": "7b7d98328aa596c834b6ea01b7b1e7c5"}, {"bike_id": "97373f660e79a2011b152999bfb65603", "type": "electric_scooter", "is_disabled": 0, "lat": 38.86778183333333, "rental_uris": {"ios": "https://dc.lft.to/lastmile_qr_scan", "android": "https://dc.lft.to/lastmile_qr_scan"}, "is_reserved": 0, "fusion_lon": 0.0, "fusion_lat": 0.0, "lon": -76.988419, "name": "97373f660e79a2011b152999bfb65603"}, {"bike_id": "e054b6b941d058ceafba488b202f18ac", "type": "electric_scooter", "is_disabled": 0, "lat": 38.902301, "rental_uris": {"ios": "https://dc.lft.to/lastmile_qr_scan", "android": "https://dc.lft.to/lastmile_qr_scan"}, "is_reserved": 0, "fusion_lon": 0.0, "fusion_lat": 0.0, "lon": -77.04132816666667, "name": "e054b6b941d058ceafba488b202f18ac"}, {"bike_id": "154e20dd14d1cb38bba4ce963b726d10", "type": "electric_scooter", "is_disabled": 0, "lat": 38.950012666666666, "rental_uris": {"ios": "https://dc.lft.to/lastmile_qr_scan", "android": "https://dc.lft.to/lastmile_qr_scan"}, "is_reserved": 0, "fusion_lon": 0.0, "fusion_lat": 0.0, "lon": -77.015566, "name": "154e20dd14d1cb38bba4ce963b726d10"}, {"bike_id": "c27faf061d05a410804e84af491bdabb", "type": "electric_scooter", "is_disabled": 0, "lat": 38.926080166666665, "rental_uris": {"ios": "https://dc.lft.to/lastmile_qr_scan", "android": "https://dc.lft.to/lastmile_qr_scan"}, "is_reserved": 0, "fusion_lon": 0.0, "fusion_lat": 0.0, "lon": -77.02414683333333, "name": "c27faf061d05a410804e84af491bdabb"}, {"bike_id": "61eb5a980706d853b07974099a6691c6", "type": "electric_scooter", "is_disabled": 0, "lat": 38.877421, "rental_uris": {"ios": "https://dc.lft.to/lastmile_qr_scan", "android": "https://dc.lft.to/lastmile_qr_scan"}, "is_reserved": 0, "fusion_lon": 0.0, "fusion_lat": 0.0, "lon": -77.01778116666667, "name": "61eb5a980706d853b07974099a6691c6"}, {"bike_id": "ef397758c651ac25a40e7948442c3dc9", "type": "electric_scooter", "is_disabled": 0, "lat": 38.905589166666665, "rental_uris": {"ios": "https://dc.lft.to/lastmile_qr_scan", "android": "https://dc.lft.to/lastmile_qr_scan"}, "is_reserved": 0, "fusion_lon": 0.0, "fusion_lat": 0.0, "lon": -77.0344635, "name": "ef397758c651ac25a40e7948442c3dc9"}, {"bike_id": "c07c2d2fe378278d780977031973dbdc", "type": "electric_scooter", "is_disabled": 0, "lat": 38.89217383333333, "rental_uris": {"ios": "https://dc.lft.to/lastmile_qr_scan", "android": "https://dc.lft.to/lastmile_qr_scan"}, "is_reserved": 0, "fusion_lon": 0.0, "fusion_lat": 0.0, "lon": -77.02579883333334, "name": "c07c2d2fe378278d780977031973dbdc"}, {"bike_id": "82e5d1a5349141d0bf8e1ca772d75802", "type": "electric_scooter", "is_disabled": 0, "lat": 38.9132985, "rental_uris": {"ios": "https://dc.lft.to/lastmile_qr_scan", "android": "https://dc.lft.to/lastmile_qr_scan"}, "is_reserved": 0, "fusion_lon": 0.0, "fusion_lat": 0.0, "lon": -77.04734616666667, "name": "82e5d1a5349141d0bf8e1ca772d75802"}, {"bike_id": "876da26eb67b8e185fc59525eed5d691", "type": "electric_scooter", "is_disabled": 0, "lat": 38.9126645, "rental_uris": {"ios": "https://dc.lft.to/lastmile_qr_scan", "android": "https://dc.lft.to/lastmile_qr_scan"}, "is_reserved": 0, "fusion_lon": 0.0, "fusion_lat": 0.0, "lon": -77.03827816666667, "name": "876da26eb67b8e185fc59525eed5d691"}, {"bike_id": "cae7bb41ba9f8b47705708ffc9e4c331", "type": "electric_scooter", "is_disabled": 0, "lat": 38.911198166666665, "rental_uris": {"ios": "https://dc.lft.to/lastmile_qr_scan", "android": "https://dc.lft.to/lastmile_qr_scan"}, "is_reserved": 0, "fusion_lon": 0.0, "fusion_lat": 0.0, "lon": -77.04365283333334, "name": "cae7bb41ba9f8b47705708ffc9e4c331"}, {"bike_id": "cd51a3556905f7ad78e9e9ce54302d8e", "type": "electric_scooter", "is_disabled": 0, "lat": 38.924048666666664, "rental_uris": {"ios": "https://dc.lft.to/lastmile_qr_scan", "android": "https://dc.lft.to/lastmile_qr_scan"}, "is_reserved": 0, "fusion_lon": 0.0, "fusion_lat": 0.0, "lon": -77.020199, "name": "cd51a3556905f7ad78e9e9ce54302d8e"}, {"bike_id": "4804e47fa7ee39cfd9ac96b44cd7c3f5", "type": "electric_scooter", "is_disabled": 0, "lat": 38.9174735, "rental_uris": {"ios": "https://dc.lft.to/lastmile_qr_scan", "android": "https://dc.lft.to/lastmile_qr_scan"}, "is_reserved": 0, "fusion_lon": 0.0, "fusion_lat": 0.0, "lon": -77.03857883333333, "name": "4804e47fa7ee39cfd9ac96b44cd7c3f5"}, {"bike_id": "9bc92a782ce4aad5f362e67714bf991b", "type": "electric_scooter", "is_disabled": 0, "lat": 38.906456, "rental_uris": {"ios": "https://dc.lft.to/lastmile_qr_scan", "android": "https://dc.lft.to/lastmile_qr_scan"}, "is_reserved": 0, "fusion_lon": 0.0, "fusion_lat": 0.0, "lon": -77.05316233333333, "name": "9bc92a782ce4aad5f362e67714bf991b"}, {"bike_id": "006b8d4df8192b44b40b72574a52a8cb", "type": "electric_scooter", "is_disabled": 0, "lat": 38.916782166666664, "rental_uris": {"ios": "https://dc.lft.to/lastmile_qr_scan", "android": "https://dc.lft.to/lastmile_qr_scan"}, "is_reserved": 0, "fusion_lon": 0.0, "fusion_lat": 0.0, "lon": -77.0319865, "name": "006b8d4df8192b44b40b72574a52a8cb"}, {"bike_id": "66ac144f79d5a7b557ff2e9956606a90", "type": "electric_scooter", "is_disabled": 0, "lat": 38.93604783333333, "rental_uris": {"ios": "https://dc.lft.to/lastmile_qr_scan", "android": "https://dc.lft.to/lastmile_qr_scan"}, "is_reserved": 0, "fusion_lon": 0.0, "fusion_lat": 0.0, "lon": -77.05862483333334, "name": "66ac144f79d5a7b557ff2e9956606a90"}, {"bike_id": "f2f39f1e1aa5f04fe71ba50b0403491f", "type": "electric_scooter", "is_disabled": 0, "lat": 38.9446155, "rental_uris": {"ios": "https://dc.lft.to/lastmile_qr_scan", "android": "https://dc.lft.to/lastmile_qr_scan"}, "is_reserved": 0, "fusion_lon": 0.0, "fusion_lat": 0.0, "lon": -77.00656916666667, "name": "f2f39f1e1aa5f04fe71ba50b0403491f"}, {"bike_id": "a4d3ee9dcd29f8872eff98fe23d1be79", "type": "electric_scooter", "is_disabled": 0, "lat": 38.918359333333335, "rental_uris": {"ios": "https://dc.lft.to/lastmile_qr_scan", "android": "https://dc.lft.to/lastmile_qr_scan"}, "is_reserved": 0, "fusion_lon": 0.0, "fusion_lat": 0.0, "lon": -77.0318445, "name": "a4d3ee9dcd29f8872eff98fe23d1be79"}, {"bike_id": "ed18fafa1a319da63d3d3bb38340308a", "type": "electric_scooter", "is_disabled": 0, "lat": 38.93413983333333, "rental_uris": {"ios": "https://dc.lft.to/lastmile_qr_scan", "android": "https://dc.lft.to/lastmile_qr_scan"}, "is_reserved": 0, "fusion_lon": 0.0, "fusion_lat": 0.0, "lon": -77.0414975, "name": "ed18fafa1a319da63d3d3bb38340308a"}, {"bike_id": "deffd667d7e8f477d1c4c80506932852", "type": "electric_scooter", "is_disabled": 0, "lat": 38.9345845, "rental_uris": {"ios": "https://dc.lft.to/lastmile_qr_scan", "android": "https://dc.lft.to/lastmile_qr_scan"}, "is_reserved": 0, "fusion_lon": 0.0, "fusion_lat": 0.0, "lon": -77.027968, "name": "deffd667d7e8f477d1c4c80506932852"}, {"bike_id": "88ad627a6261c1cb9934be1d4f69f77e", "type": "electric_scooter", "is_disabled": 0, "lat": 38.93215333333333, "rental_uris": {"ios": "https://dc.lft.to/lastmile_qr_scan", "android": "https://dc.lft.to/lastmile_qr_scan"}, "is_reserved": 0, "fusion_lon": 0.0, "fusion_lat": 0.0, "lon": -77.03364766666667, "name": "88ad627a6261c1cb9934be1d4f69f77e"}, {"bike_id": "bbdce1a28159c64aa9874d5f63269202", "type": "electric_bike", "is_disabled": 0, "lat": 38.93446983333333, "rental_uris": {"ios": "https://dc.lft.to/lastmile_qr_scan", "android": "https://dc.lft.to/lastmile_qr_scan"}, "is_reserved": 0, "fusion_lon": 0.0, "fusion_lat": 0.0, "lon": -77.041214, "name": "bbdce1a28159c64aa9874d5f63269202"}, {"bike_id": "d26584cbb9b68aa5e67f8a4c6dc47e51", "type": "electric_scooter", "is_disabled": 0, "lat": 38.906820833333335, "rental_uris": {"ios": "https://dc.lft.to/lastmile_qr_scan", "android": "https://dc.lft.to/lastmile_qr_scan"}, "is_reserved": 0, "fusion_lon": 0.0, "fusion_lat": 0.0, "lon": -77.06261533333333, "name": "d26584cbb9b68aa5e67f8a4c6dc47e51"}, {"bike_id": "df2d16d8450f3073feca299833ba346a", "type": "electric_scooter", "is_disabled": 0, "lat": 38.91423433333333, "rental_uris": {"ios": "https://dc.lft.to/lastmile_qr_scan", "android": "https://dc.lft.to/lastmile_qr_scan"}, "is_reserved": 0, "fusion_lon": 0.0, "fusion_lat": 0.0, "lon": -77.0216555, "name": "df2d16d8450f3073feca299833ba346a"}, {"bike_id": "5d9c1b095646fd78766908273696b5cc", "type": "electric_scooter", "is_disabled": 0, "lat": 38.90788166666667, "rental_uris": {"ios": "https://dc.lft.to/lastmile_qr_scan", "android": "https://dc.lft.to/lastmile_qr_scan"}, "is_reserved": 0, "fusion_lon": 0.0, "fusion_lat": 0.0, "lon": -77.0385865, "name": "5d9c1b095646fd78766908273696b5cc"}, {"bike_id": "71e1ff485686bf3052bf3fcfd578b273", "type": "electric_scooter", "is_disabled": 0, "lat": 38.9132375, "rental_uris": {"ios": "https://dc.lft.to/lastmile_qr_scan", "android": "https://dc.lft.to/lastmile_qr_scan"}, "is_reserved": 0, "fusion_lon": 0.0, "fusion_lat": 0.0, "lon": -77.03253266666667, "name": "71e1ff485686bf3052bf3fcfd578b273"}, {"bike_id": "29cf35f728012a141a1cce4da7174838", "type": "electric_bike", "is_disabled": 0, "lat": 38.8824335, "rental_uris": {"ios": "https://dc.lft.to/lastmile_qr_scan", "android": "https://dc.lft.to/lastmile_qr_scan"}, "is_reserved": 0, "fusion_lon": 0.0, "fusion_lat": 0.0, "lon": -76.9626105, "name": "29cf35f728012a141a1cce4da7174838"}, {"bike_id": "9a3bf3bcdad64e13b71377130aabd414", "type": "electric_scooter", "is_disabled": 0, "lat": 38.9295065, "rental_uris": {"ios": "https://dc.lft.to/lastmile_qr_scan", "android": "https://dc.lft.to/lastmile_qr_scan"}, "is_reserved": 0, "fusion_lon": 0.0, "fusion_lat": 0.0, "lon": -77.0440485, "name": "9a3bf3bcdad64e13b71377130aabd414"}, {"bike_id": "c745b22f318509dfcf49ab4c1c3976e2", "type": "electric_bike", "is_disabled": 0, "lat": 38.9322565, "rental_uris": {"ios": "https://dc.lft.to/lastmile_qr_scan", "android": "https://dc.lft.to/lastmile_qr_scan"}, "is_reserved": 0, "fusion_lon": 0.0, "fusion_lat": 0.0, "lon": -77.18120633333334, "name": "c745b22f318509dfcf49ab4c1c3976e2"}, {"bike_id": "5b62f9f56f6a48771516647fd1ad20e9", "type": "electric_scooter", "is_disabled": 0, "lat": 38.93193133333333, "rental_uris": {"ios": "https://dc.lft.to/lastmile_qr_scan", "android": "https://dc.lft.to/lastmile_qr_scan"}, "is_reserved": 0, "fusion_lon": 0.0, "fusion_lat": 0.0, "lon": -77.02391333333334, "name": "5b62f9f56f6a48771516647fd1ad20e9"}, {"bike_id": "3738428aec656fb7a6e2d39af1060578", "type": "electric_scooter", "is_disabled": 0, "lat": 38.900258666666666, "rental_uris": {"ios": "https://dc.lft.to/lastmile_qr_scan", "android": "https://dc.lft.to/lastmile_qr_scan"}, "is_reserved": 0, "fusion_lon": 0.0, "fusion_lat": 0.0, "lon": -76.99858833333333, "name": "3738428aec656fb7a6e2d39af1060578"}, {"bike_id": "0e11614453a52a14ef3ba679f15e6f63", "type": "electric_scooter", "is_disabled": 0, "lat": 38.935474, "rental_uris": {"ios": "https://dc.lft.to/lastmile_qr_scan", "android": "https://dc.lft.to/lastmile_qr_scan"}, "is_reserved": 0, "fusion_lon": 0.0, "fusion_lat": 0.0, "lon": -77.03679533333333, "name": "0e11614453a52a14ef3ba679f15e6f63"}, {"bike_id": "c27647218e55f796f3cfc58deb4ae596", "type": "electric_scooter", "is_disabled": 0, "lat": 38.922651, "rental_uris": {"ios": "https://dc.lft.to/lastmile_qr_scan", "android": "https://dc.lft.to/lastmile_qr_scan"}, "is_reserved": 0, "fusion_lon": 0.0, "fusion_lat": 0.0, "lon": -77.04216583333333, "name": "c27647218e55f796f3cfc58deb4ae596"}, {"bike_id": "e3103bc845bc9f257e8ff19ed8979cbf", "type": "electric_scooter", "is_disabled": 0, "lat": 38.90465483333333, "rental_uris": {"ios": "https://dc.lft.to/lastmile_qr_scan", "android": "https://dc.lft.to/lastmile_qr_scan"}, "is_reserved": 0, "fusion_lon": 0.0, "fusion_lat": 0.0, "lon": -76.97607533333333, "name": "e3103bc845bc9f257e8ff19ed8979cbf"}, {"bike_id": "ab1b2030360368abb2d8200f68b47fb7", "type": "electric_scooter", "is_disabled": 0, "lat": 38.916193166666666, "rental_uris": {"ios": "https://dc.lft.to/lastmile_qr_scan", "android": "https://dc.lft.to/lastmile_qr_scan"}, "is_reserved": 0, "fusion_lon": 0.0, "fusion_lat": 0.0, "lon": -77.03210866666667, "name": "ab1b2030360368abb2d8200f68b47fb7"}, {"bike_id": "f89cd2d01ab7aa13c737c58f11d7c833", "type": "electric_scooter", "is_disabled": 0, "lat": 38.9110755, "rental_uris": {"ios": "https://dc.lft.to/lastmile_qr_scan", "android": "https://dc.lft.to/lastmile_qr_scan"}, "is_reserved": 0, "fusion_lon": 0.0, "fusion_lat": 0.0, "lon": -77.04474983333333, "name": "f89cd2d01ab7aa13c737c58f11d7c833"}, {"bike_id": "84838348d413adbd5f1b043a79a5272b", "type": "electric_scooter", "is_disabled": 0, "lat": 38.9279425, "rental_uris": {"ios": "https://dc.lft.to/lastmile_qr_scan", "android": "https://dc.lft.to/lastmile_qr_scan"}, "is_reserved": 0, "fusion_lon": 0.0, "fusion_lat": 0.0, "lon": -77.02130766666667, "name": "84838348d413adbd5f1b043a79a5272b"}, {"bike_id": "9cc9fbc6ef2259d60fcf3a7fdc389fde", "type": "electric_scooter", "is_disabled": 0, "lat": 38.884846833333334, "rental_uris": {"ios": "https://dc.lft.to/lastmile_qr_scan", "android": "https://dc.lft.to/lastmile_qr_scan"}, "is_reserved": 0, "fusion_lon": 0.0, "fusion_lat": 0.0, "lon": -77.015085, "name": "9cc9fbc6ef2259d60fcf3a7fdc389fde"}, {"bike_id": "e60779462fd273ed1c0c7de0d8ec664c", "type": "electric_scooter", "is_disabled": 0, "lat": 38.862158, "rental_uris": {"ios": "https://dc.lft.to/lastmile_qr_scan", "android": "https://dc.lft.to/lastmile_qr_scan"}, "is_reserved": 0, "fusion_lon": 0.0, "fusion_lat": 0.0, "lon": -76.9948575, "name": "e60779462fd273ed1c0c7de0d8ec664c"}, {"bike_id": "aecd10e55f77784b0497ba407610d4d8", "type": "electric_scooter", "is_disabled": 0, "lat": 38.931212333333335, "rental_uris": {"ios": "https://dc.lft.to/lastmile_qr_scan", "android": "https://dc.lft.to/lastmile_qr_scan"}, "is_reserved": 0, "fusion_lon": 0.0, "fusion_lat": 0.0, "lon": -77.02070366666666, "name": "aecd10e55f77784b0497ba407610d4d8"}, {"bike_id": "0897719dafbd8dd8f80f343e9413d7bd", "type": "electric_scooter", "is_disabled": 0, "lat": 38.90428933333333, "rental_uris": {"ios": "https://dc.lft.to/lastmile_qr_scan", "android": "https://dc.lft.to/lastmile_qr_scan"}, "is_reserved": 0, "fusion_lon": 0.0, "fusion_lat": 0.0, "lon": -77.05330366666666, "name": "0897719dafbd8dd8f80f343e9413d7bd"}, {"bike_id": "7e2765f30b11c87faa9a08f9fe218622", "type": "electric_scooter", "is_disabled": 0, "lat": 38.9168455, "rental_uris": {"ios": "https://dc.lft.to/lastmile_qr_scan", "android": "https://dc.lft.to/lastmile_qr_scan"}, "is_reserved": 0, "fusion_lon": 0.0, "fusion_lat": 0.0, "lon": -77.02966866666667, "name": "7e2765f30b11c87faa9a08f9fe218622"}, {"bike_id": "d5f84454ff4cb36894dd2787f67de8a5", "type": "electric_scooter", "is_disabled": 0, "lat": 38.902643, "rental_uris": {"ios": "https://dc.lft.to/lastmile_qr_scan", "android": "https://dc.lft.to/lastmile_qr_scan"}, "is_reserved": 0, "fusion_lon": 0.0, "fusion_lat": 0.0, "lon": -77.019677, "name": "d5f84454ff4cb36894dd2787f67de8a5"}, {"bike_id": "9c69646b0fb95cd689abd9fd9321f0f3", "type": "electric_scooter", "is_disabled": 0, "lat": 38.91659283333333, "rental_uris": {"ios": "https://dc.lft.to/lastmile_qr_scan", "android": "https://dc.lft.to/lastmile_qr_scan"}, "is_reserved": 0, "fusion_lon": 0.0, "fusion_lat": 0.0, "lon": -77.0385045, "name": "9c69646b0fb95cd689abd9fd9321f0f3"}, {"bike_id": "c141d9aadb0d79c637fabe37c04b4b26", "type": "electric_scooter", "is_disabled": 0, "lat": 38.920579333333336, "rental_uris": {"ios": "https://dc.lft.to/lastmile_qr_scan", "android": "https://dc.lft.to/lastmile_qr_scan"}, "is_reserved": 0, "fusion_lon": 0.0, "fusion_lat": 0.0, "lon": -77.0347125, "name": "c141d9aadb0d79c637fabe37c04b4b26"}, {"bike_id": "9df8d7d1536ca9d9389d49e7a35892a4", "type": "electric_scooter", "is_disabled": 0, "lat": 38.9569015, "rental_uris": {"ios": "https://dc.lft.to/lastmile_qr_scan", "android": "https://dc.lft.to/lastmile_qr_scan"}, "is_reserved": 0, "fusion_lon": 0.0, "fusion_lat": 0.0, "lon": -77.0240935, "name": "9df8d7d1536ca9d9389d49e7a35892a4"}, {"bike_id": "f09151f35adb51f4b39f7f29cb681fca", "type": "electric_scooter", "is_disabled": 0, "lat": 38.907286, "rental_uris": {"ios": "https://dc.lft.to/lastmile_qr_scan", "android": "https://dc.lft.to/lastmile_qr_scan"}, "is_reserved": 0, "fusion_lon": 0.0, "fusion_lat": 0.0, "lon": -77.05327116666666, "name": "f09151f35adb51f4b39f7f29cb681fca"}, {"bike_id": "2b734709c622560415bcf3e17a6ca775", "type": "electric_scooter", "is_disabled": 0, "lat": 38.90117383333333, "rental_uris": {"ios": "https://dc.lft.to/lastmile_qr_scan", "android": "https://dc.lft.to/lastmile_qr_scan"}, "is_reserved": 0, "fusion_lon": 0.0, "fusion_lat": 0.0, "lon": -77.04998633333334, "name": "2b734709c622560415bcf3e17a6ca775"}, {"bike_id": "c3351dddbc86bf01a68cc7baa6470525", "type": "electric_scooter", "is_disabled": 0, "lat": 38.922375833333334, "rental_uris": {"ios": "https://dc.lft.to/lastmile_qr_scan", "android": "https://dc.lft.to/lastmile_qr_scan"}, "is_reserved": 0, "fusion_lon": 0.0, "fusion_lat": 0.0, "lon": -77.0295215, "name": "c3351dddbc86bf01a68cc7baa6470525"}, {"bike_id": "5cc0fb079df85db91defa9591f314593", "type": "electric_scooter", "is_disabled": 0, "lat": 38.915742333333334, "rental_uris": {"ios": "https://dc.lft.to/lastmile_qr_scan", "android": "https://dc.lft.to/lastmile_qr_scan"}, "is_reserved": 0, "fusion_lon": 0.0, "fusion_lat": 0.0, "lon": -77.03463033333334, "name": "5cc0fb079df85db91defa9591f314593"}, {"bike_id": "115b39f7a1c04668eed54fc1277017f9", "type": "electric_bike", "is_disabled": 0, "lat": 38.79982783333333, "rental_uris": {"ios": "https://dc.lft.to/lastmile_qr_scan", "android": "https://dc.lft.to/lastmile_qr_scan"}, "is_reserved": 0, "fusion_lon": 0.0, "fusion_lat": 0.0, "lon": -77.1297885, "name": "115b39f7a1c04668eed54fc1277017f9"}, {"bike_id": "4d1edefda82be48604885df384d020ae", "type": "electric_scooter", "is_disabled": 0, "lat": 38.907507833333334, "rental_uris": {"ios": "https://dc.lft.to/lastmile_qr_scan", "android": "https://dc.lft.to/lastmile_qr_scan"}, "is_reserved": 0, "fusion_lon": 0.0, "fusion_lat": 0.0, "lon": -77.03185533333334, "name": "4d1edefda82be48604885df384d020ae"}, {"bike_id": "d4e359b3bd550cad8a99ac22f0edfafb", "type": "electric_scooter", "is_disabled": 0, "lat": 38.862376, "rental_uris": {"ios": "https://dc.lft.to/lastmile_qr_scan", "android": "https://dc.lft.to/lastmile_qr_scan"}, "is_reserved": 0, "fusion_lon": 0.0, "fusion_lat": 0.0, "lon": -76.99518583333334, "name": "d4e359b3bd550cad8a99ac22f0edfafb"}, {"bike_id": "51d7aced6ec82239fc0a28d294a58302", "type": "electric_scooter", "is_disabled": 0, "lat": 38.92793866666667, "rental_uris": {"ios": "https://dc.lft.to/lastmile_qr_scan", "android": "https://dc.lft.to/lastmile_qr_scan"}, "is_reserved": 0, "fusion_lon": 0.0, "fusion_lat": 0.0, "lon": -77.04356233333333, "name": "51d7aced6ec82239fc0a28d294a58302"}, {"bike_id": "435dd10ea28206ba6737b309da27a2c3", "type": "electric_scooter", "is_disabled": 0, "lat": 38.89324283333333, "rental_uris": {"ios": "https://dc.lft.to/lastmile_qr_scan", "android": "https://dc.lft.to/lastmile_qr_scan"}, "is_reserved": 0, "fusion_lon": 0.0, "fusion_lat": 0.0, "lon": -77.04880366666667, "name": "435dd10ea28206ba6737b309da27a2c3"}, {"bike_id": "0ebd51b96d053b9286f6d422437f9a5b", "type": "electric_scooter", "is_disabled": 0, "lat": 38.876763, "rental_uris": {"ios": "https://dc.lft.to/lastmile_qr_scan", "android": "https://dc.lft.to/lastmile_qr_scan"}, "is_reserved": 0, "fusion_lon": 0.0, "fusion_lat": 0.0, "lon": -77.01784266666667, "name": "0ebd51b96d053b9286f6d422437f9a5b"}, {"bike_id": "b05d32511e8bd4ed12429e703099b96b", "type": "electric_scooter", "is_disabled": 0, "lat": 38.918135166666666, "rental_uris": {"ios": "https://dc.lft.to/lastmile_qr_scan", "android": "https://dc.lft.to/lastmile_qr_scan"}, "is_reserved": 0, "fusion_lon": 0.0, "fusion_lat": 0.0, "lon": -77.0101675, "name": "b05d32511e8bd4ed12429e703099b96b"}, {"bike_id": "efb2259584360cbbc1b783829bb6403d", "type": "electric_scooter", "is_disabled": 0, "lat": 38.930788666666665, "rental_uris": {"ios": "https://dc.lft.to/lastmile_qr_scan", "android": "https://dc.lft.to/lastmile_qr_scan"}, "is_reserved": 0, "fusion_lon": 0.0, "fusion_lat": 0.0, "lon": -77.02563566666667, "name": "efb2259584360cbbc1b783829bb6403d"}, {"bike_id": "9dd5b484c07aa44c7e9f73c0c76d299c", "type": "electric_scooter", "is_disabled": 0, "lat": 38.907302, "rental_uris": {"ios": "https://dc.lft.to/lastmile_qr_scan", "android": "https://dc.lft.to/lastmile_qr_scan"}, "is_reserved": 0, "fusion_lon": 0.0, "fusion_lat": 0.0, "lon": -77.01307833333334, "name": "9dd5b484c07aa44c7e9f73c0c76d299c"}, {"bike_id": "afa4461ef51ee529d3c60e26f43243de", "type": "electric_scooter", "is_disabled": 0, "lat": 38.866808166666665, "rental_uris": {"ios": "https://dc.lft.to/lastmile_qr_scan", "android": "https://dc.lft.to/lastmile_qr_scan"}, "is_reserved": 0, "fusion_lon": 0.0, "fusion_lat": 0.0, "lon": -76.98579066666667, "name": "afa4461ef51ee529d3c60e26f43243de"}, {"bike_id": "b2a6778bc7c9e586a039fb4eb7b1945f", "type": "electric_scooter", "is_disabled": 0, "lat": 38.89839583333333, "rental_uris": {"ios": "https://dc.lft.to/lastmile_qr_scan", "android": "https://dc.lft.to/lastmile_qr_scan"}, "is_reserved": 0, "fusion_lon": 0.0, "fusion_lat": 0.0, "lon": -77.00740883333333, "name": "b2a6778bc7c9e586a039fb4eb7b1945f"}, {"bike_id": "a2c1b6f91bb570e935e1c855c2f8239d", "type": "electric_scooter", "is_disabled": 0, "lat": 38.8668515, "rental_uris": {"ios": "https://dc.lft.to/lastmile_qr_scan", "android": "https://dc.lft.to/lastmile_qr_scan"}, "is_reserved": 0, "fusion_lon": 0.0, "fusion_lat": 0.0, "lon": -76.98577983333334, "name": "a2c1b6f91bb570e935e1c855c2f8239d"}, {"bike_id": "4a21f2f689b436b47d82182ab2bbd72d", "type": "electric_scooter", "is_disabled": 0, "lat": 38.9074095, "rental_uris": {"ios": "https://dc.lft.to/lastmile_qr_scan", "android": "https://dc.lft.to/lastmile_qr_scan"}, "is_reserved": 0, "fusion_lon": 0.0, "fusion_lat": 0.0, "lon": -77.0345915, "name": "4a21f2f689b436b47d82182ab2bbd72d"}, {"bike_id": "e70def6384e7017e2d48c789be797831", "type": "electric_scooter", "is_disabled": 0, "lat": 38.917797166666666, "rental_uris": {"ios": "https://dc.lft.to/lastmile_qr_scan", "android": "https://dc.lft.to/lastmile_qr_scan"}, "is_reserved": 0, "fusion_lon": 0.0, "fusion_lat": 0.0, "lon": -77.02330733333334, "name": "e70def6384e7017e2d48c789be797831"}, {"bike_id": "522a184f4957db20047938e5693de658", "type": "electric_scooter", "is_disabled": 0, "lat": 38.9259495, "rental_uris": {"ios": "https://dc.lft.to/lastmile_qr_scan", "android": "https://dc.lft.to/lastmile_qr_scan"}, "is_reserved": 0, "fusion_lon": 0.0, "fusion_lat": 0.0, "lon": -77.02172616666667, "name": "522a184f4957db20047938e5693de658"}, {"bike_id": "a9903007c07cd533b2c248962241ca3f", "type": "electric_scooter", "is_disabled": 0, "lat": 38.9184335, "rental_uris": {"ios": "https://dc.lft.to/lastmile_qr_scan", "android": "https://dc.lft.to/lastmile_qr_scan"}, "is_reserved": 0, "fusion_lon": 0.0, "fusion_lat": 0.0, "lon": -77.048372, "name": "a9903007c07cd533b2c248962241ca3f"}, {"bike_id": "d1c2e26c8148859218bdb4d02798d657", "type": "electric_bike", "is_disabled": 0, "lat": 38.924754666666665, "rental_uris": {"ios": "https://dc.lft.to/lastmile_qr_scan", "android": "https://dc.lft.to/lastmile_qr_scan"}, "is_reserved": 0, "fusion_lon": 0.0, "fusion_lat": 0.0, "lon": -77.03386566666667, "name": "d1c2e26c8148859218bdb4d02798d657"}, {"bike_id": "f43904702dd57f91abf1e6412b3ecf78", "type": "electric_scooter", "is_disabled": 0, "lat": 38.907491666666665, "rental_uris": {"ios": "https://dc.lft.to/lastmile_qr_scan", "android": "https://dc.lft.to/lastmile_qr_scan"}, "is_reserved": 0, "fusion_lon": 0.0, "fusion_lat": 0.0, "lon": -77.0317895, "name": "f43904702dd57f91abf1e6412b3ecf78"}, {"bike_id": "9a13ca05a93e21434af041362e6b3b66", "type": "electric_scooter", "is_disabled": 0, "lat": 38.907810166666664, "rental_uris": {"ios": "https://dc.lft.to/lastmile_qr_scan", "android": "https://dc.lft.to/lastmile_qr_scan"}, "is_reserved": 0, "fusion_lon": 0.0, "fusion_lat": 0.0, "lon": -77.032007, "name": "9a13ca05a93e21434af041362e6b3b66"}, {"bike_id": "a2644762435d6dc1f19ae82facf77f38", "type": "electric_bike", "is_disabled": 0, "lat": 38.99591016666667, "rental_uris": {"ios": "https://dc.lft.to/lastmile_qr_scan", "android": "https://dc.lft.to/lastmile_qr_scan"}, "is_reserved": 0, "fusion_lon": 0.0, "fusion_lat": 0.0, "lon": -77.026676, "name": "a2644762435d6dc1f19ae82facf77f38"}, {"bike_id": "f9d9ad4097662f6b070b8645c3853abe", "type": "electric_scooter", "is_disabled": 0, "lat": 38.9177185, "rental_uris": {"ios": "https://dc.lft.to/lastmile_qr_scan", "android": "https://dc.lft.to/lastmile_qr_scan"}, "is_reserved": 0, "fusion_lon": 0.0, "fusion_lat": 0.0, "lon": -77.034534, "name": "f9d9ad4097662f6b070b8645c3853abe"}, {"bike_id": "6d30a680daf5063b6b5dea4d17d43a37", "type": "electric_scooter", "is_disabled": 0, "lat": 38.91737166666667, "rental_uris": {"ios": "https://dc.lft.to/lastmile_qr_scan", "android": "https://dc.lft.to/lastmile_qr_scan"}, "is_reserved": 0, "fusion_lon": 0.0, "fusion_lat": 0.0, "lon": -77.04073583333333, "name": "6d30a680daf5063b6b5dea4d17d43a37"}, {"bike_id": "230ee996dd0c2dd12f7fc13dee6373f5", "type": "electric_scooter", "is_disabled": 0, "lat": 38.9238645, "rental_uris": {"ios": "https://dc.lft.to/lastmile_qr_scan", "android": "https://dc.lft.to/lastmile_qr_scan"}, "is_reserved": 0, "fusion_lon": 0.0, "fusion_lat": 0.0, "lon": -77.0249035, "name": "230ee996dd0c2dd12f7fc13dee6373f5"}, {"bike_id": "1ccad1c59e88ab9bd5133fcec3e64145", "type": "electric_scooter", "is_disabled": 0, "lat": 38.8673285, "rental_uris": {"ios": "https://dc.lft.to/lastmile_qr_scan", "android": "https://dc.lft.to/lastmile_qr_scan"}, "is_reserved": 0, "fusion_lon": 0.0, "fusion_lat": 0.0, "lon": -76.97864566666667, "name": "1ccad1c59e88ab9bd5133fcec3e64145"}, {"bike_id": "6201a187bb2608e48391d4a657e44238", "type": "electric_scooter", "is_disabled": 0, "lat": 38.90736183333333, "rental_uris": {"ios": "https://dc.lft.to/lastmile_qr_scan", "android": "https://dc.lft.to/lastmile_qr_scan"}, "is_reserved": 0, "fusion_lon": 0.0, "fusion_lat": 0.0, "lon": -76.97969616666667, "name": "6201a187bb2608e48391d4a657e44238"}, {"bike_id": "3898e2d03aff71e448be43538808ac75", "type": "electric_scooter", "is_disabled": 0, "lat": 38.831384666666665, "rental_uris": {"ios": "https://dc.lft.to/lastmile_qr_scan", "android": "https://dc.lft.to/lastmile_qr_scan"}, "is_reserved": 0, "fusion_lon": 0.0, "fusion_lat": 0.0, "lon": -77.05123583333334, "name": "3898e2d03aff71e448be43538808ac75"}, {"bike_id": "eb0feac04533c0f459d6afb493e97c29", "type": "electric_scooter", "is_disabled": 0, "lat": 38.9124865, "rental_uris": {"ios": "https://dc.lft.to/lastmile_qr_scan", "android": "https://dc.lft.to/lastmile_qr_scan"}, "is_reserved": 0, "fusion_lon": 0.0, "fusion_lat": 0.0, "lon": -77.0223365, "name": "eb0feac04533c0f459d6afb493e97c29"}, {"bike_id": "dab3de4bfd8cfad9e43423ec59cdcb51", "type": "electric_scooter", "is_disabled": 0, "lat": 38.9095965, "rental_uris": {"ios": "https://dc.lft.to/lastmile_qr_scan", "android": "https://dc.lft.to/lastmile_qr_scan"}, "is_reserved": 0, "fusion_lon": 0.0, "fusion_lat": 0.0, "lon": -77.0268185, "name": "dab3de4bfd8cfad9e43423ec59cdcb51"}, {"bike_id": "26d67011e953aff8f339cd04ab45f453", "type": "electric_scooter", "is_disabled": 0, "lat": 38.92858233333333, "rental_uris": {"ios": "https://dc.lft.to/lastmile_qr_scan", "android": "https://dc.lft.to/lastmile_qr_scan"}, "is_reserved": 0, "fusion_lon": 0.0, "fusion_lat": 0.0, "lon": -77.019483, "name": "26d67011e953aff8f339cd04ab45f453"}, {"bike_id": "dcbf2e11143617da40702d07e69a0497", "type": "electric_scooter", "is_disabled": 0, "lat": 38.9209085, "rental_uris": {"ios": "https://dc.lft.to/lastmile_qr_scan", "android": "https://dc.lft.to/lastmile_qr_scan"}, "is_reserved": 0, "fusion_lon": 0.0, "fusion_lat": 0.0, "lon": -77.02536083333334, "name": "dcbf2e11143617da40702d07e69a0497"}, {"bike_id": "97b3e4315a68a4de1a8bc444e2b01197", "type": "electric_scooter", "is_disabled": 0, "lat": 38.934527333333335, "rental_uris": {"ios": "https://dc.lft.to/lastmile_qr_scan", "android": "https://dc.lft.to/lastmile_qr_scan"}, "is_reserved": 0, "fusion_lon": 0.0, "fusion_lat": 0.0, "lon": -77.07265716666667, "name": "97b3e4315a68a4de1a8bc444e2b01197"}, {"bike_id": "de2ec753b324715ed7db46138744d53f", "type": "electric_scooter", "is_disabled": 0, "lat": 38.90281866666667, "rental_uris": {"ios": "https://dc.lft.to/lastmile_qr_scan", "android": "https://dc.lft.to/lastmile_qr_scan"}, "is_reserved": 0, "fusion_lon": 0.0, "fusion_lat": 0.0, "lon": -77.00355116666667, "name": "de2ec753b324715ed7db46138744d53f"}, {"bike_id": "ba9223d74fd7d71abe3766b19e8c5977", "type": "electric_bike", "is_disabled": 0, "lat": 38.910148, "rental_uris": {"ios": "https://dc.lft.to/lastmile_qr_scan", "android": "https://dc.lft.to/lastmile_qr_scan"}, "is_reserved": 0, "fusion_lon": 0.0, "fusion_lat": 0.0, "lon": -77.02713933333334, "name": "ba9223d74fd7d71abe3766b19e8c5977"}, {"bike_id": "25e8d8159f44a90c0babf9f3cc3ca7d5", "type": "electric_scooter", "is_disabled": 0, "lat": 38.95655216666667, "rental_uris": {"ios": "https://dc.lft.to/lastmile_qr_scan", "android": "https://dc.lft.to/lastmile_qr_scan"}, "is_reserved": 0, "fusion_lon": 0.0, "fusion_lat": 0.0, "lon": -77.010362, "name": "25e8d8159f44a90c0babf9f3cc3ca7d5"}, {"bike_id": "9447ad5fc903d93eb51c392d1252fd09", "type": "electric_scooter", "is_disabled": 0, "lat": 38.90683416666667, "rental_uris": {"ios": "https://dc.lft.to/lastmile_qr_scan", "android": "https://dc.lft.to/lastmile_qr_scan"}, "is_reserved": 0, "fusion_lon": 0.0, "fusion_lat": 0.0, "lon": -77.0532365, "name": "9447ad5fc903d93eb51c392d1252fd09"}, {"bike_id": "e4fe596d34bcc57c845f56c510a95909", "type": "electric_scooter", "is_disabled": 0, "lat": 38.90150366666667, "rental_uris": {"ios": "https://dc.lft.to/lastmile_qr_scan", "android": "https://dc.lft.to/lastmile_qr_scan"}, "is_reserved": 0, "fusion_lon": 0.0, "fusion_lat": 0.0, "lon": -77.01507333333333, "name": "e4fe596d34bcc57c845f56c510a95909"}, {"bike_id": "36afce580fcb1ab73e5a7df6c3d56f8a", "type": "electric_scooter", "is_disabled": 0, "lat": 38.9111755, "rental_uris": {"ios": "https://dc.lft.to/lastmile_qr_scan", "android": "https://dc.lft.to/lastmile_qr_scan"}, "is_reserved": 0, "fusion_lon": 0.0, "fusion_lat": 0.0, "lon": -77.02238516666667, "name": "36afce580fcb1ab73e5a7df6c3d56f8a"}, {"bike_id": "e67ef11ac243aec058ab81310fc76053", "type": "electric_scooter", "is_disabled": 0, "lat": 38.91781983333333, "rental_uris": {"ios": "https://dc.lft.to/lastmile_qr_scan", "android": "https://dc.lft.to/lastmile_qr_scan"}, "is_reserved": 0, "fusion_lon": 0.0, "fusion_lat": 0.0, "lon": -77.02338033333334, "name": "e67ef11ac243aec058ab81310fc76053"}, {"bike_id": "7556de801df1a1fe8285e15389642a29", "type": "electric_bike", "is_disabled": 0, "lat": 38.80904, "rental_uris": {"ios": "https://dc.lft.to/lastmile_qr_scan", "android": "https://dc.lft.to/lastmile_qr_scan"}, "is_reserved": 0, "fusion_lon": 0.0, "fusion_lat": 0.0, "lon": -77.08657466666666, "name": "7556de801df1a1fe8285e15389642a29"}, {"bike_id": "a2b730128f4ec5b4af0b26d8dafbca40", "type": "electric_scooter", "is_disabled": 0, "lat": 38.9234115, "rental_uris": {"ios": "https://dc.lft.to/lastmile_qr_scan", "android": "https://dc.lft.to/lastmile_qr_scan"}, "is_reserved": 0, "fusion_lon": 0.0, "fusion_lat": 0.0, "lon": -77.0198675, "name": "a2b730128f4ec5b4af0b26d8dafbca40"}, {"bike_id": "4a7f369ef95761366d62fb35bd831801", "type": "electric_scooter", "is_disabled": 0, "lat": 38.92152133333333, "rental_uris": {"ios": "https://dc.lft.to/lastmile_qr_scan", "android": "https://dc.lft.to/lastmile_qr_scan"}, "is_reserved": 0, "fusion_lon": 0.0, "fusion_lat": 0.0, "lon": -77.0353405, "name": "4a7f369ef95761366d62fb35bd831801"}, {"bike_id": "9c59f796a9958edf02f64c250be38f8d", "type": "electric_scooter", "is_disabled": 0, "lat": 38.951531833333334, "rental_uris": {"ios": "https://dc.lft.to/lastmile_qr_scan", "android": "https://dc.lft.to/lastmile_qr_scan"}, "is_reserved": 0, "fusion_lon": 0.0, "fusion_lat": 0.0, "lon": -77.01873166666667, "name": "9c59f796a9958edf02f64c250be38f8d"}, {"bike_id": "6ea28b95400a47b83be29c3c42b48fb3", "type": "electric_scooter", "is_disabled": 0, "lat": 38.92370433333333, "rental_uris": {"ios": "https://dc.lft.to/lastmile_qr_scan", "android": "https://dc.lft.to/lastmile_qr_scan"}, "is_reserved": 0, "fusion_lon": 0.0, "fusion_lat": 0.0, "lon": -77.025342, "name": "6ea28b95400a47b83be29c3c42b48fb3"}, {"bike_id": "38a291c88808f5273b19376a4a835cb2", "type": "electric_scooter", "is_disabled": 0, "lat": 38.922882666666666, "rental_uris": {"ios": "https://dc.lft.to/lastmile_qr_scan", "android": "https://dc.lft.to/lastmile_qr_scan"}, "is_reserved": 0, "fusion_lon": 0.0, "fusion_lat": 0.0, "lon": -76.99457733333334, "name": "38a291c88808f5273b19376a4a835cb2"}, {"bike_id": "ed3c89f1de9a260f375a9853cf2c9785", "type": "electric_scooter", "is_disabled": 0, "lat": 38.90409533333333, "rental_uris": {"ios": "https://dc.lft.to/lastmile_qr_scan", "android": "https://dc.lft.to/lastmile_qr_scan"}, "is_reserved": 0, "fusion_lon": 0.0, "fusion_lat": 0.0, "lon": -76.97328, "name": "ed3c89f1de9a260f375a9853cf2c9785"}, {"bike_id": "307913134b0eace110440c5b3ab8b1aa", "type": "electric_bike", "is_disabled": 0, "lat": 38.962062833333334, "rental_uris": {"ios": "https://dc.lft.to/lastmile_qr_scan", "android": "https://dc.lft.to/lastmile_qr_scan"}, "is_reserved": 0, "fusion_lon": 0.0, "fusion_lat": 0.0, "lon": -77.02787433333333, "name": "307913134b0eace110440c5b3ab8b1aa"}, {"bike_id": "a4704cb7d7918e07719ead4b9a1a46cc", "type": "electric_scooter", "is_disabled": 0, "lat": 38.906447666666665, "rental_uris": {"ios": "https://dc.lft.to/lastmile_qr_scan", "android": "https://dc.lft.to/lastmile_qr_scan"}, "is_reserved": 0, "fusion_lon": 0.0, "fusion_lat": 0.0, "lon": -77.02501183333334, "name": "a4704cb7d7918e07719ead4b9a1a46cc"}, {"bike_id": "5bc40a7c381c7fc2da48c2947e9ef402", "type": "electric_scooter", "is_disabled": 0, "lat": 38.89853383333333, "rental_uris": {"ios": "https://dc.lft.to/lastmile_qr_scan", "android": "https://dc.lft.to/lastmile_qr_scan"}, "is_reserved": 0, "fusion_lon": 0.0, "fusion_lat": 0.0, "lon": -77.02880466666667, "name": "5bc40a7c381c7fc2da48c2947e9ef402"}, {"bike_id": "5bbddcfe5e2e5e3080c0d92440139b5a", "type": "electric_scooter", "is_disabled": 0, "lat": 38.914062666666666, "rental_uris": {"ios": "https://dc.lft.to/lastmile_qr_scan", "android": "https://dc.lft.to/lastmile_qr_scan"}, "is_reserved": 0, "fusion_lon": 0.0, "fusion_lat": 0.0, "lon": -77.03225283333333, "name": "5bbddcfe5e2e5e3080c0d92440139b5a"}, {"bike_id": "08c3cd184429dfc81d34b6c9ee1b5406", "type": "electric_scooter", "is_disabled": 0, "lat": 38.917060166666666, "rental_uris": {"ios": "https://dc.lft.to/lastmile_qr_scan", "android": "https://dc.lft.to/lastmile_qr_scan"}, "is_reserved": 0, "fusion_lon": 0.0, "fusion_lat": 0.0, "lon": -77.09581233333333, "name": "08c3cd184429dfc81d34b6c9ee1b5406"}, {"bike_id": "49a53ba9ff77bd60a5e37e705490d47a", "type": "electric_scooter", "is_disabled": 0, "lat": 38.909604333333334, "rental_uris": {"ios": "https://dc.lft.to/lastmile_qr_scan", "android": "https://dc.lft.to/lastmile_qr_scan"}, "is_reserved": 0, "fusion_lon": 0.0, "fusion_lat": 0.0, "lon": -77.02687233333333, "name": "49a53ba9ff77bd60a5e37e705490d47a"}, {"bike_id": "f4f668048e0c7ed73af66ae14fa6c4e0", "type": "electric_scooter", "is_disabled": 0, "lat": 38.9206775, "rental_uris": {"ios": "https://dc.lft.to/lastmile_qr_scan", "android": "https://dc.lft.to/lastmile_qr_scan"}, "is_reserved": 0, "fusion_lon": 0.0, "fusion_lat": 0.0, "lon": -77.02522166666667, "name": "f4f668048e0c7ed73af66ae14fa6c4e0"}, {"bike_id": "20e07979ef1e424c0272464fae544f9e", "type": "electric_bike", "is_disabled": 0, "lat": 38.903996666666664, "rental_uris": {"ios": "https://dc.lft.to/lastmile_qr_scan", "android": "https://dc.lft.to/lastmile_qr_scan"}, "is_reserved": 0, "fusion_lon": 0.0, "fusion_lat": 0.0, "lon": -77.04347883333334, "name": "20e07979ef1e424c0272464fae544f9e"}, {"bike_id": "f3ee505b88a227bffe98ab3143d4dd64", "type": "electric_scooter", "is_disabled": 0, "lat": 38.933264666666666, "rental_uris": {"ios": "https://dc.lft.to/lastmile_qr_scan", "android": "https://dc.lft.to/lastmile_qr_scan"}, "is_reserved": 0, "fusion_lon": 0.0, "fusion_lat": 0.0, "lon": -77.03261683333334, "name": "f3ee505b88a227bffe98ab3143d4dd64"}, {"bike_id": "9fe01dcbdebabc070ce9ce24314dde82", "type": "electric_scooter", "is_disabled": 0, "lat": 38.92319666666667, "rental_uris": {"ios": "https://dc.lft.to/lastmile_qr_scan", "android": "https://dc.lft.to/lastmile_qr_scan"}, "is_reserved": 0, "fusion_lon": 0.0, "fusion_lat": 0.0, "lon": -77.021401, "name": "9fe01dcbdebabc070ce9ce24314dde82"}, {"bike_id": "544b2ab783226f694bd0a0db03305d57", "type": "electric_scooter", "is_disabled": 0, "lat": 38.92174133333333, "rental_uris": {"ios": "https://dc.lft.to/lastmile_qr_scan", "android": "https://dc.lft.to/lastmile_qr_scan"}, "is_reserved": 0, "fusion_lon": 0.0, "fusion_lat": 0.0, "lon": -77.01915966666667, "name": "544b2ab783226f694bd0a0db03305d57"}, {"bike_id": "3cf9acc9ef6e051f62a575167d993582", "type": "electric_scooter", "is_disabled": 0, "lat": 38.8904105, "rental_uris": {"ios": "https://dc.lft.to/lastmile_qr_scan", "android": "https://dc.lft.to/lastmile_qr_scan"}, "is_reserved": 0, "fusion_lon": 0.0, "fusion_lat": 0.0, "lon": -77.01503866666667, "name": "3cf9acc9ef6e051f62a575167d993582"}, {"bike_id": "e1cc0cd886baa049122be6fb35cc9231", "type": "electric_scooter", "is_disabled": 0, "lat": 38.95732816666667, "rental_uris": {"ios": "https://dc.lft.to/lastmile_qr_scan", "android": "https://dc.lft.to/lastmile_qr_scan"}, "is_reserved": 0, "fusion_lon": 0.0, "fusion_lat": 0.0, "lon": -77.0240845, "name": "e1cc0cd886baa049122be6fb35cc9231"}, {"bike_id": "b6ccf613818c5e6d93dd2495d17c23f3", "type": "electric_scooter", "is_disabled": 0, "lat": 38.86478266666667, "rental_uris": {"ios": "https://dc.lft.to/lastmile_qr_scan", "android": "https://dc.lft.to/lastmile_qr_scan"}, "is_reserved": 0, "fusion_lon": 0.0, "fusion_lat": 0.0, "lon": -77.01260833333333, "name": "b6ccf613818c5e6d93dd2495d17c23f3"}, {"bike_id": "cad5dd1d5381822accf54d99ae058f4f", "type": "electric_scooter", "is_disabled": 0, "lat": 38.918164833333336, "rental_uris": {"ios": "https://dc.lft.to/lastmile_qr_scan", "android": "https://dc.lft.to/lastmile_qr_scan"}, "is_reserved": 0, "fusion_lon": 0.0, "fusion_lat": 0.0, "lon": -77.03133566666666, "name": "cad5dd1d5381822accf54d99ae058f4f"}, {"bike_id": "58173d5ffeb638310f9eff24d4145bde", "type": "electric_scooter", "is_disabled": 0, "lat": 38.90508116666667, "rental_uris": {"ios": "https://dc.lft.to/lastmile_qr_scan", "android": "https://dc.lft.to/lastmile_qr_scan"}, "is_reserved": 0, "fusion_lon": 0.0, "fusion_lat": 0.0, "lon": -77.024972, "name": "58173d5ffeb638310f9eff24d4145bde"}, {"bike_id": "f71ae21da8f12d1e654f9b81a39733ad", "type": "electric_scooter", "is_disabled": 0, "lat": 38.866785666666665, "rental_uris": {"ios": "https://dc.lft.to/lastmile_qr_scan", "android": "https://dc.lft.to/lastmile_qr_scan"}, "is_reserved": 0, "fusion_lon": 0.0, "fusion_lat": 0.0, "lon": -76.98555483333334, "name": "f71ae21da8f12d1e654f9b81a39733ad"}, {"bike_id": "dd5524b3be1a0dc3b0e7fc73c70966fb", "type": "electric_scooter", "is_disabled": 0, "lat": 38.88369383333333, "rental_uris": {"ios": "https://dc.lft.to/lastmile_qr_scan", "android": "https://dc.lft.to/lastmile_qr_scan"}, "is_reserved": 0, "fusion_lon": 0.0, "fusion_lat": 0.0, "lon": -77.02639183333334, "name": "dd5524b3be1a0dc3b0e7fc73c70966fb"}, {"bike_id": "71303a9ad63dcef4024e508a5ab989c7", "type": "electric_scooter", "is_disabled": 0, "lat": 38.903552166666664, "rental_uris": {"ios": "https://dc.lft.to/lastmile_qr_scan", "android": "https://dc.lft.to/lastmile_qr_scan"}, "is_reserved": 0, "fusion_lon": 0.0, "fusion_lat": 0.0, "lon": -77.05997833333333, "name": "71303a9ad63dcef4024e508a5ab989c7"}, {"bike_id": "85ce3eff9d889e977c513b75db0d809a", "type": "electric_scooter", "is_disabled": 0, "lat": 38.89840183333333, "rental_uris": {"ios": "https://dc.lft.to/lastmile_qr_scan", "android": "https://dc.lft.to/lastmile_qr_scan"}, "is_reserved": 0, "fusion_lon": 0.0, "fusion_lat": 0.0, "lon": -76.94636533333333, "name": "85ce3eff9d889e977c513b75db0d809a"}, {"bike_id": "bc8f4eb7c118eb3ceaa9ccc2da8e1682", "type": "electric_scooter", "is_disabled": 0, "lat": 38.92028616666666, "rental_uris": {"ios": "https://dc.lft.to/lastmile_qr_scan", "android": "https://dc.lft.to/lastmile_qr_scan"}, "is_reserved": 0, "fusion_lon": 0.0, "fusion_lat": 0.0, "lon": -77.0312965, "name": "bc8f4eb7c118eb3ceaa9ccc2da8e1682"}, {"bike_id": "dac1a767af1d297e6f905525b7b4041b", "type": "electric_scooter", "is_disabled": 0, "lat": 38.8641585, "rental_uris": {"ios": "https://dc.lft.to/lastmile_qr_scan", "android": "https://dc.lft.to/lastmile_qr_scan"}, "is_reserved": 0, "fusion_lon": 0.0, "fusion_lat": 0.0, "lon": -76.98039466666667, "name": "dac1a767af1d297e6f905525b7b4041b"}, {"bike_id": "2804b9148d870eb0dcbd24b91eed11fc", "type": "electric_scooter", "is_disabled": 0, "lat": 38.863706, "rental_uris": {"ios": "https://dc.lft.to/lastmile_qr_scan", "android": "https://dc.lft.to/lastmile_qr_scan"}, "is_reserved": 0, "fusion_lon": 0.0, "fusion_lat": 0.0, "lon": -76.99059933333334, "name": "2804b9148d870eb0dcbd24b91eed11fc"}, {"bike_id": "80f12fab979010615bc4ab74da4f9d6a", "type": "electric_bike", "is_disabled": 0, "lat": 38.85353166666667, "rental_uris": {"ios": "https://dc.lft.to/lastmile_qr_scan", "android": "https://dc.lft.to/lastmile_qr_scan"}, "is_reserved": 0, "fusion_lon": 0.0, "fusion_lat": 0.0, "lon": -77.134675, "name": "80f12fab979010615bc4ab74da4f9d6a"}, {"bike_id": "b4a4d27c0ac353727152c9789b427ad4", "type": "electric_scooter", "is_disabled": 0, "lat": 38.91265533333333, "rental_uris": {"ios": "https://dc.lft.to/lastmile_qr_scan", "android": "https://dc.lft.to/lastmile_qr_scan"}, "is_reserved": 0, "fusion_lon": 0.0, "fusion_lat": 0.0, "lon": -77.01246483333334, "name": "b4a4d27c0ac353727152c9789b427ad4"}, {"bike_id": "38e184a8fd271e0de38f26d078ab2d2f", "type": "electric_scooter", "is_disabled": 0, "lat": 38.90557616666667, "rental_uris": {"ios": "https://dc.lft.to/lastmile_qr_scan", "android": "https://dc.lft.to/lastmile_qr_scan"}, "is_reserved": 0, "fusion_lon": 0.0, "fusion_lat": 0.0, "lon": -77.034512, "name": "38e184a8fd271e0de38f26d078ab2d2f"}, {"bike_id": "95858684744905daef1671d4bb068b32", "type": "electric_scooter", "is_disabled": 0, "lat": 38.942918666666664, "rental_uris": {"ios": "https://dc.lft.to/lastmile_qr_scan", "android": "https://dc.lft.to/lastmile_qr_scan"}, "is_reserved": 0, "fusion_lon": 0.0, "fusion_lat": 0.0, "lon": -77.02170866666667, "name": "95858684744905daef1671d4bb068b32"}, {"bike_id": "0492c2a0719041ce30ef950634c0aafc", "type": "electric_scooter", "is_disabled": 0, "lat": 38.90663766666667, "rental_uris": {"ios": "https://dc.lft.to/lastmile_qr_scan", "android": "https://dc.lft.to/lastmile_qr_scan"}, "is_reserved": 0, "fusion_lon": 0.0, "fusion_lat": 0.0, "lon": -77.02708983333333, "name": "0492c2a0719041ce30ef950634c0aafc"}, {"bike_id": "83a5332f46d2ba73cea6c1102b631538", "type": "electric_scooter", "is_disabled": 0, "lat": 38.9056115, "rental_uris": {"ios": "https://dc.lft.to/lastmile_qr_scan", "android": "https://dc.lft.to/lastmile_qr_scan"}, "is_reserved": 0, "fusion_lon": 0.0, "fusion_lat": 0.0, "lon": -77.04657083333333, "name": "83a5332f46d2ba73cea6c1102b631538"}, {"bike_id": "5843aab8fba2a58cd9181c0073d6e79e", "type": "electric_scooter", "is_disabled": 0, "lat": 38.909795833333334, "rental_uris": {"ios": "https://dc.lft.to/lastmile_qr_scan", "android": "https://dc.lft.to/lastmile_qr_scan"}, "is_reserved": 0, "fusion_lon": 0.0, "fusion_lat": 0.0, "lon": -77.03192883333334, "name": "5843aab8fba2a58cd9181c0073d6e79e"}, {"bike_id": "deb1a8c14f77e7a915ad5e67755894ea", "type": "electric_scooter", "is_disabled": 0, "lat": 38.89149883333333, "rental_uris": {"ios": "https://dc.lft.to/lastmile_qr_scan", "android": "https://dc.lft.to/lastmile_qr_scan"}, "is_reserved": 0, "fusion_lon": 0.0, "fusion_lat": 0.0, "lon": -76.994656, "name": "deb1a8c14f77e7a915ad5e67755894ea"}, {"bike_id": "000e484dcc7b6de4f65719ce4a9eccdd", "type": "electric_scooter", "is_disabled": 0, "lat": 38.923793833333335, "rental_uris": {"ios": "https://dc.lft.to/lastmile_qr_scan", "android": "https://dc.lft.to/lastmile_qr_scan"}, "is_reserved": 0, "fusion_lon": 0.0, "fusion_lat": 0.0, "lon": -77.036648, "name": "000e484dcc7b6de4f65719ce4a9eccdd"}, {"bike_id": "d26243b4439b1410711316dc9a6db1bb", "type": "electric_scooter", "is_disabled": 0, "lat": 38.928496333333335, "rental_uris": {"ios": "https://dc.lft.to/lastmile_qr_scan", "android": "https://dc.lft.to/lastmile_qr_scan"}, "is_reserved": 0, "fusion_lon": 0.0, "fusion_lat": 0.0, "lon": -77.03285716666667, "name": "d26243b4439b1410711316dc9a6db1bb"}, {"bike_id": "b4966a5c132af812100a94769e70ca2a", "type": "electric_scooter", "is_disabled": 0, "lat": 38.92285616666667, "rental_uris": {"ios": "https://dc.lft.to/lastmile_qr_scan", "android": "https://dc.lft.to/lastmile_qr_scan"}, "is_reserved": 0, "fusion_lon": 0.0, "fusion_lat": 0.0, "lon": -76.9945545, "name": "b4966a5c132af812100a94769e70ca2a"}, {"bike_id": "98fa44455b2c42070194d8935c2a1337", "type": "electric_scooter", "is_disabled": 0, "lat": 38.91882416666667, "rental_uris": {"ios": "https://dc.lft.to/lastmile_qr_scan", "android": "https://dc.lft.to/lastmile_qr_scan"}, "is_reserved": 0, "fusion_lon": 0.0, "fusion_lat": 0.0, "lon": -76.9656235, "name": "98fa44455b2c42070194d8935c2a1337"}, {"bike_id": "9bf811c2fa3fc521463aac5e0fca6404", "type": "electric_scooter", "is_disabled": 0, "lat": 38.92153733333333, "rental_uris": {"ios": "https://dc.lft.to/lastmile_qr_scan", "android": "https://dc.lft.to/lastmile_qr_scan"}, "is_reserved": 0, "fusion_lon": 0.0, "fusion_lat": 0.0, "lon": -77.03530333333333, "name": "9bf811c2fa3fc521463aac5e0fca6404"}, {"bike_id": "7051e4c8725ae64287e59eaa92480d5f", "type": "electric_scooter", "is_disabled": 0, "lat": 38.9274935, "rental_uris": {"ios": "https://dc.lft.to/lastmile_qr_scan", "android": "https://dc.lft.to/lastmile_qr_scan"}, "is_reserved": 0, "fusion_lon": 0.0, "fusion_lat": 0.0, "lon": -77.02536216666667, "name": "7051e4c8725ae64287e59eaa92480d5f"}, {"bike_id": "e1d4324b7b868abec5c97eadcf411fec", "type": "electric_scooter", "is_disabled": 0, "lat": 38.905697333333336, "rental_uris": {"ios": "https://dc.lft.to/lastmile_qr_scan", "android": "https://dc.lft.to/lastmile_qr_scan"}, "is_reserved": 0, "fusion_lon": 0.0, "fusion_lat": 0.0, "lon": -77.0434615, "name": "e1d4324b7b868abec5c97eadcf411fec"}, {"bike_id": "d3646bdc281f2ef5be9d3cabf6c1a0b2", "type": "electric_scooter", "is_disabled": 0, "lat": 38.94185516666667, "rental_uris": {"ios": "https://dc.lft.to/lastmile_qr_scan", "android": "https://dc.lft.to/lastmile_qr_scan"}, "is_reserved": 0, "fusion_lon": 0.0, "fusion_lat": 0.0, "lon": -77.0248965, "name": "d3646bdc281f2ef5be9d3cabf6c1a0b2"}, {"bike_id": "80f7d1f03cfcbe78ac049df697562934", "type": "electric_bike", "is_disabled": 0, "lat": 38.95707783333334, "rental_uris": {"ios": "https://dc.lft.to/lastmile_qr_scan", "android": "https://dc.lft.to/lastmile_qr_scan"}, "is_reserved": 0, "fusion_lon": 0.0, "fusion_lat": 0.0, "lon": -77.02406866666666, "name": "80f7d1f03cfcbe78ac049df697562934"}, {"bike_id": "159cfc5098ff014f2900d4c368ca279e", "type": "electric_scooter", "is_disabled": 0, "lat": 38.93459416666666, "rental_uris": {"ios": "https://dc.lft.to/lastmile_qr_scan", "android": "https://dc.lft.to/lastmile_qr_scan"}, "is_reserved": 0, "fusion_lon": 0.0, "fusion_lat": 0.0, "lon": -76.96437416666667, "name": "159cfc5098ff014f2900d4c368ca279e"}, {"bike_id": "7aad58a02257123eb5aa76ec39cff2bf", "type": "electric_scooter", "is_disabled": 0, "lat": 38.909460333333335, "rental_uris": {"ios": "https://dc.lft.to/lastmile_qr_scan", "android": "https://dc.lft.to/lastmile_qr_scan"}, "is_reserved": 0, "fusion_lon": 0.0, "fusion_lat": 0.0, "lon": -77.03443466666667, "name": "7aad58a02257123eb5aa76ec39cff2bf"}, {"bike_id": "57ad25b46a1cd8242b40ed03d95ce9b0", "type": "electric_scooter", "is_disabled": 0, "lat": 38.91420883333333, "rental_uris": {"ios": "https://dc.lft.to/lastmile_qr_scan", "android": "https://dc.lft.to/lastmile_qr_scan"}, "is_reserved": 0, "fusion_lon": 0.0, "fusion_lat": 0.0, "lon": -77.0271545, "name": "57ad25b46a1cd8242b40ed03d95ce9b0"}, {"bike_id": "57d7b590c78e2cfc481d8b6109789107", "type": "electric_scooter", "is_disabled": 0, "lat": 38.91679166666667, "rental_uris": {"ios": "https://dc.lft.to/lastmile_qr_scan", "android": "https://dc.lft.to/lastmile_qr_scan"}, "is_reserved": 0, "fusion_lon": 0.0, "fusion_lat": 0.0, "lon": -77.02973583333333, "name": "57d7b590c78e2cfc481d8b6109789107"}, {"bike_id": "c0785fb8ee56cc7d3f63bf942fbd03f5", "type": "electric_scooter", "is_disabled": 0, "lat": 38.93973483333333, "rental_uris": {"ios": "https://dc.lft.to/lastmile_qr_scan", "android": "https://dc.lft.to/lastmile_qr_scan"}, "is_reserved": 0, "fusion_lon": 0.0, "fusion_lat": 0.0, "lon": -77.03141816666667, "name": "c0785fb8ee56cc7d3f63bf942fbd03f5"}, {"bike_id": "bdae78b18e6c37e38f71c0b7a5ef34ef", "type": "electric_scooter", "is_disabled": 0, "lat": 38.866937666666665, "rental_uris": {"ios": "https://dc.lft.to/lastmile_qr_scan", "android": "https://dc.lft.to/lastmile_qr_scan"}, "is_reserved": 0, "fusion_lon": 0.0, "fusion_lat": 0.0, "lon": -76.98711283333333, "name": "bdae78b18e6c37e38f71c0b7a5ef34ef"}, {"bike_id": "743f050070d4d1c6c8a41c144aba0090", "type": "electric_scooter", "is_disabled": 0, "lat": 38.90403216666667, "rental_uris": {"ios": "https://dc.lft.to/lastmile_qr_scan", "android": "https://dc.lft.to/lastmile_qr_scan"}, "is_reserved": 0, "fusion_lon": 0.0, "fusion_lat": 0.0, "lon": -77.01789516666666, "name": "743f050070d4d1c6c8a41c144aba0090"}, {"bike_id": "b13d9cc9f56ad93752bbde20cf3a0d2d", "type": "electric_scooter", "is_disabled": 0, "lat": 38.9290975, "rental_uris": {"ios": "https://dc.lft.to/lastmile_qr_scan", "android": "https://dc.lft.to/lastmile_qr_scan"}, "is_reserved": 0, "fusion_lon": 0.0, "fusion_lat": 0.0, "lon": -77.03610816666666, "name": "b13d9cc9f56ad93752bbde20cf3a0d2d"}, {"bike_id": "9408b6e6149257f579f77da9714123b7", "type": "electric_scooter", "is_disabled": 0, "lat": 38.90177416666667, "rental_uris": {"ios": "https://dc.lft.to/lastmile_qr_scan", "android": "https://dc.lft.to/lastmile_qr_scan"}, "is_reserved": 0, "fusion_lon": 0.0, "fusion_lat": 0.0, "lon": -77.05079166666667, "name": "9408b6e6149257f579f77da9714123b7"}, {"bike_id": "6b754521083d12355c93cdfee8b5c9df", "type": "electric_bike", "is_disabled": 0, "lat": 39.0243515, "rental_uris": {"ios": "https://dc.lft.to/lastmile_qr_scan", "android": "https://dc.lft.to/lastmile_qr_scan"}, "is_reserved": 0, "fusion_lon": 0.0, "fusion_lat": 0.0, "lon": -77.13100483333334, "name": "6b754521083d12355c93cdfee8b5c9df"}, {"bike_id": "f22141a63cde68c9170028bb7908c6ed", "type": "electric_scooter", "is_disabled": 0, "lat": 38.91698933333333, "rental_uris": {"ios": "https://dc.lft.to/lastmile_qr_scan", "android": "https://dc.lft.to/lastmile_qr_scan"}, "is_reserved": 0, "fusion_lon": 0.0, "fusion_lat": 0.0, "lon": -77.02891983333333, "name": "f22141a63cde68c9170028bb7908c6ed"}, {"bike_id": "f1fd41944b89260bf6966d618f330142", "type": "electric_scooter", "is_disabled": 0, "lat": 38.90810283333333, "rental_uris": {"ios": "https://dc.lft.to/lastmile_qr_scan", "android": "https://dc.lft.to/lastmile_qr_scan"}, "is_reserved": 0, "fusion_lon": 0.0, "fusion_lat": 0.0, "lon": -77.04315366666667, "name": "f1fd41944b89260bf6966d618f330142"}, {"bike_id": "fdb0a2d5af0ea36c9be0902bc11aa020", "type": "electric_scooter", "is_disabled": 0, "lat": 38.909487166666665, "rental_uris": {"ios": "https://dc.lft.to/lastmile_qr_scan", "android": "https://dc.lft.to/lastmile_qr_scan"}, "is_reserved": 0, "fusion_lon": 0.0, "fusion_lat": 0.0, "lon": -77.04494616666666, "name": "fdb0a2d5af0ea36c9be0902bc11aa020"}, {"bike_id": "a769e3df830ff3467ea0d7f663ca2282", "type": "electric_scooter", "is_disabled": 0, "lat": 38.90813966666666, "rental_uris": {"ios": "https://dc.lft.to/lastmile_qr_scan", "android": "https://dc.lft.to/lastmile_qr_scan"}, "is_reserved": 0, "fusion_lon": 0.0, "fusion_lat": 0.0, "lon": -77.03461816666666, "name": "a769e3df830ff3467ea0d7f663ca2282"}, {"bike_id": "cddf45e4bbe2a223c2b73a5fceecf530", "type": "electric_scooter", "is_disabled": 0, "lat": 38.903408166666665, "rental_uris": {"ios": "https://dc.lft.to/lastmile_qr_scan", "android": "https://dc.lft.to/lastmile_qr_scan"}, "is_reserved": 0, "fusion_lon": 0.0, "fusion_lat": 0.0, "lon": -77.05296833333334, "name": "cddf45e4bbe2a223c2b73a5fceecf530"}, {"bike_id": "ec3d6890c93e9af639a508e11f7d3386", "type": "electric_scooter", "is_disabled": 0, "lat": 38.905256, "rental_uris": {"ios": "https://dc.lft.to/lastmile_qr_scan", "android": "https://dc.lft.to/lastmile_qr_scan"}, "is_reserved": 0, "fusion_lon": 0.0, "fusion_lat": 0.0, "lon": -77.05936333333334, "name": "ec3d6890c93e9af639a508e11f7d3386"}, {"bike_id": "4aad30e6e87cd8a089c00d3da38f7a88", "type": "electric_scooter", "is_disabled": 0, "lat": 38.89816183333333, "rental_uris": {"ios": "https://dc.lft.to/lastmile_qr_scan", "android": "https://dc.lft.to/lastmile_qr_scan"}, "is_reserved": 0, "fusion_lon": 0.0, "fusion_lat": 0.0, "lon": -77.02529966666667, "name": "4aad30e6e87cd8a089c00d3da38f7a88"}, {"bike_id": "babcf0ff91bfe9d32a3888798ada7d30", "type": "electric_scooter", "is_disabled": 0, "lat": 38.8842605, "rental_uris": {"ios": "https://dc.lft.to/lastmile_qr_scan", "android": "https://dc.lft.to/lastmile_qr_scan"}, "is_reserved": 0, "fusion_lon": 0.0, "fusion_lat": 0.0, "lon": -76.95754766666667, "name": "babcf0ff91bfe9d32a3888798ada7d30"}, {"bike_id": "866dd2ab2d4f98707443812c45d159ba", "type": "electric_scooter", "is_disabled": 0, "lat": 38.896956833333334, "rental_uris": {"ios": "https://dc.lft.to/lastmile_qr_scan", "android": "https://dc.lft.to/lastmile_qr_scan"}, "is_reserved": 0, "fusion_lon": 0.0, "fusion_lat": 0.0, "lon": -76.92998116666666, "name": "866dd2ab2d4f98707443812c45d159ba"}, {"bike_id": "0e2ef9413fca512c2009e4b9c9746af7", "type": "electric_scooter", "is_disabled": 0, "lat": 38.90163733333333, "rental_uris": {"ios": "https://dc.lft.to/lastmile_qr_scan", "android": "https://dc.lft.to/lastmile_qr_scan"}, "is_reserved": 0, "fusion_lon": 0.0, "fusion_lat": 0.0, "lon": -77.02451783333333, "name": "0e2ef9413fca512c2009e4b9c9746af7"}, {"bike_id": "ca48050974b071e07bf88d75ea92672c", "type": "electric_scooter", "is_disabled": 0, "lat": 38.902383666666665, "rental_uris": {"ios": "https://dc.lft.to/lastmile_qr_scan", "android": "https://dc.lft.to/lastmile_qr_scan"}, "is_reserved": 0, "fusion_lon": 0.0, "fusion_lat": 0.0, "lon": -76.99624266666666, "name": "ca48050974b071e07bf88d75ea92672c"}, {"bike_id": "c76e7271210339f52d75f3b1cf81b68b", "type": "electric_scooter", "is_disabled": 0, "lat": 38.916071333333335, "rental_uris": {"ios": "https://dc.lft.to/lastmile_qr_scan", "android": "https://dc.lft.to/lastmile_qr_scan"}, "is_reserved": 0, "fusion_lon": 0.0, "fusion_lat": 0.0, "lon": -77.023039, "name": "c76e7271210339f52d75f3b1cf81b68b"}, {"bike_id": "642d95c07cfbec6507d4b2f19abc9933", "type": "electric_scooter", "is_disabled": 0, "lat": 38.9247735, "rental_uris": {"ios": "https://dc.lft.to/lastmile_qr_scan", "android": "https://dc.lft.to/lastmile_qr_scan"}, "is_reserved": 0, "fusion_lon": 0.0, "fusion_lat": 0.0, "lon": -77.02832566666666, "name": "642d95c07cfbec6507d4b2f19abc9933"}, {"bike_id": "37053c8eaa554b777e18c2a2669a8329", "type": "electric_scooter", "is_disabled": 0, "lat": 38.90732633333333, "rental_uris": {"ios": "https://dc.lft.to/lastmile_qr_scan", "android": "https://dc.lft.to/lastmile_qr_scan"}, "is_reserved": 0, "fusion_lon": 0.0, "fusion_lat": 0.0, "lon": -77.01317316666666, "name": "37053c8eaa554b777e18c2a2669a8329"}, {"bike_id": "da8a37773895a7bdb4af7fed71753219", "type": "electric_scooter", "is_disabled": 0, "lat": 38.9014645, "rental_uris": {"ios": "https://dc.lft.to/lastmile_qr_scan", "android": "https://dc.lft.to/lastmile_qr_scan"}, "is_reserved": 0, "fusion_lon": 0.0, "fusion_lat": 0.0, "lon": -76.99020483333334, "name": "da8a37773895a7bdb4af7fed71753219"}, {"bike_id": "29237f5de1a5d710c7a24287f199b4cd", "type": "electric_scooter", "is_disabled": 0, "lat": 38.91805516666667, "rental_uris": {"ios": "https://dc.lft.to/lastmile_qr_scan", "android": "https://dc.lft.to/lastmile_qr_scan"}, "is_reserved": 0, "fusion_lon": 0.0, "fusion_lat": 0.0, "lon": -77.00759133333334, "name": "29237f5de1a5d710c7a24287f199b4cd"}, {"bike_id": "169a16f50883fe20b4b1a480ac256c1e", "type": "electric_scooter", "is_disabled": 0, "lat": 38.9034185, "rental_uris": {"ios": "https://dc.lft.to/lastmile_qr_scan", "android": "https://dc.lft.to/lastmile_qr_scan"}, "is_reserved": 0, "fusion_lon": 0.0, "fusion_lat": 0.0, "lon": -77.03658233333333, "name": "169a16f50883fe20b4b1a480ac256c1e"}, {"bike_id": "7ca0b73a57c1b0693f0c65b715577f22", "type": "electric_scooter", "is_disabled": 0, "lat": 38.907517, "rental_uris": {"ios": "https://dc.lft.to/lastmile_qr_scan", "android": "https://dc.lft.to/lastmile_qr_scan"}, "is_reserved": 0, "fusion_lon": 0.0, "fusion_lat": 0.0, "lon": -77.03203366666666, "name": "7ca0b73a57c1b0693f0c65b715577f22"}, {"bike_id": "f4e99e125530e8e3dd3c337d5f9a96be", "type": "electric_bike", "is_disabled": 0, "lat": 38.83236183333333, "rental_uris": {"ios": "https://dc.lft.to/lastmile_qr_scan", "android": "https://dc.lft.to/lastmile_qr_scan"}, "is_reserved": 0, "fusion_lon": 0.0, "fusion_lat": 0.0, "lon": -76.9462025, "name": "f4e99e125530e8e3dd3c337d5f9a96be"}, {"bike_id": "ab80ac3adf7233404d20ec81bdff493e", "type": "electric_scooter", "is_disabled": 0, "lat": 38.91546366666667, "rental_uris": {"ios": "https://dc.lft.to/lastmile_qr_scan", "android": "https://dc.lft.to/lastmile_qr_scan"}, "is_reserved": 0, "fusion_lon": 0.0, "fusion_lat": 0.0, "lon": -77.032058, "name": "ab80ac3adf7233404d20ec81bdff493e"}, {"bike_id": "338336c560cc3f4bbe2a9e4011bcbeeb", "type": "electric_scooter", "is_disabled": 0, "lat": 38.91099166666667, "rental_uris": {"ios": "https://dc.lft.to/lastmile_qr_scan", "android": "https://dc.lft.to/lastmile_qr_scan"}, "is_reserved": 0, "fusion_lon": 0.0, "fusion_lat": 0.0, "lon": -77.02803016666667, "name": "338336c560cc3f4bbe2a9e4011bcbeeb"}, {"bike_id": "2ea2ab657c77c6249b90bc9497eaa6e3", "type": "electric_scooter", "is_disabled": 0, "lat": 38.92657, "rental_uris": {"ios": "https://dc.lft.to/lastmile_qr_scan", "android": "https://dc.lft.to/lastmile_qr_scan"}, "is_reserved": 0, "fusion_lon": 0.0, "fusion_lat": 0.0, "lon": -77.0372845, "name": "2ea2ab657c77c6249b90bc9497eaa6e3"}, {"bike_id": "912b99eacf2f4ad90fd7c267b3bc7bc3", "type": "electric_scooter", "is_disabled": 0, "lat": 38.906653666666664, "rental_uris": {"ios": "https://dc.lft.to/lastmile_qr_scan", "android": "https://dc.lft.to/lastmile_qr_scan"}, "is_reserved": 0, "fusion_lon": 0.0, "fusion_lat": 0.0, "lon": -77.02714733333333, "name": "912b99eacf2f4ad90fd7c267b3bc7bc3"}, {"bike_id": "7fb80709ba5c0775f4cba67d6bb47919", "type": "electric_scooter", "is_disabled": 0, "lat": 38.91681, "rental_uris": {"ios": "https://dc.lft.to/lastmile_qr_scan", "android": "https://dc.lft.to/lastmile_qr_scan"}, "is_reserved": 0, "fusion_lon": 0.0, "fusion_lat": 0.0, "lon": -77.03192683333333, "name": "7fb80709ba5c0775f4cba67d6bb47919"}, {"bike_id": "852cd00b9ab913b92e7d42ac7d0b3fb9", "type": "electric_scooter", "is_disabled": 0, "lat": 38.9234265, "rental_uris": {"ios": "https://dc.lft.to/lastmile_qr_scan", "android": "https://dc.lft.to/lastmile_qr_scan"}, "is_reserved": 0, "fusion_lon": 0.0, "fusion_lat": 0.0, "lon": -77.0350335, "name": "852cd00b9ab913b92e7d42ac7d0b3fb9"}, {"bike_id": "cbfeed045a827ba05c125e00c7c17fe5", "type": "electric_scooter", "is_disabled": 0, "lat": 38.9288055, "rental_uris": {"ios": "https://dc.lft.to/lastmile_qr_scan", "android": "https://dc.lft.to/lastmile_qr_scan"}, "is_reserved": 0, "fusion_lon": 0.0, "fusion_lat": 0.0, "lon": -77.02570833333333, "name": "cbfeed045a827ba05c125e00c7c17fe5"}, {"bike_id": "fc6e9cb546d24c75b9407b29e8bc7960", "type": "electric_scooter", "is_disabled": 0, "lat": 38.92361183333333, "rental_uris": {"ios": "https://dc.lft.to/lastmile_qr_scan", "android": "https://dc.lft.to/lastmile_qr_scan"}, "is_reserved": 0, "fusion_lon": 0.0, "fusion_lat": 0.0, "lon": -77.05128033333334, "name": "fc6e9cb546d24c75b9407b29e8bc7960"}, {"bike_id": "c8acf2f08918bb340a3bdd447bd338f3", "type": "electric_scooter", "is_disabled": 0, "lat": 38.90020833333333, "rental_uris": {"ios": "https://dc.lft.to/lastmile_qr_scan", "android": "https://dc.lft.to/lastmile_qr_scan"}, "is_reserved": 0, "fusion_lon": 0.0, "fusion_lat": 0.0, "lon": -77.0467435, "name": "c8acf2f08918bb340a3bdd447bd338f3"}, {"bike_id": "b1c0343e6fa6f52ec28d740713831e92", "type": "electric_bike", "is_disabled": 0, "lat": 39.050562666666664, "rental_uris": {"ios": "https://dc.lft.to/lastmile_qr_scan", "android": "https://dc.lft.to/lastmile_qr_scan"}, "is_reserved": 0, "fusion_lon": 0.0, "fusion_lat": 0.0, "lon": -77.05146066666667, "name": "b1c0343e6fa6f52ec28d740713831e92"}, {"bike_id": "8ac2522a481e2587b46501e7fc270fb9", "type": "electric_scooter", "is_disabled": 0, "lat": 38.8937605, "rental_uris": {"ios": "https://dc.lft.to/lastmile_qr_scan", "android": "https://dc.lft.to/lastmile_qr_scan"}, "is_reserved": 0, "fusion_lon": 0.0, "fusion_lat": 0.0, "lon": -77.02846716666667, "name": "8ac2522a481e2587b46501e7fc270fb9"}, {"bike_id": "97982e9f99101a03c35146b318e1a1cf", "type": "electric_scooter", "is_disabled": 0, "lat": 38.900189833333336, "rental_uris": {"ios": "https://dc.lft.to/lastmile_qr_scan", "android": "https://dc.lft.to/lastmile_qr_scan"}, "is_reserved": 0, "fusion_lon": 0.0, "fusion_lat": 0.0, "lon": -77.044855, "name": "97982e9f99101a03c35146b318e1a1cf"}, {"bike_id": "dd0b37924f2e1d98c22ce63e4d30c8a5", "type": "electric_scooter", "is_disabled": 0, "lat": 38.91410883333333, "rental_uris": {"ios": "https://dc.lft.to/lastmile_qr_scan", "android": "https://dc.lft.to/lastmile_qr_scan"}, "is_reserved": 0, "fusion_lon": 0.0, "fusion_lat": 0.0, "lon": -77.029846, "name": "dd0b37924f2e1d98c22ce63e4d30c8a5"}, {"bike_id": "c41812c8d28291b1ce66589ba8e8c855", "type": "electric_scooter", "is_disabled": 0, "lat": 38.9324265, "rental_uris": {"ios": "https://dc.lft.to/lastmile_qr_scan", "android": "https://dc.lft.to/lastmile_qr_scan"}, "is_reserved": 0, "fusion_lon": 0.0, "fusion_lat": 0.0, "lon": -77.0385275, "name": "c41812c8d28291b1ce66589ba8e8c855"}, {"bike_id": "6c48977ca88b4ba426d1cc00cebc6512", "type": "electric_scooter", "is_disabled": 0, "lat": 38.880092833333336, "rental_uris": {"ios": "https://dc.lft.to/lastmile_qr_scan", "android": "https://dc.lft.to/lastmile_qr_scan"}, "is_reserved": 0, "fusion_lon": 0.0, "fusion_lat": 0.0, "lon": -77.02486583333334, "name": "6c48977ca88b4ba426d1cc00cebc6512"}, {"bike_id": "9348a84a345b698e346fdd0a86594b31", "type": "electric_scooter", "is_disabled": 0, "lat": 38.898005166666664, "rental_uris": {"ios": "https://dc.lft.to/lastmile_qr_scan", "android": "https://dc.lft.to/lastmile_qr_scan"}, "is_reserved": 0, "fusion_lon": 0.0, "fusion_lat": 0.0, "lon": -77.01199433333333, "name": "9348a84a345b698e346fdd0a86594b31"}, {"bike_id": "48a44f52da39a8abc216fa05106589d1", "type": "electric_scooter", "is_disabled": 0, "lat": 38.9011815, "rental_uris": {"ios": "https://dc.lft.to/lastmile_qr_scan", "android": "https://dc.lft.to/lastmile_qr_scan"}, "is_reserved": 0, "fusion_lon": 0.0, "fusion_lat": 0.0, "lon": -77.039546, "name": "48a44f52da39a8abc216fa05106589d1"}, {"bike_id": "9f1596575cfb6e2069fdc1d617ed4ad8", "type": "electric_bike", "is_disabled": 0, "lat": 38.97882166666667, "rental_uris": {"ios": "https://dc.lft.to/lastmile_qr_scan", "android": "https://dc.lft.to/lastmile_qr_scan"}, "is_reserved": 0, "fusion_lon": 0.0, "fusion_lat": 0.0, "lon": -77.0603115, "name": "9f1596575cfb6e2069fdc1d617ed4ad8"}, {"bike_id": "11b9da3b95f16102cca7b62dfd56681d", "type": "electric_scooter", "is_disabled": 0, "lat": 38.9449145, "rental_uris": {"ios": "https://dc.lft.to/lastmile_qr_scan", "android": "https://dc.lft.to/lastmile_qr_scan"}, "is_reserved": 0, "fusion_lon": 0.0, "fusion_lat": 0.0, "lon": -77.026252, "name": "11b9da3b95f16102cca7b62dfd56681d"}, {"bike_id": "154d2efd30df252ce87a21324a9f12a3", "type": "electric_scooter", "is_disabled": 0, "lat": 38.9159645, "rental_uris": {"ios": "https://dc.lft.to/lastmile_qr_scan", "android": "https://dc.lft.to/lastmile_qr_scan"}, "is_reserved": 0, "fusion_lon": 0.0, "fusion_lat": 0.0, "lon": -77.04506283333333, "name": "154d2efd30df252ce87a21324a9f12a3"}, {"bike_id": "e46f88e0238807ed7e8db5ce32761742", "type": "electric_scooter", "is_disabled": 0, "lat": 38.916289, "rental_uris": {"ios": "https://dc.lft.to/lastmile_qr_scan", "android": "https://dc.lft.to/lastmile_qr_scan"}, "is_reserved": 0, "fusion_lon": 0.0, "fusion_lat": 0.0, "lon": -77.03728616666666, "name": "e46f88e0238807ed7e8db5ce32761742"}, {"bike_id": "a42064d2e0491f746f41f3fc220a2b2f", "type": "electric_scooter", "is_disabled": 0, "lat": 38.915587, "rental_uris": {"ios": "https://dc.lft.to/lastmile_qr_scan", "android": "https://dc.lft.to/lastmile_qr_scan"}, "is_reserved": 0, "fusion_lon": 0.0, "fusion_lat": 0.0, "lon": -77.03871366666667, "name": "a42064d2e0491f746f41f3fc220a2b2f"}, {"bike_id": "9294620f911cec795e83935deaf2826d", "type": "electric_scooter", "is_disabled": 0, "lat": 38.914696, "rental_uris": {"ios": "https://dc.lft.to/lastmile_qr_scan", "android": "https://dc.lft.to/lastmile_qr_scan"}, "is_reserved": 0, "fusion_lon": 0.0, "fusion_lat": 0.0, "lon": -77.00923783333333, "name": "9294620f911cec795e83935deaf2826d"}, {"bike_id": "4e943a1d1fbe928830c761e152574542", "type": "electric_scooter", "is_disabled": 0, "lat": 38.9050175, "rental_uris": {"ios": "https://dc.lft.to/lastmile_qr_scan", "android": "https://dc.lft.to/lastmile_qr_scan"}, "is_reserved": 0, "fusion_lon": 0.0, "fusion_lat": 0.0, "lon": -77.06125566666667, "name": "4e943a1d1fbe928830c761e152574542"}, {"bike_id": "fcc961b98a3b8508b2f21ab304f26c6e", "type": "electric_scooter", "is_disabled": 0, "lat": 38.924819166666666, "rental_uris": {"ios": "https://dc.lft.to/lastmile_qr_scan", "android": "https://dc.lft.to/lastmile_qr_scan"}, "is_reserved": 0, "fusion_lon": 0.0, "fusion_lat": 0.0, "lon": -77.02194266666666, "name": "fcc961b98a3b8508b2f21ab304f26c6e"}, {"bike_id": "4ef4bee4cee0e50b83917efec97a4714", "type": "electric_scooter", "is_disabled": 0, "lat": 38.9025875, "rental_uris": {"ios": "https://dc.lft.to/lastmile_qr_scan", "android": "https://dc.lft.to/lastmile_qr_scan"}, "is_reserved": 0, "fusion_lon": 0.0, "fusion_lat": 0.0, "lon": -77.0032745, "name": "4ef4bee4cee0e50b83917efec97a4714"}, {"bike_id": "47c9806fe8322c800f15a792b54ca0ac", "type": "electric_scooter", "is_disabled": 0, "lat": 38.93529133333333, "rental_uris": {"ios": "https://dc.lft.to/lastmile_qr_scan", "android": "https://dc.lft.to/lastmile_qr_scan"}, "is_reserved": 0, "fusion_lon": 0.0, "fusion_lat": 0.0, "lon": -77.02355766666666, "name": "47c9806fe8322c800f15a792b54ca0ac"}, {"bike_id": "2ded31a9893fbd9408d3a086f764872a", "type": "electric_bike", "is_disabled": 0, "lat": 38.93874133333333, "rental_uris": {"ios": "https://dc.lft.to/lastmile_qr_scan", "android": "https://dc.lft.to/lastmile_qr_scan"}, "is_reserved": 0, "fusion_lon": 0.0, "fusion_lat": 0.0, "lon": -77.02906116666666, "name": "2ded31a9893fbd9408d3a086f764872a"}, {"bike_id": "8e84874e2ec4ccc98d6f7eb5bbc09b31", "type": "electric_scooter", "is_disabled": 0, "lat": 38.9278145, "rental_uris": {"ios": "https://dc.lft.to/lastmile_qr_scan", "android": "https://dc.lft.to/lastmile_qr_scan"}, "is_reserved": 0, "fusion_lon": 0.0, "fusion_lat": 0.0, "lon": -77.04321533333334, "name": "8e84874e2ec4ccc98d6f7eb5bbc09b31"}, {"bike_id": "a721cd5d9c0a8d3b5272e5b12bea2c83", "type": "electric_scooter", "is_disabled": 0, "lat": 38.904289166666665, "rental_uris": {"ios": "https://dc.lft.to/lastmile_qr_scan", "android": "https://dc.lft.to/lastmile_qr_scan"}, "is_reserved": 0, "fusion_lon": 0.0, "fusion_lat": 0.0, "lon": -77.05330016666667, "name": "a721cd5d9c0a8d3b5272e5b12bea2c83"}, {"bike_id": "126cedc3193656cc3859cf717d032ee2", "type": "electric_scooter", "is_disabled": 0, "lat": 38.935369333333334, "rental_uris": {"ios": "https://dc.lft.to/lastmile_qr_scan", "android": "https://dc.lft.to/lastmile_qr_scan"}, "is_reserved": 0, "fusion_lon": 0.0, "fusion_lat": 0.0, "lon": -77.03886433333334, "name": "126cedc3193656cc3859cf717d032ee2"}, {"bike_id": "432bcd08c2a56076c704494c0e5a4a12", "type": "electric_scooter", "is_disabled": 0, "lat": 38.906461666666665, "rental_uris": {"ios": "https://dc.lft.to/lastmile_qr_scan", "android": "https://dc.lft.to/lastmile_qr_scan"}, "is_reserved": 0, "fusion_lon": 0.0, "fusion_lat": 0.0, "lon": -77.014139, "name": "432bcd08c2a56076c704494c0e5a4a12"}, {"bike_id": "d8a03688604d17f52b5a168a75cf7b2d", "type": "electric_scooter", "is_disabled": 0, "lat": 38.92617166666667, "rental_uris": {"ios": "https://dc.lft.to/lastmile_qr_scan", "android": "https://dc.lft.to/lastmile_qr_scan"}, "is_reserved": 0, "fusion_lon": 0.0, "fusion_lat": 0.0, "lon": -77.04327716666667, "name": "d8a03688604d17f52b5a168a75cf7b2d"}, {"bike_id": "2f3304154eac764a894749d9cbc3b5fb", "type": "electric_scooter", "is_disabled": 0, "lat": 38.8999655, "rental_uris": {"ios": "https://dc.lft.to/lastmile_qr_scan", "android": "https://dc.lft.to/lastmile_qr_scan"}, "is_reserved": 0, "fusion_lon": 0.0, "fusion_lat": 0.0, "lon": -77.00209966666667, "name": "2f3304154eac764a894749d9cbc3b5fb"}, {"bike_id": "ce4ee0d2ce91d3623b0763671eeb21a2", "type": "electric_scooter", "is_disabled": 0, "lat": 38.918131333333335, "rental_uris": {"ios": "https://dc.lft.to/lastmile_qr_scan", "android": "https://dc.lft.to/lastmile_qr_scan"}, "is_reserved": 0, "fusion_lon": 0.0, "fusion_lat": 0.0, "lon": -77.03252966666666, "name": "ce4ee0d2ce91d3623b0763671eeb21a2"}, {"bike_id": "67c9ec146349c99232f58fc1ef3626f1", "type": "electric_bike", "is_disabled": 0, "lat": 38.946473166666664, "rental_uris": {"ios": "https://dc.lft.to/lastmile_qr_scan", "android": "https://dc.lft.to/lastmile_qr_scan"}, "is_reserved": 0, "fusion_lon": 0.0, "fusion_lat": 0.0, "lon": -76.9948645, "name": "67c9ec146349c99232f58fc1ef3626f1"}, {"bike_id": "3197761a6c4e637932df6f5032b1c954", "type": "electric_scooter", "is_disabled": 0, "lat": 38.91011366666667, "rental_uris": {"ios": "https://dc.lft.to/lastmile_qr_scan", "android": "https://dc.lft.to/lastmile_qr_scan"}, "is_reserved": 0, "fusion_lon": 0.0, "fusion_lat": 0.0, "lon": -77.016248, "name": "3197761a6c4e637932df6f5032b1c954"}, {"bike_id": "875d00928c20eed18f49e161f784a67a", "type": "electric_scooter", "is_disabled": 0, "lat": 38.91419416666667, "rental_uris": {"ios": "https://dc.lft.to/lastmile_qr_scan", "android": "https://dc.lft.to/lastmile_qr_scan"}, "is_reserved": 0, "fusion_lon": 0.0, "fusion_lat": 0.0, "lon": -77.02288816666666, "name": "875d00928c20eed18f49e161f784a67a"}, {"bike_id": "112e4874b8c51370cf28768b0ee52c05", "type": "electric_scooter", "is_disabled": 0, "lat": 38.905098333333335, "rental_uris": {"ios": "https://dc.lft.to/lastmile_qr_scan", "android": "https://dc.lft.to/lastmile_qr_scan"}, "is_reserved": 0, "fusion_lon": 0.0, "fusion_lat": 0.0, "lon": -77.02974616666667, "name": "112e4874b8c51370cf28768b0ee52c05"}, {"bike_id": "d628db3a68fc4a0561fb3f35577d61e0", "type": "electric_scooter", "is_disabled": 0, "lat": 38.9079535, "rental_uris": {"ios": "https://dc.lft.to/lastmile_qr_scan", "android": "https://dc.lft.to/lastmile_qr_scan"}, "is_reserved": 0, "fusion_lon": 0.0, "fusion_lat": 0.0, "lon": -77.03128316666667, "name": "d628db3a68fc4a0561fb3f35577d61e0"}, {"bike_id": "8e415ab3d5d236aa8de2d806a391e2c7", "type": "electric_scooter", "is_disabled": 0, "lat": 38.911411, "rental_uris": {"ios": "https://dc.lft.to/lastmile_qr_scan", "android": "https://dc.lft.to/lastmile_qr_scan"}, "is_reserved": 0, "fusion_lon": 0.0, "fusion_lat": 0.0, "lon": -77.0279705, "name": "8e415ab3d5d236aa8de2d806a391e2c7"}, {"bike_id": "eaf91c905fc2605ab0b5f9694b39c279", "type": "electric_scooter", "is_disabled": 0, "lat": 38.89533983333333, "rental_uris": {"ios": "https://dc.lft.to/lastmile_qr_scan", "android": "https://dc.lft.to/lastmile_qr_scan"}, "is_reserved": 0, "fusion_lon": 0.0, "fusion_lat": 0.0, "lon": -76.94893966666666, "name": "eaf91c905fc2605ab0b5f9694b39c279"}, {"bike_id": "b82280cac0da67f70177a73d2b56ce51", "type": "electric_scooter", "is_disabled": 0, "lat": 38.908963666666665, "rental_uris": {"ios": "https://dc.lft.to/lastmile_qr_scan", "android": "https://dc.lft.to/lastmile_qr_scan"}, "is_reserved": 0, "fusion_lon": 0.0, "fusion_lat": 0.0, "lon": -77.042952, "name": "b82280cac0da67f70177a73d2b56ce51"}, {"bike_id": "3356d6e88005ae537bf0757d3642c0d6", "type": "electric_scooter", "is_disabled": 0, "lat": 38.917546, "rental_uris": {"ios": "https://dc.lft.to/lastmile_qr_scan", "android": "https://dc.lft.to/lastmile_qr_scan"}, "is_reserved": 0, "fusion_lon": 0.0, "fusion_lat": 0.0, "lon": -77.028037, "name": "3356d6e88005ae537bf0757d3642c0d6"}, {"bike_id": "b9d21c463ca98f184afff5b8d747e052", "type": "electric_scooter", "is_disabled": 0, "lat": 38.90261066666667, "rental_uris": {"ios": "https://dc.lft.to/lastmile_qr_scan", "android": "https://dc.lft.to/lastmile_qr_scan"}, "is_reserved": 0, "fusion_lon": 0.0, "fusion_lat": 0.0, "lon": -77.00326466666667, "name": "b9d21c463ca98f184afff5b8d747e052"}, {"bike_id": "8844926e8af9382545a12eb31cdc5dbd", "type": "electric_scooter", "is_disabled": 0, "lat": 38.908121, "rental_uris": {"ios": "https://dc.lft.to/lastmile_qr_scan", "android": "https://dc.lft.to/lastmile_qr_scan"}, "is_reserved": 0, "fusion_lon": 0.0, "fusion_lat": 0.0, "lon": -77.04333116666666, "name": "8844926e8af9382545a12eb31cdc5dbd"}, {"bike_id": "fb8121bc0ea8de2d81a51f69b0455b5c", "type": "electric_scooter", "is_disabled": 0, "lat": 38.911186, "rental_uris": {"ios": "https://dc.lft.to/lastmile_qr_scan", "android": "https://dc.lft.to/lastmile_qr_scan"}, "is_reserved": 0, "fusion_lon": 0.0, "fusion_lat": 0.0, "lon": -77.0054025, "name": "fb8121bc0ea8de2d81a51f69b0455b5c"}, {"bike_id": "dcf3844b67078f33041803dc9bdf0f05", "type": "electric_scooter", "is_disabled": 0, "lat": 38.93130133333333, "rental_uris": {"ios": "https://dc.lft.to/lastmile_qr_scan", "android": "https://dc.lft.to/lastmile_qr_scan"}, "is_reserved": 0, "fusion_lon": 0.0, "fusion_lat": 0.0, "lon": -77.038554, "name": "dcf3844b67078f33041803dc9bdf0f05"}, {"bike_id": "7face7ce1df7a14d9787ece38ea7cb1f", "type": "electric_scooter", "is_disabled": 0, "lat": 38.905038833333336, "rental_uris": {"ios": "https://dc.lft.to/lastmile_qr_scan", "android": "https://dc.lft.to/lastmile_qr_scan"}, "is_reserved": 0, "fusion_lon": 0.0, "fusion_lat": 0.0, "lon": -77.0198595, "name": "7face7ce1df7a14d9787ece38ea7cb1f"}, {"bike_id": "d6d622cbcd8970686b1f543928233892", "type": "electric_scooter", "is_disabled": 0, "lat": 38.919824166666665, "rental_uris": {"ios": "https://dc.lft.to/lastmile_qr_scan", "android": "https://dc.lft.to/lastmile_qr_scan"}, "is_reserved": 0, "fusion_lon": 0.0, "fusion_lat": 0.0, "lon": -77.03266283333333, "name": "d6d622cbcd8970686b1f543928233892"}, {"bike_id": "b890e9fae4a6bd719fcc65f865b0fa39", "type": "electric_scooter", "is_disabled": 0, "lat": 38.932021666666664, "rental_uris": {"ios": "https://dc.lft.to/lastmile_qr_scan", "android": "https://dc.lft.to/lastmile_qr_scan"}, "is_reserved": 0, "fusion_lon": 0.0, "fusion_lat": 0.0, "lon": -77.036607, "name": "b890e9fae4a6bd719fcc65f865b0fa39"}, {"bike_id": "e8b6b273fa1d7a7d23e2a7d4b07ebf7c", "type": "electric_scooter", "is_disabled": 0, "lat": 38.9208845, "rental_uris": {"ios": "https://dc.lft.to/lastmile_qr_scan", "android": "https://dc.lft.to/lastmile_qr_scan"}, "is_reserved": 0, "fusion_lon": 0.0, "fusion_lat": 0.0, "lon": -77.025354, "name": "e8b6b273fa1d7a7d23e2a7d4b07ebf7c"},