{"data": {"bikes": [{"lon": -76.99505683333334, "rental_uris": {"android": "https://dc.lft.to/lastmile_qr_scan", "ios": "https://dc.lft.to/lastmile_qr_scan"}, "fusion_lon": 0.0, "is_reserved": 0, "is_disabled": 0, "fusion_lat": 0.0, "type": "electric_scooter", "name": "f25f4b6e51ea411b023770e3c45deb6d", "lat": 38.883645666666666, "bike_id": "f25f4b6e51ea411b023770e3c45deb6d"}, {"lon": -77.00333466666666, "rental_uris": {"android": "https://dc.lft.to/lastmile_qr_scan", "ios": "https://dc.lft.to/lastmile_qr_scan"}, "fusion_lon": 0.0, "is_reserved": 0, "is_disabled": 0, "fusion_lat": 0.0, "type": "electric_scooter", "name": "051a23d7f89c432bac48198c5d51f2cd", "lat": 38.891844666666664, "bike_id": "051a23d7f89c432bac48198c5d51f2cd"}, {"lon": -76.95568816666666, "rental_uris": {"android": "https://dc.lft.to/lastmile_qr_scan", "ios": "https://dc.lft.to/lastmile_qr_scan"}, "fusion_lon": 0.0, "is_reserved": 0, "is_disabled": 0, "fusion_lat": 0.0, "type": "electric_bike", "name": "144365d67d46b216c7e448529fcacdb9", "lat": 38.968968833333335, "bike_id": "144365d67d46b216c7e448529fcacdb9"}, {"lon": -77.05945166666666, "rental_uris": {"android": "https://dc.lft.to/lastmile_qr_scan", "ios": "https://dc.lft.to/lastmile_qr_scan"}, "fusion_lon": 0.0, "is_reserved": 0, "is_disabled": 0, "fusion_lat": 0.0, "type": "electric_scooter", "name": "449c79f6f1d9e9648c01375aff92fca5", "lat": 38.94312033333333, "bike_id": "449c79f6f1d9e9648c01375aff92fca5"}, {"lon": -77.03987516666666, "rental_uris": {"android": "https://dc.lft.to/lastmile_qr_scan", "ios": "https://dc.lft.to/lastmile_qr_scan"}, "fusion_lon": 0.0, "is_reserved": 0, "is_disabled": 0, "fusion_lat": 0.0, "type": "electric_bike", "name": "12a9e5a566ecac9e99e8ee623279b3a9", "lat": 38.90588266666666, "bike_id": "12a9e5a566ecac9e99e8ee623279b3a9"}, {"lon": -76.9862195, "rental_uris": {"android": "https://dc.lft.to/lastmile_qr_scan", "ios": "https://dc.lft.to/lastmile_qr_scan"}, "fusion_lon": 0.0, "is_reserved": 0, "is_disabled": 0, "fusion_lat": 0.0, "type": "electric_scooter", "name": "a54b05798bd570c79a827ebb01358b50", "lat": 38.909969833333335, "bike_id": "a54b05798bd570c79a827ebb01358b50"}, {"lon": -77.05876616666667, "rental_uris": {"android": "https://dc.lft.to/lastmile_qr_scan", "ios": "https://dc.lft.to/lastmile_qr_scan"}, "fusion_lon": 0.0, "is_reserved": 0, "is_disabled": 0, "fusion_lat": 0.0, "type": "electric_scooter", "name": "9afac9c520e09a921d8a8d1382d2ff0e", "lat": 38.91829666666667, "bike_id": "9afac9c520e09a921d8a8d1382d2ff0e"}, {"lon": -77.02829, "rental_uris": {"android": "https://dc.lft.to/lastmile_qr_scan", "ios": "https://dc.lft.to/lastmile_qr_scan"}, "fusion_lon": 0.0, "is_reserved": 0, "is_disabled": 0, "fusion_lat": 0.0, "type": "electric_scooter", "name": "7485f0b8201e8695796c7d26192894db", "lat": 38.956307, "bike_id": "7485f0b8201e8695796c7d26192894db"}, {"lon": -77.01869766666667, "rental_uris": {"android": "https://dc.lft.to/lastmile_qr_scan", "ios": "https://dc.lft.to/lastmile_qr_scan"}, "fusion_lon": 0.0, "is_reserved": 0, "is_disabled": 0, "fusion_lat": 0.0, "type": "electric_scooter", "name": "b284c3145fe9748805f0d90ea6eadb60", "lat": 38.908635333333336, "bike_id": "b284c3145fe9748805f0d90ea6eadb60"}, {"lon": -77.06982016666667, "rental_uris": {"android": "https://dc.lft.to/lastmile_qr_scan", "ios": "https://dc.lft.to/lastmile_qr_scan"}, "fusion_lon": 0.0, "is_reserved": 0, "is_disabled": 0, "fusion_lat": 0.0, "type": "electric_bike", "name": "fe1b9e2588d4c55ee328ac6e788345fa", "lat": 38.95528083333333, "bike_id": "fe1b9e2588d4c55ee328ac6e788345fa"}, {"lon": -76.93186616666667, "rental_uris": {"android": "https://dc.lft.to/lastmile_qr_scan", "ios": "https://dc.lft.to/lastmile_qr_scan"}, "fusion_lon": 0.0, "is_reserved": 0, "is_disabled": 0, "fusion_lat": 0.0, "type": "electric_bike", "name": "9ead34a192e6e79a72de00b2e8fb9a28", "lat": 38.8984995, "bike_id": "9ead34a192e6e79a72de00b2e8fb9a28"}, {"lon": -77.01635716666667, "rental_uris": {"android": "https://dc.lft.to/lastmile_qr_scan", "ios": "https://dc.lft.to/lastmile_qr_scan"}, "fusion_lon": 0.0, "is_reserved": 0, "is_disabled": 0, "fusion_lat": 0.0, "type": "electric_bike", "name": "891aacd63e63075fdb870bd7f15cb2b1", "lat": 38.78455, "bike_id": "891aacd63e63075fdb870bd7f15cb2b1"}, {"lon": -77.04479483333333, "rental_uris": {"android": "https://dc.lft.to/lastmile_qr_scan", "ios": "https://dc.lft.to/lastmile_qr_scan"}, "fusion_lon": 0.0, "is_reserved": 0, "is_disabled": 0, "fusion_lat": 0.0, "type": "electric_scooter", "name": "519a2a138ff26080fc4d855aaa8442ae", "lat": 38.910891666666664, "bike_id": "519a2a138ff26080fc4d855aaa8442ae"}, {"lon": -77.043025, "rental_uris": {"android": "https://dc.lft.to/lastmile_qr_scan", "ios": "https://dc.lft.to/lastmile_qr_scan"}, "fusion_lon": 0.0, "is_reserved": 0, "is_disabled": 0, "fusion_lat": 0.0, "type": "electric_scooter", "name": "91e5af5ab03dea1c57219f184bcebaaf", "lat": 38.905797, "bike_id": "91e5af5ab03dea1c57219f184bcebaaf"}, {"lon": -76.97440033333334, "rental_uris": {"android": "https://dc.lft.to/lastmile_qr_scan", "ios": "https://dc.lft.to/lastmile_qr_scan"}, "fusion_lon": 0.0, "is_reserved": 0, "is_disabled": 0, "fusion_lat": 0.0, "type": "electric_bike", "name": "5d94dc0ac81e0a2409fec287cfc7b6a3", "lat": 38.905002333333336, "bike_id": "5d94dc0ac81e0a2409fec287cfc7b6a3"}, {"lon": -76.99558533333334, "rental_uris": {"android": "https://dc.lft.to/lastmile_qr_scan", "ios": "https://dc.lft.to/lastmile_qr_scan"}, "fusion_lon": 0.0, "is_reserved": 0, "is_disabled": 0, "fusion_lat": 0.0, "type": "electric_scooter", "name": "afdcba63ec7f88bf32895ffd069b0ffb", "lat": 38.92740766666667, "bike_id": "afdcba63ec7f88bf32895ffd069b0ffb"}, {"lon": -77.043482, "rental_uris": {"android": "https://dc.lft.to/lastmile_qr_scan", "ios": "https://dc.lft.to/lastmile_qr_scan"}, "fusion_lon": 0.0, "is_reserved": 0, "is_disabled": 0, "fusion_lat": 0.0, "type": "electric_scooter", "name": "cec53d7f1b65e9502da7e92ee825de88", "lat": 38.90340783333333, "bike_id": "cec53d7f1b65e9502da7e92ee825de88"}, {"lon": -76.97441716666667, "rental_uris": {"android": "https://dc.lft.to/lastmile_qr_scan", "ios": "https://dc.lft.to/lastmile_qr_scan"}, "fusion_lon": 0.0, "is_reserved": 0, "is_disabled": 0, "fusion_lat": 0.0, "type": "electric_scooter", "name": "29beda8970109e34eddf802968775554", "lat": 38.902598166666664, "bike_id": "29beda8970109e34eddf802968775554"}, {"lon": -77.03438766666666, "rental_uris": {"android": "https://dc.lft.to/lastmile_qr_scan", "ios": "https://dc.lft.to/lastmile_qr_scan"}, "fusion_lon": 0.0, "is_reserved": 0, "is_disabled": 0, "fusion_lat": 0.0, "type": "electric_scooter", "name": "7cc628804e81e8c8d530fac309ac80e6", "lat": 38.9057385, "bike_id": "7cc628804e81e8c8d530fac309ac80e6"}, {"lon": -77.0385295, "rental_uris": {"android": "https://dc.lft.to/lastmile_qr_scan", "ios": "https://dc.lft.to/lastmile_qr_scan"}, "fusion_lon": 0.0, "is_reserved": 0, "is_disabled": 0, "fusion_lat": 0.0, "type": "electric_scooter", "name": "3b6e7e655ef9232d224007394808f6ff", "lat": 38.907666166666665, "bike_id": "3b6e7e655ef9232d224007394808f6ff"}, {"lon": -77.02340116666667, "rental_uris": {"android": "https://dc.lft.to/lastmile_qr_scan", "ios": "https://dc.lft.to/lastmile_qr_scan"}, "fusion_lon": 0.0, "is_reserved": 0, "is_disabled": 0, "fusion_lat": 0.0, "type": "electric_scooter", "name": "1c989d0f438a9c2aeaf381df98fd1945", "lat": 38.94503916666667, "bike_id": "1c989d0f438a9c2aeaf381df98fd1945"}, {"lon": -77.0468265, "rental_uris": {"android": "https://dc.lft.to/lastmile_qr_scan", "ios": "https://dc.lft.to/lastmile_qr_scan"}, "fusion_lon": 0.0, "is_reserved": 0, "is_disabled": 0, "fusion_lat": 0.0, "type": "electric_scooter", "name": "39dc9e3c9a913b938dd36e449adba3ba", "lat": 38.909603833333335, "bike_id": "39dc9e3c9a913b938dd36e449adba3ba"}, {"lon": -77.01737366666667, "rental_uris": {"android": "https://dc.lft.to/lastmile_qr_scan", "ios": "https://dc.lft.to/lastmile_qr_scan"}, "fusion_lon": 0.0, "is_reserved": 0, "is_disabled": 0, "fusion_lat": 0.0, "type": "electric_scooter", "name": "778e916dc50a2a3cc0fc723a6851f26b", "lat": 38.97515, "bike_id": "778e916dc50a2a3cc0fc723a6851f26b"}, {"lon": -77.0257325, "rental_uris": {"android": "https://dc.lft.to/lastmile_qr_scan", "ios": "https://dc.lft.to/lastmile_qr_scan"}, "fusion_lon": 0.0, "is_reserved": 0, "is_disabled": 0, "fusion_lat": 0.0, "type": "electric_scooter", "name": "0873b0501550912f4820f0aca4190423", "lat": 38.887438, "bike_id": "0873b0501550912f4820f0aca4190423"}, {"lon": -77.0394195, "rental_uris": {"android": "https://dc.lft.to/lastmile_qr_scan", "ios": "https://dc.lft.to/lastmile_qr_scan"}, "fusion_lon": 0.0, "is_reserved": 0, "is_disabled": 0, "fusion_lat": 0.0, "type": "electric_scooter", "name": "0dbaf1f611ee705325f9ca1063b8f2e2", "lat": 38.9306045, "bike_id": "0dbaf1f611ee705325f9ca1063b8f2e2"}, {"lon": -77.0346395, "rental_uris": {"android": "https://dc.lft.to/lastmile_qr_scan", "ios": "https://dc.lft.to/lastmile_qr_scan"}, "fusion_lon": 0.0, "is_reserved": 0, "is_disabled": 0, "fusion_lat": 0.0, "type": "electric_scooter", "name": "b085e6ef92714f1e0e5050cec085e888", "lat": 38.908327666666665, "bike_id": "b085e6ef92714f1e0e5050cec085e888"}, {"lon": -77.00336633333333, "rental_uris": {"android": "https://dc.lft.to/lastmile_qr_scan", "ios": "https://dc.lft.to/lastmile_qr_scan"}, "fusion_lon": 0.0, "is_reserved": 0, "is_disabled": 0, "fusion_lat": 0.0, "type": "electric_scooter", "name": "cc69bdb74c78b1a78b930042d7fe10ef", "lat": 38.896172166666666, "bike_id": "cc69bdb74c78b1a78b930042d7fe10ef"}, {"lon": -77.04364733333334, "rental_uris": {"android": "https://dc.lft.to/lastmile_qr_scan", "ios": "https://dc.lft.to/lastmile_qr_scan"}, "fusion_lon": 0.0, "is_reserved": 0, "is_disabled": 0, "fusion_lat": 0.0, "type": "electric_scooter", "name": "fc764c1f079e4a28eb8ad76ca86b5584", "lat": 38.921411666666664, "bike_id": "fc764c1f079e4a28eb8ad76ca86b5584"}, {"lon": -77.00310316666666, "rental_uris": {"android": "https://dc.lft.to/lastmile_qr_scan", "ios": "https://dc.lft.to/lastmile_qr_scan"}, "fusion_lon": 0.0, "is_reserved": 0, "is_disabled": 0, "fusion_lat": 0.0, "type": "electric_scooter", "name": "b8d3be70a9c10f24562d5055c6f48b32", "lat": 38.8922655, "bike_id": "b8d3be70a9c10f24562d5055c6f48b32"}, {"lon": -77.06943516666666, "rental_uris": {"android": "https://dc.lft.to/lastmile_qr_scan", "ios": "https://dc.lft.to/lastmile_qr_scan"}, "fusion_lon": 0.0, "is_reserved": 0, "is_disabled": 0, "fusion_lat": 0.0, "type": "electric_bike", "name": "96f31991979a7cf9915bccd5e707b479", "lat": 38.83627, "bike_id": "96f31991979a7cf9915bccd5e707b479"}, {"lon": -77.00386266666666, "rental_uris": {"android": "https://dc.lft.to/lastmile_qr_scan", "ios": "https://dc.lft.to/lastmile_qr_scan"}, "fusion_lon": 0.0, "is_reserved": 0, "is_disabled": 0, "fusion_lat": 0.0, "type": "electric_scooter", "name": "fafc4399192387c4a1b35ace954eec45", "lat": 38.846395, "bike_id": "fafc4399192387c4a1b35ace954eec45"}, {"lon": -77.03178833333334, "rental_uris": {"android": "https://dc.lft.to/lastmile_qr_scan", "ios": "https://dc.lft.to/lastmile_qr_scan"}, "fusion_lon": 0.0, "is_reserved": 0, "is_disabled": 0, "fusion_lat": 0.0, "type": "electric_scooter", "name": "0479745cb317a76e7cad0e42649b366e", "lat": 38.89190583333333, "bike_id": "0479745cb317a76e7cad0e42649b366e"}, {"lon": -77.0499945, "rental_uris": {"android": "https://dc.lft.to/lastmile_qr_scan", "ios": "https://dc.lft.to/lastmile_qr_scan"}, "fusion_lon": 0.0, "is_reserved": 0, "is_disabled": 0, "fusion_lat": 0.0, "type": "electric_scooter", "name": "28a4d2c1b59cfa4e11e5291202c336d3", "lat": 38.9013355, "bike_id": "28a4d2c1b59cfa4e11e5291202c336d3"}, {"lon": -77.140988, "rental_uris": {"android": "https://dc.lft.to/lastmile_qr_scan", "ios": "https://dc.lft.to/lastmile_qr_scan"}, "fusion_lon": 0.0, "is_reserved": 0, "is_disabled": 0, "fusion_lat": 0.0, "type": "electric_bike", "name": "16450ad3f5420fbf6c33a3f2b21b1e51", "lat": 38.987874833333336, "bike_id": "16450ad3f5420fbf6c33a3f2b21b1e51"}, {"lon": -77.04675066666667, "rental_uris": {"android": "https://dc.lft.to/lastmile_qr_scan", "ios": "https://dc.lft.to/lastmile_qr_scan"}, "fusion_lon": 0.0, "is_reserved": 0, "is_disabled": 0, "fusion_lat": 0.0, "type": "electric_scooter", "name": "5736ab6479995d99060019bb11a028fb", "lat": 38.900358, "bike_id": "5736ab6479995d99060019bb11a028fb"}, {"lon": -77.06595416666667, "rental_uris": {"android": "https://dc.lft.to/lastmile_qr_scan", "ios": "https://dc.lft.to/lastmile_qr_scan"}, "fusion_lon": 0.0, "is_reserved": 0, "is_disabled": 0, "fusion_lat": 0.0, "type": "electric_scooter", "name": "b54ed9c9c844ea9ca775a61785fd8ae9", "lat": 38.904660166666666, "bike_id": "b54ed9c9c844ea9ca775a61785fd8ae9"}, {"lon": -77.00328666666667, "rental_uris": {"android": "https://dc.lft.to/lastmile_qr_scan", "ios": "https://dc.lft.to/lastmile_qr_scan"}, "fusion_lon": 0.0, "is_reserved": 0, "is_disabled": 0, "fusion_lat": 0.0, "type": "electric_scooter", "name": "b3f4831b0bac103ae07d8dcaf6826d89", "lat": 38.91341166666667, "bike_id": "b3f4831b0bac103ae07d8dcaf6826d89"}, {"lon": -76.99808216666666, "rental_uris": {"android": "https://dc.lft.to/lastmile_qr_scan", "ios": "https://dc.lft.to/lastmile_qr_scan"}, "fusion_lon": 0.0, "is_reserved": 0, "is_disabled": 0, "fusion_lat": 0.0, "type": "electric_scooter", "name": "35c54df4abcd6f28fbf5b2eef1f4fa5b", "lat": 38.876386333333336, "bike_id": "35c54df4abcd6f28fbf5b2eef1f4fa5b"}, {"lon": -76.98338566666666, "rental_uris": {"android": "https://dc.lft.to/lastmile_qr_scan", "ios": "https://dc.lft.to/lastmile_qr_scan"}, "fusion_lon": 0.0, "is_reserved": 0, "is_disabled": 0, "fusion_lat": 0.0, "type": "electric_scooter", "name": "f299963282f95b887c95d87623ad6e86", "lat": 38.8954645, "bike_id": "f299963282f95b887c95d87623ad6e86"}, {"lon": -76.99222116666667, "rental_uris": {"android": "https://dc.lft.to/lastmile_qr_scan", "ios": "https://dc.lft.to/lastmile_qr_scan"}, "fusion_lon": 0.0, "is_reserved": 0, "is_disabled": 0, "fusion_lat": 0.0, "type": "electric_bike", "name": "aba2e21ee8725a4389ecc68ffbf648c5", "lat": 38.8973785, "bike_id": "aba2e21ee8725a4389ecc68ffbf648c5"}, {"lon": -77.00386733333333, "rental_uris": {"android": "https://dc.lft.to/lastmile_qr_scan", "ios": "https://dc.lft.to/lastmile_qr_scan"}, "fusion_lon": 0.0, "is_reserved": 0, "is_disabled": 0, "fusion_lat": 0.0, "type": "electric_scooter", "name": "0a376bcca4413a93026122c30ba02ec0", "lat": 38.87638183333333, "bike_id": "0a376bcca4413a93026122c30ba02ec0"}, {"lon": -77.0067015, "rental_uris": {"android": "https://dc.lft.to/lastmile_qr_scan", "ios": "https://dc.lft.to/lastmile_qr_scan"}, "fusion_lon": 0.0, "is_reserved": 0, "is_disabled": 0, "fusion_lat": 0.0, "type": "electric_scooter", "name": "02405d6edb6d87288eceaada873fb8d2", "lat": 38.8772755, "bike_id": "02405d6edb6d87288eceaada873fb8d2"}, {"lon": -77.07009366666666, "rental_uris": {"android": "https://dc.lft.to/lastmile_qr_scan", "ios": "https://dc.lft.to/lastmile_qr_scan"}, "fusion_lon": 0.0, "is_reserved": 0, "is_disabled": 0, "fusion_lat": 0.0, "type": "electric_bike", "name": "fef7e90f8ebd8d8ad38033e372c9aae9", "lat": 38.9058315, "bike_id": "fef7e90f8ebd8d8ad38033e372c9aae9"}, {"lon": -77.04749466666667, "rental_uris": {"android": "https://dc.lft.to/lastmile_qr_scan", "ios": "https://dc.lft.to/lastmile_qr_scan"}, "fusion_lon": 0.0, "is_reserved": 0, "is_disabled": 0, "fusion_lat": 0.0, "type": "electric_scooter", "name": "9db55bbd891bed03159a4b60fb4a9bab", "lat": 38.90538733333333, "bike_id": "9db55bbd891bed03159a4b60fb4a9bab"}, {"lon": -77.02857316666666, "rental_uris": {"android": "https://dc.lft.to/lastmile_qr_scan", "ios": "https://dc.lft.to/lastmile_qr_scan"}, "fusion_lon": 0.0, "is_reserved": 0, "is_disabled": 0, "fusion_lat": 0.0, "type": "electric_scooter", "name": "c9a519fffa426e6c00598abb4096d536", "lat": 38.8874775, "bike_id": "c9a519fffa426e6c00598abb4096d536"}, {"lon": -77.0223635, "rental_uris": {"android": "https://dc.lft.to/lastmile_qr_scan", "ios": "https://dc.lft.to/lastmile_qr_scan"}, "fusion_lon": 0.0, "is_reserved": 0, "is_disabled": 0, "fusion_lat": 0.0, "type": "electric_scooter", "name": "c8ba07d3cdb959854cfca65407deb4fa", "lat": 38.887663, "bike_id": "c8ba07d3cdb959854cfca65407deb4fa"}, {"lon": -77.03207433333333, "rental_uris": {"android": "https://dc.lft.to/lastmile_qr_scan", "ios": "https://dc.lft.to/lastmile_qr_scan"}, "fusion_lon": 0.0, "is_reserved": 0, "is_disabled": 0, "fusion_lat": 0.0, "type": "electric_scooter", "name": "5fdb3465ef7515472949bc52541ef04a", "lat": 38.91677883333333, "bike_id": "5fdb3465ef7515472949bc52541ef04a"}, {"lon": -77.04529116666667, "rental_uris": {"android": "https://dc.lft.to/lastmile_qr_scan", "ios": "https://dc.lft.to/lastmile_qr_scan"}, "fusion_lon": 0.0, "is_reserved": 0, "is_disabled": 0, "fusion_lat": 0.0, "type": "electric_scooter", "name": "ade3ae71bd406032ea96167624fa4572", "lat": 38.89963616666667, "bike_id": "ade3ae71bd406032ea96167624fa4572"}, {"lon": -76.99381433333333, "rental_uris": {"android": "https://dc.lft.to/lastmile_qr_scan", "ios": "https://dc.lft.to/lastmile_qr_scan"}, "fusion_lon": 0.0, "is_reserved": 0, "is_disabled": 0, "fusion_lat": 0.0, "type": "electric_scooter", "name": "3ffd945f677d54cdf803dbea6045f578", "lat": 38.89334266666667, "bike_id": "3ffd945f677d54cdf803dbea6045f578"}, {"lon": -77.04158516666666, "rental_uris": {"android": "https://dc.lft.to/lastmile_qr_scan", "ios": "https://dc.lft.to/lastmile_qr_scan"}, "fusion_lon": 0.0, "is_reserved": 0, "is_disabled": 0, "fusion_lat": 0.0, "type": "electric_scooter", "name": "f5b7ff81310e28ff245d7380d4800abe", "lat": 38.903685833333334, "bike_id": "f5b7ff81310e28ff245d7380d4800abe"}, {"lon": -77.0039975, "rental_uris": {"android": "https://dc.lft.to/lastmile_qr_scan", "ios": "https://dc.lft.to/lastmile_qr_scan"}, "fusion_lon": 0.0, "is_reserved": 0, "is_disabled": 0, "fusion_lat": 0.0, "type": "electric_scooter", "name": "35ef43628e840135496a1056c4eec038", "lat": 38.9058435, "bike_id": "35ef43628e840135496a1056c4eec038"}, {"lon": -77.0555445, "rental_uris": {"android": "https://dc.lft.to/lastmile_qr_scan", "ios": "https://dc.lft.to/lastmile_qr_scan"}, "fusion_lon": 0.0, "is_reserved": 0, "is_disabled": 0, "fusion_lat": 0.0, "type": "electric_scooter", "name": "ef2731095178c6a4de288c2c225a03d5", "lat": 38.930316833333336, "bike_id": "ef2731095178c6a4de288c2c225a03d5"}, {"lon": -77.03830416666666, "rental_uris": {"android": "https://dc.lft.to/lastmile_qr_scan", "ios": "https://dc.lft.to/lastmile_qr_scan"}, "fusion_lon": 0.0, "is_reserved": 0, "is_disabled": 0, "fusion_lat": 0.0, "type": "electric_scooter", "name": "8bc7e4b22148a24a1a99871050544c73", "lat": 38.90779166666667, "bike_id": "8bc7e4b22148a24a1a99871050544c73"}, {"lon": -77.03128316666667, "rental_uris": {"android": "https://dc.lft.to/lastmile_qr_scan", "ios": "https://dc.lft.to/lastmile_qr_scan"}, "fusion_lon": 0.0, "is_reserved": 0, "is_disabled": 0, "fusion_lat": 0.0, "type": "electric_scooter", "name": "6715843d43ddc337ac0405236db5df89", "lat": 38.910578, "bike_id": "6715843d43ddc337ac0405236db5df89"}, {"lon": -77.05356816666666, "rental_uris": {"android": "https://dc.lft.to/lastmile_qr_scan", "ios": "https://dc.lft.to/lastmile_qr_scan"}, "fusion_lon": 0.0, "is_reserved": 0, "is_disabled": 0, "fusion_lat": 0.0, "type": "electric_scooter", "name": "1a0bc1c2a7fc9c005f40607fa6117d74", "lat": 38.9278705, "bike_id": "1a0bc1c2a7fc9c005f40607fa6117d74"}, {"lon": -77.02116083333334, "rental_uris": {"android": "https://dc.lft.to/lastmile_qr_scan", "ios": "https://dc.lft.to/lastmile_qr_scan"}, "fusion_lon": 0.0, "is_reserved": 0, "is_disabled": 0, "fusion_lat": 0.0, "type": "electric_scooter", "name": "9d74939f16b20fec4e03d7e1bc7a0281", "lat": 38.92428533333333, "bike_id": "9d74939f16b20fec4e03d7e1bc7a0281"}, {"lon": -77.01795716666666, "rental_uris": {"android": "https://dc.lft.to/lastmile_qr_scan", "ios": "https://dc.lft.to/lastmile_qr_scan"}, "fusion_lon": 0.0, "is_reserved": 0, "is_disabled": 0, "fusion_lat": 0.0, "type": "electric_scooter", "name": "79f20fca4901dc9baa99af154590384f", "lat": 38.91396433333333, "bike_id": "79f20fca4901dc9baa99af154590384f"}, {"lon": -77.03270916666666, "rental_uris": {"android": "https://dc.lft.to/lastmile_qr_scan", "ios": "https://dc.lft.to/lastmile_qr_scan"}, "fusion_lon": 0.0, "is_reserved": 0, "is_disabled": 0, "fusion_lat": 0.0, "type": "electric_scooter", "name": "f7a6b797f76ceb83691ac8db17fc966d", "lat": 38.89917766666667, "bike_id": "f7a6b797f76ceb83691ac8db17fc966d"}, {"lon": -76.96788583333333, "rental_uris": {"android": "https://dc.lft.to/lastmile_qr_scan", "ios": "https://dc.lft.to/lastmile_qr_scan"}, "fusion_lon": 0.0, "is_reserved": 0, "is_disabled": 0, "fusion_lat": 0.0, "type": "electric_scooter", "name": "fccbaf2804c77bc717ab69b00a5d5a13", "lat": 38.87336166666667, "bike_id": "fccbaf2804c77bc717ab69b00a5d5a13"}, {"lon": -77.09522733333333, "rental_uris": {"android": "https://dc.lft.to/lastmile_qr_scan", "ios": "https://dc.lft.to/lastmile_qr_scan"}, "fusion_lon": 0.0, "is_reserved": 0, "is_disabled": 0, "fusion_lat": 0.0, "type": "electric_bike", "name": "5a28aed56320eb0405175bbd9b59bc4b", "lat": 38.838106, "bike_id": "5a28aed56320eb0405175bbd9b59bc4b"}, {"lon": -77.04467416666667, "rental_uris": {"android": "https://dc.lft.to/lastmile_qr_scan", "ios": "https://dc.lft.to/lastmile_qr_scan"}, "fusion_lon": 0.0, "is_reserved": 0, "is_disabled": 0, "fusion_lat": 0.0, "type": "electric_scooter", "name": "8d2f636c41c4a0723abc4ee674837ca5", "lat": 38.89221333333333, "bike_id": "8d2f636c41c4a0723abc4ee674837ca5"}, {"lon": -77.03351883333333, "rental_uris": {"android": "https://dc.lft.to/lastmile_qr_scan", "ios": "https://dc.lft.to/lastmile_qr_scan"}, "fusion_lon": 0.0, "is_reserved": 0, "is_disabled": 0, "fusion_lat": 0.0, "type": "electric_bike", "name": "63acda4aae76baae68769b155272b125", "lat": 38.97231766666667, "bike_id": "63acda4aae76baae68769b155272b125"}, {"lon": -77.06940383333334, "rental_uris": {"android": "https://dc.lft.to/lastmile_qr_scan", "ios": "https://dc.lft.to/lastmile_qr_scan"}, "fusion_lon": 0.0, "is_reserved": 0, "is_disabled": 0, "fusion_lat": 0.0, "type": "electric_scooter", "name": "89a7c8dbd2da28d598cbc1d9281dbd5f", "lat": 38.91744116666667, "bike_id": "89a7c8dbd2da28d598cbc1d9281dbd5f"}, {"lon": -77.04498016666666, "rental_uris": {"android": "https://dc.lft.to/lastmile_qr_scan", "ios": "https://dc.lft.to/lastmile_qr_scan"}, "fusion_lon": 0.0, "is_reserved": 0, "is_disabled": 0, "fusion_lat": 0.0, "type": "electric_scooter", "name": "1aa0d4e3f192dfe8ed0046edfacc6dc5", "lat": 38.8994645, "bike_id": "1aa0d4e3f192dfe8ed0046edfacc6dc5"}, {"lon": -76.988457, "rental_uris": {"android": "https://dc.lft.to/lastmile_qr_scan", "ios": "https://dc.lft.to/lastmile_qr_scan"}, "fusion_lon": 0.0, "is_reserved": 0, "is_disabled": 0, "fusion_lat": 0.0, "type": "electric_bike", "name": "2aa154932c400c5cf647bfebd3feaa22", "lat": 38.84274683333334, "bike_id": "2aa154932c400c5cf647bfebd3feaa22"}, {"lon": -77.038681, "rental_uris": {"android": "https://dc.lft.to/lastmile_qr_scan", "ios": "https://dc.lft.to/lastmile_qr_scan"}, "fusion_lon": 0.0, "is_reserved": 0, "is_disabled": 0, "fusion_lat": 0.0, "type": "electric_scooter", "name": "21e669ea7efe58faf668d094274e3a2d", "lat": 38.906587, "bike_id": "21e669ea7efe58faf668d094274e3a2d"}, {"lon": -77.05467233333333, "rental_uris": {"android": "https://dc.lft.to/lastmile_qr_scan", "ios": "https://dc.lft.to/lastmile_qr_scan"}, "fusion_lon": 0.0, "is_reserved": 0, "is_disabled": 0, "fusion_lat": 0.0, "type": "electric_scooter", "name": "2ab144c8d31bfab6049b1e871df843e2", "lat": 38.92328883333333, "bike_id": "2ab144c8d31bfab6049b1e871df843e2"}, {"lon": -77.04673833333334, "rental_uris": {"android": "https://dc.lft.to/lastmile_qr_scan", "ios": "https://dc.lft.to/lastmile_qr_scan"}, "fusion_lon": 0.0, "is_reserved": 0, "is_disabled": 0, "fusion_lat": 0.0, "type": "electric_scooter", "name": "90ae26207964bad7d5501668884ab514", "lat": 38.90034683333333, "bike_id": "90ae26207964bad7d5501668884ab514"}, {"lon": -77.04687, "rental_uris": {"android": "https://dc.lft.to/lastmile_qr_scan", "ios": "https://dc.lft.to/lastmile_qr_scan"}, "fusion_lon": 0.0, "is_reserved": 0, "is_disabled": 0, "fusion_lat": 0.0, "type": "electric_scooter", "name": "903a2663b90a602b9020cde65ff0393e", "lat": 38.92117616666667, "bike_id": "903a2663b90a602b9020cde65ff0393e"}, {"lon": -77.02661133333334, "rental_uris": {"android": "https://dc.lft.to/lastmile_qr_scan", "ios": "https://dc.lft.to/lastmile_qr_scan"}, "fusion_lon": 0.0, "is_reserved": 0, "is_disabled": 0, "fusion_lat": 0.0, "type": "electric_bike", "name": "bdff01bb608f6feafa24b0cf027c2e8a", "lat": 38.994354333333334, "bike_id": "bdff01bb608f6feafa24b0cf027c2e8a"}, {"lon": -77.04674033333333, "rental_uris": {"android": "https://dc.lft.to/lastmile_qr_scan", "ios": "https://dc.lft.to/lastmile_qr_scan"}, "fusion_lon": 0.0, "is_reserved": 0, "is_disabled": 0, "fusion_lat": 0.0, "type": "electric_scooter", "name": "4147925047b93311fdcc7582d3c57806", "lat": 38.8955345, "bike_id": "4147925047b93311fdcc7582d3c57806"}, {"lon": -77.03818916666667, "rental_uris": {"android": "https://dc.lft.to/lastmile_qr_scan", "ios": "https://dc.lft.to/lastmile_qr_scan"}, "fusion_lon": 0.0, "is_reserved": 0, "is_disabled": 0, "fusion_lat": 0.0, "type": "electric_scooter", "name": "c09fab127bdac9e07b8984f85f7ba6a8", "lat": 38.90776266666667, "bike_id": "c09fab127bdac9e07b8984f85f7ba6a8"}, {"lon": -77.020912, "rental_uris": {"android": "https://dc.lft.to/lastmile_qr_scan", "ios": "https://dc.lft.to/lastmile_qr_scan"}, "fusion_lon": 0.0, "is_reserved": 0, "is_disabled": 0, "fusion_lat": 0.0, "type": "electric_scooter", "name": "f7cf8e651c5cb0ac40f0c3b80f4fca50", "lat": 38.921203166666665, "bike_id": "f7cf8e651c5cb0ac40f0c3b80f4fca50"}, {"lon": -77.099604, "rental_uris": {"android": "https://dc.lft.to/lastmile_qr_scan", "ios": "https://dc.lft.to/lastmile_qr_scan"}, "fusion_lon": 0.0, "is_reserved": 0, "is_disabled": 0, "fusion_lat": 0.0, "type": "electric_scooter", "name": "6f6e0af8dcec9f1ec43e982bdf95bb34", "lat": 38.949760833333336, "bike_id": "6f6e0af8dcec9f1ec43e982bdf95bb34"}, {"lon": -77.040037, "rental_uris": {"android": "https://dc.lft.to/lastmile_qr_scan", "ios": "https://dc.lft.to/lastmile_qr_scan"}, "fusion_lon": 0.0, "is_reserved": 0, "is_disabled": 0, "fusion_lat": 0.0, "type": "electric_scooter", "name": "5e2199827987a4908d8fcfcdc25ae600", "lat": 38.9342605, "bike_id": "5e2199827987a4908d8fcfcdc25ae600"}, {"lon": -77.03323816666666, "rental_uris": {"android": "https://dc.lft.to/lastmile_qr_scan", "ios": "https://dc.lft.to/lastmile_qr_scan"}, "fusion_lon": 0.0, "is_reserved": 0, "is_disabled": 0, "fusion_lat": 0.0, "type": "electric_scooter", "name": "8dd3992cf1a0c9f279ddb118c231e912", "lat": 38.8965065, "bike_id": "8dd3992cf1a0c9f279ddb118c231e912"}, {"lon": -77.044858, "rental_uris": {"android": "https://dc.lft.to/lastmile_qr_scan", "ios": "https://dc.lft.to/lastmile_qr_scan"}, "fusion_lon": 0.0, "is_reserved": 0, "is_disabled": 0, "fusion_lat": 0.0, "type": "electric_scooter", "name": "beac080e7c5f81e2d1f19285a67e5f3e", "lat": 38.89239466666667, "bike_id": "beac080e7c5f81e2d1f19285a67e5f3e"}, {"lon": -77.0091025, "rental_uris": {"android": "https://dc.lft.to/lastmile_qr_scan", "ios": "https://dc.lft.to/lastmile_qr_scan"}, "fusion_lon": 0.0, "is_reserved": 0, "is_disabled": 0, "fusion_lat": 0.0, "type": "electric_scooter", "name": "ed4f97cdef738004151774b81992fd1f", "lat": 38.89549916666667, "bike_id": "ed4f97cdef738004151774b81992fd1f"}, {"lon": -76.98550916666667, "rental_uris": {"android": "https://dc.lft.to/lastmile_qr_scan", "ios": "https://dc.lft.to/lastmile_qr_scan"}, "fusion_lon": 0.0, "is_reserved": 0, "is_disabled": 0, "fusion_lat": 0.0, "type": "electric_scooter", "name": "bfef44bc59767dcc972d0a2fe43e7d02", "lat": 38.89971383333334, "bike_id": "bfef44bc59767dcc972d0a2fe43e7d02"}, {"lon": -77.02382766666666, "rental_uris": {"android": "https://dc.lft.to/lastmile_qr_scan", "ios": "https://dc.lft.to/lastmile_qr_scan"}, "fusion_lon": 0.0, "is_reserved": 0, "is_disabled": 0, "fusion_lat": 0.0, "type": "electric_scooter", "name": "6876ad9322db8592d5f0409a769d2ea7", "lat": 38.8873355, "bike_id": "6876ad9322db8592d5f0409a769d2ea7"}, {"lon": -76.98515666666667, "rental_uris": {"android": "https://dc.lft.to/lastmile_qr_scan", "ios": "https://dc.lft.to/lastmile_qr_scan"}, "fusion_lon": 0.0, "is_reserved": 0, "is_disabled": 0, "fusion_lat": 0.0, "type": "electric_bike", "name": "04f90d99f3c38cba0fcacffdec4f693c", "lat": 38.86891216666667, "bike_id": "04f90d99f3c38cba0fcacffdec4f693c"}, {"lon": -77.08065033333334, "rental_uris": {"android": "https://dc.lft.to/lastmile_qr_scan", "ios": "https://dc.lft.to/lastmile_qr_scan"}, "fusion_lon": 0.0, "is_reserved": 0, "is_disabled": 0, "fusion_lat": 0.0, "type": "electric_bike", "name": "42fc39ef88275b4a622a025858b79356", "lat": 39.052561833333336, "bike_id": "42fc39ef88275b4a622a025858b79356"}, {"lon": -76.93742833333333, "rental_uris": {"android": "https://dc.lft.to/lastmile_qr_scan", "ios": "https://dc.lft.to/lastmile_qr_scan"}, "fusion_lon": 0.0, "is_reserved": 0, "is_disabled": 0, "fusion_lat": 0.0, "type": "electric_scooter", "name": "c950969ef73f0926a4dda3ff7e171da5", "lat": 38.89007016666667, "bike_id": "c950969ef73f0926a4dda3ff7e171da5"}, {"lon": -77.00609966666667, "rental_uris": {"android": "https://dc.lft.to/lastmile_qr_scan", "ios": "https://dc.lft.to/lastmile_qr_scan"}, "fusion_lon": 0.0, "is_reserved": 0, "is_disabled": 0, "fusion_lat": 0.0, "type": "electric_scooter", "name": "3de4ecaf580c03f6c82561a9cc739d4a", "lat": 38.90550983333333, "bike_id": "3de4ecaf580c03f6c82561a9cc739d4a"}, {"lon": -77.00534233333333, "rental_uris": {"android": "https://dc.lft.to/lastmile_qr_scan", "ios": "https://dc.lft.to/lastmile_qr_scan"}, "fusion_lon": 0.0, "is_reserved": 0, "is_disabled": 0, "fusion_lat": 0.0, "type": "electric_scooter", "name": "c984228a0a5a6fbeecfbb9c36cac5cca", "lat": 38.87544, "bike_id": "c984228a0a5a6fbeecfbb9c36cac5cca"}, {"lon": -77.00578433333334, "rental_uris": {"android": "https://dc.lft.to/lastmile_qr_scan", "ios": "https://dc.lft.to/lastmile_qr_scan"}, "fusion_lon": 0.0, "is_reserved": 0, "is_disabled": 0, "fusion_lat": 0.0, "type": "electric_scooter", "name": "3d73a67fe28e397a6447c6410d0a5e85", "lat": 38.875764333333336, "bike_id": "3d73a67fe28e397a6447c6410d0a5e85"}, {"lon": -76.9461545, "rental_uris": {"android": "https://dc.lft.to/lastmile_qr_scan", "ios": "https://dc.lft.to/lastmile_qr_scan"}, "fusion_lon": 0.0, "is_reserved": 0, "is_disabled": 0, "fusion_lat": 0.0, "type": "electric_scooter", "name": "d2f90b849d90fa3250e12558995f4191", "lat": 38.898298833333335, "bike_id": "d2f90b849d90fa3250e12558995f4191"}, {"lon": -77.0295465, "rental_uris": {"android": "https://dc.lft.to/lastmile_qr_scan", "ios": "https://dc.lft.to/lastmile_qr_scan"}, "fusion_lon": 0.0, "is_reserved": 0, "is_disabled": 0, "fusion_lat": 0.0, "type": "electric_scooter", "name": "21c3a38ca8b828587e181e72fc7cba4b", "lat": 38.91726333333333, "bike_id": "21c3a38ca8b828587e181e72fc7cba4b"}, {"lon": -77.022245, "rental_uris": {"android": "https://dc.lft.to/lastmile_qr_scan", "ios": "https://dc.lft.to/lastmile_qr_scan"}, "fusion_lon": 0.0, "is_reserved": 0, "is_disabled": 0, "fusion_lat": 0.0, "type": "electric_scooter", "name": "330f70a006adfa89718806b01477c45b", "lat": 38.924725, "bike_id": "330f70a006adfa89718806b01477c45b"}, {"lon": -77.03225983333333, "rental_uris": {"android": "https://dc.lft.to/lastmile_qr_scan", "ios": "https://dc.lft.to/lastmile_qr_scan"}, "fusion_lon": 0.0, "is_reserved": 0, "is_disabled": 0, "fusion_lat": 0.0, "type": "electric_scooter", "name": "4d9bc2c6a6b098050ed4d9535a29dbd8", "lat": 38.901541, "bike_id": "4d9bc2c6a6b098050ed4d9535a29dbd8"}, {"lon": -77.00195866666667, "rental_uris": {"android": "https://dc.lft.to/lastmile_qr_scan", "ios": "https://dc.lft.to/lastmile_qr_scan"}, "fusion_lon": 0.0, "is_reserved": 0, "is_disabled": 0, "fusion_lat": 0.0, "type": "electric_scooter", "name": "0be7417a0a06371dd342eca00aba5b67", "lat": 38.900375, "bike_id": "0be7417a0a06371dd342eca00aba5b67"}, {"lon": -77.07093883333333, "rental_uris": {"android": "https://dc.lft.to/lastmile_qr_scan", "ios": "https://dc.lft.to/lastmile_qr_scan"}, "fusion_lon": 0.0, "is_reserved": 0, "is_disabled": 0, "fusion_lat": 0.0, "type": "electric_scooter", "name": "f48d33d650786c08aae4c2b563c38818", "lat": 38.919728166666665, "bike_id": "f48d33d650786c08aae4c2b563c38818"}, {"lon": -77.0454655, "rental_uris": {"android": "https://dc.lft.to/lastmile_qr_scan", "ios": "https://dc.lft.to/lastmile_qr_scan"}, "fusion_lon": 0.0, "is_reserved": 0, "is_disabled": 0, "fusion_lat": 0.0, "type": "electric_scooter", "name": "1f8a2c1a4c723f08718c132721ebeffe", "lat": 38.9131685, "bike_id": "1f8a2c1a4c723f08718c132721ebeffe"}, {"lon": -77.05245783333334, "rental_uris": {"android": "https://dc.lft.to/lastmile_qr_scan", "ios": "https://dc.lft.to/lastmile_qr_scan"}, "fusion_lon": 0.0, "is_reserved": 0, "is_disabled": 0, "fusion_lat": 0.0, "type": "electric_scooter", "name": "92bbcb23bb21b3b6e2cd4f900341d867", "lat": 38.925405166666664, "bike_id": "92bbcb23bb21b3b6e2cd4f900341d867"}, {"lon": -77.03564083333333, "rental_uris": {"android": "https://dc.lft.to/lastmile_qr_scan", "ios": "https://dc.lft.to/lastmile_qr_scan"}, "fusion_lon": 0.0, "is_reserved": 0, "is_disabled": 0, "fusion_lat": 0.0, "type": "electric_scooter", "name": "eae1236c273cbad1faa0a8fdc17c8aca", "lat": 38.90830366666667, "bike_id": "eae1236c273cbad1faa0a8fdc17c8aca"}, {"lon": -77.05028616666667, "rental_uris": {"android": "https://dc.lft.to/lastmile_qr_scan", "ios": "https://dc.lft.to/lastmile_qr_scan"}, "fusion_lon": 0.0, "is_reserved": 0, "is_disabled": 0, "fusion_lat": 0.0, "type": "electric_scooter", "name": "653fc5582abc7e0728e14261123b1efe", "lat": 38.8974225, "bike_id": "653fc5582abc7e0728e14261123b1efe"}, {"lon": -77.015504, "rental_uris": {"android": "https://dc.lft.to/lastmile_qr_scan", "ios": "https://dc.lft.to/lastmile_qr_scan"}, "fusion_lon": 0.0, "is_reserved": 0, "is_disabled": 0, "fusion_lat": 0.0, "type": "electric_scooter", "name": "68398414e96d2c0ef99919dd6ba69d6d", "lat": 38.891700166666666, "bike_id": "68398414e96d2c0ef99919dd6ba69d6d"}, {"lon": -76.98366083333333, "rental_uris": {"android": "https://dc.lft.to/lastmile_qr_scan", "ios": "https://dc.lft.to/lastmile_qr_scan"}, "fusion_lon": 0.0, "is_reserved": 0, "is_disabled": 0, "fusion_lat": 0.0, "type": "electric_scooter", "name": "6f6b73705d600b36c0896f9c6d99112b", "lat": 38.88994816666667, "bike_id": "6f6b73705d600b36c0896f9c6d99112b"}, {"lon": -77.04090216666667, "rental_uris": {"android": "https://dc.lft.to/lastmile_qr_scan", "ios": "https://dc.lft.to/lastmile_qr_scan"}, "fusion_lon": 0.0, "is_reserved": 0, "is_disabled": 0, "fusion_lat": 0.0, "type": "electric_scooter", "name": "a40a1ad3ff22161ceacac57465d47754", "lat": 38.9239115, "bike_id": "a40a1ad3ff22161ceacac57465d47754"}, {"lon": -77.01966733333333, "rental_uris": {"android": "https://dc.lft.to/lastmile_qr_scan", "ios": "https://dc.lft.to/lastmile_qr_scan"}, "fusion_lon": 0.0, "is_reserved": 0, "is_disabled": 0, "fusion_lat": 0.0, "type": "electric_scooter", "name": "03d29395abf25b2c457679988541db65", "lat": 38.922531166666666, "bike_id": "03d29395abf25b2c457679988541db65"}, {"lon": -77.04156616666667, "rental_uris": {"android": "https://dc.lft.to/lastmile_qr_scan", "ios": "https://dc.lft.to/lastmile_qr_scan"}, "fusion_lon": 0.0, "is_reserved": 0, "is_disabled": 0, "fusion_lat": 0.0, "type": "electric_scooter", "name": "95caac3ef9ed057c89c4be7358542699", "lat": 38.899379833333334, "bike_id": "95caac3ef9ed057c89c4be7358542699"}, {"lon": -77.05084583333333, "rental_uris": {"android": "https://dc.lft.to/lastmile_qr_scan", "ios": "https://dc.lft.to/lastmile_qr_scan"}, "fusion_lon": 0.0, "is_reserved": 0, "is_disabled": 0, "fusion_lat": 0.0, "type": "electric_scooter", "name": "b03801be84aa5dbb27c9d8237af49b7c", "lat": 38.923441333333336, "bike_id": "b03801be84aa5dbb27c9d8237af49b7c"}, {"lon": -77.00922783333333, "rental_uris": {"android": "https://dc.lft.to/lastmile_qr_scan", "ios": "https://dc.lft.to/lastmile_qr_scan"}, "fusion_lon": 0.0, "is_reserved": 0, "is_disabled": 0, "fusion_lat": 0.0, "type": "electric_scooter", "name": "a8f98955e921698184536f71368dfd20", "lat": 38.89589766666667, "bike_id": "a8f98955e921698184536f71368dfd20"}, {"lon": -77.06079666666666, "rental_uris": {"android": "https://dc.lft.to/lastmile_qr_scan", "ios": "https://dc.lft.to/lastmile_qr_scan"}, "fusion_lon": 0.0, "is_reserved": 0, "is_disabled": 0, "fusion_lat": 0.0, "type": "electric_scooter", "name": "8935baac3b7d5ab6af04e2912268617e", "lat": 38.90239733333333, "bike_id": "8935baac3b7d5ab6af04e2912268617e"}, {"lon": -77.03338483333333, "rental_uris": {"android": "https://dc.lft.to/lastmile_qr_scan", "ios": "https://dc.lft.to/lastmile_qr_scan"}, "fusion_lon": 0.0, "is_reserved": 0, "is_disabled": 0, "fusion_lat": 0.0, "type": "electric_scooter", "name": "bc561afb064d0711feadea3077224573", "lat": 38.909714666666666, "bike_id": "bc561afb064d0711feadea3077224573"}, {"lon": -77.03434283333333, "rental_uris": {"android": "https://dc.lft.to/lastmile_qr_scan", "ios": "https://dc.lft.to/lastmile_qr_scan"}, "fusion_lon": 0.0, "is_reserved": 0, "is_disabled": 0, "fusion_lat": 0.0, "type": "electric_scooter", "name": "bf8e0e47953e5f85f2ec50af3a5ea6fe", "lat": 38.909590333333334, "bike_id": "bf8e0e47953e5f85f2ec50af3a5ea6fe"}, {"lon": -77.01372916666666, "rental_uris": {"android": "https://dc.lft.to/lastmile_qr_scan", "ios": "https://dc.lft.to/lastmile_qr_scan"}, "fusion_lon": 0.0, "is_reserved": 0, "is_disabled": 0, "fusion_lat": 0.0, "type": "electric_scooter", "name": "b271a8ebd493bb4e78fba0f8257e1acf", "lat": 38.896357333333334, "bike_id": "b271a8ebd493bb4e78fba0f8257e1acf"}, {"lon": -77.05516833333333, "rental_uris": {"android": "https://dc.lft.to/lastmile_qr_scan", "ios": "https://dc.lft.to/lastmile_qr_scan"}, "fusion_lon": 0.0, "is_reserved": 0, "is_disabled": 0, "fusion_lat": 0.0, "type": "electric_bike", "name": "77e8446403d4e04489aca91903b49baa", "lat": 38.944064166666664, "bike_id": "77e8446403d4e04489aca91903b49baa"}, {"lon": -77.06357183333333, "rental_uris": {"android": "https://dc.lft.to/lastmile_qr_scan", "ios": "https://dc.lft.to/lastmile_qr_scan"}, "fusion_lon": 0.0, "is_reserved": 0, "is_disabled": 0, "fusion_lat": 0.0, "type": "electric_scooter", "name": "3c097f3d6226c641352e9de4c70e9493", "lat": 38.90825733333333, "bike_id": "3c097f3d6226c641352e9de4c70e9493"}, {"lon": -76.99812616666667, "rental_uris": {"android": "https://dc.lft.to/lastmile_qr_scan", "ios": "https://dc.lft.to/lastmile_qr_scan"}, "fusion_lon": 0.0, "is_reserved": 0, "is_disabled": 0, "fusion_lat": 0.0, "type": "electric_bike", "name": "09ddb8ceb9b4eb029c9004b49a56c3a4", "lat": 38.81979583333333, "bike_id": "09ddb8ceb9b4eb029c9004b49a56c3a4"}, {"lon": -77.03437216666667, "rental_uris": {"android": "https://dc.lft.to/lastmile_qr_scan", "ios": "https://dc.lft.to/lastmile_qr_scan"}, "fusion_lon": 0.0, "is_reserved": 0, "is_disabled": 0, "fusion_lat": 0.0, "type": "electric_scooter", "name": "e121c341c6d4f42af2e2e64fd7a2a941", "lat": 38.909445833333336, "bike_id": "e121c341c6d4f42af2e2e64fd7a2a941"}, {"lon": -77.03221233333333, "rental_uris": {"android": "https://dc.lft.to/lastmile_qr_scan", "ios": "https://dc.lft.to/lastmile_qr_scan"}, "fusion_lon": 0.0, "is_reserved": 0, "is_disabled": 0, "fusion_lat": 0.0, "type": "electric_scooter", "name": "faf2c30791934eec53b53a5c4d328d15", "lat": 38.900105833333335, "bike_id": "faf2c30791934eec53b53a5c4d328d15"}, {"lon": -76.98983433333333, "rental_uris": {"android": "https://dc.lft.to/lastmile_qr_scan", "ios": "https://dc.lft.to/lastmile_qr_scan"}, "fusion_lon": 0.0, "is_reserved": 0, "is_disabled": 0, "fusion_lat": 0.0, "type": "electric_scooter", "name": "545d317361b0ef5d91503898b1329257", "lat": 38.92447416666667, "bike_id": "545d317361b0ef5d91503898b1329257"}, {"lon": -77.02978416666667, "rental_uris": {"android": "https://dc.lft.to/lastmile_qr_scan", "ios": "https://dc.lft.to/lastmile_qr_scan"}, "fusion_lon": 0.0, "is_reserved": 0, "is_disabled": 0, "fusion_lat": 0.0, "type": "electric_scooter", "name": "cd7e14a705a027482936c11f569c1bd9", "lat": 38.92251783333333, "bike_id": "cd7e14a705a027482936c11f569c1bd9"}, {"lon": -77.05265783333333, "rental_uris": {"android": "https://dc.lft.to/lastmile_qr_scan", "ios": "https://dc.lft.to/lastmile_qr_scan"}, "fusion_lon": 0.0, "is_reserved": 0, "is_disabled": 0, "fusion_lat": 0.0, "type": "electric_scooter", "name": "537a1bb8e6c5c01792e219cb517fc101", "lat": 38.92759233333334, "bike_id": "537a1bb8e6c5c01792e219cb517fc101"}, {"lon": -76.98769833333333, "rental_uris": {"android": "https://dc.lft.to/lastmile_qr_scan", "ios": "https://dc.lft.to/lastmile_qr_scan"}, "fusion_lon": 0.0, "is_reserved": 0, "is_disabled": 0, "fusion_lat": 0.0, "type": "electric_scooter", "name": "c2a93c468fb1ddb266dd3b6bf2b25f05", "lat": 38.911995, "bike_id": "c2a93c468fb1ddb266dd3b6bf2b25f05"}, {"lon": -76.99502166666667, "rental_uris": {"android": "https://dc.lft.to/lastmile_qr_scan", "ios": "https://dc.lft.to/lastmile_qr_scan"}, "fusion_lon": 0.0, "is_reserved": 0, "is_disabled": 0, "fusion_lat": 0.0, "type": "electric_scooter", "name": "82e5939b35372fb9372ab57f917f5731", "lat": 38.9046675, "bike_id": "82e5939b35372fb9372ab57f917f5731"}, {"lon": -77.019428, "rental_uris": {"android": "https://dc.lft.to/lastmile_qr_scan", "ios": "https://dc.lft.to/lastmile_qr_scan"}, "fusion_lon": 0.0, "is_reserved": 0, "is_disabled": 0, "fusion_lat": 0.0, "type": "electric_scooter", "name": "ad44c812696b09b311c815a406c57fa0", "lat": 38.92418983333334, "bike_id": "ad44c812696b09b311c815a406c57fa0"}, {"lon": -77.01221933333333, "rental_uris": {"android": "https://dc.lft.to/lastmile_qr_scan", "ios": "https://dc.lft.to/lastmile_qr_scan"}, "fusion_lon": 0.0, "is_reserved": 0, "is_disabled": 0, "fusion_lat": 0.0, "type": "electric_scooter", "name": "b9c57291814f0f5f094ed9df1961902f", "lat": 38.898209666666666, "bike_id": "b9c57291814f0f5f094ed9df1961902f"}, {"lon": -76.92659633333334, "rental_uris": {"android": "https://dc.lft.to/lastmile_qr_scan", "ios": "https://dc.lft.to/lastmile_qr_scan"}, "fusion_lon": 0.0, "is_reserved": 0, "is_disabled": 0, "fusion_lat": 0.0, "type": "electric_scooter", "name": "06269ff3390040de9fa7af131897d693", "lat": 38.8917395, "bike_id": "06269ff3390040de9fa7af131897d693"}, {"lon": -77.034399, "rental_uris": {"android": "https://dc.lft.to/lastmile_qr_scan", "ios": "https://dc.lft.to/lastmile_qr_scan"}, "fusion_lon": 0.0, "is_reserved": 0, "is_disabled": 0, "fusion_lat": 0.0, "type": "electric_scooter", "name": "791716519b61b7d1df2c4bc38ac71fdf", "lat": 38.902758166666665, "bike_id": "791716519b61b7d1df2c4bc38ac71fdf"}, {"lon": -77.04326016666667, "rental_uris": {"android": "https://dc.lft.to/lastmile_qr_scan", "ios": "https://dc.lft.to/lastmile_qr_scan"}, "fusion_lon": 0.0, "is_reserved": 0, "is_disabled": 0, "fusion_lat": 0.0, "type": "electric_scooter", "name": "37071d7d590cf268cb46162ba2c8d4fd", "lat": 38.8922175, "bike_id": "37071d7d590cf268cb46162ba2c8d4fd"}, {"lon": -77.01677566666666, "rental_uris": {"android": "https://dc.lft.to/lastmile_qr_scan", "ios": "https://dc.lft.to/lastmile_qr_scan"}, "fusion_lon": 0.0, "is_reserved": 0, "is_disabled": 0, "fusion_lat": 0.0, "type": "electric_scooter", "name": "d4ff5698ca39087861cb3486f69004c2", "lat": 38.9126055, "bike_id": "d4ff5698ca39087861cb3486f69004c2"}, {"lon": -77.04010666666667, "rental_uris": {"android": "https://dc.lft.to/lastmile_qr_scan", "ios": "https://dc.lft.to/lastmile_qr_scan"}, "fusion_lon": 0.0, "is_reserved": 0, "is_disabled": 0, "fusion_lat": 0.0, "type": "electric_scooter", "name": "4f27014eb6d5c81f346a952eff3c060d", "lat": 38.90338066666666, "bike_id": "4f27014eb6d5c81f346a952eff3c060d"}, {"lon": -77.000313, "rental_uris": {"android": "https://dc.lft.to/lastmile_qr_scan", "ios": "https://dc.lft.to/lastmile_qr_scan"}, "fusion_lon": 0.0, "is_reserved": 0, "is_disabled": 0, "fusion_lat": 0.0, "type": "electric_scooter", "name": "ea50253d4d87589852e4a7d80f5f52ca", "lat": 38.87488183333333, "bike_id": "ea50253d4d87589852e4a7d80f5f52ca"}, {"lon": -77.04152166666667, "rental_uris": {"android": "https://dc.lft.to/lastmile_qr_scan", "ios": "https://dc.lft.to/lastmile_qr_scan"}, "fusion_lon": 0.0, "is_reserved": 0, "is_disabled": 0, "fusion_lat": 0.0, "type": "electric_scooter", "name": "88aa68d42ea962b88af7b55747e947b3", "lat": 38.90028816666667, "bike_id": "88aa68d42ea962b88af7b55747e947b3"}, {"lon": -77.04749116666666, "rental_uris": {"android": "https://dc.lft.to/lastmile_qr_scan", "ios": "https://dc.lft.to/lastmile_qr_scan"}, "fusion_lon": 0.0, "is_reserved": 0, "is_disabled": 0, "fusion_lat": 0.0, "type": "electric_scooter", "name": "ef6477ca6c1f77dc57d2b20e9eace312", "lat": 38.89607683333333, "bike_id": "ef6477ca6c1f77dc57d2b20e9eace312"}, {"lon": -77.05033266666666, "rental_uris": {"android": "https://dc.lft.to/lastmile_qr_scan", "ios": "https://dc.lft.to/lastmile_qr_scan"}, "fusion_lon": 0.0, "is_reserved": 0, "is_disabled": 0, "fusion_lat": 0.0, "type": "electric_scooter", "name": "92da24ea716d083299a9706a33085ee5", "lat": 38.925171, "bike_id": "92da24ea716d083299a9706a33085ee5"}, {"lon": -77.00734266666667, "rental_uris": {"android": "https://dc.lft.to/lastmile_qr_scan", "ios": "https://dc.lft.to/lastmile_qr_scan"}, "fusion_lon": 0.0, "is_reserved": 0, "is_disabled": 0, "fusion_lat": 0.0, "type": "electric_scooter", "name": "81677994337a0bba06ea578157ad6ec3", "lat": 38.8783535, "bike_id": "81677994337a0bba06ea578157ad6ec3"}, {"lon": -77.03997933333333, "rental_uris": {"android": "https://dc.lft.to/lastmile_qr_scan", "ios": "https://dc.lft.to/lastmile_qr_scan"}, "fusion_lon": 0.0, "is_reserved": 0, "is_disabled": 0, "fusion_lat": 0.0, "type": "electric_scooter", "name": "1840a8c7b4ee042f6e44c4f78855070f", "lat": 38.93427666666667, "bike_id": "1840a8c7b4ee042f6e44c4f78855070f"}, {"lon": -77.06523916666667, "rental_uris": {"android": "https://dc.lft.to/lastmile_qr_scan", "ios": "https://dc.lft.to/lastmile_qr_scan"}, "fusion_lon": 0.0, "is_reserved": 0, "is_disabled": 0, "fusion_lat": 0.0, "type": "electric_scooter", "name": "c93fc76d09f2b9d51f94201faa3039e0", "lat": 38.92415316666667, "bike_id": "c93fc76d09f2b9d51f94201faa3039e0"}, {"lon": -77.01218166666666, "rental_uris": {"android": "https://dc.lft.to/lastmile_qr_scan", "ios": "https://dc.lft.to/lastmile_qr_scan"}, "fusion_lon": 0.0, "is_reserved": 0, "is_disabled": 0, "fusion_lat": 0.0, "type": "electric_scooter", "name": "5b22f8a22c5587d8f3dbb8a10b4e4377", "lat": 38.9203485, "bike_id": "5b22f8a22c5587d8f3dbb8a10b4e4377"}, {"lon": -77.0218555, "rental_uris": {"android": "https://dc.lft.to/lastmile_qr_scan", "ios": "https://dc.lft.to/lastmile_qr_scan"}, "fusion_lon": 0.0, "is_reserved": 0, "is_disabled": 0, "fusion_lat": 0.0, "type": "electric_scooter", "name": "4c21d30b89d37274fc541d241a3e58ef", "lat": 38.902005833333334, "bike_id": "4c21d30b89d37274fc541d241a3e58ef"}, {"lon": -77.0223865, "rental_uris": {"android": "https://dc.lft.to/lastmile_qr_scan", "ios": "https://dc.lft.to/lastmile_qr_scan"}, "fusion_lon": 0.0, "is_reserved": 0, "is_disabled": 0, "fusion_lat": 0.0, "type": "electric_bike", "name": "1c617f98ef9eea7d3a20a47e0ac24630", "lat": 38.964445833333336, "bike_id": "1c617f98ef9eea7d3a20a47e0ac24630"}, {"lon": -77.0316535, "rental_uris": {"android": "https://dc.lft.to/lastmile_qr_scan", "ios": "https://dc.lft.to/lastmile_qr_scan"}, "fusion_lon": 0.0, "is_reserved": 0, "is_disabled": 0, "fusion_lat": 0.0, "type": "electric_scooter", "name": "890f951448ec980cf4e8545098b79cef", "lat": 38.914165, "bike_id": "890f951448ec980cf4e8545098b79cef"}, {"lon": -77.06368683333334, "rental_uris": {"android": "https://dc.lft.to/lastmile_qr_scan", "ios": "https://dc.lft.to/lastmile_qr_scan"}, "fusion_lon": 0.0, "is_reserved": 0, "is_disabled": 0, "fusion_lat": 0.0, "type": "electric_scooter", "name": "154a41286463a880a282116de522e98d", "lat": 38.90817333333333, "bike_id": "154a41286463a880a282116de522e98d"}, {"lon": -77.0006255, "rental_uris": {"android": "https://dc.lft.to/lastmile_qr_scan", "ios": "https://dc.lft.to/lastmile_qr_scan"}, "fusion_lon": 0.0, "is_reserved": 0, "is_disabled": 0, "fusion_lat": 0.0, "type": "electric_scooter", "name": "61b398fcebece692200adb9fd966bd4c", "lat": 38.876895166666664, "bike_id": "61b398fcebece692200adb9fd966bd4c"}, {"lon": -77.09898533333333, "rental_uris": {"android": "https://dc.lft.to/lastmile_qr_scan", "ios": "https://dc.lft.to/lastmile_qr_scan"}, "fusion_lon": 0.0, "is_reserved": 0, "is_disabled": 0, "fusion_lat": 0.0, "type": "electric_bike", "name": "933e85522bf78b32b4564a02654bde89", "lat": 38.84858033333333, "bike_id": "933e85522bf78b32b4564a02654bde89"}, {"lon": -77.04156316666666, "rental_uris": {"android": "https://dc.lft.to/lastmile_qr_scan", "ios": "https://dc.lft.to/lastmile_qr_scan"}, "fusion_lon": 0.0, "is_reserved": 0, "is_disabled": 0, "fusion_lat": 0.0, "type": "electric_scooter", "name": "2b9780ba93204e2d836fb78624919d79", "lat": 38.934116, "bike_id": "2b9780ba93204e2d836fb78624919d79"}, {"lon": -77.0403855, "rental_uris": {"android": "https://dc.lft.to/lastmile_qr_scan", "ios": "https://dc.lft.to/lastmile_qr_scan"}, "fusion_lon": 0.0, "is_reserved": 0, "is_disabled": 0, "fusion_lat": 0.0, "type": "electric_scooter", "name": "d8983f81ba06b8d6b150a5c9e1fadd86", "lat": 38.90597066666667, "bike_id": "d8983f81ba06b8d6b150a5c9e1fadd86"}, {"lon": -77.04177866666667, "rental_uris": {"android": "https://dc.lft.to/lastmile_qr_scan", "ios": "https://dc.lft.to/lastmile_qr_scan"}, "fusion_lon": 0.0, "is_reserved": 0, "is_disabled": 0, "fusion_lat": 0.0, "type": "electric_scooter", "name": "ef32e386127f6e2602acb3d5cabf5068", "lat": 38.92181216666667, "bike_id": "ef32e386127f6e2602acb3d5cabf5068"}, {"lon": -77.01988766666666, "rental_uris": {"android": "https://dc.lft.to/lastmile_qr_scan", "ios": "https://dc.lft.to/lastmile_qr_scan"}, "fusion_lon": 0.0, "is_reserved": 0, "is_disabled": 0, "fusion_lat": 0.0, "type": "electric_scooter", "name": "9006b57b6f9cc622c3fa190296104e7a", "lat": 38.88655166666667, "bike_id": "9006b57b6f9cc622c3fa190296104e7a"}, {"lon": -77.05231366666666, "rental_uris": {"android": "https://dc.lft.to/lastmile_qr_scan", "ios": "https://dc.lft.to/lastmile_qr_scan"}, "fusion_lon": 0.0, "is_reserved": 0, "is_disabled": 0, "fusion_lat": 0.0, "type": "electric_scooter", "name": "8f10c8b84acc135c07cd047ca032af00", "lat": 38.924695166666666, "bike_id": "8f10c8b84acc135c07cd047ca032af00"}, {"lon": -77.0575565, "rental_uris": {"android": "https://dc.lft.to/lastmile_qr_scan", "ios": "https://dc.lft.to/lastmile_qr_scan"}, "fusion_lon": 0.0, "is_reserved": 0, "is_disabled": 0, "fusion_lat": 0.0, "type": "electric_scooter", "name": "04771d956150889d2e7e5ca9181ad1f1", "lat": 38.9242035, "bike_id": "04771d956150889d2e7e5ca9181ad1f1"}, {"lon": -76.9802875, "rental_uris": {"android": "https://dc.lft.to/lastmile_qr_scan", "ios": "https://dc.lft.to/lastmile_qr_scan"}, "fusion_lon": 0.0, "is_reserved": 0, "is_disabled": 0, "fusion_lat": 0.0, "type": "electric_scooter", "name": "d1cc8166171196bf036855d4c9efbb58", "lat": 38.91681483333333, "bike_id": "d1cc8166171196bf036855d4c9efbb58"}, {"lon": -77.03338933333333, "rental_uris": {"android": "https://dc.lft.to/lastmile_qr_scan", "ios": "https://dc.lft.to/lastmile_qr_scan"}, "fusion_lon": 0.0, "is_reserved": 0, "is_disabled": 0, "fusion_lat": 0.0, "type": "electric_scooter", "name": "95a7dd2247d7b03ceb27c292e23268c6", "lat": 38.8973075, "bike_id": "95a7dd2247d7b03ceb27c292e23268c6"}, {"lon": -77.04477466666667, "rental_uris": {"android": "https://dc.lft.to/lastmile_qr_scan", "ios": "https://dc.lft.to/lastmile_qr_scan"}, "fusion_lon": 0.0, "is_reserved": 0, "is_disabled": 0, "fusion_lat": 0.0, "type": "electric_scooter", "name": "ad6afc13363480b75f26ca52422d1aa3", "lat": 38.903254, "bike_id": "ad6afc13363480b75f26ca52422d1aa3"}, {"lon": -77.04468083333333, "rental_uris": {"android": "https://dc.lft.to/lastmile_qr_scan", "ios": "https://dc.lft.to/lastmile_qr_scan"}, "fusion_lon": 0.0, "is_reserved": 0, "is_disabled": 0, "fusion_lat": 0.0, "type": "electric_scooter", "name": "e06923968ee5a1ac11ebd9c76f4d5e10", "lat": 38.912574666666664, "bike_id": "e06923968ee5a1ac11ebd9c76f4d5e10"}, {"lon": -77.03149433333333, "rental_uris": {"android": "https://dc.lft.to/lastmile_qr_scan", "ios": "https://dc.lft.to/lastmile_qr_scan"}, "fusion_lon": 0.0, "is_reserved": 0, "is_disabled": 0, "fusion_lat": 0.0, "type": "electric_scooter", "name": "4c58dbbcf6a75ac87a77bfd5e48bc0e5", "lat": 38.91561883333333, "bike_id": "4c58dbbcf6a75ac87a77bfd5e48bc0e5"}, {"lon": -77.12974016666666, "rental_uris": {"android": "https://dc.lft.to/lastmile_qr_scan", "ios": "https://dc.lft.to/lastmile_qr_scan"}, "fusion_lon": 0.0, "is_reserved": 0, "is_disabled": 0, "fusion_lat": 0.0, "type": "electric_bike", "name": "3ec8c8c29638e37b652d3b1d84cb0315", "lat": 38.7998365, "bike_id": "3ec8c8c29638e37b652d3b1d84cb0315"}, {"lon": -77.08102716666667, "rental_uris": {"android": "https://dc.lft.to/lastmile_qr_scan", "ios": "https://dc.lft.to/lastmile_qr_scan"}, "fusion_lon": 0.0, "is_reserved": 0, "is_disabled": 0, "fusion_lat": 0.0, "type": "electric_bike", "name": "41b57a88884fcf7b245ce08428010c4a", "lat": 38.93031883333333, "bike_id": "41b57a88884fcf7b245ce08428010c4a"}, {"lon": -77.02887533333333, "rental_uris": {"android": "https://dc.lft.to/lastmile_qr_scan", "ios": "https://dc.lft.to/lastmile_qr_scan"}, "fusion_lon": 0.0, "is_reserved": 0, "is_disabled": 0, "fusion_lat": 0.0, "type": "electric_scooter", "name": "74cec71a51e84003f66437da80db7b86", "lat": 38.917102666666665, "bike_id": "74cec71a51e84003f66437da80db7b86"}, {"lon": -77.04350783333334, "rental_uris": {"android": "https://dc.lft.to/lastmile_qr_scan", "ios": "https://dc.lft.to/lastmile_qr_scan"}, "fusion_lon": 0.0, "is_reserved": 0, "is_disabled": 0, "fusion_lat": 0.0, "type": "electric_scooter", "name": "5b18dc916c14bdd4bba2819402800a6c", "lat": 38.9004245, "bike_id": "5b18dc916c14bdd4bba2819402800a6c"}, {"lon": -77.03143483333334, "rental_uris": {"android": "https://dc.lft.to/lastmile_qr_scan", "ios": "https://dc.lft.to/lastmile_qr_scan"}, "fusion_lon": 0.0, "is_reserved": 0, "is_disabled": 0, "fusion_lat": 0.0, "type": "electric_scooter", "name": "84a30c089ba2c7ea8a6ed68e4741b8d4", "lat": 38.94179833333333, "bike_id": "84a30c089ba2c7ea8a6ed68e4741b8d4"}, {"lon": -77.02776233333333, "rental_uris": {"android": "https://dc.lft.to/lastmile_qr_scan", "ios": "https://dc.lft.to/lastmile_qr_scan"}, "fusion_lon": 0.0, "is_reserved": 0, "is_disabled": 0, "fusion_lat": 0.0, "type": "electric_scooter", "name": "1641cb8ef1dcaab2c508ea15d06f3745", "lat": 38.9030785, "bike_id": "1641cb8ef1dcaab2c508ea15d06f3745"}, {"lon": -77.02664066666667, "rental_uris": {"android": "https://dc.lft.to/lastmile_qr_scan", "ios": "https://dc.lft.to/lastmile_qr_scan"}, "fusion_lon": 0.0, "is_reserved": 0, "is_disabled": 0, "fusion_lat": 0.0, "type": "electric_scooter", "name": "04938f337ebdb9a812773c23ffec4546", "lat": 38.89724966666667, "bike_id": "04938f337ebdb9a812773c23ffec4546"}, {"lon": -77.00672583333333, "rental_uris": {"android": "https://dc.lft.to/lastmile_qr_scan", "ios": "https://dc.lft.to/lastmile_qr_scan"}, "fusion_lon": 0.0, "is_reserved": 0, "is_disabled": 0, "fusion_lat": 0.0, "type": "electric_bike", "name": "c1be7c134b8a745163ae63be05eacfc5", "lat": 38.9451295, "bike_id": "c1be7c134b8a745163ae63be05eacfc5"}, {"lon": -77.0349695, "rental_uris": {"android": "https://dc.lft.to/lastmile_qr_scan", "ios": "https://dc.lft.to/lastmile_qr_scan"}, "fusion_lon": 0.0, "is_reserved": 0, "is_disabled": 0, "fusion_lat": 0.0, "type": "electric_scooter", "name": "399f255279848cb038bf5d41defb16c8", "lat": 38.931589833333334, "bike_id": "399f255279848cb038bf5d41defb16c8"}, {"lon": -77.00793583333333, "rental_uris": {"android": "https://dc.lft.to/lastmile_qr_scan", "ios": "https://dc.lft.to/lastmile_qr_scan"}, "fusion_lon": 0.0, "is_reserved": 0, "is_disabled": 0, "fusion_lat": 0.0, "type": "electric_bike", "name": "fd0dee7d194bf7af31c2991e2e28e435", "lat": 38.9492015, "bike_id": "fd0dee7d194bf7af31c2991e2e28e435"}, {"lon": -77.0391475, "rental_uris": {"android": "https://dc.lft.to/lastmile_qr_scan", "ios": "https://dc.lft.to/lastmile_qr_scan"}, "fusion_lon": 0.0, "is_reserved": 0, "is_disabled": 0, "fusion_lat": 0.0, "type": "electric_scooter", "name": "4c7efebbf5d2dd8bf6787b1b72ed2db0", "lat": 38.928749333333336, "bike_id": "4c7efebbf5d2dd8bf6787b1b72ed2db0"}, {"lon": -77.06378983333333, "rental_uris": {"android": "https://dc.lft.to/lastmile_qr_scan", "ios": "https://dc.lft.to/lastmile_qr_scan"}, "fusion_lon": 0.0, "is_reserved": 0, "is_disabled": 0, "fusion_lat": 0.0, "type": "electric_scooter", "name": "0024f1e6b21ecdb62c1e009aedf06f29", "lat": 38.90507483333333, "bike_id": "0024f1e6b21ecdb62c1e009aedf06f29"}, {"lon": -77.0297185, "rental_uris": {"android": "https://dc.lft.to/lastmile_qr_scan", "ios": "https://dc.lft.to/lastmile_qr_scan"}, "fusion_lon": 0.0, "is_reserved": 0, "is_disabled": 0, "fusion_lat": 0.0, "type": "electric_scooter", "name": "aa4170fc5bf267bdc03b3f6c87295d6a", "lat": 38.91683033333333, "bike_id": "aa4170fc5bf267bdc03b3f6c87295d6a"}, {"lon": -77.02845816666667, "rental_uris": {"android": "https://dc.lft.to/lastmile_qr_scan", "ios": "https://dc.lft.to/lastmile_qr_scan"}, "fusion_lon": 0.0, "is_reserved": 0, "is_disabled": 0, "fusion_lat": 0.0, "type": "electric_scooter", "name": "901521a565f715560d6dfadb668909a6", "lat": 38.887228666666665, "bike_id": "901521a565f715560d6dfadb668909a6"}, {"lon": -77.0019885, "rental_uris": {"android": "https://dc.lft.to/lastmile_qr_scan", "ios": "https://dc.lft.to/lastmile_qr_scan"}, "fusion_lon": 0.0, "is_reserved": 0, "is_disabled": 0, "fusion_lat": 0.0, "type": "electric_scooter", "name": "df0fd2762a552875694d989f569ab95b", "lat": 38.88678983333333, "bike_id": "df0fd2762a552875694d989f569ab95b"}, {"lon": -77.0266005, "rental_uris": {"android": "https://dc.lft.to/lastmile_qr_scan", "ios": "https://dc.lft.to/lastmile_qr_scan"}, "fusion_lon": 0.0, "is_reserved": 0, "is_disabled": 0, "fusion_lat": 0.0, "type": "electric_scooter", "name": "b63199a848eb58dfa6f88e8a92a649d0", "lat": 38.92176533333333, "bike_id": "b63199a848eb58dfa6f88e8a92a649d0"}, {"lon": -77.02215483333333, "rental_uris": {"android": "https://dc.lft.to/lastmile_qr_scan", "ios": "https://dc.lft.to/lastmile_qr_scan"}, "fusion_lon": 0.0, "is_reserved": 0, "is_disabled": 0, "fusion_lat": 0.0, "type": "electric_scooter", "name": "25948f33982f06108ef8a932c8c156fe", "lat": 38.899623166666665, "bike_id": "25948f33982f06108ef8a932c8c156fe"}, {"lon": -77.07341816666667, "rental_uris": {"android": "https://dc.lft.to/lastmile_qr_scan", "ios": "https://dc.lft.to/lastmile_qr_scan"}, "fusion_lon": 0.0, "is_reserved": 0, "is_disabled": 0, "fusion_lat": 0.0, "type": "electric_scooter", "name": "f76a5da2d17274ae2d6fe7fd181174e1", "lat": 38.93479083333333, "bike_id": "f76a5da2d17274ae2d6fe7fd181174e1"}, {"lon": -77.0419505, "rental_uris": {"android": "https://dc.lft.to/lastmile_qr_scan", "ios": "https://dc.lft.to/lastmile_qr_scan"}, "fusion_lon": 0.0, "is_reserved": 0, "is_disabled": 0, "fusion_lat": 0.0, "type": "electric_scooter", "name": "afb5acad7eda983181f529aeb57056c9", "lat": 38.92714016666667, "bike_id": "afb5acad7eda983181f529aeb57056c9"}, {"lon": -77.021521, "rental_uris": {"android": "https://dc.lft.to/lastmile_qr_scan", "ios": "https://dc.lft.to/lastmile_qr_scan"}, "fusion_lon": 0.0, "is_reserved": 0, "is_disabled": 0, "fusion_lat": 0.0, "type": "electric_scooter", "name": "0e5e6f9dd6443341bb3267ca2db76caf", "lat": 38.92456983333334, "bike_id": "0e5e6f9dd6443341bb3267ca2db76caf"}, {"lon": -77.02023466666667, "rental_uris": {"android": "https://dc.lft.to/lastmile_qr_scan", "ios": "https://dc.lft.to/lastmile_qr_scan"}, "fusion_lon": 0.0, "is_reserved": 0, "is_disabled": 0, "fusion_lat": 0.0, "type": "electric_scooter", "name": "25762013ae0c25bfd78211e911bc9f1c", "lat": 38.92443733333333, "bike_id": "25762013ae0c25bfd78211e911bc9f1c"}, {"lon": -77.04484083333334, "rental_uris": {"android": "https://dc.lft.to/lastmile_qr_scan", "ios": "https://dc.lft.to/lastmile_qr_scan"}, "fusion_lon": 0.0, "is_reserved": 0, "is_disabled": 0, "fusion_lat": 0.0, "type": "electric_scooter", "name": "d61a3c4ff4835207296c28dd23edee82", "lat": 38.911244333333336, "bike_id": "d61a3c4ff4835207296c28dd23edee82"}, {"lon": -77.03374483333333, "rental_uris": {"android": "https://dc.lft.to/lastmile_qr_scan", "ios": "https://dc.lft.to/lastmile_qr_scan"}, "fusion_lon": 0.0, "is_reserved": 0, "is_disabled": 0, "fusion_lat": 0.0, "type": "electric_scooter", "name": "028e8ced5e7084085e08f2999deee735", "lat": 38.90960666666667, "bike_id": "028e8ced5e7084085e08f2999deee735"}, {"lon": -77.07890966666666, "rental_uris": {"android": "https://dc.lft.to/lastmile_qr_scan", "ios": "https://dc.lft.to/lastmile_qr_scan"}, "fusion_lon": 0.0, "is_reserved": 0, "is_disabled": 0, "fusion_lat": 0.0, "type": "electric_bike", "name": "e2d627c3288e1dbd49b282f535bc4635", "lat": 38.84817016666667, "bike_id": "e2d627c3288e1dbd49b282f535bc4635"}, {"lon": -76.99224616666666, "rental_uris": {"android": "https://dc.lft.to/lastmile_qr_scan", "ios": "https://dc.lft.to/lastmile_qr_scan"}, "fusion_lon": 0.0, "is_reserved": 0, "is_disabled": 0, "fusion_lat": 0.0, "type": "electric_scooter", "name": "19bb10c489002809f1493f1a4347a32c", "lat": 38.86289383333333, "bike_id": "19bb10c489002809f1493f1a4347a32c"}, {"lon": -76.95549216666667, "rental_uris": {"android": "https://dc.lft.to/lastmile_qr_scan", "ios": "https://dc.lft.to/lastmile_qr_scan"}, "fusion_lon": 0.0, "is_reserved": 0, "is_disabled": 0, "fusion_lat": 0.0, "type": "electric_scooter", "name": "f74c799fe3bc1d818c2fd2b86958c132", "lat": 38.927398, "bike_id": "f74c799fe3bc1d818c2fd2b86958c132"}, {"lon": -77.02127383333334, "rental_uris": {"android": "https://dc.lft.to/lastmile_qr_scan", "ios": "https://dc.lft.to/lastmile_qr_scan"}, "fusion_lon": 0.0, "is_reserved": 0, "is_disabled": 0, "fusion_lat": 0.0, "type": "electric_scooter", "name": "fa52ad79ded7c3564f7207870b3c730d", "lat": 38.924364833333335, "bike_id": "fa52ad79ded7c3564f7207870b3c730d"}, {"lon": -77.07271483333334, "rental_uris": {"android": "https://dc.lft.to/lastmile_qr_scan", "ios": "https://dc.lft.to/lastmile_qr_scan"}, "fusion_lon": 0.0, "is_reserved": 0, "is_disabled": 0, "fusion_lat": 0.0, "type": "electric_scooter", "name": "569ae9c7e6b7bc6acd56c99127ea820c", "lat": 38.909183166666665, "bike_id": "569ae9c7e6b7bc6acd56c99127ea820c"}, {"lon": -76.99606016666667, "rental_uris": {"android": "https://dc.lft.to/lastmile_qr_scan", "ios": "https://dc.lft.to/lastmile_qr_scan"}, "fusion_lon": 0.0, "is_reserved": 0, "is_disabled": 0, "fusion_lat": 0.0, "type": "electric_scooter", "name": "827cfdd5275ede88b5f182283c5bdf26", "lat": 38.88257183333333, "bike_id": "827cfdd5275ede88b5f182283c5bdf26"}, {"lon": -77.05849216666667, "rental_uris": {"android": "https://dc.lft.to/lastmile_qr_scan", "ios": "https://dc.lft.to/lastmile_qr_scan"}, "fusion_lon": 0.0, "is_reserved": 0, "is_disabled": 0, "fusion_lat": 0.0, "type": "electric_scooter", "name": "2fea5582cd6a4e258c290c7ddf6bdce5", "lat": 38.90267883333333, "bike_id": "2fea5582cd6a4e258c290c7ddf6bdce5"}, {"lon": -77.0384495, "rental_uris": {"android": "https://dc.lft.to/lastmile_qr_scan", "ios": "https://dc.lft.to/lastmile_qr_scan"}, "fusion_lon": 0.0, "is_reserved": 0, "is_disabled": 0, "fusion_lat": 0.0, "type": "electric_scooter", "name": "4c423bf467cee1fbd94531ffbabda6ea", "lat": 38.90283816666667, "bike_id": "4c423bf467cee1fbd94531ffbabda6ea"}, {"lon": -77.01853866666667, "rental_uris": {"android": "https://dc.lft.to/lastmile_qr_scan", "ios": "https://dc.lft.to/lastmile_qr_scan"}, "fusion_lon": 0.0, "is_reserved": 0, "is_disabled": 0, "fusion_lat": 0.0, "type": "electric_scooter", "name": "b90be476cdef8936354f3cac396b79d9", "lat": 38.9488895, "bike_id": "b90be476cdef8936354f3cac396b79d9"}, {"lon": -77.04327566666667, "rental_uris": {"android": "https://dc.lft.to/lastmile_qr_scan", "ios": "https://dc.lft.to/lastmile_qr_scan"}, "fusion_lon": 0.0, "is_reserved": 0, "is_disabled": 0, "fusion_lat": 0.0, "type": "electric_scooter", "name": "a6896ce1d34dccdbabb712c1f970c84d", "lat": 38.89221716666667, "bike_id": "a6896ce1d34dccdbabb712c1f970c84d"}, {"lon": -77.03064933333333, "rental_uris": {"android": "https://dc.lft.to/lastmile_qr_scan", "ios": "https://dc.lft.to/lastmile_qr_scan"}, "fusion_lon": 0.0, "is_reserved": 0, "is_disabled": 0, "fusion_lat": 0.0, "type": "electric_scooter", "name": "fc0f711a57eec5cccd8a7e47eaacd327", "lat": 38.922486666666664, "bike_id": "fc0f711a57eec5cccd8a7e47eaacd327"}, {"lon": -76.9690965, "rental_uris": {"android": "https://dc.lft.to/lastmile_qr_scan", "ios": "https://dc.lft.to/lastmile_qr_scan"}, "fusion_lon": 0.0, "is_reserved": 0, "is_disabled": 0, "fusion_lat": 0.0, "type": "electric_bike", "name": "b0f7e3237bfc551811780ed342bfe32d", "lat": 38.846133333333334, "bike_id": "b0f7e3237bfc551811780ed342bfe32d"}, {"lon": -77.03327533333334, "rental_uris": {"android": "https://dc.lft.to/lastmile_qr_scan", "ios": "https://dc.lft.to/lastmile_qr_scan"}, "fusion_lon": 0.0, "is_reserved": 0, "is_disabled": 0, "fusion_lat": 0.0, "type": "electric_scooter", "name": "56da5571d7f19b713924716d5f1baae3", "lat": 38.9023245, "bike_id": "56da5571d7f19b713924716d5f1baae3"}, {"lon": -77.02098583333333, "rental_uris": {"android": "https://dc.lft.to/lastmile_qr_scan", "ios": "https://dc.lft.to/lastmile_qr_scan"}, "fusion_lon": 0.0, "is_reserved": 0, "is_disabled": 0, "fusion_lat": 0.0, "type": "electric_scooter", "name": "7e05b443b9c1bc7d9ad2b23b643df924", "lat": 38.89421383333333, "bike_id": "7e05b443b9c1bc7d9ad2b23b643df924"}, {"lon": -76.9859925, "rental_uris": {"android": "https://dc.lft.to/lastmile_qr_scan", "ios": "https://dc.lft.to/lastmile_qr_scan"}, "fusion_lon": 0.0, "is_reserved": 0, "is_disabled": 0, "fusion_lat": 0.0, "type": "electric_scooter", "name": "07a9ced5d581b4b2f86015edfdafe51f", "lat": 38.894725666666666, "bike_id": "07a9ced5d581b4b2f86015edfdafe51f"}, {"lon": -77.00584416666666, "rental_uris": {"android": "https://dc.lft.to/lastmile_qr_scan", "ios": "https://dc.lft.to/lastmile_qr_scan"}, "fusion_lon": 0.0, "is_reserved": 0, "is_disabled": 0, "fusion_lat": 0.0, "type": "electric_scooter", "name": "b499588f21df0978cc18363a3ab9939f", "lat": 38.8723285, "bike_id": "b499588f21df0978cc18363a3ab9939f"}, {"lon": -77.01844966666667, "rental_uris": {"android": "https://dc.lft.to/lastmile_qr_scan", "ios": "https://dc.lft.to/lastmile_qr_scan"}, "fusion_lon": 0.0, "is_reserved": 0, "is_disabled": 0, "fusion_lat": 0.0, "type": "electric_scooter", "name": "d2f995349a7b58f531a004134708bb32", "lat": 38.954297833333335, "bike_id": "d2f995349a7b58f531a004134708bb32"}, {"lon": -77.04887716666667, "rental_uris": {"android": "https://dc.lft.to/lastmile_qr_scan", "ios": "https://dc.lft.to/lastmile_qr_scan"}, "fusion_lon": 0.0, "is_reserved": 0, "is_disabled": 0, "fusion_lat": 0.0, "type": "electric_scooter", "name": "9f4c9fc492f6358be8ad48f9f4445c08", "lat": 38.899319166666665, "bike_id": "9f4c9fc492f6358be8ad48f9f4445c08"}, {"lon": -77.03862466666666, "rental_uris": {"android": "https://dc.lft.to/lastmile_qr_scan", "ios": "https://dc.lft.to/lastmile_qr_scan"}, "fusion_lon": 0.0, "is_reserved": 0, "is_disabled": 0, "fusion_lat": 0.0, "type": "electric_scooter", "name": "77a05fcf497899dfe48ab6667c2a35a4", "lat": 38.9028275, "bike_id": "77a05fcf497899dfe48ab6667c2a35a4"}, {"lon": -77.042366, "rental_uris": {"android": "https://dc.lft.to/lastmile_qr_scan", "ios": "https://dc.lft.to/lastmile_qr_scan"}, "fusion_lon": 0.0, "is_reserved": 0, "is_disabled": 0, "fusion_lat": 0.0, "type": "electric_scooter", "name": "7c3aaee2ab512e4f850d703c28d6ff1b", "lat": 38.9235695, "bike_id": "7c3aaee2ab512e4f850d703c28d6ff1b"}, {"lon": -77.04341883333333, "rental_uris": {"android": "https://dc.lft.to/lastmile_qr_scan", "ios": "https://dc.lft.to/lastmile_qr_scan"}, "fusion_lon": 0.0, "is_reserved": 0, "is_disabled": 0, "fusion_lat": 0.0, "type": "electric_scooter", "name": "4b2ebb3bb12ea7b866dbcd049d54aff0", "lat": 38.92145283333333, "bike_id": "4b2ebb3bb12ea7b866dbcd049d54aff0"}, {"lon": -77.0263855, "rental_uris": {"android": "https://dc.lft.to/lastmile_qr_scan", "ios": "https://dc.lft.to/lastmile_qr_scan"}, "fusion_lon": 0.0, "is_reserved": 0, "is_disabled": 0, "fusion_lat": 0.0, "type": "electric_scooter", "name": "97d0e32b05b8c551899973615f0ab856", "lat": 38.94106416666666, "bike_id": "97d0e32b05b8c551899973615f0ab856"}, {"lon": -77.041042, "rental_uris": {"android": "https://dc.lft.to/lastmile_qr_scan", "ios": "https://dc.lft.to/lastmile_qr_scan"}, "fusion_lon": 0.0, "is_reserved": 0, "is_disabled": 0, "fusion_lat": 0.0, "type": "electric_scooter", "name": "f978d325356323a515709845614e2a03", "lat": 38.89839633333333, "bike_id": "f978d325356323a515709845614e2a03"}, {"lon": -77.0778885, "rental_uris": {"android": "https://dc.lft.to/lastmile_qr_scan", "ios": "https://dc.lft.to/lastmile_qr_scan"}, "fusion_lon": 0.0, "is_reserved": 0, "is_disabled": 0, "fusion_lat": 0.0, "type": "electric_bike", "name": "21af4ad69e8e3f86187dea4346df7e11", "lat": 38.99496166666667, "bike_id": "21af4ad69e8e3f86187dea4346df7e11"}, {"lon": -77.01675483333334, "rental_uris": {"android": "https://dc.lft.to/lastmile_qr_scan", "ios": "https://dc.lft.to/lastmile_qr_scan"}, "fusion_lon": 0.0, "is_reserved": 0, "is_disabled": 0, "fusion_lat": 0.0, "type": "electric_scooter", "name": "5cc5e1f72866ecbc19dc25e60eee6df9", "lat": 38.9204055, "bike_id": "5cc5e1f72866ecbc19dc25e60eee6df9"}, {"lon": -76.9970745, "rental_uris": {"android": "https://dc.lft.to/lastmile_qr_scan", "ios": "https://dc.lft.to/lastmile_qr_scan"}, "fusion_lon": 0.0, "is_reserved": 0, "is_disabled": 0, "fusion_lat": 0.0, "type": "electric_scooter", "name": "3246f5c735e4cc6da5d5da8a875a8250", "lat": 38.90023516666667, "bike_id": "3246f5c735e4cc6da5d5da8a875a8250"}, {"lon": -77.01354416666666, "rental_uris": {"android": "https://dc.lft.to/lastmile_qr_scan", "ios": "https://dc.lft.to/lastmile_qr_scan"}, "fusion_lon": 0.0, "is_reserved": 0, "is_disabled": 0, "fusion_lat": 0.0, "type": "electric_scooter", "name": "b41b8671e17edf2b968d576e4700dc10", "lat": 38.9421355, "bike_id": "b41b8671e17edf2b968d576e4700dc10"}, {"lon": -77.0282605, "rental_uris": {"android": "https://dc.lft.to/lastmile_qr_scan", "ios": "https://dc.lft.to/lastmile_qr_scan"}, "fusion_lon": 0.0, "is_reserved": 0, "is_disabled": 0, "fusion_lat": 0.0, "type": "electric_scooter", "name": "5140f6bec69d42dd7ec2009b06100c21", "lat": 38.898037333333335, "bike_id": "5140f6bec69d42dd7ec2009b06100c21"}, {"lon": -77.03011616666667, "rental_uris": {"android": "https://dc.lft.to/lastmile_qr_scan", "ios": "https://dc.lft.to/lastmile_qr_scan"}, "fusion_lon": 0.0, "is_reserved": 0, "is_disabled": 0, "fusion_lat": 0.0, "type": "electric_bike", "name": "4e01d6adee0d21afccad57b1d7568290", "lat": 38.89569266666667, "bike_id": "4e01d6adee0d21afccad57b1d7568290"}, {"lon": -77.03297616666667, "rental_uris": {"android": "https://dc.lft.to/lastmile_qr_scan", "ios": "https://dc.lft.to/lastmile_qr_scan"}, "fusion_lon": 0.0, "is_reserved": 0, "is_disabled": 0, "fusion_lat": 0.0, "type": "electric_scooter", "name": "8303ccaf54915d597f6500fd1f9e9a28", "lat": 38.92760166666667, "bike_id": "8303ccaf54915d597f6500fd1f9e9a28"}, {"lon": -77.00597833333333, "rental_uris": {"android": "https://dc.lft.to/lastmile_qr_scan", "ios": "https://dc.lft.to/lastmile_qr_scan"}, "fusion_lon": 0.0, "is_reserved": 0, "is_disabled": 0, "fusion_lat": 0.0, "type": "electric_scooter", "name": "5bad046e4a5393d6a1a946ca5e8b82f3", "lat": 38.9047935, "bike_id": "5bad046e4a5393d6a1a946ca5e8b82f3"}, {"lon": -76.98670283333334, "rental_uris": {"android": "https://dc.lft.to/lastmile_qr_scan", "ios": "https://dc.lft.to/lastmile_qr_scan"}, "fusion_lon": 0.0, "is_reserved": 0, "is_disabled": 0, "fusion_lat": 0.0, "type": "electric_bike", "name": "aab096acd5bbc96dee606e3240398671", "lat": 38.8351475, "bike_id": "aab096acd5bbc96dee606e3240398671"}, {"lon": -77.04169666666667, "rental_uris": {"android": "https://dc.lft.to/lastmile_qr_scan", "ios": "https://dc.lft.to/lastmile_qr_scan"}, "fusion_lon": 0.0, "is_reserved": 0, "is_disabled": 0, "fusion_lat": 0.0, "type": "electric_scooter", "name": "96418d0ae9a771be30a318ed05d51787", "lat": 38.905229166666665, "bike_id": "96418d0ae9a771be30a318ed05d51787"}, {"lon": -77.039995, "rental_uris": {"android": "https://dc.lft.to/lastmile_qr_scan", "ios": "https://dc.lft.to/lastmile_qr_scan"}, "fusion_lon": 0.0, "is_reserved": 0, "is_disabled": 0, "fusion_lat": 0.0, "type": "electric_scooter", "name": "536b44c798f9be50d8b88da2c751c12d", "lat": 38.93427483333333, "bike_id": "536b44c798f9be50d8b88da2c751c12d"}, {"lon": -76.95433866666667, "rental_uris": {"android": "https://dc.lft.to/lastmile_qr_scan", "ios": "https://dc.lft.to/lastmile_qr_scan"}, "fusion_lon": 0.0, "is_reserved": 0, "is_disabled": 0, "fusion_lat": 0.0, "type": "electric_scooter", "name": "eeb21f405d6623bf9008e1d3cf7cb9c3", "lat": 38.89005316666667, "bike_id": "eeb21f405d6623bf9008e1d3cf7cb9c3"}, {"lon": -77.0318655, "rental_uris": {"android": "https://dc.lft.to/lastmile_qr_scan", "ios": "https://dc.lft.to/lastmile_qr_scan"}, "fusion_lon": 0.0, "is_reserved": 0, "is_disabled": 0, "fusion_lat": 0.0, "type": "electric_scooter", "name": "fc31f74a32328268983f66c374e98671", "lat": 38.903795, "bike_id": "fc31f74a32328268983f66c374e98671"}, {"lon": -77.032828, "rental_uris": {"android": "https://dc.lft.to/lastmile_qr_scan", "ios": "https://dc.lft.to/lastmile_qr_scan"}, "fusion_lon": 0.0, "is_reserved": 0, "is_disabled": 0, "fusion_lat": 0.0, "type": "electric_scooter", "name": "ce236b0c8cba99c0a57b53a370258bd9", "lat": 38.89892066666667, "bike_id": "ce236b0c8cba99c0a57b53a370258bd9"}, {"lon": -77.03464466666667, "rental_uris": {"android": "https://dc.lft.to/lastmile_qr_scan", "ios": "https://dc.lft.to/lastmile_qr_scan"}, "fusion_lon": 0.0, "is_reserved": 0, "is_disabled": 0, "fusion_lat": 0.0, "type": "electric_scooter", "name": "4aff0c96970b8743f7f14c014a2b6745", "lat": 38.90876633333333, "bike_id": "4aff0c96970b8743f7f14c014a2b6745"}, {"lon": -77.01948816666666, "rental_uris": {"android": "https://dc.lft.to/lastmile_qr_scan", "ios": "https://dc.lft.to/lastmile_qr_scan"}, "fusion_lon": 0.0, "is_reserved": 0, "is_disabled": 0, "fusion_lat": 0.0, "type": "electric_scooter", "name": "524d35fdfe82099d08fd4d9c5e8946c1", "lat": 38.922504333333336, "bike_id": "524d35fdfe82099d08fd4d9c5e8946c1"}, {"lon": -77.01830416666667, "rental_uris": {"android": "https://dc.lft.to/lastmile_qr_scan", "ios": "https://dc.lft.to/lastmile_qr_scan"}, "fusion_lon": 0.0, "is_reserved": 0, "is_disabled": 0, "fusion_lat": 0.0, "type": "electric_scooter", "name": "3ab0fc025592b446372acd7d50b976d6", "lat": 38.92134866666667, "bike_id": "3ab0fc025592b446372acd7d50b976d6"}, {"lon": -77.03476116666667, "rental_uris": {"android": "https://dc.lft.to/lastmile_qr_scan", "ios": "https://dc.lft.to/lastmile_qr_scan"}, "fusion_lon": 0.0, "is_reserved": 0, "is_disabled": 0, "fusion_lat": 0.0, "type": "electric_scooter", "name": "1dd5654c5b0ba87990b8e4bfcabb9ac3", "lat": 38.902324166666666, "bike_id": "1dd5654c5b0ba87990b8e4bfcabb9ac3"}, {"lon": -77.00273266666666, "rental_uris": {"android": "https://dc.lft.to/lastmile_qr_scan", "ios": "https://dc.lft.to/lastmile_qr_scan"}, "fusion_lon": 0.0, "is_reserved": 0, "is_disabled": 0, "fusion_lat": 0.0, "type": "electric_scooter", "name": "63442169e86f9f81ac72cd5422bd8598", "lat": 38.952329666666664, "bike_id": "63442169e86f9f81ac72cd5422bd8598"}, {"lon": -77.03864016666667, "rental_uris": {"android": "https://dc.lft.to/lastmile_qr_scan", "ios": "https://dc.lft.to/lastmile_qr_scan"}, "fusion_lon": 0.0, "is_reserved": 0, "is_disabled": 0, "fusion_lat": 0.0, "type": "electric_scooter", "name": "524f167749e089523740d1ed4fe0ca87", "lat": 38.90330133333333, "bike_id": "524f167749e089523740d1ed4fe0ca87"}, {"lon": -77.04115466666667, "rental_uris": {"android": "https://dc.lft.to/lastmile_qr_scan", "ios": "https://dc.lft.to/lastmile_qr_scan"}, "fusion_lon": 0.0, "is_reserved": 0, "is_disabled": 0, "fusion_lat": 0.0, "type": "electric_scooter", "name": "5065aca216a88ee84c7d1442b7be922c", "lat": 38.898283666666664, "bike_id": "5065aca216a88ee84c7d1442b7be922c"}, {"lon": -77.03565383333333, "rental_uris": {"android": "https://dc.lft.to/lastmile_qr_scan", "ios": "https://dc.lft.to/lastmile_qr_scan"}, "fusion_lon": 0.0, "is_reserved": 0, "is_disabled": 0, "fusion_lat": 0.0, "type": "electric_bike", "name": "7789c4a3c1949e44486c035ecb4db55c", "lat": 38.96466366666667, "bike_id": "7789c4a3c1949e44486c035ecb4db55c"}, {"lon": -77.038587, "rental_uris": {"android": "https://dc.lft.to/lastmile_qr_scan", "ios": "https://dc.lft.to/lastmile_qr_scan"}, "fusion_lon": 0.0, "is_reserved": 0, "is_disabled": 0, "fusion_lat": 0.0, "type": "electric_scooter", "name": "626c5339434728c68a2cbe98654e3a90", "lat": 38.925528, "bike_id": "626c5339434728c68a2cbe98654e3a90"}, {"lon": -77.035077, "rental_uris": {"android": "https://dc.lft.to/lastmile_qr_scan", "ios": "https://dc.lft.to/lastmile_qr_scan"}, "fusion_lon": 0.0, "is_reserved": 0, "is_disabled": 0, "fusion_lat": 0.0, "type": "electric_scooter", "name": "fc9fc946becc13ff31989f47532e5c17", "lat": 38.926320833333335, "bike_id": "fc9fc946becc13ff31989f47532e5c17"}, {"lon": -76.99076116666667, "rental_uris": {"android": "https://dc.lft.to/lastmile_qr_scan", "ios": "https://dc.lft.to/lastmile_qr_scan"}, "fusion_lon": 0.0, "is_reserved": 0, "is_disabled": 0, "fusion_lat": 0.0, "type": "electric_bike", "name": "5d46cbd2ed9e794f72ff39f64a5af052", "lat": 38.8980905, "bike_id": "5d46cbd2ed9e794f72ff39f64a5af052"}, {"lon": -77.02656066666667, "rental_uris": {"android": "https://dc.lft.to/lastmile_qr_scan", "ios": "https://dc.lft.to/lastmile_qr_scan"}, "fusion_lon": 0.0, "is_reserved": 0, "is_disabled": 0, "fusion_lat": 0.0, "type": "electric_scooter", "name": "bc4ca297920765e28e79342c15e63b21", "lat": 38.905728833333335, "bike_id": "bc4ca297920765e28e79342c15e63b21"}, {"lon": -77.0435835, "rental_uris": {"android": "https://dc.lft.to/lastmile_qr_scan", "ios": "https://dc.lft.to/lastmile_qr_scan"}, "fusion_lon": 0.0, "is_reserved": 0, "is_disabled": 0, "fusion_lat": 0.0, "type": "electric_scooter", "name": "509af0048d2880b207e6754aaa21a12a", "lat": 38.905985, "bike_id": "509af0048d2880b207e6754aaa21a12a"}, {"lon": -77.00599933333334, "rental_uris": {"android": "https://dc.lft.to/lastmile_qr_scan", "ios": "https://dc.lft.to/lastmile_qr_scan"}, "fusion_lon": 0.0, "is_reserved": 0, "is_disabled": 0, "fusion_lat": 0.0, "type": "electric_scooter", "name": "78d45ede5dab587a66a6f0b4dde615a2", "lat": 38.91117416666667, "bike_id": "78d45ede5dab587a66a6f0b4dde615a2"}, {"lon": -77.00696633333334, "rental_uris": {"android": "https://dc.lft.to/lastmile_qr_scan", "ios": "https://dc.lft.to/lastmile_qr_scan"}, "fusion_lon": 0.0, "is_reserved": 0, "is_disabled": 0, "fusion_lat": 0.0, "type": "electric_scooter", "name": "97301db05d721c67f81f17fb44b652c9", "lat": 38.915496166666664, "bike_id": "97301db05d721c67f81f17fb44b652c9"}, {"lon": -77.03400433333333, "rental_uris": {"android": "https://dc.lft.to/lastmile_qr_scan", "ios": "https://dc.lft.to/lastmile_qr_scan"}, "fusion_lon": 0.0, "is_reserved": 0, "is_disabled": 0, "fusion_lat": 0.0, "type": "electric_scooter", "name": "d695cf949ac28c78fab70764a404a618", "lat": 38.9027185, "bike_id": "d695cf949ac28c78fab70764a404a618"}, {"lon": -77.04051216666667, "rental_uris": {"android": "https://dc.lft.to/lastmile_qr_scan", "ios": "https://dc.lft.to/lastmile_qr_scan"}, "fusion_lon": 0.0, "is_reserved": 0, "is_disabled": 0, "fusion_lat": 0.0, "type": "electric_scooter", "name": "c56c6f8b9a1fa5b9a75141438641c0b1", "lat": 38.92794833333333, "bike_id": "c56c6f8b9a1fa5b9a75141438641c0b1"}, {"lon": -77.0066355, "rental_uris": {"android": "https://dc.lft.to/lastmile_qr_scan", "ios": "https://dc.lft.to/lastmile_qr_scan"}, "fusion_lon": 0.0, "is_reserved": 0, "is_disabled": 0, "fusion_lat": 0.0, "type": "electric_scooter", "name": "59c439f2556ffd6c2ab07504bcf3141c", "lat": 38.90084316666667, "bike_id": "59c439f2556ffd6c2ab07504bcf3141c"}, {"lon": -77.01839416666667, "rental_uris": {"android": "https://dc.lft.to/lastmile_qr_scan", "ios": "https://dc.lft.to/lastmile_qr_scan"}, "fusion_lon": 0.0, "is_reserved": 0, "is_disabled": 0, "fusion_lat": 0.0, "type": "electric_scooter", "name": "cac9b3567e5ef3336d07184ec19b3e68", "lat": 38.9226325, "bike_id": "cac9b3567e5ef3336d07184ec19b3e68"}, {"lon": -77.04890616666667, "rental_uris": {"android": "https://dc.lft.to/lastmile_qr_scan", "ios": "https://dc.lft.to/lastmile_qr_scan"}, "fusion_lon": 0.0, "is_reserved": 0, "is_disabled": 0, "fusion_lat": 0.0, "type": "electric_scooter", "name": "df09382f9aa55d2c8bebcdd469927128", "lat": 38.90047966666667, "bike_id": "df09382f9aa55d2c8bebcdd469927128"}, {"lon": -77.03588283333333, "rental_uris": {"android": "https://dc.lft.to/lastmile_qr_scan", "ios": "https://dc.lft.to/lastmile_qr_scan"}, "fusion_lon": 0.0, "is_reserved": 0, "is_disabled": 0, "fusion_lat": 0.0, "type": "electric_scooter", "name": "88a038144776b5da749874daf8fb0781", "lat": 38.90747833333333, "bike_id": "88a038144776b5da749874daf8fb0781"}, {"lon": -76.9742195, "rental_uris": {"android": "https://dc.lft.to/lastmile_qr_scan", "ios": "https://dc.lft.to/lastmile_qr_scan"}, "fusion_lon": 0.0, "is_reserved": 0, "is_disabled": 0, "fusion_lat": 0.0, "type": "electric_scooter", "name": "1c2d78dccd065c1164eb97a4462288ee", "lat": 38.902079, "bike_id": "1c2d78dccd065c1164eb97a4462288ee"}, {"lon": -77.038673, "rental_uris": {"android": "https://dc.lft.to/lastmile_qr_scan", "ios": "https://dc.lft.to/lastmile_qr_scan"}, "fusion_lon": 0.0, "is_reserved": 0, "is_disabled": 0, "fusion_lat": 0.0, "type": "electric_scooter", "name": "4e359abd88d0ffcf2f9433a701a9bef1", "lat": 38.90656333333333, "bike_id": "4e359abd88d0ffcf2f9433a701a9bef1"}, {"lon": -77.01474066666667, "rental_uris": {"android": "https://dc.lft.to/lastmile_qr_scan", "ios": "https://dc.lft.to/lastmile_qr_scan"}, "fusion_lon": 0.0, "is_reserved": 0, "is_disabled": 0, "fusion_lat": 0.0, "type": "electric_scooter", "name": "7d7a506be0ce9e86eabfb0d133bb81d1", "lat": 38.915967, "bike_id": "7d7a506be0ce9e86eabfb0d133bb81d1"}, {"lon": -76.9829175, "rental_uris": {"android": "https://dc.lft.to/lastmile_qr_scan", "ios": "https://dc.lft.to/lastmile_qr_scan"}, "fusion_lon": 0.0, "is_reserved": 0, "is_disabled": 0, "fusion_lat": 0.0, "type": "electric_scooter", "name": "aa243577ab6eef0ccbf642b61deaf030", "lat": 38.88768366666667, "bike_id": "aa243577ab6eef0ccbf642b61deaf030"}, {"lon": -77.02802383333334, "rental_uris": {"android": "https://dc.lft.to/lastmile_qr_scan", "ios": "https://dc.lft.to/lastmile_qr_scan"}, "fusion_lon": 0.0, "is_reserved": 0, "is_disabled": 0, "fusion_lat": 0.0, "type": "electric_scooter", "name": "a86e2b10bf0a40461bdd30df3590fb27", "lat": 38.9049345, "bike_id": "a86e2b10bf0a40461bdd30df3590fb27"}, {"lon": -77.04496333333333, "rental_uris": {"android": "https://dc.lft.to/lastmile_qr_scan", "ios": "https://dc.lft.to/lastmile_qr_scan"}, "fusion_lon": 0.0, "is_reserved": 0, "is_disabled": 0, "fusion_lat": 0.0, "type": "electric_scooter", "name": "e9f6615652f1f78caebfcee0e5bc8877", "lat": 38.8984015, "bike_id": "e9f6615652f1f78caebfcee0e5bc8877"}, {"lon": -77.04177633333333, "rental_uris": {"android": "https://dc.lft.to/lastmile_qr_scan", "ios": "https://dc.lft.to/lastmile_qr_scan"}, "fusion_lon": 0.0, "is_reserved": 0, "is_disabled": 0, "fusion_lat": 0.0, "type": "electric_scooter", "name": "0cb3afbbfde4d0dd2d701a002961b8cd", "lat": 38.898022, "bike_id": "0cb3afbbfde4d0dd2d701a002961b8cd"}, {"lon": -77.03264283333333, "rental_uris": {"android": "https://dc.lft.to/lastmile_qr_scan", "ios": "https://dc.lft.to/lastmile_qr_scan"}, "fusion_lon": 0.0, "is_reserved": 0, "is_disabled": 0, "fusion_lat": 0.0, "type": "electric_scooter", "name": "cc1e235d4a44ae7af8f4a0374bc9eee6", "lat": 38.929896166666666, "bike_id": "cc1e235d4a44ae7af8f4a0374bc9eee6"}, {"lon": -77.05002466666667, "rental_uris": {"android": "https://dc.lft.to/lastmile_qr_scan", "ios": "https://dc.lft.to/lastmile_qr_scan"}, "fusion_lon": 0.0, "is_reserved": 0, "is_disabled": 0, "fusion_lat": 0.0, "type": "electric_scooter", "name": "90cd25bb99bcaba3dda2fe5515abbc2c", "lat": 38.892298, "bike_id": "90cd25bb99bcaba3dda2fe5515abbc2c"}, {"lon": -77.00351333333333, "rental_uris": {"android": "https://dc.lft.to/lastmile_qr_scan", "ios": "https://dc.lft.to/lastmile_qr_scan"}, "fusion_lon": 0.0, "is_reserved": 0, "is_disabled": 0, "fusion_lat": 0.0, "type": "electric_scooter", "name": "097d7c47e05d7f62c134e18e3e64f03b", "lat": 38.896723, "bike_id": "097d7c47e05d7f62c134e18e3e64f03b"}, {"lon": -77.06414733333334, "rental_uris": {"android": "https://dc.lft.to/lastmile_qr_scan", "ios": "https://dc.lft.to/lastmile_qr_scan"}, "fusion_lon": 0.0, "is_reserved": 0, "is_disabled": 0, "fusion_lat": 0.0, "type": "electric_scooter", "name": "af61db3c05d300df425888ee0ccee390", "lat": 38.91398516666667, "bike_id": "af61db3c05d300df425888ee0ccee390"}, {"lon": -76.93869833333333, "rental_uris": {"android": "https://dc.lft.to/lastmile_qr_scan", "ios": "https://dc.lft.to/lastmile_qr_scan"}, "fusion_lon": 0.0, "is_reserved": 0, "is_disabled": 0, "fusion_lat": 0.0, "type": "electric_bike", "name": "0bb883f08b53d8040b77caf1142b9412", "lat": 38.95629183333333, "bike_id": "0bb883f08b53d8040b77caf1142b9412"}, {"lon": -77.024351, "rental_uris": {"android": "https://dc.lft.to/lastmile_qr_scan", "ios": "https://dc.lft.to/lastmile_qr_scan"}, "fusion_lon": 0.0, "is_reserved": 0, "is_disabled": 0, "fusion_lat": 0.0, "type": "electric_scooter", "name": "a96c607e0e3be1912f5b901ad96b5c7f", "lat": 38.89993116666667, "bike_id": "a96c607e0e3be1912f5b901ad96b5c7f"}, {"lon": -77.03544683333334, "rental_uris": {"android": "https://dc.lft.to/lastmile_qr_scan", "ios": "https://dc.lft.to/lastmile_qr_scan"}, "fusion_lon": 0.0, "is_reserved": 0, "is_disabled": 0, "fusion_lat": 0.0, "type": "electric_scooter", "name": "cb2da00400ff98d98e811a488c2bd0ef", "lat": 38.932886833333335, "bike_id": "cb2da00400ff98d98e811a488c2bd0ef"}, {"lon": -77.03587066666667, "rental_uris": {"android": "https://dc.lft.to/lastmile_qr_scan", "ios": "https://dc.lft.to/lastmile_qr_scan"}, "fusion_lon": 0.0, "is_reserved": 0, "is_disabled": 0, "fusion_lat": 0.0, "type": "electric_scooter", "name": "a0a2567746b928961c866b626993650b", "lat": 38.90237466666667, "bike_id": "a0a2567746b928961c866b626993650b"}, {"lon": -77.0443465, "rental_uris": {"android": "https://dc.lft.to/lastmile_qr_scan", "ios": "https://dc.lft.to/lastmile_qr_scan"}, "fusion_lon": 0.0, "is_reserved": 0, "is_disabled": 0, "fusion_lat": 0.0, "type": "electric_scooter", "name": "d2f0577f3033a59a665c7df4945f7eb7", "lat": 38.905753, "bike_id": "d2f0577f3033a59a665c7df4945f7eb7"}, {"lon": -77.023713, "rental_uris": {"android": "https://dc.lft.to/lastmile_qr_scan", "ios": "https://dc.lft.to/lastmile_qr_scan"}, "fusion_lon": 0.0, "is_reserved": 0, "is_disabled": 0, "fusion_lat": 0.0, "type": "electric_scooter", "name": "02f06c9e26ebd2a16ff072079fca25f3", "lat": 38.902033333333335, "bike_id": "02f06c9e26ebd2a16ff072079fca25f3"}, {"lon": -77.0212655, "rental_uris": {"android": "https://dc.lft.to/lastmile_qr_scan", "ios": "https://dc.lft.to/lastmile_qr_scan"}, "fusion_lon": 0.0, "is_reserved": 0, "is_disabled": 0, "fusion_lat": 0.0, "type": "electric_scooter", "name": "af04bae2585fa267396ddc4666f76119", "lat": 38.92414816666667, "bike_id": "af04bae2585fa267396ddc4666f76119"}, {"lon": -77.03326633333333, "rental_uris": {"android": "https://dc.lft.to/lastmile_qr_scan", "ios": "https://dc.lft.to/lastmile_qr_scan"}, "fusion_lon": 0.0, "is_reserved": 0, "is_disabled": 0, "fusion_lat": 0.0, "type": "electric_scooter", "name": "593eb8292f6dafb0cc64ab4727cdbc37", "lat": 38.90121516666667, "bike_id": "593eb8292f6dafb0cc64ab4727cdbc37"}, {"lon": -77.064688, "rental_uris": {"android": "https://dc.lft.to/lastmile_qr_scan", "ios": "https://dc.lft.to/lastmile_qr_scan"}, "fusion_lon": 0.0, "is_reserved": 0, "is_disabled": 0, "fusion_lat": 0.0, "type": "electric_scooter", "name": "16c0b4c662f3d12f73efdfa596fe0eaa", "lat": 38.90512533333333, "bike_id": "16c0b4c662f3d12f73efdfa596fe0eaa"}, {"lon": -77.01209833333333, "rental_uris": {"android": "https://dc.lft.to/lastmile_qr_scan", "ios": "https://dc.lft.to/lastmile_qr_scan"}, "fusion_lon": 0.0, "is_reserved": 0, "is_disabled": 0, "fusion_lat": 0.0, "type": "electric_bike", "name": "bfc90eac0365b129acab27aeccca7990", "lat": 38.92122633333334, "bike_id": "bfc90eac0365b129acab27aeccca7990"}, {"lon": -77.047868, "rental_uris": {"android": "https://dc.lft.to/lastmile_qr_scan", "ios": "https://dc.lft.to/lastmile_qr_scan"}, "fusion_lon": 0.0, "is_reserved": 0, "is_disabled": 0, "fusion_lat": 0.0, "type": "electric_scooter", "name": "eaad600acd9aea777bef66a525dca1ed", "lat": 38.897654333333335, "bike_id": "eaad600acd9aea777bef66a525dca1ed"}, {"lon": -77.04180166666667, "rental_uris": {"android": "https://dc.lft.to/lastmile_qr_scan", "ios": "https://dc.lft.to/lastmile_qr_scan"}, "fusion_lon": 0.0, "is_reserved": 0, "is_disabled": 0, "fusion_lat": 0.0, "type": "electric_scooter", "name": "114d9e33088bc37d4a7f3599b16d3d48", "lat": 38.905315333333334, "bike_id": "114d9e33088bc37d4a7f3599b16d3d48"}, {"lon": -77.00920433333333, "rental_uris": {"android": "https://dc.lft.to/lastmile_qr_scan", "ios": "https://dc.lft.to/lastmile_qr_scan"}, "fusion_lon": 0.0, "is_reserved": 0, "is_disabled": 0, "fusion_lat": 0.0, "type": "electric_scooter", "name": "8ac236965991fc5548bdd90cf28add49", "lat": 38.89644033333333, "bike_id": "8ac236965991fc5548bdd90cf28add49"}, {"lon": -77.04651116666666, "rental_uris": {"android": "https://dc.lft.to/lastmile_qr_scan", "ios": "https://dc.lft.to/lastmile_qr_scan"}, "fusion_lon": 0.0, "is_reserved": 0, "is_disabled": 0, "fusion_lat": 0.0, "type": "electric_scooter", "name": "ae8e37861a0edb46ca8be760ea0ebf93", "lat": 38.89224866666667, "bike_id": "ae8e37861a0edb46ca8be760ea0ebf93"}, {"lon": -77.05175816666667, "rental_uris": {"android": "https://dc.lft.to/lastmile_qr_scan", "ios": "https://dc.lft.to/lastmile_qr_scan"}, "fusion_lon": 0.0, "is_reserved": 0, "is_disabled": 0, "fusion_lat": 0.0, "type": "electric_scooter", "name": "b2722dd825e3337430b09bed4767ffe1", "lat": 38.92343316666667, "bike_id": "b2722dd825e3337430b09bed4767ffe1"}, {"lon": -77.038602, "rental_uris": {"android": "https://dc.lft.to/lastmile_qr_scan", "ios": "https://dc.lft.to/lastmile_qr_scan"}, "fusion_lon": 0.0, "is_reserved": 0, "is_disabled": 0, "fusion_lat": 0.0, "type": "electric_scooter", "name": "cb0c37d670feeba6b9713d0bab5e9816", "lat": 38.906585666666665, "bike_id": "cb0c37d670feeba6b9713d0bab5e9816"}, {"lon": -77.025406, "rental_uris": {"android": "https://dc.lft.to/lastmile_qr_scan", "ios": "https://dc.lft.to/lastmile_qr_scan"}, "fusion_lon": 0.0, "is_reserved": 0, "is_disabled": 0, "fusion_lat": 0.0, "type": "electric_scooter", "name": "23fc3b46c87323ea81fa29db6370e108", "lat": 38.94092966666667, "bike_id": "23fc3b46c87323ea81fa29db6370e108"}, {"lon": -77.00067233333333, "rental_uris": {"android": "https://dc.lft.to/lastmile_qr_scan", "ios": "https://dc.lft.to/lastmile_qr_scan"}, "fusion_lon": 0.0, "is_reserved": 0, "is_disabled": 0, "fusion_lat": 0.0, "type": "electric_scooter", "name": "eb5998e7de4ad64151dc4861a9fd04d9", "lat": 38.87387283333333, "bike_id": "eb5998e7de4ad64151dc4861a9fd04d9"}, {"lon": -77.02625166666667, "rental_uris": {"android": "https://dc.lft.to/lastmile_qr_scan", "ios": "https://dc.lft.to/lastmile_qr_scan"}, "fusion_lon": 0.0, "is_reserved": 0, "is_disabled": 0, "fusion_lat": 0.0, "type": "electric_scooter", "name": "48a83d78d33521c5492ac7fb94903b38", "lat": 38.8843115, "bike_id": "48a83d78d33521c5492ac7fb94903b38"}, {"lon": -76.9907415, "rental_uris": {"android": "https://dc.lft.to/lastmile_qr_scan", "ios": "https://dc.lft.to/lastmile_qr_scan"}, "fusion_lon": 0.0, "is_reserved": 0, "is_disabled": 0, "fusion_lat": 0.0, "type": "electric_bike", "name": "e26d2aa8da0507b137c45b5c8c7f7d8d", "lat": 38.94264283333333, "bike_id": "e26d2aa8da0507b137c45b5c8c7f7d8d"}, {"lon": -76.9727955, "rental_uris": {"android": "https://dc.lft.to/lastmile_qr_scan", "ios": "https://dc.lft.to/lastmile_qr_scan"}, "fusion_lon": 0.0, "is_reserved": 0, "is_disabled": 0, "fusion_lat": 0.0, "type": "electric_scooter", "name": "e34313050e5dc9f001e6e6b1fd0bb33f", "lat": 38.91717916666666, "bike_id": "e34313050e5dc9f001e6e6b1fd0bb33f"}, {"lon": -77.02962183333334, "rental_uris": {"android": "https://dc.lft.to/lastmile_qr_scan", "ios": "https://dc.lft.to/lastmile_qr_scan"}, "fusion_lon": 0.0, "is_reserved": 0, "is_disabled": 0, "fusion_lat": 0.0, "type": "electric_scooter", "name": "47c1d6eff2942e2063c0748632927e42", "lat": 38.9168665, "bike_id": "47c1d6eff2942e2063c0748632927e42"}, {"lon": -77.02695883333334, "rental_uris": {"android": "https://dc.lft.to/lastmile_qr_scan", "ios": "https://dc.lft.to/lastmile_qr_scan"}, "fusion_lon": 0.0, "is_reserved": 0, "is_disabled": 0, "fusion_lat": 0.0, "type": "electric_scooter", "name": "9b211addd0545c93c596f7d8758c48ba", "lat": 38.923188333333336, "bike_id": "9b211addd0545c93c596f7d8758c48ba"}, {"lon": -77.0492895, "rental_uris": {"android": "https://dc.lft.to/lastmile_qr_scan", "ios": "https://dc.lft.to/lastmile_qr_scan"}, "fusion_lon": 0.0, "is_reserved": 0, "is_disabled": 0, "fusion_lat": 0.0, "type": "electric_scooter", "name": "dcbc7fce7e0d054659b7f2125949e2ef", "lat": 38.897387333333334, "bike_id": "dcbc7fce7e0d054659b7f2125949e2ef"}, {"lon": -77.02397683333334, "rental_uris": {"android": "https://dc.lft.to/lastmile_qr_scan", "ios": "https://dc.lft.to/lastmile_qr_scan"}, "fusion_lon": 0.0, "is_reserved": 0, "is_disabled": 0, "fusion_lat": 0.0, "type": "electric_scooter", "name": "c9eda28a7cfa0c9548d7292f475071b0", "lat": 38.9018855, "bike_id": "c9eda28a7cfa0c9548d7292f475071b0"}, {"lon": -76.99648833333333, "rental_uris": {"android": "https://dc.lft.to/lastmile_qr_scan", "ios": "https://dc.lft.to/lastmile_qr_scan"}, "fusion_lon": 0.0, "is_reserved": 0, "is_disabled": 0, "fusion_lat": 0.0, "type": "electric_scooter", "name": "f70c0dad89e1faf0fdd8e413eef10d17", "lat": 38.859836, "bike_id": "f70c0dad89e1faf0fdd8e413eef10d17"}, {"lon": -77.04550583333334, "rental_uris": {"android": "https://dc.lft.to/lastmile_qr_scan", "ios": "https://dc.lft.to/lastmile_qr_scan"}, "fusion_lon": 0.0, "is_reserved": 0, "is_disabled": 0, "fusion_lat": 0.0, "type": "electric_scooter", "name": "c5683e637221c04b3fec05f06a42d078", "lat": 38.89608616666666, "bike_id": "c5683e637221c04b3fec05f06a42d078"}, {"lon": -77.05755066666667, "rental_uris": {"android": "https://dc.lft.to/lastmile_qr_scan", "ios": "https://dc.lft.to/lastmile_qr_scan"}, "fusion_lon": 0.0, "is_reserved": 0, "is_disabled": 0, "fusion_lat": 0.0, "type": "electric_scooter", "name": "8fb85e9c8367148229b0913342f1242b", "lat": 38.933764, "bike_id": "8fb85e9c8367148229b0913342f1242b"}, {"lon": -77.03357966666667, "rental_uris": {"android": "https://dc.lft.to/lastmile_qr_scan", "ios": "https://dc.lft.to/lastmile_qr_scan"}, "fusion_lon": 0.0, "is_reserved": 0, "is_disabled": 0, "fusion_lat": 0.0, "type": "electric_scooter", "name": "695cbc50d76d89d38655c1a6228c24d8", "lat": 38.898104333333336, "bike_id": "695cbc50d76d89d38655c1a6228c24d8"}, {"lon": -77.02968783333333, "rental_uris": {"android": "https://dc.lft.to/lastmile_qr_scan", "ios": "https://dc.lft.to/lastmile_qr_scan"}, "fusion_lon": 0.0, "is_reserved": 0, "is_disabled": 0, "fusion_lat": 0.0, "type": "electric_scooter", "name": "d708a87c8737e877b5ab7cbb75c973ca", "lat": 38.921135166666666, "bike_id": "d708a87c8737e877b5ab7cbb75c973ca"}, {"lon": -77.0028945, "rental_uris": {"android": "https://dc.lft.to/lastmile_qr_scan", "ios": "https://dc.lft.to/lastmile_qr_scan"}, "fusion_lon": 0.0, "is_reserved": 0, "is_disabled": 0, "fusion_lat": 0.0, "type": "electric_scooter", "name": "4a6e419f123a8fb08f44bcd5400cde41", "lat": 38.876514, "bike_id": "4a6e419f123a8fb08f44bcd5400cde41"}, {"lon": -77.03806566666667, "rental_uris": {"android": "https://dc.lft.to/lastmile_qr_scan", "ios": "https://dc.lft.to/lastmile_qr_scan"}, "fusion_lon": 0.0, "is_reserved": 0, "is_disabled": 0, "fusion_lat": 0.0, "type": "electric_scooter", "name": "df650a9b94d954e67c4a893d6c656db3", "lat": 38.92316483333333, "bike_id": "df650a9b94d954e67c4a893d6c656db3"}, {"lon": -77.00163916666666, "rental_uris": {"android": "https://dc.lft.to/lastmile_qr_scan", "ios": "https://dc.lft.to/lastmile_qr_scan"}, "fusion_lon": 0.0, "is_reserved": 0, "is_disabled": 0, "fusion_lat": 0.0, "type": "electric_scooter", "name": "fa41a56e845a8b578989992d1ed40d7a", "lat": 38.9583415, "bike_id": "fa41a56e845a8b578989992d1ed40d7a"}, {"lon": -77.03937316666666, "rental_uris": {"android": "https://dc.lft.to/lastmile_qr_scan", "ios": "https://dc.lft.to/lastmile_qr_scan"}, "fusion_lon": 0.0, "is_reserved": 0, "is_disabled": 0, "fusion_lat": 0.0, "type": "electric_scooter", "name": "9aac3dff697068a7c2c08fb5ba0d5804", "lat": 38.90151016666667, "bike_id": "9aac3dff697068a7c2c08fb5ba0d5804"}, {"lon": -77.04269783333334, "rental_uris": {"android": "https://dc.lft.to/lastmile_qr_scan", "ios": "https://dc.lft.to/lastmile_qr_scan"}, "fusion_lon": 0.0, "is_reserved": 0, "is_disabled": 0, "fusion_lat": 0.0, "type": "electric_scooter", "name": "b7e3fe2f6122e882a368e42940f1e6e8", "lat": 38.92238433333333, "bike_id": "b7e3fe2f6122e882a368e42940f1e6e8"}, {"lon": -77.030175, "rental_uris": {"android": "https://dc.lft.to/lastmile_qr_scan", "ios": "https://dc.lft.to/lastmile_qr_scan"}, "fusion_lon": 0.0, "is_reserved": 0, "is_disabled": 0, "fusion_lat": 0.0, "type": "electric_scooter", "name": "c1f02f18e1c253dadc15076da2356d51", "lat": 38.9165205, "bike_id": "c1f02f18e1c253dadc15076da2356d51"}, {"lon": -77.01951716666666, "rental_uris": {"android": "https://dc.lft.to/lastmile_qr_scan", "ios": "https://dc.lft.to/lastmile_qr_scan"}, "fusion_lon": 0.0, "is_reserved": 0, "is_disabled": 0, "fusion_lat": 0.0, "type": "electric_scooter", "name": "13616fc87b51716987dc6f6feaa97403", "lat": 38.9224675, "bike_id": "13616fc87b51716987dc6f6feaa97403"}, {"lon": -77.010417, "rental_uris": {"android": "https://dc.lft.to/lastmile_qr_scan", "ios": "https://dc.lft.to/lastmile_qr_scan"}, "fusion_lon": 0.0, "is_reserved": 0, "is_disabled": 0, "fusion_lat": 0.0, "type": "electric_scooter", "name": "32e99fdcdd1a0159769b3d9405560dea", "lat": 38.897833166666665, "bike_id": "32e99fdcdd1a0159769b3d9405560dea"}, {"lon": -76.95754433333333, "rental_uris": {"android": "https://dc.lft.to/lastmile_qr_scan", "ios": "https://dc.lft.to/lastmile_qr_scan"}, "fusion_lon": 0.0, "is_reserved": 0, "is_disabled": 0, "fusion_lat": 0.0, "type": "electric_scooter", "name": "0c00beffdd231008b6522878cfd15250", "lat": 38.884312666666666, "bike_id": "0c00beffdd231008b6522878cfd15250"}, {"lon": -77.02382016666667, "rental_uris": {"android": "https://dc.lft.to/lastmile_qr_scan", "ios": "https://dc.lft.to/lastmile_qr_scan"}, "fusion_lon": 0.0, "is_reserved": 0, "is_disabled": 0, "fusion_lat": 0.0, "type": "electric_scooter", "name": "e105bc041897b10c205251108810ac12", "lat": 38.88734983333333, "bike_id": "e105bc041897b10c205251108810ac12"}, {"lon": -77.01256333333333, "rental_uris": {"android": "https://dc.lft.to/lastmile_qr_scan", "ios": "https://dc.lft.to/lastmile_qr_scan"},