{"data": {"bikes": [{"is_reserved": 0, "type": "electric_scooter", "bike_id": "2eff2829d07b30faaf478e7bbeb499e0", "lat": 38.8956925, "lon": -76.98213133333333, "rental_uris": {"android": "https://dc.lft.to/lastmile_qr_scan", "ios": "https://dc.lft.to/lastmile_qr_scan"}, "is_disabled": 0, "fusion_lat": 0.0, "name": "2eff2829d07b30faaf478e7bbeb499e0", "fusion_lon": 0.0}, {"is_reserved": 0, "type": "electric_scooter", "bike_id": "041d05eece40086aa234b212a2f056a2", "lat": 38.91073, "lon": -76.99132083333333, "rental_uris": {"android": "https://dc.lft.to/lastmile_qr_scan", "ios": "https://dc.lft.to/lastmile_qr_scan"}, "is_disabled": 0, "fusion_lat": 0.0, "name": "041d05eece40086aa234b212a2f056a2", "fusion_lon": 0.0}, {"is_reserved": 0, "type": "electric_scooter", "bike_id": "36871e6bbc134a7623811a10c55129de", "lat": 38.91544533333333, "lon": -77.02089666666667, "rental_uris": {"android": "https://dc.lft.to/lastmile_qr_scan", "ios": "https://dc.lft.to/lastmile_qr_scan"}, "is_disabled": 0, "fusion_lat": 0.0, "name": "36871e6bbc134a7623811a10c55129de", "fusion_lon": 0.0}, {"is_reserved": 0, "type": "electric_scooter", "bike_id": "fbb6100086d1d9c079853ed095d4d4c8", "lat": 38.874773, "lon": -77.01744233333334, "rental_uris": {"android": "https://dc.lft.to/lastmile_qr_scan", "ios": "https://dc.lft.to/lastmile_qr_scan"}, "is_disabled": 0, "fusion_lat": 0.0, "name": "fbb6100086d1d9c079853ed095d4d4c8", "fusion_lon": 0.0}, {"is_reserved": 0, "type": "electric_scooter", "bike_id": "236eb0b0cba4d72fe957f7bdc1214446", "lat": 38.923316, "lon": -77.00885083333333, "rental_uris": {"android": "https://dc.lft.to/lastmile_qr_scan", "ios": "https://dc.lft.to/lastmile_qr_scan"}, "is_disabled": 0, "fusion_lat": 0.0, "name": "236eb0b0cba4d72fe957f7bdc1214446", "fusion_lon": 0.0}, {"is_reserved": 0, "type": "electric_scooter", "bike_id": "101b6fc3e5b95678b3904e19201f437e", "lat": 38.90534433333333, "lon": -77.04156583333334, "rental_uris": {"android": "https://dc.lft.to/lastmile_qr_scan", "ios": "https://dc.lft.to/lastmile_qr_scan"}, "is_disabled": 0, "fusion_lat": 0.0, "name": "101b6fc3e5b95678b3904e19201f437e", "fusion_lon": 0.0}, {"is_reserved": 0, "type": "electric_scooter", "bike_id": "d06c7ee1617af30068f979c4699c74fd", "lat": 38.940456833333336, "lon": -77.0290625, "rental_uris": {"android": "https://dc.lft.to/lastmile_qr_scan", "ios": "https://dc.lft.to/lastmile_qr_scan"}, "is_disabled": 0, "fusion_lat": 0.0, "name": "d06c7ee1617af30068f979c4699c74fd", "fusion_lon": 0.0}, {"is_reserved": 0, "type": "electric_scooter", "bike_id": "0e9a9481c747256050d1b95f07a7b8df", "lat": 38.92424416666667, "lon": -76.99671866666667, "rental_uris": {"android": "https://dc.lft.to/lastmile_qr_scan", "ios": "https://dc.lft.to/lastmile_qr_scan"}, "is_disabled": 0, "fusion_lat": 0.0, "name": "0e9a9481c747256050d1b95f07a7b8df", "fusion_lon": 0.0}, {"is_reserved": 0, "type": "electric_scooter", "bike_id": "e564d2763ae0a15fcb35986c994c6ab9", "lat": 38.9021325, "lon": -77.04873583333334, "rental_uris": {"android": "https://dc.lft.to/lastmile_qr_scan", "ios": "https://dc.lft.to/lastmile_qr_scan"}, "is_disabled": 0, "fusion_lat": 0.0, "name": "e564d2763ae0a15fcb35986c994c6ab9", "fusion_lon": 0.0}, {"is_reserved": 0, "type": "electric_bike", "bike_id": "e410dc85f7d24f1bdcedf71abd6aaff7", "lat": 38.849252166666666, "lon": -77.08369683333333, "rental_uris": {"android": "https://dc.lft.to/lastmile_qr_scan", "ios": "https://dc.lft.to/lastmile_qr_scan"}, "is_disabled": 0, "fusion_lat": 0.0, "name": "e410dc85f7d24f1bdcedf71abd6aaff7", "fusion_lon": 0.0}, {"is_reserved": 0, "type": "electric_scooter", "bike_id": "5d683eca1a7014d246b12a3004bca989", "lat": 38.92448683333333, "lon": -77.04404033333333, "rental_uris": {"android": "https://dc.lft.to/lastmile_qr_scan", "ios": "https://dc.lft.to/lastmile_qr_scan"}, "is_disabled": 0, "fusion_lat": 0.0, "name": "5d683eca1a7014d246b12a3004bca989", "fusion_lon": 0.0}, {"is_reserved": 0, "type": "electric_scooter", "bike_id": "0739b7eb1bc0f2ef89c49dc4c82e8c2d", "lat": 38.935575166666666, "lon": -77.02217483333334, "rental_uris": {"android": "https://dc.lft.to/lastmile_qr_scan", "ios": "https://dc.lft.to/lastmile_qr_scan"}, "is_disabled": 0, "fusion_lat": 0.0, "name": "0739b7eb1bc0f2ef89c49dc4c82e8c2d", "fusion_lon": 0.0}, {"is_reserved": 0, "type": "electric_scooter", "bike_id": "d267fa8b0f88a3299b45407c833f9364", "lat": 38.90867016666667, "lon": -77.0235115, "rental_uris": {"android": "https://dc.lft.to/lastmile_qr_scan", "ios": "https://dc.lft.to/lastmile_qr_scan"}, "is_disabled": 0, "fusion_lat": 0.0, "name": "d267fa8b0f88a3299b45407c833f9364", "fusion_lon": 0.0}, {"is_reserved": 0, "type": "electric_scooter", "bike_id": "3e17416babc8e7bca6e89966cfe15cf9", "lat": 38.91699766666667, "lon": -77.02891416666667, "rental_uris": {"android": "https://dc.lft.to/lastmile_qr_scan", "ios": "https://dc.lft.to/lastmile_qr_scan"}, "is_disabled": 0, "fusion_lat": 0.0, "name": "3e17416babc8e7bca6e89966cfe15cf9", "fusion_lon": 0.0}, {"is_reserved": 0, "type": "electric_scooter", "bike_id": "48e705e07b6a4b5f901794aa8e7ca374", "lat": 38.9562885, "lon": -77.027789, "rental_uris": {"android": "https://dc.lft.to/lastmile_qr_scan", "ios": "https://dc.lft.to/lastmile_qr_scan"}, "is_disabled": 0, "fusion_lat": 0.0, "name": "48e705e07b6a4b5f901794aa8e7ca374", "fusion_lon": 0.0}, {"is_reserved": 0, "type": "electric_scooter", "bike_id": "2b6a3b4a0e4625f10d2b6b2313023b29", "lat": 38.91806733333333, "lon": -77.0330125, "rental_uris": {"android": "https://dc.lft.to/lastmile_qr_scan", "ios": "https://dc.lft.to/lastmile_qr_scan"}, "is_disabled": 0, "fusion_lat": 0.0, "name": "2b6a3b4a0e4625f10d2b6b2313023b29", "fusion_lon": 0.0}, {"is_reserved": 0, "type": "electric_scooter", "bike_id": "54523a48a38e14d4514bfa71e961be08", "lat": 38.89496916666667, "lon": -77.0020845, "rental_uris": {"android": "https://dc.lft.to/lastmile_qr_scan", "ios": "https://dc.lft.to/lastmile_qr_scan"}, "is_disabled": 0, "fusion_lat": 0.0, "name": "54523a48a38e14d4514bfa71e961be08", "fusion_lon": 0.0}, {"is_reserved": 0, "type": "electric_scooter", "bike_id": "2328ffe2cf0457e1e3320b62ec2d9333", "lat": 38.921979666666665, "lon": -77.024079, "rental_uris": {"android": "https://dc.lft.to/lastmile_qr_scan", "ios": "https://dc.lft.to/lastmile_qr_scan"}, "is_disabled": 0, "fusion_lat": 0.0, "name": "2328ffe2cf0457e1e3320b62ec2d9333", "fusion_lon": 0.0}, {"is_reserved": 0, "type": "electric_scooter", "bike_id": "6f6e140aa5977944991201d565c96f4a", "lat": 38.92119866666667, "lon": -77.04421583333334, "rental_uris": {"android": "https://dc.lft.to/lastmile_qr_scan", "ios": "https://dc.lft.to/lastmile_qr_scan"}, "is_disabled": 0, "fusion_lat": 0.0, "name": "6f6e140aa5977944991201d565c96f4a", "fusion_lon": 0.0}, {"is_reserved": 0, "type": "electric_bike", "bike_id": "a8591ab7e35c529a0bf4f6fcea2a04a5", "lat": 38.998915333333336, "lon": -76.90862766666666, "rental_uris": {"android": "https://dc.lft.to/lastmile_qr_scan", "ios": "https://dc.lft.to/lastmile_qr_scan"}, "is_disabled": 0, "fusion_lat": 0.0, "name": "a8591ab7e35c529a0bf4f6fcea2a04a5", "fusion_lon": 0.0}, {"is_reserved": 0, "type": "electric_bike", "bike_id": "9507abb3546089e6bd221ddffcc22d99", "lat": 38.92623, "lon": -77.00586066666666, "rental_uris": {"android": "https://dc.lft.to/lastmile_qr_scan", "ios": "https://dc.lft.to/lastmile_qr_scan"}, "is_disabled": 0, "fusion_lat": 0.0, "name": "9507abb3546089e6bd221ddffcc22d99", "fusion_lon": 0.0}, {"is_reserved": 0, "type": "electric_bike", "bike_id": "fca138ec46bb7c0584d97110bc9a02d3", "lat": 38.8542025, "lon": -77.08364483333334, "rental_uris": {"android": "https://dc.lft.to/lastmile_qr_scan", "ios": "https://dc.lft.to/lastmile_qr_scan"}, "is_disabled": 0, "fusion_lat": 0.0, "name": "fca138ec46bb7c0584d97110bc9a02d3", "fusion_lon": 0.0}, {"is_reserved": 0, "type": "electric_scooter", "bike_id": "aa6678b0daec975fea5e268693c6a19b", "lat": 38.897268333333336, "lon": -77.02768033333334, "rental_uris": {"android": "https://dc.lft.to/lastmile_qr_scan", "ios": "https://dc.lft.to/lastmile_qr_scan"}, "is_disabled": 0, "fusion_lat": 0.0, "name": "aa6678b0daec975fea5e268693c6a19b", "fusion_lon": 0.0}, {"is_reserved": 0, "type": "electric_scooter", "bike_id": "f7649bd7a9a5b59b2bd7d94d35820c57", "lat": 38.913630166666664, "lon": -77.01998733333333, "rental_uris": {"android": "https://dc.lft.to/lastmile_qr_scan", "ios": "https://dc.lft.to/lastmile_qr_scan"}, "is_disabled": 0, "fusion_lat": 0.0, "name": "f7649bd7a9a5b59b2bd7d94d35820c57", "fusion_lon": 0.0}, {"is_reserved": 0, "type": "electric_bike", "bike_id": "19e24fab8891a7a5f9b892d6328234c2", "lat": 38.964421, "lon": -77.031585, "rental_uris": {"android": "https://dc.lft.to/lastmile_qr_scan", "ios": "https://dc.lft.to/lastmile_qr_scan"}, "is_disabled": 0, "fusion_lat": 0.0, "name": "19e24fab8891a7a5f9b892d6328234c2", "fusion_lon": 0.0}, {"is_reserved": 0, "type": "electric_scooter", "bike_id": "91535fb2cc0d17a73c878242d174f9b5", "lat": 38.922341, "lon": -77.04376866666667, "rental_uris": {"android": "https://dc.lft.to/lastmile_qr_scan", "ios": "https://dc.lft.to/lastmile_qr_scan"}, "is_disabled": 0, "fusion_lat": 0.0, "name": "91535fb2cc0d17a73c878242d174f9b5", "fusion_lon": 0.0}, {"is_reserved": 0, "type": "electric_scooter", "bike_id": "3d926077f121e5b56c88a58d144e3630", "lat": 38.91386766666667, "lon": -77.02607466666667, "rental_uris": {"android": "https://dc.lft.to/lastmile_qr_scan", "ios": "https://dc.lft.to/lastmile_qr_scan"}, "is_disabled": 0, "fusion_lat": 0.0, "name": "3d926077f121e5b56c88a58d144e3630", "fusion_lon": 0.0}, {"is_reserved": 0, "type": "electric_scooter", "bike_id": "ee60141dc5f68ce4af602ffff6e28de4", "lat": 38.94221783333333, "lon": -77.02964416666667, "rental_uris": {"android": "https://dc.lft.to/lastmile_qr_scan", "ios": "https://dc.lft.to/lastmile_qr_scan"}, "is_disabled": 0, "fusion_lat": 0.0, "name": "ee60141dc5f68ce4af602ffff6e28de4", "fusion_lon": 0.0}, {"is_reserved": 0, "type": "electric_scooter", "bike_id": "bd00660a141ba5f5fde0bd52de20ba6f", "lat": 38.924505, "lon": -77.02037116666666, "rental_uris": {"android": "https://dc.lft.to/lastmile_qr_scan", "ios": "https://dc.lft.to/lastmile_qr_scan"}, "is_disabled": 0, "fusion_lat": 0.0, "name": "bd00660a141ba5f5fde0bd52de20ba6f", "fusion_lon": 0.0}, {"is_reserved": 0, "type": "electric_scooter", "bike_id": "d79bcf0fff705c17a72cb2cc56854d8a", "lat": 38.8942375, "lon": -76.99823266666667, "rental_uris": {"android": "https://dc.lft.to/lastmile_qr_scan", "ios": "https://dc.lft.to/lastmile_qr_scan"}, "is_disabled": 0, "fusion_lat": 0.0, "name": "d79bcf0fff705c17a72cb2cc56854d8a", "fusion_lon": 0.0}, {"is_reserved": 0, "type": "electric_scooter", "bike_id": "c8f6f692d767abf1272baba0165bf77e", "lat": 38.89003483333333, "lon": -76.937371, "rental_uris": {"android": "https://dc.lft.to/lastmile_qr_scan", "ios": "https://dc.lft.to/lastmile_qr_scan"}, "is_disabled": 0, "fusion_lat": 0.0, "name": "c8f6f692d767abf1272baba0165bf77e", "fusion_lon": 0.0}, {"is_reserved": 0, "type": "electric_scooter", "bike_id": "79e38b68890c4c3f1299f797be819820", "lat": 38.876613, "lon": -77.00066233333334, "rental_uris": {"android": "https://dc.lft.to/lastmile_qr_scan", "ios": "https://dc.lft.to/lastmile_qr_scan"}, "is_disabled": 0, "fusion_lat": 0.0, "name": "79e38b68890c4c3f1299f797be819820", "fusion_lon": 0.0}, {"is_reserved": 0, "type": "electric_scooter", "bike_id": "9c7cf7b09e3fb006978e02a70e5b6b1b", "lat": 38.892228, "lon": -77.0310735, "rental_uris": {"android": "https://dc.lft.to/lastmile_qr_scan", "ios": "https://dc.lft.to/lastmile_qr_scan"}, "is_disabled": 0, "fusion_lat": 0.0, "name": "9c7cf7b09e3fb006978e02a70e5b6b1b", "fusion_lon": 0.0}, {"is_reserved": 0, "type": "electric_scooter", "bike_id": "2176083cab49652111720510c106fa29", "lat": 38.90503416666667, "lon": -77.02950116666666, "rental_uris": {"android": "https://dc.lft.to/lastmile_qr_scan", "ios": "https://dc.lft.to/lastmile_qr_scan"}, "is_disabled": 0, "fusion_lat": 0.0, "name": "2176083cab49652111720510c106fa29", "fusion_lon": 0.0}, {"is_reserved": 0, "type": "electric_scooter", "bike_id": "fc9ea8011bd0d9ada0f60c9e7ee79c60", "lat": 38.92780416666667, "lon": -77.0278255, "rental_uris": {"android": "https://dc.lft.to/lastmile_qr_scan", "ios": "https://dc.lft.to/lastmile_qr_scan"}, "is_disabled": 0, "fusion_lat": 0.0, "name": "fc9ea8011bd0d9ada0f60c9e7ee79c60", "fusion_lon": 0.0}, {"is_reserved": 0, "type": "electric_scooter", "bike_id": "a3791a50b391b2be5580f82c312a8e53", "lat": 38.89367583333333, "lon": -77.0196275, "rental_uris": {"android": "https://dc.lft.to/lastmile_qr_scan", "ios": "https://dc.lft.to/lastmile_qr_scan"}, "is_disabled": 0, "fusion_lat": 0.0, "name": "a3791a50b391b2be5580f82c312a8e53", "fusion_lon": 0.0}, {"is_reserved": 0, "type": "electric_scooter", "bike_id": "ea9dcf9d30d6ae110b0ccd45828b5949", "lat": 38.91019683333333, "lon": -76.99370216666667, "rental_uris": {"android": "https://dc.lft.to/lastmile_qr_scan", "ios": "https://dc.lft.to/lastmile_qr_scan"}, "is_disabled": 0, "fusion_lat": 0.0, "name": "ea9dcf9d30d6ae110b0ccd45828b5949", "fusion_lon": 0.0}, {"is_reserved": 0, "type": "electric_scooter", "bike_id": "6786ffd28191724144a4e64b883cb981", "lat": 38.92207166666667, "lon": -77.02033783333333, "rental_uris": {"android": "https://dc.lft.to/lastmile_qr_scan", "ios": "https://dc.lft.to/lastmile_qr_scan"}, "is_disabled": 0, "fusion_lat": 0.0, "name": "6786ffd28191724144a4e64b883cb981", "fusion_lon": 0.0}, {"is_reserved": 0, "type": "electric_scooter", "bike_id": "c10c81cfa59f432c0d38ef7fb0a66ef3", "lat": 38.906270666666664, "lon": -77.008879, "rental_uris": {"android": "https://dc.lft.to/lastmile_qr_scan", "ios": "https://dc.lft.to/lastmile_qr_scan"}, "is_disabled": 0, "fusion_lat": 0.0, "name": "c10c81cfa59f432c0d38ef7fb0a66ef3", "fusion_lon": 0.0}, {"is_reserved": 0, "type": "electric_scooter", "bike_id": "1dba97f3a6263c389900d5af2678e3d0", "lat": 38.905636, "lon": -77.006814, "rental_uris": {"android": "https://dc.lft.to/lastmile_qr_scan", "ios": "https://dc.lft.to/lastmile_qr_scan"}, "is_disabled": 0, "fusion_lat": 0.0, "name": "1dba97f3a6263c389900d5af2678e3d0", "fusion_lon": 0.0}, {"is_reserved": 0, "type": "electric_scooter", "bike_id": "1ab8965c47d909545abe6da897702c90", "lat": 38.900634833333335, "lon": -77.05299433333333, "rental_uris": {"android": "https://dc.lft.to/lastmile_qr_scan", "ios": "https://dc.lft.to/lastmile_qr_scan"}, "is_disabled": 0, "fusion_lat": 0.0, "name": "1ab8965c47d909545abe6da897702c90", "fusion_lon": 0.0}, {"is_reserved": 0, "type": "electric_scooter", "bike_id": "5530cf057e97faf9e178c26d3ddb1e9b", "lat": 38.900166166666665, "lon": -76.99624116666666, "rental_uris": {"android": "https://dc.lft.to/lastmile_qr_scan", "ios": "https://dc.lft.to/lastmile_qr_scan"}, "is_disabled": 0, "fusion_lat": 0.0, "name": "5530cf057e97faf9e178c26d3ddb1e9b", "fusion_lon": 0.0}, {"is_reserved": 0, "type": "electric_scooter", "bike_id": "3a0e66c07e85a540d3f0b8d432f37465", "lat": 38.900986833333334, "lon": -77.02227383333333, "rental_uris": {"android": "https://dc.lft.to/lastmile_qr_scan", "ios": "https://dc.lft.to/lastmile_qr_scan"}, "is_disabled": 0, "fusion_lat": 0.0, "name": "3a0e66c07e85a540d3f0b8d432f37465", "fusion_lon": 0.0}, {"is_reserved": 0, "type": "electric_scooter", "bike_id": "ffebc387b7f06a9fd334a638e39f1563", "lat": 38.9130135, "lon": -76.98471016666667, "rental_uris": {"android": "https://dc.lft.to/lastmile_qr_scan", "ios": "https://dc.lft.to/lastmile_qr_scan"}, "is_disabled": 0, "fusion_lat": 0.0, "name": "ffebc387b7f06a9fd334a638e39f1563", "fusion_lon": 0.0}, {"is_reserved": 0, "type": "electric_scooter", "bike_id": "966e04c5fa345449fd8e732ce55ce571", "lat": 38.9269605, "lon": -77.0241695, "rental_uris": {"android": "https://dc.lft.to/lastmile_qr_scan", "ios": "https://dc.lft.to/lastmile_qr_scan"}, "is_disabled": 0, "fusion_lat": 0.0, "name": "966e04c5fa345449fd8e732ce55ce571", "fusion_lon": 0.0}, {"is_reserved": 0, "type": "electric_scooter", "bike_id": "e41b0983a8d0fd6eac7578b8a6c8992c", "lat": 38.915671, "lon": -77.036672, "rental_uris": {"android": "https://dc.lft.to/lastmile_qr_scan", "ios": "https://dc.lft.to/lastmile_qr_scan"}, "is_disabled": 0, "fusion_lat": 0.0, "name": "e41b0983a8d0fd6eac7578b8a6c8992c", "fusion_lon": 0.0}, {"is_reserved": 0, "type": "electric_scooter", "bike_id": "e9ae2366ba648322e46a06b8859cbe79", "lat": 38.885971166666664, "lon": -77.004009, "rental_uris": {"android": "https://dc.lft.to/lastmile_qr_scan", "ios": "https://dc.lft.to/lastmile_qr_scan"}, "is_disabled": 0, "fusion_lat": 0.0, "name": "e9ae2366ba648322e46a06b8859cbe79", "fusion_lon": 0.0}, {"is_reserved": 0, "type": "electric_scooter", "bike_id": "fe4a2efeabf0813b11861a70ec6fba88", "lat": 38.918536, "lon": -76.96544583333333, "rental_uris": {"android": "https://dc.lft.to/lastmile_qr_scan", "ios": "https://dc.lft.to/lastmile_qr_scan"}, "is_disabled": 0, "fusion_lat": 0.0, "name": "fe4a2efeabf0813b11861a70ec6fba88", "fusion_lon": 0.0}, {"is_reserved": 0, "type": "electric_scooter", "bike_id": "03ab5efd20d1df24302e2ab49218d95c", "lat": 38.914029, "lon": -77.0283565, "rental_uris": {"android": "https://dc.lft.to/lastmile_qr_scan", "ios": "https://dc.lft.to/lastmile_qr_scan"}, "is_disabled": 0, "fusion_lat": 0.0, "name": "03ab5efd20d1df24302e2ab49218d95c", "fusion_lon": 0.0}, {"is_reserved": 0, "type": "electric_bike", "bike_id": "9579fc0dcaff6f964a21759edda26bd5", "lat": 39.0107725, "lon": -76.91062183333334, "rental_uris": {"android": "https://dc.lft.to/lastmile_qr_scan", "ios": "https://dc.lft.to/lastmile_qr_scan"}, "is_disabled": 0, "fusion_lat": 0.0, "name": "9579fc0dcaff6f964a21759edda26bd5", "fusion_lon": 0.0}, {"is_reserved": 0, "type": "electric_scooter", "bike_id": "60ecba80be1a00bad0bbab858e2d74fd", "lat": 38.91959083333333, "lon": -77.01776266666667, "rental_uris": {"android": "https://dc.lft.to/lastmile_qr_scan", "ios": "https://dc.lft.to/lastmile_qr_scan"}, "is_disabled": 0, "fusion_lat": 0.0, "name": "60ecba80be1a00bad0bbab858e2d74fd", "fusion_lon": 0.0}, {"is_reserved": 0, "type": "electric_scooter", "bike_id": "acfee13cd09cecbcf15a0159ee0e2802", "lat": 38.946189833333335, "lon": -77.03058116666666, "rental_uris": {"android": "https://dc.lft.to/lastmile_qr_scan", "ios": "https://dc.lft.to/lastmile_qr_scan"}, "is_disabled": 0, "fusion_lat": 0.0, "name": "acfee13cd09cecbcf15a0159ee0e2802", "fusion_lon": 0.0}, {"is_reserved": 0, "type": "electric_scooter", "bike_id": "bfe4c3a7b895a11ecb3a23e2d9d380e9", "lat": 38.94977433333333, "lon": -77.0245475, "rental_uris": {"android": "https://dc.lft.to/lastmile_qr_scan", "ios": "https://dc.lft.to/lastmile_qr_scan"}, "is_disabled": 0, "fusion_lat": 0.0, "name": "bfe4c3a7b895a11ecb3a23e2d9d380e9", "fusion_lon": 0.0}, {"is_reserved": 0, "type": "electric_bike", "bike_id": "7dd01bbb609b6a62ffff5758b75f0c2b", "lat": 38.92345316666667, "lon": -77.035109, "rental_uris": {"android": "https://dc.lft.to/lastmile_qr_scan", "ios": "https://dc.lft.to/lastmile_qr_scan"}, "is_disabled": 0, "fusion_lat": 0.0, "name": "7dd01bbb609b6a62ffff5758b75f0c2b", "fusion_lon": 0.0}, {"is_reserved": 0, "type": "electric_scooter", "bike_id": "8cafe9e2c16841f98e9daa9ece7f480b", "lat": 38.908322166666665, "lon": -76.9871645, "rental_uris": {"android": "https://dc.lft.to/lastmile_qr_scan", "ios": "https://dc.lft.to/lastmile_qr_scan"}, "is_disabled": 0, "fusion_lat": 0.0, "name": "8cafe9e2c16841f98e9daa9ece7f480b", "fusion_lon": 0.0}, {"is_reserved": 0, "type": "electric_scooter", "bike_id": "102250fad08f79045e6bec18e47a01df", "lat": 38.9081235, "lon": -77.03652, "rental_uris": {"android": "https://dc.lft.to/lastmile_qr_scan", "ios": "https://dc.lft.to/lastmile_qr_scan"}, "is_disabled": 0, "fusion_lat": 0.0, "name": "102250fad08f79045e6bec18e47a01df", "fusion_lon": 0.0}, {"is_reserved": 0, "type": "electric_scooter", "bike_id": "9c375e62b2fe46435b48bf5c4e1ff0ed", "lat": 38.9269305, "lon": -77.029829, "rental_uris": {"android": "https://dc.lft.to/lastmile_qr_scan", "ios": "https://dc.lft.to/lastmile_qr_scan"}, "is_disabled": 0, "fusion_lat": 0.0, "name": "9c375e62b2fe46435b48bf5c4e1ff0ed", "fusion_lon": 0.0}, {"is_reserved": 0, "type": "electric_scooter", "bike_id": "2d070349514107d2bc6d513e5ca8f93d", "lat": 38.926057166666666, "lon": -77.039651, "rental_uris": {"android": "https://dc.lft.to/lastmile_qr_scan", "ios": "https://dc.lft.to/lastmile_qr_scan"}, "is_disabled": 0, "fusion_lat": 0.0, "name": "2d070349514107d2bc6d513e5ca8f93d", "fusion_lon": 0.0}, {"is_reserved": 0, "type": "electric_bike", "bike_id": "e82af00fc68609d6ab14402c9b2c3cdc", "lat": 38.981419, "lon": -77.007549, "rental_uris": {"android": "https://dc.lft.to/lastmile_qr_scan", "ios": "https://dc.lft.to/lastmile_qr_scan"}, "is_disabled": 0, "fusion_lat": 0.0, "name": "e82af00fc68609d6ab14402c9b2c3cdc", "fusion_lon": 0.0}, {"is_reserved": 0, "type": "electric_scooter", "bike_id": "afda7197efb676eb59ae364bb9b0a980", "lat": 38.93498683333333, "lon": -77.04455883333334, "rental_uris": {"android": "https://dc.lft.to/lastmile_qr_scan", "ios": "https://dc.lft.to/lastmile_qr_scan"}, "is_disabled": 0, "fusion_lat": 0.0, "name": "afda7197efb676eb59ae364bb9b0a980", "fusion_lon": 0.0}, {"is_reserved": 0, "type": "electric_scooter", "bike_id": "8921d9a1805537f21186bdb862267159", "lat": 38.89881316666666, "lon": -76.98837616666667, "rental_uris": {"android": "https://dc.lft.to/lastmile_qr_scan", "ios": "https://dc.lft.to/lastmile_qr_scan"}, "is_disabled": 0, "fusion_lat": 0.0, "name": "8921d9a1805537f21186bdb862267159", "fusion_lon": 0.0}, {"is_reserved": 0, "type": "electric_scooter", "bike_id": "b628ac350948e4463fc5056ea2ce8797", "lat": 38.9138345, "lon": -77.04604883333333, "rental_uris": {"android": "https://dc.lft.to/lastmile_qr_scan", "ios": "https://dc.lft.to/lastmile_qr_scan"}, "is_disabled": 0, "fusion_lat": 0.0, "name": "b628ac350948e4463fc5056ea2ce8797", "fusion_lon": 0.0}, {"is_reserved": 0, "type": "electric_scooter", "bike_id": "5c76e3c73ac3f869a94618b708f824f8", "lat": 38.916929333333336, "lon": -77.032168, "rental_uris": {"android": "https://dc.lft.to/lastmile_qr_scan", "ios": "https://dc.lft.to/lastmile_qr_scan"}, "is_disabled": 0, "fusion_lat": 0.0, "name": "5c76e3c73ac3f869a94618b708f824f8", "fusion_lon": 0.0}, {"is_reserved": 0, "type": "electric_scooter", "bike_id": "835fcf5cde88ec41c6f1629c8bc114c9", "lat": 38.89870483333333, "lon": -76.94641266666666, "rental_uris": {"android": "https://dc.lft.to/lastmile_qr_scan", "ios": "https://dc.lft.to/lastmile_qr_scan"}, "is_disabled": 0, "fusion_lat": 0.0, "name": "835fcf5cde88ec41c6f1629c8bc114c9", "fusion_lon": 0.0}, {"is_reserved": 0, "type": "electric_scooter", "bike_id": "00b97b6c7e6757375117227a06a658a2", "lat": 38.886112, "lon": -77.00347966666666, "rental_uris": {"android": "https://dc.lft.to/lastmile_qr_scan", "ios": "https://dc.lft.to/lastmile_qr_scan"}, "is_disabled": 0, "fusion_lat": 0.0, "name": "00b97b6c7e6757375117227a06a658a2", "fusion_lon": 0.0}, {"is_reserved": 0, "type": "electric_scooter", "bike_id": "16716c248c6d78bc90ab711c9c991ae5", "lat": 38.92738, "lon": -77.02252633333333, "rental_uris": {"android": "https://dc.lft.to/lastmile_qr_scan", "ios": "https://dc.lft.to/lastmile_qr_scan"}, "is_disabled": 0, "fusion_lat": 0.0, "name": "16716c248c6d78bc90ab711c9c991ae5", "fusion_lon": 0.0}, {"is_reserved": 0, "type": "electric_scooter", "bike_id": "df84268ac830b470b65667230cb5e106", "lat": 38.904815666666664, "lon": -77.00706616666666, "rental_uris": {"android": "https://dc.lft.to/lastmile_qr_scan", "ios": "https://dc.lft.to/lastmile_qr_scan"}, "is_disabled": 0, "fusion_lat": 0.0, "name": "df84268ac830b470b65667230cb5e106", "fusion_lon": 0.0}, {"is_reserved": 0, "type": "electric_scooter", "bike_id": "4a252fcea1374ea555108a35f94553f1", "lat": 38.9256125, "lon": -77.0532135, "rental_uris": {"android": "https://dc.lft.to/lastmile_qr_scan", "ios": "https://dc.lft.to/lastmile_qr_scan"}, "is_disabled": 0, "fusion_lat": 0.0, "name": "4a252fcea1374ea555108a35f94553f1", "fusion_lon": 0.0}, {"is_reserved": 0, "type": "electric_scooter", "bike_id": "c431f610ab2021e9041398e71d5d9d32", "lat": 38.98991616666667, "lon": -77.03357933333334, "rental_uris": {"android": "https://dc.lft.to/lastmile_qr_scan", "ios": "https://dc.lft.to/lastmile_qr_scan"}, "is_disabled": 0, "fusion_lat": 0.0, "name": "c431f610ab2021e9041398e71d5d9d32", "fusion_lon": 0.0}, {"is_reserved": 0, "type": "electric_scooter", "bike_id": "2488631a638b6c600ceba49fab51e82a", "lat": 38.906327166666664, "lon": -77.02497116666666, "rental_uris": {"android": "https://dc.lft.to/lastmile_qr_scan", "ios": "https://dc.lft.to/lastmile_qr_scan"}, "is_disabled": 0, "fusion_lat": 0.0, "name": "2488631a638b6c600ceba49fab51e82a", "fusion_lon": 0.0}, {"is_reserved": 0, "type": "electric_scooter", "bike_id": "231a20c129f7f6c83572650dedca002c", "lat": 38.91434, "lon": -77.04494033333333, "rental_uris": {"android": "https://dc.lft.to/lastmile_qr_scan", "ios": "https://dc.lft.to/lastmile_qr_scan"}, "is_disabled": 0, "fusion_lat": 0.0, "name": "231a20c129f7f6c83572650dedca002c", "fusion_lon": 0.0}, {"is_reserved": 0, "type": "electric_scooter", "bike_id": "0ac87cba9490864789bc231284969a47", "lat": 38.89066116666667, "lon": -76.9382265, "rental_uris": {"android": "https://dc.lft.to/lastmile_qr_scan", "ios": "https://dc.lft.to/lastmile_qr_scan"}, "is_disabled": 0, "fusion_lat": 0.0, "name": "0ac87cba9490864789bc231284969a47", "fusion_lon": 0.0}, {"is_reserved": 0, "type": "electric_scooter", "bike_id": "1a97a140a30d1929dc3fa06bf299583b", "lat": 38.90096783333333, "lon": -77.0385355, "rental_uris": {"android": "https://dc.lft.to/lastmile_qr_scan", "ios": "https://dc.lft.to/lastmile_qr_scan"}, "is_disabled": 0, "fusion_lat": 0.0, "name": "1a97a140a30d1929dc3fa06bf299583b", "fusion_lon": 0.0}, {"is_reserved": 0, "type": "electric_scooter", "bike_id": "09fe180f145d6614fc03774dcd13482e", "lat": 38.885129, "lon": -77.01116733333333, "rental_uris": {"android": "https://dc.lft.to/lastmile_qr_scan", "ios": "https://dc.lft.to/lastmile_qr_scan"}, "is_disabled": 0, "fusion_lat": 0.0, "name": "09fe180f145d6614fc03774dcd13482e", "fusion_lon": 0.0}, {"is_reserved": 0, "type": "electric_scooter", "bike_id": "f5efdc96ca1a6b6482c8294a0be7ff9a", "lat": 38.94693516666667, "lon": -77.02245916666666, "rental_uris": {"android": "https://dc.lft.to/lastmile_qr_scan", "ios": "https://dc.lft.to/lastmile_qr_scan"}, "is_disabled": 0, "fusion_lat": 0.0, "name": "f5efdc96ca1a6b6482c8294a0be7ff9a", "fusion_lon": 0.0}, {"is_reserved": 0, "type": "electric_scooter", "bike_id": "46d7f708166e29992bd7d7d3283a9745", "lat": 38.915666333333334, "lon": -77.02971433333333, "rental_uris": {"android": "https://dc.lft.to/lastmile_qr_scan", "ios": "https://dc.lft.to/lastmile_qr_scan"}, "is_disabled": 0, "fusion_lat": 0.0, "name": "46d7f708166e29992bd7d7d3283a9745", "fusion_lon": 0.0}, {"is_reserved": 0, "type": "electric_scooter", "bike_id": "3bcc7e8f140c71564dc382c894348e83", "lat": 38.912689666666665, "lon": -77.01249533333333, "rental_uris": {"android": "https://dc.lft.to/lastmile_qr_scan", "ios": "https://dc.lft.to/lastmile_qr_scan"}, "is_disabled": 0, "fusion_lat": 0.0, "name": "3bcc7e8f140c71564dc382c894348e83", "fusion_lon": 0.0}, {"is_reserved": 0, "type": "electric_scooter", "bike_id": "fb9c4fde72048c7bc3cee6af802ba3f9", "lat": 38.892235666666664, "lon": -77.02419, "rental_uris": {"android": "https://dc.lft.to/lastmile_qr_scan", "ios": "https://dc.lft.to/lastmile_qr_scan"}, "is_disabled": 0, "fusion_lat": 0.0, "name": "fb9c4fde72048c7bc3cee6af802ba3f9", "fusion_lon": 0.0}, {"is_reserved": 0, "type": "electric_scooter", "bike_id": "5015c08112881096bf5c4f32406c68ce", "lat": 38.9223705, "lon": -77.03349116666666, "rental_uris": {"android": "https://dc.lft.to/lastmile_qr_scan", "ios": "https://dc.lft.to/lastmile_qr_scan"}, "is_disabled": 0, "fusion_lat": 0.0, "name": "5015c08112881096bf5c4f32406c68ce", "fusion_lon": 0.0}, {"is_reserved": 0, "type": "electric_scooter", "bike_id": "4b4d6580b713d12bd42d0b9c76c751f8", "lat": 38.941829, "lon": -77.0249155, "rental_uris": {"android": "https://dc.lft.to/lastmile_qr_scan", "ios": "https://dc.lft.to/lastmile_qr_scan"}, "is_disabled": 0, "fusion_lat": 0.0, "name": "4b4d6580b713d12bd42d0b9c76c751f8", "fusion_lon": 0.0}, {"is_reserved": 0, "type": "electric_scooter", "bike_id": "f0e450a37414e95ebbbb3cc59d83f3e4", "lat": 38.909879333333336, "lon": -77.00911733333334, "rental_uris": {"android": "https://dc.lft.to/lastmile_qr_scan", "ios": "https://dc.lft.to/lastmile_qr_scan"}, "is_disabled": 0, "fusion_lat": 0.0, "name": "f0e450a37414e95ebbbb3cc59d83f3e4", "fusion_lon": 0.0}, {"is_reserved": 0, "type": "electric_bike", "bike_id": "19e7e7c536ef9bee3c1ac1a2d60cd95f", "lat": 38.83138833333334, "lon": -77.1134385, "rental_uris": {"android": "https://dc.lft.to/lastmile_qr_scan", "ios": "https://dc.lft.to/lastmile_qr_scan"}, "is_disabled": 0, "fusion_lat": 0.0, "name": "19e7e7c536ef9bee3c1ac1a2d60cd95f", "fusion_lon": 0.0}, {"is_reserved": 0, "type": "electric_scooter", "bike_id": "4c8de93de5957bb87c14c37229688155", "lat": 38.905212166666665, "lon": -77.0653015, "rental_uris": {"android": "https://dc.lft.to/lastmile_qr_scan", "ios": "https://dc.lft.to/lastmile_qr_scan"}, "is_disabled": 0, "fusion_lat": 0.0, "name": "4c8de93de5957bb87c14c37229688155", "fusion_lon": 0.0}, {"is_reserved": 0, "type": "electric_scooter", "bike_id": "d6b3bdaa23301377070c09c73227e615", "lat": 38.91844316666667, "lon": -77.036407, "rental_uris": {"android": "https://dc.lft.to/lastmile_qr_scan", "ios": "https://dc.lft.to/lastmile_qr_scan"}, "is_disabled": 0, "fusion_lat": 0.0, "name": "d6b3bdaa23301377070c09c73227e615", "fusion_lon": 0.0}, {"is_reserved": 0, "type": "electric_scooter", "bike_id": "bb21418bf9a87a1fc7093c204415ca7d", "lat": 38.864855166666665, "lon": -76.977426, "rental_uris": {"android": "https://dc.lft.to/lastmile_qr_scan", "ios": "https://dc.lft.to/lastmile_qr_scan"}, "is_disabled": 0, "fusion_lat": 0.0, "name": "bb21418bf9a87a1fc7093c204415ca7d", "fusion_lon": 0.0}, {"is_reserved": 0, "type": "electric_scooter", "bike_id": "09e4024b8da4edb2e8ba1f2ea6e41cc6", "lat": 38.894805833333336, "lon": -76.99576716666667, "rental_uris": {"android": "https://dc.lft.to/lastmile_qr_scan", "ios": "https://dc.lft.to/lastmile_qr_scan"}, "is_disabled": 0, "fusion_lat": 0.0, "name": "09e4024b8da4edb2e8ba1f2ea6e41cc6", "fusion_lon": 0.0}, {"is_reserved": 0, "type": "electric_scooter", "bike_id": "b2031a594622b9ec973fb0de4895522c", "lat": 38.889946333333334, "lon": -77.00337116666667, "rental_uris": {"android": "https://dc.lft.to/lastmile_qr_scan", "ios": "https://dc.lft.to/lastmile_qr_scan"}, "is_disabled": 0, "fusion_lat": 0.0, "name": "b2031a594622b9ec973fb0de4895522c", "fusion_lon": 0.0}, {"is_reserved": 0, "type": "electric_bike", "bike_id": "aec37192cea13e2dfc69c5476eb040fb", "lat": 38.896162333333336, "lon": -76.90731116666667, "rental_uris": {"android": "https://dc.lft.to/lastmile_qr_scan", "ios": "https://dc.lft.to/lastmile_qr_scan"}, "is_disabled": 0, "fusion_lat": 0.0, "name": "aec37192cea13e2dfc69c5476eb040fb", "fusion_lon": 0.0}, {"is_reserved": 0, "type": "electric_scooter", "bike_id": "a96d8b7e3705609993eaf855a900987a", "lat": 38.9237145, "lon": -77.03045483333334, "rental_uris": {"android": "https://dc.lft.to/lastmile_qr_scan", "ios": "https://dc.lft.to/lastmile_qr_scan"}, "is_disabled": 0, "fusion_lat": 0.0, "name": "a96d8b7e3705609993eaf855a900987a", "fusion_lon": 0.0}, {"is_reserved": 0, "type": "electric_scooter", "bike_id": "642d3e3750a79caec9b7d18eed44bc22", "lat": 38.908467333333334, "lon": -77.0018755, "rental_uris": {"android": "https://dc.lft.to/lastmile_qr_scan", "ios": "https://dc.lft.to/lastmile_qr_scan"}, "is_disabled": 0, "fusion_lat": 0.0, "name": "642d3e3750a79caec9b7d18eed44bc22", "fusion_lon": 0.0}, {"is_reserved": 0, "type": "electric_scooter", "bike_id": "2c262ba7262f28e3ca3ecc682fa8f013", "lat": 38.894277, "lon": -77.05594833333333, "rental_uris": {"android": "https://dc.lft.to/lastmile_qr_scan", "ios": "https://dc.lft.to/lastmile_qr_scan"}, "is_disabled": 0, "fusion_lat": 0.0, "name": "2c262ba7262f28e3ca3ecc682fa8f013", "fusion_lon": 0.0}, {"is_reserved": 0, "type": "electric_scooter", "bike_id": "5a49d5692bdae5fde737bb32f93d7b78", "lat": 38.926724666666665, "lon": -77.025955, "rental_uris": {"android": "https://dc.lft.to/lastmile_qr_scan", "ios": "https://dc.lft.to/lastmile_qr_scan"}, "is_disabled": 0, "fusion_lat": 0.0, "name": "5a49d5692bdae5fde737bb32f93d7b78", "fusion_lon": 0.0}, {"is_reserved": 0, "type": "electric_scooter", "bike_id": "7d597f0c9016a7e23f67b8b03965d9a3", "lat": 38.912502, "lon": -77.027155, "rental_uris": {"android": "https://dc.lft.to/lastmile_qr_scan", "ios": "https://dc.lft.to/lastmile_qr_scan"}, "is_disabled": 0, "fusion_lat": 0.0, "name": "7d597f0c9016a7e23f67b8b03965d9a3", "fusion_lon": 0.0}, {"is_reserved": 0, "type": "electric_scooter", "bike_id": "1aa93edf8c2827e2d5af8c1056a91ae0", "lat": 38.89352683333333, "lon": -77.01731516666666, "rental_uris": {"android": "https://dc.lft.to/lastmile_qr_scan", "ios": "https://dc.lft.to/lastmile_qr_scan"}, "is_disabled": 0, "fusion_lat": 0.0, "name": "1aa93edf8c2827e2d5af8c1056a91ae0", "fusion_lon": 0.0}, {"is_reserved": 0, "type": "electric_scooter", "bike_id": "5583fa1df54ed754797cb40cc2b51fb0", "lat": 38.8921915, "lon": -77.02223083333334, "rental_uris": {"android": "https://dc.lft.to/lastmile_qr_scan", "ios": "https://dc.lft.to/lastmile_qr_scan"}, "is_disabled": 0, "fusion_lat": 0.0, "name": "5583fa1df54ed754797cb40cc2b51fb0", "fusion_lon": 0.0}, {"is_reserved": 0, "type": "electric_scooter", "bike_id": "fb8fd94822f42c7f71236b59a39b0e31", "lat": 38.9245725, "lon": -77.039512, "rental_uris": {"android": "https://dc.lft.to/lastmile_qr_scan", "ios": "https://dc.lft.to/lastmile_qr_scan"}, "is_disabled": 0, "fusion_lat": 0.0, "name": "fb8fd94822f42c7f71236b59a39b0e31", "fusion_lon": 0.0}, {"is_reserved": 0, "type": "electric_scooter", "bike_id": "3faad21c5c49f59012832dbe7a91bd8f", "lat": 38.887312666666666, "lon": -77.02207483333333, "rental_uris": {"android": "https://dc.lft.to/lastmile_qr_scan", "ios": "https://dc.lft.to/lastmile_qr_scan"}, "is_disabled": 0, "fusion_lat": 0.0, "name": "3faad21c5c49f59012832dbe7a91bd8f", "fusion_lon": 0.0}, {"is_reserved": 0, "type": "electric_scooter", "bike_id": "ed85da493762490e1f8f3b2c0b5ffda7", "lat": 38.89979433333333, "lon": -77.021127, "rental_uris": {"android": "https://dc.lft.to/lastmile_qr_scan", "ios": "https://dc.lft.to/lastmile_qr_scan"}, "is_disabled": 0, "fusion_lat": 0.0, "name": "ed85da493762490e1f8f3b2c0b5ffda7", "fusion_lon": 0.0}, {"is_reserved": 0, "type": "electric_bike", "bike_id": "9adbf1da5e103216c50652b1aef9a456", "lat": 38.88216633333333, "lon": -77.11160316666667, "rental_uris": {"android": "https://dc.lft.to/lastmile_qr_scan", "ios": "https://dc.lft.to/lastmile_qr_scan"}, "is_disabled": 0, "fusion_lat": 0.0, "name": "9adbf1da5e103216c50652b1aef9a456", "fusion_lon": 0.0}, {"is_reserved": 0, "type": "electric_scooter", "bike_id": "51e82e4f8614a8ac795da6f9027cde2a", "lat": 38.9118515, "lon": -77.0449385, "rental_uris": {"android": "https://dc.lft.to/lastmile_qr_scan", "ios": "https://dc.lft.to/lastmile_qr_scan"}, "is_disabled": 0, "fusion_lat": 0.0, "name": "51e82e4f8614a8ac795da6f9027cde2a", "fusion_lon": 0.0}, {"is_reserved": 0, "type": "electric_scooter", "bike_id": "84741612bbb62ff0bb18f3c2543f3661", "lat": 38.930771166666666, "lon": -77.0373655, "rental_uris": {"android": "https://dc.lft.to/lastmile_qr_scan", "ios": "https://dc.lft.to/lastmile_qr_scan"}, "is_disabled": 0, "fusion_lat": 0.0, "name": "84741612bbb62ff0bb18f3c2543f3661", "fusion_lon": 0.0}, {"is_reserved": 0, "type": "electric_scooter", "bike_id": "d0301ff052c07c8a4a88cc457ef34bab", "lat": 38.89979433333333, "lon": -77.02709016666667, "rental_uris": {"android": "https://dc.lft.to/lastmile_qr_scan", "ios": "https://dc.lft.to/lastmile_qr_scan"}, "is_disabled": 0, "fusion_lat": 0.0, "name": "d0301ff052c07c8a4a88cc457ef34bab", "fusion_lon": 0.0}, {"is_reserved": 0, "type": "electric_scooter", "bike_id": "6aa4cb15305aee168cf08c260b93ed0a", "lat": 38.887845666666664, "lon": -76.97712, "rental_uris": {"android": "https://dc.lft.to/lastmile_qr_scan", "ios": "https://dc.lft.to/lastmile_qr_scan"}, "is_disabled": 0, "fusion_lat": 0.0, "name": "6aa4cb15305aee168cf08c260b93ed0a", "fusion_lon": 0.0}, {"is_reserved": 0, "type": "electric_scooter", "bike_id": "f646f44b7b5f962514c7bae5fd88d1d6", "lat": 38.92852516666667, "lon": -77.037328, "rental_uris": {"android": "https://dc.lft.to/lastmile_qr_scan", "ios": "https://dc.lft.to/lastmile_qr_scan"}, "is_disabled": 0, "fusion_lat": 0.0, "name": "f646f44b7b5f962514c7bae5fd88d1d6", "fusion_lon": 0.0}, {"is_reserved": 0, "type": "electric_scooter", "bike_id": "3d03ee5dcb16032844f0688353528c3d", "lat": 38.8730245, "lon": -77.01556233333334, "rental_uris": {"android": "https://dc.lft.to/lastmile_qr_scan", "ios": "https://dc.lft.to/lastmile_qr_scan"}, "is_disabled": 0, "fusion_lat": 0.0, "name": "3d03ee5dcb16032844f0688353528c3d", "fusion_lon": 0.0}, {"is_reserved": 0, "type": "electric_scooter", "bike_id": "5728d73e0cee226b5ad3e30c0537d55e", "lat": 38.91643633333333, "lon": -77.02252183333333, "rental_uris": {"android": "https://dc.lft.to/lastmile_qr_scan", "ios": "https://dc.lft.to/lastmile_qr_scan"}, "is_disabled": 0, "fusion_lat": 0.0, "name": "5728d73e0cee226b5ad3e30c0537d55e", "fusion_lon": 0.0}, {"is_reserved": 0, "type": "electric_scooter", "bike_id": "7d3098760873a53f1d0df7f8af6cddde", "lat": 38.89348533333333, "lon": -77.011663, "rental_uris": {"android": "https://dc.lft.to/lastmile_qr_scan", "ios": "https://dc.lft.to/lastmile_qr_scan"}, "is_disabled": 0, "fusion_lat": 0.0, "name": "7d3098760873a53f1d0df7f8af6cddde", "fusion_lon": 0.0}, {"is_reserved": 0, "type": "electric_scooter", "bike_id": "d6d282cb38ab623c5bf42136f18549f6", "lat": 38.8922735, "lon": -77.04160983333334, "rental_uris": {"android": "https://dc.lft.to/lastmile_qr_scan", "ios": "https://dc.lft.to/lastmile_qr_scan"}, "is_disabled": 0, "fusion_lat": 0.0, "name": "d6d282cb38ab623c5bf42136f18549f6", "fusion_lon": 0.0}, {"is_reserved": 0, "type": "electric_scooter", "bike_id": "180e72a14722555e353fba767420ac0a", "lat": 38.932430833333335, "lon": -76.99708566666666, "rental_uris": {"android": "https://dc.lft.to/lastmile_qr_scan", "ios": "https://dc.lft.to/lastmile_qr_scan"}, "is_disabled": 0, "fusion_lat": 0.0, "name": "180e72a14722555e353fba767420ac0a", "fusion_lon": 0.0}, {"is_reserved": 0, "type": "electric_scooter", "bike_id": "ffd04416ec397b77991ea0abf927b646", "lat": 38.941957, "lon": -77.02340666666667, "rental_uris": {"android": "https://dc.lft.to/lastmile_qr_scan", "ios": "https://dc.lft.to/lastmile_qr_scan"}, "is_disabled": 0, "fusion_lat": 0.0, "name": "ffd04416ec397b77991ea0abf927b646", "fusion_lon": 0.0}, {"is_reserved": 0, "type": "electric_scooter", "bike_id": "3785383a768bb99740dcf9063eb2f412", "lat": 38.924610333333334, "lon": -77.00890433333333, "rental_uris": {"android": "https://dc.lft.to/lastmile_qr_scan", "ios": "https://dc.lft.to/lastmile_qr_scan"}, "is_disabled": 0, "fusion_lat": 0.0, "name": "3785383a768bb99740dcf9063eb2f412", "fusion_lon": 0.0}, {"is_reserved": 0, "type": "electric_scooter", "bike_id": "4b739179ae00823d97ca366a4acc5a18", "lat": 38.8996895, "lon": -77.0316755, "rental_uris": {"android": "https://dc.lft.to/lastmile_qr_scan", "ios": "https://dc.lft.to/lastmile_qr_scan"}, "is_disabled": 0, "fusion_lat": 0.0, "name": "4b739179ae00823d97ca366a4acc5a18", "fusion_lon": 0.0}, {"is_reserved": 0, "type": "electric_scooter", "bike_id": "ec57be40f82c2687a240e9e1f60bb76b", "lat": 38.91693933333333, "lon": -77.03161183333333, "rental_uris": {"android": "https://dc.lft.to/lastmile_qr_scan", "ios": "https://dc.lft.to/lastmile_qr_scan"}, "is_disabled": 0, "fusion_lat": 0.0, "name": "ec57be40f82c2687a240e9e1f60bb76b", "fusion_lon": 0.0}, {"is_reserved": 0, "type": "electric_scooter", "bike_id": "5e8a6a4aa2bdccf9cecdf40f7f2b7c45", "lat": 38.87716016666667, "lon": -77.017626, "rental_uris": {"android": "https://dc.lft.to/lastmile_qr_scan", "ios": "https://dc.lft.to/lastmile_qr_scan"}, "is_disabled": 0, "fusion_lat": 0.0, "name": "5e8a6a4aa2bdccf9cecdf40f7f2b7c45", "fusion_lon": 0.0}, {"is_reserved": 0, "type": "electric_scooter", "bike_id": "2a739f865776e4a04d97697e011b3313", "lat": 38.9249385, "lon": -77.05220116666666, "rental_uris": {"android": "https://dc.lft.to/lastmile_qr_scan", "ios": "https://dc.lft.to/lastmile_qr_scan"}, "is_disabled": 0, "fusion_lat": 0.0, "name": "2a739f865776e4a04d97697e011b3313", "fusion_lon": 0.0}, {"is_reserved": 0, "type": "electric_scooter", "bike_id": "93fab174fc2214c1438229f552f89e0e", "lat": 38.906649333333334, "lon": -77.07506683333334, "rental_uris": {"android": "https://dc.lft.to/lastmile_qr_scan", "ios": "https://dc.lft.to/lastmile_qr_scan"}, "is_disabled": 0, "fusion_lat": 0.0, "name": "93fab174fc2214c1438229f552f89e0e", "fusion_lon": 0.0}, {"is_reserved": 0, "type": "electric_scooter", "bike_id": "77222961a2347dfc6d573b9b2d5e6ab4", "lat": 38.891981666666666, "lon": -77.02176583333333, "rental_uris": {"android": "https://dc.lft.to/lastmile_qr_scan", "ios": "https://dc.lft.to/lastmile_qr_scan"}, "is_disabled": 0, "fusion_lat": 0.0, "name": "77222961a2347dfc6d573b9b2d5e6ab4", "fusion_lon": 0.0}, {"is_reserved": 0, "type": "electric_scooter", "bike_id": "2e9b8bef3f4e88730ab7e18b9429edf7", "lat": 38.902021, "lon": -77.021538, "rental_uris": {"android": "https://dc.lft.to/lastmile_qr_scan", "ios": "https://dc.lft.to/lastmile_qr_scan"}, "is_disabled": 0, "fusion_lat": 0.0, "name": "2e9b8bef3f4e88730ab7e18b9429edf7", "fusion_lon": 0.0}, {"is_reserved": 0, "type": "electric_scooter", "bike_id": "fb041e4f7796c029ba74effc94f2272f", "lat": 38.923331166666664, "lon": -77.00889433333333, "rental_uris": {"android": "https://dc.lft.to/lastmile_qr_scan", "ios": "https://dc.lft.to/lastmile_qr_scan"}, "is_disabled": 0, "fusion_lat": 0.0, "name": "fb041e4f7796c029ba74effc94f2272f", "fusion_lon": 0.0}, {"is_reserved": 0, "type": "electric_scooter", "bike_id": "86600a14e816cb83fec0cc7b2eb0ff48", "lat": 38.899922333333336, "lon": -77.027166, "rental_uris": {"android": "https://dc.lft.to/lastmile_qr_scan", "ios": "https://dc.lft.to/lastmile_qr_scan"}, "is_disabled": 0, "fusion_lat": 0.0, "name": "86600a14e816cb83fec0cc7b2eb0ff48", "fusion_lon": 0.0}, {"is_reserved": 0, "type": "electric_bike", "bike_id": "7b7dec22ea523902172fb021e0309a3a", "lat": 38.89400666666667, "lon": -76.86846, "rental_uris": {"android": "https://dc.lft.to/lastmile_qr_scan", "ios": "https://dc.lft.to/lastmile_qr_scan"}, "is_disabled": 0, "fusion_lat": 0.0, "name": "7b7dec22ea523902172fb021e0309a3a", "fusion_lon": 0.0}, {"is_reserved": 0, "type": "electric_scooter", "bike_id": "43fc57af17001a68c6fb8d71a8972341", "lat": 38.918473, "lon": -77.04110266666666, "rental_uris": {"android": "https://dc.lft.to/lastmile_qr_scan", "ios": "https://dc.lft.to/lastmile_qr_scan"}, "is_disabled": 0, "fusion_lat": 0.0, "name": "43fc57af17001a68c6fb8d71a8972341", "fusion_lon": 0.0}, {"is_reserved": 0, "type": "electric_scooter", "bike_id": "8f2c59a55464fe2ba0ef669585aa2e32", "lat": 38.924124666666664, "lon": -77.020072, "rental_uris": {"android": "https://dc.lft.to/lastmile_qr_scan", "ios": "https://dc.lft.to/lastmile_qr_scan"}, "is_disabled": 0, "fusion_lat": 0.0, "name": "8f2c59a55464fe2ba0ef669585aa2e32", "fusion_lon": 0.0}, {"is_reserved": 0, "type": "electric_scooter", "bike_id": "357a978d1e28ba09fedb00ae2c23da03", "lat": 38.905348333333336, "lon": -77.041553, "rental_uris": {"android": "https://dc.lft.to/lastmile_qr_scan", "ios": "https://dc.lft.to/lastmile_qr_scan"}, "is_disabled": 0, "fusion_lat": 0.0, "name": "357a978d1e28ba09fedb00ae2c23da03", "fusion_lon": 0.0}, {"is_reserved": 0, "type": "electric_scooter", "bike_id": "fa82c2a0c5348789a15822a678e10b86", "lat": 38.92770516666667, "lon": -77.0278775, "rental_uris": {"android": "https://dc.lft.to/lastmile_qr_scan", "ios": "https://dc.lft.to/lastmile_qr_scan"}, "is_disabled": 0, "fusion_lat": 0.0, "name": "fa82c2a0c5348789a15822a678e10b86", "fusion_lon": 0.0}, {"is_reserved": 0, "type": "electric_scooter", "bike_id": "dede608bcef299fb1bce910829b33669", "lat": 38.92506866666667, "lon": -77.03877466666667, "rental_uris": {"android": "https://dc.lft.to/lastmile_qr_scan", "ios": "https://dc.lft.to/lastmile_qr_scan"}, "is_disabled": 0, "fusion_lat": 0.0, "name": "dede608bcef299fb1bce910829b33669", "fusion_lon": 0.0}, {"is_reserved": 0, "type": "electric_scooter", "bike_id": "e4d5193491cbbd3ee9a8e52d9f86616a", "lat": 38.91772683333333, "lon": -77.040544, "rental_uris": {"android": "https://dc.lft.to/lastmile_qr_scan", "ios": "https://dc.lft.to/lastmile_qr_scan"}, "is_disabled": 0, "fusion_lat": 0.0, "name": "e4d5193491cbbd3ee9a8e52d9f86616a", "fusion_lon": 0.0}, {"is_reserved": 0, "type": "electric_scooter", "bike_id": "5a34098e9d0dd6ad62181dbcb7a8c7dc", "lat": 38.92864, "lon": -77.0230325, "rental_uris": {"android": "https://dc.lft.to/lastmile_qr_scan", "ios": "https://dc.lft.to/lastmile_qr_scan"}, "is_disabled": 0, "fusion_lat": 0.0, "name": "5a34098e9d0dd6ad62181dbcb7a8c7dc", "fusion_lon": 0.0}, {"is_reserved": 0, "type": "electric_bike", "bike_id": "3d6f57adeda678722a826f282d57d139", "lat": 38.802502, "lon": -77.11437683333334, "rental_uris": {"android": "https://dc.lft.to/lastmile_qr_scan", "ios": "https://dc.lft.to/lastmile_qr_scan"}, "is_disabled": 0, "fusion_lat": 0.0, "name": "3d6f57adeda678722a826f282d57d139", "fusion_lon": 0.0}, {"is_reserved": 0, "type": "electric_scooter", "bike_id": "2d985ed156075a345469d34eb03868b4", "lat": 38.865277166666665, "lon": -76.9690305, "rental_uris": {"android": "https://dc.lft.to/lastmile_qr_scan", "ios": "https://dc.lft.to/lastmile_qr_scan"}, "is_disabled": 0, "fusion_lat": 0.0, "name": "2d985ed156075a345469d34eb03868b4", "fusion_lon": 0.0}, {"is_reserved": 0, "type": "electric_scooter", "bike_id": "94793df0d35058b70279b6570006c574", "lat": 38.904917833333336, "lon": -77.04860483333333, "rental_uris": {"android": "https://dc.lft.to/lastmile_qr_scan", "ios": "https://dc.lft.to/lastmile_qr_scan"}, "is_disabled": 0, "fusion_lat": 0.0, "name": "94793df0d35058b70279b6570006c574", "fusion_lon": 0.0}, {"is_reserved": 0, "type": "electric_scooter", "bike_id": "6abc459e15333924644f7feaa83ea3a5", "lat": 38.91554716666667, "lon": -77.03116083333333, "rental_uris": {"android": "https://dc.lft.to/lastmile_qr_scan", "ios": "https://dc.lft.to/lastmile_qr_scan"}, "is_disabled": 0, "fusion_lat": 0.0, "name": "6abc459e15333924644f7feaa83ea3a5", "fusion_lon": 0.0}, {"is_reserved": 0, "type": "electric_scooter", "bike_id": "be0804a31eb791d7e0bc32610538e26f", "lat": 38.896103833333335, "lon": -77.04412433333333, "rental_uris": {"android": "https://dc.lft.to/lastmile_qr_scan", "ios": "https://dc.lft.to/lastmile_qr_scan"}, "is_disabled": 0, "fusion_lat": 0.0, "name": "be0804a31eb791d7e0bc32610538e26f", "fusion_lon": 0.0}, {"is_reserved": 0, "type": "electric_scooter", "bike_id": "ee3de2a61f1c1f1c438f925ba1ad37b5", "lat": 38.9186555, "lon": -77.03652966666667, "rental_uris": {"android": "https://dc.lft.to/lastmile_qr_scan", "ios": "https://dc.lft.to/lastmile_qr_scan"}, "is_disabled": 0, "fusion_lat": 0.0, "name": "ee3de2a61f1c1f1c438f925ba1ad37b5", "fusion_lon": 0.0}, {"is_reserved": 0, "type": "electric_scooter", "bike_id": "a3d43fb598cc11e8365476eadb411d3d", "lat": 38.89427766666667, "lon": -77.055916, "rental_uris": {"android": "https://dc.lft.to/lastmile_qr_scan", "ios": "https://dc.lft.to/lastmile_qr_scan"}, "is_disabled": 0, "fusion_lat": 0.0, "name": "a3d43fb598cc11e8365476eadb411d3d", "fusion_lon": 0.0}, {"is_reserved": 0, "type": "electric_scooter", "bike_id": "5e3ffb60b1e1c8ca21b5862cc481a52a", "lat": 38.92372366666667, "lon": -77.019139, "rental_uris": {"android": "https://dc.lft.to/lastmile_qr_scan", "ios": "https://dc.lft.to/lastmile_qr_scan"}, "is_disabled": 0, "fusion_lat": 0.0, "name": "5e3ffb60b1e1c8ca21b5862cc481a52a", "fusion_lon": 0.0}, {"is_reserved": 0, "type": "electric_scooter", "bike_id": "96f234026263c38fa52ac2844d1e19f8", "lat": 38.92223333333333, "lon": -77.0424175, "rental_uris": {"android": "https://dc.lft.to/lastmile_qr_scan", "ios": "https://dc.lft.to/lastmile_qr_scan"}, "is_disabled": 0, "fusion_lat": 0.0, "name": "96f234026263c38fa52ac2844d1e19f8", "fusion_lon": 0.0}, {"is_reserved": 0, "type": "electric_scooter", "bike_id": "c14a9ee18299bed1f53fe81fe5b18919", "lat": 38.93110016666667, "lon": -77.03485833333333, "rental_uris": {"android": "https://dc.lft.to/lastmile_qr_scan", "ios": "https://dc.lft.to/lastmile_qr_scan"}, "is_disabled": 0, "fusion_lat": 0.0, "name": "c14a9ee18299bed1f53fe81fe5b18919", "fusion_lon": 0.0}, {"is_reserved": 0, "type": "electric_scooter", "bike_id": "e45bd820009fb39d08713c41e1f337ce", "lat": 38.92331316666667, "lon": -77.02962216666667, "rental_uris": {"android": "https://dc.lft.to/lastmile_qr_scan", "ios": "https://dc.lft.to/lastmile_qr_scan"}, "is_disabled": 0, "fusion_lat": 0.0, "name": "e45bd820009fb39d08713c41e1f337ce", "fusion_lon": 0.0}, {"is_reserved": 0, "type": "electric_bike", "bike_id": "ed8d845709297dc89cd019293fe42f09", "lat": 38.92141916666667, "lon": -77.0797315, "rental_uris": {"android": "https://dc.lft.to/lastmile_qr_scan", "ios": "https://dc.lft.to/lastmile_qr_scan"}, "is_disabled": 0, "fusion_lat": 0.0, "name": "ed8d845709297dc89cd019293fe42f09", "fusion_lon": 0.0}, {"is_reserved": 0, "type": "electric_scooter", "bike_id": "200e02a88e066916138bd1db99e0f383", "lat": 38.94941566666667, "lon": -77.026906, "rental_uris": {"android": "https://dc.lft.to/lastmile_qr_scan", "ios": "https://dc.lft.to/lastmile_qr_scan"}, "is_disabled": 0, "fusion_lat": 0.0, "name": "200e02a88e066916138bd1db99e0f383", "fusion_lon": 0.0}, {"is_reserved": 0, "type": "electric_scooter", "bike_id": "d84151117d83b9adfb19921f4afa17e1", "lat": 38.91689066666667, "lon": -77.0281705, "rental_uris": {"android": "https://dc.lft.to/lastmile_qr_scan", "ios": "https://dc.lft.to/lastmile_qr_scan"}, "is_disabled": 0, "fusion_lat": 0.0, "name": "d84151117d83b9adfb19921f4afa17e1", "fusion_lon": 0.0}, {"is_reserved": 0, "type": "electric_scooter", "bike_id": "dfc8f28b5cc98db1250ca23a7b8a101d", "lat": 38.88735166666667, "lon": -77.026221, "rental_uris": {"android": "https://dc.lft.to/lastmile_qr_scan", "ios": "https://dc.lft.to/lastmile_qr_scan"}, "is_disabled": 0, "fusion_lat": 0.0, "name": "dfc8f28b5cc98db1250ca23a7b8a101d", "fusion_lon": 0.0}, {"is_reserved": 0, "type": "electric_scooter", "bike_id": "0b17016d2b701d649989ff5bf6b3c588", "lat": 38.89343233333334, "lon": -76.99382033333333, "rental_uris": {"android": "https://dc.lft.to/lastmile_qr_scan", "ios": "https://dc.lft.to/lastmile_qr_scan"}, "is_disabled": 0, "fusion_lat": 0.0, "name": "0b17016d2b701d649989ff5bf6b3c588", "fusion_lon": 0.0}, {"is_reserved": 0, "type": "electric_scooter", "bike_id": "ab0d9fa676837d77286a5b0b4e8ff2a5", "lat": 38.899939, "lon": -77.029342, "rental_uris": {"android": "https://dc.lft.to/lastmile_qr_scan", "ios": "https://dc.lft.to/lastmile_qr_scan"}, "is_disabled": 0, "fusion_lat": 0.0, "name": "ab0d9fa676837d77286a5b0b4e8ff2a5", "fusion_lon": 0.0}, {"is_reserved": 0, "type": "electric_scooter", "bike_id": "37cbaca2a9703fda4e94cc6f7c01d33c", "lat": 38.90254916666667, "lon": -77.03561533333334, "rental_uris": {"android": "https://dc.lft.to/lastmile_qr_scan", "ios": "https://dc.lft.to/lastmile_qr_scan"}, "is_disabled": 0, "fusion_lat": 0.0, "name": "37cbaca2a9703fda4e94cc6f7c01d33c", "fusion_lon": 0.0}, {"is_reserved": 0, "type": "electric_scooter", "bike_id": "e789a97060553d732dc89030d2a1dc83", "lat": 38.91569366666667, "lon": -76.98370433333334, "rental_uris": {"android": "https://dc.lft.to/lastmile_qr_scan", "ios": "https://dc.lft.to/lastmile_qr_scan"}, "is_disabled": 0, "fusion_lat": 0.0, "name": "e789a97060553d732dc89030d2a1dc83", "fusion_lon": 0.0}, {"is_reserved": 0, "type": "electric_bike", "bike_id": "f17809c374f49ea8778825f4ce26c5b0", "lat": 38.900208666666664, "lon": -76.9935955, "rental_uris": {"android": "https://dc.lft.to/lastmile_qr_scan", "ios": "https://dc.lft.to/lastmile_qr_scan"}, "is_disabled": 0, "fusion_lat": 0.0, "name": "f17809c374f49ea8778825f4ce26c5b0", "fusion_lon": 0.0}, {"is_reserved": 0, "type": "electric_scooter", "bike_id": "64883676e44ce466b8185baf5d6ad523", "lat": 38.9109385, "lon": -76.98475216666667, "rental_uris": {"android": "https://dc.lft.to/lastmile_qr_scan", "ios": "https://dc.lft.to/lastmile_qr_scan"}, "is_disabled": 0, "fusion_lat": 0.0, "name": "64883676e44ce466b8185baf5d6ad523", "fusion_lon": 0.0}, {"is_reserved": 0, "type": "electric_scooter", "bike_id": "ef075f12183f2bbfd375a56b41fe4151", "lat": 38.925822333333336, "lon": -77.03766216666666, "rental_uris": {"android": "https://dc.lft.to/lastmile_qr_scan", "ios": "https://dc.lft.to/lastmile_qr_scan"}, "is_disabled": 0, "fusion_lat": 0.0, "name": "ef075f12183f2bbfd375a56b41fe4151", "fusion_lon": 0.0}, {"is_reserved": 0, "type": "electric_scooter", "bike_id": "78803cbffd4a508d02198f9d38d6508e", "lat": 38.8872985, "lon": -76.98375983333334, "rental_uris": {"android": "https://dc.lft.to/lastmile_qr_scan", "ios": "https://dc.lft.to/lastmile_qr_scan"}, "is_disabled": 0, "fusion_lat": 0.0, "name": "78803cbffd4a508d02198f9d38d6508e", "fusion_lon": 0.0}, {"is_reserved": 0, "type": "electric_scooter", "bike_id": "e2a88178841c3d06a173774ed03a0003", "lat": 38.894452666666666, "lon": -77.04538133333334, "rental_uris": {"android": "https://dc.lft.to/lastmile_qr_scan", "ios": "https://dc.lft.to/lastmile_qr_scan"}, "is_disabled": 0, "fusion_lat": 0.0, "name": "e2a88178841c3d06a173774ed03a0003", "fusion_lon": 0.0}, {"is_reserved": 0, "type": "electric_scooter", "bike_id": "a57e87ad84b7e2dedcc0788171de50d7", "lat": 38.90888266666666, "lon": -77.02182033333334, "rental_uris": {"android": "https://dc.lft.to/lastmile_qr_scan", "ios": "https://dc.lft.to/lastmile_qr_scan"}, "is_disabled": 0, "fusion_lat": 0.0, "name": "a57e87ad84b7e2dedcc0788171de50d7", "fusion_lon": 0.0}, {"is_reserved": 0, "type": "electric_scooter", "bike_id": "5ea8ffd74979897ff7e1afd5583be850", "lat": 38.91119533333333, "lon": -77.04463366666667, "rental_uris": {"android": "https://dc.lft.to/lastmile_qr_scan", "ios": "https://dc.lft.to/lastmile_qr_scan"}, "is_disabled": 0, "fusion_lat": 0.0, "name": "5ea8ffd74979897ff7e1afd5583be850", "fusion_lon": 0.0}, {"is_reserved": 0, "type": "electric_scooter", "bike_id": "64eac26b4f48065118349dc1b0d861a1", "lat": 38.91868433333333, "lon": -77.0356675, "rental_uris": {"android": "https://dc.lft.to/lastmile_qr_scan", "ios": "https://dc.lft.to/lastmile_qr_scan"}, "is_disabled": 0, "fusion_lat": 0.0, "name": "64eac26b4f48065118349dc1b0d861a1", "fusion_lon": 0.0}, {"is_reserved": 0, "type": "electric_bike", "bike_id": "4efcf78e1ceb91a2f6b3953775bfb199", "lat": 38.884073666666666, "lon": -76.98965216666667, "rental_uris": {"android": "https://dc.lft.to/lastmile_qr_scan", "ios": "https://dc.lft.to/lastmile_qr_scan"}, "is_disabled": 0, "fusion_lat": 0.0, "name": "4efcf78e1ceb91a2f6b3953775bfb199", "fusion_lon": 0.0}, {"is_reserved": 0, "type": "electric_scooter", "bike_id": "f4114910908b0f1c81be0f6bc1b64d57", "lat": 38.907967, "lon": -77.04786016666667, "rental_uris": {"android": "https://dc.lft.to/lastmile_qr_scan", "ios": "https://dc.lft.to/lastmile_qr_scan"}, "is_disabled": 0, "fusion_lat": 0.0, "name": "f4114910908b0f1c81be0f6bc1b64d57", "fusion_lon": 0.0}, {"is_reserved": 0, "type": "electric_scooter", "bike_id": "1c094587d89c095fbd64fe98d097842f", "lat": 38.909727333333336, "lon": -77.00774066666666, "rental_uris": {"android": "https://dc.lft.to/lastmile_qr_scan", "ios": "https://dc.lft.to/lastmile_qr_scan"}, "is_disabled": 0, "fusion_lat": 0.0, "name": "1c094587d89c095fbd64fe98d097842f", "fusion_lon": 0.0}, {"is_reserved": 0, "type": "electric_scooter", "bike_id": "85093a5cffe3262fa38f33ab5ae9a66c", "lat": 38.9525195, "lon": -77.023913, "rental_uris": {"android": "https://dc.lft.to/lastmile_qr_scan", "ios": "https://dc.lft.to/lastmile_qr_scan"}, "is_disabled": 0, "fusion_lat": 0.0, "name": "85093a5cffe3262fa38f33ab5ae9a66c", "fusion_lon": 0.0}, {"is_reserved": 0, "type": "electric_bike", "bike_id": "a60d235e8b1aa8a643b76bbb188c1a22", "lat": 38.995605833333336, "lon": -77.07432383333334, "rental_uris": {"android": "https://dc.lft.to/lastmile_qr_scan", "ios": "https://dc.lft.to/lastmile_qr_scan"}, "is_disabled": 0, "fusion_lat": 0.0, "name": "a60d235e8b1aa8a643b76bbb188c1a22", "fusion_lon": 0.0}, {"is_reserved": 0, "type": "electric_scooter", "bike_id": "c268909da923089f6b39196bb6bfde07", "lat": 38.917082666666666, "lon": -77.03217933333333, "rental_uris": {"android": "https://dc.lft.to/lastmile_qr_scan", "ios": "https://dc.lft.to/lastmile_qr_scan"}, "is_disabled": 0, "fusion_lat": 0.0, "name": "c268909da923089f6b39196bb6bfde07", "fusion_lon": 0.0}, {"is_reserved": 0, "type": "electric_scooter", "bike_id": "a51dff7fcd9f379fdd7eea18fa0fd5f8", "lat": 38.91870333333333, "lon": -77.01347816666667, "rental_uris": {"android": "https://dc.lft.to/lastmile_qr_scan", "ios": "https://dc.lft.to/lastmile_qr_scan"}, "is_disabled": 0, "fusion_lat": 0.0, "name": "a51dff7fcd9f379fdd7eea18fa0fd5f8", "fusion_lon": 0.0}, {"is_reserved": 0, "type": "electric_scooter", "bike_id": "710e60c2a41cba29a2c45dd9dea14024", "lat": 38.92262216666666, "lon": -77.03660366666666, "rental_uris": {"android": "https://dc.lft.to/lastmile_qr_scan", "ios": "https://dc.lft.to/lastmile_qr_scan"}, "is_disabled": 0, "fusion_lat": 0.0, "name": "710e60c2a41cba29a2c45dd9dea14024", "fusion_lon": 0.0}, {"is_reserved": 0, "type": "electric_scooter", "bike_id": "46e9471dc22c471298eb65840b30adc0", "lat": 38.90588566666667, "lon": -77.03637566666667, "rental_uris": {"android": "https://dc.lft.to/lastmile_qr_scan", "ios": "https://dc.lft.to/lastmile_qr_scan"}, "is_disabled": 0, "fusion_lat": 0.0, "name": "46e9471dc22c471298eb65840b30adc0", "fusion_lon": 0.0}, {"is_reserved": 0, "type": "electric_scooter", "bike_id": "8ea9739521682aba8ca42bbac7354527", "lat": 38.966508, "lon": -77.00891183333333, "rental_uris": {"android": "https://dc.lft.to/lastmile_qr_scan", "ios": "https://dc.lft.to/lastmile_qr_scan"}, "is_disabled": 0, "fusion_lat": 0.0, "name": "8ea9739521682aba8ca42bbac7354527", "fusion_lon": 0.0}, {"is_reserved": 0, "type": "electric_scooter", "bike_id": "3f523cb0d7779d1d5fe6010a6278ad63", "lat": 38.935821833333335, "lon": -77.02432766666666, "rental_uris": {"android": "https://dc.lft.to/lastmile_qr_scan", "ios": "https://dc.lft.to/lastmile_qr_scan"}, "is_disabled": 0, "fusion_lat": 0.0, "name": "3f523cb0d7779d1d5fe6010a6278ad63", "fusion_lon": 0.0}, {"is_reserved": 0, "type": "electric_scooter", "bike_id": "de5f8177413f73ce08eaef6f33ad768d", "lat": 38.92613466666667, "lon": -77.02156966666666, "rental_uris": {"android": "https://dc.lft.to/lastmile_qr_scan", "ios": "https://dc.lft.to/lastmile_qr_scan"}, "is_disabled": 0, "fusion_lat": 0.0, "name": "de5f8177413f73ce08eaef6f33ad768d", "fusion_lon": 0.0}, {"is_reserved": 0, "type": "electric_scooter", "bike_id": "e4126161ea042e94ae56f8a680545c46", "lat": 38.900341, "lon": -77.044824, "rental_uris": {"android": "https://dc.lft.to/lastmile_qr_scan", "ios": "https://dc.lft.to/lastmile_qr_scan"}, "is_disabled": 0, "fusion_lat": 0.0, "name": "e4126161ea042e94ae56f8a680545c46", "fusion_lon": 0.0}, {"is_reserved": 0, "type": "electric_scooter", "bike_id": "74c39ffec2afaf58cb4103ed628c9e0a", "lat": 38.8999085, "lon": -77.0272215, "rental_uris": {"android": "https://dc.lft.to/lastmile_qr_scan", "ios": "https://dc.lft.to/lastmile_qr_scan"}, "is_disabled": 0, "fusion_lat": 0.0, "name": "74c39ffec2afaf58cb4103ed628c9e0a", "fusion_lon": 0.0}, {"is_reserved": 0, "type": "electric_scooter", "bike_id": "8f5e3c97abadc34d8030d66cb760f595", "lat": 38.909597166666664, "lon": -77.0212835, "rental_uris": {"android": "https://dc.lft.to/lastmile_qr_scan", "ios": "https://dc.lft.to/lastmile_qr_scan"}, "is_disabled": 0, "fusion_lat": 0.0, "name": "8f5e3c97abadc34d8030d66cb760f595", "fusion_lon": 0.0}, {"is_reserved": 0, "type": "electric_scooter", "bike_id": "1ec7caa2c12d7b0ca31632044ec5e043", "lat": 38.89629883333333, "lon": -77.00200766666667, "rental_uris": {"android": "https://dc.lft.to/lastmile_qr_scan", "ios": "https://dc.lft.to/lastmile_qr_scan"}, "is_disabled": 0, "fusion_lat": 0.0, "name": "1ec7caa2c12d7b0ca31632044ec5e043", "fusion_lon": 0.0}, {"is_reserved": 0, "type": "electric_scooter", "bike_id": "45bd0fe99034e47ffdd06bb7a55798e6", "lat": 38.8988775, "lon": -77.0488895, "rental_uris": {"android": "https://dc.lft.to/lastmile_qr_scan", "ios": "https://dc.lft.to/lastmile_qr_scan"}, "is_disabled": 0, "fusion_lat": 0.0, "name": "45bd0fe99034e47ffdd06bb7a55798e6", "fusion_lon": 0.0}, {"is_reserved": 0, "type": "electric_scooter", "bike_id": "c61d799acf87625a46174a9f4af0ecd0", "lat": 38.9018745, "lon": -77.04484566666666, "rental_uris": {"android": "https://dc.lft.to/lastmile_qr_scan", "ios": "https://dc.lft.to/lastmile_qr_scan"}, "is_disabled": 0, "fusion_lat": 0.0, "name": "c61d799acf87625a46174a9f4af0ecd0", "fusion_lon": 0.0}, {"is_reserved": 0, "type": "electric_scooter", "bike_id": "be89877010e0fc2766a1d91452819266", "lat": 38.92137983333333, "lon": -77.01037666666667, "rental_uris": {"android": "https://dc.lft.to/lastmile_qr_scan", "ios": "https://dc.lft.to/lastmile_qr_scan"}, "is_disabled": 0, "fusion_lat": 0.0, "name": "be89877010e0fc2766a1d91452819266", "fusion_lon": 0.0}, {"is_reserved": 0, "type": "electric_scooter", "bike_id": "06b6e0a789d9095f53cb6b437b740bf1", "lat": 38.928076, "lon": -77.03664316666666, "rental_uris": {"android": "https://dc.lft.to/lastmile_qr_scan", "ios": "https://dc.lft.to/lastmile_qr_scan"}, "is_disabled": 0, "fusion_lat": 0.0, "name": "06b6e0a789d9095f53cb6b437b740bf1", "fusion_lon": 0.0}, {"is_reserved": 0, "type": "electric_scooter", "bike_id": "832a2fcaf2f7e4df514aa9585b996877", "lat": 38.931854, "lon": -77.03847783333333, "rental_uris": {"android": "https://dc.lft.to/lastmile_qr_scan", "ios": "https://dc.lft.to/lastmile_qr_scan"}, "is_disabled": 0, "fusion_lat": 0.0, "name": "832a2fcaf2f7e4df514aa9585b996877", "fusion_lon": 0.0}, {"is_reserved": 0, "type": "electric_scooter", "bike_id": "9bfb2fd5fc786ecbe2154b4d71a0e6a6", "lat": 38.9106385, "lon": -77.0218105, "rental_uris": {"android": "https://dc.lft.to/lastmile_qr_scan", "ios": "https://dc.lft.to/lastmile_qr_scan"}, "is_disabled": 0, "fusion_lat": 0.0, "name": "9bfb2fd5fc786ecbe2154b4d71a0e6a6", "fusion_lon": 0.0}, {"is_reserved": 0, "type": "electric_bike", "bike_id": "4a4a4e50a33b79914552989d6fbf6588", "lat": 38.914112, "lon": -77.00487533333333, "rental_uris": {"android": "https://dc.lft.to/lastmile_qr_scan", "ios": "https://dc.lft.to/lastmile_qr_scan"}, "is_disabled": 0, "fusion_lat": 0.0, "name": "4a4a4e50a33b79914552989d6fbf6588", "fusion_lon": 0.0}, {"is_reserved": 0, "type": "electric_scooter", "bike_id": "5d367cf9295899ab2cafdfafaee51d5d", "lat": 38.90962066666667, "lon": -77.0143925, "rental_uris": {"android": "https://dc.lft.to/lastmile_qr_scan", "ios": "https://dc.lft.to/lastmile_qr_scan"}, "is_disabled": 0, "fusion_lat": 0.0, "name": "5d367cf9295899ab2cafdfafaee51d5d", "fusion_lon": 0.0}, {"is_reserved": 0, "type": "electric_scooter", "bike_id": "1d3a52e4e0d6e5b2ee26b44f5fe689e1", "lat": 38.924037166666665, "lon": -76.95142283333334, "rental_uris": {"android": "https://dc.lft.to/lastmile_qr_scan", "ios": "https://dc.lft.to/lastmile_qr_scan"}, "is_disabled": 0, "fusion_lat": 0.0, "name": "1d3a52e4e0d6e5b2ee26b44f5fe689e1", "fusion_lon": 0.0}, {"is_reserved": 0, "type": "electric_scooter", "bike_id": "39b7aac45ed64b81ee557b660254362b", "lat": 38.8960605, "lon": -77.02628433333334, "rental_uris": {"android": "https://dc.lft.to/lastmile_qr_scan", "ios": "https://dc.lft.to/lastmile_qr_scan"}, "is_disabled": 0, "fusion_lat": 0.0, "name": "39b7aac45ed64b81ee557b660254362b", "fusion_lon": 0.0}, {"is_reserved": 0, "type": "electric_scooter", "bike_id": "5940f0e2f47ef09003ff87d30f31ea93", "lat": 38.920341666666666, "lon": -77.05622266666667, "rental_uris": {"android": "https://dc.lft.to/lastmile_qr_scan", "ios": "https://dc.lft.to/lastmile_qr_scan"}, "is_disabled": 0, "fusion_lat": 0.0, "name": "5940f0e2f47ef09003ff87d30f31ea93", "fusion_lon": 0.0}, {"is_reserved": 0, "type": "electric_scooter", "bike_id": "5278dbe45f9d075edbbb0c0332170bb6", "lat": 38.9000405, "lon": -77.028937, "rental_uris": {"android": "https://dc.lft.to/lastmile_qr_scan", "ios": "https://dc.lft.to/lastmile_qr_scan"}, "is_disabled": 0, "fusion_lat": 0.0, "name": "5278dbe45f9d075edbbb0c0332170bb6", "fusion_lon": 0.0}, {"is_reserved": 0, "type": "electric_scooter", "bike_id": "abfbaf2ab88be9cf550263cf01a484ae", "lat": 38.91799266666666, "lon": -77.0320565, "rental_uris": {"android": "https://dc.lft.to/lastmile_qr_scan", "ios": "https://dc.lft.to/lastmile_qr_scan"}, "is_disabled": 0, "fusion_lat": 0.0, "name": "abfbaf2ab88be9cf550263cf01a484ae", "fusion_lon": 0.0}, {"is_reserved": 0, "type": "electric_scooter", "bike_id": "fec9293e306d5aeeea6a179d25dc3c07", "lat": 38.9007575, "lon": -77.04927283333333, "rental_uris": {"android": "https://dc.lft.to/lastmile_qr_scan", "ios": "https://dc.lft.to/lastmile_qr_scan"}, "is_disabled": 0, "fusion_lat": 0.0, "name": "fec9293e306d5aeeea6a179d25dc3c07", "fusion_lon": 0.0}, {"is_reserved": 0, "type": "electric_scooter", "bike_id": "91a5f98d69643e68b62f2d587235c50a", "lat": 38.91423433333333, "lon": -77.03197816666666, "rental_uris": {"android": "https://dc.lft.to/lastmile_qr_scan", "ios": "https://dc.lft.to/lastmile_qr_scan"}, "is_disabled": 0, "fusion_lat": 0.0, "name": "91a5f98d69643e68b62f2d587235c50a", "fusion_lon": 0.0}, {"is_reserved": 0, "type": "electric_scooter", "bike_id": "33a88d8f5b38f6386f40e2ad1b25c141", "lat": 38.9280265, "lon": -77.02320883333333, "rental_uris": {"android": "https://dc.lft.to/lastmile_qr_scan", "ios": "https://dc.lft.to/lastmile_qr_scan"}, "is_disabled": 0, "fusion_lat": 0.0, "name": "33a88d8f5b38f6386f40e2ad1b25c141", "fusion_lon": 0.0}, {"is_reserved": 0, "type": "electric_scooter", "bike_id": "4f0160ba6823b4b29afaa29497e0fbe0", "lat": 38.869704, "lon": -77.01116, "rental_uris": {"android": "https://dc.lft.to/lastmile_qr_scan", "ios": "https://dc.lft.to/lastmile_qr_scan"}, "is_disabled": 0, "fusion_lat": 0.0, "name": "4f0160ba6823b4b29afaa29497e0fbe0", "fusion_lon": 0.0}, {"is_reserved": 0, "type": "electric_scooter", "bike_id": "3a3e5c4e3c21858ce032b9d686589928", "lat": 38.91963283333333, "lon": -77.02353083333334, "rental_uris": {"android": "https://dc.lft.to/lastmile_qr_scan", "ios": "https://dc.lft.to/lastmile_qr_scan"}, "is_disabled": 0, "fusion_lat": 0.0, "name": "3a3e5c4e3c21858ce032b9d686589928", "fusion_lon": 0.0}, {"is_reserved": 0, "type": "electric_scooter", "bike_id": "6163116ad65824d66a6a1be63c8fdd84", "lat": 38.9001385, "lon": -76.99622766666667, "rental_uris": {"android": "https://dc.lft.to/lastmile_qr_scan", "ios": "https://dc.lft.to/lastmile_qr_scan"}, "is_disabled": 0, "fusion_lat": 0.0, "name": "6163116ad65824d66a6a1be63c8fdd84", "fusion_lon": 0.0}, {"is_reserved": 0, "type": "electric_scooter", "bike_id": "5d10f0ee4300906d772d3d83b68560ac", "lat": 38.900155, "lon": -76.99623583333333, "rental_uris": {"android": "https://dc.lft.to/lastmile_qr_scan", "ios": "https://dc.lft.to/lastmile_qr_scan"}, "is_disabled": 0, "fusion_lat": 0.0, "name": "5d10f0ee4300906d772d3d83b68560ac", "fusion_lon": 0.0}, {"is_reserved": 0, "type": "electric_bike", "bike_id": "5b1f315310e352a7898d22e7dac0b67b", "lat": 38.88415066666666, "lon": -76.95767083333334, "rental_uris": {"android": "https://dc.lft.to/lastmile_qr_scan", "ios": "https://dc.lft.to/lastmile_qr_scan"}, "is_disabled": 0, "fusion_lat": 0.0, "name": "5b1f315310e352a7898d22e7dac0b67b", "fusion_lon": 0.0}, {"is_reserved": 0, "type": "electric_bike", "bike_id": "73a8856bddc7af52a02c9a4fbb08f4c6", "lat": 38.78402416666667, "lon": -77.12058666666667, "rental_uris": {"android": "https://dc.lft.to/lastmile_qr_scan", "ios": "https://dc.lft.to/lastmile_qr_scan"}, "is_disabled": 0, "fusion_lat": 0.0, "name": "73a8856bddc7af52a02c9a4fbb08f4c6", "fusion_lon": 0.0}, {"is_reserved": 0, "type": "electric_scooter", "bike_id": "082f66388e88d19bfc67a333648fd325", "lat": 38.883238, "lon": -77.00951133333334, "rental_uris": {"android": "https://dc.lft.to/lastmile_qr_scan", "ios": "https://dc.lft.to/lastmile_qr_scan"}, "is_disabled": 0, "fusion_lat": 0.0, "name": "082f66388e88d19bfc67a333648fd325", "fusion_lon": 0.0}, {"is_reserved": 0, "type": "electric_scooter", "bike_id": "4030e8d96cd25330846aa3a73a88ef6a", "lat": 38.901805, "lon": -77.00348433333333, "rental_uris": {"android": "https://dc.lft.to/lastmile_qr_scan", "ios": "https://dc.lft.to/lastmile_qr_scan"}, "is_disabled": 0, "fusion_lat": 0.0, "name": "4030e8d96cd25330846aa3a73a88ef6a", "fusion_lon": 0.0}, {"is_reserved": 0, "type": "electric_scooter", "bike_id": "a31877ec76c88be8094790608ac3b5af", "lat": 38.937193, "lon": -77.03262, "rental_uris": {"android": "https://dc.lft.to/lastmile_qr_scan", "ios": "https://dc.lft.to/lastmile_qr_scan"}, "is_disabled": 0, "fusion_lat": 0.0, "name": "a31877ec76c88be8094790608ac3b5af", "fusion_lon": 0.0}, {"is_reserved": 0, "type": "electric_scooter", "bike_id": "80e2687e4fb037a6a4d8d5d4454fcb2c", "lat": 38.91814516666667, "lon": -77.03251983333334, "rental_uris": {"android": "https://dc.lft.to/lastmile_qr_scan", "ios": "https://dc.lft.to/lastmile_qr_scan"}, "is_disabled": 0, "fusion_lat": 0.0, "name": "80e2687e4fb037a6a4d8d5d4454fcb2c", "fusion_lon": 0.0}, {"is_reserved": 0, "type": "electric_scooter", "bike_id": "254f6847ed7c3a954f8efe982c9516ae", "lat": 38.96409516666667, "lon": -77.032755, "rental_uris": {"android": "https://dc.lft.to/lastmile_qr_scan", "ios": "https://dc.lft.to/lastmile_qr_scan"}, "is_disabled": 0, "fusion_lat": 0.0, "name": "254f6847ed7c3a954f8efe982c9516ae", "fusion_lon": 0.0}, {"is_reserved": 0, "type": "electric_scooter", "bike_id": "2e39dd763277f8387a4fbecb48b16fa6", "lat": 38.92074983333333, "lon": -77.0455255, "rental_uris": {"android": "https://dc.lft.to/lastmile_qr_scan", "ios": "https://dc.lft.to/lastmile_qr_scan"}, "is_disabled": 0, "fusion_lat": 0.0, "name": "2e39dd763277f8387a4fbecb48b16fa6", "fusion_lon": 0.0}, {"is_reserved": 0, "type": "electric_scooter", "bike_id": "2cfc6d9db5779a56bb18116ffbbb0204", "lat": 38.924948666666666, "lon": -77.05216116666666, "rental_uris": {"android": "https://dc.lft.to/lastmile_qr_scan", "ios": "https://dc.lft.to/lastmile_qr_scan"}, "is_disabled": 0, "fusion_lat": 0.0, "name": "2cfc6d9db5779a56bb18116ffbbb0204", "fusion_lon": 0.0}, {"is_reserved": 0, "type": "electric_scooter", "bike_id": "e69c4aada2bdad8df214b65daf8d68d0", "lat": 38.900712166666665, "lon": -77.00759933333333, "rental_uris": {"android": "https://dc.lft.to/lastmile_qr_scan", "ios": "https://dc.lft.to/lastmile_qr_scan"}, "is_disabled": 0, "fusion_lat": 0.0, "name": "e69c4aada2bdad8df214b65daf8d68d0", "fusion_lon": 0.0}, {"is_reserved": 0, "type": "electric_scooter", "bike_id": "b90d0bc56372c85f4d4c47a566e6e8fa", "lat": 38.88760216666667, "lon": -76.99614466666667, "rental_uris": {"android": "https://dc.lft.to/lastmile_qr_scan", "ios": "https://dc.lft.to/lastmile_qr_scan"}, "is_disabled": 0, "fusion_lat": 0.0, "name": "b90d0bc56372c85f4d4c47a566e6e8fa", "fusion_lon": 0.0}, {"is_reserved": 0, "type": "electric_scooter", "bike_id": "f9e879d8cba8ad6ccd82e13dac3c664d", "lat": 38.902547, "lon": -77.05991433333334, "rental_uris": {"android": "https://dc.lft.to/lastmile_qr_scan", "ios": "https://dc.lft.to/lastmile_qr_scan"}, "is_disabled": 0, "fusion_lat": 0.0, "name": "f9e879d8cba8ad6ccd82e13dac3c664d", "fusion_lon": 0.0}, {"is_reserved": 0, "type": "electric_scooter", "bike_id": "8e8c150fda93ea2fa910657d8cffba12", "lat": 38.924306, "lon": -77.019372, "rental_uris": {"android": "https://dc.lft.to/lastmile_qr_scan", "ios": "https://dc.lft.to/lastmile_qr_scan"}, "is_disabled": 0, "fusion_lat": 0.0, "name": "8e8c150fda93ea2fa910657d8cffba12", "fusion_lon": 0.0}, {"is_reserved": 0, "type": "electric_bike", "bike_id": "1c1920233790c5a3a8310ab158b13964", "lat": 38.95845516666667, "lon": -76.986091, "rental_uris": {"android": "https://dc.lft.to/lastmile_qr_scan", "ios": "https://dc.lft.to/lastmile_qr_scan"}, "is_disabled": 0, "fusion_lat": 0.0, "name": "1c1920233790c5a3a8310ab158b13964", "fusion_lon": 0.0}, {"is_reserved": 0, "type": "electric_scooter", "bike_id": "065d1ab99ea777dc59030920ebf453fb", "lat": 38.922413666666664, "lon": -77.03517433333333, "rental_uris": {"android": "https://dc.lft.to/lastmile_qr_scan", "ios": "https://dc.lft.to/lastmile_qr_scan"}, "is_disabled": 0, "fusion_lat": 0.0, "name": "065d1ab99ea777dc59030920ebf453fb", "fusion_lon": 0.0}, {"is_reserved": 0, "type": "electric_scooter", "bike_id": "39d1e70ae382bcf7db2fb87a42bbb67a", "lat": 38.941805333333335, "lon": -77.02564216666667, "rental_uris": {"android": "https://dc.lft.to/lastmile_qr_scan", "ios": "https://dc.lft.to/lastmile_qr_scan"}, "is_disabled": 0, "fusion_lat": 0.0, "name": "39d1e70ae382bcf7db2fb87a42bbb67a", "fusion_lon": 0.0}, {"is_reserved": 0, "type": "electric_scooter", "bike_id": "1c85d88221540e80af8aa55654ed289a", "lat": 38.87868433333333, "lon": -76.962596, "rental_uris": {"android": "https://dc.lft.to/lastmile_qr_scan", "ios": "https://dc.lft.to/lastmile_qr_scan"}, "is_disabled": 0, "fusion_lat": 0.0, "name": "1c85d88221540e80af8aa55654ed289a", "fusion_lon": 0.0}, {"is_reserved": 0, "type": "electric_scooter", "bike_id": "9c9141b3bba8b4e15ae902a591e9205a", "lat": 38.92440666666667, "lon": -77.020314, "rental_uris": {"android": "https://dc.lft.to/lastmile_qr_scan", "ios": "https://dc.lft.to/lastmile_qr_scan"}, "is_disabled": 0, "fusion_lat": 0.0, "name": "9c9141b3bba8b4e15ae902a591e9205a", "fusion_lon": 0.0}, {"is_reserved": 0, "type": "electric_scooter", "bike_id": "829ff870f92d550d73ed8aa83d65b873", "lat": 38.93004616666666, "lon": -77.0230725, "rental_uris": {"android": "https://dc.lft.to/lastmile_qr_scan", "ios": "https://dc.lft.to/lastmile_qr_scan"}, "is_disabled": 0, "fusion_lat": 0.0, "name": "829ff870f92d550d73ed8aa83d65b873", "fusion_lon": 0.0}, {"is_reserved": 0, "type": "electric_scooter", "bike_id": "7d80529cd2427a0714823983312d5c1e", "lat": 38.93759766666667, "lon": -77.03154616666667, "rental_uris": {"android": "https://dc.lft.to/lastmile_qr_scan", "ios": "https://dc.lft.to/lastmile_qr_scan"}, "is_disabled": 0, "fusion_lat": 0.0, "name": "7d80529cd2427a0714823983312d5c1e", "fusion_lon": 0.0}, {"is_reserved": 0, "type": "electric_scooter", "bike_id": "21c9612dce30fd53c96c87a7049e2022", "lat": 38.922521333333336, "lon": -77.02708616666666, "rental_uris": {"android": "https://dc.lft.to/lastmile_qr_scan", "ios": "https://dc.lft.to/lastmile_qr_scan"}, "is_disabled": 0, "fusion_lat": 0.0, "name": "21c9612dce30fd53c96c87a7049e2022", "fusion_lon": 0.0}, {"is_reserved": 0, "type": "electric_scooter", "bike_id": "6e0baa102f5489af697aeb8c122fdfeb", "lat": 38.910022833333336, "lon": -77.01508366666667, "rental_uris": {"android": "https://dc.lft.to/lastmile_qr_scan", "ios": "https://dc.lft.to/lastmile_qr_scan"}, "is_disabled": 0, "fusion_lat": 0.0, "name": "6e0baa102f5489af697aeb8c122fdfeb", "fusion_lon": 0.0}, {"is_reserved": 0, "type": "electric_scooter", "bike_id": "41587689cc2ee369a2e127f348afa23a", "lat": 38.94027916666667, "lon": -77.02642916666667, "rental_uris": {"android": "https://dc.lft.to/lastmile_qr_scan", "ios": "https://dc.lft.to/lastmile_qr_scan"}, "is_disabled": 0, "fusion_lat": 0.0, "name": "41587689cc2ee369a2e127f348afa23a", "fusion_lon": 0.0}, {"is_reserved": 0, "type": "electric_scooter", "bike_id": "57fbb078c3bc7f1a0e8c634d88bf84eb", "lat": 38.93461166666667, "lon": -77.02238466666667, "rental_uris": {"android": "https://dc.lft.to/lastmile_qr_scan", "ios": "https://dc.lft.to/lastmile_qr_scan"}, "is_disabled": 0, "fusion_lat": 0.0, "name": "57fbb078c3bc7f1a0e8c634d88bf84eb", "fusion_lon": 0.0}, {"is_reserved": 0, "type": "electric_scooter", "bike_id": "5b5cbcf49f576591e8f010435c3b4403", "lat": 38.864340166666665, "lon": -76.99859916666666, "rental_uris": {"android": "https://dc.lft.to/lastmile_qr_scan", "ios": "https://dc.lft.to/lastmile_qr_scan"}, "is_disabled": 0, "fusion_lat": 0.0, "name": "5b5cbcf49f576591e8f010435c3b4403", "fusion_lon": 0.0}, {"is_reserved": 0, "type": "electric_scooter", "bike_id": "ae4905bd07bc29180556ba8dbc503a87", "lat": 38.912575333333336, "lon": -77.00151783333334, "rental_uris": {"android": "https://dc.lft.to/lastmile_qr_scan", "ios": "https://dc.lft.to/lastmile_qr_scan"}, "is_disabled": 0, "fusion_lat": 0.0, "name": "ae4905bd07bc29180556ba8dbc503a87", "fusion_lon": 0.0}, {"is_reserved": 0, "type": "electric_bike", "bike_id": "9af65a5cb4fcebdc6b951ac817ba3cd1", "lat": 38.89567266666667, "lon": -77.12734883333333, "rental_uris": {"android": "https://dc.lft.to/lastmile_qr_scan", "ios": "https://dc.lft.to/lastmile_qr_scan"}, "is_disabled": 0, "fusion_lat": 0.0, "name": "9af65a5cb4fcebdc6b951ac817ba3cd1", "fusion_lon": 0.0}, {"is_reserved": 0, "type": "electric_scooter", "bike_id": "694226f67bb0a73f4f1a7f3c5b3fdf6f", "lat": 38.90061133333333, "lon": -76.98682233333334, "rental_uris": {"android": "https://dc.lft.to/lastmile_qr_scan", "ios": "https://dc.lft.to/lastmile_qr_scan"}, "is_disabled": 0, "fusion_lat": 0.0, "name": "694226f67bb0a73f4f1a7f3c5b3fdf6f", "fusion_lon": 0.0}, {"is_reserved": 0, "type": "electric_scooter", "bike_id": "2eea969e7f42eda31d54530380f32693", "lat": 38.903585666666665, "lon": -77.01083533333333, "rental_uris": {"android": "https://dc.lft.to/lastmile_qr_scan", "ios": "https://dc.lft.to/lastmile_qr_scan"}, "is_disabled": 0, "fusion_lat": 0.0, "name": "2eea969e7f42eda31d54530380f32693", "fusion_lon": 0.0}, {"is_reserved": 0, "type": "electric_scooter", "bike_id": "b6a3cbd65844bc2eac1c08d5b9994fca", "lat": 38.927555, "lon": -77.02109933333334, "rental_uris": {"android": "https://dc.lft.to/lastmile_qr_scan", "ios": "https://dc.lft.to/lastmile_qr_scan"}, "is_disabled": 0, "fusion_lat": 0.0, "name": "b6a3cbd65844bc2eac1c08d5b9994fca", "fusion_lon": 0.0}, {"is_reserved": 0, "type": "electric_scooter", "bike_id": "66cba674b0421631cc4882475398ebc6", "lat": 38.89252783333333, "lon": -77.0395555, "rental_uris": {"android": "https://dc.lft.to/lastmile_qr_scan", "ios": "https://dc.lft.to/lastmile_qr_scan"}, "is_disabled": 0, "fusion_lat": 0.0, "name": "66cba674b0421631cc4882475398ebc6", "fusion_lon": 0.0}, {"is_reserved": 0, "type": "electric_scooter", "bike_id": "23bff86ee978abd0fe72e241e9841233", "lat": 38.897423333333336, "lon": -77.02200366666666, "rental_uris": {"android": "https://dc.lft.to/lastmile_qr_scan", "ios": "https://dc.lft.to/lastmile_qr_scan"}, "is_disabled": 0, "fusion_lat": 0.0, "name": "23bff86ee978abd0fe72e241e9841233", "fusion_lon": 0.0}, {"is_reserved": 0, "type": "electric_scooter", "bike_id": "765f1265b367b152e9980b68c4b06629", "lat": 38.93472833333333, "lon": -77.04159216666666, "rental_uris": {"android": "https://dc.lft.to/lastmile_qr_scan", "ios": "https://dc.lft.to/lastmile_qr_scan"}, "is_disabled": 0, "fusion_lat": 0.0, "name": "765f1265b367b152e9980b68c4b06629", "fusion_lon": 0.0}, {"is_reserved": 0, "type": "electric_scooter", "bike_id": "16812d1d5c767757f6fb4f532fd6f1d3", "lat": 38.8837435, "lon": -76.99516383333334, "rental_uris": {"android": "https://dc.lft.to/lastmile_qr_scan", "ios": "https://dc.lft.to/lastmile_qr_scan"}, "is_disabled": 0, "fusion_lat": 0.0, "name": "16812d1d5c767757f6fb4f532fd6f1d3", "fusion_lon": 0.0}, {"is_reserved": 0, "type": "electric_scooter", "bike_id": "7f6074051d4cc89b636ccb29a50a9a26", "lat": 38.958289, "lon": -77.07647783333333, "rental_uris": {"android": "https://dc.lft.to/lastmile_qr_scan", "ios": "https://dc.lft.to/lastmile_qr_scan"}, "is_disabled": 0, "fusion_lat": 0.0, "name": "7f6074051d4cc89b636ccb29a50a9a26", "fusion_lon": 0.0}, {"is_reserved": 0, "type": "electric_scooter", "bike_id": "602932251da0243f1d56b92d58020c30", "lat": 38.89225033333334, "lon": -77.03338233333334, "rental_uris": {"android": "https://dc.lft.to/lastmile_qr_scan", "ios": "https://dc.lft.to/lastmile_qr_scan"}, "is_disabled": 0, "fusion_lat": 0.0, "name": "602932251da0243f1d56b92d58020c30", "fusion_lon": 0.0}, {"is_reserved": 0, "type": "electric_bike", "bike_id": "d64ff975c6bbc74499d6ff981c2c071c", "lat": 38.98914766666667, "lon": -77.02539, "rental_uris": {"android": "https://dc.lft.to/lastmile_qr_scan", "ios": "https://dc.lft.to/lastmile_qr_scan"}, "is_disabled": 0, "fusion_lat": 0.0, "name": "d64ff975c6bbc74499d6ff981c2c071c", "fusion_lon": 0.0}, {"is_reserved": 0, "type": "electric_scooter", "bike_id": "ce66566ab9e5766e8bcd324426a84861", "lat": 38.9140705, "lon": -77.046793, "rental_uris": {"android": "https://dc.lft.to/lastmile_qr_scan", "ios": "https://dc.lft.to/lastmile_qr_scan"}, "is_disabled": 0, "fusion_lat": 0.0, "name": "ce66566ab9e5766e8bcd324426a84861", "fusion_lon": 0.0}, {"is_reserved": 0, "type": "electric_scooter", "bike_id": "0e13224335a39133a0f262d0a0d21993", "lat": 38.929039333333336, "lon": -77.0375155, "rental_uris": {"android": "https://dc.lft.to/lastmile_qr_scan", "ios": "https://dc.lft.to/lastmile_qr_scan"}, "is_disabled": 0, "fusion_lat": 0.0, "name": "0e13224335a39133a0f262d0a0d21993", "fusion_lon": 0.0}, {"is_reserved": 0, "type": "electric_scooter", "bike_id": "a8208ca350f13e70c019ba7359ccda66", "lat": 38.91529716666667, "lon": -77.01993266666666, "rental_uris": {"android": "https://dc.lft.to/lastmile_qr_scan", "ios": "https://dc.lft.to/lastmile_qr_scan"}, "is_disabled": 0, "fusion_lat": 0.0, "name": "a8208ca350f13e70c019ba7359ccda66", "fusion_lon": 0.0}, {"is_reserved": 0, "type": "electric_scooter", "bike_id": "7c0b5599b54dcfa403eb456ca0b68505", "lat": 38.917998, "lon": -77.0343825, "rental_uris": {"android": "https://dc.lft.to/lastmile_qr_scan", "ios": "https://dc.lft.to/lastmile_qr_scan"}, "is_disabled": 0, "fusion_lat": 0.0, "name": "7c0b5599b54dcfa403eb456ca0b68505", "fusion_lon": 0.0}, {"is_reserved": 0, "type": "electric_scooter", "bike_id": "4bd1f1729f3d17a611514ef619b13e8c", "lat": 38.89727283333333, "lon": -77.01959633333334, "rental_uris": {"android": "https://dc.lft.to/lastmile_qr_scan", "ios": "https://dc.lft.to/lastmile_qr_scan"}, "is_disabled": 0, "fusion_lat": 0.0, "name": "4bd1f1729f3d17a611514ef619b13e8c", "fusion_lon": 0.0}, {"is_reserved": 0, "type": "electric_bike", "bike_id": "bc33767409d3a6ee3558c40e38b646b0", "lat": 38.9734085, "lon": -76.995855, "rental_uris": {"android": "https://dc.lft.to/lastmile_qr_scan", "ios": "https://dc.lft.to/lastmile_qr_scan"}, "is_disabled": 0, "fusion_lat": 0.0, "name": "bc33767409d3a6ee3558c40e38b646b0", "fusion_lon": 0.0}, {"is_reserved": 0, "type": "electric_scooter", "bike_id": "554bdc4aff2e087f8803d1405163c954", "lat": 38.910359666666665, "lon": -77.03328416666666, "rental_uris": {"android": "https://dc.lft.to/lastmile_qr_scan", "ios": "https://dc.lft.to/lastmile_qr_scan"}, "is_disabled": 0, "fusion_lat": 0.0, "name": "554bdc4aff2e087f8803d1405163c954", "fusion_lon": 0.0}, {"is_reserved": 0, "type": "electric_bike", "bike_id": "23fd4f577842b30e172d0a4617d974ae", "lat": 39.042373166666664, "lon": -76.99734233333334, "rental_uris": {"android": "https://dc.lft.to/lastmile_qr_scan", "ios": "https://dc.lft.to/lastmile_qr_scan"}, "is_disabled": 0, "fusion_lat": 0.0, "name": "23fd4f577842b30e172d0a4617d974ae", "fusion_lon": 0.0}, {"is_reserved": 0, "type": "electric_scooter", "bike_id": "a2a891ad5c03585080588395cb6c9761", "lat": 38.9136855, "lon": -77.065625, "rental_uris": {"android": "https://dc.lft.to/lastmile_qr_scan", "ios": "https://dc.lft.to/lastmile_qr_scan"}, "is_disabled": 0, "fusion_lat": 0.0, "name": "a2a891ad5c03585080588395cb6c9761", "fusion_lon": 0.0}, {"is_reserved": 0, "type": "electric_scooter", "bike_id": "5e18795f3c69f8230cfb55c8e80b5108", "lat": 38.9521675, "lon": -77.01597133333334, "rental_uris": {"android": "https://dc.lft.to/lastmile_qr_scan", "ios": "https://dc.lft.to/lastmile_qr_scan"}, "is_disabled": 0, "fusion_lat": 0.0, "name": "5e18795f3c69f8230cfb55c8e80b5108", "fusion_lon": 0.0}, {"is_reserved": 0, "type": "electric_scooter", "bike_id": "91f3c987d5c21c23c0d9c1b877ab2310", "lat": 38.927862, "lon": -77.02564983333333, "rental_uris": {"android": "https://dc.lft.to/lastmile_qr_scan", "ios": "https://dc.lft.to/lastmile_qr_scan"}, "is_disabled": 0, "fusion_lat": 0.0, "name": "91f3c987d5c21c23c0d9c1b877ab2310", "fusion_lon": 0.0}, {"is_reserved": 0, "type": "electric_scooter", "bike_id": "e5497f6e3d2b450bf72b70f63bd1c37f", "lat": 38.90127066666667, "lon": -77.02792133333334, "rental_uris": {"android": "https://dc.lft.to/lastmile_qr_scan", "ios": "https://dc.lft.to/lastmile_qr_scan"}, "is_disabled": 0, "fusion_lat": 0.0, "name": "e5497f6e3d2b450bf72b70f63bd1c37f", "fusion_lon": 0.0}, {"is_reserved": 0, "type": "electric_scooter", "bike_id": "62bd4476336a7132cea90d14ef89e73d", "lat": 38.904987166666665, "lon": -77.0199155, "rental_uris": {"android": "https://dc.lft.to/lastmile_qr_scan", "ios": "https://dc.lft.to/lastmile_qr_scan"}, "is_disabled": 0, "fusion_lat": 0.0, "name": "62bd4476336a7132cea90d14ef89e73d", "fusion_lon": 0.0}, {"is_reserved": 0, "type": "electric_scooter", "bike_id": "00c486a4a75a3121e123637c4cbb7e3a", "lat": 38.89009083333333, "lon": -76.937418, "rental_uris": {"android": "https://dc.lft.to/lastmile_qr_scan", "ios": "https://dc.lft.to/lastmile_qr_scan"}, "is_disabled": 0, "fusion_lat": 0.0, "name": "00c486a4a75a3121e123637c4cbb7e3a", "fusion_lon": 0.0}, {"is_reserved": 0, "type": "electric_scooter", "bike_id": "75dea78829e1124f39e02718ff3e9d81", "lat": 38.8875575, "lon": -76.996121, "rental_uris": {"android": "https://dc.lft.to/lastmile_qr_scan", "ios": "https://dc.lft.to/lastmile_qr_scan"}, "is_disabled": 0, "fusion_lat": 0.0, "name": "75dea78829e1124f39e02718ff3e9d81", "fusion_lon": 0.0}, {"is_reserved": 0, "type": "electric_scooter", "bike_id": "cede1b68945a85fa18416194b288baba", "lat": 38.89614233333333, "lon": -77.02621933333333, "rental_uris": {"android": "https://dc.lft.to/lastmile_qr_scan", "ios": "https://dc.lft.to/lastmile_qr_scan"}, "is_disabled": 0, "fusion_lat": 0.0, "name": "cede1b68945a85fa18416194b288baba", "fusion_lon": 0.0}, {"is_reserved": 0, "type": "electric_scooter", "bike_id": "b3cea4ec842831f8de02b14fdbf55c37", "lat": 38.89544166666667, "lon": -76.98493783333333, "rental_uris": {"android": "https://dc.lft.to/lastmile_qr_scan", "ios": "https://dc.lft.to/lastmile_qr_scan"}, "is_disabled": 0, "fusion_lat": 0.0, "name": "b3cea4ec842831f8de02b14fdbf55c37", "fusion_lon": 0.0}, {"is_reserved": 0, "type": "electric_scooter", "bike_id": "65b3e135b0bb7e26c33044b563d9bf37", "lat": 38.959610166666664, "lon": -77.072614, "rental_uris": {"android": "https://dc.lft.to/lastmile_qr_scan", "ios": "https://dc.lft.to/lastmile_qr_scan"}, "is_disabled": 0, "fusion_lat": 0.0, "name": "65b3e135b0bb7e26c33044b563d9bf37", "fusion_lon": 0.0}, {"is_reserved": 0, "type": "electric_scooter", "bike_id": "0274d29d4e33f3217a7886cbce2f98fd", "lat": 38.911915, "lon": -77.00718233333333, "rental_uris": {"android": "https://dc.lft.to/lastmile_qr_scan", "ios": "https://dc.lft.to/lastmile_qr_scan"}, "is_disabled": 0, "fusion_lat": 0.0, "name": "0274d29d4e33f3217a7886cbce2f98fd", "fusion_lon": 0.0}, {"is_reserved": 0, "type": "electric_scooter", "bike_id": "2e39991e5ecad3fa8aff63136d4e6ceb", "lat": 38.887319166666664, "lon": -77.02201816666667, "rental_uris": {"android": "https://dc.lft.to/lastmile_qr_scan", "ios": "https://dc.lft.to/lastmile_qr_scan"}, "is_disabled": 0, "fusion_lat": 0.0, "name": "2e39991e5ecad3fa8aff63136d4e6ceb", "fusion_lon": 0.0}, {"is_reserved": 0, "type": "electric_bike", "bike_id": "26cac8d1535ca6fcbb5daa2d98e52fec", "lat": 38.897015333333336, "lon": -77.0049125, "rental_uris": {"android": "https://dc.lft.to/lastmile_qr_scan", "ios": "https://dc.lft.to/lastmile_qr_scan"}, "is_disabled": 0, "fusion_lat": 0.0, "name": "26cac8d1535ca6fcbb5daa2d98e52fec", "fusion_lon": 0.0}, {"is_reserved": 0, "type": "electric_scooter", "bike_id": "61a78598daef108e0e08a52fa83b14db", "lat": 38.90008533333334, "lon": -77.010243, "rental_uris": {"android": "https://dc.lft.to/lastmile_qr_scan", "ios": "https://dc.lft.to/lastmile_qr_scan"}, "is_disabled": 0, "fusion_lat": 0.0, "name": "61a78598daef108e0e08a52fa83b14db", "fusion_lon": 0.0}, {"is_reserved": 0, "type": "electric_scooter", "bike_id": "5fd8d18413cf5d69b9a58449d89c5072", "lat": 38.9192235, "lon": -77.04808266666667, "rental_uris": {"android": "https://dc.lft.to/lastmile_qr_scan", "ios": "https://dc.lft.to/lastmile_qr_scan"}, "is_disabled": 0, "fusion_lat": 0.0, "name": "5fd8d18413cf5d69b9a58449d89c5072", "fusion_lon": 0.0}, {"is_reserved": 0, "type": "electric_scooter", "bike_id": "1344f6665c8d074e6025b555452f0b37", "lat": 38.92439666666667, "lon": -77.00061566666666, "rental_uris": {"android": "https://dc.lft.to/lastmile_qr_scan", "ios": "https://dc.lft.to/lastmile_qr_scan"}, "is_disabled": 0, "fusion_lat": 0.0, "name": "1344f6665c8d074e6025b555452f0b37", "fusion_lon": 0.0}, {"is_reserved": 0, "type": "electric_bike", "bike_id": "7387116e72160282202db0c420ca2b3e", "lat": 38.94474016666667, "lon": -76.98688516666667, "rental_uris": {"android": "https://dc.lft.to/lastmile_qr_scan", "ios": "https://dc.lft.to/lastmile_qr_scan"}, "is_disabled": 0, "fusion_lat": 0.0, "name": "7387116e72160282202db0c420ca2b3e", "fusion_lon": 0.0}, {"is_reserved": 0, "type": "electric_scooter", "bike_id": "50e1b94a3401d724f902b6801b026fdb", "lat": 38.896102, "lon": -77.00878283333333, "rental_uris": {"android": "https://dc.lft.to/lastmile_qr_scan", "ios": "https://dc.lft.to/lastmile_qr_scan"}, "is_disabled": 0, "fusion_lat": 0.0, "name": "50e1b94a3401d724f902b6801b026fdb", "fusion_lon": 0.0}, {"is_reserved": 0, "type": "electric_scooter", "bike_id": "7bbc3996327adae81e2d7ccd11c7caaa", "lat": 38.950525, "lon": -77.05412916666667, "rental_uris": {"android": "https://dc.lft.to/lastmile_qr_scan", "ios": "https://dc.lft.to/lastmile_qr_scan"}, "is_disabled": 0, "fusion_lat": 0.0, "name": "7bbc3996327adae81e2d7ccd11c7caaa", "fusion_lon": 0.0}, {"is_reserved": 0, "type": "electric_scooter", "bike_id": "2b7ed17fefe00a906601e375e2a76dd6", "lat": 38.91531, "lon": -77.03187616666666, "rental_uris": {"android": "https://dc.lft.to/lastmile_qr_scan", "ios": "https://dc.lft.to/lastmile_qr_scan"}, "is_disabled": 0, "fusion_lat": 0.0, "name": "2b7ed17fefe00a906601e375e2a76dd6", "fusion_lon": 0.0}, {"is_reserved": 0, "type": "electric_scooter", "bike_id": "edaf814ca9122d4600ead9a20189d57e", "lat": 38.91799916666667, "lon": -77.02696233333333, "rental_uris": {"android": "https://dc.lft.to/lastmile_qr_scan", "ios": "https://dc.lft.to/lastmile_qr_scan"}, "is_disabled": 0, "fusion_lat": 0.0, "name": "edaf814ca9122d4600ead9a20189d57e", "fusion_lon": 0.0}, {"is_reserved": 0, "type": "electric_scooter", "bike_id": "dbf90785ad92a13ef45feef6f0f2edb0", "lat": 38.916118166666664, "lon": -77.03731333333333, "rental_uris": {"android": "https://dc.lft.to/lastmile_qr_scan", "ios": "https://dc.lft.to/lastmile_qr_scan"}, "is_disabled": 0, "fusion_lat": 0.0, "name": "dbf90785ad92a13ef45feef6f0f2edb0", "fusion_lon": 0.0}, {"is_reserved": 0, "type": "electric_scooter", "bike_id": "2f066bcf672dd5118f91244982405b97", "lat": 38.89238533333334, "lon": -77.0134905, "rental_uris": {"android": "https://dc.lft.to/lastmile_qr_scan", "ios": "https://dc.lft.to/lastmile_qr_scan"}, "is_disabled": 0, "fusion_lat": 0.0, "name": "2f066bcf672dd5118f91244982405b97", "fusion_lon": 0.0}, {"is_reserved": 0, "type": "electric_scooter", "bike_id": "11dd2c7553a46c2e822331ee7b886153", "lat": 38.92836283333333, "lon": -77.0550865, "rental_uris": {"android": "https://dc.lft.to/lastmile_qr_scan", "ios": "https://dc.lft.to/lastmile_qr_scan"}, "is_disabled": 0, "fusion_lat": 0.0, "name": "11dd2c7553a46c2e822331ee7b886153", "fusion_lon": 0.0}, {"is_reserved": 0, "type": "electric_scooter", "bike_id": "1d1158108bb5120c6ada9ec165b8bc1a", "lat": 38.90179666666667, "lon": -77.04863333333333, "rental_uris": {"android": "https://dc.lft.to/lastmile_qr_scan", "ios": "https://dc.lft.to/lastmile_qr_scan"}, "is_disabled": 0, "fusion_lat": 0.0, "name": "1d1158108bb5120c6ada9ec165b8bc1a", "fusion_lon": 0.0}, {"is_reserved": 0, "type": "electric_scooter", "bike_id": "5a0c46e00c8d6c0e18df758562f780d0", "lat": 38.897436166666665, "lon": -77.02152166666667, "rental_uris": {"android": "https://dc.lft.to/lastmile_qr_scan", "ios": "https://dc.lft.to/lastmile_qr_scan"}, "is_disabled": 0, "fusion_lat": 0.0, "name": "5a0c46e00c8d6c0e18df758562f780d0", "fusion_lon": 0.0}, {"is_reserved": 0, "type": "electric_scooter", "bike_id": "b4a7c45c244aadd80f8f2eb808f2b1ad", "lat": 38.917418166666664, "lon": -77.02798483333333, "rental_uris": {"android": "https://dc.lft.to/lastmile_qr_scan", "ios": "https://dc.lft.to/lastmile_qr_scan"}, "is_disabled": 0, "fusion_lat": 0.0, "name": "b4a7c45c244aadd80f8f2eb808f2b1ad", "fusion_lon": 0.0}, {"is_reserved": 0, "type": "electric_scooter", "bike_id": "00bcec4a9480b0dd23d8843f4e21f753", "lat": 38.89188133333333, "lon": -76.998487, "rental_uris": {"android": "https://dc.lft.to/lastmile_qr_scan", "ios": "https://dc.lft.to/lastmile_qr_scan"}, "is_disabled": 0, "fusion_lat": 0.0, "name": "00bcec4a9480b0dd23d8843f4e21f753", "fusion_lon": 0.0}, {"is_reserved": 0, "type": "electric_scooter", "bike_id": "189f4aefb779a8cf13e2acf0887e2cd1", "lat": 38.92436266666667, "lon": -77.00320066666667, "rental_uris": {"android": "https://dc.lft.to/lastmile_qr_scan", "ios": "https://dc.lft.to/lastmile_qr_scan"}, "is_disabled": 0, "fusion_lat": 0.0, "name": "189f4aefb779a8cf13e2acf0887e2cd1", "fusion_lon": 0.0}, {"is_reserved": 0, "type": "electric_scooter", "bike_id": "d4f54d975e00e9512482879d2e51af29", "lat": 38.9039685, "lon": -77.0629665, "rental_uris": {"android": "https://dc.lft.to/lastmile_qr_scan", "ios": "https://dc.lft.to/lastmile_qr_scan"}, "is_disabled": 0, "fusion_lat": 0.0, "name": "d4f54d975e00e9512482879d2e51af29", "fusion_lon": 0.0}, {"is_reserved": 0, "type": "electric_scooter", "bike_id": "0987a42bf6d1d88d9fb065704b6833ba", "lat": 38.898729333333335, "lon": -76.94661116666667, "rental_uris": {"android": "https://dc.lft.to/lastmile_qr_scan", "ios": "https://dc.lft.to/lastmile_qr_scan"}, "is_disabled": 0, "fusion_lat": 0.0, "name": "0987a42bf6d1d88d9fb065704b6833ba", "fusion_lon": 0.0}, {"is_reserved": 0, "type": "electric_scooter", "bike_id": "836a461d6e5621212fcfa843a2828176", "lat": 38.92853783333333, "lon": -77.0137505, "rental_uris": {"android": "https://dc.lft.to/lastmile_qr_scan", "ios": "https://dc.lft.to/lastmile_qr_scan"}, "is_disabled": 0, "fusion_lat": 0.0, "name": "836a461d6e5621212fcfa843a2828176", "fusion_lon": 0.0}, {"is_reserved": 0, "type": "electric_scooter", "bike_id": "7b4e399d949dda7a313a07abf91620ac", "lat": 38.9169285, "lon": -77.02847416666667, "rental_uris": {"android": "https://dc.lft.to/lastmile_qr_scan", "ios": "https://dc.lft.to/lastmile_qr_scan"}, "is_disabled": 0, "fusion_lat": 0.0, "name": "7b4e399d949dda7a313a07abf91620ac", "fusion_lon": 0.0}, {"is_reserved": 0, "type": "electric_scooter", "bike_id": "3ebdfa8b7e18dcfdaeeef44bdc436330", "lat": 38.907252666666665, "lon": -77.01679916666667, "rental_uris": {"android": "https://dc.lft.to/lastmile_qr_scan", "ios": "https://dc.lft.to/lastmile_qr_scan"}, "is_disabled": 0, "fusion_lat": 0.0, "name": "3ebdfa8b7e18dcfdaeeef44bdc436330", "fusion_lon": 0.0}, {"is_reserved": 0, "type": "electric_scooter", "bike_id": "0b65f53eded096e3061e0786c292ac73", "lat": 38.89221666666667, "lon": -77.0155905, "rental_uris": {"android": "https://dc.lft.to/lastmile_qr_scan", "ios": "https://dc.lft.to/lastmile_qr_scan"}, "is_disabled": 0, "fusion_lat": 0.0, "name": "0b65f53eded096e3061e0786c292ac73", "fusion_lon": 0.0}, {"is_reserved": 0, "type": "electric_scooter", "bike_id": "0b2a95ccd8107dfc620c7a48dee1fa81", "lat": 38.89224633333333, "lon": -77.03176233333333, "rental_uris": {"android": "https://dc.lft.to/lastmile_qr_scan", "ios": "https://dc.lft.to/lastmile_qr_scan"}, "is_disabled": 0, "fusion_lat": 0.0, "name": "0b2a95ccd8107dfc620c7a48dee1fa81", "fusion_lon": 0.0}, {"is_reserved": 0, "type": "electric_bike", "bike_id": "6018552b0db52eb64a436efea553175e", "lat": 38.864485333333334, "lon": -76.98990066666667, "rental_uris": {"android": "https://dc.lft.to/lastmile_qr_scan", "ios": "https://dc.lft.to/lastmile_qr_scan"}, "is_disabled": 0, "fusion_lat": 0.0, "name": "6018552b0db52eb64a436efea553175e", "fusion_lon": 0.0}, {"is_reserved": 0, "type": "electric_scooter", "bike_id": "3ff49a7d6444b755df49e76118d37ae7", "lat": 38.935885166666665, "lon": -77.05862666666667, "rental_uris": {"android": "https://dc.lft.to/lastmile_qr_scan", "ios": "https://dc.lft.to/lastmile_qr_scan"}, "is_disabled": 0, "fusion_lat": 0.0, "name": "3ff49a7d6444b755df49e76118d37ae7", "fusion_lon": 0.0}, {"is_reserved": 0, "type": "electric_scooter", "bike_id": "a0a6ec05a50cb666c133269b129fd2e6", "lat": 38.92992683333333, "lon": -77.05511083333333, "rental_uris": {"android": "https://dc.lft.to/lastmile_qr_scan", "ios": "https://dc.lft.to/lastmile_qr_scan"}, "is_disabled": 0, "fusion_lat": 0.0, "name": "a0a6ec05a50cb666c133269b129fd2e6", "fusion_lon": 0.0}, {"is_reserved": 0, "type": "electric_scooter", "bike_id": "53bfa7c5eebd41ced1d37dc01b912745", "lat": 38.90053733333333, "lon": -77.02588266666666, "rental_uris": {"android": "https://dc.lft.to/lastmile_qr_scan", "ios": "https://dc.lft.to/lastmile_qr_scan"}, "is_disabled": 0, "fusion_lat": 0.0, "name": "53bfa7c5eebd41ced1d37dc01b912745", "fusion_lon": 0.0}, {"is_reserved": 0, "type": "electric_scooter", "bike_id": "dba7cfc33fe9c49b5b13455dea55f25c", "lat": 38.89221883333333, "lon": -77.03113, "rental_uris": {"android": "https://dc.lft.to/lastmile_qr_scan", "ios": "https://dc.lft.to/lastmile_qr_scan"}, "is_disabled": 0, "fusion_lat": 0.0, "name": "dba7cfc33fe9c49b5b13455dea55f25c", "fusion_lon": 0.0}, {"is_reserved": 0, "type": "electric_scooter", "bike_id": "aacfe18d366d8c53cf7e18e042e8791c", "lat": 38.9125865, "lon": -77.00156316666667, "rental_uris": {"android": "https://dc.lft.to/lastmile_qr_scan", "ios": "https://dc.lft.to/lastmile_qr_scan"}, "is_disabled": 0, "fusion_lat": 0.0, "name": "aacfe18d366d8c53cf7e18e042e8791c", "fusion_lon": 0.0}, {"is_reserved": 0, "type": "electric_scooter", "bike_id": "ea01e6c928ca8a182919228d2ad61a7a", "lat": 38.89243966666667, "lon": -77.04894483333334, "rental_uris": {"android": "https://dc.lft.to/lastmile_qr_scan", "ios": "https://dc.lft.to/lastmile_qr_scan"}, "is_disabled": 0, "fusion_lat": 0.0, "name": "ea01e6c928ca8a182919228d2ad61a7a", "fusion_lon": 0.0}, {"is_reserved": 0, "type": "electric_scooter", "bike_id": "b31e11d873b80dba2fe9ef9f87e28aa8", "lat": 38.90336533333333, "lon": -77.01998333333333, "rental_uris": {"android": "https://dc.lft.to/lastmile_qr_scan", "ios": "https://dc.lft.to/lastmile_qr_scan"}, "is_disabled": 0, "fusion_lat": 0.0, "name": "b31e11d873b80dba2fe9ef9f87e28aa8", "fusion_lon": 0.0}, {"is_reserved": 0, "type": "electric_scooter", "bike_id": "8cd16951ade465f1889b38620273cb73", "lat": 38.892330333333334, "lon": -77.04999733333334, "rental_uris": {"android": "https://dc.lft.to/lastmile_qr_scan", "ios": "https://dc.lft.to/lastmile_qr_scan"}, "is_disabled": 0, "fusion_lat": 0.0, "name": "8cd16951ade465f1889b38620273cb73", "fusion_lon": 0.0}, {"is_reserved": 0, "type": "electric_scooter", "bike_id": "76a506af1e54cd5166c1d36ca216a49e", "lat": 38.9270845, "lon": -77.00263966666667, "rental_uris": {"android": "https://dc.lft.to/lastmile_qr_scan", "ios": "https://dc.lft.to/lastmile_qr_scan"}, "is_disabled": 0, "fusion_lat": 0.0, "name": "76a506af1e54cd5166c1d36ca216a49e", "fusion_lon": 0.0},