{"data": {"bikes": [{"bike_id": "bcdbaeb9501035ec8fd01ca7cd7ad4ee", "type": "electric_bike", "is_disabled": 0, "lat": 38.796076166666666, "rental_uris": {"ios": "https://dc.lft.to/lastmile_qr_scan", "android": "https://dc.lft.to/lastmile_qr_scan"}, "is_reserved": 0, "fusion_lon": 0.0, "fusion_lat": 0.0, "lon": -76.99742183333333, "name": "bcdbaeb9501035ec8fd01ca7cd7ad4ee"}, {"bike_id": "2ec15b4a2fde0bbfeeb272c71ac59788", "type": "electric_scooter", "is_disabled": 0, "lat": 38.924590333333335, "rental_uris": {"ios": "https://dc.lft.to/lastmile_qr_scan", "android": "https://dc.lft.to/lastmile_qr_scan"}, "is_reserved": 0, "fusion_lon": 0.0, "fusion_lat": 0.0, "lon": -77.033413, "name": "2ec15b4a2fde0bbfeeb272c71ac59788"}, {"bike_id": "adb575176dbd2fd0816946ae9bd80d12", "type": "electric_bike", "is_disabled": 0, "lat": 38.878762, "rental_uris": {"ios": "https://dc.lft.to/lastmile_qr_scan", "android": "https://dc.lft.to/lastmile_qr_scan"}, "is_reserved": 0, "fusion_lon": 0.0, "fusion_lat": 0.0, "lon": -77.02296383333334, "name": "adb575176dbd2fd0816946ae9bd80d12"}, {"bike_id": "af83047796b7eaa4511eb71647588adc", "type": "electric_scooter", "is_disabled": 0, "lat": 38.8888905, "rental_uris": {"ios": "https://dc.lft.to/lastmile_qr_scan", "android": "https://dc.lft.to/lastmile_qr_scan"}, "is_reserved": 0, "fusion_lon": 0.0, "fusion_lat": 0.0, "lon": -76.947764, "name": "af83047796b7eaa4511eb71647588adc"}, {"bike_id": "65fb8dcceda70bfc07974a9739708ae3", "type": "electric_scooter", "is_disabled": 0, "lat": 38.88681533333333, "rental_uris": {"ios": "https://dc.lft.to/lastmile_qr_scan", "android": "https://dc.lft.to/lastmile_qr_scan"}, "is_reserved": 0, "fusion_lon": 0.0, "fusion_lat": 0.0, "lon": -76.99136733333333, "name": "65fb8dcceda70bfc07974a9739708ae3"}, {"bike_id": "96ea24f384d26a4131d22d8b1d3f447a", "type": "electric_scooter", "is_disabled": 0, "lat": 38.88500116666667, "rental_uris": {"ios": "https://dc.lft.to/lastmile_qr_scan", "android": "https://dc.lft.to/lastmile_qr_scan"}, "is_reserved": 0, "fusion_lon": 0.0, "fusion_lat": 0.0, "lon": -77.01719633333333, "name": "96ea24f384d26a4131d22d8b1d3f447a"}, {"bike_id": "934ea165328b12afcd5a1faecadecce6", "type": "electric_scooter", "is_disabled": 0, "lat": 38.90497283333333, "rental_uris": {"ios": "https://dc.lft.to/lastmile_qr_scan", "android": "https://dc.lft.to/lastmile_qr_scan"}, "is_reserved": 0, "fusion_lon": 0.0, "fusion_lat": 0.0, "lon": -77.02592216666666, "name": "934ea165328b12afcd5a1faecadecce6"}, {"bike_id": "60c11135de596431d04cd828f1743e5d", "type": "electric_scooter", "is_disabled": 0, "lat": 38.90577916666667, "rental_uris": {"ios": "https://dc.lft.to/lastmile_qr_scan", "android": "https://dc.lft.to/lastmile_qr_scan"}, "is_reserved": 0, "fusion_lon": 0.0, "fusion_lat": 0.0, "lon": -77.01642133333333, "name": "60c11135de596431d04cd828f1743e5d"}, {"bike_id": "a0e2a92b8088f493dc3150d076428d73", "type": "electric_scooter", "is_disabled": 0, "lat": 38.9002595, "rental_uris": {"ios": "https://dc.lft.to/lastmile_qr_scan", "android": "https://dc.lft.to/lastmile_qr_scan"}, "is_reserved": 0, "fusion_lon": 0.0, "fusion_lat": 0.0, "lon": -77.01186866666667, "name": "a0e2a92b8088f493dc3150d076428d73"}, {"bike_id": "ba0f92ec475a68d5db8322f5c0b49679", "type": "electric_scooter", "is_disabled": 0, "lat": 38.88391416666666, "rental_uris": {"ios": "https://dc.lft.to/lastmile_qr_scan", "android": "https://dc.lft.to/lastmile_qr_scan"}, "is_reserved": 0, "fusion_lon": 0.0, "fusion_lat": 0.0, "lon": -76.95445683333334, "name": "ba0f92ec475a68d5db8322f5c0b49679"}, {"bike_id": "ce22ecb9ec99246e5eee204113128263", "type": "electric_scooter", "is_disabled": 0, "lat": 38.903523666666665, "rental_uris": {"ios": "https://dc.lft.to/lastmile_qr_scan", "android": "https://dc.lft.to/lastmile_qr_scan"}, "is_reserved": 0, "fusion_lon": 0.0, "fusion_lat": 0.0, "lon": -77.02710116666667, "name": "ce22ecb9ec99246e5eee204113128263"}, {"bike_id": "1e1f990e59fd5b0b180abf86a240e95f", "type": "electric_scooter", "is_disabled": 0, "lat": 38.90783033333334, "rental_uris": {"ios": "https://dc.lft.to/lastmile_qr_scan", "android": "https://dc.lft.to/lastmile_qr_scan"}, "is_reserved": 0, "fusion_lon": 0.0, "fusion_lat": 0.0, "lon": -77.0203925, "name": "1e1f990e59fd5b0b180abf86a240e95f"}, {"bike_id": "de07923e605d929a837cda9a305d8c31", "type": "electric_bike", "is_disabled": 0, "lat": 38.87196483333334, "rental_uris": {"ios": "https://dc.lft.to/lastmile_qr_scan", "android": "https://dc.lft.to/lastmile_qr_scan"}, "is_reserved": 0, "fusion_lon": 0.0, "fusion_lat": 0.0, "lon": -77.01222733333333, "name": "de07923e605d929a837cda9a305d8c31"}, {"bike_id": "be696a0220d9413f17099dbba419f61c", "type": "electric_scooter", "is_disabled": 0, "lat": 38.917262666666666, "rental_uris": {"ios": "https://dc.lft.to/lastmile_qr_scan", "android": "https://dc.lft.to/lastmile_qr_scan"}, "is_reserved": 0, "fusion_lon": 0.0, "fusion_lat": 0.0, "lon": -77.02505016666667, "name": "be696a0220d9413f17099dbba419f61c"}, {"bike_id": "f1b8071d3b9ac19e47a6b7a28760f4d9", "type": "electric_scooter", "is_disabled": 0, "lat": 38.863767, "rental_uris": {"ios": "https://dc.lft.to/lastmile_qr_scan", "android": "https://dc.lft.to/lastmile_qr_scan"}, "is_reserved": 0, "fusion_lon": 0.0, "fusion_lat": 0.0, "lon": -76.990549, "name": "f1b8071d3b9ac19e47a6b7a28760f4d9"}, {"bike_id": "062ea240802ce844817875e69eeb3f48", "type": "electric_scooter", "is_disabled": 0, "lat": 38.8792155, "rental_uris": {"ios": "https://dc.lft.to/lastmile_qr_scan", "android": "https://dc.lft.to/lastmile_qr_scan"}, "is_reserved": 0, "fusion_lon": 0.0, "fusion_lat": 0.0, "lon": -76.99506483333333, "name": "062ea240802ce844817875e69eeb3f48"}, {"bike_id": "6561ab21e667683f512cf4897e3c44ef", "type": "electric_scooter", "is_disabled": 0, "lat": 38.862458333333336, "rental_uris": {"ios": "https://dc.lft.to/lastmile_qr_scan", "android": "https://dc.lft.to/lastmile_qr_scan"}, "is_reserved": 0, "fusion_lon": 0.0, "fusion_lat": 0.0, "lon": -76.992626, "name": "6561ab21e667683f512cf4897e3c44ef"}, {"bike_id": "3a9f59bfce7804bb68487bbcd3bfc62f", "type": "electric_scooter", "is_disabled": 0, "lat": 38.91291616666667, "rental_uris": {"ios": "https://dc.lft.to/lastmile_qr_scan", "android": "https://dc.lft.to/lastmile_qr_scan"}, "is_reserved": 0, "fusion_lon": 0.0, "fusion_lat": 0.0, "lon": -77.01976816666667, "name": "3a9f59bfce7804bb68487bbcd3bfc62f"}, {"bike_id": "857e67ab80e64bc9ef2c20620af415ee", "type": "electric_bike", "is_disabled": 0, "lat": 38.8956525, "rental_uris": {"ios": "https://dc.lft.to/lastmile_qr_scan", "android": "https://dc.lft.to/lastmile_qr_scan"}, "is_reserved": 0, "fusion_lon": 0.0, "fusion_lat": 0.0, "lon": -77.127376, "name": "857e67ab80e64bc9ef2c20620af415ee"}, {"bike_id": "8343afc91fddc45fcba5f0a630764c63", "type": "electric_bike", "is_disabled": 0, "lat": 38.86879183333333, "rental_uris": {"ios": "https://dc.lft.to/lastmile_qr_scan", "android": "https://dc.lft.to/lastmile_qr_scan"}, "is_reserved": 0, "fusion_lon": 0.0, "fusion_lat": 0.0, "lon": -76.95780166666667, "name": "8343afc91fddc45fcba5f0a630764c63"}, {"bike_id": "848833036d5376f46de0b87e9b035dd4", "type": "electric_scooter", "is_disabled": 0, "lat": 38.90787, "rental_uris": {"ios": "https://dc.lft.to/lastmile_qr_scan", "android": "https://dc.lft.to/lastmile_qr_scan"}, "is_reserved": 0, "fusion_lon": 0.0, "fusion_lat": 0.0, "lon": -77.018622, "name": "848833036d5376f46de0b87e9b035dd4"}, {"bike_id": "c11692ab9e354cb3feea881bf2a2a832", "type": "electric_bike", "is_disabled": 0, "lat": 38.908304333333334, "rental_uris": {"ios": "https://dc.lft.to/lastmile_qr_scan", "android": "https://dc.lft.to/lastmile_qr_scan"}, "is_reserved": 0, "fusion_lon": 0.0, "fusion_lat": 0.0, "lon": -76.94157316666667, "name": "c11692ab9e354cb3feea881bf2a2a832"}, {"bike_id": "b1ac5533cd778503fbb201ee7152e6e0", "type": "electric_scooter", "is_disabled": 0, "lat": 38.8893185, "rental_uris": {"ios": "https://dc.lft.to/lastmile_qr_scan", "android": "https://dc.lft.to/lastmile_qr_scan"}, "is_reserved": 0, "fusion_lon": 0.0, "fusion_lat": 0.0, "lon": -77.0150225, "name": "b1ac5533cd778503fbb201ee7152e6e0"}, {"bike_id": "8c23e18fae20675cea76da2224979276", "type": "electric_scooter", "is_disabled": 0, "lat": 38.90690716666667, "rental_uris": {"ios": "https://dc.lft.to/lastmile_qr_scan", "android": "https://dc.lft.to/lastmile_qr_scan"}, "is_reserved": 0, "fusion_lon": 0.0, "fusion_lat": 0.0, "lon": -77.05327383333334, "name": "8c23e18fae20675cea76da2224979276"}, {"bike_id": "56a0cd3dc8fb490f1a3531717d03e83a", "type": "electric_scooter", "is_disabled": 0, "lat": 38.931155, "rental_uris": {"ios": "https://dc.lft.to/lastmile_qr_scan", "android": "https://dc.lft.to/lastmile_qr_scan"}, "is_reserved": 0, "fusion_lon": 0.0, "fusion_lat": 0.0, "lon": -77.0209485, "name": "56a0cd3dc8fb490f1a3531717d03e83a"}, {"bike_id": "03708285ea71db532816745176619fb6", "type": "electric_scooter", "is_disabled": 0, "lat": 38.907734166666664, "rental_uris": {"ios": "https://dc.lft.to/lastmile_qr_scan", "android": "https://dc.lft.to/lastmile_qr_scan"}, "is_reserved": 0, "fusion_lon": 0.0, "fusion_lat": 0.0, "lon": -77.01099683333334, "name": "03708285ea71db532816745176619fb6"}, {"bike_id": "8d24dbf886ec6a9bbc47b12272781cf7", "type": "electric_scooter", "is_disabled": 0, "lat": 38.92259966666667, "rental_uris": {"ios": "https://dc.lft.to/lastmile_qr_scan", "android": "https://dc.lft.to/lastmile_qr_scan"}, "is_reserved": 0, "fusion_lon": 0.0, "fusion_lat": 0.0, "lon": -77.035207, "name": "8d24dbf886ec6a9bbc47b12272781cf7"}, {"bike_id": "2871d63dbab8fa28a0f9f70ba863da5f", "type": "electric_scooter", "is_disabled": 0, "lat": 38.898538, "rental_uris": {"ios": "https://dc.lft.to/lastmile_qr_scan", "android": "https://dc.lft.to/lastmile_qr_scan"}, "is_reserved": 0, "fusion_lon": 0.0, "fusion_lat": 0.0, "lon": -76.99031683333334, "name": "2871d63dbab8fa28a0f9f70ba863da5f"}, {"bike_id": "46e0eb64d8faabe75a223a4c115690ac", "type": "electric_scooter", "is_disabled": 0, "lat": 38.911185833333334, "rental_uris": {"ios": "https://dc.lft.to/lastmile_qr_scan", "android": "https://dc.lft.to/lastmile_qr_scan"}, "is_reserved": 0, "fusion_lon": 0.0, "fusion_lat": 0.0, "lon": -77.0383185, "name": "46e0eb64d8faabe75a223a4c115690ac"}, {"bike_id": "5306c8a1349a6d2010a093a402e5271e", "type": "electric_scooter", "is_disabled": 0, "lat": 38.917054666666665, "rental_uris": {"ios": "https://dc.lft.to/lastmile_qr_scan", "android": "https://dc.lft.to/lastmile_qr_scan"}, "is_reserved": 0, "fusion_lon": 0.0, "fusion_lat": 0.0, "lon": -77.0106975, "name": "5306c8a1349a6d2010a093a402e5271e"}, {"bike_id": "63fd3c4e9e99bcf59d18aa553cd9ab26", "type": "electric_scooter", "is_disabled": 0, "lat": 38.88101416666667, "rental_uris": {"ios": "https://dc.lft.to/lastmile_qr_scan", "android": "https://dc.lft.to/lastmile_qr_scan"}, "is_reserved": 0, "fusion_lon": 0.0, "fusion_lat": 0.0, "lon": -76.99852166666666, "name": "63fd3c4e9e99bcf59d18aa553cd9ab26"}, {"bike_id": "3834a8c8fd817c46be2e33b39e8f4ee4", "type": "electric_scooter", "is_disabled": 0, "lat": 38.92611016666667, "rental_uris": {"ios": "https://dc.lft.to/lastmile_qr_scan", "android": "https://dc.lft.to/lastmile_qr_scan"}, "is_reserved": 0, "fusion_lon": 0.0, "fusion_lat": 0.0, "lon": -77.024146, "name": "3834a8c8fd817c46be2e33b39e8f4ee4"}, {"bike_id": "3c4cf3d9a0136715437a377a5e28258f", "type": "electric_scooter", "is_disabled": 0, "lat": 38.913328, "rental_uris": {"ios": "https://dc.lft.to/lastmile_qr_scan", "android": "https://dc.lft.to/lastmile_qr_scan"}, "is_reserved": 0, "fusion_lon": 0.0, "fusion_lat": 0.0, "lon": -77.04725733333333, "name": "3c4cf3d9a0136715437a377a5e28258f"}, {"bike_id": "14039dedfeb1f66cb4e096df55faedaf", "type": "electric_scooter", "is_disabled": 0, "lat": 38.89226133333333, "rental_uris": {"ios": "https://dc.lft.to/lastmile_qr_scan", "android": "https://dc.lft.to/lastmile_qr_scan"}, "is_reserved": 0, "fusion_lon": 0.0, "fusion_lat": 0.0, "lon": -77.0258065, "name": "14039dedfeb1f66cb4e096df55faedaf"}, {"bike_id": "d27a32e0e3584209334625829ed85a75", "type": "electric_scooter", "is_disabled": 0, "lat": 38.91269283333333, "rental_uris": {"ios": "https://dc.lft.to/lastmile_qr_scan", "android": "https://dc.lft.to/lastmile_qr_scan"}, "is_reserved": 0, "fusion_lon": 0.0, "fusion_lat": 0.0, "lon": -77.03828533333333, "name": "d27a32e0e3584209334625829ed85a75"}, {"bike_id": "e874176d2b4417128597ddb015285d41", "type": "electric_scooter", "is_disabled": 0, "lat": 38.925616, "rental_uris": {"ios": "https://dc.lft.to/lastmile_qr_scan", "android": "https://dc.lft.to/lastmile_qr_scan"}, "is_reserved": 0, "fusion_lon": 0.0, "fusion_lat": 0.0, "lon": -77.04376133333334, "name": "e874176d2b4417128597ddb015285d41"}, {"bike_id": "2e9280ec68b571701289db0e396aba42", "type": "electric_scooter", "is_disabled": 0, "lat": 38.924094333333336, "rental_uris": {"ios": "https://dc.lft.to/lastmile_qr_scan", "android": "https://dc.lft.to/lastmile_qr_scan"}, "is_reserved": 0, "fusion_lon": 0.0, "fusion_lat": 0.0, "lon": -77.02018783333334, "name": "2e9280ec68b571701289db0e396aba42"}, {"bike_id": "a6c2f211feec2e807dbbd6560e9717c0", "type": "electric_scooter", "is_disabled": 0, "lat": 38.90654683333333, "rental_uris": {"ios": "https://dc.lft.to/lastmile_qr_scan", "android": "https://dc.lft.to/lastmile_qr_scan"}, "is_reserved": 0, "fusion_lon": 0.0, "fusion_lat": 0.0, "lon": -77.05321116666667, "name": "a6c2f211feec2e807dbbd6560e9717c0"}, {"bike_id": "8206d1450f6026446a6d5f72953de350", "type": "electric_scooter", "is_disabled": 0, "lat": 38.94463666666667, "rental_uris": {"ios": "https://dc.lft.to/lastmile_qr_scan", "android": "https://dc.lft.to/lastmile_qr_scan"}, "is_reserved": 0, "fusion_lon": 0.0, "fusion_lat": 0.0, "lon": -77.00657866666667, "name": "8206d1450f6026446a6d5f72953de350"}, {"bike_id": "acbb95eea5fd2d291aed8ecbd76c6e40", "type": "electric_scooter", "is_disabled": 0, "lat": 38.927969166666664, "rental_uris": {"ios": "https://dc.lft.to/lastmile_qr_scan", "android": "https://dc.lft.to/lastmile_qr_scan"}, "is_reserved": 0, "fusion_lon": 0.0, "fusion_lat": 0.0, "lon": -77.02600583333333, "name": "acbb95eea5fd2d291aed8ecbd76c6e40"}, {"bike_id": "8ebc1c7618959bff688e4bfaf0d0b621", "type": "electric_scooter", "is_disabled": 0, "lat": 38.936128, "rental_uris": {"ios": "https://dc.lft.to/lastmile_qr_scan", "android": "https://dc.lft.to/lastmile_qr_scan"}, "is_reserved": 0, "fusion_lon": 0.0, "fusion_lat": 0.0, "lon": -77.0585735, "name": "8ebc1c7618959bff688e4bfaf0d0b621"}, {"bike_id": "19065d4050c2a4553953bde4b65235cb", "type": "electric_scooter", "is_disabled": 0, "lat": 38.87417766666667, "rental_uris": {"ios": "https://dc.lft.to/lastmile_qr_scan", "android": "https://dc.lft.to/lastmile_qr_scan"}, "is_reserved": 0, "fusion_lon": 0.0, "fusion_lat": 0.0, "lon": -76.97115333333333, "name": "19065d4050c2a4553953bde4b65235cb"}, {"bike_id": "600531a0e407ed1e7de2366ac66b618a", "type": "electric_scooter", "is_disabled": 0, "lat": 38.8932535, "rental_uris": {"ios": "https://dc.lft.to/lastmile_qr_scan", "android": "https://dc.lft.to/lastmile_qr_scan"}, "is_reserved": 0, "fusion_lon": 0.0, "fusion_lat": 0.0, "lon": -77.04875583333333, "name": "600531a0e407ed1e7de2366ac66b618a"}, {"bike_id": "85101308d3c035b492fee5ee5c9d74ff", "type": "electric_scooter", "is_disabled": 0, "lat": 38.898996833333335, "rental_uris": {"ios": "https://dc.lft.to/lastmile_qr_scan", "android": "https://dc.lft.to/lastmile_qr_scan"}, "is_reserved": 0, "fusion_lon": 0.0, "fusion_lat": 0.0, "lon": -77.01508283333334, "name": "85101308d3c035b492fee5ee5c9d74ff"}, {"bike_id": "18e9ba86ffb2d9a42d17b8ef52577d42", "type": "electric_scooter", "is_disabled": 0, "lat": 38.9515325, "rental_uris": {"ios": "https://dc.lft.to/lastmile_qr_scan", "android": "https://dc.lft.to/lastmile_qr_scan"}, "is_reserved": 0, "fusion_lon": 0.0, "fusion_lat": 0.0, "lon": -77.018686, "name": "18e9ba86ffb2d9a42d17b8ef52577d42"}, {"bike_id": "d7c1cda1008c30f3af7a55859d4034e0", "type": "electric_scooter", "is_disabled": 0, "lat": 38.91635933333333, "rental_uris": {"ios": "https://dc.lft.to/lastmile_qr_scan", "android": "https://dc.lft.to/lastmile_qr_scan"}, "is_reserved": 0, "fusion_lon": 0.0, "fusion_lat": 0.0, "lon": -77.04239466666667, "name": "d7c1cda1008c30f3af7a55859d4034e0"}, {"bike_id": "c5dfcd0aea68a04283382dc468050e24", "type": "electric_scooter", "is_disabled": 0, "lat": 38.92055833333333, "rental_uris": {"ios": "https://dc.lft.to/lastmile_qr_scan", "android": "https://dc.lft.to/lastmile_qr_scan"}, "is_reserved": 0, "fusion_lon": 0.0, "fusion_lat": 0.0, "lon": -77.04406133333333, "name": "c5dfcd0aea68a04283382dc468050e24"}, {"bike_id": "17da2ebf2ff897a0b1f14017bc8f438b", "type": "electric_scooter", "is_disabled": 0, "lat": 38.929592666666665, "rental_uris": {"ios": "https://dc.lft.to/lastmile_qr_scan", "android": "https://dc.lft.to/lastmile_qr_scan"}, "is_reserved": 0, "fusion_lon": 0.0, "fusion_lat": 0.0, "lon": -77.03137983333333, "name": "17da2ebf2ff897a0b1f14017bc8f438b"}, {"bike_id": "9a1bd8d637d8c68b85b1d0437dbf0052", "type": "electric_bike", "is_disabled": 0, "lat": 38.9934685, "rental_uris": {"ios": "https://dc.lft.to/lastmile_qr_scan", "android": "https://dc.lft.to/lastmile_qr_scan"}, "is_reserved": 0, "fusion_lon": 0.0, "fusion_lat": 0.0, "lon": -77.11569833333333, "name": "9a1bd8d637d8c68b85b1d0437dbf0052"}, {"bike_id": "aae2bd4a8cf88d9306bd5f55f77e9396", "type": "electric_scooter", "is_disabled": 0, "lat": 38.865085666666666, "rental_uris": {"ios": "https://dc.lft.to/lastmile_qr_scan", "android": "https://dc.lft.to/lastmile_qr_scan"}, "is_reserved": 0, "fusion_lon": 0.0, "fusion_lat": 0.0, "lon": -76.9900115, "name": "aae2bd4a8cf88d9306bd5f55f77e9396"}, {"bike_id": "792edea8715467bdee401c63279250ff", "type": "electric_scooter", "is_disabled": 0, "lat": 38.91403016666667, "rental_uris": {"ios": "https://dc.lft.to/lastmile_qr_scan", "android": "https://dc.lft.to/lastmile_qr_scan"}, "is_reserved": 0, "fusion_lon": 0.0, "fusion_lat": 0.0, "lon": -77.03440283333333, "name": "792edea8715467bdee401c63279250ff"}, {"bike_id": "0d6aa0f0486f942d54e36212c8414ee9", "type": "electric_scooter", "is_disabled": 0, "lat": 38.919604166666666, "rental_uris": {"ios": "https://dc.lft.to/lastmile_qr_scan", "android": "https://dc.lft.to/lastmile_qr_scan"}, "is_reserved": 0, "fusion_lon": 0.0, "fusion_lat": 0.0, "lon": -77.03478916666667, "name": "0d6aa0f0486f942d54e36212c8414ee9"}, {"bike_id": "f9a9ab5873c7c37a575d022899d00554", "type": "electric_bike", "is_disabled": 0, "lat": 38.807648666666665, "rental_uris": {"ios": "https://dc.lft.to/lastmile_qr_scan", "android": "https://dc.lft.to/lastmile_qr_scan"}, "is_reserved": 0, "fusion_lon": 0.0, "fusion_lat": 0.0, "lon": -77.094682, "name": "f9a9ab5873c7c37a575d022899d00554"}, {"bike_id": "ba12975ee9db4cc9002d902930a0aee8", "type": "electric_scooter", "is_disabled": 0, "lat": 38.93579883333334, "rental_uris": {"ios": "https://dc.lft.to/lastmile_qr_scan", "android": "https://dc.lft.to/lastmile_qr_scan"}, "is_reserved": 0, "fusion_lon": 0.0, "fusion_lat": 0.0, "lon": -77.03360583333334, "name": "ba12975ee9db4cc9002d902930a0aee8"}, {"bike_id": "39ef77cd8b53a6c7e6da94305477e4b7", "type": "electric_scooter", "is_disabled": 0, "lat": 38.923154833333335, "rental_uris": {"ios": "https://dc.lft.to/lastmile_qr_scan", "android": "https://dc.lft.to/lastmile_qr_scan"}, "is_reserved": 0, "fusion_lon": 0.0, "fusion_lat": 0.0, "lon": -77.04034616666667, "name": "39ef77cd8b53a6c7e6da94305477e4b7"}, {"bike_id": "33d114ef8ecd50525e6248d8573c8974", "type": "electric_scooter", "is_disabled": 0, "lat": 38.9033005, "rental_uris": {"ios": "https://dc.lft.to/lastmile_qr_scan", "android": "https://dc.lft.to/lastmile_qr_scan"}, "is_reserved": 0, "fusion_lon": 0.0, "fusion_lat": 0.0, "lon": -76.98287333333333, "name": "33d114ef8ecd50525e6248d8573c8974"}, {"bike_id": "d1dcea8d66069bf1a9a7ee6e6b79d45f", "type": "electric_scooter", "is_disabled": 0, "lat": 38.877842666666666, "rental_uris": {"ios": "https://dc.lft.to/lastmile_qr_scan", "android": "https://dc.lft.to/lastmile_qr_scan"}, "is_reserved": 0, "fusion_lon": 0.0, "fusion_lat": 0.0, "lon": -77.01746016666667, "name": "d1dcea8d66069bf1a9a7ee6e6b79d45f"}, {"bike_id": "58ae7a4d84452107debb9451085238a3", "type": "electric_scooter", "is_disabled": 0, "lat": 38.91611233333333, "rental_uris": {"ios": "https://dc.lft.to/lastmile_qr_scan", "android": "https://dc.lft.to/lastmile_qr_scan"}, "is_reserved": 0, "fusion_lon": 0.0, "fusion_lat": 0.0, "lon": -77.03375766666667, "name": "58ae7a4d84452107debb9451085238a3"}, {"bike_id": "d19689422ae4849bb628caa1d52626f9", "type": "electric_bike", "is_disabled": 0, "lat": 38.969628, "rental_uris": {"ios": "https://dc.lft.to/lastmile_qr_scan", "android": "https://dc.lft.to/lastmile_qr_scan"}, "is_reserved": 0, "fusion_lon": 0.0, "fusion_lat": 0.0, "lon": -76.95749483333333, "name": "d19689422ae4849bb628caa1d52626f9"}, {"bike_id": "1f52ffd5b0f27edb055dbea42d1a8632", "type": "electric_scooter", "is_disabled": 0, "lat": 38.9158405, "rental_uris": {"ios": "https://dc.lft.to/lastmile_qr_scan", "android": "https://dc.lft.to/lastmile_qr_scan"}, "is_reserved": 0, "fusion_lon": 0.0, "fusion_lat": 0.0, "lon": -77.04491783333333, "name": "1f52ffd5b0f27edb055dbea42d1a8632"}, {"bike_id": "1cd736f53e0d48a5bad0a04c7a1aa70d", "type": "electric_scooter", "is_disabled": 0, "lat": 38.90272433333333, "rental_uris": {"ios": "https://dc.lft.to/lastmile_qr_scan", "android": "https://dc.lft.to/lastmile_qr_scan"}, "is_reserved": 0, "fusion_lon": 0.0, "fusion_lat": 0.0, "lon": -77.019021, "name": "1cd736f53e0d48a5bad0a04c7a1aa70d"}, {"bike_id": "ce88828b602ee0b83ac16baefd334bfd", "type": "electric_scooter", "is_disabled": 0, "lat": 38.9128815, "rental_uris": {"ios": "https://dc.lft.to/lastmile_qr_scan", "android": "https://dc.lft.to/lastmile_qr_scan"}, "is_reserved": 0, "fusion_lon": 0.0, "fusion_lat": 0.0, "lon": -77.02711883333333, "name": "ce88828b602ee0b83ac16baefd334bfd"}, {"bike_id": "f8095292a7467dc40fed3aaecf0e18c5", "type": "electric_scooter", "is_disabled": 0, "lat": 38.92477316666667, "rental_uris": {"ios": "https://dc.lft.to/lastmile_qr_scan", "android": "https://dc.lft.to/lastmile_qr_scan"}, "is_reserved": 0, "fusion_lon": 0.0, "fusion_lat": 0.0, "lon": -77.02838116666666, "name": "f8095292a7467dc40fed3aaecf0e18c5"}, {"bike_id": "8a54e0e58e35d9c5390f973fb1c83a9d", "type": "electric_scooter", "is_disabled": 0, "lat": 38.92615716666667, "rental_uris": {"ios": "https://dc.lft.to/lastmile_qr_scan", "android": "https://dc.lft.to/lastmile_qr_scan"}, "is_reserved": 0, "fusion_lon": 0.0, "fusion_lat": 0.0, "lon": -77.021604, "name": "8a54e0e58e35d9c5390f973fb1c83a9d"}, {"bike_id": "0f578112018886efdaa80fde770c3161", "type": "electric_scooter", "is_disabled": 0, "lat": 38.90008666666667, "rental_uris": {"ios": "https://dc.lft.to/lastmile_qr_scan", "android": "https://dc.lft.to/lastmile_qr_scan"}, "is_reserved": 0, "fusion_lon": 0.0, "fusion_lat": 0.0, "lon": -77.04662333333333, "name": "0f578112018886efdaa80fde770c3161"}, {"bike_id": "e66d195c7d75207eea3eae95f45830e6", "type": "electric_scooter", "is_disabled": 0, "lat": 38.93549, "rental_uris": {"ios": "https://dc.lft.to/lastmile_qr_scan", "android": "https://dc.lft.to/lastmile_qr_scan"}, "is_reserved": 0, "fusion_lon": 0.0, "fusion_lat": 0.0, "lon": -77.05864233333334, "name": "e66d195c7d75207eea3eae95f45830e6"}, {"bike_id": "4d715cd18f189244c834efbcfc4929a5", "type": "electric_scooter", "is_disabled": 0, "lat": 38.92323733333333, "rental_uris": {"ios": "https://dc.lft.to/lastmile_qr_scan", "android": "https://dc.lft.to/lastmile_qr_scan"}, "is_reserved": 0, "fusion_lon": 0.0, "fusion_lat": 0.0, "lon": -77.028012, "name": "4d715cd18f189244c834efbcfc4929a5"}, {"bike_id": "67780482f626c0c0686cffd759ab0984", "type": "electric_scooter", "is_disabled": 0, "lat": 38.925922, "rental_uris": {"ios": "https://dc.lft.to/lastmile_qr_scan", "android": "https://dc.lft.to/lastmile_qr_scan"}, "is_reserved": 0, "fusion_lon": 0.0, "fusion_lat": 0.0, "lon": -77.04394966666666, "name": "67780482f626c0c0686cffd759ab0984"}, {"bike_id": "19c32209a83279088b219e6a33361fdd", "type": "electric_scooter", "is_disabled": 0, "lat": 38.8647495, "rental_uris": {"ios": "https://dc.lft.to/lastmile_qr_scan", "android": "https://dc.lft.to/lastmile_qr_scan"}, "is_reserved": 0, "fusion_lon": 0.0, "fusion_lat": 0.0, "lon": -76.97738583333333, "name": "19c32209a83279088b219e6a33361fdd"}, {"bike_id": "2d451e351ea060302933e0efff90d2ae", "type": "electric_scooter", "is_disabled": 0, "lat": 38.88296533333333, "rental_uris": {"ios": "https://dc.lft.to/lastmile_qr_scan", "android": "https://dc.lft.to/lastmile_qr_scan"}, "is_reserved": 0, "fusion_lon": 0.0, "fusion_lat": 0.0, "lon": -76.94851716666666, "name": "2d451e351ea060302933e0efff90d2ae"}, {"bike_id": "3ffb2b8c911c21645065c7fa3645a44e", "type": "electric_scooter", "is_disabled": 0, "lat": 38.90064383333333, "rental_uris": {"ios": "https://dc.lft.to/lastmile_qr_scan", "android": "https://dc.lft.to/lastmile_qr_scan"}, "is_reserved": 0, "fusion_lon": 0.0, "fusion_lat": 0.0, "lon": -77.04676233333333, "name": "3ffb2b8c911c21645065c7fa3645a44e"}, {"bike_id": "78bd8a222371f950969f53bd3a21cb20", "type": "electric_scooter", "is_disabled": 0, "lat": 38.8992495, "rental_uris": {"ios": "https://dc.lft.to/lastmile_qr_scan", "android": "https://dc.lft.to/lastmile_qr_scan"}, "is_reserved": 0, "fusion_lon": 0.0, "fusion_lat": 0.0, "lon": -77.053669, "name": "78bd8a222371f950969f53bd3a21cb20"}, {"bike_id": "d0793570894d926eb41df7fc9650bfcf", "type": "electric_scooter", "is_disabled": 0, "lat": 38.90532, "rental_uris": {"ios": "https://dc.lft.to/lastmile_qr_scan", "android": "https://dc.lft.to/lastmile_qr_scan"}, "is_reserved": 0, "fusion_lon": 0.0, "fusion_lat": 0.0, "lon": -77.0613435, "name": "d0793570894d926eb41df7fc9650bfcf"}, {"bike_id": "0d6bbdd34f0b0f327fc429af64b1be2d", "type": "electric_bike", "is_disabled": 0, "lat": 38.96322583333333, "rental_uris": {"ios": "https://dc.lft.to/lastmile_qr_scan", "android": "https://dc.lft.to/lastmile_qr_scan"}, "is_reserved": 0, "fusion_lon": 0.0, "fusion_lat": 0.0, "lon": -76.973638, "name": "0d6bbdd34f0b0f327fc429af64b1be2d"}, {"bike_id": "3e9bf1d4e7836447f4646c51e557e463", "type": "electric_scooter", "is_disabled": 0, "lat": 38.90133066666667, "rental_uris": {"ios": "https://dc.lft.to/lastmile_qr_scan", "android": "https://dc.lft.to/lastmile_qr_scan"}, "is_reserved": 0, "fusion_lon": 0.0, "fusion_lat": 0.0, "lon": -77.0180345, "name": "3e9bf1d4e7836447f4646c51e557e463"}, {"bike_id": "8f07761fb54e61d2e12bc7c50878475b", "type": "electric_scooter", "is_disabled": 0, "lat": 38.90510066666667, "rental_uris": {"ios": "https://dc.lft.to/lastmile_qr_scan", "android": "https://dc.lft.to/lastmile_qr_scan"}, "is_reserved": 0, "fusion_lon": 0.0, "fusion_lat": 0.0, "lon": -77.0601445, "name": "8f07761fb54e61d2e12bc7c50878475b"}, {"bike_id": "6e71afa3f5a73ac0d0398f9aedc06362", "type": "electric_scooter", "is_disabled": 0, "lat": 38.92084716666667, "rental_uris": {"ios": "https://dc.lft.to/lastmile_qr_scan", "android": "https://dc.lft.to/lastmile_qr_scan"}, "is_reserved": 0, "fusion_lon": 0.0, "fusion_lat": 0.0, "lon": -77.02509316666666, "name": "6e71afa3f5a73ac0d0398f9aedc06362"}, {"bike_id": "8480f66c15a0010c2de4455b36c5b7b1", "type": "electric_scooter", "is_disabled": 0, "lat": 38.86677816666667, "rental_uris": {"ios": "https://dc.lft.to/lastmile_qr_scan", "android": "https://dc.lft.to/lastmile_qr_scan"}, "is_reserved": 0, "fusion_lon": 0.0, "fusion_lat": 0.0, "lon": -76.98536233333333, "name": "8480f66c15a0010c2de4455b36c5b7b1"}, {"bike_id": "4aacb16477cf3d242e54cd155a71807e", "type": "electric_scooter", "is_disabled": 0, "lat": 38.89714166666667, "rental_uris": {"ios": "https://dc.lft.to/lastmile_qr_scan", "android": "https://dc.lft.to/lastmile_qr_scan"}, "is_reserved": 0, "fusion_lon": 0.0, "fusion_lat": 0.0, "lon": -77.00846683333333, "name": "4aacb16477cf3d242e54cd155a71807e"}, {"bike_id": "d50e3e375ce800af8a7d322fc2271970", "type": "electric_scooter", "is_disabled": 0, "lat": 38.9234005, "rental_uris": {"ios": "https://dc.lft.to/lastmile_qr_scan", "android": "https://dc.lft.to/lastmile_qr_scan"}, "is_reserved": 0, "fusion_lon": 0.0, "fusion_lat": 0.0, "lon": -77.04169183333333, "name": "d50e3e375ce800af8a7d322fc2271970"}, {"bike_id": "eaa4342d5ee4aba64e8dd8740fc5d36a", "type": "electric_bike", "is_disabled": 0, "lat": 38.963096666666665, "rental_uris": {"ios": "https://dc.lft.to/lastmile_qr_scan", "android": "https://dc.lft.to/lastmile_qr_scan"}, "is_reserved": 0, "fusion_lon": 0.0, "fusion_lat": 0.0, "lon": -77.01102483333334, "name": "eaa4342d5ee4aba64e8dd8740fc5d36a"}, {"bike_id": "8eae0943a6dc6cb769e870aad7f12d8a", "type": "electric_scooter", "is_disabled": 0, "lat": 38.928275666666664, "rental_uris": {"ios": "https://dc.lft.to/lastmile_qr_scan", "android": "https://dc.lft.to/lastmile_qr_scan"}, "is_reserved": 0, "fusion_lon": 0.0, "fusion_lat": 0.0, "lon": -77.0225855, "name": "8eae0943a6dc6cb769e870aad7f12d8a"}, {"bike_id": "13967136542b937c532b5e7d02da9013", "type": "electric_scooter", "is_disabled": 0, "lat": 38.907179, "rental_uris": {"ios": "https://dc.lft.to/lastmile_qr_scan", "android": "https://dc.lft.to/lastmile_qr_scan"}, "is_reserved": 0, "fusion_lon": 0.0, "fusion_lat": 0.0, "lon": -77.0146825, "name": "13967136542b937c532b5e7d02da9013"}, {"bike_id": "f53200fe56c97d919b719be1b9603fe9", "type": "electric_scooter", "is_disabled": 0, "lat": 38.891816666666664, "rental_uris": {"ios": "https://dc.lft.to/lastmile_qr_scan", "android": "https://dc.lft.to/lastmile_qr_scan"}, "is_reserved": 0, "fusion_lon": 0.0, "fusion_lat": 0.0, "lon": -77.0220295, "name": "f53200fe56c97d919b719be1b9603fe9"}, {"bike_id": "12193a4138787d3f2526ebf9d6385562", "type": "electric_scooter", "is_disabled": 0, "lat": 38.9346235, "rental_uris": {"ios": "https://dc.lft.to/lastmile_qr_scan", "android": "https://dc.lft.to/lastmile_qr_scan"}, "is_reserved": 0, "fusion_lon": 0.0, "fusion_lat": 0.0, "lon": -77.029351, "name": "12193a4138787d3f2526ebf9d6385562"}, {"bike_id": "9589ad217942181d00f4f5fa2cbfe1a7", "type": "electric_scooter", "is_disabled": 0, "lat": 38.9057885, "rental_uris": {"ios": "https://dc.lft.to/lastmile_qr_scan", "android": "https://dc.lft.to/lastmile_qr_scan"}, "is_reserved": 0, "fusion_lon": 0.0, "fusion_lat": 0.0, "lon": -77.02608833333333, "name": "9589ad217942181d00f4f5fa2cbfe1a7"}, {"bike_id": "a575e53f3d56fba87b69de61e24a6ec7", "type": "electric_scooter", "is_disabled": 0, "lat": 38.9353615, "rental_uris": {"ios": "https://dc.lft.to/lastmile_qr_scan", "android": "https://dc.lft.to/lastmile_qr_scan"}, "is_reserved": 0, "fusion_lon": 0.0, "fusion_lat": 0.0, "lon": -77.02352916666666, "name": "a575e53f3d56fba87b69de61e24a6ec7"}, {"bike_id": "e2b78cee3031f0896cb95426633ce1d5", "type": "electric_scooter", "is_disabled": 0, "lat": 38.9142075, "rental_uris": {"ios": "https://dc.lft.to/lastmile_qr_scan", "android": "https://dc.lft.to/lastmile_qr_scan"}, "is_reserved": 0, "fusion_lon": 0.0, "fusion_lat": 0.0, "lon": -77.02287166666666, "name": "e2b78cee3031f0896cb95426633ce1d5"}, {"bike_id": "925459b26b6b41fdcaa16a29857be3b7", "type": "electric_scooter", "is_disabled": 0, "lat": 38.8702435, "rental_uris": {"ios": "https://dc.lft.to/lastmile_qr_scan", "android": "https://dc.lft.to/lastmile_qr_scan"}, "is_reserved": 0, "fusion_lon": 0.0, "fusion_lat": 0.0, "lon": -76.98084466666667, "name": "925459b26b6b41fdcaa16a29857be3b7"}, {"bike_id": "3299bf164c8b50fe1f4aa78dd7bcd2b7", "type": "electric_scooter", "is_disabled": 0, "lat": 38.92082766666667, "rental_uris": {"ios": "https://dc.lft.to/lastmile_qr_scan", "android": "https://dc.lft.to/lastmile_qr_scan"}, "is_reserved": 0, "fusion_lon": 0.0, "fusion_lat": 0.0, "lon": -77.02510666666667, "name": "3299bf164c8b50fe1f4aa78dd7bcd2b7"}, {"bike_id": "9ba5a0c714b3e3f7312073c33a2186f9", "type": "electric_scooter", "is_disabled": 0, "lat": 38.92481333333333, "rental_uris": {"ios": "https://dc.lft.to/lastmile_qr_scan", "android": "https://dc.lft.to/lastmile_qr_scan"}, "is_reserved": 0, "fusion_lon": 0.0, "fusion_lat": 0.0, "lon": -77.02670416666666, "name": "9ba5a0c714b3e3f7312073c33a2186f9"}, {"bike_id": "e02f53f799bac4ce13445892073c4ddd", "type": "electric_scooter", "is_disabled": 0, "lat": 38.88045133333333, "rental_uris": {"ios": "https://dc.lft.to/lastmile_qr_scan", "android": "https://dc.lft.to/lastmile_qr_scan"}, "is_reserved": 0, "fusion_lon": 0.0, "fusion_lat": 0.0, "lon": -77.00527333333334, "name": "e02f53f799bac4ce13445892073c4ddd"}, {"bike_id": "72a81eea6139566112350896839bcc92", "type": "electric_scooter", "is_disabled": 0, "lat": 38.942023166666665, "rental_uris": {"ios": "https://dc.lft.to/lastmile_qr_scan", "android": "https://dc.lft.to/lastmile_qr_scan"}, "is_reserved": 0, "fusion_lon": 0.0, "fusion_lat": 0.0, "lon": -77.02348533333333, "name": "72a81eea6139566112350896839bcc92"}, {"bike_id": "348679894ee6f0ca26b4bb38e5c113fb", "type": "electric_scooter", "is_disabled": 0, "lat": 38.9096045, "rental_uris": {"ios": "https://dc.lft.to/lastmile_qr_scan", "android": "https://dc.lft.to/lastmile_qr_scan"}, "is_reserved": 0, "fusion_lon": 0.0, "fusion_lat": 0.0, "lon": -77.03949283333333, "name": "348679894ee6f0ca26b4bb38e5c113fb"}, {"bike_id": "e8d43e911f338082f25c18417e34bb25", "type": "electric_scooter", "is_disabled": 0, "lat": 38.91965966666667, "rental_uris": {"ios": "https://dc.lft.to/lastmile_qr_scan", "android": "https://dc.lft.to/lastmile_qr_scan"}, "is_reserved": 0, "fusion_lon": 0.0, "fusion_lat": 0.0, "lon": -77.04244466666667, "name": "e8d43e911f338082f25c18417e34bb25"}, {"bike_id": "8d95cd4c8951747c31b117e2a7d3d98e", "type": "electric_scooter", "is_disabled": 0, "lat": 38.899830666666666, "rental_uris": {"ios": "https://dc.lft.to/lastmile_qr_scan", "android": "https://dc.lft.to/lastmile_qr_scan"}, "is_reserved": 0, "fusion_lon": 0.0, "fusion_lat": 0.0, "lon": -77.02070833333333, "name": "8d95cd4c8951747c31b117e2a7d3d98e"}, {"bike_id": "4e71ff1392d03218a91e8be1abf8399f", "type": "electric_scooter", "is_disabled": 0, "lat": 38.8766075, "rental_uris": {"ios": "https://dc.lft.to/lastmile_qr_scan", "android": "https://dc.lft.to/lastmile_qr_scan"}, "is_reserved": 0, "fusion_lon": 0.0, "fusion_lat": 0.0, "lon": -76.9963905, "name": "4e71ff1392d03218a91e8be1abf8399f"}, {"bike_id": "54e9c86faf27174f18b89ccd4a6fe9c5", "type": "electric_scooter", "is_disabled": 0, "lat": 38.92095483333333, "rental_uris": {"ios": "https://dc.lft.to/lastmile_qr_scan", "android": "https://dc.lft.to/lastmile_qr_scan"}, "is_reserved": 0, "fusion_lon": 0.0, "fusion_lat": 0.0, "lon": -77.01698516666667, "name": "54e9c86faf27174f18b89ccd4a6fe9c5"}, {"bike_id": "b9f12f390797edb15653091059fcd98a", "type": "electric_bike", "is_disabled": 0, "lat": 38.931085833333334, "rental_uris": {"ios": "https://dc.lft.to/lastmile_qr_scan", "android": "https://dc.lft.to/lastmile_qr_scan"}, "is_reserved": 0, "fusion_lon": 0.0, "fusion_lat": 0.0, "lon": -77.0185005, "name": "b9f12f390797edb15653091059fcd98a"}, {"bike_id": "2a27975cd08f8311105f3163923419ca", "type": "electric_scooter", "is_disabled": 0, "lat": 38.910288, "rental_uris": {"ios": "https://dc.lft.to/lastmile_qr_scan", "android": "https://dc.lft.to/lastmile_qr_scan"}, "is_reserved": 0, "fusion_lon": 0.0, "fusion_lat": 0.0, "lon": -77.00756783333334, "name": "2a27975cd08f8311105f3163923419ca"}, {"bike_id": "ecf8cf25f22f94f0af4d64768f426ab7", "type": "electric_scooter", "is_disabled": 0, "lat": 38.933221333333336, "rental_uris": {"ios": "https://dc.lft.to/lastmile_qr_scan", "android": "https://dc.lft.to/lastmile_qr_scan"}, "is_reserved": 0, "fusion_lon": 0.0, "fusion_lat": 0.0, "lon": -77.02748683333333, "name": "ecf8cf25f22f94f0af4d64768f426ab7"}, {"bike_id": "c8dbeb3bcfab1032cc4b1b305f869f34", "type": "electric_scooter", "is_disabled": 0, "lat": 38.922324, "rental_uris": {"ios": "https://dc.lft.to/lastmile_qr_scan", "android": "https://dc.lft.to/lastmile_qr_scan"}, "is_reserved": 0, "fusion_lon": 0.0, "fusion_lat": 0.0, "lon": -76.97534116666667, "name": "c8dbeb3bcfab1032cc4b1b305f869f34"}, {"bike_id": "3df68b1ed73fc07253fa3a4960cbe071", "type": "electric_scooter", "is_disabled": 0, "lat": 38.92353716666667, "rental_uris": {"ios": "https://dc.lft.to/lastmile_qr_scan", "android": "https://dc.lft.to/lastmile_qr_scan"}, "is_reserved": 0, "fusion_lon": 0.0, "fusion_lat": 0.0, "lon": -77.02436083333333, "name": "3df68b1ed73fc07253fa3a4960cbe071"}, {"bike_id": "a3a1c585e09715ca7547214fd200a836", "type": "electric_scooter", "is_disabled": 0, "lat": 38.88917816666667, "rental_uris": {"ios": "https://dc.lft.to/lastmile_qr_scan", "android": "https://dc.lft.to/lastmile_qr_scan"}, "is_reserved": 0, "fusion_lon": 0.0, "fusion_lat": 0.0, "lon": -76.99127516666667, "name": "a3a1c585e09715ca7547214fd200a836"}, {"bike_id": "7b7657ed078476334db1a2fbb4de6913", "type": "electric_bike", "is_disabled": 0, "lat": 38.83559666666667, "rental_uris": {"ios": "https://dc.lft.to/lastmile_qr_scan", "android": "https://dc.lft.to/lastmile_qr_scan"}, "is_reserved": 0, "fusion_lon": 0.0, "fusion_lat": 0.0, "lon": -76.987356, "name": "7b7657ed078476334db1a2fbb4de6913"}, {"bike_id": "a122b99d500a5e2c671fc7853b429df6", "type": "electric_bike", "is_disabled": 0, "lat": 38.95359416666667, "rental_uris": {"ios": "https://dc.lft.to/lastmile_qr_scan", "android": "https://dc.lft.to/lastmile_qr_scan"}, "is_reserved": 0, "fusion_lon": 0.0, "fusion_lat": 0.0, "lon": -76.98096233333334, "name": "a122b99d500a5e2c671fc7853b429df6"}, {"bike_id": "b4aa39e6d1b2fa378091f84b7638b00e", "type": "electric_scooter", "is_disabled": 0, "lat": 38.90604916666667, "rental_uris": {"ios": "https://dc.lft.to/lastmile_qr_scan", "android": "https://dc.lft.to/lastmile_qr_scan"}, "is_reserved": 0, "fusion_lon": 0.0, "fusion_lat": 0.0, "lon": -77.021089, "name": "b4aa39e6d1b2fa378091f84b7638b00e"}, {"bike_id": "877f5f39f7eca28a1073ccc200c6cf87", "type": "electric_scooter", "is_disabled": 0, "lat": 38.92540316666667, "rental_uris": {"ios": "https://dc.lft.to/lastmile_qr_scan", "android": "https://dc.lft.to/lastmile_qr_scan"}, "is_reserved": 0, "fusion_lon": 0.0, "fusion_lat": 0.0, "lon": -77.04132983333334, "name": "877f5f39f7eca28a1073ccc200c6cf87"}, {"bike_id": "11b74bbd95a063e291502ab6e0824270", "type": "electric_scooter", "is_disabled": 0, "lat": 38.9089035, "rental_uris": {"ios": "https://dc.lft.to/lastmile_qr_scan", "android": "https://dc.lft.to/lastmile_qr_scan"}, "is_reserved": 0, "fusion_lon": 0.0, "fusion_lat": 0.0, "lon": -77.04395733333334, "name": "11b74bbd95a063e291502ab6e0824270"}, {"bike_id": "1a0b51e1fa98468e3b859b09d1866575", "type": "electric_scooter", "is_disabled": 0, "lat": 38.89890666666667, "rental_uris": {"ios": "https://dc.lft.to/lastmile_qr_scan", "android": "https://dc.lft.to/lastmile_qr_scan"}, "is_reserved": 0, "fusion_lon": 0.0, "fusion_lat": 0.0, "lon": -76.97695733333333, "name": "1a0b51e1fa98468e3b859b09d1866575"}, {"bike_id": "d138203c45574c110d1e6d9310ea3bda", "type": "electric_scooter", "is_disabled": 0, "lat": 38.93241833333333, "rental_uris": {"ios": "https://dc.lft.to/lastmile_qr_scan", "android": "https://dc.lft.to/lastmile_qr_scan"}, "is_reserved": 0, "fusion_lon": 0.0, "fusion_lat": 0.0, "lon": -77.03852316666666, "name": "d138203c45574c110d1e6d9310ea3bda"}, {"bike_id": "8196639fdfba001bc028286fbbed1b02", "type": "electric_scooter", "is_disabled": 0, "lat": 38.934944, "rental_uris": {"ios": "https://dc.lft.to/lastmile_qr_scan", "android": "https://dc.lft.to/lastmile_qr_scan"}, "is_reserved": 0, "fusion_lon": 0.0, "fusion_lat": 0.0, "lon": -77.03508083333334, "name": "8196639fdfba001bc028286fbbed1b02"}, {"bike_id": "8bfed31ff20bcfb65c7e532e1ba5c524", "type": "electric_scooter", "is_disabled": 0, "lat": 38.90577316666667, "rental_uris": {"ios": "https://dc.lft.to/lastmile_qr_scan", "android": "https://dc.lft.to/lastmile_qr_scan"}, "is_reserved": 0, "fusion_lon": 0.0, "fusion_lat": 0.0, "lon": -77.026021, "name": "8bfed31ff20bcfb65c7e532e1ba5c524"}, {"bike_id": "590b2dcb32223647679a0eafb978b91c", "type": "electric_scooter", "is_disabled": 0, "lat": 38.91569066666667, "rental_uris": {"ios": "https://dc.lft.to/lastmile_qr_scan", "android": "https://dc.lft.to/lastmile_qr_scan"}, "is_reserved": 0, "fusion_lon": 0.0, "fusion_lat": 0.0, "lon": -77.0228715, "name": "590b2dcb32223647679a0eafb978b91c"}, {"bike_id": "7e0d006597097b2ca825c13fb671f1c3", "type": "electric_scooter", "is_disabled": 0, "lat": 38.914758, "rental_uris": {"ios": "https://dc.lft.to/lastmile_qr_scan", "android": "https://dc.lft.to/lastmile_qr_scan"}, "is_reserved": 0, "fusion_lon": 0.0, "fusion_lat": 0.0, "lon": -77.03184866666666, "name": "7e0d006597097b2ca825c13fb671f1c3"}, {"bike_id": "51a70ba142823b681944bcfaaeeb1f9a", "type": "electric_scooter", "is_disabled": 0, "lat": 38.89706783333333, "rental_uris": {"ios": "https://dc.lft.to/lastmile_qr_scan", "android": "https://dc.lft.to/lastmile_qr_scan"}, "is_reserved": 0, "fusion_lon": 0.0, "fusion_lat": 0.0, "lon": -77.03175983333334, "name": "51a70ba142823b681944bcfaaeeb1f9a"}, {"bike_id": "8e734b09bffbed54e613f5e779ec1561", "type": "electric_scooter", "is_disabled": 0, "lat": 38.925499333333335, "rental_uris": {"ios": "https://dc.lft.to/lastmile_qr_scan", "android": "https://dc.lft.to/lastmile_qr_scan"}, "is_reserved": 0, "fusion_lon": 0.0, "fusion_lat": 0.0, "lon": -77.029646, "name": "8e734b09bffbed54e613f5e779ec1561"}, {"bike_id": "8106a481c3fe138ebe46b285d2b41066", "type": "electric_scooter", "is_disabled": 0, "lat": 38.9112045, "rental_uris": {"ios": "https://dc.lft.to/lastmile_qr_scan", "android": "https://dc.lft.to/lastmile_qr_scan"}, "is_reserved": 0, "fusion_lon": 0.0, "fusion_lat": 0.0, "lon": -77.00535816666667, "name": "8106a481c3fe138ebe46b285d2b41066"}, {"bike_id": "47c4b75b4f4701f67a033902da26b250", "type": "electric_scooter", "is_disabled": 0, "lat": 38.902725833333335, "rental_uris": {"ios": "https://dc.lft.to/lastmile_qr_scan", "android": "https://dc.lft.to/lastmile_qr_scan"}, "is_reserved": 0, "fusion_lon": 0.0, "fusion_lat": 0.0, "lon": -77.0032835, "name": "47c4b75b4f4701f67a033902da26b250"}, {"bike_id": "3c9fd8f90299586d7e38ca09a545b5f4", "type": "electric_scooter", "is_disabled": 0, "lat": 38.917509333333335, "rental_uris": {"ios": "https://dc.lft.to/lastmile_qr_scan", "android": "https://dc.lft.to/lastmile_qr_scan"}, "is_reserved": 0, "fusion_lon": 0.0, "fusion_lat": 0.0, "lon": -77.027982, "name": "3c9fd8f90299586d7e38ca09a545b5f4"}, {"bike_id": "3cff8bf66796be75853b6f8450f5ab34", "type": "electric_bike", "is_disabled": 0, "lat": 38.87888183333333, "rental_uris": {"ios": "https://dc.lft.to/lastmile_qr_scan", "android": "https://dc.lft.to/lastmile_qr_scan"}, "is_reserved": 0, "fusion_lon": 0.0, "fusion_lat": 0.0, "lon": -77.09616466666667, "name": "3cff8bf66796be75853b6f8450f5ab34"}, {"bike_id": "770198d70dba3028679371f39bb89fe0", "type": "electric_scooter", "is_disabled": 0, "lat": 38.90717766666667, "rental_uris": {"ios": "https://dc.lft.to/lastmile_qr_scan", "android": "https://dc.lft.to/lastmile_qr_scan"}, "is_reserved": 0, "fusion_lon": 0.0, "fusion_lat": 0.0, "lon": -77.02569416666667, "name": "770198d70dba3028679371f39bb89fe0"}, {"bike_id": "75d20bf2bb0066a72c0fdc53f649e6c8", "type": "electric_scooter", "is_disabled": 0, "lat": 38.905094, "rental_uris": {"ios": "https://dc.lft.to/lastmile_qr_scan", "android": "https://dc.lft.to/lastmile_qr_scan"}, "is_reserved": 0, "fusion_lon": 0.0, "fusion_lat": 0.0, "lon": -77.0197185, "name": "75d20bf2bb0066a72c0fdc53f649e6c8"}, {"bike_id": "cd7ed717160d204ced2f98c2686dce96", "type": "electric_scooter", "is_disabled": 0, "lat": 38.919884333333336, "rental_uris": {"ios": "https://dc.lft.to/lastmile_qr_scan", "android": "https://dc.lft.to/lastmile_qr_scan"}, "is_reserved": 0, "fusion_lon": 0.0, "fusion_lat": 0.0, "lon": -77.03261866666666, "name": "cd7ed717160d204ced2f98c2686dce96"}, {"bike_id": "bc3f00a65ee6d504af9bf76e2fac9b6b", "type": "electric_scooter", "is_disabled": 0, "lat": 38.90128216666667, "rental_uris": {"ios": "https://dc.lft.to/lastmile_qr_scan", "android": "https://dc.lft.to/lastmile_qr_scan"}, "is_reserved": 0, "fusion_lon": 0.0, "fusion_lat": 0.0, "lon": -77.04515216666667, "name": "bc3f00a65ee6d504af9bf76e2fac9b6b"}, {"bike_id": "6d9dce91bcd2e1a27fd4b3262a39abf0", "type": "electric_scooter", "is_disabled": 0, "lat": 38.9320145, "rental_uris": {"ios": "https://dc.lft.to/lastmile_qr_scan", "android": "https://dc.lft.to/lastmile_qr_scan"}, "is_reserved": 0, "fusion_lon": 0.0, "fusion_lat": 0.0, "lon": -77.03650816666666, "name": "6d9dce91bcd2e1a27fd4b3262a39abf0"}, {"bike_id": "0295efe126c67e56e91893de28195b86", "type": "electric_scooter", "is_disabled": 0, "lat": 38.92089983333334, "rental_uris": {"ios": "https://dc.lft.to/lastmile_qr_scan", "android": "https://dc.lft.to/lastmile_qr_scan"}, "is_reserved": 0, "fusion_lon": 0.0, "fusion_lat": 0.0, "lon": -77.0253315, "name": "0295efe126c67e56e91893de28195b86"}, {"bike_id": "752d0a918ad142a048623a76fc5f38c2", "type": "electric_scooter", "is_disabled": 0, "lat": 38.9278125, "rental_uris": {"ios": "https://dc.lft.to/lastmile_qr_scan", "android": "https://dc.lft.to/lastmile_qr_scan"}, "is_reserved": 0, "fusion_lon": 0.0, "fusion_lat": 0.0, "lon": -77.0231305, "name": "752d0a918ad142a048623a76fc5f38c2"}, {"bike_id": "94984f80505befd43723af7b889fd5b8", "type": "electric_scooter", "is_disabled": 0, "lat": 38.902826833333336, "rental_uris": {"ios": "https://dc.lft.to/lastmile_qr_scan", "android": "https://dc.lft.to/lastmile_qr_scan"}, "is_reserved": 0, "fusion_lon": 0.0, "fusion_lat": 0.0, "lon": -77.0386475, "name": "94984f80505befd43723af7b889fd5b8"}, {"bike_id": "598ce9b7aaced4ee9a4f2a2ecfe2479d", "type": "electric_scooter", "is_disabled": 0, "lat": 38.923134833333336, "rental_uris": {"ios": "https://dc.lft.to/lastmile_qr_scan", "android": "https://dc.lft.to/lastmile_qr_scan"}, "is_reserved": 0, "fusion_lon": 0.0, "fusion_lat": 0.0, "lon": -77.03914683333333, "name": "598ce9b7aaced4ee9a4f2a2ecfe2479d"}, {"bike_id": "74db61e734388efffc5a7a0da67ecb51", "type": "electric_scooter", "is_disabled": 0, "lat": 38.91963, "rental_uris": {"ios": "https://dc.lft.to/lastmile_qr_scan", "android": "https://dc.lft.to/lastmile_qr_scan"}, "is_reserved": 0, "fusion_lon": 0.0, "fusion_lat": 0.0, "lon": -77.02400666666666, "name": "74db61e734388efffc5a7a0da67ecb51"}, {"bike_id": "75f230ec2c27732d3571bdd8d24a467c", "type": "electric_scooter", "is_disabled": 0, "lat": 38.8926035, "rental_uris": {"ios": "https://dc.lft.to/lastmile_qr_scan", "android": "https://dc.lft.to/lastmile_qr_scan"}, "is_reserved": 0, "fusion_lon": 0.0, "fusion_lat": 0.0, "lon": -77.03340916666667, "name": "75f230ec2c27732d3571bdd8d24a467c"}, {"bike_id": "0a82499d98d04df358b1f48920a7fe65", "type": "electric_scooter", "is_disabled": 0, "lat": 38.921416666666666, "rental_uris": {"ios": "https://dc.lft.to/lastmile_qr_scan", "android": "https://dc.lft.to/lastmile_qr_scan"}, "is_reserved": 0, "fusion_lon": 0.0, "fusion_lat": 0.0, "lon": -77.04120633333334, "name": "0a82499d98d04df358b1f48920a7fe65"}, {"bike_id": "9b94a69e57dad10344204ddca21f4a5f", "type": "electric_scooter", "is_disabled": 0, "lat": 38.91820583333333, "rental_uris": {"ios": "https://dc.lft.to/lastmile_qr_scan", "android": "https://dc.lft.to/lastmile_qr_scan"}, "is_reserved": 0, "fusion_lon": 0.0, "fusion_lat": 0.0, "lon": -77.0367055, "name": "9b94a69e57dad10344204ddca21f4a5f"}, {"bike_id": "ea2982dc1af3fb9981e256bf2c08487a", "type": "electric_scooter", "is_disabled": 0, "lat": 38.90737683333333, "rental_uris": {"ios": "https://dc.lft.to/lastmile_qr_scan", "android": "https://dc.lft.to/lastmile_qr_scan"}, "is_reserved": 0, "fusion_lon": 0.0, "fusion_lat": 0.0, "lon": -77.0294885, "name": "ea2982dc1af3fb9981e256bf2c08487a"}, {"bike_id": "d6bec2b74bff9a9c2d49a71d50560d46", "type": "electric_bike", "is_disabled": 0, "lat": 38.9086305, "rental_uris": {"ios": "https://dc.lft.to/lastmile_qr_scan", "android": "https://dc.lft.to/lastmile_qr_scan"}, "is_reserved": 0, "fusion_lon": 0.0, "fusion_lat": 0.0, "lon": -76.99141533333334, "name": "d6bec2b74bff9a9c2d49a71d50560d46"}, {"bike_id": "82f5313e86d08e9880222779df8418d3", "type": "electric_scooter", "is_disabled": 0, "lat": 38.92156666666666, "rental_uris": {"ios": "https://dc.lft.to/lastmile_qr_scan", "android": "https://dc.lft.to/lastmile_qr_scan"}, "is_reserved": 0, "fusion_lon": 0.0, "fusion_lat": 0.0, "lon": -77.034424, "name": "82f5313e86d08e9880222779df8418d3"}, {"bike_id": "80bbbda4f0222ef6e1d00cbcb223ffa8", "type": "electric_scooter", "is_disabled": 0, "lat": 38.87852633333333, "rental_uris": {"ios": "https://dc.lft.to/lastmile_qr_scan", "android": "https://dc.lft.to/lastmile_qr_scan"}, "is_reserved": 0, "fusion_lon": 0.0, "fusion_lat": 0.0, "lon": -77.00592533333334, "name": "80bbbda4f0222ef6e1d00cbcb223ffa8"}, {"bike_id": "652363b84584858efb72cc146414a7f8", "type": "electric_scooter", "is_disabled": 0, "lat": 38.89086366666667, "rental_uris": {"ios": "https://dc.lft.to/lastmile_qr_scan", "android": "https://dc.lft.to/lastmile_qr_scan"}, "is_reserved": 0, "fusion_lon": 0.0, "fusion_lat": 0.0, "lon": -77.00256816666666, "name": "652363b84584858efb72cc146414a7f8"}, {"bike_id": "512b6370b49b6aa151c008c5aecdbb68", "type": "electric_scooter", "is_disabled": 0, "lat": 38.9421285, "rental_uris": {"ios": "https://dc.lft.to/lastmile_qr_scan", "android": "https://dc.lft.to/lastmile_qr_scan"}, "is_reserved": 0, "fusion_lon": 0.0, "fusion_lat": 0.0, "lon": -77.02581366666666, "name": "512b6370b49b6aa151c008c5aecdbb68"}, {"bike_id": "9a8fbc9f73ff384f8178f7152bb4d4d0", "type": "electric_scooter", "is_disabled": 0, "lat": 38.919136333333334, "rental_uris": {"ios": "https://dc.lft.to/lastmile_qr_scan", "android": "https://dc.lft.to/lastmile_qr_scan"}, "is_reserved": 0, "fusion_lon": 0.0, "fusion_lat": 0.0, "lon": -77.031111, "name": "9a8fbc9f73ff384f8178f7152bb4d4d0"}, {"bike_id": "0cd9f04664045509d590469e081b80d7", "type": "electric_scooter", "is_disabled": 0, "lat": 38.87670116666666, "rental_uris": {"ios": "https://dc.lft.to/lastmile_qr_scan", "android": "https://dc.lft.to/lastmile_qr_scan"}, "is_reserved": 0, "fusion_lon": 0.0, "fusion_lat": 0.0, "lon": -77.00409666666667, "name": "0cd9f04664045509d590469e081b80d7"}, {"bike_id": "38169a66886df73f1fe121e78e690dfc", "type": "electric_scooter", "is_disabled": 0, "lat": 38.903809333333335, "rental_uris": {"ios": "https://dc.lft.to/lastmile_qr_scan", "android": "https://dc.lft.to/lastmile_qr_scan"}, "is_reserved": 0, "fusion_lon": 0.0, "fusion_lat": 0.0, "lon": -77.05364883333333, "name": "38169a66886df73f1fe121e78e690dfc"}, {"bike_id": "741836fac19e02135303df73decfe144", "type": "electric_scooter", "is_disabled": 0, "lat": 38.905836, "rental_uris": {"ios": "https://dc.lft.to/lastmile_qr_scan", "android": "https://dc.lft.to/lastmile_qr_scan"}, "is_reserved": 0, "fusion_lon": 0.0, "fusion_lat": 0.0, "lon": -77.02593466666667, "name": "741836fac19e02135303df73decfe144"}, {"bike_id": "f737c17bcd718987de295ec944706462", "type": "electric_scooter", "is_disabled": 0, "lat": 38.926152333333334, "rental_uris": {"ios": "https://dc.lft.to/lastmile_qr_scan", "android": "https://dc.lft.to/lastmile_qr_scan"}, "is_reserved": 0, "fusion_lon": 0.0, "fusion_lat": 0.0, "lon": -77.02659633333333, "name": "f737c17bcd718987de295ec944706462"}, {"bike_id": "0740e5a554cf61ac051546c8c5e4c6c7", "type": "electric_scooter", "is_disabled": 0, "lat": 38.9156895, "rental_uris": {"ios": "https://dc.lft.to/lastmile_qr_scan", "android": "https://dc.lft.to/lastmile_qr_scan"}, "is_reserved": 0, "fusion_lon": 0.0, "fusion_lat": 0.0, "lon": -77.0387215, "name": "0740e5a554cf61ac051546c8c5e4c6c7"}, {"bike_id": "7775c962a246fe15cdd50853eeef93b0", "type": "electric_scooter", "is_disabled": 0, "lat": 38.91277516666667, "rental_uris": {"ios": "https://dc.lft.to/lastmile_qr_scan", "android": "https://dc.lft.to/lastmile_qr_scan"}, "is_reserved": 0, "fusion_lon": 0.0, "fusion_lat": 0.0, "lon": -77.02246666666667, "name": "7775c962a246fe15cdd50853eeef93b0"}, {"bike_id": "8507f9b180c22f9ceff33e14db3582c3", "type": "electric_scooter", "is_disabled": 0, "lat": 38.90519483333333, "rental_uris": {"ios": "https://dc.lft.to/lastmile_qr_scan", "android": "https://dc.lft.to/lastmile_qr_scan"}, "is_reserved": 0, "fusion_lon": 0.0, "fusion_lat": 0.0, "lon": -77.0687265, "name": "8507f9b180c22f9ceff33e14db3582c3"}, {"bike_id": "5a89bbe10209832c47bdb97150a0ff2c", "type": "electric_scooter", "is_disabled": 0, "lat": 38.939332666666665, "rental_uris": {"ios": "https://dc.lft.to/lastmile_qr_scan", "android": "https://dc.lft.to/lastmile_qr_scan"}, "is_reserved": 0, "fusion_lon": 0.0, "fusion_lat": 0.0, "lon": -77.0368345, "name": "5a89bbe10209832c47bdb97150a0ff2c"}, {"bike_id": "0299d86d76e66b556fb22d6878bf7d48", "type": "electric_scooter", "is_disabled": 0, "lat": 38.918321166666665, "rental_uris": {"ios": "https://dc.lft.to/lastmile_qr_scan", "android": "https://dc.lft.to/lastmile_qr_scan"}, "is_reserved": 0, "fusion_lon": 0.0, "fusion_lat": 0.0, "lon": -77.04562533333333, "name": "0299d86d76e66b556fb22d6878bf7d48"}, {"bike_id": "376d6904b1e78a2e4f34b222ba900d4b", "type": "electric_scooter", "is_disabled": 0, "lat": 38.920226, "rental_uris": {"ios": "https://dc.lft.to/lastmile_qr_scan", "android": "https://dc.lft.to/lastmile_qr_scan"}, "is_reserved": 0, "fusion_lon": 0.0, "fusion_lat": 0.0, "lon": -77.03125483333334, "name": "376d6904b1e78a2e4f34b222ba900d4b"}, {"bike_id": "22e9a61869085b64dc7eaeb834e8e4ca", "type": "electric_scooter", "is_disabled": 0, "lat": 38.927802166666666, "rental_uris": {"ios": "https://dc.lft.to/lastmile_qr_scan", "android": "https://dc.lft.to/lastmile_qr_scan"}, "is_reserved": 0, "fusion_lon": 0.0, "fusion_lat": 0.0, "lon": -77.05407583333333, "name": "22e9a61869085b64dc7eaeb834e8e4ca"}, {"bike_id": "b1b29bf1af3a3576a8f579a44a777b54", "type": "electric_bike", "is_disabled": 0, "lat": 38.82953633333333, "rental_uris": {"ios": "https://dc.lft.to/lastmile_qr_scan", "android": "https://dc.lft.to/lastmile_qr_scan"}, "is_reserved": 0, "fusion_lon": 0.0, "fusion_lat": 0.0, "lon": -77.123565, "name": "b1b29bf1af3a3576a8f579a44a777b54"}, {"bike_id": "c623ba772780373734ef6ba54f07b025", "type": "electric_scooter", "is_disabled": 0, "lat": 38.94351566666667, "rental_uris": {"ios": "https://dc.lft.to/lastmile_qr_scan", "android": "https://dc.lft.to/lastmile_qr_scan"}, "is_reserved": 0, "fusion_lon": 0.0, "fusion_lat": 0.0, "lon": -77.06131233333333, "name": "c623ba772780373734ef6ba54f07b025"}, {"bike_id": "1f6aa93ab76922b73fd593fd829d806c", "type": "electric_scooter", "is_disabled": 0, "lat": 38.862046, "rental_uris": {"ios": "https://dc.lft.to/lastmile_qr_scan", "android": "https://dc.lft.to/lastmile_qr_scan"}, "is_reserved": 0, "fusion_lon": 0.0, "fusion_lat": 0.0, "lon": -76.99464183333333, "name": "1f6aa93ab76922b73fd593fd829d806c"}, {"bike_id": "e75ba2a8065cc28a88a359b07d538faf", "type": "electric_scooter", "is_disabled": 0, "lat": 38.9263455, "rental_uris": {"ios": "https://dc.lft.to/lastmile_qr_scan", "android": "https://dc.lft.to/lastmile_qr_scan"}, "is_reserved": 0, "fusion_lon": 0.0, "fusion_lat": 0.0, "lon": -77.02162766666666, "name": "e75ba2a8065cc28a88a359b07d538faf"}, {"bike_id": "c5177a434fa9e7f0eb84029306354a31", "type": "electric_scooter", "is_disabled": 0, "lat": 38.90729816666666, "rental_uris": {"ios": "https://dc.lft.to/lastmile_qr_scan", "android": "https://dc.lft.to/lastmile_qr_scan"}, "is_reserved": 0, "fusion_lon": 0.0, "fusion_lat": 0.0, "lon": -77.00972866666666, "name": "c5177a434fa9e7f0eb84029306354a31"}, {"bike_id": "719c64b3d5c183e768bf381fa37e5422", "type": "electric_scooter", "is_disabled": 0, "lat": 38.947157, "rental_uris": {"ios": "https://dc.lft.to/lastmile_qr_scan", "android": "https://dc.lft.to/lastmile_qr_scan"}, "is_reserved": 0, "fusion_lon": 0.0, "fusion_lat": 0.0, "lon": -77.02777016666667, "name": "719c64b3d5c183e768bf381fa37e5422"}, {"bike_id": "3e8f9f1e44c51c1a826aceefdfb61c86", "type": "electric_scooter", "is_disabled": 0, "lat": 38.92785966666667, "rental_uris": {"ios": "https://dc.lft.to/lastmile_qr_scan", "android": "https://dc.lft.to/lastmile_qr_scan"}, "is_reserved": 0, "fusion_lon": 0.0, "fusion_lat": 0.0, "lon": -77.05257983333334, "name": "3e8f9f1e44c51c1a826aceefdfb61c86"}, {"bike_id": "4aac1b39d55f3eb7188f905b9bd4074a", "type": "electric_scooter", "is_disabled": 0, "lat": 38.8826085, "rental_uris": {"ios": "https://dc.lft.to/lastmile_qr_scan", "android": "https://dc.lft.to/lastmile_qr_scan"}, "is_reserved": 0, "fusion_lon": 0.0, "fusion_lat": 0.0, "lon": -76.99502, "name": "4aac1b39d55f3eb7188f905b9bd4074a"}, {"bike_id": "b0f9ffd6eca7e67d2325d09c95d2defc", "type": "electric_bike", "is_disabled": 0, "lat": 38.8929335, "rental_uris": {"ios": "https://dc.lft.to/lastmile_qr_scan", "android": "https://dc.lft.to/lastmile_qr_scan"}, "is_reserved": 0, "fusion_lon": 0.0, "fusion_lat": 0.0, "lon": -76.97617566666666, "name": "b0f9ffd6eca7e67d2325d09c95d2defc"}, {"bike_id": "f054960b07ef9acfea0feb585afda982", "type": "electric_scooter", "is_disabled": 0, "lat": 38.907999, "rental_uris": {"ios": "https://dc.lft.to/lastmile_qr_scan", "android": "https://dc.lft.to/lastmile_qr_scan"}, "is_reserved": 0, "fusion_lon": 0.0, "fusion_lat": 0.0, "lon": -77.03477183333334, "name": "f054960b07ef9acfea0feb585afda982"}, {"bike_id": "5905bd5928c25e828b943ff6922c9e3f", "type": "electric_scooter", "is_disabled": 0, "lat": 38.86681683333333, "rental_uris": {"ios": "https://dc.lft.to/lastmile_qr_scan", "android": "https://dc.lft.to/lastmile_qr_scan"}, "is_reserved": 0, "fusion_lon": 0.0, "fusion_lat": 0.0, "lon": -76.98532766666666, "name": "5905bd5928c25e828b943ff6922c9e3f"}, {"bike_id": "bdecb2876422a55699f9d01b6e865646", "type": "electric_scooter", "is_disabled": 0, "lat": 38.90910616666667, "rental_uris": {"ios": "https://dc.lft.to/lastmile_qr_scan", "android": "https://dc.lft.to/lastmile_qr_scan"}, "is_reserved": 0, "fusion_lon": 0.0, "fusion_lat": 0.0, "lon": -76.98425033333334, "name": "bdecb2876422a55699f9d01b6e865646"}, {"bike_id": "a5fc698401598e98e0c12f5db2a43de7", "type": "electric_scooter", "is_disabled": 0, "lat": 38.933252833333334, "rental_uris": {"ios": "https://dc.lft.to/lastmile_qr_scan", "android": "https://dc.lft.to/lastmile_qr_scan"}, "is_reserved": 0, "fusion_lon": 0.0, "fusion_lat": 0.0, "lon": -77.03259283333334, "name": "a5fc698401598e98e0c12f5db2a43de7"}, {"bike_id": "cabbf1e1a56860153ad12272650f6de9", "type": "electric_scooter", "is_disabled": 0, "lat": 38.9164065, "rental_uris": {"ios": "https://dc.lft.to/lastmile_qr_scan", "android": "https://dc.lft.to/lastmile_qr_scan"}, "is_reserved": 0, "fusion_lon": 0.0, "fusion_lat": 0.0, "lon": -77.04805983333334, "name": "cabbf1e1a56860153ad12272650f6de9"}, {"bike_id": "f93552cca63a945eb0997aa8668d16af", "type": "electric_scooter", "is_disabled": 0, "lat": 38.893211, "rental_uris": {"ios": "https://dc.lft.to/lastmile_qr_scan", "android": "https://dc.lft.to/lastmile_qr_scan"}, "is_reserved": 0, "fusion_lon": 0.0, "fusion_lat": 0.0, "lon": -76.9397465, "name": "f93552cca63a945eb0997aa8668d16af"}, {"bike_id": "c4c6ffea4d29d919e2dba5cf9a9e2b2a", "type": "electric_scooter", "is_disabled": 0, "lat": 38.87970166666667, "rental_uris": {"ios": "https://dc.lft.to/lastmile_qr_scan", "android": "https://dc.lft.to/lastmile_qr_scan"}, "is_reserved": 0, "fusion_lon": 0.0, "fusion_lat": 0.0, "lon": -76.98538483333333, "name": "c4c6ffea4d29d919e2dba5cf9a9e2b2a"}, {"bike_id": "dc0ab426b2bdaa9356d785d1c1fc72c8", "type": "electric_scooter", "is_disabled": 0, "lat": 38.915931666666665, "rental_uris": {"ios": "https://dc.lft.to/lastmile_qr_scan", "android": "https://dc.lft.to/lastmile_qr_scan"}, "is_reserved": 0, "fusion_lon": 0.0, "fusion_lat": 0.0, "lon": -77.04522633333333, "name": "dc0ab426b2bdaa9356d785d1c1fc72c8"}, {"bike_id": "082d0daed6af7977912257023acae73a", "type": "electric_scooter", "is_disabled": 0, "lat": 38.920361666666665, "rental_uris": {"ios": "https://dc.lft.to/lastmile_qr_scan", "android": "https://dc.lft.to/lastmile_qr_scan"}, "is_reserved": 0, "fusion_lon": 0.0, "fusion_lat": 0.0, "lon": -77.01731933333333, "name": "082d0daed6af7977912257023acae73a"}, {"bike_id": "320c8dd0e39624b55ad5df12db139f5d", "type": "electric_scooter", "is_disabled": 0, "lat": 38.877232166666666, "rental_uris": {"ios": "https://dc.lft.to/lastmile_qr_scan", "android": "https://dc.lft.to/lastmile_qr_scan"}, "is_reserved": 0, "fusion_lon": 0.0, "fusion_lat": 0.0, "lon": -77.017637, "name": "320c8dd0e39624b55ad5df12db139f5d"}, {"bike_id": "e6664e094fbb35f91366fbe7d8ada5ca", "type": "electric_scooter", "is_disabled": 0, "lat": 38.909616166666666, "rental_uris": {"ios": "https://dc.lft.to/lastmile_qr_scan", "android": "https://dc.lft.to/lastmile_qr_scan"}, "is_reserved": 0, "fusion_lon": 0.0, "fusion_lat": 0.0, "lon": -77.02303833333333, "name": "e6664e094fbb35f91366fbe7d8ada5ca"}, {"bike_id": "cb062aaea8dfd301725fd963fdd7bb25", "type": "electric_scooter", "is_disabled": 0, "lat": 38.924873166666664, "rental_uris": {"ios": "https://dc.lft.to/lastmile_qr_scan", "android": "https://dc.lft.to/lastmile_qr_scan"}, "is_reserved": 0, "fusion_lon": 0.0, "fusion_lat": 0.0, "lon": -77.05754183333333, "name": "cb062aaea8dfd301725fd963fdd7bb25"}, {"bike_id": "1de60b680d2b768a1b58d487271d08c0", "type": "electric_scooter", "is_disabled": 0, "lat": 38.908263166666664, "rental_uris": {"ios": "https://dc.lft.to/lastmile_qr_scan", "android": "https://dc.lft.to/lastmile_qr_scan"}, "is_reserved": 0, "fusion_lon": 0.0, "fusion_lat": 0.0, "lon": -77.0238095, "name": "1de60b680d2b768a1b58d487271d08c0"}, {"bike_id": "47a840deeacfc20f2960da04078e212e", "type": "electric_scooter", "is_disabled": 0, "lat": 38.922470833333335, "rental_uris": {"ios": "https://dc.lft.to/lastmile_qr_scan", "android": "https://dc.lft.to/lastmile_qr_scan"}, "is_reserved": 0, "fusion_lon": 0.0, "fusion_lat": 0.0, "lon": -77.07475133333334, "name": "47a840deeacfc20f2960da04078e212e"}, {"bike_id": "c16a8a67e833d5d968f4229be4be2295", "type": "electric_scooter", "is_disabled": 0, "lat": 38.906848333333336, "rental_uris": {"ios": "https://dc.lft.to/lastmile_qr_scan", "android": "https://dc.lft.to/lastmile_qr_scan"}, "is_reserved": 0, "fusion_lon": 0.0, "fusion_lat": 0.0, "lon": -77.063397, "name": "c16a8a67e833d5d968f4229be4be2295"}, {"bike_id": "5eec5ae790050383a1cc44d1e95f5bde", "type": "electric_scooter", "is_disabled": 0, "lat": 38.9368175, "rental_uris": {"ios": "https://dc.lft.to/lastmile_qr_scan", "android": "https://dc.lft.to/lastmile_qr_scan"}, "is_reserved": 0, "fusion_lon": 0.0, "fusion_lat": 0.0, "lon": -77.03628566666667, "name": "5eec5ae790050383a1cc44d1e95f5bde"}, {"bike_id": "80dbd5c1b2b52b87722582c3c8a2ff61", "type": "electric_scooter", "is_disabled": 0, "lat": 38.903560666666664, "rental_uris": {"ios": "https://dc.lft.to/lastmile_qr_scan", "android": "https://dc.lft.to/lastmile_qr_scan"}, "is_reserved": 0, "fusion_lon": 0.0, "fusion_lat": 0.0, "lon": -77.00750533333333, "name": "80dbd5c1b2b52b87722582c3c8a2ff61"}, {"bike_id": "3289dea3af0218582087b30200c6ff94", "type": "electric_scooter", "is_disabled": 0, "lat": 38.91404766666667, "rental_uris": {"ios": "https://dc.lft.to/lastmile_qr_scan", "android": "https://dc.lft.to/lastmile_qr_scan"}, "is_reserved": 0, "fusion_lon": 0.0, "fusion_lat": 0.0, "lon": -77.02097166666667, "name": "3289dea3af0218582087b30200c6ff94"}, {"bike_id": "07328b8a432a3f03f4f4d1dee6e9004c", "type": "electric_scooter", "is_disabled": 0, "lat": 38.9388045, "rental_uris": {"ios": "https://dc.lft.to/lastmile_qr_scan", "android": "https://dc.lft.to/lastmile_qr_scan"}, "is_reserved": 0, "fusion_lon": 0.0, "fusion_lat": 0.0, "lon": -77.0245325, "name": "07328b8a432a3f03f4f4d1dee6e9004c"}, {"bike_id": "d90bfbf2b33a19c29e0d7aeac2063499", "type": "electric_scooter", "is_disabled": 0, "lat": 38.88270716666667, "rental_uris": {"ios": "https://dc.lft.to/lastmile_qr_scan", "android": "https://dc.lft.to/lastmile_qr_scan"}, "is_reserved": 0, "fusion_lon": 0.0, "fusion_lat": 0.0, "lon": -76.99250733333334, "name": "d90bfbf2b33a19c29e0d7aeac2063499"}, {"bike_id": "99735e5f526befb5f7990a8708efd3a8", "type": "electric_scooter", "is_disabled": 0, "lat": 38.9275925, "rental_uris": {"ios": "https://dc.lft.to/lastmile_qr_scan", "android": "https://dc.lft.to/lastmile_qr_scan"}, "is_reserved": 0, "fusion_lon": 0.0, "fusion_lat": 0.0, "lon": -77.02306983333334, "name": "99735e5f526befb5f7990a8708efd3a8"}, {"bike_id": "ca0939bcfb8ddea19193d1457457e531", "type": "electric_scooter", "is_disabled": 0, "lat": 38.916273833333335, "rental_uris": {"ios": "https://dc.lft.to/lastmile_qr_scan", "android": "https://dc.lft.to/lastmile_qr_scan"}, "is_reserved": 0, "fusion_lon": 0.0, "fusion_lat": 0.0, "lon": -77.0398955, "name": "ca0939bcfb8ddea19193d1457457e531"}, {"bike_id": "8d271c4fa981b3ddbefa02b74328aaff", "type": "electric_scooter", "is_disabled": 0, "lat": 38.90664816666666, "rental_uris": {"ios": "https://dc.lft.to/lastmile_qr_scan", "android": "https://dc.lft.to/lastmile_qr_scan"}, "is_reserved": 0, "fusion_lon": 0.0, "fusion_lat": 0.0, "lon": -77.04609866666667, "name": "8d271c4fa981b3ddbefa02b74328aaff"}, {"bike_id": "21a8935fb6caca0ecf489a2b40882210", "type": "electric_scooter", "is_disabled": 0, "lat": 38.919179166666666, "rental_uris": {"ios": "https://dc.lft.to/lastmile_qr_scan", "android": "https://dc.lft.to/lastmile_qr_scan"}, "is_reserved": 0, "fusion_lon": 0.0, "fusion_lat": 0.0, "lon": -77.0342455, "name": "21a8935fb6caca0ecf489a2b40882210"}, {"bike_id": "f3ab59b401d5e11e811d343f7ef6a5a4", "type": "electric_bike", "is_disabled": 0, "lat": 38.90828883333333, "rental_uris": {"ios": "https://dc.lft.to/lastmile_qr_scan", "android": "https://dc.lft.to/lastmile_qr_scan"}, "is_reserved": 0, "fusion_lon": 0.0, "fusion_lat": 0.0, "lon": -76.94156283333334, "name": "f3ab59b401d5e11e811d343f7ef6a5a4"}, {"bike_id": "26431cb9739629a13f8e501e96268d7f", "type": "electric_scooter", "is_disabled": 0, "lat": 38.90772483333333, "rental_uris": {"ios": "https://dc.lft.to/lastmile_qr_scan", "android": "https://dc.lft.to/lastmile_qr_scan"}, "is_reserved": 0, "fusion_lon": 0.0, "fusion_lat": 0.0, "lon": -77.0434465, "name": "26431cb9739629a13f8e501e96268d7f"}, {"bike_id": "0cc97f4638feb5fd56c53e0957c94fba", "type": "electric_bike", "is_disabled": 0, "lat": 39.054953, "rental_uris": {"ios": "https://dc.lft.to/lastmile_qr_scan", "android": "https://dc.lft.to/lastmile_qr_scan"}, "is_reserved": 0, "fusion_lon": 0.0, "fusion_lat": 0.0, "lon": -77.1178745, "name": "0cc97f4638feb5fd56c53e0957c94fba"}, {"bike_id": "61d3f68b0c2068574f9c2d177a351730", "type": "electric_scooter", "is_disabled": 0, "lat": 38.92156666666666, "rental_uris": {"ios": "https://dc.lft.to/lastmile_qr_scan", "android": "https://dc.lft.to/lastmile_qr_scan"}, "is_reserved": 0, "fusion_lon": 0.0, "fusion_lat": 0.0, "lon": -77.02712583333333, "name": "61d3f68b0c2068574f9c2d177a351730"}, {"bike_id": "7283616f8078b1a09a6ee7b9b4f9c26e", "type": "electric_scooter", "is_disabled": 0, "lat": 38.941293333333334, "rental_uris": {"ios": "https://dc.lft.to/lastmile_qr_scan", "android": "https://dc.lft.to/lastmile_qr_scan"}, "is_reserved": 0, "fusion_lon": 0.0, "fusion_lat": 0.0, "lon": -77.01537583333334, "name": "7283616f8078b1a09a6ee7b9b4f9c26e"}, {"bike_id": "9204c712301488698bc4b07304cca97f", "type": "electric_scooter", "is_disabled": 0, "lat": 38.906672666666665, "rental_uris": {"ios": "https://dc.lft.to/lastmile_qr_scan", "android": "https://dc.lft.to/lastmile_qr_scan"}, "is_reserved": 0, "fusion_lon": 0.0, "fusion_lat": 0.0, "lon": -77.00891916666667, "name": "9204c712301488698bc4b07304cca97f"}, {"bike_id": "de703aaf81080defa4e5bd7b503692fe", "type": "electric_bike", "is_disabled": 0, "lat": 39.03743716666666, "rental_uris": {"ios": "https://dc.lft.to/lastmile_qr_scan", "android": "https://dc.lft.to/lastmile_qr_scan"}, "is_reserved": 0, "fusion_lon": 0.0, "fusion_lat": 0.0, "lon": -77.05490383333333, "name": "de703aaf81080defa4e5bd7b503692fe"}, {"bike_id": "0192ca851688612b8a406ea89460088c", "type": "electric_scooter", "is_disabled": 0, "lat": 38.90401133333334, "rental_uris": {"ios": "https://dc.lft.to/lastmile_qr_scan", "android": "https://dc.lft.to/lastmile_qr_scan"}, "is_reserved": 0, "fusion_lon": 0.0, "fusion_lat": 0.0, "lon": -77.00577683333333, "name": "0192ca851688612b8a406ea89460088c"}, {"bike_id": "f0a317f7dfcd282b352d2117760a8a7b", "type": "electric_scooter", "is_disabled": 0, "lat": 38.928846666666665, "rental_uris": {"ios": "https://dc.lft.to/lastmile_qr_scan", "android": "https://dc.lft.to/lastmile_qr_scan"}, "is_reserved": 0, "fusion_lon": 0.0, "fusion_lat": 0.0, "lon": -77.0135875, "name": "f0a317f7dfcd282b352d2117760a8a7b"}, {"bike_id": "2155d37e674e072bd034d7fde5f68614", "type": "electric_scooter", "is_disabled": 0, "lat": 38.905396333333336, "rental_uris": {"ios": "https://dc.lft.to/lastmile_qr_scan", "android": "https://dc.lft.to/lastmile_qr_scan"}, "is_reserved": 0, "fusion_lon": 0.0, "fusion_lat": 0.0, "lon": -77.0689755, "name": "2155d37e674e072bd034d7fde5f68614"}, {"bike_id": "285aa41d8fe245996b82735c45774422", "type": "electric_scooter", "is_disabled": 0, "lat": 38.88493366666667, "rental_uris": {"ios": "https://dc.lft.to/lastmile_qr_scan", "android": "https://dc.lft.to/lastmile_qr_scan"}, "is_reserved": 0, "fusion_lon": 0.0, "fusion_lat": 0.0, "lon": -77.01532316666666, "name": "285aa41d8fe245996b82735c45774422"}, {"bike_id": "4c857875b60062cc9ca69f863f17b523", "type": "electric_scooter", "is_disabled": 0, "lat": 38.91105366666667, "rental_uris": {"ios": "https://dc.lft.to/lastmile_qr_scan", "android": "https://dc.lft.to/lastmile_qr_scan"}, "is_reserved": 0, "fusion_lon": 0.0, "fusion_lat": 0.0, "lon": -77.04476083333333, "name": "4c857875b60062cc9ca69f863f17b523"}, {"bike_id": "23d1f264e6a08cd3b73d2b35edfbcb7a", "type": "electric_scooter", "is_disabled": 0, "lat": 38.927867166666665, "rental_uris": {"ios": "https://dc.lft.to/lastmile_qr_scan", "android": "https://dc.lft.to/lastmile_qr_scan"}, "is_reserved": 0, "fusion_lon": 0.0, "fusion_lat": 0.0, "lon": -77.02131183333333, "name": "23d1f264e6a08cd3b73d2b35edfbcb7a"}, {"bike_id": "e19f340afce52a2743e0c52eed9453d1", "type": "electric_scooter", "is_disabled": 0, "lat": 38.93124533333334, "rental_uris": {"ios": "https://dc.lft.to/lastmile_qr_scan", "android": "https://dc.lft.to/lastmile_qr_scan"}, "is_reserved": 0, "fusion_lon": 0.0, "fusion_lat": 0.0, "lon": -77.02070066666667, "name": "e19f340afce52a2743e0c52eed9453d1"}, {"bike_id": "a1b0d348e701545580961f5f99fd921c", "type": "electric_scooter", "is_disabled": 0, "lat": 38.9059845, "rental_uris": {"ios": "https://dc.lft.to/lastmile_qr_scan", "android": "https://dc.lft.to/lastmile_qr_scan"}, "is_reserved": 0, "fusion_lon": 0.0, "fusion_lat": 0.0, "lon": -77.02178516666666, "name": "a1b0d348e701545580961f5f99fd921c"}, {"bike_id": "e36f52fd37504898d852376a1ae4139a", "type": "electric_scooter", "is_disabled": 0, "lat": 38.8621755, "rental_uris": {"ios": "https://dc.lft.to/lastmile_qr_scan", "android": "https://dc.lft.to/lastmile_qr_scan"}, "is_reserved": 0, "fusion_lon": 0.0, "fusion_lat": 0.0, "lon": -76.99484683333333, "name": "e36f52fd37504898d852376a1ae4139a"}, {"bike_id": "c70d9d4b552daa528fc620aa6201c912", "type": "electric_scooter", "is_disabled": 0, "lat": 38.9026995, "rental_uris": {"ios": "https://dc.lft.to/lastmile_qr_scan", "android": "https://dc.lft.to/lastmile_qr_scan"}, "is_reserved": 0, "fusion_lon": 0.0, "fusion_lat": 0.0, "lon": -77.0196185, "name": "c70d9d4b552daa528fc620aa6201c912"}, {"bike_id": "064b28cab0b9352d6b366fbeb083fe1e", "type": "electric_scooter", "is_disabled": 0, "lat": 38.95691733333334, "rental_uris": {"ios": "https://dc.lft.to/lastmile_qr_scan", "android": "https://dc.lft.to/lastmile_qr_scan"}, "is_reserved": 0, "fusion_lon": 0.0, "fusion_lat": 0.0, "lon": -77.02394033333333, "name": "064b28cab0b9352d6b366fbeb083fe1e"}, {"bike_id": "42a952cc271230bbd12742b0afeab972", "type": "electric_scooter", "is_disabled": 0, "lat": 38.907297, "rental_uris": {"ios": "https://dc.lft.to/lastmile_qr_scan", "android": "https://dc.lft.to/lastmile_qr_scan"}, "is_reserved": 0, "fusion_lon": 0.0, "fusion_lat": 0.0, "lon": -77.0532625, "name": "42a952cc271230bbd12742b0afeab972"}, {"bike_id": "3c865431faea997c0c55528d150f3ae0", "type": "electric_scooter", "is_disabled": 0, "lat": 38.92071633333333, "rental_uris": {"ios": "https://dc.lft.to/lastmile_qr_scan", "android": "https://dc.lft.to/lastmile_qr_scan"}, "is_reserved": 0, "fusion_lon": 0.0, "fusion_lat": 0.0, "lon": -77.03471266666666, "name": "3c865431faea997c0c55528d150f3ae0"}, {"bike_id": "686eaa75f249ed6d9c5cf948f1c90aef", "type": "electric_scooter", "is_disabled": 0, "lat": 38.883827333333336, "rental_uris": {"ios": "https://dc.lft.to/lastmile_qr_scan", "android": "https://dc.lft.to/lastmile_qr_scan"}, "is_reserved": 0, "fusion_lon": 0.0, "fusion_lat": 0.0, "lon": -77.02623566666666, "name": "686eaa75f249ed6d9c5cf948f1c90aef"}, {"bike_id": "4a25ff91318ee719d4dc82434d782434", "type": "electric_scooter", "is_disabled": 0, "lat": 38.86680033333333, "rental_uris": {"ios": "https://dc.lft.to/lastmile_qr_scan", "android": "https://dc.lft.to/lastmile_qr_scan"}, "is_reserved": 0, "fusion_lon": 0.0, "fusion_lat": 0.0, "lon": -76.985551, "name": "4a25ff91318ee719d4dc82434d782434"}, {"bike_id": "cbb95b8b612e78b5fcf3c3ddf809fa8e", "type": "electric_scooter", "is_disabled": 0, "lat": 38.91925883333333, "rental_uris": {"ios": "https://dc.lft.to/lastmile_qr_scan", "android": "https://dc.lft.to/lastmile_qr_scan"}, "is_reserved": 0, "fusion_lon": 0.0, "fusion_lat": 0.0, "lon": -77.04241716666667, "name": "cbb95b8b612e78b5fcf3c3ddf809fa8e"}, {"bike_id": "00a383b6528ffbf7c28b0b7a8eee01d1", "type": "electric_scooter", "is_disabled": 0, "lat": 38.920220666666665, "rental_uris": {"ios": "https://dc.lft.to/lastmile_qr_scan", "android": "https://dc.lft.to/lastmile_qr_scan"}, "is_reserved": 0, "fusion_lon": 0.0, "fusion_lat": 0.0, "lon": -77.03121583333333, "name": "00a383b6528ffbf7c28b0b7a8eee01d1"}, {"bike_id": "a2fc478ba4e3410a0580f9caf7fd38a9", "type": "electric_scooter", "is_disabled": 0, "lat": 38.905226166666665, "rental_uris": {"ios": "https://dc.lft.to/lastmile_qr_scan", "android": "https://dc.lft.to/lastmile_qr_scan"}, "is_reserved": 0, "fusion_lon": 0.0, "fusion_lat": 0.0, "lon": -77.0513545, "name": "a2fc478ba4e3410a0580f9caf7fd38a9"}, {"bike_id": "60c422ff7c74c6879175408a4d59f7c6", "type": "electric_scooter", "is_disabled": 0, "lat": 38.902756, "rental_uris": {"ios": "https://dc.lft.to/lastmile_qr_scan", "android": "https://dc.lft.to/lastmile_qr_scan"}, "is_reserved": 0, "fusion_lon": 0.0, "fusion_lat": 0.0, "lon": -77.03974166666667, "name": "60c422ff7c74c6879175408a4d59f7c6"}, {"bike_id": "70b0242e012136e77c0c230caa6c3a42", "type": "electric_scooter", "is_disabled": 0, "lat": 38.9058595, "rental_uris": {"ios": "https://dc.lft.to/lastmile_qr_scan", "android": "https://dc.lft.to/lastmile_qr_scan"}, "is_reserved": 0, "fusion_lon": 0.0, "fusion_lat": 0.0, "lon": -77.01996233333334, "name": "70b0242e012136e77c0c230caa6c3a42"}, {"bike_id": "f0dd2cff578d1820dcd5d6257d16ad9c", "type": "electric_scooter", "is_disabled": 0, "lat": 38.8641785, "rental_uris": {"ios": "https://dc.lft.to/lastmile_qr_scan", "android": "https://dc.lft.to/lastmile_qr_scan"}, "is_reserved": 0, "fusion_lon": 0.0, "fusion_lat": 0.0, "lon": -76.98046066666667, "name": "f0dd2cff578d1820dcd5d6257d16ad9c"}, {"bike_id": "ab27a77efe2a369a89a53b3e6de4893a", "type": "electric_scooter", "is_disabled": 0, "lat": 38.86375916666667, "rental_uris": {"ios": "https://dc.lft.to/lastmile_qr_scan", "android": "https://dc.lft.to/lastmile_qr_scan"}, "is_reserved": 0, "fusion_lon": 0.0, "fusion_lat": 0.0, "lon": -76.99062866666667, "name": "ab27a77efe2a369a89a53b3e6de4893a"}, {"bike_id": "6318c9712f3f2c8ed1f64360687dcf30", "type": "electric_scooter", "is_disabled": 0, "lat": 38.908497833333335, "rental_uris": {"ios": "https://dc.lft.to/lastmile_qr_scan", "android": "https://dc.lft.to/lastmile_qr_scan"}, "is_reserved": 0, "fusion_lon": 0.0, "fusion_lat": 0.0, "lon": -76.99795833333333, "name": "6318c9712f3f2c8ed1f64360687dcf30"}, {"bike_id": "1d935c220ab3585adf8d3dbefcb4fd2f", "type": "electric_scooter", "is_disabled": 0, "lat": 38.934581666666666, "rental_uris": {"ios": "https://dc.lft.to/lastmile_qr_scan", "android": "https://dc.lft.to/lastmile_qr_scan"}, "is_reserved": 0, "fusion_lon": 0.0, "fusion_lat": 0.0, "lon": -77.07222533333334, "name": "1d935c220ab3585adf8d3dbefcb4fd2f"}, {"bike_id": "49f883688d4c7404f30c196d1511f1e4", "type": "electric_scooter", "is_disabled": 0, "lat": 38.92465466666667, "rental_uris": {"ios": "https://dc.lft.to/lastmile_qr_scan", "android": "https://dc.lft.to/lastmile_qr_scan"}, "is_reserved": 0, "fusion_lon": 0.0, "fusion_lat": 0.0, "lon": -77.0523335, "name": "49f883688d4c7404f30c196d1511f1e4"}, {"bike_id": "95b720c644c9554c7bb9c46a654d00d2", "type": "electric_scooter", "is_disabled": 0, "lat": 38.892499, "rental_uris": {"ios": "https://dc.lft.to/lastmile_qr_scan", "android": "https://dc.lft.to/lastmile_qr_scan"}, "is_reserved": 0, "fusion_lon": 0.0, "fusion_lat": 0.0, "lon": -77.03953783333333, "name": "95b720c644c9554c7bb9c46a654d00d2"}, {"bike_id": "a874fbfa0c3dbe567e9d17e6102936e0", "type": "electric_scooter", "is_disabled": 0, "lat": 38.907325166666666, "rental_uris": {"ios": "https://dc.lft.to/lastmile_qr_scan", "android": "https://dc.lft.to/lastmile_qr_scan"}, "is_reserved": 0, "fusion_lon": 0.0, "fusion_lat": 0.0, "lon": -77.0148595, "name": "a874fbfa0c3dbe567e9d17e6102936e0"}, {"bike_id": "2376f4fddae2dba84fa005f7737d5cd5", "type": "electric_scooter", "is_disabled": 0, "lat": 38.90682566666667, "rental_uris": {"ios": "https://dc.lft.to/lastmile_qr_scan", "android": "https://dc.lft.to/lastmile_qr_scan"}, "is_reserved": 0, "fusion_lon": 0.0, "fusion_lat": 0.0, "lon": -77.071458, "name": "2376f4fddae2dba84fa005f7737d5cd5"}, {"bike_id": "41362a698ea0bb2959919bac1a337404", "type": "electric_scooter", "is_disabled": 0, "lat": 38.89874116666667, "rental_uris": {"ios": "https://dc.lft.to/lastmile_qr_scan", "android": "https://dc.lft.to/lastmile_qr_scan"}, "is_reserved": 0, "fusion_lon": 0.0, "fusion_lat": 0.0, "lon": -77.02000016666666, "name": "41362a698ea0bb2959919bac1a337404"}, {"bike_id": "04db81d025fc2c9f93c0f59599ab5992", "type": "electric_scooter", "is_disabled": 0, "lat": 38.92987766666667, "rental_uris": {"ios": "https://dc.lft.to/lastmile_qr_scan", "android": "https://dc.lft.to/lastmile_qr_scan"}, "is_reserved": 0, "fusion_lon": 0.0, "fusion_lat": 0.0, "lon": -77.034705, "name": "04db81d025fc2c9f93c0f59599ab5992"}, {"bike_id": "ba09225d43c55096598a581f911b5f9c", "type": "electric_scooter", "is_disabled": 0, "lat": 38.90033316666667, "rental_uris": {"ios": "https://dc.lft.to/lastmile_qr_scan", "android": "https://dc.lft.to/lastmile_qr_scan"}, "is_reserved": 0, "fusion_lon": 0.0, "fusion_lat": 0.0, "lon": -76.9881825, "name": "ba09225d43c55096598a581f911b5f9c"}, {"bike_id": "15578dca7817652bb6008a166d24cbf0", "type": "electric_scooter", "is_disabled": 0, "lat": 38.90681883333333, "rental_uris": {"ios": "https://dc.lft.to/lastmile_qr_scan", "android": "https://dc.lft.to/lastmile_qr_scan"}, "is_reserved": 0, "fusion_lon": 0.0, "fusion_lat": 0.0, "lon": -77.06341783333333, "name": "15578dca7817652bb6008a166d24cbf0"}, {"bike_id": "bbcd4ec3ecce2375ce3e333022c4595f", "type": "electric_scooter", "is_disabled": 0, "lat": 38.91686583333333, "rental_uris": {"ios": "https://dc.lft.to/lastmile_qr_scan", "android": "https://dc.lft.to/lastmile_qr_scan"}, "is_reserved": 0, "fusion_lon": 0.0, "fusion_lat": 0.0, "lon": -77.02291666666666, "name": "bbcd4ec3ecce2375ce3e333022c4595f"}, {"bike_id": "88556f5529a4081c87ee3e61bc88a80f", "type": "electric_scooter", "is_disabled": 0, "lat": 38.931881833333335, "rental_uris": {"ios": "https://dc.lft.to/lastmile_qr_scan", "android": "https://dc.lft.to/lastmile_qr_scan"}, "is_reserved": 0, "fusion_lon": 0.0, "fusion_lat": 0.0, "lon": -77.03652866666667, "name": "88556f5529a4081c87ee3e61bc88a80f"}, {"bike_id": "5e39aa7332bbee56af7ad89ae6a597f5", "type": "electric_scooter", "is_disabled": 0, "lat": 38.91106083333333, "rental_uris": {"ios": "https://dc.lft.to/lastmile_qr_scan", "android": "https://dc.lft.to/lastmile_qr_scan"}, "is_reserved": 0, "fusion_lon": 0.0, "fusion_lat": 0.0, "lon": -77.01149033333333, "name": "5e39aa7332bbee56af7ad89ae6a597f5"}, {"bike_id": "add3c7a8128bee57fa0332e75c659d1b", "type": "electric_bike", "is_disabled": 0, "lat": 39.0563525, "rental_uris": {"ios": "https://dc.lft.to/lastmile_qr_scan", "android": "https://dc.lft.to/lastmile_qr_scan"}, "is_reserved": 0, "fusion_lon": 0.0, "fusion_lat": 0.0, "lon": -77.12525833333333, "name": "add3c7a8128bee57fa0332e75c659d1b"}, {"bike_id": "447116de931824a66b3e30dbc43c56c7", "type": "electric_scooter", "is_disabled": 0, "lat": 38.92977033333333, "rental_uris": {"ios": "https://dc.lft.to/lastmile_qr_scan", "android": "https://dc.lft.to/lastmile_qr_scan"}, "is_reserved": 0, "fusion_lon": 0.0, "fusion_lat": 0.0, "lon": -77.03946016666667, "name": "447116de931824a66b3e30dbc43c56c7"}, {"bike_id": "0c1645f395dde3ba5b3488de06c1941c", "type": "electric_scooter", "is_disabled": 0, "lat": 38.923450833333334, "rental_uris": {"ios": "https://dc.lft.to/lastmile_qr_scan", "android": "https://dc.lft.to/lastmile_qr_scan"}, "is_reserved": 0, "fusion_lon": 0.0, "fusion_lat": 0.0, "lon": -77.04027916666666, "name": "0c1645f395dde3ba5b3488de06c1941c"}, {"bike_id": "fcb774edc47d65ba7267bd794e1908bc", "type": "electric_scooter", "is_disabled": 0, "lat": 38.9662345, "rental_uris": {"ios": "https://dc.lft.to/lastmile_qr_scan", "android": "https://dc.lft.to/lastmile_qr_scan"}, "is_reserved": 0, "fusion_lon": 0.0, "fusion_lat": 0.0, "lon": -77.02247016666666, "name": "fcb774edc47d65ba7267bd794e1908bc"}, {"bike_id": "e6c3e547a18b393b079cb0d3ee5c46df", "type": "electric_scooter", "is_disabled": 0, "lat": 38.9104415, "rental_uris": {"ios": "https://dc.lft.to/lastmile_qr_scan", "android": "https://dc.lft.to/lastmile_qr_scan"}, "is_reserved": 0, "fusion_lon": 0.0, "fusion_lat": 0.0, "lon": -77.0411545, "name": "e6c3e547a18b393b079cb0d3ee5c46df"}, {"bike_id": "fe004c51beeda034d2aca61112a60a31", "type": "electric_scooter", "is_disabled": 0, "lat": 38.89339533333333, "rental_uris": {"ios": "https://dc.lft.to/lastmile_qr_scan", "android": "https://dc.lft.to/lastmile_qr_scan"}, "is_reserved": 0, "fusion_lon": 0.0, "fusion_lat": 0.0, "lon": -77.02413583333333, "name": "fe004c51beeda034d2aca61112a60a31"}, {"bike_id": "b8035e502e035db794239743d61e005f", "type": "electric_bike", "is_disabled": 0, "lat": 38.95248816666667, "rental_uris": {"ios": "https://dc.lft.to/lastmile_qr_scan", "android": "https://dc.lft.to/lastmile_qr_scan"}, "is_reserved": 0, "fusion_lon": 0.0, "fusion_lat": 0.0, "lon": -76.97673266666666, "name": "b8035e502e035db794239743d61e005f"}, {"bike_id": "0f1f4a27f7e5167a41450dfd8d0209c0", "type": "electric_scooter", "is_disabled": 0, "lat": 38.938731, "rental_uris": {"ios": "https://dc.lft.to/lastmile_qr_scan", "android": "https://dc.lft.to/lastmile_qr_scan"}, "is_reserved": 0, "fusion_lon": 0.0, "fusion_lat": 0.0, "lon": -77.0291855, "name": "0f1f4a27f7e5167a41450dfd8d0209c0"}, {"bike_id": "fef021a692350594ef1266319947200e", "type": "electric_scooter", "is_disabled": 0, "lat": 38.91117583333333, "rental_uris": {"ios": "https://dc.lft.to/lastmile_qr_scan", "android": "https://dc.lft.to/lastmile_qr_scan"}, "is_reserved": 0, "fusion_lon": 0.0, "fusion_lat": 0.0, "lon": -77.03917583333333, "name": "fef021a692350594ef1266319947200e"}, {"bike_id": "b42f434bce9f64f49b3c50eb6e138b89", "type": "electric_scooter", "is_disabled": 0, "lat": 38.9351975, "rental_uris": {"ios": "https://dc.lft.to/lastmile_qr_scan", "android": "https://dc.lft.to/lastmile_qr_scan"}, "is_reserved": 0, "fusion_lon": 0.0, "fusion_lat": 0.0, "lon": -77.02961566666667, "name": "b42f434bce9f64f49b3c50eb6e138b89"}, {"bike_id": "2f68eda45a667f68bf07dbccc1bb70d9", "type": "electric_bike", "is_disabled": 0, "lat": 38.949213, "rental_uris": {"ios": "https://dc.lft.to/lastmile_qr_scan", "android": "https://dc.lft.to/lastmile_qr_scan"}, "is_reserved": 0, "fusion_lon": 0.0, "fusion_lat": 0.0, "lon": -77.00800016666666, "name": "2f68eda45a667f68bf07dbccc1bb70d9"}, {"bike_id": "8d2f1be4e8506a7befc635b3ca7165e5", "type": "electric_scooter", "is_disabled": 0, "lat": 38.90624316666667, "rental_uris": {"ios": "https://dc.lft.to/lastmile_qr_scan", "android": "https://dc.lft.to/lastmile_qr_scan"}, "is_reserved": 0, "fusion_lon": 0.0, "fusion_lat": 0.0, "lon": -77.00950983333334, "name": "8d2f1be4e8506a7befc635b3ca7165e5"}, {"bike_id": "7de9d86240dc08d6dde34eff02f79284", "type": "electric_scooter", "is_disabled": 0, "lat": 38.93538, "rental_uris": {"ios": "https://dc.lft.to/lastmile_qr_scan", "android": "https://dc.lft.to/lastmile_qr_scan"}, "is_reserved": 0, "fusion_lon": 0.0, "fusion_lat": 0.0, "lon": -77.05825433333334, "name": "7de9d86240dc08d6dde34eff02f79284"}, {"bike_id": "58192576a1643bfc40f83852be0cc3d7", "type": "electric_scooter", "is_disabled": 0, "lat": 38.905411, "rental_uris": {"ios": "https://dc.lft.to/lastmile_qr_scan", "android": "https://dc.lft.to/lastmile_qr_scan"}, "is_reserved": 0, "fusion_lon": 0.0, "fusion_lat": 0.0, "lon": -77.0498575, "name": "58192576a1643bfc40f83852be0cc3d7"}, {"bike_id": "177fdc35fe8eaee07daff7aa4387e1aa", "type": "electric_bike", "is_disabled": 0, "lat": 38.858958666666666, "rental_uris": {"ios": "https://dc.lft.to/lastmile_qr_scan", "android": "https://dc.lft.to/lastmile_qr_scan"}, "is_reserved": 0, "fusion_lon": 0.0, "fusion_lat": 0.0, "lon": -77.11864633333333, "name": "177fdc35fe8eaee07daff7aa4387e1aa"}, {"bike_id": "f888eacff2e53e3114bb302ad7f49242", "type": "electric_bike", "is_disabled": 0, "lat": 38.870871666666666, "rental_uris": {"ios": "https://dc.lft.to/lastmile_qr_scan", "android": "https://dc.lft.to/lastmile_qr_scan"}, "is_reserved": 0, "fusion_lon": 0.0, "fusion_lat": 0.0, "lon": -77.012035, "name": "f888eacff2e53e3114bb302ad7f49242"}, {"bike_id": "5748095e1199b10545fe43033066252e", "type": "electric_scooter", "is_disabled": 0, "lat": 38.906032, "rental_uris": {"ios": "https://dc.lft.to/lastmile_qr_scan", "android": "https://dc.lft.to/lastmile_qr_scan"}, "is_reserved": 0, "fusion_lon": 0.0, "fusion_lat": 0.0, "lon": -76.992705, "name": "5748095e1199b10545fe43033066252e"}, {"bike_id": "e5ef56fc07f61176fdf69cadde997ae6", "type": "electric_scooter", "is_disabled": 0, "lat": 38.89966016666666, "rental_uris": {"ios": "https://dc.lft.to/lastmile_qr_scan", "android": "https://dc.lft.to/lastmile_qr_scan"}, "is_reserved": 0, "fusion_lon": 0.0, "fusion_lat": 0.0, "lon": -76.98296, "name": "e5ef56fc07f61176fdf69cadde997ae6"}, {"bike_id": "59379d1d6adb60a7c5b061791ef3644a", "type": "electric_scooter", "is_disabled": 0, "lat": 38.90316716666667, "rental_uris": {"ios": "https://dc.lft.to/lastmile_qr_scan", "android": "https://dc.lft.to/lastmile_qr_scan"}, "is_reserved": 0, "fusion_lon": 0.0, "fusion_lat": 0.0, "lon": -76.97802233333333, "name": "59379d1d6adb60a7c5b061791ef3644a"}, {"bike_id": "18f59cf9351407a10ce6c8c314e2bafd", "type": "electric_scooter", "is_disabled": 0, "lat": 38.914645666666665, "rental_uris": {"ios": "https://dc.lft.to/lastmile_qr_scan", "android": "https://dc.lft.to/lastmile_qr_scan"}, "is_reserved": 0, "fusion_lon": 0.0, "fusion_lat": 0.0, "lon": -77.00211566666667, "name": "18f59cf9351407a10ce6c8c314e2bafd"}, {"bike_id": "df2056463b39d0a1b58c50f8d327fffa", "type": "electric_scooter", "is_disabled": 0, "lat": 38.92335816666667, "rental_uris": {"ios": "https://dc.lft.to/lastmile_qr_scan", "android": "https://dc.lft.to/lastmile_qr_scan"}, "is_reserved": 0, "fusion_lon": 0.0, "fusion_lat": 0.0, "lon": -77.05373516666667, "name": "df2056463b39d0a1b58c50f8d327fffa"}, {"bike_id": "8b5fe8d285f8a5652e37834f8dc3b2d2", "type": "electric_scooter", "is_disabled": 0, "lat": 38.90852916666667, "rental_uris": {"ios": "https://dc.lft.to/lastmile_qr_scan", "android": "https://dc.lft.to/lastmile_qr_scan"}, "is_reserved": 0, "fusion_lon": 0.0, "fusion_lat": 0.0, "lon": -77.04762466666666, "name": "8b5fe8d285f8a5652e37834f8dc3b2d2"}, {"bike_id": "b1eb7bfb8210eedd7f6f883edc00c2cf", "type": "electric_scooter", "is_disabled": 0, "lat": 38.945109333333335, "rental_uris": {"ios": "https://dc.lft.to/lastmile_qr_scan", "android": "https://dc.lft.to/lastmile_qr_scan"}, "is_reserved": 0, "fusion_lon": 0.0, "fusion_lat": 0.0, "lon": -77.03368683333333, "name": "b1eb7bfb8210eedd7f6f883edc00c2cf"}, {"bike_id": "20e27fbd2609ef3eff695647924f67db", "type": "electric_scooter", "is_disabled": 0, "lat": 38.94561066666667, "rental_uris": {"ios": "https://dc.lft.to/lastmile_qr_scan", "android": "https://dc.lft.to/lastmile_qr_scan"}, "is_reserved": 0, "fusion_lon": 0.0, "fusion_lat": 0.0, "lon": -77.071234, "name": "20e27fbd2609ef3eff695647924f67db"}, {"bike_id": "67bfbfeb0c36518e04f672b605a5f2bf", "type": "electric_scooter", "is_disabled": 0, "lat": 38.88451933333333, "rental_uris": {"ios": "https://dc.lft.to/lastmile_qr_scan", "android": "https://dc.lft.to/lastmile_qr_scan"}, "is_reserved": 0, "fusion_lon": 0.0, "fusion_lat": 0.0, "lon": -76.9509715, "name": "67bfbfeb0c36518e04f672b605a5f2bf"}, {"bike_id": "907237c4f0f44a6065eb863ef1ef5611", "type": "electric_scooter", "is_disabled": 0, "lat": 38.910627, "rental_uris": {"ios": "https://dc.lft.to/lastmile_qr_scan", "android": "https://dc.lft.to/lastmile_qr_scan"}, "is_reserved": 0, "fusion_lon": 0.0, "fusion_lat": 0.0, "lon": -77.03084783333334, "name": "907237c4f0f44a6065eb863ef1ef5611"}, {"bike_id": "ee7a54dbd9c8f95521bf3dedbcfd52cf", "type": "electric_scooter", "is_disabled": 0, "lat": 38.9038845, "rental_uris": {"ios": "https://dc.lft.to/lastmile_qr_scan", "android": "https://dc.lft.to/lastmile_qr_scan"}, "is_reserved": 0, "fusion_lon": 0.0, "fusion_lat": 0.0, "lon": -77.0387755, "name": "ee7a54dbd9c8f95521bf3dedbcfd52cf"}, {"bike_id": "0e8145fc8df40ad049d15c59bd96e9ad", "type": "electric_scooter", "is_disabled": 0, "lat": 38.92957216666667, "rental_uris": {"ios": "https://dc.lft.to/lastmile_qr_scan", "android": "https://dc.lft.to/lastmile_qr_scan"}, "is_reserved": 0, "fusion_lon": 0.0, "fusion_lat": 0.0, "lon": -77.03779866666666, "name": "0e8145fc8df40ad049d15c59bd96e9ad"}, {"bike_id": "6875afb4681af9fd3c49a759699dc876", "type": "electric_bike", "is_disabled": 0, "lat": 38.99535783333333, "rental_uris": {"ios": "https://dc.lft.to/lastmile_qr_scan", "android": "https://dc.lft.to/lastmile_qr_scan"}, "is_reserved": 0, "fusion_lon": 0.0, "fusion_lat": 0.0, "lon": -77.06945733333333, "name": "6875afb4681af9fd3c49a759699dc876"}, {"bike_id": "1994d3b3d3539bfd134818deca7adddc", "type": "electric_scooter", "is_disabled": 0, "lat": 38.91197783333333, "rental_uris": {"ios": "https://dc.lft.to/lastmile_qr_scan", "android": "https://dc.lft.to/lastmile_qr_scan"}, "is_reserved": 0, "fusion_lon": 0.0, "fusion_lat": 0.0, "lon": -77.01900583333334, "name": "1994d3b3d3539bfd134818deca7adddc"}, {"bike_id": "83193def85f8659a27a2378a4d1b70bb", "type": "electric_bike", "is_disabled": 0, "lat": 38.892057333333334, "rental_uris": {"ios": "https://dc.lft.to/lastmile_qr_scan", "android": "https://dc.lft.to/lastmile_qr_scan"}, "is_reserved": 0, "fusion_lon": 0.0, "fusion_lat": 0.0, "lon": -76.97680583333333, "name": "83193def85f8659a27a2378a4d1b70bb"}, {"bike_id": "1e5025230389d36467227b6774ca58a0", "type": "electric_scooter", "is_disabled": 0, "lat": 38.935317166666664, "rental_uris": {"ios": "https://dc.lft.to/lastmile_qr_scan", "android": "https://dc.lft.to/lastmile_qr_scan"}, "is_reserved": 0, "fusion_lon": 0.0, "fusion_lat": 0.0, "lon": -77.05437383333333, "name": "1e5025230389d36467227b6774ca58a0"}, {"bike_id": "dfa0ff14ae671b07eddb77fa18cd1655", "type": "electric_scooter", "is_disabled": 0, "lat": 38.95118083333333, "rental_uris": {"ios": "https://dc.lft.to/lastmile_qr_scan", "android": "https://dc.lft.to/lastmile_qr_scan"}, "is_reserved": 0, "fusion_lon": 0.0, "fusion_lat": 0.0, "lon": -77.014308, "name": "dfa0ff14ae671b07eddb77fa18cd1655"}, {"bike_id": "0e8fd685cc23f0bde3deb8ec809ad570", "type": "electric_scooter", "is_disabled": 0, "lat": 38.866904166666664, "rental_uris": {"ios": "https://dc.lft.to/lastmile_qr_scan", "android": "https://dc.lft.to/lastmile_qr_scan"}, "is_reserved": 0, "fusion_lon": 0.0, "fusion_lat": 0.0, "lon": -76.98573116666667, "name": "0e8fd685cc23f0bde3deb8ec809ad570"}, {"bike_id": "752f26e8313aa4c64d3fec6f79ce1089", "type": "electric_scooter", "is_disabled": 0, "lat": 38.92618916666667, "rental_uris": {"ios": "https://dc.lft.to/lastmile_qr_scan", "android": "https://dc.lft.to/lastmile_qr_scan"}, "is_reserved": 0, "fusion_lon": 0.0, "fusion_lat": 0.0, "lon": -77.04330433333334, "name": "752f26e8313aa4c64d3fec6f79ce1089"}, {"bike_id": "87310607d829301556c0617b84f16bf6", "type": "electric_bike", "is_disabled": 0, "lat": 38.942637833333336, "rental_uris": {"ios": "https://dc.lft.to/lastmile_qr_scan", "android": "https://dc.lft.to/lastmile_qr_scan"}, "is_reserved": 0, "fusion_lon": 0.0, "fusion_lat": 0.0, "lon": -76.99066483333333, "name": "87310607d829301556c0617b84f16bf6"}, {"bike_id": "fa6e50009c1cc9891eec03d5ae2ea6ae", "type": "electric_scooter", "is_disabled": 0, "lat": 38.9125175, "rental_uris": {"ios": "https://dc.lft.to/lastmile_qr_scan", "android": "https://dc.lft.to/lastmile_qr_scan"}, "is_reserved": 0, "fusion_lon": 0.0, "fusion_lat": 0.0, "lon": -77.03863016666666, "name": "fa6e50009c1cc9891eec03d5ae2ea6ae"}, {"bike_id": "d79cc5075760e00c940c3066f703ed06", "type": "electric_scooter", "is_disabled": 0, "lat": 38.92544766666666, "rental_uris": {"ios": "https://dc.lft.to/lastmile_qr_scan", "android": "https://dc.lft.to/lastmile_qr_scan"}, "is_reserved": 0, "fusion_lon": 0.0, "fusion_lat": 0.0, "lon": -77.03353733333333, "name": "d79cc5075760e00c940c3066f703ed06"}, {"bike_id": "ad2a3356e444ba515d346971ca9e6051", "type": "electric_scooter", "is_disabled": 0, "lat": 38.895029, "rental_uris": {"ios": "https://dc.lft.to/lastmile_qr_scan", "android": "https://dc.lft.to/lastmile_qr_scan"}, "is_reserved": 0, "fusion_lon": 0.0, "fusion_lat": 0.0, "lon": -76.93477933333334, "name": "ad2a3356e444ba515d346971ca9e6051"}, {"bike_id": "ca7f906e7d0e1d033106229538853672", "type": "electric_scooter", "is_disabled": 0, "lat": 38.91497966666667, "rental_uris": {"ios": "https://dc.lft.to/lastmile_qr_scan", "android": "https://dc.lft.to/lastmile_qr_scan"}, "is_reserved": 0, "fusion_lon": 0.0, "fusion_lat": 0.0, "lon": -76.983731, "name": "ca7f906e7d0e1d033106229538853672"}, {"bike_id": "c2a35b8b5906abc1b3a3008c25ca2348", "type": "electric_bike", "is_disabled": 0, "lat": 38.8588315, "rental_uris": {"ios": "https://dc.lft.to/lastmile_qr_scan", "android": "https://dc.lft.to/lastmile_qr_scan"}, "is_reserved": 0, "fusion_lon": 0.0, "fusion_lat": 0.0, "lon": -77.09562216666667, "name": "c2a35b8b5906abc1b3a3008c25ca2348"}, {"bike_id": "1f0988bf80cac90d77d770a309ffe662", "type": "electric_scooter", "is_disabled": 0, "lat": 38.9006135, "rental_uris": {"ios": "https://dc.lft.to/lastmile_qr_scan", "android": "https://dc.lft.to/lastmile_qr_scan"}, "is_reserved": 0, "fusion_lon": 0.0, "fusion_lat": 0.0, "lon": -77.0556085, "name": "1f0988bf80cac90d77d770a309ffe662"}, {"bike_id": "f569ae1812980ec2c9ac8bd639afdd15", "type": "electric_scooter", "is_disabled": 0, "lat": 38.9151465, "rental_uris": {"ios": "https://dc.lft.to/lastmile_qr_scan", "android": "https://dc.lft.to/lastmile_qr_scan"}, "is_reserved": 0, "fusion_lon": 0.0, "fusion_lat": 0.0, "lon": -77.02279016666667, "name": "f569ae1812980ec2c9ac8bd639afdd15"}, {"bike_id": "a8e8248cc4b2745904a436fd8e0c32a1", "type": "electric_scooter", "is_disabled": 0, "lat": 38.92547883333334, "rental_uris": {"ios": "https://dc.lft.to/lastmile_qr_scan", "android": "https://dc.lft.to/lastmile_qr_scan"}, "is_reserved": 0, "fusion_lon": 0.0, "fusion_lat": 0.0, "lon": -77.02282216666667, "name": "a8e8248cc4b2745904a436fd8e0c32a1"}, {"bike_id": "c226c5dd3ce57e791c41e1e648c4b587", "type": "electric_scooter", "is_disabled": 0, "lat": 38.9161635, "rental_uris": {"ios": "https://dc.lft.to/lastmile_qr_scan", "android": "https://dc.lft.to/lastmile_qr_scan"}, "is_reserved": 0, "fusion_lon": 0.0, "fusion_lat": 0.0, "lon": -77.03637366666666, "name": "c226c5dd3ce57e791c41e1e648c4b587"}, {"bike_id": "0f69c268fc0dc0e0b5eaa70eb5ba2cc3", "type": "electric_scooter", "is_disabled": 0, "lat": 38.93957566666667, "rental_uris": {"ios": "https://dc.lft.to/lastmile_qr_scan", "android": "https://dc.lft.to/lastmile_qr_scan"}, "is_reserved": 0, "fusion_lon": 0.0, "fusion_lat": 0.0, "lon": -77.025124, "name": "0f69c268fc0dc0e0b5eaa70eb5ba2cc3"}, {"bike_id": "b5729a81ea07462b3dfa4ff5cef7a1c4", "type": "electric_scooter", "is_disabled": 0, "lat": 38.909033, "rental_uris": {"ios": "https://dc.lft.to/lastmile_qr_scan", "android": "https://dc.lft.to/lastmile_qr_scan"}, "is_reserved": 0, "fusion_lon": 0.0, "fusion_lat": 0.0, "lon": -77.08622333333334, "name": "b5729a81ea07462b3dfa4ff5cef7a1c4"}, {"bike_id": "95a316665ce0f63358755619013861ad", "type": "electric_scooter", "is_disabled": 0, "lat": 38.870844, "rental_uris": {"ios": "https://dc.lft.to/lastmile_qr_scan", "android": "https://dc.lft.to/lastmile_qr_scan"}, "is_reserved": 0, "fusion_lon": 0.0, "fusion_lat": 0.0, "lon": -77.01190783333334, "name": "95a316665ce0f63358755619013861ad"}, {"bike_id": "675c7462ef9bd9f3f00c469c762720b6", "type": "electric_scooter", "is_disabled": 0, "lat": 38.95896116666667, "rental_uris": {"ios": "https://dc.lft.to/lastmile_qr_scan", "android": "https://dc.lft.to/lastmile_qr_scan"}, "is_reserved": 0, "fusion_lon": 0.0, "fusion_lat": 0.0, "lon": -77.08595783333334, "name": "675c7462ef9bd9f3f00c469c762720b6"}, {"bike_id": "5daa5ce773fd4762211dbbe9c38d6f2c", "type": "electric_scooter", "is_disabled": 0, "lat": 38.931967, "rental_uris": {"ios": "https://dc.lft.to/lastmile_qr_scan", "android": "https://dc.lft.to/lastmile_qr_scan"}, "is_reserved": 0, "fusion_lon": 0.0, "fusion_lat": 0.0, "lon": -77.01958283333333, "name": "5daa5ce773fd4762211dbbe9c38d6f2c"}, {"bike_id": "282a311b323acd8034adecaf7cfd8e09", "type": "electric_scooter", "is_disabled": 0, "lat": 38.87113133333333, "rental_uris": {"ios": "https://dc.lft.to/lastmile_qr_scan", "android": "https://dc.lft.to/lastmile_qr_scan"}, "is_reserved": 0, "fusion_lon": 0.0, "fusion_lat": 0.0, "lon": -77.007508, "name": "282a311b323acd8034adecaf7cfd8e09"}, {"bike_id": "9fd41cb9ba9e93eb7670af67445afdcc", "type": "electric_scooter", "is_disabled": 0, "lat": 38.9163715, "rental_uris": {"ios": "https://dc.lft.to/lastmile_qr_scan", "android": "https://dc.lft.to/lastmile_qr_scan"}, "is_reserved": 0, "fusion_lon": 0.0, "fusion_lat": 0.0, "lon": -77.00051083333334, "name": "9fd41cb9ba9e93eb7670af67445afdcc"}, {"bike_id": "96f6376d7dbfd672a7ff70debe0a7967", "type": "electric_scooter", "is_disabled": 0, "lat": 38.914885, "rental_uris": {"ios": "https://dc.lft.to/lastmile_qr_scan", "android": "https://dc.lft.to/lastmile_qr_scan"}, "is_reserved": 0, "fusion_lon": 0.0, "fusion_lat": 0.0, "lon": -77.021841, "name": "96f6376d7dbfd672a7ff70debe0a7967"}, {"bike_id": "8f6cb13a3ebd86af14d227f8b3180606", "type": "electric_scooter", "is_disabled": 0, "lat": 38.923426666666664, "rental_uris": {"ios": "https://dc.lft.to/lastmile_qr_scan", "android": "https://dc.lft.to/lastmile_qr_scan"}, "is_reserved": 0, "fusion_lon": 0.0, "fusion_lat": 0.0, "lon": -77.05046566666667, "name": "8f6cb13a3ebd86af14d227f8b3180606"}, {"bike_id": "cf0949e48508db27694ca78530a79bb9", "type": "electric_scooter", "is_disabled": 0, "lat": 38.909506, "rental_uris": {"ios": "https://dc.lft.to/lastmile_qr_scan", "android": "https://dc.lft.to/lastmile_qr_scan"}, "is_reserved": 0, "fusion_lon": 0.0, "fusion_lat": 0.0, "lon": -77.0268415, "name": "cf0949e48508db27694ca78530a79bb9"},