{"data": {"bikes": [{"bike_id": "0440ff0b6da63241dfd57ee53bf22c52", "is_reserved": 0, "fusion_lon": 0.0, "lat": 38.9052825, "is_disabled": 0, "name": "0440ff0b6da63241dfd57ee53bf22c52", "fusion_lat": 0.0, "rental_uris": {"ios": "https://dc.lft.to/lastmile_qr_scan", "android": "https://dc.lft.to/lastmile_qr_scan"}, "lon": -77.050479, "type": "electric_scooter"}, {"bike_id": "8afbcef7ba283e90acb0183cf32aebc4", "is_reserved": 0, "fusion_lon": 0.0, "lat": 38.93101466666667, "is_disabled": 0, "name": "8afbcef7ba283e90acb0183cf32aebc4", "fusion_lat": 0.0, "rental_uris": {"ios": "https://dc.lft.to/lastmile_qr_scan", "android": "https://dc.lft.to/lastmile_qr_scan"}, "lon": -77.02507216666666, "type": "electric_scooter"}, {"bike_id": "3441efd779dd7a398c67de41fd4e9475", "is_reserved": 0, "fusion_lon": 0.0, "lat": 38.89817816666667, "is_disabled": 0, "name": "3441efd779dd7a398c67de41fd4e9475", "fusion_lat": 0.0, "rental_uris": {"ios": "https://dc.lft.to/lastmile_qr_scan", "android": "https://dc.lft.to/lastmile_qr_scan"}, "lon": -77.00604533333333, "type": "electric_bike"}, {"bike_id": "f74d235a24f400c9f127aa35530b5e9a", "is_reserved": 0, "fusion_lon": 0.0, "lat": 38.90370933333333, "is_disabled": 0, "name": "f74d235a24f400c9f127aa35530b5e9a", "fusion_lat": 0.0, "rental_uris": {"ios": "https://dc.lft.to/lastmile_qr_scan", "android": "https://dc.lft.to/lastmile_qr_scan"}, "lon": -77.040082, "type": "electric_scooter"}, {"bike_id": "5bd9913d245f6b05f8491639285f0b7e", "is_reserved": 0, "fusion_lon": 0.0, "lat": 38.9073115, "is_disabled": 0, "name": "5bd9913d245f6b05f8491639285f0b7e", "fusion_lat": 0.0, "rental_uris": {"ios": "https://dc.lft.to/lastmile_qr_scan", "android": "https://dc.lft.to/lastmile_qr_scan"}, "lon": -77.04240516666667, "type": "electric_scooter"}, {"bike_id": "6b797fbc9dc642b4a8d2991a1e1a13c8", "is_reserved": 0, "fusion_lon": 0.0, "lat": 38.850636333333334, "is_disabled": 0, "name": "6b797fbc9dc642b4a8d2991a1e1a13c8", "fusion_lat": 0.0, "rental_uris": {"ios": "https://dc.lft.to/lastmile_qr_scan", "android": "https://dc.lft.to/lastmile_qr_scan"}, "lon": -76.9732965, "type": "electric_bike"}, {"bike_id": "83c5034ab6ad443788f35954038c8b6a", "is_reserved": 0, "fusion_lon": 0.0, "lat": 38.903643, "is_disabled": 0, "name": "83c5034ab6ad443788f35954038c8b6a", "fusion_lat": 0.0, "rental_uris": {"ios": "https://dc.lft.to/lastmile_qr_scan", "android": "https://dc.lft.to/lastmile_qr_scan"}, "lon": -77.04531866666666, "type": "electric_scooter"}, {"bike_id": "f44a5ca748343bde46d1b679b82e1022", "is_reserved": 0, "fusion_lon": 0.0, "lat": 38.9060605, "is_disabled": 0, "name": "f44a5ca748343bde46d1b679b82e1022", "fusion_lat": 0.0, "rental_uris": {"ios": "https://dc.lft.to/lastmile_qr_scan", "android": "https://dc.lft.to/lastmile_qr_scan"}, "lon": -77.04142266666666, "type": "electric_scooter"}, {"bike_id": "2714ac5e61598a0b16037fd7303145c9", "is_reserved": 0, "fusion_lon": 0.0, "lat": 38.94012933333333, "is_disabled": 0, "name": "2714ac5e61598a0b16037fd7303145c9", "fusion_lat": 0.0, "rental_uris": {"ios": "https://dc.lft.to/lastmile_qr_scan", "android": "https://dc.lft.to/lastmile_qr_scan"}, "lon": -77.071683, "type": "electric_scooter"}, {"bike_id": "0055584ef34cc27bdd928d70aebac272", "is_reserved": 0, "fusion_lon": 0.0, "lat": 38.915569, "is_disabled": 0, "name": "0055584ef34cc27bdd928d70aebac272", "fusion_lat": 0.0, "rental_uris": {"ios": "https://dc.lft.to/lastmile_qr_scan", "android": "https://dc.lft.to/lastmile_qr_scan"}, "lon": -77.0376105, "type": "electric_scooter"}, {"bike_id": "254853691f12303b2584db39e95bf890", "is_reserved": 0, "fusion_lon": 0.0, "lat": 38.9077715, "is_disabled": 0, "name": "254853691f12303b2584db39e95bf890", "fusion_lat": 0.0, "rental_uris": {"ios": "https://dc.lft.to/lastmile_qr_scan", "android": "https://dc.lft.to/lastmile_qr_scan"}, "lon": -77.03859616666666, "type": "electric_scooter"}, {"bike_id": "27221b0a7a923378b0bd8eae92f7ad62", "is_reserved": 0, "fusion_lon": 0.0, "lat": 38.92487, "is_disabled": 0, "name": "27221b0a7a923378b0bd8eae92f7ad62", "fusion_lat": 0.0, "rental_uris": {"ios": "https://dc.lft.to/lastmile_qr_scan", "android": "https://dc.lft.to/lastmile_qr_scan"}, "lon": -77.0377315, "type": "electric_scooter"}, {"bike_id": "02933b9a0bdfb14787782a53159ce162", "is_reserved": 0, "fusion_lon": 0.0, "lat": 38.917135333333334, "is_disabled": 0, "name": "02933b9a0bdfb14787782a53159ce162", "fusion_lat": 0.0, "rental_uris": {"ios": "https://dc.lft.to/lastmile_qr_scan", "android": "https://dc.lft.to/lastmile_qr_scan"}, "lon": -77.01218316666667, "type": "electric_scooter"}, {"bike_id": "7599e4b204745ada294b58da5938d110", "is_reserved": 0, "fusion_lon": 0.0, "lat": 38.885012, "is_disabled": 0, "name": "7599e4b204745ada294b58da5938d110", "fusion_lat": 0.0, "rental_uris": {"ios": "https://dc.lft.to/lastmile_qr_scan", "android": "https://dc.lft.to/lastmile_qr_scan"}, "lon": -77.005668, "type": "electric_scooter"}, {"bike_id": "4a2c9d9fe218491b1df7d2041fa32fac", "is_reserved": 0, "fusion_lon": 0.0, "lat": 38.904732, "is_disabled": 0, "name": "4a2c9d9fe218491b1df7d2041fa32fac", "fusion_lat": 0.0, "rental_uris": {"ios": "https://dc.lft.to/lastmile_qr_scan", "android": "https://dc.lft.to/lastmile_qr_scan"}, "lon": -77.04650116666667, "type": "electric_scooter"}, {"bike_id": "aaa04febbb75494c683169ab3c04d251", "is_reserved": 0, "fusion_lon": 0.0, "lat": 38.905001166666665, "is_disabled": 0, "name": "aaa04febbb75494c683169ab3c04d251", "fusion_lat": 0.0, "rental_uris": {"ios": "https://dc.lft.to/lastmile_qr_scan", "android": "https://dc.lft.to/lastmile_qr_scan"}, "lon": -76.99013083333334, "type": "electric_scooter"}, {"bike_id": "0922741e9912e2ef9e11c2413fb1a10f", "is_reserved": 0, "fusion_lon": 0.0, "lat": 38.9135535, "is_disabled": 0, "name": "0922741e9912e2ef9e11c2413fb1a10f", "fusion_lat": 0.0, "rental_uris": {"ios": "https://dc.lft.to/lastmile_qr_scan", "android": "https://dc.lft.to/lastmile_qr_scan"}, "lon": -77.0175505, "type": "electric_scooter"}, {"bike_id": "21e97e8f46ed7000e0fcaea45c3c87e2", "is_reserved": 0, "fusion_lon": 0.0, "lat": 38.90424816666667, "is_disabled": 0, "name": "21e97e8f46ed7000e0fcaea45c3c87e2", "fusion_lat": 0.0, "rental_uris": {"ios": "https://dc.lft.to/lastmile_qr_scan", "android": "https://dc.lft.to/lastmile_qr_scan"}, "lon": -77.03254933333334, "type": "electric_scooter"}, {"bike_id": "b6dc001841cea364360b803ebbe956a9", "is_reserved": 0, "fusion_lon": 0.0, "lat": 38.91109466666666, "is_disabled": 0, "name": "b6dc001841cea364360b803ebbe956a9", "fusion_lat": 0.0, "rental_uris": {"ios": "https://dc.lft.to/lastmile_qr_scan", "android": "https://dc.lft.to/lastmile_qr_scan"}, "lon": -77.032938, "type": "electric_scooter"}, {"bike_id": "d22f742ef291fe76db95aa1b620d5349", "is_reserved": 0, "fusion_lon": 0.0, "lat": 38.89217716666667, "is_disabled": 0, "name": "d22f742ef291fe76db95aa1b620d5349", "fusion_lat": 0.0, "rental_uris": {"ios": "https://dc.lft.to/lastmile_qr_scan", "android": "https://dc.lft.to/lastmile_qr_scan"}, "lon": -77.02624783333333, "type": "electric_scooter"}, {"bike_id": "e8e69492d6701352fa48a5927d85d6b0", "is_reserved": 0, "fusion_lon": 0.0, "lat": 38.91689316666667, "is_disabled": 0, "name": "e8e69492d6701352fa48a5927d85d6b0", "fusion_lat": 0.0, "rental_uris": {"ios": "https://dc.lft.to/lastmile_qr_scan", "android": "https://dc.lft.to/lastmile_qr_scan"}, "lon": -77.02627, "type": "electric_scooter"}, {"bike_id": "54bce97d57365bf6f9a8ecc9fff262cb", "is_reserved": 0, "fusion_lon": 0.0, "lat": 38.91842533333333, "is_disabled": 0, "name": "54bce97d57365bf6f9a8ecc9fff262cb", "fusion_lat": 0.0, "rental_uris": {"ios": "https://dc.lft.to/lastmile_qr_scan", "android": "https://dc.lft.to/lastmile_qr_scan"}, "lon": -77.03901883333333, "type": "electric_scooter"}, {"bike_id": "d8225a38c9bc414769ec824a43e58405", "is_reserved": 0, "fusion_lon": 0.0, "lat": 38.970563166666665, "is_disabled": 0, "name": "d8225a38c9bc414769ec824a43e58405", "fusion_lat": 0.0, "rental_uris": {"ios": "https://dc.lft.to/lastmile_qr_scan", "android": "https://dc.lft.to/lastmile_qr_scan"}, "lon": -76.93619033333333, "type": "electric_bike"}, {"bike_id": "578126913cbb80594fa5044c2abf243b", "is_reserved": 0, "fusion_lon": 0.0, "lat": 38.9344445, "is_disabled": 0, "name": "578126913cbb80594fa5044c2abf243b", "fusion_lat": 0.0, "rental_uris": {"ios": "https://dc.lft.to/lastmile_qr_scan", "android": "https://dc.lft.to/lastmile_qr_scan"}, "lon": -77.02843283333333, "type": "electric_scooter"}, {"bike_id": "07843ef7ef8cb30c31ba4de6f7b1d66a", "is_reserved": 0, "fusion_lon": 0.0, "lat": 38.897565666666665, "is_disabled": 0, "name": "07843ef7ef8cb30c31ba4de6f7b1d66a", "fusion_lat": 0.0, "rental_uris": {"ios": "https://dc.lft.to/lastmile_qr_scan", "android": "https://dc.lft.to/lastmile_qr_scan"}, "lon": -77.02671683333334, "type": "electric_scooter"}, {"bike_id": "f2ee7e0502e68f354ab36e291965ee6d", "is_reserved": 0, "fusion_lon": 0.0, "lat": 38.87174783333333, "is_disabled": 0, "name": "f2ee7e0502e68f354ab36e291965ee6d", "fusion_lat": 0.0, "rental_uris": {"ios": "https://dc.lft.to/lastmile_qr_scan", "android": "https://dc.lft.to/lastmile_qr_scan"}, "lon": -77.00626133333333, "type": "electric_scooter"}, {"bike_id": "e2c2c805d6321667b9e890134d37e048", "is_reserved": 0, "fusion_lon": 0.0, "lat": 38.92833616666667, "is_disabled": 0, "name": "e2c2c805d6321667b9e890134d37e048", "fusion_lat": 0.0, "rental_uris": {"ios": "https://dc.lft.to/lastmile_qr_scan", "android": "https://dc.lft.to/lastmile_qr_scan"}, "lon": -77.05515816666667, "type": "electric_scooter"}, {"bike_id": "2371fc6d026752f8a39312a1bbbc5416", "is_reserved": 0, "fusion_lon": 0.0, "lat": 38.9168745, "is_disabled": 0, "name": "2371fc6d026752f8a39312a1bbbc5416", "fusion_lat": 0.0, "rental_uris": {"ios": "https://dc.lft.to/lastmile_qr_scan", "android": "https://dc.lft.to/lastmile_qr_scan"}, "lon": -77.02295666666667, "type": "electric_scooter"}, {"bike_id": "4903931f082046d64cb0e275ffa4ff50", "is_reserved": 0, "fusion_lon": 0.0, "lat": 38.897715166666664, "is_disabled": 0, "name": "4903931f082046d64cb0e275ffa4ff50", "fusion_lat": 0.0, "rental_uris": {"ios": "https://dc.lft.to/lastmile_qr_scan", "android": "https://dc.lft.to/lastmile_qr_scan"}, "lon": -76.904371, "type": "electric_bike"}, {"bike_id": "689b594535fdbcef667768089f4471a7", "is_reserved": 0, "fusion_lon": 0.0, "lat": 38.866271, "is_disabled": 0, "name": "689b594535fdbcef667768089f4471a7", "fusion_lat": 0.0, "rental_uris": {"ios": "https://dc.lft.to/lastmile_qr_scan", "android": "https://dc.lft.to/lastmile_qr_scan"}, "lon": -76.9871505, "type": "electric_scooter"}, {"bike_id": "61a80667ad6bd8b1c595ca0f56f65631", "is_reserved": 0, "fusion_lon": 0.0, "lat": 38.884995, "is_disabled": 0, "name": "61a80667ad6bd8b1c595ca0f56f65631", "fusion_lat": 0.0, "rental_uris": {"ios": "https://dc.lft.to/lastmile_qr_scan", "android": "https://dc.lft.to/lastmile_qr_scan"}, "lon": -77.0057145, "type": "electric_scooter"}, {"bike_id": "5a010696215e711cf314aaf6da059ea8", "is_reserved": 0, "fusion_lon": 0.0, "lat": 38.9066495, "is_disabled": 0, "name": "5a010696215e711cf314aaf6da059ea8", "fusion_lat": 0.0, "rental_uris": {"ios": "https://dc.lft.to/lastmile_qr_scan", "android": "https://dc.lft.to/lastmile_qr_scan"}, "lon": -77.02705633333333, "type": "electric_scooter"}, {"bike_id": "b635b8894cc62888e68c93abf5e0dcdc", "is_reserved": 0, "fusion_lon": 0.0, "lat": 38.8803295, "is_disabled": 0, "name": "b635b8894cc62888e68c93abf5e0dcdc", "fusion_lat": 0.0, "rental_uris": {"ios": "https://dc.lft.to/lastmile_qr_scan", "android": "https://dc.lft.to/lastmile_qr_scan"}, "lon": -77.02509633333334, "type": "electric_scooter"}, {"bike_id": "18dbd16083b8091dbd2d5ccda7c426a3", "is_reserved": 0, "fusion_lon": 0.0, "lat": 38.867299, "is_disabled": 0, "name": "18dbd16083b8091dbd2d5ccda7c426a3", "fusion_lat": 0.0, "rental_uris": {"ios": "https://dc.lft.to/lastmile_qr_scan", "android": "https://dc.lft.to/lastmile_qr_scan"}, "lon": -76.98791666666666, "type": "electric_scooter"}, {"bike_id": "49b9401db3d6fe09f572345e66fc2f85", "is_reserved": 0, "fusion_lon": 0.0, "lat": 38.890084333333334, "is_disabled": 0, "name": "49b9401db3d6fe09f572345e66fc2f85", "fusion_lat": 0.0, "rental_uris": {"ios": "https://dc.lft.to/lastmile_qr_scan", "android": "https://dc.lft.to/lastmile_qr_scan"}, "lon": -76.93743866666667, "type": "electric_scooter"}, {"bike_id": "f1d52bb7396584fd0f2b3d0c495ab928", "is_reserved": 0, "fusion_lon": 0.0, "lat": 38.9159835, "is_disabled": 0, "name": "f1d52bb7396584fd0f2b3d0c495ab928", "fusion_lat": 0.0, "rental_uris": {"ios": "https://dc.lft.to/lastmile_qr_scan", "android": "https://dc.lft.to/lastmile_qr_scan"}, "lon": -77.043442, "type": "electric_scooter"}, {"bike_id": "d189a5b80828ed6033b95f568f465eed", "is_reserved": 0, "fusion_lon": 0.0, "lat": 38.92850966666666, "is_disabled": 0, "name": "d189a5b80828ed6033b95f568f465eed", "fusion_lat": 0.0, "rental_uris": {"ios": "https://dc.lft.to/lastmile_qr_scan", "android": "https://dc.lft.to/lastmile_qr_scan"}, "lon": -77.03611516666666, "type": "electric_scooter"}, {"bike_id": "62cf1fc07781c7c74cebb4c079bfd936", "is_reserved": 0, "fusion_lon": 0.0, "lat": 38.883422833333334, "is_disabled": 0, "name": "62cf1fc07781c7c74cebb4c079bfd936", "fusion_lat": 0.0, "rental_uris": {"ios": "https://dc.lft.to/lastmile_qr_scan", "android": "https://dc.lft.to/lastmile_qr_scan"}, "lon": -77.01767783333334, "type": "electric_scooter"}, {"bike_id": "52504620cbc91e71db1d908ce9b5105b", "is_reserved": 0, "fusion_lon": 0.0, "lat": 38.905601833333336, "is_disabled": 0, "name": "52504620cbc91e71db1d908ce9b5105b", "fusion_lat": 0.0, "rental_uris": {"ios": "https://dc.lft.to/lastmile_qr_scan", "android": "https://dc.lft.to/lastmile_qr_scan"}, "lon": -77.00565833333333, "type": "electric_scooter"}, {"bike_id": "fa9a91f5260cd1eca46c6cc5c29a57c2", "is_reserved": 0, "fusion_lon": 0.0, "lat": 38.900656833333336, "is_disabled": 0, "name": "fa9a91f5260cd1eca46c6cc5c29a57c2", "fusion_lat": 0.0, "rental_uris": {"ios": "https://dc.lft.to/lastmile_qr_scan", "android": "https://dc.lft.to/lastmile_qr_scan"}, "lon": -76.93387483333333, "type": "electric_scooter"}, {"bike_id": "7e2ff4d6c79869a233935bb825703d1e", "is_reserved": 0, "fusion_lon": 0.0, "lat": 38.91661916666666, "is_disabled": 0, "name": "7e2ff4d6c79869a233935bb825703d1e", "fusion_lat": 0.0, "rental_uris": {"ios": "https://dc.lft.to/lastmile_qr_scan", "android": "https://dc.lft.to/lastmile_qr_scan"}, "lon": -77.027161, "type": "electric_scooter"}, {"bike_id": "25aae93e5389082bf4c6ca4b16b9b322", "is_reserved": 0, "fusion_lon": 0.0, "lat": 38.9228795, "is_disabled": 0, "name": "25aae93e5389082bf4c6ca4b16b9b322", "fusion_lat": 0.0, "rental_uris": {"ios": "https://dc.lft.to/lastmile_qr_scan", "android": "https://dc.lft.to/lastmile_qr_scan"}, "lon": -77.03197516666667, "type": "electric_scooter"}, {"bike_id": "4b3588f21016677a923b377b775cd4b4", "is_reserved": 0, "fusion_lon": 0.0, "lat": 38.90570966666667, "is_disabled": 0, "name": "4b3588f21016677a923b377b775cd4b4", "fusion_lat": 0.0, "rental_uris": {"ios": "https://dc.lft.to/lastmile_qr_scan", "android": "https://dc.lft.to/lastmile_qr_scan"}, "lon": -77.03471033333334, "type": "electric_scooter"}, {"bike_id": "bee54535ba141ad911981a52da6fff5a", "is_reserved": 0, "fusion_lon": 0.0, "lat": 38.86695616666667, "is_disabled": 0, "name": "bee54535ba141ad911981a52da6fff5a", "fusion_lat": 0.0, "rental_uris": {"ios": "https://dc.lft.to/lastmile_qr_scan", "android": "https://dc.lft.to/lastmile_qr_scan"}, "lon": -76.98708316666666, "type": "electric_scooter"}, {"bike_id": "87933020b8e611dc2278535c4edc3cba", "is_reserved": 0, "fusion_lon": 0.0, "lat": 38.9310425, "is_disabled": 0, "name": "87933020b8e611dc2278535c4edc3cba", "fusion_lat": 0.0, "rental_uris": {"ios": "https://dc.lft.to/lastmile_qr_scan", "android": "https://dc.lft.to/lastmile_qr_scan"}, "lon": -77.018435, "type": "electric_scooter"}, {"bike_id": "9121ff6c6cfbd84c90bc94f840fdbf5d", "is_reserved": 0, "fusion_lon": 0.0, "lat": 38.922908, "is_disabled": 0, "name": "9121ff6c6cfbd84c90bc94f840fdbf5d", "fusion_lat": 0.0, "rental_uris": {"ios": "https://dc.lft.to/lastmile_qr_scan", "android": "https://dc.lft.to/lastmile_qr_scan"}, "lon": -77.02070433333333, "type": "electric_scooter"}, {"bike_id": "d73b144ce16ddf17f04280b933a64927", "is_reserved": 0, "fusion_lon": 0.0, "lat": 38.90529433333333, "is_disabled": 0, "name": "d73b144ce16ddf17f04280b933a64927", "fusion_lat": 0.0, "rental_uris": {"ios": "https://dc.lft.to/lastmile_qr_scan", "android": "https://dc.lft.to/lastmile_qr_scan"}, "lon": -76.9981415, "type": "electric_bike"}, {"bike_id": "481658020f1e074babfec99321e26f56", "is_reserved": 0, "fusion_lon": 0.0, "lat": 38.94154533333333, "is_disabled": 0, "name": "481658020f1e074babfec99321e26f56", "fusion_lat": 0.0, "rental_uris": {"ios": "https://dc.lft.to/lastmile_qr_scan", "android": "https://dc.lft.to/lastmile_qr_scan"}, "lon": -77.036536, "type": "electric_scooter"}, {"bike_id": "9dde3379f290855b30cab14bd942de08", "is_reserved": 0, "fusion_lon": 0.0, "lat": 38.91337883333333, "is_disabled": 0, "name": "9dde3379f290855b30cab14bd942de08", "fusion_lat": 0.0, "rental_uris": {"ios": "https://dc.lft.to/lastmile_qr_scan", "android": "https://dc.lft.to/lastmile_qr_scan"}, "lon": -77.03050083333333, "type": "electric_scooter"}, {"bike_id": "2e1568938af5794ecb6aa3f7b116b4f8", "is_reserved": 0, "fusion_lon": 0.0, "lat": 38.99091166666667, "is_disabled": 0, "name": "2e1568938af5794ecb6aa3f7b116b4f8", "fusion_lat": 0.0, "rental_uris": {"ios": "https://dc.lft.to/lastmile_qr_scan", "android": "https://dc.lft.to/lastmile_qr_scan"}, "lon": -76.87497133333333, "type": "electric_bike"}, {"bike_id": "74324b294416a2d0de79555239e745fc", "is_reserved": 0, "fusion_lon": 0.0, "lat": 38.9055875, "is_disabled": 0, "name": "74324b294416a2d0de79555239e745fc", "fusion_lat": 0.0, "rental_uris": {"ios": "https://dc.lft.to/lastmile_qr_scan", "android": "https://dc.lft.to/lastmile_qr_scan"}, "lon": -76.9979445, "type": "electric_bike"}, {"bike_id": "acce60c6dada2723cd0fa88860d02763", "is_reserved": 0, "fusion_lon": 0.0, "lat": 38.907388833333336, "is_disabled": 0, "name": "acce60c6dada2723cd0fa88860d02763", "fusion_lat": 0.0, "rental_uris": {"ios": "https://dc.lft.to/lastmile_qr_scan", "android": "https://dc.lft.to/lastmile_qr_scan"}, "lon": -77.03461533333333, "type": "electric_scooter"}, {"bike_id": "37a461ba6341723a97a83a7b9321e274", "is_reserved": 0, "fusion_lon": 0.0, "lat": 38.9240365, "is_disabled": 0, "name": "37a461ba6341723a97a83a7b9321e274", "fusion_lat": 0.0, "rental_uris": {"ios": "https://dc.lft.to/lastmile_qr_scan", "android": "https://dc.lft.to/lastmile_qr_scan"}, "lon": -77.025451, "type": "electric_scooter"}, {"bike_id": "44a8458537a44a57fec89f1944ec8769", "is_reserved": 0, "fusion_lon": 0.0, "lat": 38.88436383333333, "is_disabled": 0, "name": "44a8458537a44a57fec89f1944ec8769", "fusion_lat": 0.0, "rental_uris": {"ios": "https://dc.lft.to/lastmile_qr_scan", "android": "https://dc.lft.to/lastmile_qr_scan"}, "lon": -76.95750883333334, "type": "electric_scooter"}, {"bike_id": "400f7642ef7f04e69f02776670527ce4", "is_reserved": 0, "fusion_lon": 0.0, "lat": 38.916719666666665, "is_disabled": 0, "name": "400f7642ef7f04e69f02776670527ce4", "fusion_lat": 0.0, "rental_uris": {"ios": "https://dc.lft.to/lastmile_qr_scan", "android": "https://dc.lft.to/lastmile_qr_scan"}, "lon": -77.02948033333334, "type": "electric_scooter"}, {"bike_id": "a42d3c87a1ced165558fd2a78ceccdb1", "is_reserved": 0, "fusion_lon": 0.0, "lat": 38.89830666666667, "is_disabled": 0, "name": "a42d3c87a1ced165558fd2a78ceccdb1", "fusion_lat": 0.0, "rental_uris": {"ios": "https://dc.lft.to/lastmile_qr_scan", "android": "https://dc.lft.to/lastmile_qr_scan"}, "lon": -77.03321166666667, "type": "electric_scooter"}, {"bike_id": "5dcb2ee689c09de70900672d9d4641a8", "is_reserved": 0, "fusion_lon": 0.0, "lat": 38.88489366666667, "is_disabled": 0, "name": "5dcb2ee689c09de70900672d9d4641a8", "fusion_lat": 0.0, "rental_uris": {"ios": "https://dc.lft.to/lastmile_qr_scan", "android": "https://dc.lft.to/lastmile_qr_scan"}, "lon": -77.00711783333334, "type": "electric_scooter"}, {"bike_id": "58417395d9b190a7121be9c2d7b6cdf1", "is_reserved": 0, "fusion_lon": 0.0, "lat": 38.913355333333335, "is_disabled": 0, "name": "58417395d9b190a7121be9c2d7b6cdf1", "fusion_lat": 0.0, "rental_uris": {"ios": "https://dc.lft.to/lastmile_qr_scan", "android": "https://dc.lft.to/lastmile_qr_scan"}, "lon": -77.00345616666667, "type": "electric_scooter"}, {"bike_id": "1a6de2273b6d3308cd6a700f21457a86", "is_reserved": 0, "fusion_lon": 0.0, "lat": 38.89165366666667, "is_disabled": 0, "name": "1a6de2273b6d3308cd6a700f21457a86", "fusion_lat": 0.0, "rental_uris": {"ios": "https://dc.lft.to/lastmile_qr_scan", "android": "https://dc.lft.to/lastmile_qr_scan"}, "lon": -77.01543316666667, "type": "electric_scooter"}, {"bike_id": "236104498f125cd650f309f0c099169c", "is_reserved": 0, "fusion_lon": 0.0, "lat": 38.902766666666665, "is_disabled": 0, "name": "236104498f125cd650f309f0c099169c", "fusion_lat": 0.0, "rental_uris": {"ios": "https://dc.lft.to/lastmile_qr_scan", "android": "https://dc.lft.to/lastmile_qr_scan"}, "lon": -77.03837316666667, "type": "electric_scooter"}, {"bike_id": "ab11deff05bfc9ce471d75ee31f1549b", "is_reserved": 0, "fusion_lon": 0.0, "lat": 38.932559499999996, "is_disabled": 0, "name": "ab11deff05bfc9ce471d75ee31f1549b", "fusion_lat": 0.0, "rental_uris": {"ios": "https://dc.lft.to/lastmile_qr_scan", "android": "https://dc.lft.to/lastmile_qr_scan"}, "lon": -77.0328535, "type": "electric_scooter"}, {"bike_id": "5a1e3063f516a892bd4ac5c130009151", "is_reserved": 0, "fusion_lon": 0.0, "lat": 38.876369333333336, "is_disabled": 0, "name": "5a1e3063f516a892bd4ac5c130009151", "fusion_lat": 0.0, "rental_uris": {"ios": "https://dc.lft.to/lastmile_qr_scan", "android": "https://dc.lft.to/lastmile_qr_scan"}, "lon": -76.99585133333333, "type": "electric_scooter"}, {"bike_id": "1804eca4913a33a31ba6852a42708f13", "is_reserved": 0, "fusion_lon": 0.0, "lat": 38.92015466666667, "is_disabled": 0, "name": "1804eca4913a33a31ba6852a42708f13", "fusion_lat": 0.0, "rental_uris": {"ios": "https://dc.lft.to/lastmile_qr_scan", "android": "https://dc.lft.to/lastmile_qr_scan"}, "lon": -77.03161616666667, "type": "electric_scooter"}, {"bike_id": "28b0b9b737c68b9566432287670e59bf", "is_reserved": 0, "fusion_lon": 0.0, "lat": 38.918395333333336, "is_disabled": 0, "name": "28b0b9b737c68b9566432287670e59bf", "fusion_lat": 0.0, "rental_uris": {"ios": "https://dc.lft.to/lastmile_qr_scan", "android": "https://dc.lft.to/lastmile_qr_scan"}, "lon": -77.0389895, "type": "electric_scooter"}, {"bike_id": "7d51568d61a709f703fe0e5b261461c7", "is_reserved": 0, "fusion_lon": 0.0, "lat": 38.914787, "is_disabled": 0, "name": "7d51568d61a709f703fe0e5b261461c7", "fusion_lat": 0.0, "rental_uris": {"ios": "https://dc.lft.to/lastmile_qr_scan", "android": "https://dc.lft.to/lastmile_qr_scan"}, "lon": -77.0219, "type": "electric_scooter"}, {"bike_id": "1291f694b56a195457d3f181b06ae452", "is_reserved": 0, "fusion_lon": 0.0, "lat": 38.9015455, "is_disabled": 0, "name": "1291f694b56a195457d3f181b06ae452", "fusion_lat": 0.0, "rental_uris": {"ios": "https://dc.lft.to/lastmile_qr_scan", "android": "https://dc.lft.to/lastmile_qr_scan"}, "lon": -77.02293583333334, "type": "electric_scooter"}, {"bike_id": "ac1cc757d9e003642391cd9cfcd80f64", "is_reserved": 0, "fusion_lon": 0.0, "lat": 39.094574333333334, "is_disabled": 0, "name": "ac1cc757d9e003642391cd9cfcd80f64", "fusion_lat": 0.0, "rental_uris": {"ios": "https://dc.lft.to/lastmile_qr_scan", "android": "https://dc.lft.to/lastmile_qr_scan"}, "lon": -77.14988533333333, "type": "electric_bike"}, {"bike_id": "0dd18ea0b8bc68c77ad55c939a6a3891", "is_reserved": 0, "fusion_lon": 0.0, "lat": 38.82784216666667, "is_disabled": 0, "name": "0dd18ea0b8bc68c77ad55c939a6a3891", "fusion_lat": 0.0, "rental_uris": {"ios": "https://dc.lft.to/lastmile_qr_scan", "android": "https://dc.lft.to/lastmile_qr_scan"}, "lon": -77.00910566666667, "type": "electric_bike"}, {"bike_id": "f7708ae3bae01fc887c7099ce331da64", "is_reserved": 0, "fusion_lon": 0.0, "lat": 38.921497, "is_disabled": 0, "name": "f7708ae3bae01fc887c7099ce331da64", "fusion_lat": 0.0, "rental_uris": {"ios": "https://dc.lft.to/lastmile_qr_scan", "android": "https://dc.lft.to/lastmile_qr_scan"}, "lon": -77.03530783333333, "type": "electric_scooter"}, {"bike_id": "60a9abb84ccaea9337815c8e3da1c5c1", "is_reserved": 0, "fusion_lon": 0.0, "lat": 38.899969166666665, "is_disabled": 0, "name": "60a9abb84ccaea9337815c8e3da1c5c1", "fusion_lat": 0.0, "rental_uris": {"ios": "https://dc.lft.to/lastmile_qr_scan", "android": "https://dc.lft.to/lastmile_qr_scan"}, "lon": -76.99785766666666, "type": "electric_scooter"}, {"bike_id": "efdd20466c7d9a5906c8acfa51de8c24", "is_reserved": 0, "fusion_lon": 0.0, "lat": 38.872621, "is_disabled": 0, "name": "efdd20466c7d9a5906c8acfa51de8c24", "fusion_lat": 0.0, "rental_uris": {"ios": "https://dc.lft.to/lastmile_qr_scan", "android": "https://dc.lft.to/lastmile_qr_scan"}, "lon": -76.97912583333333, "type": "electric_bike"}, {"bike_id": "98fdd45a7311cda7c7431a3d33ce0ac3", "is_reserved": 0, "fusion_lon": 0.0, "lat": 38.90371116666667, "is_disabled": 0, "name": "98fdd45a7311cda7c7431a3d33ce0ac3", "fusion_lat": 0.0, "rental_uris": {"ios": "https://dc.lft.to/lastmile_qr_scan", "android": "https://dc.lft.to/lastmile_qr_scan"}, "lon": -77.0453575, "type": "electric_scooter"}, {"bike_id": "2202e2dfa2f2f37b49aee510ef8a7ac6", "is_reserved": 0, "fusion_lon": 0.0, "lat": 38.89840566666667, "is_disabled": 0, "name": "2202e2dfa2f2f37b49aee510ef8a7ac6", "fusion_lat": 0.0, "rental_uris": {"ios": "https://dc.lft.to/lastmile_qr_scan", "android": "https://dc.lft.to/lastmile_qr_scan"}, "lon": -76.94474016666666, "type": "electric_scooter"}, {"bike_id": "b6e20f42bea45224ff27fca9c8458cad", "is_reserved": 0, "fusion_lon": 0.0, "lat": 38.86287816666667, "is_disabled": 0, "name": "b6e20f42bea45224ff27fca9c8458cad", "fusion_lat": 0.0, "rental_uris": {"ios": "https://dc.lft.to/lastmile_qr_scan", "android": "https://dc.lft.to/lastmile_qr_scan"}, "lon": -76.99230283333333, "type": "electric_scooter"}, {"bike_id": "ec9469f1861dbe179a467e33ba0cb245", "is_reserved": 0, "fusion_lon": 0.0, "lat": 38.840635166666665, "is_disabled": 0, "name": "ec9469f1861dbe179a467e33ba0cb245", "fusion_lat": 0.0, "rental_uris": {"ios": "https://dc.lft.to/lastmile_qr_scan", "android": "https://dc.lft.to/lastmile_qr_scan"}, "lon": -77.0640265, "type": "electric_bike"}, {"bike_id": "9280848a5bd25b22bd043a85c85166e1", "is_reserved": 0, "fusion_lon": 0.0, "lat": 38.896657, "is_disabled": 0, "name": "9280848a5bd25b22bd043a85c85166e1", "fusion_lat": 0.0, "rental_uris": {"ios": "https://dc.lft.to/lastmile_qr_scan", "android": "https://dc.lft.to/lastmile_qr_scan"}, "lon": -77.02604483333333, "type": "electric_scooter"}, {"bike_id": "b216dba8c4c007381935fbba9fe39eec", "is_reserved": 0, "fusion_lon": 0.0, "lat": 38.90278383333333, "is_disabled": 0, "name": "b216dba8c4c007381935fbba9fe39eec", "fusion_lat": 0.0, "rental_uris": {"ios": "https://dc.lft.to/lastmile_qr_scan", "android": "https://dc.lft.to/lastmile_qr_scan"}, "lon": -77.0383115, "type": "electric_scooter"}, {"bike_id": "bad5ba04fb9f77d91123193de9f48f0c", "is_reserved": 0, "fusion_lon": 0.0, "lat": 38.89838, "is_disabled": 0, "name": "bad5ba04fb9f77d91123193de9f48f0c", "fusion_lat": 0.0, "rental_uris": {"ios": "https://dc.lft.to/lastmile_qr_scan", "android": "https://dc.lft.to/lastmile_qr_scan"}, "lon": -76.995011, "type": "electric_scooter"}, {"bike_id": "484acc9e7a4652625afc7fb1a8fb86f7", "is_reserved": 0, "fusion_lon": 0.0, "lat": 38.89102066666667, "is_disabled": 0, "name": "484acc9e7a4652625afc7fb1a8fb86f7", "fusion_lat": 0.0, "rental_uris": {"ios": "https://dc.lft.to/lastmile_qr_scan", "android": "https://dc.lft.to/lastmile_qr_scan"}, "lon": -76.94390316666667, "type": "electric_scooter"}, {"bike_id": "3d29325d59aabae40ce0ddf247922b73", "is_reserved": 0, "fusion_lon": 0.0, "lat": 38.898827833333335, "is_disabled": 0, "name": "3d29325d59aabae40ce0ddf247922b73", "fusion_lat": 0.0, "rental_uris": {"ios": "https://dc.lft.to/lastmile_qr_scan", "android": "https://dc.lft.to/lastmile_qr_scan"}, "lon": -77.03978733333334, "type": "electric_scooter"}, {"bike_id": "cde9ba7b0191b6ee5435c2ef74cec6b5", "is_reserved": 0, "fusion_lon": 0.0, "lat": 38.9097025, "is_disabled": 0, "name": "cde9ba7b0191b6ee5435c2ef74cec6b5", "fusion_lat": 0.0, "rental_uris": {"ios": "https://dc.lft.to/lastmile_qr_scan", "android": "https://dc.lft.to/lastmile_qr_scan"}, "lon": -77.05266016666667, "type": "electric_scooter"}, {"bike_id": "337174f96793c2e90e248b67bf321f7f", "is_reserved": 0, "fusion_lon": 0.0, "lat": 38.93613766666667, "is_disabled": 0, "name": "337174f96793c2e90e248b67bf321f7f", "fusion_lat": 0.0, "rental_uris": {"ios": "https://dc.lft.to/lastmile_qr_scan", "android": "https://dc.lft.to/lastmile_qr_scan"}, "lon": -77.10645366666667, "type": "electric_bike"}, {"bike_id": "8535e2cc6aed954983da1b44372f63e5", "is_reserved": 0, "fusion_lon": 0.0, "lat": 38.92364033333333, "is_disabled": 0, "name": "8535e2cc6aed954983da1b44372f63e5", "fusion_lat": 0.0, "rental_uris": {"ios": "https://dc.lft.to/lastmile_qr_scan", "android": "https://dc.lft.to/lastmile_qr_scan"}, "lon": -77.0191555, "type": "electric_scooter"}, {"bike_id": "78ad37fbba6f1a36fb5fcc2f91f87197", "is_reserved": 0, "fusion_lon": 0.0, "lat": 38.918034, "is_disabled": 0, "name": "78ad37fbba6f1a36fb5fcc2f91f87197", "fusion_lat": 0.0, "rental_uris": {"ios": "https://dc.lft.to/lastmile_qr_scan", "android": "https://dc.lft.to/lastmile_qr_scan"}, "lon": -77.03561416666666, "type": "electric_scooter"}, {"bike_id": "f8aeb33457045c97f28a28b0a129299a", "is_reserved": 0, "fusion_lon": 0.0, "lat": 38.92768, "is_disabled": 0, "name": "f8aeb33457045c97f28a28b0a129299a", "fusion_lat": 0.0, "rental_uris": {"ios": "https://dc.lft.to/lastmile_qr_scan", "android": "https://dc.lft.to/lastmile_qr_scan"}, "lon": -77.02774666666667, "type": "electric_scooter"}, {"bike_id": "0bc9d3bf0dbbe746b223997d409afa3c", "is_reserved": 0, "fusion_lon": 0.0, "lat": 38.90079166666666, "is_disabled": 0, "name": "0bc9d3bf0dbbe746b223997d409afa3c", "fusion_lat": 0.0, "rental_uris": {"ios": "https://dc.lft.to/lastmile_qr_scan", "android": "https://dc.lft.to/lastmile_qr_scan"}, "lon": -76.93874583333333, "type": "electric_scooter"}, {"bike_id": "053d33874fb873e67f0ba15b1fd1b2cf", "is_reserved": 0, "fusion_lon": 0.0, "lat": 38.9276775, "is_disabled": 0, "name": "053d33874fb873e67f0ba15b1fd1b2cf", "fusion_lat": 0.0, "rental_uris": {"ios": "https://dc.lft.to/lastmile_qr_scan", "android": "https://dc.lft.to/lastmile_qr_scan"}, "lon": -77.03244733333334, "type": "electric_scooter"}, {"bike_id": "0e9c830ed4ae616a05ab86f367909035", "is_reserved": 0, "fusion_lon": 0.0, "lat": 38.89219966666667, "is_disabled": 0, "name": "0e9c830ed4ae616a05ab86f367909035", "fusion_lat": 0.0, "rental_uris": {"ios": "https://dc.lft.to/lastmile_qr_scan", "android": "https://dc.lft.to/lastmile_qr_scan"}, "lon": -77.05009, "type": "electric_scooter"}, {"bike_id": "ecabc4d3fc46d65cd17d9e780c8ab0fb", "is_reserved": 0, "fusion_lon": 0.0, "lat": 38.92462, "is_disabled": 0, "name": "ecabc4d3fc46d65cd17d9e780c8ab0fb", "fusion_lat": 0.0, "rental_uris": {"ios": "https://dc.lft.to/lastmile_qr_scan", "android": "https://dc.lft.to/lastmile_qr_scan"}, "lon": -77.05214083333334, "type": "electric_scooter"}, {"bike_id": "8a2870a075633e34554b2f92ee1b564e", "is_reserved": 0, "fusion_lon": 0.0, "lat": 38.93158716666667, "is_disabled": 0, "name": "8a2870a075633e34554b2f92ee1b564e", "fusion_lat": 0.0, "rental_uris": {"ios": "https://dc.lft.to/lastmile_qr_scan", "android": "https://dc.lft.to/lastmile_qr_scan"}, "lon": -77.05644033333333, "type": "electric_scooter"}, {"bike_id": "bcb741555a7c0741775035dba46cfbce", "is_reserved": 0, "fusion_lon": 0.0, "lat": 38.887784, "is_disabled": 0, "name": "bcb741555a7c0741775035dba46cfbce", "fusion_lat": 0.0, "rental_uris": {"ios": "https://dc.lft.to/lastmile_qr_scan", "android": "https://dc.lft.to/lastmile_qr_scan"}, "lon": -76.9553625, "type": "electric_scooter"}, {"bike_id": "2b563bfa481bd3a89ff02fa1cb8306c2", "is_reserved": 0, "fusion_lon": 0.0, "lat": 38.89974383333333, "is_disabled": 0, "name": "2b563bfa481bd3a89ff02fa1cb8306c2", "fusion_lat": 0.0, "rental_uris": {"ios": "https://dc.lft.to/lastmile_qr_scan", "android": "https://dc.lft.to/lastmile_qr_scan"}, "lon": -77.01549083333333, "type": "electric_scooter"}, {"bike_id": "eb0381b8c909327681c678780d7b99fe", "is_reserved": 0, "fusion_lon": 0.0, "lat": 38.887721666666664, "is_disabled": 0, "name": "eb0381b8c909327681c678780d7b99fe", "fusion_lat": 0.0, "rental_uris": {"ios": "https://dc.lft.to/lastmile_qr_scan", "android": "https://dc.lft.to/lastmile_qr_scan"}, "lon": -76.9326155, "type": "electric_scooter"}, {"bike_id": "d89546185c7511e9c4954e6604c55820", "is_reserved": 0, "fusion_lon": 0.0, "lat": 38.90947466666667, "is_disabled": 0, "name": "d89546185c7511e9c4954e6604c55820", "fusion_lat": 0.0, "rental_uris": {"ios": "https://dc.lft.to/lastmile_qr_scan", "android": "https://dc.lft.to/lastmile_qr_scan"}, "lon": -77.03838833333333, "type": "electric_scooter"}, {"bike_id": "8c3047b629cfca1f370d4ed497856443", "is_reserved": 0, "fusion_lon": 0.0, "lat": 38.91841683333333, "is_disabled": 0, "name": "8c3047b629cfca1f370d4ed497856443", "fusion_lat": 0.0, "rental_uris": {"ios": "https://dc.lft.to/lastmile_qr_scan", "android": "https://dc.lft.to/lastmile_qr_scan"}, "lon": -77.0259755, "type": "electric_scooter"}, {"bike_id": "d9e702eceab0ac7a5ec0570234b0f323", "is_reserved": 0, "fusion_lon": 0.0, "lat": 38.890483333333336, "is_disabled": 0, "name": "d9e702eceab0ac7a5ec0570234b0f323", "fusion_lat": 0.0, "rental_uris": {"ios": "https://dc.lft.to/lastmile_qr_scan", "android": "https://dc.lft.to/lastmile_qr_scan"}, "lon": -76.93759966666667, "type": "electric_scooter"}, {"bike_id": "e01a1dc4c40994d19c512793af6f0151", "is_reserved": 0, "fusion_lon": 0.0, "lat": 38.90059866666667, "is_disabled": 0, "name": "e01a1dc4c40994d19c512793af6f0151", "fusion_lat": 0.0, "rental_uris": {"ios": "https://dc.lft.to/lastmile_qr_scan", "android": "https://dc.lft.to/lastmile_qr_scan"}, "lon": -77.0316865, "type": "electric_scooter"}, {"bike_id": "f96332ee786ee3eb792ab73460e720a8", "is_reserved": 0, "fusion_lon": 0.0, "lat": 38.91389683333333, "is_disabled": 0, "name": "f96332ee786ee3eb792ab73460e720a8", "fusion_lat": 0.0, "rental_uris": {"ios": "https://dc.lft.to/lastmile_qr_scan", "android": "https://dc.lft.to/lastmile_qr_scan"}, "lon": -77.04617116666667, "type": "electric_scooter"}, {"bike_id": "79468a4c079983692b3a89164efd26b1", "is_reserved": 0, "fusion_lon": 0.0, "lat": 38.933660333333336, "is_disabled": 0, "name": "79468a4c079983692b3a89164efd26b1", "fusion_lat": 0.0, "rental_uris": {"ios": "https://dc.lft.to/lastmile_qr_scan", "android": "https://dc.lft.to/lastmile_qr_scan"}, "lon": -77.057225, "type": "electric_scooter"}, {"bike_id": "199ba585429f446eece2a3dbc12247ab", "is_reserved": 0, "fusion_lon": 0.0, "lat": 38.91491166666667, "is_disabled": 0, "name": "199ba585429f446eece2a3dbc12247ab", "fusion_lat": 0.0, "rental_uris": {"ios": "https://dc.lft.to/lastmile_qr_scan", "android": "https://dc.lft.to/lastmile_qr_scan"}, "lon": -76.98363116666667, "type": "electric_scooter"}, {"bike_id": "303a70c9ea73f8d1c2bd0ca8090c11b5", "is_reserved": 0, "fusion_lon": 0.0, "lat": 38.88593616666667, "is_disabled": 0, "name": "303a70c9ea73f8d1c2bd0ca8090c11b5", "fusion_lat": 0.0, "rental_uris": {"ios": "https://dc.lft.to/lastmile_qr_scan", "android": "https://dc.lft.to/lastmile_qr_scan"}, "lon": -77.01737633333333, "type": "electric_scooter"}, {"bike_id": "810a47305d6abd77012446459af54d06", "is_reserved": 0, "fusion_lon": 0.0, "lat": 38.91038416666667, "is_disabled": 0, "name": "810a47305d6abd77012446459af54d06", "fusion_lat": 0.0, "rental_uris": {"ios": "https://dc.lft.to/lastmile_qr_scan", "android": "https://dc.lft.to/lastmile_qr_scan"}, "lon": -77.03580116666667, "type": "electric_scooter"}, {"bike_id": "606ea7d9d9ae2c95638e4e6f47b6aa77", "is_reserved": 0, "fusion_lon": 0.0, "lat": 38.9158235, "is_disabled": 0, "name": "606ea7d9d9ae2c95638e4e6f47b6aa77", "fusion_lat": 0.0, "rental_uris": {"ios": "https://dc.lft.to/lastmile_qr_scan", "android": "https://dc.lft.to/lastmile_qr_scan"}, "lon": -77.01242, "type": "electric_scooter"}, {"bike_id": "eb81977b8ce68e43fd028d434e213a8f", "is_reserved": 0, "fusion_lon": 0.0, "lat": 38.822618, "is_disabled": 0, "name": "eb81977b8ce68e43fd028d434e213a8f", "fusion_lat": 0.0, "rental_uris": {"ios": "https://dc.lft.to/lastmile_qr_scan", "android": "https://dc.lft.to/lastmile_qr_scan"}, "lon": -77.00554883333334, "type": "electric_bike"}, {"bike_id": "56b167669aeb7dede4157c9905c46a60", "is_reserved": 0, "fusion_lon": 0.0, "lat": 38.907743833333335, "is_disabled": 0, "name": "56b167669aeb7dede4157c9905c46a60", "fusion_lat": 0.0, "rental_uris": {"ios": "https://dc.lft.to/lastmile_qr_scan", "android": "https://dc.lft.to/lastmile_qr_scan"}, "lon": -77.03817633333334, "type": "electric_scooter"}, {"bike_id": "ba8b997ddf50ddb1437d6cf1a8dae49b", "is_reserved": 0, "fusion_lon": 0.0, "lat": 38.907121, "is_disabled": 0, "name": "ba8b997ddf50ddb1437d6cf1a8dae49b", "fusion_lat": 0.0, "rental_uris": {"ios": "https://dc.lft.to/lastmile_qr_scan", "android": "https://dc.lft.to/lastmile_qr_scan"}, "lon": -77.03235533333333, "type": "electric_scooter"}, {"bike_id": "4444d870bff8b9ad6312f4f08024b116", "is_reserved": 0, "fusion_lon": 0.0, "lat": 38.93078083333333, "is_disabled": 0, "name": "4444d870bff8b9ad6312f4f08024b116", "fusion_lat": 0.0, "rental_uris": {"ios": "https://dc.lft.to/lastmile_qr_scan", "android": "https://dc.lft.to/lastmile_qr_scan"}, "lon": -77.03414933333333, "type": "electric_scooter"}, {"bike_id": "1c80e348b54185f02514c5e5f5102104", "is_reserved": 0, "fusion_lon": 0.0, "lat": 38.89359816666666, "is_disabled": 0, "name": "1c80e348b54185f02514c5e5f5102104", "fusion_lat": 0.0, "rental_uris": {"ios": "https://dc.lft.to/lastmile_qr_scan", "android": "https://dc.lft.to/lastmile_qr_scan"}, "lon": -77.02831216666667, "type": "electric_scooter"}, {"bike_id": "1876aba7e5d5449152bb76a04a06dc6a", "is_reserved": 0, "fusion_lon": 0.0, "lat": 38.86422566666667, "is_disabled": 0, "name": "1876aba7e5d5449152bb76a04a06dc6a", "fusion_lat": 0.0, "rental_uris": {"ios": "https://dc.lft.to/lastmile_qr_scan", "android": "https://dc.lft.to/lastmile_qr_scan"}, "lon": -76.98578083333334, "type": "electric_scooter"}, {"bike_id": "15c519f48db32173fe466c9a669e8407", "is_reserved": 0, "fusion_lon": 0.0, "lat": 38.907850833333335, "is_disabled": 0, "name": "15c519f48db32173fe466c9a669e8407", "fusion_lat": 0.0, "rental_uris": {"ios": "https://dc.lft.to/lastmile_qr_scan", "android": "https://dc.lft.to/lastmile_qr_scan"}, "lon": -77.03859533333333, "type": "electric_scooter"}, {"bike_id": "981e5ae6dc74208c22f93bebfde50b33", "is_reserved": 0, "fusion_lon": 0.0, "lat": 38.89457066666667, "is_disabled": 0, "name": "981e5ae6dc74208c22f93bebfde50b33", "fusion_lat": 0.0, "rental_uris": {"ios": "https://dc.lft.to/lastmile_qr_scan", "android": "https://dc.lft.to/lastmile_qr_scan"}, "lon": -76.9703715, "type": "electric_bike"}, {"bike_id": "7461ce4795642a99045a29ba5e672734", "is_reserved": 0, "fusion_lon": 0.0, "lat": 38.92653883333333, "is_disabled": 0, "name": "7461ce4795642a99045a29ba5e672734", "fusion_lat": 0.0, "rental_uris": {"ios": "https://dc.lft.to/lastmile_qr_scan", "android": "https://dc.lft.to/lastmile_qr_scan"}, "lon": -77.037233, "type": "electric_scooter"}, {"bike_id": "fa61680f0dc4c21fb3934d5e309d145e", "is_reserved": 0, "fusion_lon": 0.0, "lat": 38.9140725, "is_disabled": 0, "name": "fa61680f0dc4c21fb3934d5e309d145e", "fusion_lat": 0.0, "rental_uris": {"ios": "https://dc.lft.to/lastmile_qr_scan", "android": "https://dc.lft.to/lastmile_qr_scan"}, "lon": -77.0015925, "type": "electric_scooter"}, {"bike_id": "d9d83b9e6cbe9a9cc3020209e34b8df7", "is_reserved": 0, "fusion_lon": 0.0, "lat": 38.909686666666666, "is_disabled": 0, "name": "d9d83b9e6cbe9a9cc3020209e34b8df7", "fusion_lat": 0.0, "rental_uris": {"ios": "https://dc.lft.to/lastmile_qr_scan", "android": "https://dc.lft.to/lastmile_qr_scan"}, "lon": -77.02726533333333, "type": "electric_scooter"}, {"bike_id": "5aa1f9d204f710ba4d11fa310d219d91", "is_reserved": 0, "fusion_lon": 0.0, "lat": 38.9127035, "is_disabled": 0, "name": "5aa1f9d204f710ba4d11fa310d219d91", "fusion_lat": 0.0, "rental_uris": {"ios": "https://dc.lft.to/lastmile_qr_scan", "android": "https://dc.lft.to/lastmile_qr_scan"}, "lon": -77.02212383333334, "type": "electric_scooter"}, {"bike_id": "fcfd6fc5e39d0959e70fa93ef1b584af", "is_reserved": 0, "fusion_lon": 0.0, "lat": 38.91578533333333, "is_disabled": 0, "name": "fcfd6fc5e39d0959e70fa93ef1b584af", "fusion_lat": 0.0, "rental_uris": {"ios": "https://dc.lft.to/lastmile_qr_scan", "android": "https://dc.lft.to/lastmile_qr_scan"}, "lon": -77.012417, "type": "electric_scooter"}, {"bike_id": "beee94a3ff012a9ff8564f11e2c6d00c", "is_reserved": 0, "fusion_lon": 0.0, "lat": 38.94394, "is_disabled": 0, "name": "beee94a3ff012a9ff8564f11e2c6d00c", "fusion_lat": 0.0, "rental_uris": {"ios": "https://dc.lft.to/lastmile_qr_scan", "android": "https://dc.lft.to/lastmile_qr_scan"}, "lon": -77.0389405, "type": "electric_scooter"}, {"bike_id": "1ffeb0e8e56daed0ebb6c984fb8712c2", "is_reserved": 0, "fusion_lon": 0.0, "lat": 38.920747, "is_disabled": 0, "name": "1ffeb0e8e56daed0ebb6c984fb8712c2", "fusion_lat": 0.0, "rental_uris": {"ios": "https://dc.lft.to/lastmile_qr_scan", "android": "https://dc.lft.to/lastmile_qr_scan"}, "lon": -77.0243325, "type": "electric_scooter"}, {"bike_id": "576efe537f2bcf1798f1f82af08f3eb7", "is_reserved": 0, "fusion_lon": 0.0, "lat": 38.905881666666666, "is_disabled": 0, "name": "576efe537f2bcf1798f1f82af08f3eb7", "fusion_lat": 0.0, "rental_uris": {"ios": "https://dc.lft.to/lastmile_qr_scan", "android": "https://dc.lft.to/lastmile_qr_scan"}, "lon": -77.04663333333333, "type": "electric_scooter"}, {"bike_id": "57cb019bcf6f269495b2e62f40b8b677", "is_reserved": 0, "fusion_lon": 0.0, "lat": 38.898774333333336, "is_disabled": 0, "name": "57cb019bcf6f269495b2e62f40b8b677", "fusion_lat": 0.0, "rental_uris": {"ios": "https://dc.lft.to/lastmile_qr_scan", "android": "https://dc.lft.to/lastmile_qr_scan"}, "lon": -76.93159783333333, "type": "electric_scooter"}, {"bike_id": "a8c93f064ef82d0db720ae4e61efc11b", "is_reserved": 0, "fusion_lon": 0.0, "lat": 38.90099516666667, "is_disabled": 0, "name": "a8c93f064ef82d0db720ae4e61efc11b", "fusion_lat": 0.0, "rental_uris": {"ios": "https://dc.lft.to/lastmile_qr_scan", "android": "https://dc.lft.to/lastmile_qr_scan"}, "lon": -77.0437935, "type": "electric_scooter"}, {"bike_id": "a3343a9e648abf5f4f6ef0b4c9862981", "is_reserved": 0, "fusion_lon": 0.0, "lat": 38.924837333333336, "is_disabled": 0, "name": "a3343a9e648abf5f4f6ef0b4c9862981", "fusion_lat": 0.0, "rental_uris": {"ios": "https://dc.lft.to/lastmile_qr_scan", "android": "https://dc.lft.to/lastmile_qr_scan"}, "lon": -77.02714016666667, "type": "electric_scooter"}, {"bike_id": "e6619920b3527469fd18be3a7611e76d", "is_reserved": 0, "fusion_lon": 0.0, "lat": 38.912417, "is_disabled": 0, "name": "e6619920b3527469fd18be3a7611e76d", "fusion_lat": 0.0, "rental_uris": {"ios": "https://dc.lft.to/lastmile_qr_scan", "android": "https://dc.lft.to/lastmile_qr_scan"}, "lon": -77.01612266666666, "type": "electric_scooter"}, {"bike_id": "d2e4f49a4ef58fc8d6d08adfa6d2acb8", "is_reserved": 0, "fusion_lon": 0.0, "lat": 38.9214195, "is_disabled": 0, "name": "d2e4f49a4ef58fc8d6d08adfa6d2acb8", "fusion_lat": 0.0, "rental_uris": {"ios": "https://dc.lft.to/lastmile_qr_scan", "android": "https://dc.lft.to/lastmile_qr_scan"}, "lon": -77.03514583333333, "type": "electric_bike"}, {"bike_id": "c714e4aa88df6567033a3b302667cb99", "is_reserved": 0, "fusion_lon": 0.0, "lat": 38.92165283333333, "is_disabled": 0, "name": "c714e4aa88df6567033a3b302667cb99", "fusion_lat": 0.0, "rental_uris": {"ios": "https://dc.lft.to/lastmile_qr_scan", "android": "https://dc.lft.to/lastmile_qr_scan"}, "lon": -77.03291233333333, "type": "electric_scooter"}, {"bike_id": "67898769c6c967a2b54d99adbc1c632a", "is_reserved": 0, "fusion_lon": 0.0, "lat": 38.91788016666667, "is_disabled": 0, "name": "67898769c6c967a2b54d99adbc1c632a", "fusion_lat": 0.0, "rental_uris": {"ios": "https://dc.lft.to/lastmile_qr_scan", "android": "https://dc.lft.to/lastmile_qr_scan"}, "lon": -77.02317433333333, "type": "electric_scooter"}, {"bike_id": "88ce66973523468d3ecc1644d92bd83d", "is_reserved": 0, "fusion_lon": 0.0, "lat": 38.923193166666664, "is_disabled": 0, "name": "88ce66973523468d3ecc1644d92bd83d", "fusion_lat": 0.0, "rental_uris": {"ios": "https://dc.lft.to/lastmile_qr_scan", "android": "https://dc.lft.to/lastmile_qr_scan"}, "lon": -77.03670283333334, "type": "electric_scooter"}, {"bike_id": "0d19422651a8184d69a9797858734d8d", "is_reserved": 0, "fusion_lon": 0.0, "lat": 38.871752666666666, "is_disabled": 0, "name": "0d19422651a8184d69a9797858734d8d", "fusion_lat": 0.0, "rental_uris": {"ios": "https://dc.lft.to/lastmile_qr_scan", "android": "https://dc.lft.to/lastmile_qr_scan"}, "lon": -77.00629316666667, "type": "electric_scooter"}, {"bike_id": "4181b9f41932f37a83212805b95fc208", "is_reserved": 0, "fusion_lon": 0.0, "lat": 38.93342666666667, "is_disabled": 0, "name": "4181b9f41932f37a83212805b95fc208", "fusion_lat": 0.0, "rental_uris": {"ios": "https://dc.lft.to/lastmile_qr_scan", "android": "https://dc.lft.to/lastmile_qr_scan"}, "lon": -77.0570905, "type": "electric_scooter"}, {"bike_id": "42987303003df2ca04df94cdfac7e74e", "is_reserved": 0, "fusion_lon": 0.0, "lat": 38.944397333333335, "is_disabled": 0, "name": "42987303003df2ca04df94cdfac7e74e", "fusion_lat": 0.0, "rental_uris": {"ios": "https://dc.lft.to/lastmile_qr_scan", "android": "https://dc.lft.to/lastmile_qr_scan"}, "lon": -77.06272966666667, "type": "electric_scooter"}, {"bike_id": "70a9367302a3247157c0c3f0b5b6a6bf", "is_reserved": 0, "fusion_lon": 0.0, "lat": 39.03048533333333, "is_disabled": 0, "name": "70a9367302a3247157c0c3f0b5b6a6bf", "fusion_lat": 0.0, "rental_uris": {"ios": "https://dc.lft.to/lastmile_qr_scan", "android": "https://dc.lft.to/lastmile_qr_scan"}, "lon": -77.0947875, "type": "electric_bike"}, {"bike_id": "eb2036efa48eaa3ed40a2576eaa31535", "is_reserved": 0, "fusion_lon": 0.0, "lat": 38.8919705, "is_disabled": 0, "name": "eb2036efa48eaa3ed40a2576eaa31535", "fusion_lat": 0.0, "rental_uris": {"ios": "https://dc.lft.to/lastmile_qr_scan", "android": "https://dc.lft.to/lastmile_qr_scan"}, "lon": -77.01548166666667, "type": "electric_scooter"}, {"bike_id": "4e3a22edf117a6149568a96ef424f41d", "is_reserved": 0, "fusion_lon": 0.0, "lat": 38.90013616666667, "is_disabled": 0, "name": "4e3a22edf117a6149568a96ef424f41d", "fusion_lat": 0.0, "rental_uris": {"ios": "https://dc.lft.to/lastmile_qr_scan", "android": "https://dc.lft.to/lastmile_qr_scan"}, "lon": -76.99772616666667, "type": "electric_scooter"}, {"bike_id": "6818800651c27fc5746759b58990161c", "is_reserved": 0, "fusion_lon": 0.0, "lat": 38.91924133333333, "is_disabled": 0, "name": "6818800651c27fc5746759b58990161c", "fusion_lat": 0.0, "rental_uris": {"ios": "https://dc.lft.to/lastmile_qr_scan", "android": "https://dc.lft.to/lastmile_qr_scan"}, "lon": -77.00070283333334, "type": "electric_scooter"}, {"bike_id": "da976c166e75038e7e1aa0d4f03880be", "is_reserved": 0, "fusion_lon": 0.0, "lat": 38.902682, "is_disabled": 0, "name": "da976c166e75038e7e1aa0d4f03880be", "fusion_lat": 0.0, "rental_uris": {"ios": "https://dc.lft.to/lastmile_qr_scan", "android": "https://dc.lft.to/lastmile_qr_scan"}, "lon": -77.03474066666666, "type": "electric_scooter"}, {"bike_id": "c0090d2cb48239c3eb6ded6bf68252f4", "is_reserved": 0, "fusion_lon": 0.0, "lat": 38.90771616666667, "is_disabled": 0, "name": "c0090d2cb48239c3eb6ded6bf68252f4", "fusion_lat": 0.0, "rental_uris": {"ios": "https://dc.lft.to/lastmile_qr_scan", "android": "https://dc.lft.to/lastmile_qr_scan"}, "lon": -77.03201183333333, "type": "electric_scooter"}, {"bike_id": "5bf052ffd6ddbd13c6bb1887e6405265", "is_reserved": 0, "fusion_lon": 0.0, "lat": 38.88704216666667, "is_disabled": 0, "name": "5bf052ffd6ddbd13c6bb1887e6405265", "fusion_lat": 0.0, "rental_uris": {"ios": "https://dc.lft.to/lastmile_qr_scan", "android": "https://dc.lft.to/lastmile_qr_scan"}, "lon": -77.00147566666666, "type": "electric_scooter"}, {"bike_id": "544821a96260a5eb6f08df0eb1f7dd4c", "is_reserved": 0, "fusion_lon": 0.0, "lat": 38.918695, "is_disabled": 0, "name": "544821a96260a5eb6f08df0eb1f7dd4c", "fusion_lat": 0.0, "rental_uris": {"ios": "https://dc.lft.to/lastmile_qr_scan", "android": "https://dc.lft.to/lastmile_qr_scan"}, "lon": -77.044652, "type": "electric_scooter"}, {"bike_id": "0d728875cdb356af9054a925f1342e62", "is_reserved": 0, "fusion_lon": 0.0, "lat": 38.905247, "is_disabled": 0, "name": "0d728875cdb356af9054a925f1342e62", "fusion_lat": 0.0, "rental_uris": {"ios": "https://dc.lft.to/lastmile_qr_scan", "android": "https://dc.lft.to/lastmile_qr_scan"}, "lon": -77.06534383333333, "type": "electric_scooter"}, {"bike_id": "32c0cf1f913fbbce4daf75cdeec096bd", "is_reserved": 0, "fusion_lon": 0.0, "lat": 38.89817566666667, "is_disabled": 0, "name": "32c0cf1f913fbbce4daf75cdeec096bd", "fusion_lat": 0.0, "rental_uris": {"ios": "https://dc.lft.to/lastmile_qr_scan", "android": "https://dc.lft.to/lastmile_qr_scan"}, "lon": -76.98034466666667, "type": "electric_scooter"}, {"bike_id": "9febfc36226cb342a283cb476ef783c7", "is_reserved": 0, "fusion_lon": 0.0, "lat": 38.895598666666665, "is_disabled": 0, "name": "9febfc36226cb342a283cb476ef783c7", "fusion_lat": 0.0, "rental_uris": {"ios": "https://dc.lft.to/lastmile_qr_scan", "android": "https://dc.lft.to/lastmile_qr_scan"}, "lon": -77.02567933333333, "type": "electric_scooter"}, {"bike_id": "bdda5fd36d9fa2e7eba0dc0619b29287", "is_reserved": 0, "fusion_lon": 0.0, "lat": 38.87997216666667, "is_disabled": 0, "name": "bdda5fd36d9fa2e7eba0dc0619b29287", "fusion_lat": 0.0, "rental_uris": {"ios": "https://dc.lft.to/lastmile_qr_scan", "android": "https://dc.lft.to/lastmile_qr_scan"}, "lon": -76.985393, "type": "electric_scooter"}, {"bike_id": "39371958cb389af437adca43de280b47", "is_reserved": 0, "fusion_lon": 0.0, "lat": 38.90825666666667, "is_disabled": 0, "name": "39371958cb389af437adca43de280b47", "fusion_lat": 0.0, "rental_uris": {"ios": "https://dc.lft.to/lastmile_qr_scan", "android": "https://dc.lft.to/lastmile_qr_scan"}, "lon": -76.99692366666666, "type": "electric_scooter"}, {"bike_id": "bf86ed84d49dca28dff221a8649a279f", "is_reserved": 0, "fusion_lon": 0.0, "lat": 38.897142, "is_disabled": 0, "name": "bf86ed84d49dca28dff221a8649a279f", "fusion_lat": 0.0, "rental_uris": {"ios": "https://dc.lft.to/lastmile_qr_scan", "android": "https://dc.lft.to/lastmile_qr_scan"}, "lon": -77.02708716666666, "type": "electric_scooter"}, {"bike_id": "564535c17364232b53782c5a643f926f", "is_reserved": 0, "fusion_lon": 0.0, "lat": 38.912144, "is_disabled": 0, "name": "564535c17364232b53782c5a643f926f", "fusion_lat": 0.0, "rental_uris": {"ios": "https://dc.lft.to/lastmile_qr_scan", "android": "https://dc.lft.to/lastmile_qr_scan"}, "lon": -77.07595866666666, "type": "electric_scooter"}, {"bike_id": "0f8e450aa3001c0d6047a06b26e7fc24", "is_reserved": 0, "fusion_lon": 0.0, "lat": 38.933735166666665, "is_disabled": 0, "name": "0f8e450aa3001c0d6047a06b26e7fc24", "fusion_lat": 0.0, "rental_uris": {"ios": "https://dc.lft.to/lastmile_qr_scan", "android": "https://dc.lft.to/lastmile_qr_scan"}, "lon": -77.0346635, "type": "electric_scooter"}, {"bike_id": "e26ece11b0f72ac7a345c46684662eaf", "is_reserved": 0, "fusion_lon": 0.0, "lat": 38.9483325, "is_disabled": 0, "name": "e26ece11b0f72ac7a345c46684662eaf", "fusion_lat": 0.0, "rental_uris": {"ios": "https://dc.lft.to/lastmile_qr_scan", "android": "https://dc.lft.to/lastmile_qr_scan"}, "lon": -77.03897066666667, "type": "electric_bike"}, {"bike_id": "0674ea8851200a020c0a642f54dbbf88", "is_reserved": 0, "fusion_lon": 0.0, "lat": 38.89217, "is_disabled": 0, "name": "0674ea8851200a020c0a642f54dbbf88", "fusion_lat": 0.0, "rental_uris": {"ios": "https://dc.lft.to/lastmile_qr_scan", "android": "https://dc.lft.to/lastmile_qr_scan"}, "lon": -77.0316165, "type": "electric_scooter"}, {"bike_id": "83bca31ddc16dfba342c039c3b3bb435", "is_reserved": 0, "fusion_lon": 0.0, "lat": 38.877100166666665, "is_disabled": 0, "name": "83bca31ddc16dfba342c039c3b3bb435", "fusion_lat": 0.0, "rental_uris": {"ios": "https://dc.lft.to/lastmile_qr_scan", "android": "https://dc.lft.to/lastmile_qr_scan"}, "lon": -77.01762016666666, "type": "electric_scooter"}, {"bike_id": "17627bde080e33db31897ac4cc366e1d", "is_reserved": 0, "fusion_lon": 0.0, "lat": 38.907297, "is_disabled": 0, "name": "17627bde080e33db31897ac4cc366e1d", "fusion_lat": 0.0, "rental_uris": {"ios": "https://dc.lft.to/lastmile_qr_scan", "android": "https://dc.lft.to/lastmile_qr_scan"}, "lon": -77.0344525, "type": "electric_scooter"}, {"bike_id": "ded60d28c3651eeb18f29d744d0ca9bf", "is_reserved": 0, "fusion_lon": 0.0, "lat": 38.939010833333334, "is_disabled": 0, "name": "ded60d28c3651eeb18f29d744d0ca9bf", "fusion_lat": 0.0, "rental_uris": {"ios": "https://dc.lft.to/lastmile_qr_scan", "android": "https://dc.lft.to/lastmile_qr_scan"}, "lon": -77.07729866666666, "type": "electric_scooter"}, {"bike_id": "5d59ec11446e8aa76db8045b6bac4372", "is_reserved": 0, "fusion_lon": 0.0, "lat": 38.894395333333335, "is_disabled": 0, "name": "5d59ec11446e8aa76db8045b6bac4372", "fusion_lat": 0.0, "rental_uris": {"ios": "https://dc.lft.to/lastmile_qr_scan", "android": "https://dc.lft.to/lastmile_qr_scan"}, "lon": -77.0302205, "type": "electric_scooter"}, {"bike_id": "357d5590a39e786db6ba927e497883ae", "is_reserved": 0, "fusion_lon": 0.0, "lat": 38.92217316666667, "is_disabled": 0, "name": "357d5590a39e786db6ba927e497883ae", "fusion_lat": 0.0, "rental_uris": {"ios": "https://dc.lft.to/lastmile_qr_scan", "android": "https://dc.lft.to/lastmile_qr_scan"}, "lon": -77.04258433333334, "type": "electric_scooter"}, {"bike_id": "ee1e00a539ae80720a5ddd27f1338ff5", "is_reserved": 0, "fusion_lon": 0.0, "lat": 38.86593, "is_disabled": 0, "name": "ee1e00a539ae80720a5ddd27f1338ff5", "fusion_lat": 0.0, "rental_uris": {"ios": "https://dc.lft.to/lastmile_qr_scan", "android": "https://dc.lft.to/lastmile_qr_scan"}, "lon": -76.93230516666667, "type": "electric_bike"}, {"bike_id": "417ec907bbcd8bae42b78490986304a8", "is_reserved": 0, "fusion_lon": 0.0, "lat": 38.9394575, "is_disabled": 0, "name": "417ec907bbcd8bae42b78490986304a8", "fusion_lat": 0.0, "rental_uris": {"ios": "https://dc.lft.to/lastmile_qr_scan", "android": "https://dc.lft.to/lastmile_qr_scan"}, "lon": -77.0327445, "type": "electric_scooter"}, {"bike_id": "8418aaf35a28db84c1d596693313237e", "is_reserved": 0, "fusion_lon": 0.0, "lat": 38.9274855, "is_disabled": 0, "name": "8418aaf35a28db84c1d596693313237e", "fusion_lat": 0.0, "rental_uris": {"ios": "https://dc.lft.to/lastmile_qr_scan", "android": "https://dc.lft.to/lastmile_qr_scan"}, "lon": -77.05352933333333, "type": "electric_scooter"}, {"bike_id": "39fd9d8896a01eebd319f9d6b41df23c", "is_reserved": 0, "fusion_lon": 0.0, "lat": 38.938851666666665, "is_disabled": 0, "name": "39fd9d8896a01eebd319f9d6b41df23c", "fusion_lat": 0.0, "rental_uris": {"ios": "https://dc.lft.to/lastmile_qr_scan", "android": "https://dc.lft.to/lastmile_qr_scan"}, "lon": -77.0282715, "type": "electric_scooter"}, {"bike_id": "2110bfba49f86528253ed72ada05cb7a", "is_reserved": 0, "fusion_lon": 0.0, "lat": 38.92076383333333, "is_disabled": 0, "name": "2110bfba49f86528253ed72ada05cb7a", "fusion_lat": 0.0, "rental_uris": {"ios": "https://dc.lft.to/lastmile_qr_scan", "android": "https://dc.lft.to/lastmile_qr_scan"}, "lon": -77.02529316666667, "type": "electric_scooter"}, {"bike_id": "e456b37062bfb1c9040469edbe6abeeb", "is_reserved": 0, "fusion_lon": 0.0, "lat": 38.9278705, "is_disabled": 0, "name": "e456b37062bfb1c9040469edbe6abeeb", "fusion_lat": 0.0, "rental_uris": {"ios": "https://dc.lft.to/lastmile_qr_scan", "android": "https://dc.lft.to/lastmile_qr_scan"}, "lon": -77.03147733333333, "type": "electric_scooter"}, {"bike_id": "aa04f01e74f22a7c34cebc1378a2a73a", "is_reserved": 0, "fusion_lon": 0.0, "lat": 38.85220116666667, "is_disabled": 0, "name": "aa04f01e74f22a7c34cebc1378a2a73a", "fusion_lat": 0.0, "rental_uris": {"ios": "https://dc.lft.to/lastmile_qr_scan", "android": "https://dc.lft.to/lastmile_qr_scan"}, "lon": -77.129482, "type": "electric_bike"}, {"bike_id": "fc293c2f9781f94904a89892ada4f980", "is_reserved": 0, "fusion_lon": 0.0, "lat": 38.905773333333336, "is_disabled": 0, "name": "fc293c2f9781f94904a89892ada4f980", "fusion_lat": 0.0, "rental_uris": {"ios": "https://dc.lft.to/lastmile_qr_scan", "android": "https://dc.lft.to/lastmile_qr_scan"}, "lon": -77.02975983333333, "type": "electric_scooter"}, {"bike_id": "5fc4c0de11e274dd0549d06fbb26ef7d", "is_reserved": 0, "fusion_lon": 0.0, "lat": 38.865567, "is_disabled": 0, "name": "5fc4c0de11e274dd0549d06fbb26ef7d", "fusion_lat": 0.0, "rental_uris": {"ios": "https://dc.lft.to/lastmile_qr_scan", "android": "https://dc.lft.to/lastmile_qr_scan"}, "lon": -76.98946866666667, "type": "electric_scooter"}, {"bike_id": "f6915f37fbf17249dc891533d93de003", "is_reserved": 0, "fusion_lon": 0.0, "lat": 38.984649833333336, "is_disabled": 0, "name": "f6915f37fbf17249dc891533d93de003", "fusion_lat": 0.0, "rental_uris": {"ios": "https://dc.lft.to/lastmile_qr_scan", "android": "https://dc.lft.to/lastmile_qr_scan"}, "lon": -76.95528316666666, "type": "electric_bike"}, {"bike_id": "946816f2a1657abfe9807eae63537db1", "is_reserved": 0, "fusion_lon": 0.0, "lat": 38.900322333333335, "is_disabled": 0, "name": "946816f2a1657abfe9807eae63537db1", "fusion_lat": 0.0, "rental_uris": {"ios": "https://dc.lft.to/lastmile_qr_scan", "android": "https://dc.lft.to/lastmile_qr_scan"}, "lon": -77.0074945, "type": "electric_scooter"}, {"bike_id": "29f926102a0e758ef17faa6188114c76", "is_reserved": 0, "fusion_lon": 0.0, "lat": 38.93948916666667, "is_disabled": 0, "name": "29f926102a0e758ef17faa6188114c76", "fusion_lat": 0.0, "rental_uris": {"ios": "https://dc.lft.to/lastmile_qr_scan", "android": "https://dc.lft.to/lastmile_qr_scan"}, "lon": -77.03261166666667, "type": "electric_scooter"}, {"bike_id": "2eaf285a9c32b001b26e2b2e4b904328", "is_reserved": 0, "fusion_lon": 0.0, "lat": 38.89219633333333, "is_disabled": 0, "name": "2eaf285a9c32b001b26e2b2e4b904328", "fusion_lat": 0.0, "rental_uris": {"ios": "https://dc.lft.to/lastmile_qr_scan", "android": "https://dc.lft.to/lastmile_qr_scan"}, "lon": -77.02837883333333, "type": "electric_scooter"}, {"bike_id": "f5e299816b9db5455cbcc2a215e4ccc1", "is_reserved": 0, "fusion_lon": 0.0, "lat": 38.908842166666666, "is_disabled": 0, "name": "f5e299816b9db5455cbcc2a215e4ccc1", "fusion_lat": 0.0, "rental_uris": {"ios": "https://dc.lft.to/lastmile_qr_scan", "android": "https://dc.lft.to/lastmile_qr_scan"}, "lon": -77.02297033333333, "type": "electric_scooter"}, {"bike_id": "daa07beaad5fb9383eda328683cbf364", "is_reserved": 0, "fusion_lon": 0.0, "lat": 38.80693266666667, "is_disabled": 0, "name": "daa07beaad5fb9383eda328683cbf364", "fusion_lat": 0.0, "rental_uris": {"ios": "https://dc.lft.to/lastmile_qr_scan", "android": "https://dc.lft.to/lastmile_qr_scan"}, "lon": -77.05969966666666, "type": "electric_bike"}, {"bike_id": "f81e0f90e6e3d5a33a097cf39fca44cb", "is_reserved": 0, "fusion_lon": 0.0, "lat": 38.89981433333333, "is_disabled": 0, "name": "f81e0f90e6e3d5a33a097cf39fca44cb", "fusion_lat": 0.0, "rental_uris": {"ios": "https://dc.lft.to/lastmile_qr_scan", "android": "https://dc.lft.to/lastmile_qr_scan"}, "lon": -77.021498, "type": "electric_scooter"}, {"bike_id": "d7ba30c51adc32523abdb4bb8cacdc52", "is_reserved": 0, "fusion_lon": 0.0, "lat": 38.91660866666667, "is_disabled": 0, "name": "d7ba30c51adc32523abdb4bb8cacdc52", "fusion_lat": 0.0, "rental_uris": {"ios": "https://dc.lft.to/lastmile_qr_scan", "android": "https://dc.lft.to/lastmile_qr_scan"}, "lon": -77.03643183333334, "type": "electric_scooter"}, {"bike_id": "d428b33af9f56c0b9f760e67a7f35c66", "is_reserved": 0, "fusion_lon": 0.0, "lat": 38.892315333333336, "is_disabled": 0, "name": "d428b33af9f56c0b9f760e67a7f35c66", "fusion_lat": 0.0, "rental_uris": {"ios": "https://dc.lft.to/lastmile_qr_scan", "android": "https://dc.lft.to/lastmile_qr_scan"}, "lon": -77.02583866666667, "type": "electric_scooter"}, {"bike_id": "acb2223ce6172a77ea0ca8894c8cee59", "is_reserved": 0, "fusion_lon": 0.0, "lat": 38.897065, "is_disabled": 0, "name": "acb2223ce6172a77ea0ca8894c8cee59", "fusion_lat": 0.0, "rental_uris": {"ios": "https://dc.lft.to/lastmile_qr_scan", "android": "https://dc.lft.to/lastmile_qr_scan"}, "lon": -77.0272345, "type": "electric_scooter"}, {"bike_id": "aebc06d09b388f8fc304b8fe3494c2c2", "is_reserved": 0, "fusion_lon": 0.0, "lat": 38.91979216666667, "is_disabled": 0, "name": "aebc06d09b388f8fc304b8fe3494c2c2", "fusion_lat": 0.0, "rental_uris": {"ios": "https://dc.lft.to/lastmile_qr_scan", "android": "https://dc.lft.to/lastmile_qr_scan"}, "lon": -77.02376083333333, "type": "electric_scooter"}, {"bike_id": "7df8671ba589b82614176c1ffb0cf0b4", "is_reserved": 0, "fusion_lon": 0.0, "lat": 38.90272433333333, "is_disabled": 0, "name": "7df8671ba589b82614176c1ffb0cf0b4", "fusion_lat": 0.0, "rental_uris": {"ios": "https://dc.lft.to/lastmile_qr_scan", "android": "https://dc.lft.to/lastmile_qr_scan"}, "lon": -77.04076983333333, "type": "electric_scooter"}, {"bike_id": "84394945d61d5eea2f74cdf6a1220a15", "is_reserved": 0, "fusion_lon": 0.0, "lat": 38.95544683333333, "is_disabled": 0, "name": "84394945d61d5eea2f74cdf6a1220a15", "fusion_lat": 0.0, "rental_uris": {"ios": "https://dc.lft.to/lastmile_qr_scan", "android": "https://dc.lft.to/lastmile_qr_scan"}, "lon": -76.93524583333334, "type": "electric_bike"}, {"bike_id": "8eb2348cbd2d5fd5f3c040fdec18f316", "is_reserved": 0, "fusion_lon": 0.0, "lat": 38.89186733333333, "is_disabled": 0, "name": "8eb2348cbd2d5fd5f3c040fdec18f316", "fusion_lat": 0.0, "rental_uris": {"ios": "https://dc.lft.to/lastmile_qr_scan", "android": "https://dc.lft.to/lastmile_qr_scan"}, "lon": -77.122609, "type": "electric_bike"}, {"bike_id": "2e91a04ad54e5833508fbd22011d5bca", "is_reserved": 0, "fusion_lon": 0.0, "lat": 38.905399833333334, "is_disabled": 0, "name": "2e91a04ad54e5833508fbd22011d5bca", "fusion_lat": 0.0, "rental_uris": {"ios": "https://dc.lft.to/lastmile_qr_scan", "android": "https://dc.lft.to/lastmile_qr_scan"}, "lon": -77.0505465, "type": "electric_scooter"}, {"bike_id": "e32db5ab3c1c2a8632c8e61f4ad94ab7", "is_reserved": 0, "fusion_lon": 0.0, "lat": 38.85808433333333, "is_disabled": 0, "name": "e32db5ab3c1c2a8632c8e61f4ad94ab7", "fusion_lat": 0.0, "rental_uris": {"ios": "https://dc.lft.to/lastmile_qr_scan", "android": "https://dc.lft.to/lastmile_qr_scan"}, "lon": -76.986521, "type": "electric_scooter"}, {"bike_id": "2d26cb83d7427bf9e93e4a87e9cd3183", "is_reserved": 0, "fusion_lon": 0.0, "lat": 38.9175355, "is_disabled": 0, "name": "2d26cb83d7427bf9e93e4a87e9cd3183", "fusion_lat": 0.0, "rental_uris": {"ios": "https://dc.lft.to/lastmile_qr_scan", "android": "https://dc.lft.to/lastmile_qr_scan"}, "lon": -77.014923, "type": "electric_scooter"}, {"bike_id": "2a1c9db348d84476a34a2645749d1619", "is_reserved": 0, "fusion_lon": 0.0, "lat": 38.92316916666667, "is_disabled": 0, "name": "2a1c9db348d84476a34a2645749d1619", "fusion_lat": 0.0, "rental_uris": {"ios": "https://dc.lft.to/lastmile_qr_scan", "android": "https://dc.lft.to/lastmile_qr_scan"}, "lon": -77.029824, "type": "electric_scooter"}, {"bike_id": "b7acc2b6178ebccd2bae857d691b74a6", "is_reserved": 0, "fusion_lon": 0.0, "lat": 38.908621, "is_disabled": 0, "name": "b7acc2b6178ebccd2bae857d691b74a6", "fusion_lat": 0.0, "rental_uris": {"ios": "https://dc.lft.to/lastmile_qr_scan", "android": "https://dc.lft.to/lastmile_qr_scan"}, "lon": -77.02591683333333, "type": "electric_scooter"}, {"bike_id": "d3f1d41caa20a2a87fdaf246db89c7e5", "is_reserved": 0, "fusion_lon": 0.0, "lat": 38.907173666666665, "is_disabled": 0, "name": "d3f1d41caa20a2a87fdaf246db89c7e5", "fusion_lat": 0.0, "rental_uris": {"ios": "https://dc.lft.to/lastmile_qr_scan", "android": "https://dc.lft.to/lastmile_qr_scan"}, "lon": -76.99795833333333, "type": "electric_scooter"}, {"bike_id": "5570fd5f4363162c3a14948986154b76", "is_reserved": 0, "fusion_lon": 0.0, "lat": 38.920057, "is_disabled": 0, "name": "5570fd5f4363162c3a14948986154b76", "fusion_lat": 0.0, "rental_uris": {"ios": "https://dc.lft.to/lastmile_qr_scan", "android": "https://dc.lft.to/lastmile_qr_scan"}, "lon": -77.04176583333333, "type": "electric_scooter"}, {"bike_id": "6e7be250c20f1040bf4c5a5e285ade1e", "is_reserved": 0, "fusion_lon": 0.0, "lat": 38.90955266666667, "is_disabled": 0, "name": "6e7be250c20f1040bf4c5a5e285ade1e", "fusion_lat": 0.0, "rental_uris": {"ios": "https://dc.lft.to/lastmile_qr_scan", "android": "https://dc.lft.to/lastmile_qr_scan"}, "lon": -77.04830466666667, "type": "electric_scooter"}, {"bike_id": "0c87ac989fe6a23125077862907f870f", "is_reserved": 0, "fusion_lon": 0.0, "lat": 38.924630666666665, "is_disabled": 0, "name": "0c87ac989fe6a23125077862907f870f", "fusion_lat": 0.0, "rental_uris": {"ios": "https://dc.lft.to/lastmile_qr_scan", "android": "https://dc.lft.to/lastmile_qr_scan"}, "lon": -77.20840833333334, "type": "electric_bike"}, {"bike_id": "5344e56f95842a10a6217ed3cf7c4caf", "is_reserved": 0, "fusion_lon": 0.0, "lat": 38.880362166666664, "is_disabled": 0, "name": "5344e56f95842a10a6217ed3cf7c4caf", "fusion_lat": 0.0, "rental_uris": {"ios": "https://dc.lft.to/lastmile_qr_scan", "android": "https://dc.lft.to/lastmile_qr_scan"}, "lon": -76.92715416666667, "type": "electric_scooter"}, {"bike_id": "89ebca4b851ce9ee5c8d4382287dfa53", "is_reserved": 0, "fusion_lon": 0.0, "lat": 38.911438, "is_disabled": 0, "name": "89ebca4b851ce9ee5c8d4382287dfa53", "fusion_lat": 0.0, "rental_uris": {"ios": "https://dc.lft.to/lastmile_qr_scan", "android": "https://dc.lft.to/lastmile_qr_scan"}, "lon": -77.0416125, "type": "electric_scooter"}, {"bike_id": "e2847ebd7070959514cbc30322b925c9", "is_reserved": 0, "fusion_lon": 0.0, "lat": 38.9244185, "is_disabled": 0, "name": "e2847ebd7070959514cbc30322b925c9", "fusion_lat": 0.0, "rental_uris": {"ios": "https://dc.lft.to/lastmile_qr_scan", "android": "https://dc.lft.to/lastmile_qr_scan"}, "lon": -77.033624, "type": "electric_scooter"}, {"bike_id": "5d754bcc7a0bbd69546f34432e7091d5", "is_reserved": 0, "fusion_lon": 0.0, "lat": 38.892252166666665, "is_disabled": 0, "name": "5d754bcc7a0bbd69546f34432e7091d5", "fusion_lat": 0.0, "rental_uris": {"ios": "https://dc.lft.to/lastmile_qr_scan", "android": "https://dc.lft.to/lastmile_qr_scan"}, "lon": -77.03221866666667, "type": "electric_scooter"}, {"bike_id": "995c832161789592d25bf6305b085d04", "is_reserved": 0, "fusion_lon": 0.0, "lat": 38.90554483333333, "is_disabled": 0, "name": "995c832161789592d25bf6305b085d04", "fusion_lat": 0.0, "rental_uris": {"ios": "https://dc.lft.to/lastmile_qr_scan", "android": "https://dc.lft.to/lastmile_qr_scan"}, "lon": -77.00436583333334, "type": "electric_scooter"}, {"bike_id": "6067d38600f4d43cb64ab338e9448806", "is_reserved": 0, "fusion_lon": 0.0, "lat": 38.93420366666667, "is_disabled": 0, "name": "6067d38600f4d43cb64ab338e9448806", "fusion_lat": 0.0, "rental_uris": {"ios": "https://dc.lft.to/lastmile_qr_scan", "android": "https://dc.lft.to/lastmile_qr_scan"}, "lon": -77.03410966666667, "type": "electric_scooter"}, {"bike_id": "7b46bf794696f3d2f280a867b337b58a", "is_reserved": 0, "fusion_lon": 0.0, "lat": 38.92437183333333, "is_disabled": 0, "name": "7b46bf794696f3d2f280a867b337b58a", "fusion_lat": 0.0, "rental_uris": {"ios": "https://dc.lft.to/lastmile_qr_scan", "android": "https://dc.lft.to/lastmile_qr_scan"}, "lon": -77.03406283333334, "type": "electric_scooter"}, {"bike_id": "f36c4c4611ce0784083854b6f20a5f19", "is_reserved": 0, "fusion_lon": 0.0, "lat": 38.935964, "is_disabled": 0, "name": "f36c4c4611ce0784083854b6f20a5f19", "fusion_lat": 0.0, "rental_uris": {"ios": "https://dc.lft.to/lastmile_qr_scan", "android": "https://dc.lft.to/lastmile_qr_scan"}, "lon": -77.0233285, "type": "electric_scooter"}, {"bike_id": "e569aad622748b8e686f4651ff5e987d", "is_reserved": 0, "fusion_lon": 0.0, "lat": 38.88887716666667, "is_disabled": 0, "name": "e569aad622748b8e686f4651ff5e987d", "fusion_lat": 0.0, "rental_uris": {"ios": "https://dc.lft.to/lastmile_qr_scan", "android": "https://dc.lft.to/lastmile_qr_scan"}, "lon": -77.0332455, "type": "electric_bike"}, {"bike_id": "317f5dbfebb326479b62d2aaae9bb20c", "is_reserved": 0, "fusion_lon": 0.0, "lat": 38.959566, "is_disabled": 0, "name": "317f5dbfebb326479b62d2aaae9bb20c", "fusion_lat": 0.0, "rental_uris": {"ios": "https://dc.lft.to/lastmile_qr_scan", "android": "https://dc.lft.to/lastmile_qr_scan"}, "lon": -77.10089933333333, "type": "electric_bike"}, {"bike_id": "c92724ececeea5f45066546016e74c39", "is_reserved": 0, "fusion_lon": 0.0, "lat": 38.913523, "is_disabled": 0, "name": "c92724ececeea5f45066546016e74c39", "fusion_lat": 0.0, "rental_uris": {"ios": "https://dc.lft.to/lastmile_qr_scan", "android": "https://dc.lft.to/lastmile_qr_scan"}, "lon": -77.04652383333334, "type": "electric_scooter"}, {"bike_id": "3f167802cb39d09d0f1b332356ab4df3", "is_reserved": 0, "fusion_lon": 0.0, "lat": 38.903883, "is_disabled": 0, "name": "3f167802cb39d09d0f1b332356ab4df3", "fusion_lat": 0.0, "rental_uris": {"ios": "https://dc.lft.to/lastmile_qr_scan", "android": "https://dc.lft.to/lastmile_qr_scan"}, "lon": -77.04382583333333, "type": "electric_scooter"}, {"bike_id": "bf469ddc0369db91bf2860c2d89fd51f", "is_reserved": 0, "fusion_lon": 0.0, "lat": 38.876579, "is_disabled": 0, "name": "bf469ddc0369db91bf2860c2d89fd51f", "fusion_lat": 0.0, "rental_uris": {"ios": "https://dc.lft.to/lastmile_qr_scan", "android": "https://dc.lft.to/lastmile_qr_scan"}, "lon": -77.00064766666667, "type": "electric_scooter"}, {"bike_id": "bc062deb3675555a0fcb358bc3fb2f71", "is_reserved": 0, "fusion_lon": 0.0, "lat": 38.90384983333333, "is_disabled": 0, "name": "bc062deb3675555a0fcb358bc3fb2f71", "fusion_lat": 0.0, "rental_uris": {"ios": "https://dc.lft.to/lastmile_qr_scan", "android": "https://dc.lft.to/lastmile_qr_scan"}, "lon": -77.0419265, "type": "electric_scooter"}, {"bike_id": "81e817ac96f84ab4c3026f01d7af445c", "is_reserved": 0, "fusion_lon": 0.0, "lat": 38.91838516666667, "is_disabled": 0, "name": "81e817ac96f84ab4c3026f01d7af445c", "fusion_lat": 0.0, "rental_uris": {"ios": "https://dc.lft.to/lastmile_qr_scan", "android": "https://dc.lft.to/lastmile_qr_scan"}, "lon": -77.02306216666666, "type": "electric_scooter"}, {"bike_id": "c196d9a3b8badaf14411a039ba32e4f1", "is_reserved": 0, "fusion_lon": 0.0, "lat": 38.928223333333335, "is_disabled": 0, "name": "c196d9a3b8badaf14411a039ba32e4f1", "fusion_lat": 0.0, "rental_uris": {"ios": "https://dc.lft.to/lastmile_qr_scan", "android": "https://dc.lft.to/lastmile_qr_scan"}, "lon": -77.02257133333333, "type": "electric_scooter"}, {"bike_id": "748805dfe847ac031986cf802fd63b29", "is_reserved": 0, "fusion_lon": 0.0, "lat": 38.901687833333334, "is_disabled": 0, "name": "748805dfe847ac031986cf802fd63b29", "fusion_lat": 0.0, "rental_uris": {"ios": "https://dc.lft.to/lastmile_qr_scan", "android": "https://dc.lft.to/lastmile_qr_scan"}, "lon": -76.98070766666666, "type": "electric_scooter"}, {"bike_id": "f428945b7937017d119c5e6da61e251c", "is_reserved": 0, "fusion_lon": 0.0, "lat": 38.902698666666666, "is_disabled": 0, "name": "f428945b7937017d119c5e6da61e251c", "fusion_lat": 0.0, "rental_uris": {"ios": "https://dc.lft.to/lastmile_qr_scan", "android": "https://dc.lft.to/lastmile_qr_scan"}, "lon": -77.0298875, "type": "electric_scooter"}, {"bike_id": "d00e4208123cfc826f9c33225e718cc0", "is_reserved": 0, "fusion_lon": 0.0, "lat": 38.962029333333334, "is_disabled": 0, "name": "d00e4208123cfc826f9c33225e718cc0", "fusion_lat": 0.0, "rental_uris": {"ios": "https://dc.lft.to/lastmile_qr_scan", "android": "https://dc.lft.to/lastmile_qr_scan"}, "lon": -77.02230883333333, "type": "electric_bike"}, {"bike_id": "8ed255d0dd505beca2b6244e6c9eb56e", "is_reserved": 0, "fusion_lon": 0.0, "lat": 38.9285795, "is_disabled": 0, "name": "8ed255d0dd505beca2b6244e6c9eb56e", "fusion_lat": 0.0, "rental_uris": {"ios": "https://dc.lft.to/lastmile_qr_scan", "android": "https://dc.lft.to/lastmile_qr_scan"}, "lon": -77.01409783333334, "type": "electric_scooter"}, {"bike_id": "45a3a61c7692ac6abc56c04ca6c489a2", "is_reserved": 0, "fusion_lon": 0.0, "lat": 38.89717366666667, "is_disabled": 0, "name": "45a3a61c7692ac6abc56c04ca6c489a2", "fusion_lat": 0.0, "rental_uris": {"ios": "https://dc.lft.to/lastmile_qr_scan", "android": "https://dc.lft.to/lastmile_qr_scan"}, "lon": -77.02726866666667, "type": "electric_scooter"}, {"bike_id": "05066f42d5f23ee1d52fb80848b23805", "is_reserved": 0, "fusion_lon": 0.0, "lat": 38.90563566666667, "is_disabled": 0, "name": "05066f42d5f23ee1d52fb80848b23805", "fusion_lat": 0.0, "rental_uris": {"ios": "https://dc.lft.to/lastmile_qr_scan", "android": "https://dc.lft.to/lastmile_qr_scan"}, "lon": -77.03639583333333, "type": "electric_scooter"}, {"bike_id": "52166b10cc874d9ca37af67db3f0cf4f", "is_reserved": 0, "fusion_lon": 0.0, "lat": 38.88495916666667, "is_disabled": 0, "name": "52166b10cc874d9ca37af67db3f0cf4f", "fusion_lat": 0.0, "rental_uris": {"ios": "https://dc.lft.to/lastmile_qr_scan", "android": "https://dc.lft.to/lastmile_qr_scan"}, "lon": -77.00726816666666, "type": "electric_scooter"}, {"bike_id": "6e6e27dc52372a66758edbe49cd6a81d", "is_reserved": 0, "fusion_lon": 0.0, "lat": 38.9119835, "is_disabled": 0, "name": "6e6e27dc52372a66758edbe49cd6a81d", "fusion_lat": 0.0, "rental_uris": {"ios": "https://dc.lft.to/lastmile_qr_scan", "android": "https://dc.lft.to/lastmile_qr_scan"}, "lon": -77.07313033333334, "type": "electric_scooter"}, {"bike_id": "79c0960e523b9a18b96c03856139e323", "is_reserved": 0, "fusion_lon": 0.0, "lat": 38.91193466666667, "is_disabled": 0, "name": "79c0960e523b9a18b96c03856139e323", "fusion_lat": 0.0, "rental_uris": {"ios": "https://dc.lft.to/lastmile_qr_scan", "android": "https://dc.lft.to/lastmile_qr_scan"}, "lon": -77.060998, "type": "electric_scooter"}, {"bike_id": "68447a3e8c45e1e5fbba5a45053e7a33", "is_reserved": 0, "fusion_lon": 0.0, "lat": 38.91912766666667, "is_disabled": 0, "name": "68447a3e8c45e1e5fbba5a45053e7a33", "fusion_lat": 0.0, "rental_uris": {"ios": "https://dc.lft.to/lastmile_qr_scan", "android": "https://dc.lft.to/lastmile_qr_scan"}, "lon": -77.03429316666667, "type": "electric_scooter"}, {"bike_id": "eaf7afc6a5ff41926c58a2fede15321a", "is_reserved": 0, "fusion_lon": 0.0, "lat": 38.86352883333333, "is_disabled": 0, "name": "eaf7afc6a5ff41926c58a2fede15321a", "fusion_lat": 0.0, "rental_uris": {"ios": "https://dc.lft.to/lastmile_qr_scan", "android": "https://dc.lft.to/lastmile_qr_scan"}, "lon": -76.99067, "type": "electric_scooter"}, {"bike_id": "1d602504452843408e496e346b553d1a", "is_reserved": 0, "fusion_lon": 0.0, "lat": 38.9581695, "is_disabled": 0, "name": "1d602504452843408e496e346b553d1a", "fusion_lat": 0.0, "rental_uris": {"ios": "https://dc.lft.to/lastmile_qr_scan", "android": "https://dc.lft.to/lastmile_qr_scan"}, "lon": -77.01383566666667, "type": "electric_bike"}, {"bike_id": "3a91e42a431dea425a66ab09f11c004e", "is_reserved": 0, "fusion_lon": 0.0, "lat": 38.904543, "is_disabled": 0, "name": "3a91e42a431dea425a66ab09f11c004e", "fusion_lat": 0.0, "rental_uris": {"ios": "https://dc.lft.to/lastmile_qr_scan", "android": "https://dc.lft.to/lastmile_qr_scan"}, "lon": -77.05918583333333, "type": "electric_scooter"}, {"bike_id": "06825b4e8aa70dbf2c6119895eed56b8", "is_reserved": 0, "fusion_lon": 0.0, "lat": 38.86418466666667, "is_disabled": 0, "name": "06825b4e8aa70dbf2c6119895eed56b8", "fusion_lat": 0.0, "rental_uris": {"ios": "https://dc.lft.to/lastmile_qr_scan", "android": "https://dc.lft.to/lastmile_qr_scan"}, "lon": -77.013605, "type": "electric_scooter"}, {"bike_id": "877f1af30a95965f23a6003210b2c560", "is_reserved": 0, "fusion_lon": 0.0, "lat": 38.95733966666667, "is_disabled": 0, "name": "877f1af30a95965f23a6003210b2c560", "fusion_lat": 0.0, "rental_uris": {"ios": "https://dc.lft.to/lastmile_qr_scan", "android": "https://dc.lft.to/lastmile_qr_scan"}, "lon": -77.02420366666666, "type": "electric_scooter"}, {"bike_id": "f2417f85492858312a1f99d876f475c7", "is_reserved": 0, "fusion_lon": 0.0, "lat": 38.88430783333333, "is_disabled": 0, "name": "f2417f85492858312a1f99d876f475c7", "fusion_lat": 0.0, "rental_uris": {"ios": "https://dc.lft.to/lastmile_qr_scan", "android": "https://dc.lft.to/lastmile_qr_scan"}, "lon": -77.030391, "type": "electric_scooter"}, {"bike_id": "3896006cb11dde75924b1b304660b89a", "is_reserved": 0, "fusion_lon": 0.0, "lat": 38.9016635, "is_disabled": 0, "name": "3896006cb11dde75924b1b304660b89a", "fusion_lat": 0.0, "rental_uris": {"ios": "https://dc.lft.to/lastmile_qr_scan", "android": "https://dc.lft.to/lastmile_qr_scan"}, "lon": -77.00004066666666, "type": "electric_scooter"}, {"bike_id": "545f71d5018844b61ddb7e661e2cb3ad", "is_reserved": 0, "fusion_lon": 0.0, "lat": 38.91409816666667, "is_disabled": 0, "name": "545f71d5018844b61ddb7e661e2cb3ad", "fusion_lat": 0.0, "rental_uris": {"ios": "https://dc.lft.to/lastmile_qr_scan", "android": "https://dc.lft.to/lastmile_qr_scan"}, "lon": -77.03813716666667, "type": "electric_scooter"}, {"bike_id": "5de6ee8a051f54a7a7a7fca6193d44e3", "is_reserved": 0, "fusion_lon": 0.0, "lat": 38.907808833333334, "is_disabled": 0, "name": "5de6ee8a051f54a7a7a7fca6193d44e3", "fusion_lat": 0.0, "rental_uris": {"ios": "https://dc.lft.to/lastmile_qr_scan", "android": "https://dc.lft.to/lastmile_qr_scan"}, "lon": -77.03672133333333, "type": "electric_scooter"}, {"bike_id": "ecdb128f60e55cf0c51802ed580e59d3", "is_reserved": 0, "fusion_lon": 0.0, "lat": 38.91661416666667, "is_disabled": 0, "name": "ecdb128f60e55cf0c51802ed580e59d3", "fusion_lat": 0.0, "rental_uris": {"ios": "https://dc.lft.to/lastmile_qr_scan", "android": "https://dc.lft.to/lastmile_qr_scan"}, "lon": -77.02712233333334, "type": "electric_scooter"}, {"bike_id": "6102546fcaa303215b3827f5f2afc394", "is_reserved": 0, "fusion_lon": 0.0, "lat": 38.98506483333333, "is_disabled": 0, "name": "6102546fcaa303215b3827f5f2afc394", "fusion_lat": 0.0, "rental_uris": {"ios": "https://dc.lft.to/lastmile_qr_scan", "android": "https://dc.lft.to/lastmile_qr_scan"}, "lon": -76.98211366666666, "type": "electric_bike"}, {"bike_id": "5372bedb3e8bc2fa80ef66398ad92f2b", "is_reserved": 0, "fusion_lon": 0.0, "lat": 38.8227195, "is_disabled": 0, "name": "5372bedb3e8bc2fa80ef66398ad92f2b", "fusion_lat": 0.0, "rental_uris": {"ios": "https://dc.lft.to/lastmile_qr_scan", "android": "https://dc.lft.to/lastmile_qr_scan"}, "lon": -77.05806416666667, "type": "electric_bike"}, {"bike_id": "f90b5b0849dbea418b4fb259b84a7637", "is_reserved": 0, "fusion_lon": 0.0, "lat": 38.9037045, "is_disabled": 0, "name": "f90b5b0849dbea418b4fb259b84a7637", "fusion_lat": 0.0, "rental_uris": {"ios": "https://dc.lft.to/lastmile_qr_scan", "android": "https://dc.lft.to/lastmile_qr_scan"}, "lon": -77.02216666666666, "type": "electric_scooter"}, {"bike_id": "dfbae2e8ef9fcf6d644831744edd8b1c", "is_reserved": 0, "fusion_lon": 0.0, "lat": 38.911092, "is_disabled": 0, "name": "dfbae2e8ef9fcf6d644831744edd8b1c", "fusion_lat": 0.0, "rental_uris": {"ios": "https://dc.lft.to/lastmile_qr_scan", "android": "https://dc.lft.to/lastmile_qr_scan"}, "lon": -77.03732133333334, "type": "electric_scooter"}, {"bike_id": "51c2a23c3b2cd131e73c03191a6ed5fa", "is_reserved": 0, "fusion_lon": 0.0, "lat": 38.93236066666667, "is_disabled": 0, "name": "51c2a23c3b2cd131e73c03191a6ed5fa", "fusion_lat": 0.0, "rental_uris": {"ios": "https://dc.lft.to/lastmile_qr_scan", "android": "https://dc.lft.to/lastmile_qr_scan"}, "lon": -77.03831033333333, "type": "electric_scooter"}, {"bike_id": "1a9ad5a3c838540bd61a785d4a5edf1f", "is_reserved": 0, "fusion_lon": 0.0, "lat": 38.90259066666667, "is_disabled": 0, "name": "1a9ad5a3c838540bd61a785d4a5edf1f", "fusion_lat": 0.0, "rental_uris": {"ios": "https://dc.lft.to/lastmile_qr_scan", "android": "https://dc.lft.to/lastmile_qr_scan"}, "lon": -77.03951583333334, "type": "electric_scooter"}, {"bike_id": "897f157c4713520fe0b4e363f0a1aca7", "is_reserved": 0, "fusion_lon": 0.0, "lat": 38.900597, "is_disabled": 0, "name": "897f157c4713520fe0b4e363f0a1aca7", "fusion_lat": 0.0, "rental_uris": {"ios": "https://dc.lft.to/lastmile_qr_scan", "android": "https://dc.lft.to/lastmile_qr_scan"}, "lon": -76.98713533333333, "type": "electric_scooter"}, {"bike_id": "446f6981a5c007cc2bdb7914db6d1b64", "is_reserved": 0, "fusion_lon": 0.0, "lat": 38.893872333333334, "is_disabled": 0, "name": "446f6981a5c007cc2bdb7914db6d1b64", "fusion_lat": 0.0, "rental_uris": {"ios": "https://dc.lft.to/lastmile_qr_scan", "android": "https://dc.lft.to/lastmile_qr_scan"}, "lon": -77.005994, "type": "electric_scooter"}, {"bike_id": "086b37ce628da6c1576563c8d6c3f7c8", "is_reserved": 0, "fusion_lon": 0.0, "lat": 38.8698905, "is_disabled": 0, "name": "086b37ce628da6c1576563c8d6c3f7c8", "fusion_lat": 0.0, "rental_uris": {"ios": "https://dc.lft.to/lastmile_qr_scan", "android": "https://dc.lft.to/lastmile_qr_scan"}, "lon": -76.95986483333333, "type": "electric_bike"}, {"bike_id": "edfe1dc86da0d95767285b6c693d90d7", "is_reserved": 0, "fusion_lon": 0.0, "lat": 38.8624085, "is_disabled": 0, "name": "edfe1dc86da0d95767285b6c693d90d7", "fusion_lat": 0.0, "rental_uris": {"ios": "https://dc.lft.to/lastmile_qr_scan", "android": "https://dc.lft.to/lastmile_qr_scan"}, "lon": -76.99493266666667, "type": "electric_scooter"}, {"bike_id": "c765d628512bb6a2d5b0905fc45d2967", "is_reserved": 0, "fusion_lon": 0.0, "lat": 38.90028433333333, "is_disabled": 0, "name": "c765d628512bb6a2d5b0905fc45d2967", "fusion_lat": 0.0, "rental_uris": {"ios": "https://dc.lft.to/lastmile_qr_scan", "android": "https://dc.lft.to/lastmile_qr_scan"}, "lon": -76.98798166666667, "type": "electric_scooter"}, {"bike_id": "3a53cfc6dfc9a094a6b3f75712964047", "is_reserved": 0, "fusion_lon": 0.0, "lat": 38.9096715, "is_disabled": 0, "name": "3a53cfc6dfc9a094a6b3f75712964047", "fusion_lat": 0.0, "rental_uris": {"ios": "https://dc.lft.to/lastmile_qr_scan", "android": "https://dc.lft.to/lastmile_qr_scan"}, "lon": -77.02722916666667, "type": "electric_scooter"}, {"bike_id": "91b4b0ceaa27c7ebb7455a39498c30a9", "is_reserved": 0, "fusion_lon": 0.0, "lat": 38.96760366666667, "is_disabled": 0, "name": "91b4b0ceaa27c7ebb7455a39498c30a9", "fusion_lat": 0.0, "rental_uris": {"ios": "https://dc.lft.to/lastmile_qr_scan", "android": "https://dc.lft.to/lastmile_qr_scan"}, "lon": -77.09162233333333, "type": "electric_bike"}, {"bike_id": "8601e958725842215c4ee5c2b4f225d8", "is_reserved": 0, "fusion_lon": 0.0, "lat": 38.900146, "is_disabled": 0, "name": "8601e958725842215c4ee5c2b4f225d8", "fusion_lat": 0.0, "rental_uris": {"ios": "https://dc.lft.to/lastmile_qr_scan", "android": "https://dc.lft.to/lastmile_qr_scan"}, "lon": -77.043902, "type": "electric_scooter"}, {"bike_id": "39f4f96bba44a41bd5148abc0c1e23d3", "is_reserved": 0, "fusion_lon": 0.0, "lat": 38.925811, "is_disabled": 0, "name": "39f4f96bba44a41bd5148abc0c1e23d3", "fusion_lat": 0.0, "rental_uris": {"ios": "https://dc.lft.to/lastmile_qr_scan", "android": "https://dc.lft.to/lastmile_qr_scan"}, "lon": -77.0046355, "type": "electric_scooter"}, {"bike_id": "e8a48b353e35ae608b2c24a3c7126957", "is_reserved": 0, "fusion_lon": 0.0, "lat": 38.892232666666665, "is_disabled": 0, "name": "e8a48b353e35ae608b2c24a3c7126957", "fusion_lat": 0.0, "rental_uris": {"ios": "https://dc.lft.to/lastmile_qr_scan", "android": "https://dc.lft.to/lastmile_qr_scan"}, "lon": -77.033395, "type": "electric_scooter"}, {"bike_id": "12d40f6b895a8141cef1cdceb039551b", "is_reserved": 0, "fusion_lon": 0.0, "lat": 38.90233666666666, "is_disabled": 0, "name": "12d40f6b895a8141cef1cdceb039551b", "fusion_lat": 0.0, "rental_uris": {"ios": "https://dc.lft.to/lastmile_qr_scan", "android": "https://dc.lft.to/lastmile_qr_scan"}, "lon": -76.974076, "type": "electric_scooter"}, {"bike_id": "9a39e5c5af8bf15431d6e66d43193a32", "is_reserved": 0, "fusion_lon": 0.0, "lat": 38.9158845, "is_disabled": 0, "name": "9a39e5c5af8bf15431d6e66d43193a32", "fusion_lat": 0.0, "rental_uris": {"ios": "https://dc.lft.to/lastmile_qr_scan", "android": "https://dc.lft.to/lastmile_qr_scan"}, "lon": -77.04161583333334, "type": "electric_scooter"}, {"bike_id": "e8da20f98136a3cb995c4b060cf26ede", "is_reserved": 0, "fusion_lon": 0.0, "lat": 38.93754366666667, "is_disabled": 0, "name": "e8da20f98136a3cb995c4b060cf26ede", "fusion_lat": 0.0, "rental_uris": {"ios": "https://dc.lft.to/lastmile_qr_scan", "android": "https://dc.lft.to/lastmile_qr_scan"}, "lon": -77.03573366666667, "type": "electric_scooter"}, {"bike_id": "5028adf770423966b61205f1a0d66796", "is_reserved": 0, "fusion_lon": 0.0, "lat": 38.90328, "is_disabled": 0, "name": "5028adf770423966b61205f1a0d66796", "fusion_lat": 0.0, "rental_uris": {"ios": "https://dc.lft.to/lastmile_qr_scan", "android": "https://dc.lft.to/lastmile_qr_scan"}, "lon": -76.975349, "type": "electric_bike"}, {"bike_id": "3f4c0a4e60f6b174ebbb8b862a2e6990", "is_reserved": 0, "fusion_lon": 0.0, "lat": 38.917245, "is_disabled": 0, "name": "3f4c0a4e60f6b174ebbb8b862a2e6990", "fusion_lat": 0.0, "rental_uris": {"ios": "https://dc.lft.to/lastmile_qr_scan", "android": "https://dc.lft.to/lastmile_qr_scan"}, "lon": -77.03657233333334, "type": "electric_scooter"}, {"bike_id": "6fa03bd94bef23cb04a0c0a124f46278", "is_reserved": 0, "fusion_lon": 0.0, "lat": 38.9057085, "is_disabled": 0, "name": "6fa03bd94bef23cb04a0c0a124f46278", "fusion_lat": 0.0, "rental_uris": {"ios": "https://dc.lft.to/lastmile_qr_scan", "android": "https://dc.lft.to/lastmile_qr_scan"}, "lon": -77.01509766666666, "type": "electric_scooter"}, {"bike_id": "8f2be769ec85b842315d6654b67d987c", "is_reserved": 0, "fusion_lon": 0.0, "lat": 38.86163, "is_disabled": 0, "name": "8f2be769ec85b842315d6654b67d987c", "fusion_lat": 0.0, "rental_uris": {"ios": "https://dc.lft.to/lastmile_qr_scan", "android": "https://dc.lft.to/lastmile_qr_scan"}, "lon": -77.13094016666666, "type": "electric_bike"}, {"bike_id": "9ef65714fb7bb07b87de66223176e7df", "is_reserved": 0, "fusion_lon": 0.0, "lat": 38.904736666666665, "is_disabled": 0, "name": "9ef65714fb7bb07b87de66223176e7df", "fusion_lat": 0.0, "rental_uris": {"ios": "https://dc.lft.to/lastmile_qr_scan", "android": "https://dc.lft.to/lastmile_qr_scan"}, "lon": -77.0295455, "type": "electric_scooter"}, {"bike_id": "0d2eac8a0f32d4d7ff85ab98217d29c2", "is_reserved": 0, "fusion_lon": 0.0, "lat": 38.90806766666667, "is_disabled": 0, "name": "0d2eac8a0f32d4d7ff85ab98217d29c2", "fusion_lat": 0.0, "rental_uris": {"ios": "https://dc.lft.to/lastmile_qr_scan", "android": "https://dc.lft.to/lastmile_qr_scan"}, "lon": -77.03435416666666, "type": "electric_scooter"}, {"bike_id": "67bcca250f1fa98ce8b8f137e464cff6", "is_reserved": 0, "fusion_lon": 0.0, "lat": 38.909559, "is_disabled": 0, "name": "67bcca250f1fa98ce8b8f137e464cff6", "fusion_lat": 0.0, "rental_uris": {"ios": "https://dc.lft.to/lastmile_qr_scan", "android": "https://dc.lft.to/lastmile_qr_scan"}, "lon": -76.98471666666667, "type": "electric_scooter"}, {"bike_id": "f32fda883451e307fe743fd651e0c81d", "is_reserved": 0, "fusion_lon": 0.0, "lat": 38.903995, "is_disabled": 0, "name": "f32fda883451e307fe743fd651e0c81d", "fusion_lat": 0.0, "rental_uris": {"ios": "https://dc.lft.to/lastmile_qr_scan", "android": "https://dc.lft.to/lastmile_qr_scan"}, "lon": -77.02487466666666, "type": "electric_scooter"}, {"bike_id": "b8748455c973f65f16048e95ba22009a", "is_reserved": 0, "fusion_lon": 0.0, "lat": 38.90394916666666, "is_disabled": 0, "name": "b8748455c973f65f16048e95ba22009a", "fusion_lat": 0.0, "rental_uris": {"ios": "https://dc.lft.to/lastmile_qr_scan", "android": "https://dc.lft.to/lastmile_qr_scan"}, "lon": -77.0421045, "type": "electric_scooter"}, {"bike_id": "67c081e1782bcb2dba591b5b61add0d2", "is_reserved": 0, "fusion_lon": 0.0, "lat": 38.904004666666665, "is_disabled": 0, "name": "67c081e1782bcb2dba591b5b61add0d2", "fusion_lat": 0.0, "rental_uris": {"ios": "https://dc.lft.to/lastmile_qr_scan", "android": "https://dc.lft.to/lastmile_qr_scan"}, "lon": -77.01767983333333, "type": "electric_scooter"}, {"bike_id": "71f33a2e381c2a9dd527b36937191e16", "is_reserved": 0, "fusion_lon": 0.0, "lat": 38.899105, "is_disabled": 0, "name": "71f33a2e381c2a9dd527b36937191e16", "fusion_lat": 0.0, "rental_uris": {"ios": "https://dc.lft.to/lastmile_qr_scan", "android": "https://dc.lft.to/lastmile_qr_scan"}, "lon": -76.93351216666667, "type": "electric_scooter"}, {"bike_id": "f8ae84af0b928290407237c84e6e1f43", "is_reserved": 0, "fusion_lon": 0.0, "lat": 38.9037375, "is_disabled": 0, "name": "f8ae84af0b928290407237c84e6e1f43", "fusion_lat": 0.0, "rental_uris": {"ios": "https://dc.lft.to/lastmile_qr_scan", "android": "https://dc.lft.to/lastmile_qr_scan"}, "lon": -76.985073, "type": "electric_scooter"}, {"bike_id": "b404f0b977ec97835f64e24a75b76eaa", "is_reserved": 0, "fusion_lon": 0.0, "lat": 38.940136333333335, "is_disabled": 0, "name": "b404f0b977ec97835f64e24a75b76eaa", "fusion_lat": 0.0, "rental_uris": {"ios": "https://dc.lft.to/lastmile_qr_scan", "android": "https://dc.lft.to/lastmile_qr_scan"}, "lon": -77.07168266666666, "type": "electric_scooter"}, {"bike_id": "712dc4559c228b6fd0b72415ecd05d20", "is_reserved": 0, "fusion_lon": 0.0, "lat": 38.90564616666666, "is_disabled": 0, "name": "712dc4559c228b6fd0b72415ecd05d20", "fusion_lat": 0.0, "rental_uris": {"ios": "https://dc.lft.to/lastmile_qr_scan", "android": "https://dc.lft.to/lastmile_qr_scan"}, "lon": -76.98137466666667, "type": "electric_scooter"}, {"bike_id": "b3dfdc7a118cdac23e5a6d7b1b15c247", "is_reserved": 0, "fusion_lon": 0.0, "lat": 38.887454166666664, "is_disabled": 0, "name": "b3dfdc7a118cdac23e5a6d7b1b15c247", "fusion_lat": 0.0, "rental_uris": {"ios": "https://dc.lft.to/lastmile_qr_scan", "android": "https://dc.lft.to/lastmile_qr_scan"}, "lon": -77.028652, "type": "electric_scooter"}, {"bike_id": "c0311cdf593dc13ee566bbf2dbae7490", "is_reserved": 0, "fusion_lon": 0.0, "lat": 38.90408866666667, "is_disabled": 0, "name": "c0311cdf593dc13ee566bbf2dbae7490", "fusion_lat": 0.0, "rental_uris": {"ios": "https://dc.lft.to/lastmile_qr_scan", "android": "https://dc.lft.to/lastmile_qr_scan"}, "lon": -76.973285, "type": "electric_scooter"}, {"bike_id": "01088e1c82348ba9214c4c20300f1de3", "is_reserved": 0, "fusion_lon": 0.0, "lat": 38.87171333333333, "is_disabled": 0, "name": "01088e1c82348ba9214c4c20300f1de3", "fusion_lat": 0.0, "rental_uris": {"ios": "https://dc.lft.to/lastmile_qr_scan", "android": "https://dc.lft.to/lastmile_qr_scan"}, "lon": -77.00626866666667, "type": "electric_scooter"}, {"bike_id": "b820016456e8c542ec34ad12129d026d", "is_reserved": 0, "fusion_lon": 0.0, "lat": 38.92013633333333, "is_disabled": 0, "name": "b820016456e8c542ec34ad12129d026d", "fusion_lat": 0.0, "rental_uris": {"ios": "https://dc.lft.to/lastmile_qr_scan", "android": "https://dc.lft.to/lastmile_qr_scan"}, "lon": -77.03867116666666, "type": "electric_scooter"}, {"bike_id": "a75aecbccb8ab5df5dc0fcc7b20113aa", "is_reserved": 0, "fusion_lon": 0.0, "lat": 38.8922125, "is_disabled": 0, "name": "a75aecbccb8ab5df5dc0fcc7b20113aa", "fusion_lat": 0.0, "rental_uris": {"ios": "https://dc.lft.to/lastmile_qr_scan", "android": "https://dc.lft.to/lastmile_qr_scan"}, "lon": -77.0485975, "type": "electric_scooter"}, {"bike_id": "ce8247a223665c35c0a3c8b9f5f46c40", "is_reserved": 0, "fusion_lon": 0.0, "lat": 38.892242833333334, "is_disabled": 0, "name": "ce8247a223665c35c0a3c8b9f5f46c40", "fusion_lat": 0.0, "rental_uris": {"ios": "https://dc.lft.to/lastmile_qr_scan", "android": "https://dc.lft.to/lastmile_qr_scan"}, "lon": -77.03981566666667, "type": "electric_scooter"}, {"bike_id": "4bf499d61a2d4fe9ea827b6feb26cf13", "is_reserved": 0, "fusion_lon": 0.0, "lat": 38.877425333333335, "is_disabled": 0, "name": "4bf499d61a2d4fe9ea827b6feb26cf13", "fusion_lat": 0.0, "rental_uris": {"ios": "https://dc.lft.to/lastmile_qr_scan", "android": "https://dc.lft.to/lastmile_qr_scan"}, "lon": -76.9805995, "type": "electric_bike"}, {"bike_id": "fad1d89aef98026575117451f909de41", "is_reserved": 0, "fusion_lon": 0.0, "lat": 38.885917166666665, "is_disabled": 0, "name": "fad1d89aef98026575117451f909de41", "fusion_lat": 0.0, "rental_uris": {"ios": "https://dc.lft.to/lastmile_qr_scan", "android": "https://dc.lft.to/lastmile_qr_scan"}, "lon": -77.005681, "type": "electric_scooter"}, {"bike_id": "db3bca028b8397025fe9c44825c34278", "is_reserved": 0, "fusion_lon": 0.0, "lat": 38.810523333333336, "is_disabled": 0, "name": "db3bca028b8397025fe9c44825c34278", "fusion_lat": 0.0, "rental_uris": {"ios": "https://dc.lft.to/lastmile_qr_scan", "android": "https://dc.lft.to/lastmile_qr_scan"}, "lon": -77.0850935, "type": "electric_bike"}, {"bike_id": "88d7882615c7f17c878ec7fde7acf84e", "is_reserved": 0, "fusion_lon": 0.0, "lat": 38.85426016666667, "is_disabled": 0, "name": "88d7882615c7f17c878ec7fde7acf84e", "fusion_lat": 0.0, "rental_uris": {"ios": "https://dc.lft.to/lastmile_qr_scan", "android": "https://dc.lft.to/lastmile_qr_scan"}, "lon": -76.9096895, "type": "electric_bike"}, {"bike_id": "a7516c78998f102206a74aea46f1e3c3", "is_reserved": 0, "fusion_lon": 0.0, "lat": 38.897972833333334, "is_disabled": 0, "name": "a7516c78998f102206a74aea46f1e3c3", "fusion_lat": 0.0, "rental_uris": {"ios": "https://dc.lft.to/lastmile_qr_scan", "android": "https://dc.lft.to/lastmile_qr_scan"}, "lon": -76.99160783333333, "type": "electric_scooter"}, {"bike_id": "b12a2864647543cad800b970690f3f5c", "is_reserved": 0, "fusion_lon": 0.0, "lat": 38.84426833333333, "is_disabled": 0, "name": "b12a2864647543cad800b970690f3f5c", "fusion_lat": 0.0, "rental_uris": {"ios": "https://dc.lft.to/lastmile_qr_scan", "android": "https://dc.lft.to/lastmile_qr_scan"}, "lon": -76.99775266666667, "type": "electric_scooter"}, {"bike_id": "7f92ad2601337cf24a75f2e9e17583a0", "is_reserved": 0, "fusion_lon": 0.0, "lat": 38.914470333333334, "is_disabled": 0, "name": "7f92ad2601337cf24a75f2e9e17583a0", "fusion_lat": 0.0, "rental_uris": {"ios": "https://dc.lft.to/lastmile_qr_scan", "android": "https://dc.lft.to/lastmile_qr_scan"}, "lon": -77.03466383333334, "type": "electric_scooter"}, {"bike_id": "8c57a7a9727bd267614bdf0328958b1a", "is_reserved": 0, "fusion_lon": 0.0, "lat": 38.934892833333336, "is_disabled": 0, "name": "8c57a7a9727bd267614bdf0328958b1a", "fusion_lat": 0.0, "rental_uris": {"ios": "https://dc.lft.to/lastmile_qr_scan", "android": "https://dc.lft.to/lastmile_qr_scan"}, "lon": -77.02843333333334, "type": "electric_scooter"}, {"bike_id": "f23faa648784a0dcd218088f2ddaf1ba", "is_reserved": 0, "fusion_lon": 0.0, "lat": 38.91189466666667, "is_disabled": 0, "name": "f23faa648784a0dcd218088f2ddaf1ba", "fusion_lat": 0.0, "rental_uris": {"ios": "https://dc.lft.to/lastmile_qr_scan", "android": "https://dc.lft.to/lastmile_qr_scan"}, "lon": -77.06091566666667, "type": "electric_scooter"}, {"bike_id": "d320661e11333315874c7067ff76c181", "is_reserved": 0, "fusion_lon": 0.0, "lat": 38.90337566666667, "is_disabled": 0, "name": "d320661e11333315874c7067ff76c181", "fusion_lat": 0.0, "rental_uris": {"ios": "https://dc.lft.to/lastmile_qr_scan", "android": "https://dc.lft.to/lastmile_qr_scan"}, "lon": -77.03329166666667, "type": "electric_scooter"}, {"bike_id": "fb70b9690846b18ae770994aec69b40c", "is_reserved": 0, "fusion_lon": 0.0, "lat": 38.91188433333333, "is_disabled": 0, "name": "fb70b9690846b18ae770994aec69b40c", "fusion_lat": 0.0, "rental_uris": {"ios": "https://dc.lft.to/lastmile_qr_scan", "android": "https://dc.lft.to/lastmile_qr_scan"}, "lon": -77.04536716666667, "type": "electric_scooter"}, {"bike_id": "83382a3c04a830dead2254836e134e6d", "is_reserved": 0, "fusion_lon": 0.0, "lat": 38.94601816666667, "is_disabled": 0, "name": "83382a3c04a830dead2254836e134e6d", "fusion_lat": 0.0, "rental_uris": {"ios": "https://dc.lft.to/lastmile_qr_scan", "android": "https://dc.lft.to/lastmile_qr_scan"}, "lon": -77.02976483333333, "type": "electric_scooter"}, {"bike_id": "aa632080879a84897abe9723c9734283", "is_reserved": 0, "fusion_lon": 0.0, "lat": 38.883456, "is_disabled": 0, "name": "aa632080879a84897abe9723c9734283", "fusion_lat": 0.0, "rental_uris": {"ios": "https://dc.lft.to/lastmile_qr_scan", "android": "https://dc.lft.to/lastmile_qr_scan"}, "lon": -76.98538133333334, "type": "electric_scooter"}, {"bike_id": "59e8668cc7e48d8352bc561ddb5748f0", "is_reserved": 0, "fusion_lon": 0.0, "lat": 38.928412, "is_disabled": 0, "name": "59e8668cc7e48d8352bc561ddb5748f0", "fusion_lat": 0.0, "rental_uris": {"ios": "https://dc.lft.to/lastmile_qr_scan", "android": "https://dc.lft.to/lastmile_qr_scan"}, "lon": -77.03260116666667, "type": "electric_scooter"}, {"bike_id": "3881456b21513c037e406af7a4cdc561", "is_reserved": 0, "fusion_lon": 0.0, "lat": 38.93269016666667, "is_disabled": 0, "name": "3881456b21513c037e406af7a4cdc561", "fusion_lat": 0.0, "rental_uris": {"ios": "https://dc.lft.to/lastmile_qr_scan", "android": "https://dc.lft.to/lastmile_qr_scan"}, "lon": -77.03633966666666, "type": "electric_scooter"}, {"bike_id": "7f37eb2e8e71ff2bbf524764867bf79f", "is_reserved": 0, "fusion_lon": 0.0, "lat": 38.912559333333334, "is_disabled": 0, "name": "7f37eb2e8e71ff2bbf524764867bf79f", "fusion_lat": 0.0, "rental_uris": {"ios": "https://dc.lft.to/lastmile_qr_scan", "android": "https://dc.lft.to/lastmile_qr_scan"}, "lon": -77.03627583333333, "type": "electric_scooter"}, {"bike_id": "37d7a375382d5e18be98ee8408717698", "is_reserved": 0, "fusion_lon": 0.0, "lat": 38.909731, "is_disabled": 0, "name": "37d7a375382d5e18be98ee8408717698", "fusion_lat": 0.0, "rental_uris": {"ios": "https://dc.lft.to/lastmile_qr_scan", "android": "https://dc.lft.to/lastmile_qr_scan"}, "lon": -77.03863166666666, "type": "electric_scooter"}, {"bike_id": "f300bf8f4fa6297b65dde0b175e4fdc9", "is_reserved": 0, "fusion_lon": 0.0, "lat": 38.906005666666665, "is_disabled": 0, "name": "f300bf8f4fa6297b65dde0b175e4fdc9", "fusion_lat": 0.0, "rental_uris": {"ios": "https://dc.lft.to/lastmile_qr_scan", "android": "https://dc.lft.to/lastmile_qr_scan"}, "lon": -77.05121616666666, "type": "electric_scooter"}, {"bike_id": "95e663ae55a722d167d41a060675b821", "is_reserved": 0, "fusion_lon": 0.0, "lat": 38.900508, "is_disabled": 0, "name": "95e663ae55a722d167d41a060675b821", "fusion_lat": 0.0, "rental_uris": {"ios": "https://dc.lft.to/lastmile_qr_scan", "android": "https://dc.lft.to/lastmile_qr_scan"}, "lon": -77.00210066666666, "type": "electric_scooter"}, {"bike_id": "b84e24f508a4c37e8f4bb2ec8341ac14", "is_reserved": 0, "fusion_lon": 0.0, "lat": 38.879183833333336, "is_disabled": 0, "name": "b84e24f508a4c37e8f4bb2ec8341ac14", "fusion_lat": 0.0, "rental_uris": {"ios": "https://dc.lft.to/lastmile_qr_scan", "android": "https://dc.lft.to/lastmile_qr_scan"}, "lon": -77.01341433333333, "type": "electric_scooter"}, {"bike_id": "fc4d56dd1f8c8f7bd7e42c313f028a22", "is_reserved": 0, "fusion_lon": 0.0, "lat": 38.885045, "is_disabled": 0, "name": "fc4d56dd1f8c8f7bd7e42c313f028a22", "fusion_lat": 0.0, "rental_uris": {"ios": "https://dc.lft.to/lastmile_qr_scan", "android": "https://dc.lft.to/lastmile_qr_scan"}, "lon": -77.0056615, "type": "electric_scooter"}, {"bike_id": "e4ded9dd3e7eb9b0897bb35976afec01", "is_reserved": 0, "fusion_lon": 0.0, "lat": 38.911573, "is_disabled": 0, "name": "e4ded9dd3e7eb9b0897bb35976afec01", "fusion_lat": 0.0, "rental_uris": {"ios": "https://dc.lft.to/lastmile_qr_scan", "android": "https://dc.lft.to/lastmile_qr_scan"}, "lon": -77.00298483333333, "type": "electric_bike"},