{"data": {"bikes": [{"bike_id": "17065370e2acdf9a528d072bf45e3d87", "type": "electric_scooter", "is_disabled": 0, "lat": 38.923087333333335, "rental_uris": {"ios": "https://dc.lft.to/lastmile_qr_scan", "android": "https://dc.lft.to/lastmile_qr_scan"}, "is_reserved": 0, "fusion_lon": 0.0, "fusion_lat": 0.0, "lon": -77.01968983333333, "name": "17065370e2acdf9a528d072bf45e3d87"}, {"bike_id": "1d8ebf3b4995942d5fa6f7d5953fe0fa", "type": "electric_scooter", "is_disabled": 0, "lat": 38.92151883333333, "rental_uris": {"ios": "https://dc.lft.to/lastmile_qr_scan", "android": "https://dc.lft.to/lastmile_qr_scan"}, "is_reserved": 0, "fusion_lon": 0.0, "fusion_lat": 0.0, "lon": -77.03531833333334, "name": "1d8ebf3b4995942d5fa6f7d5953fe0fa"}, {"bike_id": "ee129125fc08f4a16b598374c1957486", "type": "electric_scooter", "is_disabled": 0, "lat": 38.92854883333333, "rental_uris": {"ios": "https://dc.lft.to/lastmile_qr_scan", "android": "https://dc.lft.to/lastmile_qr_scan"}, "is_reserved": 0, "fusion_lon": 0.0, "fusion_lat": 0.0, "lon": -77.01950766666667, "name": "ee129125fc08f4a16b598374c1957486"}, {"bike_id": "bac79ce02720a4c94f366c978b74d19e", "type": "electric_scooter", "is_disabled": 0, "lat": 38.920959833333335, "rental_uris": {"ios": "https://dc.lft.to/lastmile_qr_scan", "android": "https://dc.lft.to/lastmile_qr_scan"}, "is_reserved": 0, "fusion_lon": 0.0, "fusion_lat": 0.0, "lon": -77.02531366666666, "name": "bac79ce02720a4c94f366c978b74d19e"}, {"bike_id": "060e236291167c6e48b4f567d0a1bf15", "type": "electric_scooter", "is_disabled": 0, "lat": 38.906874, "rental_uris": {"ios": "https://dc.lft.to/lastmile_qr_scan", "android": "https://dc.lft.to/lastmile_qr_scan"}, "is_reserved": 0, "fusion_lon": 0.0, "fusion_lat": 0.0, "lon": -77.05344533333333, "name": "060e236291167c6e48b4f567d0a1bf15"}, {"bike_id": "37bc92d29c1241a89ed2020195f939a0", "type": "electric_scooter", "is_disabled": 0, "lat": 38.956656, "rental_uris": {"ios": "https://dc.lft.to/lastmile_qr_scan", "android": "https://dc.lft.to/lastmile_qr_scan"}, "is_reserved": 0, "fusion_lon": 0.0, "fusion_lat": 0.0, "lon": -77.01029766666667, "name": "37bc92d29c1241a89ed2020195f939a0"}, {"bike_id": "cd61bdad1f7913e9c2fc16519c2966e9", "type": "electric_scooter", "is_disabled": 0, "lat": 38.911193833333336, "rental_uris": {"ios": "https://dc.lft.to/lastmile_qr_scan", "android": "https://dc.lft.to/lastmile_qr_scan"}, "is_reserved": 0, "fusion_lon": 0.0, "fusion_lat": 0.0, "lon": -77.02238066666666, "name": "cd61bdad1f7913e9c2fc16519c2966e9"}, {"bike_id": "e889551a4e2ad13c5469e3d9e1871637", "type": "electric_scooter", "is_disabled": 0, "lat": 38.905527, "rental_uris": {"ios": "https://dc.lft.to/lastmile_qr_scan", "android": "https://dc.lft.to/lastmile_qr_scan"}, "is_reserved": 0, "fusion_lon": 0.0, "fusion_lat": 0.0, "lon": -76.98854966666667, "name": "e889551a4e2ad13c5469e3d9e1871637"}, {"bike_id": "86d9dbb876e297e134a16d92da7d466f", "type": "electric_bike", "is_disabled": 0, "lat": 38.834311166666666, "rental_uris": {"ios": "https://dc.lft.to/lastmile_qr_scan", "android": "https://dc.lft.to/lastmile_qr_scan"}, "is_reserved": 0, "fusion_lon": 0.0, "fusion_lat": 0.0, "lon": -77.10355366666667, "name": "86d9dbb876e297e134a16d92da7d466f"}, {"bike_id": "ac368120d89d908cc5c1087084a4e431", "type": "electric_scooter", "is_disabled": 0, "lat": 38.90292516666667, "rental_uris": {"ios": "https://dc.lft.to/lastmile_qr_scan", "android": "https://dc.lft.to/lastmile_qr_scan"}, "is_reserved": 0, "fusion_lon": 0.0, "fusion_lat": 0.0, "lon": -77.003293, "name": "ac368120d89d908cc5c1087084a4e431"}, {"bike_id": "6e77bb022d837bd2b263522e83b09aa2", "type": "electric_scooter", "is_disabled": 0, "lat": 38.90144016666667, "rental_uris": {"ios": "https://dc.lft.to/lastmile_qr_scan", "android": "https://dc.lft.to/lastmile_qr_scan"}, "is_reserved": 0, "fusion_lon": 0.0, "fusion_lat": 0.0, "lon": -77.014967, "name": "6e77bb022d837bd2b263522e83b09aa2"}, {"bike_id": "7774d58660b8139d841bf1b4a4d1437f", "type": "electric_scooter", "is_disabled": 0, "lat": 38.92612533333333, "rental_uris": {"ios": "https://dc.lft.to/lastmile_qr_scan", "android": "https://dc.lft.to/lastmile_qr_scan"}, "is_reserved": 0, "fusion_lon": 0.0, "fusion_lat": 0.0, "lon": -77.02160966666666, "name": "7774d58660b8139d841bf1b4a4d1437f"}, {"bike_id": "6aea28ebbd2161cb488a1f0c002d0c92", "type": "electric_scooter", "is_disabled": 0, "lat": 38.893717, "rental_uris": {"ios": "https://dc.lft.to/lastmile_qr_scan", "android": "https://dc.lft.to/lastmile_qr_scan"}, "is_reserved": 0, "fusion_lon": 0.0, "fusion_lat": 0.0, "lon": -76.9855905, "name": "6aea28ebbd2161cb488a1f0c002d0c92"}, {"bike_id": "909128ca59d5722e4cc89be3795522c7", "type": "electric_scooter", "is_disabled": 0, "lat": 38.87071316666667, "rental_uris": {"ios": "https://dc.lft.to/lastmile_qr_scan", "android": "https://dc.lft.to/lastmile_qr_scan"}, "is_reserved": 0, "fusion_lon": 0.0, "fusion_lat": 0.0, "lon": -76.98130866666666, "name": "909128ca59d5722e4cc89be3795522c7"}, {"bike_id": "720544f0205eb14867a096a9aab67437", "type": "electric_scooter", "is_disabled": 0, "lat": 38.90288066666667, "rental_uris": {"ios": "https://dc.lft.to/lastmile_qr_scan", "android": "https://dc.lft.to/lastmile_qr_scan"}, "is_reserved": 0, "fusion_lon": 0.0, "fusion_lat": 0.0, "lon": -77.0579555, "name": "720544f0205eb14867a096a9aab67437"}, {"bike_id": "4ae2d39837db9db8316a04f9bb8193f1", "type": "electric_scooter", "is_disabled": 0, "lat": 38.91218766666667, "rental_uris": {"ios": "https://dc.lft.to/lastmile_qr_scan", "android": "https://dc.lft.to/lastmile_qr_scan"}, "is_reserved": 0, "fusion_lon": 0.0, "fusion_lat": 0.0, "lon": -77.03850666666666, "name": "4ae2d39837db9db8316a04f9bb8193f1"}, {"bike_id": "e08037382792632ec8286e48e6dfbfb8", "type": "electric_bike", "is_disabled": 0, "lat": 38.90208416666667, "rental_uris": {"ios": "https://dc.lft.to/lastmile_qr_scan", "android": "https://dc.lft.to/lastmile_qr_scan"}, "is_reserved": 0, "fusion_lon": 0.0, "fusion_lat": 0.0, "lon": -76.97407166666666, "name": "e08037382792632ec8286e48e6dfbfb8"}, {"bike_id": "15091ccbee337019b79e847d69e9e110", "type": "electric_scooter", "is_disabled": 0, "lat": 38.921541833333336, "rental_uris": {"ios": "https://dc.lft.to/lastmile_qr_scan", "android": "https://dc.lft.to/lastmile_qr_scan"}, "is_reserved": 0, "fusion_lon": 0.0, "fusion_lat": 0.0, "lon": -77.03867166666667, "name": "15091ccbee337019b79e847d69e9e110"}, {"bike_id": "14b33bd190f297f565cb2ab44ce98fba", "type": "electric_bike", "is_disabled": 0, "lat": 38.949555333333336, "rental_uris": {"ios": "https://dc.lft.to/lastmile_qr_scan", "android": "https://dc.lft.to/lastmile_qr_scan"}, "is_reserved": 0, "fusion_lon": 0.0, "fusion_lat": 0.0, "lon": -77.06636583333334, "name": "14b33bd190f297f565cb2ab44ce98fba"}, {"bike_id": "c2aa38975f2175ef72a6aa4c6ee34293", "type": "electric_bike", "is_disabled": 0, "lat": 39.05502716666667, "rental_uris": {"ios": "https://dc.lft.to/lastmile_qr_scan", "android": "https://dc.lft.to/lastmile_qr_scan"}, "is_reserved": 0, "fusion_lon": 0.0, "fusion_lat": 0.0, "lon": -77.04648716666667, "name": "c2aa38975f2175ef72a6aa4c6ee34293"}, {"bike_id": "c106f7f5a18043db26abd8e5c3adb23b", "type": "electric_scooter", "is_disabled": 0, "lat": 38.93320083333333, "rental_uris": {"ios": "https://dc.lft.to/lastmile_qr_scan", "android": "https://dc.lft.to/lastmile_qr_scan"}, "is_reserved": 0, "fusion_lon": 0.0, "fusion_lat": 0.0, "lon": -77.07227183333333, "name": "c106f7f5a18043db26abd8e5c3adb23b"}, {"bike_id": "804fde11e58c9a2fb3901f1e1e146638", "type": "electric_scooter", "is_disabled": 0, "lat": 38.92719533333333, "rental_uris": {"ios": "https://dc.lft.to/lastmile_qr_scan", "android": "https://dc.lft.to/lastmile_qr_scan"}, "is_reserved": 0, "fusion_lon": 0.0, "fusion_lat": 0.0, "lon": -77.02717483333333, "name": "804fde11e58c9a2fb3901f1e1e146638"}, {"bike_id": "91fa58f41c85ae6bb57ff35dc967aed5", "type": "electric_scooter", "is_disabled": 0, "lat": 38.939570833333335, "rental_uris": {"ios": "https://dc.lft.to/lastmile_qr_scan", "android": "https://dc.lft.to/lastmile_qr_scan"}, "is_reserved": 0, "fusion_lon": 0.0, "fusion_lat": 0.0, "lon": -77.03666533333333, "name": "91fa58f41c85ae6bb57ff35dc967aed5"}, {"bike_id": "174703bbc27a193deb39af7eb1f7dd67", "type": "electric_scooter", "is_disabled": 0, "lat": 38.93399016666667, "rental_uris": {"ios": "https://dc.lft.to/lastmile_qr_scan", "android": "https://dc.lft.to/lastmile_qr_scan"}, "is_reserved": 0, "fusion_lon": 0.0, "fusion_lat": 0.0, "lon": -77.03989716666666, "name": "174703bbc27a193deb39af7eb1f7dd67"}, {"bike_id": "a6bded34104961808314d43e58c9f374", "type": "electric_bike", "is_disabled": 0, "lat": 38.929695833333334, "rental_uris": {"ios": "https://dc.lft.to/lastmile_qr_scan", "android": "https://dc.lft.to/lastmile_qr_scan"}, "is_reserved": 0, "fusion_lon": 0.0, "fusion_lat": 0.0, "lon": -77.18566333333334, "name": "a6bded34104961808314d43e58c9f374"}, {"bike_id": "c9e5122e8eb7fe01dc1fd6139edb8a34", "type": "electric_scooter", "is_disabled": 0, "lat": 38.87848283333334, "rental_uris": {"ios": "https://dc.lft.to/lastmile_qr_scan", "android": "https://dc.lft.to/lastmile_qr_scan"}, "is_reserved": 0, "fusion_lon": 0.0, "fusion_lat": 0.0, "lon": -77.01953266666666, "name": "c9e5122e8eb7fe01dc1fd6139edb8a34"}, {"bike_id": "4ce67a02595c69b6ab10be11c02e38b6", "type": "electric_scooter", "is_disabled": 0, "lat": 38.921554, "rental_uris": {"ios": "https://dc.lft.to/lastmile_qr_scan", "android": "https://dc.lft.to/lastmile_qr_scan"}, "is_reserved": 0, "fusion_lon": 0.0, "fusion_lat": 0.0, "lon": -77.03530883333333, "name": "4ce67a02595c69b6ab10be11c02e38b6"}, {"bike_id": "05dc405cb33d3da0762f82a106808131", "type": "electric_scooter", "is_disabled": 0, "lat": 38.906588166666666, "rental_uris": {"ios": "https://dc.lft.to/lastmile_qr_scan", "android": "https://dc.lft.to/lastmile_qr_scan"}, "is_reserved": 0, "fusion_lon": 0.0, "fusion_lat": 0.0, "lon": -77.02965883333333, "name": "05dc405cb33d3da0762f82a106808131"}, {"bike_id": "b64bb66d0b401509a5755c838db5e4a8", "type": "electric_scooter", "is_disabled": 0, "lat": 38.888165, "rental_uris": {"ios": "https://dc.lft.to/lastmile_qr_scan", "android": "https://dc.lft.to/lastmile_qr_scan"}, "is_reserved": 0, "fusion_lon": 0.0, "fusion_lat": 0.0, "lon": -76.93346033333333, "name": "b64bb66d0b401509a5755c838db5e4a8"}, {"bike_id": "07017e24907cb2897bf97028ae14e86d", "type": "electric_scooter", "is_disabled": 0, "lat": 38.942922333333335, "rental_uris": {"ios": "https://dc.lft.to/lastmile_qr_scan", "android": "https://dc.lft.to/lastmile_qr_scan"}, "is_reserved": 0, "fusion_lon": 0.0, "fusion_lat": 0.0, "lon": -77.02169533333333, "name": "07017e24907cb2897bf97028ae14e86d"}, {"bike_id": "395c8b9071a2833c030ac3b4f7463e04", "type": "electric_scooter", "is_disabled": 0, "lat": 38.92382933333333, "rental_uris": {"ios": "https://dc.lft.to/lastmile_qr_scan", "android": "https://dc.lft.to/lastmile_qr_scan"}, "is_reserved": 0, "fusion_lon": 0.0, "fusion_lat": 0.0, "lon": -77.03663616666667, "name": "395c8b9071a2833c030ac3b4f7463e04"}, {"bike_id": "31faab0424be638984f945602015f728", "type": "electric_scooter", "is_disabled": 0, "lat": 38.91719116666667, "rental_uris": {"ios": "https://dc.lft.to/lastmile_qr_scan", "android": "https://dc.lft.to/lastmile_qr_scan"}, "is_reserved": 0, "fusion_lon": 0.0, "fusion_lat": 0.0, "lon": -77.02961783333333, "name": "31faab0424be638984f945602015f728"}, {"bike_id": "603346691d102bd3f1c05be96d6af83c", "type": "electric_bike", "is_disabled": 0, "lat": 38.853589166666666, "rental_uris": {"ios": "https://dc.lft.to/lastmile_qr_scan", "android": "https://dc.lft.to/lastmile_qr_scan"}, "is_reserved": 0, "fusion_lon": 0.0, "fusion_lat": 0.0, "lon": -77.13463616666667, "name": "603346691d102bd3f1c05be96d6af83c"}, {"bike_id": "fee31b92600d44081043f6eb71dd07c9", "type": "electric_scooter", "is_disabled": 0, "lat": 38.92753283333333, "rental_uris": {"ios": "https://dc.lft.to/lastmile_qr_scan", "android": "https://dc.lft.to/lastmile_qr_scan"}, "is_reserved": 0, "fusion_lon": 0.0, "fusion_lat": 0.0, "lon": -77.02534466666667, "name": "fee31b92600d44081043f6eb71dd07c9"}, {"bike_id": "0eb9b9ff872fad05a8f813ae605fa9b6", "type": "electric_scooter", "is_disabled": 0, "lat": 38.90444216666667, "rental_uris": {"ios": "https://dc.lft.to/lastmile_qr_scan", "android": "https://dc.lft.to/lastmile_qr_scan"}, "is_reserved": 0, "fusion_lon": 0.0, "fusion_lat": 0.0, "lon": -77.03455333333333, "name": "0eb9b9ff872fad05a8f813ae605fa9b6"}, {"bike_id": "94fc93642204f8de9ac01620ea46600c", "type": "electric_scooter", "is_disabled": 0, "lat": 38.92279083333333, "rental_uris": {"ios": "https://dc.lft.to/lastmile_qr_scan", "android": "https://dc.lft.to/lastmile_qr_scan"}, "is_reserved": 0, "fusion_lon": 0.0, "fusion_lat": 0.0, "lon": -76.99469, "name": "94fc93642204f8de9ac01620ea46600c"}, {"bike_id": "0a4653d35358bf2a4d09ffd6e4ca9b63", "type": "electric_scooter", "is_disabled": 0, "lat": 38.876705333333334, "rental_uris": {"ios": "https://dc.lft.to/lastmile_qr_scan", "android": "https://dc.lft.to/lastmile_qr_scan"}, "is_reserved": 0, "fusion_lon": 0.0, "fusion_lat": 0.0, "lon": -77.00278416666667, "name": "0a4653d35358bf2a4d09ffd6e4ca9b63"}, {"bike_id": "9cfa02de571feb0b73f9e2b489ba59bc", "type": "electric_scooter", "is_disabled": 0, "lat": 38.9308605, "rental_uris": {"ios": "https://dc.lft.to/lastmile_qr_scan", "android": "https://dc.lft.to/lastmile_qr_scan"}, "is_reserved": 0, "fusion_lon": 0.0, "fusion_lat": 0.0, "lon": -77.025659, "name": "9cfa02de571feb0b73f9e2b489ba59bc"}, {"bike_id": "5722ae9bc9b4119bec9358a47f94295f", "type": "electric_scooter", "is_disabled": 0, "lat": 38.9260515, "rental_uris": {"ios": "https://dc.lft.to/lastmile_qr_scan", "android": "https://dc.lft.to/lastmile_qr_scan"}, "is_reserved": 0, "fusion_lon": 0.0, "fusion_lat": 0.0, "lon": -77.02155166666667, "name": "5722ae9bc9b4119bec9358a47f94295f"}, {"bike_id": "c4e220e8532e41e89cfa5e8beadbb256", "type": "electric_scooter", "is_disabled": 0, "lat": 38.9073335, "rental_uris": {"ios": "https://dc.lft.to/lastmile_qr_scan", "android": "https://dc.lft.to/lastmile_qr_scan"}, "is_reserved": 0, "fusion_lon": 0.0, "fusion_lat": 0.0, "lon": -77.013046, "name": "c4e220e8532e41e89cfa5e8beadbb256"}, {"bike_id": "8ebe3b6eb8e3985c1082d14c83a67d20", "type": "electric_scooter", "is_disabled": 0, "lat": 38.91845383333333, "rental_uris": {"ios": "https://dc.lft.to/lastmile_qr_scan", "android": "https://dc.lft.to/lastmile_qr_scan"}, "is_reserved": 0, "fusion_lon": 0.0, "fusion_lat": 0.0, "lon": -77.0483105, "name": "8ebe3b6eb8e3985c1082d14c83a67d20"}, {"bike_id": "e744ddb3ed36920ba8965670f18a7fea", "type": "electric_scooter", "is_disabled": 0, "lat": 38.86685383333333, "rental_uris": {"ios": "https://dc.lft.to/lastmile_qr_scan", "android": "https://dc.lft.to/lastmile_qr_scan"}, "is_reserved": 0, "fusion_lon": 0.0, "fusion_lat": 0.0, "lon": -76.98586016666667, "name": "e744ddb3ed36920ba8965670f18a7fea"}, {"bike_id": "6179446eda648e572180479746498a79", "type": "electric_scooter", "is_disabled": 0, "lat": 38.866864166666666, "rental_uris": {"ios": "https://dc.lft.to/lastmile_qr_scan", "android": "https://dc.lft.to/lastmile_qr_scan"}, "is_reserved": 0, "fusion_lon": 0.0, "fusion_lat": 0.0, "lon": -76.98589066666666, "name": "6179446eda648e572180479746498a79"}, {"bike_id": "71204f088638ffffb035a3d6999ea225", "type": "electric_scooter", "is_disabled": 0, "lat": 38.91265883333333, "rental_uris": {"ios": "https://dc.lft.to/lastmile_qr_scan", "android": "https://dc.lft.to/lastmile_qr_scan"}, "is_reserved": 0, "fusion_lon": 0.0, "fusion_lat": 0.0, "lon": -77.00493016666667, "name": "71204f088638ffffb035a3d6999ea225"}, {"bike_id": "e3ffd6fb7fa2a3ee5698353567fb50e0", "type": "electric_scooter", "is_disabled": 0, "lat": 38.93499333333333, "rental_uris": {"ios": "https://dc.lft.to/lastmile_qr_scan", "android": "https://dc.lft.to/lastmile_qr_scan"}, "is_reserved": 0, "fusion_lon": 0.0, "fusion_lat": 0.0, "lon": -77.07400033333333, "name": "e3ffd6fb7fa2a3ee5698353567fb50e0"}, {"bike_id": "414723498b65e09f790f13771ab4c5d4", "type": "electric_scooter", "is_disabled": 0, "lat": 38.9191585, "rental_uris": {"ios": "https://dc.lft.to/lastmile_qr_scan", "android": "https://dc.lft.to/lastmile_qr_scan"}, "is_reserved": 0, "fusion_lon": 0.0, "fusion_lat": 0.0, "lon": -77.03419833333334, "name": "414723498b65e09f790f13771ab4c5d4"}, {"bike_id": "bc92debae553ebe867efa26d38d624cf", "type": "electric_scooter", "is_disabled": 0, "lat": 38.910513333333334, "rental_uris": {"ios": "https://dc.lft.to/lastmile_qr_scan", "android": "https://dc.lft.to/lastmile_qr_scan"}, "is_reserved": 0, "fusion_lon": 0.0, "fusion_lat": 0.0, "lon": -77.0223205, "name": "bc92debae553ebe867efa26d38d624cf"}, {"bike_id": "b1f560413fc7317637cd789b92711d5e", "type": "electric_scooter", "is_disabled": 0, "lat": 38.865073833333334, "rental_uris": {"ios": "https://dc.lft.to/lastmile_qr_scan", "android": "https://dc.lft.to/lastmile_qr_scan"}, "is_reserved": 0, "fusion_lon": 0.0, "fusion_lat": 0.0, "lon": -76.99001633333333, "name": "b1f560413fc7317637cd789b92711d5e"}, {"bike_id": "f75fb5b6e4ce849a537a5749a2bd9792", "type": "electric_bike", "is_disabled": 0, "lat": 38.85356083333333, "rental_uris": {"ios": "https://dc.lft.to/lastmile_qr_scan", "android": "https://dc.lft.to/lastmile_qr_scan"}, "is_reserved": 0, "fusion_lon": 0.0, "fusion_lat": 0.0, "lon": -77.08684416666667, "name": "f75fb5b6e4ce849a537a5749a2bd9792"}, {"bike_id": "cb1dbd1817bdf0d3a6d396ed103769d2", "type": "electric_scooter", "is_disabled": 0, "lat": 38.88988583333333, "rental_uris": {"ios": "https://dc.lft.to/lastmile_qr_scan", "android": "https://dc.lft.to/lastmile_qr_scan"}, "is_reserved": 0, "fusion_lon": 0.0, "fusion_lat": 0.0, "lon": -77.00040133333333, "name": "cb1dbd1817bdf0d3a6d396ed103769d2"}, {"bike_id": "7000b31930af397d8ee907cc6db1d249", "type": "electric_scooter", "is_disabled": 0, "lat": 38.90852966666667, "rental_uris": {"ios": "https://dc.lft.to/lastmile_qr_scan", "android": "https://dc.lft.to/lastmile_qr_scan"}, "is_reserved": 0, "fusion_lon": 0.0, "fusion_lat": 0.0, "lon": -77.0197085, "name": "7000b31930af397d8ee907cc6db1d249"}, {"bike_id": "30b0a8ad95f3caaa1e587d7e2b050c50", "type": "electric_scooter", "is_disabled": 0, "lat": 38.90829633333333, "rental_uris": {"ios": "https://dc.lft.to/lastmile_qr_scan", "android": "https://dc.lft.to/lastmile_qr_scan"}, "is_reserved": 0, "fusion_lon": 0.0, "fusion_lat": 0.0, "lon": -76.9344295, "name": "30b0a8ad95f3caaa1e587d7e2b050c50"}, {"bike_id": "b1aee111960cdf6b5d854fed391e0ea2", "type": "electric_scooter", "is_disabled": 0, "lat": 38.924086333333335, "rental_uris": {"ios": "https://dc.lft.to/lastmile_qr_scan", "android": "https://dc.lft.to/lastmile_qr_scan"}, "is_reserved": 0, "fusion_lon": 0.0, "fusion_lat": 0.0, "lon": -77.02017966666666, "name": "b1aee111960cdf6b5d854fed391e0ea2"}, {"bike_id": "46702dacceb3e28c4aa02a5773dbb5e7", "type": "electric_scooter", "is_disabled": 0, "lat": 38.88101566666667, "rental_uris": {"ios": "https://dc.lft.to/lastmile_qr_scan", "android": "https://dc.lft.to/lastmile_qr_scan"}, "is_reserved": 0, "fusion_lon": 0.0, "fusion_lat": 0.0, "lon": -76.99854833333333, "name": "46702dacceb3e28c4aa02a5773dbb5e7"}, {"bike_id": "6ca6fe5e2ae5fbe3af1812b6f5426998", "type": "electric_scooter", "is_disabled": 0, "lat": 38.9260595, "rental_uris": {"ios": "https://dc.lft.to/lastmile_qr_scan", "android": "https://dc.lft.to/lastmile_qr_scan"}, "is_reserved": 0, "fusion_lon": 0.0, "fusion_lat": 0.0, "lon": -77.02407316666667, "name": "6ca6fe5e2ae5fbe3af1812b6f5426998"}, {"bike_id": "e14fff8ad4582f8a3ab9d6164a198ae1", "type": "electric_scooter", "is_disabled": 0, "lat": 38.913309166666664, "rental_uris": {"ios": "https://dc.lft.to/lastmile_qr_scan", "android": "https://dc.lft.to/lastmile_qr_scan"}, "is_reserved": 0, "fusion_lon": 0.0, "fusion_lat": 0.0, "lon": -77.04726783333334, "name": "e14fff8ad4582f8a3ab9d6164a198ae1"}, {"bike_id": "db92b2710bb1bc79c677551db28b704d", "type": "electric_scooter", "is_disabled": 0, "lat": 38.892212666666666, "rental_uris": {"ios": "https://dc.lft.to/lastmile_qr_scan", "android": "https://dc.lft.to/lastmile_qr_scan"}, "is_reserved": 0, "fusion_lon": 0.0, "fusion_lat": 0.0, "lon": -77.02579516666667, "name": "db92b2710bb1bc79c677551db28b704d"}, {"bike_id": "e63616bd73236d73cc0d287e56990063", "type": "electric_scooter", "is_disabled": 0, "lat": 38.91267416666667, "rental_uris": {"ios": "https://dc.lft.to/lastmile_qr_scan", "android": "https://dc.lft.to/lastmile_qr_scan"}, "is_reserved": 0, "fusion_lon": 0.0, "fusion_lat": 0.0, "lon": -77.03829416666666, "name": "e63616bd73236d73cc0d287e56990063"}, {"bike_id": "3549a529d5215858f7d0183783ef9b55", "type": "electric_scooter", "is_disabled": 0, "lat": 38.906456666666664, "rental_uris": {"ios": "https://dc.lft.to/lastmile_qr_scan", "android": "https://dc.lft.to/lastmile_qr_scan"}, "is_reserved": 0, "fusion_lon": 0.0, "fusion_lat": 0.0, "lon": -77.05328983333334, "name": "3549a529d5215858f7d0183783ef9b55"}, {"bike_id": "3f7e7edee509ef92cfc1452e980d5dc5", "type": "electric_scooter", "is_disabled": 0, "lat": 38.925573166666666, "rental_uris": {"ios": "https://dc.lft.to/lastmile_qr_scan", "android": "https://dc.lft.to/lastmile_qr_scan"}, "is_reserved": 0, "fusion_lon": 0.0, "fusion_lat": 0.0, "lon": -77.04377583333333, "name": "3f7e7edee509ef92cfc1452e980d5dc5"}, {"bike_id": "df2c9a08d3faee5d5813c42fae237b24", "type": "electric_scooter", "is_disabled": 0, "lat": 38.9446495, "rental_uris": {"ios": "https://dc.lft.to/lastmile_qr_scan", "android": "https://dc.lft.to/lastmile_qr_scan"}, "is_reserved": 0, "fusion_lon": 0.0, "fusion_lat": 0.0, "lon": -77.0065885, "name": "df2c9a08d3faee5d5813c42fae237b24"}, {"bike_id": "e55558f7ec1278dba4d72ee2293275a7", "type": "electric_scooter", "is_disabled": 0, "lat": 38.92798116666667, "rental_uris": {"ios": "https://dc.lft.to/lastmile_qr_scan", "android": "https://dc.lft.to/lastmile_qr_scan"}, "is_reserved": 0, "fusion_lon": 0.0, "fusion_lat": 0.0, "lon": -77.02602283333333, "name": "e55558f7ec1278dba4d72ee2293275a7"}, {"bike_id": "eb0842e01ba7951dbcd469be06163755", "type": "electric_scooter", "is_disabled": 0, "lat": 38.9360775, "rental_uris": {"ios": "https://dc.lft.to/lastmile_qr_scan", "android": "https://dc.lft.to/lastmile_qr_scan"}, "is_reserved": 0, "fusion_lon": 0.0, "fusion_lat": 0.0, "lon": -77.05856783333333, "name": "eb0842e01ba7951dbcd469be06163755"}, {"bike_id": "e0381dc261dc1cb8069525db3be19cff", "type": "electric_scooter", "is_disabled": 0, "lat": 38.901405833333335, "rental_uris": {"ios": "https://dc.lft.to/lastmile_qr_scan", "android": "https://dc.lft.to/lastmile_qr_scan"}, "is_reserved": 0, "fusion_lon": 0.0, "fusion_lat": 0.0, "lon": -77.051076, "name": "e0381dc261dc1cb8069525db3be19cff"}, {"bike_id": "8504cf383bf1d2afadf994db64fe772b", "type": "electric_scooter", "is_disabled": 0, "lat": 38.926060666666665, "rental_uris": {"ios": "https://dc.lft.to/lastmile_qr_scan", "android": "https://dc.lft.to/lastmile_qr_scan"}, "is_reserved": 0, "fusion_lon": 0.0, "fusion_lat": 0.0, "lon": -77.102377, "name": "8504cf383bf1d2afadf994db64fe772b"}, {"bike_id": "426747f9b0d83befcee0bb47d62880a4", "type": "electric_scooter", "is_disabled": 0, "lat": 38.96174283333333, "rental_uris": {"ios": "https://dc.lft.to/lastmile_qr_scan", "android": "https://dc.lft.to/lastmile_qr_scan"}, "is_reserved": 0, "fusion_lon": 0.0, "fusion_lat": 0.0, "lon": -77.0279375, "name": "426747f9b0d83befcee0bb47d62880a4"}, {"bike_id": "e32990db6f0a81ef2730e6cac2195fc4", "type": "electric_scooter", "is_disabled": 0, "lat": 38.92238616666667, "rental_uris": {"ios": "https://dc.lft.to/lastmile_qr_scan", "android": "https://dc.lft.to/lastmile_qr_scan"}, "is_reserved": 0, "fusion_lon": 0.0, "fusion_lat": 0.0, "lon": -77.04360766666667, "name": "e32990db6f0a81ef2730e6cac2195fc4"}, {"bike_id": "847f045830c8e85d3599d914bc1c8672", "type": "electric_scooter", "is_disabled": 0, "lat": 38.937002, "rental_uris": {"ios": "https://dc.lft.to/lastmile_qr_scan", "android": "https://dc.lft.to/lastmile_qr_scan"}, "is_reserved": 0, "fusion_lon": 0.0, "fusion_lat": 0.0, "lon": -77.03285583333333, "name": "847f045830c8e85d3599d914bc1c8672"}, {"bike_id": "a4a614b056a2c36f2bef51235037ce91", "type": "electric_scooter", "is_disabled": 0, "lat": 38.882469, "rental_uris": {"ios": "https://dc.lft.to/lastmile_qr_scan", "android": "https://dc.lft.to/lastmile_qr_scan"}, "is_reserved": 0, "fusion_lon": 0.0, "fusion_lat": 0.0, "lon": -76.99120333333333, "name": "a4a614b056a2c36f2bef51235037ce91"}, {"bike_id": "eb750d5660c47715b5fb484ceadedd0d", "type": "electric_scooter", "is_disabled": 0, "lat": 38.92386316666666, "rental_uris": {"ios": "https://dc.lft.to/lastmile_qr_scan", "android": "https://dc.lft.to/lastmile_qr_scan"}, "is_reserved": 0, "fusion_lon": 0.0, "fusion_lat": 0.0, "lon": -77.0307605, "name": "eb750d5660c47715b5fb484ceadedd0d"}, {"bike_id": "0068da9cf6b685664709c3321a3efb05", "type": "electric_scooter", "is_disabled": 0, "lat": 38.880114, "rental_uris": {"ios": "https://dc.lft.to/lastmile_qr_scan", "android": "https://dc.lft.to/lastmile_qr_scan"}, "is_reserved": 0, "fusion_lon": 0.0, "fusion_lat": 0.0, "lon": -77.02481933333334, "name": "0068da9cf6b685664709c3321a3efb05"}, {"bike_id": "16eda1b36500dcce7cbc033c22075a97", "type": "electric_scooter", "is_disabled": 0, "lat": 38.91047566666667, "rental_uris": {"ios": "https://dc.lft.to/lastmile_qr_scan", "android": "https://dc.lft.to/lastmile_qr_scan"}, "is_reserved": 0, "fusion_lon": 0.0, "fusion_lat": 0.0, "lon": -77.0587325, "name": "16eda1b36500dcce7cbc033c22075a97"}, {"bike_id": "b9c3de6727fa7199e3973e517d1ebec1", "type": "electric_scooter", "is_disabled": 0, "lat": 38.900319, "rental_uris": {"ios": "https://dc.lft.to/lastmile_qr_scan", "android": "https://dc.lft.to/lastmile_qr_scan"}, "is_reserved": 0, "fusion_lon": 0.0, "fusion_lat": 0.0, "lon": -77.04686266666667, "name": "b9c3de6727fa7199e3973e517d1ebec1"}, {"bike_id": "adb8aa9f39b5caab664ff8182e8f8d61", "type": "electric_scooter", "is_disabled": 0, "lat": 38.92659416666667, "rental_uris": {"ios": "https://dc.lft.to/lastmile_qr_scan", "android": "https://dc.lft.to/lastmile_qr_scan"}, "is_reserved": 0, "fusion_lon": 0.0, "fusion_lat": 0.0, "lon": -77.03730466666667, "name": "adb8aa9f39b5caab664ff8182e8f8d61"}, {"bike_id": "5e95d7acff5cacd17b2a1286fde792fa", "type": "electric_scooter", "is_disabled": 0, "lat": 38.91121316666667, "rental_uris": {"ios": "https://dc.lft.to/lastmile_qr_scan", "android": "https://dc.lft.to/lastmile_qr_scan"}, "is_reserved": 0, "fusion_lon": 0.0, "fusion_lat": 0.0, "lon": -77.04235166666666, "name": "5e95d7acff5cacd17b2a1286fde792fa"}, {"bike_id": "1ef238a2a31a5312efcf984647c3bff3", "type": "electric_scooter", "is_disabled": 0, "lat": 38.9212215, "rental_uris": {"ios": "https://dc.lft.to/lastmile_qr_scan", "android": "https://dc.lft.to/lastmile_qr_scan"}, "is_reserved": 0, "fusion_lon": 0.0, "fusion_lat": 0.0, "lon": -77.03660516666666, "name": "1ef238a2a31a5312efcf984647c3bff3"}, {"bike_id": "0f7f3fa80251d33b1a47f43fd03f2a2c", "type": "electric_bike", "is_disabled": 0, "lat": 38.83238766666667, "rental_uris": {"ios": "https://dc.lft.to/lastmile_qr_scan", "android": "https://dc.lft.to/lastmile_qr_scan"}, "is_reserved": 0, "fusion_lon": 0.0, "fusion_lat": 0.0, "lon": -76.94624133333333, "name": "0f7f3fa80251d33b1a47f43fd03f2a2c"}, {"bike_id": "aa1026f88cc7ece6cbfa326c13c4bc77", "type": "electric_scooter", "is_disabled": 0, "lat": 38.9236485, "rental_uris": {"ios": "https://dc.lft.to/lastmile_qr_scan", "android": "https://dc.lft.to/lastmile_qr_scan"}, "is_reserved": 0, "fusion_lon": 0.0, "fusion_lat": 0.0, "lon": -77.051284, "name": "aa1026f88cc7ece6cbfa326c13c4bc77"}, {"bike_id": "9cdb614b3e61472e9c130b0aec7cddf0", "type": "electric_scooter", "is_disabled": 0, "lat": 38.914170166666665, "rental_uris": {"ios": "https://dc.lft.to/lastmile_qr_scan", "android": "https://dc.lft.to/lastmile_qr_scan"}, "is_reserved": 0, "fusion_lon": 0.0, "fusion_lat": 0.0, "lon": -77.0298585, "name": "9cdb614b3e61472e9c130b0aec7cddf0"}, {"bike_id": "3989607a57cbef2e185f913eb2e1f679", "type": "electric_bike", "is_disabled": 0, "lat": 39.050604166666666, "rental_uris": {"ios": "https://dc.lft.to/lastmile_qr_scan", "android": "https://dc.lft.to/lastmile_qr_scan"}, "is_reserved": 0, "fusion_lon": 0.0, "fusion_lat": 0.0, "lon": -77.051445, "name": "3989607a57cbef2e185f913eb2e1f679"}, {"bike_id": "1b6859916e447e4cb5cb169589b96b85", "type": "electric_scooter", "is_disabled": 0, "lat": 38.89803466666667, "rental_uris": {"ios": "https://dc.lft.to/lastmile_qr_scan", "android": "https://dc.lft.to/lastmile_qr_scan"}, "is_reserved": 0, "fusion_lon": 0.0, "fusion_lat": 0.0, "lon": -77.011793, "name": "1b6859916e447e4cb5cb169589b96b85"}, {"bike_id": "4d9a9474601331aa32f576652d746d6e", "type": "electric_scooter", "is_disabled": 0, "lat": 38.9001845, "rental_uris": {"ios": "https://dc.lft.to/lastmile_qr_scan", "android": "https://dc.lft.to/lastmile_qr_scan"}, "is_reserved": 0, "fusion_lon": 0.0, "fusion_lat": 0.0, "lon": -77.0448665, "name": "4d9a9474601331aa32f576652d746d6e"}, {"bike_id": "86f1f8f6d8f7d2c8caa3154819f2e31c", "type": "electric_scooter", "is_disabled": 0, "lat": 38.93254983333333, "rental_uris": {"ios": "https://dc.lft.to/lastmile_qr_scan", "android": "https://dc.lft.to/lastmile_qr_scan"}, "is_reserved": 0, "fusion_lon": 0.0, "fusion_lat": 0.0, "lon": -77.03858883333334, "name": "86f1f8f6d8f7d2c8caa3154819f2e31c"}, {"bike_id": "2e1033970b15faf0680b00896ade8d71", "type": "electric_scooter", "is_disabled": 0, "lat": 38.89359683333333, "rental_uris": {"ios": "https://dc.lft.to/lastmile_qr_scan", "android": "https://dc.lft.to/lastmile_qr_scan"}, "is_reserved": 0, "fusion_lon": 0.0, "fusion_lat": 0.0, "lon": -77.0285165, "name": "2e1033970b15faf0680b00896ade8d71"}, {"bike_id": "91cf994d363aea05ece6900611dd1955", "type": "electric_scooter", "is_disabled": 0, "lat": 38.904278833333336, "rental_uris": {"ios": "https://dc.lft.to/lastmile_qr_scan", "android": "https://dc.lft.to/lastmile_qr_scan"}, "is_reserved": 0, "fusion_lon": 0.0, "fusion_lat": 0.0, "lon": -77.02768966666666, "name": "91cf994d363aea05ece6900611dd1955"}, {"bike_id": "66edf0e6b235213d161353eac53e9067", "type": "electric_scooter", "is_disabled": 0, "lat": 38.93618216666667, "rental_uris": {"ios": "https://dc.lft.to/lastmile_qr_scan", "android": "https://dc.lft.to/lastmile_qr_scan"}, "is_reserved": 0, "fusion_lon": 0.0, "fusion_lat": 0.0, "lon": -77.0675525, "name": "66edf0e6b235213d161353eac53e9067"}, {"bike_id": "cfdb63bcec75ca3e49762e6b5ee44fbb", "type": "electric_scooter", "is_disabled": 0, "lat": 38.90558983333333, "rental_uris": {"ios": "https://dc.lft.to/lastmile_qr_scan", "android": "https://dc.lft.to/lastmile_qr_scan"}, "is_reserved": 0, "fusion_lon": 0.0, "fusion_lat": 0.0, "lon": -77.005594, "name": "cfdb63bcec75ca3e49762e6b5ee44fbb"}, {"bike_id": "1f8109b2b5041ab51910c3fed7a2508d", "type": "electric_bike", "is_disabled": 0, "lat": 38.87299216666667, "rental_uris": {"ios": "https://dc.lft.to/lastmile_qr_scan", "android": "https://dc.lft.to/lastmile_qr_scan"}, "is_reserved": 0, "fusion_lon": 0.0, "fusion_lat": 0.0, "lon": -77.13929266666666, "name": "1f8109b2b5041ab51910c3fed7a2508d"}, {"bike_id": "ec6e0070bc8ece2f31e5970e4a65448d", "type": "electric_scooter", "is_disabled": 0, "lat": 38.9031225, "rental_uris": {"ios": "https://dc.lft.to/lastmile_qr_scan", "android": "https://dc.lft.to/lastmile_qr_scan"}, "is_reserved": 0, "fusion_lon": 0.0, "fusion_lat": 0.0, "lon": -76.98356333333334, "name": "ec6e0070bc8ece2f31e5970e4a65448d"}, {"bike_id": "fd32832d557a3f18b457d063eb5fa588", "type": "electric_bike", "is_disabled": 0, "lat": 38.91178516666667, "rental_uris": {"ios": "https://dc.lft.to/lastmile_qr_scan", "android": "https://dc.lft.to/lastmile_qr_scan"}, "is_reserved": 0, "fusion_lon": 0.0, "fusion_lat": 0.0, "lon": -77.0027105, "name": "fd32832d557a3f18b457d063eb5fa588"}, {"bike_id": "2ea0b23f18eba04e514263aa0cb7996f", "type": "electric_scooter", "is_disabled": 0, "lat": 38.925932333333336, "rental_uris": {"ios": "https://dc.lft.to/lastmile_qr_scan", "android": "https://dc.lft.to/lastmile_qr_scan"}, "is_reserved": 0, "fusion_lon": 0.0, "fusion_lat": 0.0, "lon": -77.03917616666666, "name": "2ea0b23f18eba04e514263aa0cb7996f"}, {"bike_id": "f6f3106e7efc685bd7ad20b3dbda43f5", "type": "electric_scooter", "is_disabled": 0, "lat": 38.91808283333334, "rental_uris": {"ios": "https://dc.lft.to/lastmile_qr_scan", "android": "https://dc.lft.to/lastmile_qr_scan"}, "is_reserved": 0, "fusion_lon": 0.0, "fusion_lat": 0.0, "lon": -77.00481, "name": "f6f3106e7efc685bd7ad20b3dbda43f5"}, {"bike_id": "79b166601b84bb508b0a7cbed8c00580", "type": "electric_scooter", "is_disabled": 0, "lat": 38.90771766666667, "rental_uris": {"ios": "https://dc.lft.to/lastmile_qr_scan", "android": "https://dc.lft.to/lastmile_qr_scan"}, "is_reserved": 0, "fusion_lon": 0.0, "fusion_lat": 0.0, "lon": -77.01212916666667, "name": "79b166601b84bb508b0a7cbed8c00580"}, {"bike_id": "25a6bc1e77b8a3446e9cde7459c1770d", "type": "electric_scooter", "is_disabled": 0, "lat": 38.916960333333336, "rental_uris": {"ios": "https://dc.lft.to/lastmile_qr_scan", "android": "https://dc.lft.to/lastmile_qr_scan"}, "is_reserved": 0, "fusion_lon": 0.0, "fusion_lat": 0.0, "lon": -77.03217033333334, "name": "25a6bc1e77b8a3446e9cde7459c1770d"}, {"bike_id": "02558cb63408e2fd4da7fdde9f92f7a1", "type": "electric_scooter", "is_disabled": 0, "lat": 38.9520685, "rental_uris": {"ios": "https://dc.lft.to/lastmile_qr_scan", "android": "https://dc.lft.to/lastmile_qr_scan"}, "is_reserved": 0, "fusion_lon": 0.0, "fusion_lat": 0.0, "lon": -77.06791183333333, "name": "02558cb63408e2fd4da7fdde9f92f7a1"}, {"bike_id": "ea86233e88875a63d515abb25f12d7fb", "type": "electric_scooter", "is_disabled": 0, "lat": 38.93611716666667, "rental_uris": {"ios": "https://dc.lft.to/lastmile_qr_scan", "android": "https://dc.lft.to/lastmile_qr_scan"}, "is_reserved": 0, "fusion_lon": 0.0, "fusion_lat": 0.0, "lon": -77.03783233333333, "name": "ea86233e88875a63d515abb25f12d7fb"}, {"bike_id": "faa8b3e9f166b6b78af67c8544e67fd8", "type": "electric_scooter", "is_disabled": 0, "lat": 38.94196383333333, "rental_uris": {"ios": "https://dc.lft.to/lastmile_qr_scan", "android": "https://dc.lft.to/lastmile_qr_scan"}, "is_reserved": 0, "fusion_lon": 0.0, "fusion_lat": 0.0, "lon": -77.02345016666666, "name": "faa8b3e9f166b6b78af67c8544e67fd8"}, {"bike_id": "7294fcf7c6f0d9c0010f85b95e90c541", "type": "electric_scooter", "is_disabled": 0, "lat": 38.90505816666666, "rental_uris": {"ios": "https://dc.lft.to/lastmile_qr_scan", "android": "https://dc.lft.to/lastmile_qr_scan"}, "is_reserved": 0, "fusion_lon": 0.0, "fusion_lat": 0.0, "lon": -77.06116066666667, "name": "7294fcf7c6f0d9c0010f85b95e90c541"}, {"bike_id": "e73014ff7cafe8bbb605fa8dd4071c06", "type": "electric_scooter", "is_disabled": 0, "lat": 38.91763383333333, "rental_uris": {"ios": "https://dc.lft.to/lastmile_qr_scan", "android": "https://dc.lft.to/lastmile_qr_scan"}, "is_reserved": 0, "fusion_lon": 0.0, "fusion_lat": 0.0, "lon": -77.04763566666666, "name": "e73014ff7cafe8bbb605fa8dd4071c06"}, {"bike_id": "b65a030c45d7daa6041dfc48b581c87a", "type": "electric_scooter", "is_disabled": 0, "lat": 38.895361, "rental_uris": {"ios": "https://dc.lft.to/lastmile_qr_scan", "android": "https://dc.lft.to/lastmile_qr_scan"}, "is_reserved": 0, "fusion_lon": 0.0, "fusion_lat": 0.0, "lon": -77.01096133333333, "name": "b65a030c45d7daa6041dfc48b581c87a"}, {"bike_id": "5c596572dd0491f4c76aec93b81e5b4e", "type": "electric_scooter", "is_disabled": 0, "lat": 38.913536666666666, "rental_uris": {"ios": "https://dc.lft.to/lastmile_qr_scan", "android": "https://dc.lft.to/lastmile_qr_scan"}, "is_reserved": 0, "fusion_lon": 0.0, "fusion_lat": 0.0, "lon": -77.02560616666666, "name": "5c596572dd0491f4c76aec93b81e5b4e"}, {"bike_id": "fa9bca469af607f3bad092f15e740774", "type": "electric_scooter", "is_disabled": 0, "lat": 38.9068705, "rental_uris": {"ios": "https://dc.lft.to/lastmile_qr_scan", "android": "https://dc.lft.to/lastmile_qr_scan"}, "is_reserved": 0, "fusion_lon": 0.0, "fusion_lat": 0.0, "lon": -77.026922, "name": "fa9bca469af607f3bad092f15e740774"}, {"bike_id": "680a386e388c79e0a0b9b29ec2a74331", "type": "electric_scooter", "is_disabled": 0, "lat": 38.92482833333333, "rental_uris": {"ios": "https://dc.lft.to/lastmile_qr_scan", "android": "https://dc.lft.to/lastmile_qr_scan"}, "is_reserved": 0, "fusion_lon": 0.0, "fusion_lat": 0.0, "lon": -77.02712683333333, "name": "680a386e388c79e0a0b9b29ec2a74331"}, {"bike_id": "ce69b6209f752bb1567ca2235bd34a7e", "type": "electric_scooter", "is_disabled": 0, "lat": 38.9054025, "rental_uris": {"ios": "https://dc.lft.to/lastmile_qr_scan", "android": "https://dc.lft.to/lastmile_qr_scan"}, "is_reserved": 0, "fusion_lon": 0.0, "fusion_lat": 0.0, "lon": -77.00580233333334, "name": "ce69b6209f752bb1567ca2235bd34a7e"}, {"bike_id": "3cebe214c5675f981ede5f8f63ae34ed", "type": "electric_scooter", "is_disabled": 0, "lat": 38.896156, "rental_uris": {"ios": "https://dc.lft.to/lastmile_qr_scan", "android": "https://dc.lft.to/lastmile_qr_scan"}, "is_reserved": 0, "fusion_lon": 0.0, "fusion_lat": 0.0, "lon": -76.98165333333333, "name": "3cebe214c5675f981ede5f8f63ae34ed"}, {"bike_id": "9392dbc65fcddd4d82e37199eebd1de4", "type": "electric_scooter", "is_disabled": 0, "lat": 38.90004883333334, "rental_uris": {"ios": "https://dc.lft.to/lastmile_qr_scan", "android": "https://dc.lft.to/lastmile_qr_scan"}, "is_reserved": 0, "fusion_lon": 0.0, "fusion_lat": 0.0, "lon": -77.0465965, "name": "9392dbc65fcddd4d82e37199eebd1de4"}, {"bike_id": "3176d7e896d8447e8c6aff1790c0f6ca", "type": "electric_scooter", "is_disabled": 0, "lat": 38.923917833333334, "rental_uris": {"ios": "https://dc.lft.to/lastmile_qr_scan", "android": "https://dc.lft.to/lastmile_qr_scan"}, "is_reserved": 0, "fusion_lon": 0.0, "fusion_lat": 0.0, "lon": -77.026052, "name": "3176d7e896d8447e8c6aff1790c0f6ca"}, {"bike_id": "2fb7d4ab2dae5a04b2c59ac633545cf3", "type": "electric_scooter", "is_disabled": 0, "lat": 38.87415716666667, "rental_uris": {"ios": "https://dc.lft.to/lastmile_qr_scan", "android": "https://dc.lft.to/lastmile_qr_scan"}, "is_reserved": 0, "fusion_lon": 0.0, "fusion_lat": 0.0, "lon": -76.97118083333334, "name": "2fb7d4ab2dae5a04b2c59ac633545cf3"}, {"bike_id": "903adb1286496d16a853b9eecf097dac", "type": "electric_scooter", "is_disabled": 0, "lat": 38.89326583333333, "rental_uris": {"ios": "https://dc.lft.to/lastmile_qr_scan", "android": "https://dc.lft.to/lastmile_qr_scan"}, "is_reserved": 0, "fusion_lon": 0.0, "fusion_lat": 0.0, "lon": -77.04874366666667, "name": "903adb1286496d16a853b9eecf097dac"}, {"bike_id": "9714f21038c7a81cfe87950d307c7794", "type": "electric_scooter", "is_disabled": 0, "lat": 38.898975, "rental_uris": {"ios": "https://dc.lft.to/lastmile_qr_scan", "android": "https://dc.lft.to/lastmile_qr_scan"}, "is_reserved": 0, "fusion_lon": 0.0, "fusion_lat": 0.0, "lon": -77.01505383333334, "name": "9714f21038c7a81cfe87950d307c7794"}, {"bike_id": "ecf67ef0f463a550cc8e9f5378dba3d3", "type": "electric_scooter", "is_disabled": 0, "lat": 38.951571333333334, "rental_uris": {"ios": "https://dc.lft.to/lastmile_qr_scan", "android": "https://dc.lft.to/lastmile_qr_scan"}, "is_reserved": 0, "fusion_lon": 0.0, "fusion_lat": 0.0, "lon": -77.01865866666667, "name": "ecf67ef0f463a550cc8e9f5378dba3d3"}, {"bike_id": "6603300322e49a5eec3a395af0fdc553", "type": "electric_scooter", "is_disabled": 0, "lat": 38.91632166666667, "rental_uris": {"ios": "https://dc.lft.to/lastmile_qr_scan", "android": "https://dc.lft.to/lastmile_qr_scan"}, "is_reserved": 0, "fusion_lon": 0.0, "fusion_lat": 0.0, "lon": -77.04232133333333, "name": "6603300322e49a5eec3a395af0fdc553"}, {"bike_id": "c39c6799536f0eaa107178f0c07b28b3", "type": "electric_scooter", "is_disabled": 0, "lat": 38.922143166666665, "rental_uris": {"ios": "https://dc.lft.to/lastmile_qr_scan", "android": "https://dc.lft.to/lastmile_qr_scan"}, "is_reserved": 0, "fusion_lon": 0.0, "fusion_lat": 0.0, "lon": -77.0329225, "name": "c39c6799536f0eaa107178f0c07b28b3"}, {"bike_id": "41fae2f7173d15b30bb529d7c2c3e21e", "type": "electric_scooter", "is_disabled": 0, "lat": 38.9085665, "rental_uris": {"ios": "https://dc.lft.to/lastmile_qr_scan", "android": "https://dc.lft.to/lastmile_qr_scan"}, "is_reserved": 0, "fusion_lon": 0.0, "fusion_lat": 0.0, "lon": -77.0028955, "name": "41fae2f7173d15b30bb529d7c2c3e21e"}, {"bike_id": "9b8bd6dfaa87f6f264967808dfe8daa5", "type": "electric_scooter", "is_disabled": 0, "lat": 38.90597433333333, "rental_uris": {"ios": "https://dc.lft.to/lastmile_qr_scan", "android": "https://dc.lft.to/lastmile_qr_scan"}, "is_reserved": 0, "fusion_lon": 0.0, "fusion_lat": 0.0, "lon": -77.07011216666666, "name": "9b8bd6dfaa87f6f264967808dfe8daa5"}, {"bike_id": "302b63dfa43992ed697eb2a24927bb30", "type": "electric_scooter", "is_disabled": 0, "lat": 38.89194616666666, "rental_uris": {"ios": "https://dc.lft.to/lastmile_qr_scan", "android": "https://dc.lft.to/lastmile_qr_scan"}, "is_reserved": 0, "fusion_lon": 0.0, "fusion_lat": 0.0, "lon": -77.0298025, "name": "302b63dfa43992ed697eb2a24927bb30"}, {"bike_id": "8e3517fba248ed386298dec93828892d", "type": "electric_scooter", "is_disabled": 0, "lat": 38.908543333333334, "rental_uris": {"ios": "https://dc.lft.to/lastmile_qr_scan", "android": "https://dc.lft.to/lastmile_qr_scan"}, "is_reserved": 0, "fusion_lon": 0.0, "fusion_lat": 0.0, "lon": -76.99961116666667, "name": "8e3517fba248ed386298dec93828892d"}, {"bike_id": "0fe84878137b4c5eea592dc4328b40d6", "type": "electric_scooter", "is_disabled": 0, "lat": 38.91928733333334, "rental_uris": {"ios": "https://dc.lft.to/lastmile_qr_scan", "android": "https://dc.lft.to/lastmile_qr_scan"}, "is_reserved": 0, "fusion_lon": 0.0, "fusion_lat": 0.0, "lon": -77.03358966666667, "name": "0fe84878137b4c5eea592dc4328b40d6"}, {"bike_id": "29be97534c101f0646005965e656715d", "type": "electric_scooter", "is_disabled": 0, "lat": 38.9192795, "rental_uris": {"ios": "https://dc.lft.to/lastmile_qr_scan", "android": "https://dc.lft.to/lastmile_qr_scan"}, "is_reserved": 0, "fusion_lon": 0.0, "fusion_lat": 0.0, "lon": -77.0248495, "name": "29be97534c101f0646005965e656715d"}, {"bike_id": "eb54e69db83ac4e57f5c7ad134e857ae", "type": "electric_scooter", "is_disabled": 0, "lat": 38.9310085, "rental_uris": {"ios": "https://dc.lft.to/lastmile_qr_scan", "android": "https://dc.lft.to/lastmile_qr_scan"}, "is_reserved": 0, "fusion_lon": 0.0, "fusion_lat": 0.0, "lon": -77.02476183333333, "name": "eb54e69db83ac4e57f5c7ad134e857ae"}, {"bike_id": "9da857bac36bf9754b347f8caf3b4a04", "type": "electric_scooter", "is_disabled": 0, "lat": 38.919316333333335, "rental_uris": {"ios": "https://dc.lft.to/lastmile_qr_scan", "android": "https://dc.lft.to/lastmile_qr_scan"}, "is_reserved": 0, "fusion_lon": 0.0, "fusion_lat": 0.0, "lon": -77.04619783333334, "name": "9da857bac36bf9754b347f8caf3b4a04"}, {"bike_id": "1854ba9501c9cac085308565c35b07bd", "type": "electric_scooter", "is_disabled": 0, "lat": 38.926612166666665, "rental_uris": {"ios": "https://dc.lft.to/lastmile_qr_scan", "android": "https://dc.lft.to/lastmile_qr_scan"}, "is_reserved": 0, "fusion_lon": 0.0, "fusion_lat": 0.0, "lon": -77.03727233333333, "name": "1854ba9501c9cac085308565c35b07bd"}, {"bike_id": "026dc032fdc5a0160a7429ee525bb3d1", "type": "electric_scooter", "is_disabled": 0, "lat": 38.91825083333333, "rental_uris": {"ios": "https://dc.lft.to/lastmile_qr_scan", "android": "https://dc.lft.to/lastmile_qr_scan"}, "is_reserved": 0, "fusion_lon": 0.0, "fusion_lat": 0.0, "lon": -77.0494225, "name": "026dc032fdc5a0160a7429ee525bb3d1"}, {"bike_id": "9d87588f3327f065869bfcd42eb1acdf", "type": "electric_scooter", "is_disabled": 0, "lat": 38.92152866666667, "rental_uris": {"ios": "https://dc.lft.to/lastmile_qr_scan", "android": "https://dc.lft.to/lastmile_qr_scan"}, "is_reserved": 0, "fusion_lon": 0.0, "fusion_lat": 0.0, "lon": -77.03870083333334, "name": "9d87588f3327f065869bfcd42eb1acdf"}, {"bike_id": "f6167b4ea5a82896ae4b890239e5b939", "type": "electric_scooter", "is_disabled": 0, "lat": 38.86003916666667, "rental_uris": {"ios": "https://dc.lft.to/lastmile_qr_scan", "android": "https://dc.lft.to/lastmile_qr_scan"}, "is_reserved": 0, "fusion_lon": 0.0, "fusion_lat": 0.0, "lon": -76.98516983333333, "name": "f6167b4ea5a82896ae4b890239e5b939"}, {"bike_id": "39b294de85186d5cf37c43fb71466917", "type": "electric_scooter", "is_disabled": 0, "lat": 38.920604833333336, "rental_uris": {"ios": "https://dc.lft.to/lastmile_qr_scan", "android": "https://dc.lft.to/lastmile_qr_scan"}, "is_reserved": 0, "fusion_lon": 0.0, "fusion_lat": 0.0, "lon": -77.04408916666667, "name": "39b294de85186d5cf37c43fb71466917"}, {"bike_id": "bd3bdfa0286ad229aacdbd3f29653354", "type": "electric_scooter", "is_disabled": 0, "lat": 38.9296265, "rental_uris": {"ios": "https://dc.lft.to/lastmile_qr_scan", "android": "https://dc.lft.to/lastmile_qr_scan"}, "is_reserved": 0, "fusion_lon": 0.0, "fusion_lat": 0.0, "lon": -77.0313575, "name": "bd3bdfa0286ad229aacdbd3f29653354"}, {"bike_id": "c83fa518508787ce6da5ea37484cfbad", "type": "electric_bike", "is_disabled": 0, "lat": 38.993461, "rental_uris": {"ios": "https://dc.lft.to/lastmile_qr_scan", "android": "https://dc.lft.to/lastmile_qr_scan"}, "is_reserved": 0, "fusion_lon": 0.0, "fusion_lat": 0.0, "lon": -77.11572266666667, "name": "c83fa518508787ce6da5ea37484cfbad"}, {"bike_id": "74a241560b459880e48bdf2ef3288cb5", "type": "electric_scooter", "is_disabled": 0, "lat": 38.865056333333335, "rental_uris": {"ios": "https://dc.lft.to/lastmile_qr_scan", "android": "https://dc.lft.to/lastmile_qr_scan"}, "is_reserved": 0, "fusion_lon": 0.0, "fusion_lat": 0.0, "lon": -76.99002933333334, "name": "74a241560b459880e48bdf2ef3288cb5"}, {"bike_id": "286a9d9f29c7094107ca26a4ed969a8a", "type": "electric_scooter", "is_disabled": 0, "lat": 38.919606, "rental_uris": {"ios": "https://dc.lft.to/lastmile_qr_scan", "android": "https://dc.lft.to/lastmile_qr_scan"}, "is_reserved": 0, "fusion_lon": 0.0, "fusion_lat": 0.0, "lon": -77.03479116666666, "name": "286a9d9f29c7094107ca26a4ed969a8a"}, {"bike_id": "6011db6d10273c9bdb5c370ee09c4d23", "type": "electric_bike", "is_disabled": 0, "lat": 38.807578666666664, "rental_uris": {"ios": "https://dc.lft.to/lastmile_qr_scan", "android": "https://dc.lft.to/lastmile_qr_scan"}, "is_reserved": 0, "fusion_lon": 0.0, "fusion_lat": 0.0, "lon": -77.09468883333334, "name": "6011db6d10273c9bdb5c370ee09c4d23"}, {"bike_id": "988c4ea8e221165683fd043f24ed2d6f", "type": "electric_scooter", "is_disabled": 0, "lat": 38.935791333333334, "rental_uris": {"ios": "https://dc.lft.to/lastmile_qr_scan", "android": "https://dc.lft.to/lastmile_qr_scan"}, "is_reserved": 0, "fusion_lon": 0.0, "fusion_lat": 0.0, "lon": -77.0336115, "name": "988c4ea8e221165683fd043f24ed2d6f"}, {"bike_id": "bdc81ca42f81792b6687656d12773427", "type": "electric_scooter", "is_disabled": 0, "lat": 38.91605216666667, "rental_uris": {"ios": "https://dc.lft.to/lastmile_qr_scan", "android": "https://dc.lft.to/lastmile_qr_scan"}, "is_reserved": 0, "fusion_lon": 0.0, "fusion_lat": 0.0, "lon": -77.03388866666667, "name": "bdc81ca42f81792b6687656d12773427"}, {"bike_id": "d2fdfc489363f9bc6c7560cde731ade2", "type": "electric_scooter", "is_disabled": 0, "lat": 38.91402316666667, "rental_uris": {"ios": "https://dc.lft.to/lastmile_qr_scan", "android": "https://dc.lft.to/lastmile_qr_scan"}, "is_reserved": 0, "fusion_lon": 0.0, "fusion_lat": 0.0, "lon": -77.03439466666667, "name": "d2fdfc489363f9bc6c7560cde731ade2"}, {"bike_id": "4147b4c6ed3dd9943ceee3a7a891317b", "type": "electric_scooter", "is_disabled": 0, "lat": 38.9231675, "rental_uris": {"ios": "https://dc.lft.to/lastmile_qr_scan", "android": "https://dc.lft.to/lastmile_qr_scan"}, "is_reserved": 0, "fusion_lon": 0.0, "fusion_lat": 0.0, "lon": -77.04037533333333, "name": "4147b4c6ed3dd9943ceee3a7a891317b"}, {"bike_id": "5b8e02c589a9c1008a4b77a41499f1fd", "type": "electric_scooter", "is_disabled": 0, "lat": 38.90325583333333, "rental_uris": {"ios": "https://dc.lft.to/lastmile_qr_scan", "android": "https://dc.lft.to/lastmile_qr_scan"}, "is_reserved": 0, "fusion_lon": 0.0, "fusion_lat": 0.0, "lon": -76.9829015, "name": "5b8e02c589a9c1008a4b77a41499f1fd"}, {"bike_id": "391759bf98f8efdfb6b71f58189ac1c4", "type": "electric_scooter", "is_disabled": 0, "lat": 38.87801316666667, "rental_uris": {"ios": "https://dc.lft.to/lastmile_qr_scan", "android": "https://dc.lft.to/lastmile_qr_scan"}, "is_reserved": 0, "fusion_lon": 0.0, "fusion_lat": 0.0, "lon": -77.01760583333333, "name": "391759bf98f8efdfb6b71f58189ac1c4"}, {"bike_id": "b7543cfc12e8f4bd33151feac8e1cee4", "type": "electric_scooter", "is_disabled": 0, "lat": 38.90270266666667, "rental_uris": {"ios": "https://dc.lft.to/lastmile_qr_scan", "android": "https://dc.lft.to/lastmile_qr_scan"}, "is_reserved": 0, "fusion_lon": 0.0, "fusion_lat": 0.0, "lon": -77.00325633333334, "name": "b7543cfc12e8f4bd33151feac8e1cee4"}, {"bike_id": "8f5f25416f2533c7f19fc909bc11e4e9", "type": "electric_scooter", "is_disabled": 0, "lat": 38.90829433333333, "rental_uris": {"ios": "https://dc.lft.to/lastmile_qr_scan", "android": "https://dc.lft.to/lastmile_qr_scan"}, "is_reserved": 0, "fusion_lon": 0.0, "fusion_lat": 0.0, "lon": -77.03858883333334, "name": "8f5f25416f2533c7f19fc909bc11e4e9"}, {"bike_id": "f944415cc78977045a0920d5a4f64cc9", "type": "electric_scooter", "is_disabled": 0, "lat": 38.903039666666665, "rental_uris": {"ios": "https://dc.lft.to/lastmile_qr_scan", "android": "https://dc.lft.to/lastmile_qr_scan"}, "is_reserved": 0, "fusion_lon": 0.0, "fusion_lat": 0.0, "lon": -77.024251, "name": "f944415cc78977045a0920d5a4f64cc9"}, {"bike_id": "0c58756b7049082429d63a217dfdc516", "type": "electric_scooter", "is_disabled": 0, "lat": 38.86684066666667, "rental_uris": {"ios": "https://dc.lft.to/lastmile_qr_scan", "android": "https://dc.lft.to/lastmile_qr_scan"}, "is_reserved": 0, "fusion_lon": 0.0, "fusion_lat": 0.0, "lon": -76.98585333333334, "name": "0c58756b7049082429d63a217dfdc516"}, {"bike_id": "6eb81c8fa7a61d9f21e11d730e99e0a7", "type": "electric_scooter", "is_disabled": 0, "lat": 38.920770166666664, "rental_uris": {"ios": "https://dc.lft.to/lastmile_qr_scan", "android": "https://dc.lft.to/lastmile_qr_scan"}, "is_reserved": 0, "fusion_lon": 0.0, "fusion_lat": 0.0, "lon": -77.01458233333334, "name": "6eb81c8fa7a61d9f21e11d730e99e0a7"}, {"bike_id": "aaec430aef0b8e7eabd49dcc1db7b223", "type": "electric_scooter", "is_disabled": 0, "lat": 38.908891, "rental_uris": {"ios": "https://dc.lft.to/lastmile_qr_scan", "android": "https://dc.lft.to/lastmile_qr_scan"}, "is_reserved": 0, "fusion_lon": 0.0, "fusion_lat": 0.0, "lon": -76.99845133333334, "name": "aaec430aef0b8e7eabd49dcc1db7b223"}, {"bike_id": "799186dfb6695928cb92b219d8aab971", "type": "electric_scooter", "is_disabled": 0, "lat": 38.905687666666665, "rental_uris": {"ios": "https://dc.lft.to/lastmile_qr_scan", "android": "https://dc.lft.to/lastmile_qr_scan"}, "is_reserved": 0, "fusion_lon": 0.0, "fusion_lat": 0.0, "lon": -77.028357, "name": "799186dfb6695928cb92b219d8aab971"}, {"bike_id": "6f630aae0f021e8b383a81573b593f1f", "type": "electric_scooter", "is_disabled": 0, "lat": 38.93703166666667, "rental_uris": {"ios": "https://dc.lft.to/lastmile_qr_scan", "android": "https://dc.lft.to/lastmile_qr_scan"}, "is_reserved": 0, "fusion_lon": 0.0, "fusion_lat": 0.0, "lon": -77.032811, "name": "6f630aae0f021e8b383a81573b593f1f"}, {"bike_id": "998929107f1a48a577cd38fe1cbc8526", "type": "electric_scooter", "is_disabled": 0, "lat": 38.884805166666666, "rental_uris": {"ios": "https://dc.lft.to/lastmile_qr_scan", "android": "https://dc.lft.to/lastmile_qr_scan"}, "is_reserved": 0, "fusion_lon": 0.0, "fusion_lat": 0.0, "lon": -77.02365433333334, "name": "998929107f1a48a577cd38fe1cbc8526"}, {"bike_id": "30bb2064e0915553d30b03b7acfc48aa", "type": "electric_scooter", "is_disabled": 0, "lat": 38.9193305, "rental_uris": {"ios": "https://dc.lft.to/lastmile_qr_scan", "android": "https://dc.lft.to/lastmile_qr_scan"}, "is_reserved": 0, "fusion_lon": 0.0, "fusion_lat": 0.0, "lon": -77.044855, "name": "30bb2064e0915553d30b03b7acfc48aa"}, {"bike_id": "62f9d7dbd53e1656a269a4b1122a9203", "type": "electric_scooter", "is_disabled": 0, "lat": 38.907820666666666, "rental_uris": {"ios": "https://dc.lft.to/lastmile_qr_scan", "android": "https://dc.lft.to/lastmile_qr_scan"}, "is_reserved": 0, "fusion_lon": 0.0, "fusion_lat": 0.0, "lon": -77.048885, "name": "62f9d7dbd53e1656a269a4b1122a9203"}, {"bike_id": "3bbbf08c4329403001f31ea9262bbb42", "type": "electric_scooter", "is_disabled": 0, "lat": 38.90685466666667, "rental_uris": {"ios": "https://dc.lft.to/lastmile_qr_scan", "android": "https://dc.lft.to/lastmile_qr_scan"}, "is_reserved": 0, "fusion_lon": 0.0, "fusion_lat": 0.0, "lon": -77.0269545, "name": "3bbbf08c4329403001f31ea9262bbb42"}, {"bike_id": "8c36ac36a1a54619c023da3bdd4e78d5", "type": "electric_scooter", "is_disabled": 0, "lat": 38.905645166666666, "rental_uris": {"ios": "https://dc.lft.to/lastmile_qr_scan", "android": "https://dc.lft.to/lastmile_qr_scan"}, "is_reserved": 0, "fusion_lon": 0.0, "fusion_lat": 0.0, "lon": -77.005832, "name": "8c36ac36a1a54619c023da3bdd4e78d5"}, {"bike_id": "937c534190fe1cfd0831979ef388a858", "type": "electric_scooter", "is_disabled": 0, "lat": 38.9245235, "rental_uris": {"ios": "https://dc.lft.to/lastmile_qr_scan", "android": "https://dc.lft.to/lastmile_qr_scan"}, "is_reserved": 0, "fusion_lon": 0.0, "fusion_lat": 0.0, "lon": -77.04114566666667, "name": "937c534190fe1cfd0831979ef388a858"}, {"bike_id": "932a194653b90d85a220d7921d0308d5", "type": "electric_scooter", "is_disabled": 0, "lat": 38.927504666666664, "rental_uris": {"ios": "https://dc.lft.to/lastmile_qr_scan", "android": "https://dc.lft.to/lastmile_qr_scan"}, "is_reserved": 0, "fusion_lon": 0.0, "fusion_lat": 0.0, "lon": -77.035754, "name": "932a194653b90d85a220d7921d0308d5"}, {"bike_id": "19122dd377b8951453b97e566918181f", "type": "electric_scooter", "is_disabled": 0, "lat": 38.923288166666666, "rental_uris": {"ios": "https://dc.lft.to/lastmile_qr_scan", "android": "https://dc.lft.to/lastmile_qr_scan"}, "is_reserved": 0, "fusion_lon": 0.0, "fusion_lat": 0.0, "lon": -77.00052666666667, "name": "19122dd377b8951453b97e566918181f"}, {"bike_id": "0958177a87cc158793549683e6ee478d", "type": "electric_scooter", "is_disabled": 0, "lat": 38.8954525, "rental_uris": {"ios": "https://dc.lft.to/lastmile_qr_scan", "android": "https://dc.lft.to/lastmile_qr_scan"}, "is_reserved": 0, "fusion_lon": 0.0, "fusion_lat": 0.0, "lon": -76.94918383333334, "name": "0958177a87cc158793549683e6ee478d"}, {"bike_id": "6a0c844d8132903531cbe0787f3d0a51", "type": "electric_scooter", "is_disabled": 0, "lat": 38.89797766666667, "rental_uris": {"ios": "https://dc.lft.to/lastmile_qr_scan", "android": "https://dc.lft.to/lastmile_qr_scan"}, "is_reserved": 0, "fusion_lon": 0.0, "fusion_lat": 0.0, "lon": -77.01183166666667, "name": "6a0c844d8132903531cbe0787f3d0a51"}, {"bike_id": "de8989bb11a2422793b75e9143d41210", "type": "electric_scooter", "is_disabled": 0, "lat": 38.89999316666667, "rental_uris": {"ios": "https://dc.lft.to/lastmile_qr_scan", "android": "https://dc.lft.to/lastmile_qr_scan"}, "is_reserved": 0, "fusion_lon": 0.0, "fusion_lat": 0.0, "lon": -77.00660066666667, "name": "de8989bb11a2422793b75e9143d41210"}, {"bike_id": "6ba1839314973f8df4cb4534c07b8fd8", "type": "electric_scooter", "is_disabled": 0, "lat": 38.903761333333335, "rental_uris": {"ios": "https://dc.lft.to/lastmile_qr_scan", "android": "https://dc.lft.to/lastmile_qr_scan"}, "is_reserved": 0, "fusion_lon": 0.0, "fusion_lat": 0.0, "lon": -77.048234, "name": "6ba1839314973f8df4cb4534c07b8fd8"}, {"bike_id": "193ad6c91603554a727d7beb36834031", "type": "electric_scooter", "is_disabled": 0, "lat": 38.935398, "rental_uris": {"ios": "https://dc.lft.to/lastmile_qr_scan", "android": "https://dc.lft.to/lastmile_qr_scan"}, "is_reserved": 0, "fusion_lon": 0.0, "fusion_lat": 0.0, "lon": -77.02348966666666, "name": "193ad6c91603554a727d7beb36834031"}, {"bike_id": "9f3cd4ef94905c6edcac8141a86eaddb", "type": "electric_scooter", "is_disabled": 0, "lat": 38.89731666666667, "rental_uris": {"ios": "https://dc.lft.to/lastmile_qr_scan", "android": "https://dc.lft.to/lastmile_qr_scan"}, "is_reserved": 0, "fusion_lon": 0.0, "fusion_lat": 0.0, "lon": -77.0547045, "name": "9f3cd4ef94905c6edcac8141a86eaddb"}, {"bike_id": "b7dd8446d8335a74d86e821649fecdf6", "type": "electric_bike", "is_disabled": 0, "lat": 38.92431116666667, "rental_uris": {"ios": "https://dc.lft.to/lastmile_qr_scan", "android": "https://dc.lft.to/lastmile_qr_scan"}, "is_reserved": 0, "fusion_lon": 0.0, "fusion_lat": 0.0, "lon": -76.9965845, "name": "b7dd8446d8335a74d86e821649fecdf6"}, {"bike_id": "f976a3581d11bf292ab1396a4570ae5a", "type": "electric_scooter", "is_disabled": 0, "lat": 38.90259316666667, "rental_uris": {"ios": "https://dc.lft.to/lastmile_qr_scan", "android": "https://dc.lft.to/lastmile_qr_scan"}, "is_reserved": 0, "fusion_lon": 0.0, "fusion_lat": 0.0, "lon": -76.9755, "name": "f976a3581d11bf292ab1396a4570ae5a"}, {"bike_id": "014ebf48f5eb7e4b300bf089af6b6ab7", "type": "electric_scooter", "is_disabled": 0, "lat": 38.92220866666667, "rental_uris": {"ios": "https://dc.lft.to/lastmile_qr_scan", "android": "https://dc.lft.to/lastmile_qr_scan"}, "is_reserved": 0, "fusion_lon": 0.0, "fusion_lat": 0.0, "lon": -77.03459766666667, "name": "014ebf48f5eb7e4b300bf089af6b6ab7"}, {"bike_id": "0f0c3ac90c705da3a23009b819a299f9", "type": "electric_scooter", "is_disabled": 0, "lat": 38.906469333333334, "rental_uris": {"ios": "https://dc.lft.to/lastmile_qr_scan", "android": "https://dc.lft.to/lastmile_qr_scan"}, "is_reserved": 0, "fusion_lon": 0.0, "fusion_lat": 0.0, "lon": -76.98588466666666, "name": "0f0c3ac90c705da3a23009b819a299f9"}, {"bike_id": "5e8f83bcde2344045f6fec3db49e148e", "type": "electric_scooter", "is_disabled": 0, "lat": 38.88530083333333, "rental_uris": {"ios": "https://dc.lft.to/lastmile_qr_scan", "android": "https://dc.lft.to/lastmile_qr_scan"}, "is_reserved": 0, "fusion_lon": 0.0, "fusion_lat": 0.0, "lon": -77.0113955, "name": "5e8f83bcde2344045f6fec3db49e148e"}, {"bike_id": "cf71a1bc79beef9ce5ecb729163b1c51", "type": "electric_scooter", "is_disabled": 0, "lat": 38.96143133333333, "rental_uris": {"ios": "https://dc.lft.to/lastmile_qr_scan", "android": "https://dc.lft.to/lastmile_qr_scan"}, "is_reserved": 0, "fusion_lon": 0.0, "fusion_lat": 0.0, "lon": -77.02991633333333, "name": "cf71a1bc79beef9ce5ecb729163b1c51"}, {"bike_id": "982ef28587cf1c01c2e91749d490862f", "type": "electric_bike", "is_disabled": 0, "lat": 39.03987566666667, "rental_uris": {"ios": "https://dc.lft.to/lastmile_qr_scan", "android": "https://dc.lft.to/lastmile_qr_scan"}, "is_reserved": 0, "fusion_lon": 0.0, "fusion_lat": 0.0, "lon": -76.99929033333333, "name": "982ef28587cf1c01c2e91749d490862f"}, {"bike_id": "0a924f813bc9ab64c628803ede7784f9", "type": "electric_scooter", "is_disabled": 0, "lat": 38.904579, "rental_uris": {"ios": "https://dc.lft.to/lastmile_qr_scan", "android": "https://dc.lft.to/lastmile_qr_scan"}, "is_reserved": 0, "fusion_lon": 0.0, "fusion_lat": 0.0, "lon": -77.02695566666667, "name": "0a924f813bc9ab64c628803ede7784f9"}, {"bike_id": "415965060631522f901ba7021959ae8b", "type": "electric_scooter", "is_disabled": 0, "lat": 38.901337, "rental_uris": {"ios": "https://dc.lft.to/lastmile_qr_scan", "android": "https://dc.lft.to/lastmile_qr_scan"}, "is_reserved": 0, "fusion_lon": 0.0, "fusion_lat": 0.0, "lon": -77.016273, "name": "415965060631522f901ba7021959ae8b"}, {"bike_id": "7ef76f03f36871c516a34e04997089c0", "type": "electric_scooter", "is_disabled": 0, "lat": 38.8920555, "rental_uris": {"ios": "https://dc.lft.to/lastmile_qr_scan", "android": "https://dc.lft.to/lastmile_qr_scan"}, "is_reserved": 0, "fusion_lon": 0.0, "fusion_lat": 0.0, "lon": -76.99922433333333, "name": "7ef76f03f36871c516a34e04997089c0"}, {"bike_id": "1cc001ec84abe2505334d6f08d2b029b", "type": "electric_bike", "is_disabled": 0, "lat": 38.95507216666667, "rental_uris": {"ios": "https://dc.lft.to/lastmile_qr_scan", "android": "https://dc.lft.to/lastmile_qr_scan"}, "is_reserved": 0, "fusion_lon": 0.0, "fusion_lat": 0.0, "lon": -76.99353816666667, "name": "1cc001ec84abe2505334d6f08d2b029b"}, {"bike_id": "01ac7e17e83721f9da3adf773faaf923", "type": "electric_scooter", "is_disabled": 0, "lat": 38.937047166666666, "rental_uris": {"ios": "https://dc.lft.to/lastmile_qr_scan", "android": "https://dc.lft.to/lastmile_qr_scan"}, "is_reserved": 0, "fusion_lon": 0.0, "fusion_lat": 0.0, "lon": -77.03275516666666, "name": "01ac7e17e83721f9da3adf773faaf923"}, {"bike_id": "c49a4e0c3daaa9839b4536d5f0e87118", "type": "electric_scooter", "is_disabled": 0, "lat": 38.903422, "rental_uris": {"ios": "https://dc.lft.to/lastmile_qr_scan", "android": "https://dc.lft.to/lastmile_qr_scan"}, "is_reserved": 0, "fusion_lon": 0.0, "fusion_lat": 0.0, "lon": -76.98506516666667, "name": "c49a4e0c3daaa9839b4536d5f0e87118"}, {"bike_id": "00f6588c01e73596305f5106f8ef2170", "type": "electric_scooter", "is_disabled": 0, "lat": 38.959338, "rental_uris": {"ios": "https://dc.lft.to/lastmile_qr_scan", "android": "https://dc.lft.to/lastmile_qr_scan"}, "is_reserved": 0, "fusion_lon": 0.0, "fusion_lat": 0.0, "lon": -77.0311965, "name": "00f6588c01e73596305f5106f8ef2170"}, {"bike_id": "ac4121c7b2867dc0ab1502e8570d98c3", "type": "electric_scooter", "is_disabled": 0, "lat": 38.9419815, "rental_uris": {"ios": "https://dc.lft.to/lastmile_qr_scan", "android": "https://dc.lft.to/lastmile_qr_scan"}, "is_reserved": 0, "fusion_lon": 0.0, "fusion_lat": 0.0, "lon": -77.02349183333334, "name": "ac4121c7b2867dc0ab1502e8570d98c3"}, {"bike_id": "797a1d8c5bc047afa7649dc200ecdfe4", "type": "electric_scooter", "is_disabled": 0, "lat": 38.914437666666664, "rental_uris": {"ios": "https://dc.lft.to/lastmile_qr_scan", "android": "https://dc.lft.to/lastmile_qr_scan"}, "is_reserved": 0, "fusion_lon": 0.0, "fusion_lat": 0.0, "lon": -77.0219135, "name": "797a1d8c5bc047afa7649dc200ecdfe4"}, {"bike_id": "172cc828b1e9b2fcb2b54098a5d435d8", "type": "electric_bike", "is_disabled": 0, "lat": 39.03702666666667, "rental_uris": {"ios": "https://dc.lft.to/lastmile_qr_scan", "android": "https://dc.lft.to/lastmile_qr_scan"}, "is_reserved": 0, "fusion_lon": 0.0, "fusion_lat": 0.0, "lon": -77.02861666666666, "name": "172cc828b1e9b2fcb2b54098a5d435d8"}, {"bike_id": "5640cc7f0ff4f412b8982ec4b1892fa7", "type": "electric_scooter", "is_disabled": 0, "lat": 38.958340166666666, "rental_uris": {"ios": "https://dc.lft.to/lastmile_qr_scan", "android": "https://dc.lft.to/lastmile_qr_scan"}, "is_reserved": 0, "fusion_lon": 0.0, "fusion_lat": 0.0, "lon": -77.015116, "name": "5640cc7f0ff4f412b8982ec4b1892fa7"}, {"bike_id": "0b186631679af8826c2464b1ed53a1df", "type": "electric_scooter", "is_disabled": 0, "lat": 38.876491333333334, "rental_uris": {"ios": "https://dc.lft.to/lastmile_qr_scan", "android": "https://dc.lft.to/lastmile_qr_scan"}, "is_reserved": 0, "fusion_lon": 0.0, "fusion_lat": 0.0, "lon": -76.96506716666667, "name": "0b186631679af8826c2464b1ed53a1df"}, {"bike_id": "73014c366f0a5765fb2240e18075e572", "type": "electric_scooter", "is_disabled": 0, "lat": 38.923441833333335, "rental_uris": {"ios": "https://dc.lft.to/lastmile_qr_scan", "android": "https://dc.lft.to/lastmile_qr_scan"}, "is_reserved": 0, "fusion_lon": 0.0, "fusion_lat": 0.0, "lon": -77.0504835, "name": "73014c366f0a5765fb2240e18075e572"}, {"bike_id": "ae87681ed7fd71a5435f4ac5cbe33b29", "type": "electric_scooter", "is_disabled": 0, "lat": 38.86512966666667, "rental_uris": {"ios": "https://dc.lft.to/lastmile_qr_scan", "android": "https://dc.lft.to/lastmile_qr_scan"}, "is_reserved": 0, "fusion_lon": 0.0, "fusion_lat": 0.0, "lon": -76.9743185, "name": "ae87681ed7fd71a5435f4ac5cbe33b29"}, {"bike_id": "0cba7af860377a8f7cbbff910309b367", "type": "electric_scooter", "is_disabled": 0, "lat": 38.90005716666667, "rental_uris": {"ios": "https://dc.lft.to/lastmile_qr_scan", "android": "https://dc.lft.to/lastmile_qr_scan"}, "is_reserved": 0, "fusion_lon": 0.0, "fusion_lat": 0.0, "lon": -77.00656883333333, "name": "0cba7af860377a8f7cbbff910309b367"}, {"bike_id": "26ea67e680e08ca0fdd8a5d762a1cc64", "type": "electric_bike", "is_disabled": 0, "lat": 38.95622616666667, "rental_uris": {"ios": "https://dc.lft.to/lastmile_qr_scan", "android": "https://dc.lft.to/lastmile_qr_scan"}, "is_reserved": 0, "fusion_lon": 0.0, "fusion_lat": 0.0, "lon": -77.02589066666667, "name": "26ea67e680e08ca0fdd8a5d762a1cc64"}, {"bike_id": "b28146ce1f5eaa7f55136a4f8ffb2972", "type": "electric_scooter", "is_disabled": 0, "lat": 38.87097466666667, "rental_uris": {"ios": "https://dc.lft.to/lastmile_qr_scan", "android": "https://dc.lft.to/lastmile_qr_scan"}, "is_reserved": 0, "fusion_lon": 0.0, "fusion_lat": 0.0, "lon": -77.0080435, "name": "b28146ce1f5eaa7f55136a4f8ffb2972"}, {"bike_id": "bb5c34224aec12a31f8289decff1cd16", "type": "electric_scooter", "is_disabled": 0, "lat": 38.92130266666667, "rental_uris": {"ios": "https://dc.lft.to/lastmile_qr_scan", "android": "https://dc.lft.to/lastmile_qr_scan"}, "is_reserved": 0, "fusion_lon": 0.0, "fusion_lat": 0.0, "lon": -77.04423066666666, "name": "bb5c34224aec12a31f8289decff1cd16"}, {"bike_id": "d78f312387c43be278f7f31ef85b702e", "type": "electric_scooter", "is_disabled": 0, "lat": 38.91205633333333, "rental_uris": {"ios": "https://dc.lft.to/lastmile_qr_scan", "android": "https://dc.lft.to/lastmile_qr_scan"}, "is_reserved": 0, "fusion_lon": 0.0, "fusion_lat": 0.0, "lon": -77.03840616666666, "name": "d78f312387c43be278f7f31ef85b702e"}, {"bike_id": "aa7c6465676a6a5bb6f0c1ffd7ace8ae", "type": "electric_scooter", "is_disabled": 0, "lat": 38.9145915, "rental_uris": {"ios": "https://dc.lft.to/lastmile_qr_scan", "android": "https://dc.lft.to/lastmile_qr_scan"}, "is_reserved": 0, "fusion_lon": 0.0, "fusion_lat": 0.0, "lon": -77.07267816666666, "name": "aa7c6465676a6a5bb6f0c1ffd7ace8ae"}, {"bike_id": "287a3f54e230a530ab32342782dece8d", "type": "electric_scooter", "is_disabled": 0, "lat": 38.885266, "rental_uris": {"ios": "https://dc.lft.to/lastmile_qr_scan", "android": "https://dc.lft.to/lastmile_qr_scan"}, "is_reserved": 0, "fusion_lon": 0.0, "fusion_lat": 0.0, "lon": -77.028216, "name": "287a3f54e230a530ab32342782dece8d"}, {"bike_id": "8a6338a593490533b68bc29f96f1d01e", "type": "electric_scooter", "is_disabled": 0, "lat": 38.8856285, "rental_uris": {"ios": "https://dc.lft.to/lastmile_qr_scan", "android": "https://dc.lft.to/lastmile_qr_scan"}, "is_reserved": 0, "fusion_lon": 0.0, "fusion_lat": 0.0, "lon": -77.0020985, "name": "8a6338a593490533b68bc29f96f1d01e"}, {"bike_id": "b332b430266589beea4c43993cfd637b", "type": "electric_scooter", "is_disabled": 0, "lat": 38.90494316666667, "rental_uris": {"ios": "https://dc.lft.to/lastmile_qr_scan", "android": "https://dc.lft.to/lastmile_qr_scan"}, "is_reserved": 0, "fusion_lon": 0.0, "fusion_lat": 0.0, "lon": -77.00714716666667, "name": "b332b430266589beea4c43993cfd637b"}, {"bike_id": "0dad67691bc2829f21eca856e4accfd1", "type": "electric_scooter", "is_disabled": 0, "lat": 38.94292, "rental_uris": {"ios": "https://dc.lft.to/lastmile_qr_scan", "android": "https://dc.lft.to/lastmile_qr_scan"}, "is_reserved": 0, "fusion_lon": 0.0, "fusion_lat": 0.0, "lon": -77.02171316666667, "name": "0dad67691bc2829f21eca856e4accfd1"}, {"bike_id": "105c6c05960b10924191a83a6ad0c4aa", "type": "electric_scooter", "is_disabled": 0, "lat": 38.929033833333335, "rental_uris": {"ios": "https://dc.lft.to/lastmile_qr_scan", "android": "https://dc.lft.to/lastmile_qr_scan"}, "is_reserved": 0, "fusion_lon": 0.0, "fusion_lat": 0.0, "lon": -77.01644733333333, "name": "105c6c05960b10924191a83a6ad0c4aa"}, {"bike_id": "90945d5d886760749468cb740f953f08", "type": "electric_scooter", "is_disabled": 0, "lat": 38.90069316666667, "rental_uris": {"ios": "https://dc.lft.to/lastmile_qr_scan", "android": "https://dc.lft.to/lastmile_qr_scan"}, "is_reserved": 0, "fusion_lon": 0.0, "fusion_lat": 0.0, "lon": -77.0475905, "name": "90945d5d886760749468cb740f953f08"}, {"bike_id": "0cf644585b4abd619d9743903020740a", "type": "electric_bike", "is_disabled": 0, "lat": 38.872770833333334, "rental_uris": {"ios": "https://dc.lft.to/lastmile_qr_scan", "android": "https://dc.lft.to/lastmile_qr_scan"}, "is_reserved": 0, "fusion_lon": 0.0, "fusion_lat": 0.0, "lon": -77.2332415, "name": "0cf644585b4abd619d9743903020740a"}, {"bike_id": "7c3f7428681e0637eb44a65bcfb48b1e", "type": "electric_bike", "is_disabled": 0, "lat": 38.96471616666667, "rental_uris": {"ios": "https://dc.lft.to/lastmile_qr_scan", "android": "https://dc.lft.to/lastmile_qr_scan"}, "is_reserved": 0, "fusion_lon": 0.0, "fusion_lat": 0.0, "lon": -77.03563383333334, "name": "7c3f7428681e0637eb44a65bcfb48b1e"}, {"bike_id": "808c1704146cf7f644c60e48b6fc7cd6", "type": "electric_scooter", "is_disabled": 0, "lat": 38.9138255, "rental_uris": {"ios": "https://dc.lft.to/lastmile_qr_scan", "android": "https://dc.lft.to/lastmile_qr_scan"}, "is_reserved": 0, "fusion_lon": 0.0, "fusion_lat": 0.0, "lon": -77.04133866666666, "name": "808c1704146cf7f644c60e48b6fc7cd6"}, {"bike_id": "377c9febbec2f8d65a22b57e058d5dad", "type": "electric_scooter", "is_disabled": 0, "lat": 38.9272195, "rental_uris": {"ios": "https://dc.lft.to/lastmile_qr_scan", "android": "https://dc.lft.to/lastmile_qr_scan"}, "is_reserved": 0, "fusion_lon": 0.0, "fusion_lat": 0.0, "lon": -77.039873, "name": "377c9febbec2f8d65a22b57e058d5dad"}, {"bike_id": "0d7388aa37f56fda87e8fce228f2d6a5", "type": "electric_scooter", "is_disabled": 0, "lat": 38.933120833333334, "rental_uris": {"ios": "https://dc.lft.to/lastmile_qr_scan", "android": "https://dc.lft.to/lastmile_qr_scan"}, "is_reserved": 0, "fusion_lon": 0.0, "fusion_lat": 0.0, "lon": -77.02157166666667, "name": "0d7388aa37f56fda87e8fce228f2d6a5"}, {"bike_id": "9627d46769dbabd333a12a82e9b5a96a", "type": "electric_scooter", "is_disabled": 0, "lat": 38.908279, "rental_uris": {"ios": "https://dc.lft.to/lastmile_qr_scan", "android": "https://dc.lft.to/lastmile_qr_scan"}, "is_reserved": 0, "fusion_lon": 0.0, "fusion_lat": 0.0, "lon": -76.941576, "name": "9627d46769dbabd333a12a82e9b5a96a"}, {"bike_id": "066598c02eb61895a0da9f8a992f9252", "type": "electric_scooter", "is_disabled": 0, "lat": 38.915682833333335, "rental_uris": {"ios": "https://dc.lft.to/lastmile_qr_scan", "android": "https://dc.lft.to/lastmile_qr_scan"}, "is_reserved": 0, "fusion_lon": 0.0, "fusion_lat": 0.0, "lon": -77.04111066666667, "name": "066598c02eb61895a0da9f8a992f9252"}, {"bike_id": "fb5982d4e64c23e37239dd91359a3309", "type": "electric_scooter", "is_disabled": 0, "lat": 38.91568433333333, "rental_uris": {"ios": "https://dc.lft.to/lastmile_qr_scan", "android": "https://dc.lft.to/lastmile_qr_scan"}, "is_reserved": 0, "fusion_lon": 0.0, "fusion_lat": 0.0, "lon": -77.04504416666667, "name": "fb5982d4e64c23e37239dd91359a3309"}, {"bike_id": "bb2161e16ed4a7587695661f0272a782", "type": "electric_scooter", "is_disabled": 0, "lat": 38.90276016666667, "rental_uris": {"ios": "https://dc.lft.to/lastmile_qr_scan", "android": "https://dc.lft.to/lastmile_qr_scan"}, "is_reserved": 0, "fusion_lon": 0.0, "fusion_lat": 0.0, "lon": -77.01901133333334, "name": "bb2161e16ed4a7587695661f0272a782"}, {"bike_id": "e81796b59560921786d2c929930f2a9d", "type": "electric_scooter", "is_disabled": 0, "lat": 38.91288566666667, "rental_uris": {"ios": "https://dc.lft.to/lastmile_qr_scan", "android": "https://dc.lft.to/lastmile_qr_scan"}, "is_reserved": 0, "fusion_lon": 0.0, "fusion_lat": 0.0, "lon": -77.02710683333333, "name": "e81796b59560921786d2c929930f2a9d"}, {"bike_id": "8c2862f0e32e9a6054bac2a64ed727b2", "type": "electric_scooter", "is_disabled": 0, "lat": 38.924709666666665, "rental_uris": {"ios": "https://dc.lft.to/lastmile_qr_scan", "android": "https://dc.lft.to/lastmile_qr_scan"}, "is_reserved": 0, "fusion_lon": 0.0, "fusion_lat": 0.0, "lon": -77.02836883333333, "name": "8c2862f0e32e9a6054bac2a64ed727b2"}, {"bike_id": "5f6bbcaea9614741ff5ef459eca71f16", "type": "electric_scooter", "is_disabled": 0, "lat": 38.926148, "rental_uris": {"ios": "https://dc.lft.to/lastmile_qr_scan", "android": "https://dc.lft.to/lastmile_qr_scan"}, "is_reserved": 0, "fusion_lon": 0.0, "fusion_lat": 0.0, "lon": -77.02161666666667, "name": "5f6bbcaea9614741ff5ef459eca71f16"}, {"bike_id": "fdf6e6d54a2bb6ecc96a60e359bf95e2", "type": "electric_scooter", "is_disabled": 0, "lat": 38.9000605, "rental_uris": {"ios": "https://dc.lft.to/lastmile_qr_scan", "android": "https://dc.lft.to/lastmile_qr_scan"}, "is_reserved": 0, "fusion_lon": 0.0, "fusion_lat": 0.0, "lon": -77.04665816666666, "name": "fdf6e6d54a2bb6ecc96a60e359bf95e2"}, {"bike_id": "bdd2fe7a1fb50d4f86f4d394b0cfd9d9", "type": "electric_scooter", "is_disabled": 0, "lat": 38.93544816666667, "rental_uris": {"ios": "https://dc.lft.to/lastmile_qr_scan", "android": "https://dc.lft.to/lastmile_qr_scan"}, "is_reserved": 0, "fusion_lon": 0.0, "fusion_lat": 0.0, "lon": -77.05861933333334, "name": "bdd2fe7a1fb50d4f86f4d394b0cfd9d9"}, {"bike_id": "37c2805231fcb1f25531161d8c877e14", "type": "electric_scooter", "is_disabled": 0, "lat": 38.92324416666666, "rental_uris": {"ios": "https://dc.lft.to/lastmile_qr_scan", "android": "https://dc.lft.to/lastmile_qr_scan"}, "is_reserved": 0, "fusion_lon": 0.0, "fusion_lat": 0.0, "lon": -77.0279405, "name": "37c2805231fcb1f25531161d8c877e14"}, {"bike_id": "3158a34ddf0c6bf40314b50a196c9d25", "type": "electric_scooter", "is_disabled": 0, "lat": 38.9259435, "rental_uris": {"ios": "https://dc.lft.to/lastmile_qr_scan", "android": "https://dc.lft.to/lastmile_qr_scan"}, "is_reserved": 0, "fusion_lon": 0.0, "fusion_lat": 0.0, "lon": -77.04397066666667, "name": "3158a34ddf0c6bf40314b50a196c9d25"}, {"bike_id": "3e1fa5c9add5dfb1a7580f418ab533d0", "type": "electric_scooter", "is_disabled": 0, "lat": 38.882993166666665, "rental_uris": {"ios": "https://dc.lft.to/lastmile_qr_scan", "android": "https://dc.lft.to/lastmile_qr_scan"}, "is_reserved": 0, "fusion_lon": 0.0, "fusion_lat": 0.0, "lon": -76.9485, "name": "3e1fa5c9add5dfb1a7580f418ab533d0"}, {"bike_id": "c2d34aaf08b04bca721c1e5d02bbc20e", "type": "electric_scooter", "is_disabled": 0, "lat": 38.864763333333336, "rental_uris": {"ios": "https://dc.lft.to/lastmile_qr_scan", "android": "https://dc.lft.to/lastmile_qr_scan"}, "is_reserved": 0, "fusion_lon": 0.0, "fusion_lat": 0.0, "lon": -76.97735866666666, "name": "c2d34aaf08b04bca721c1e5d02bbc20e"}, {"bike_id": "fef6e0c8edb706e5ccea4fbf15aa841d", "type": "electric_scooter", "is_disabled": 0, "lat": 38.9006825, "rental_uris": {"ios": "https://dc.lft.to/lastmile_qr_scan", "android": "https://dc.lft.to/lastmile_qr_scan"}, "is_reserved": 0, "fusion_lon": 0.0, "fusion_lat": 0.0, "lon": -77.04675333333333, "name": "fef6e0c8edb706e5ccea4fbf15aa841d"}, {"bike_id": "451f5af36dcd5c9f17ef5e474aa04045", "type": "electric_bike", "is_disabled": 0, "lat": 38.969615833333336, "rental_uris": {"ios": "https://dc.lft.to/lastmile_qr_scan", "android": "https://dc.lft.to/lastmile_qr_scan"}, "is_reserved": 0, "fusion_lon": 0.0, "fusion_lat": 0.0, "lon": -76.95748616666667, "name": "451f5af36dcd5c9f17ef5e474aa04045"}, {"bike_id": "b57a1ed91f7214808c84a49b793bf98f", "type": "electric_scooter", "is_disabled": 0, "lat": 38.910516666666666, "rental_uris": {"ios": "https://dc.lft.to/lastmile_qr_scan", "android": "https://dc.lft.to/lastmile_qr_scan"}, "is_reserved": 0, "fusion_lon": 0.0, "fusion_lat": 0.0, "lon": -77.02683816666666, "name": "b57a1ed91f7214808c84a49b793bf98f"}, {"bike_id": "dcbbf34472d555e807a2835a8c0c8785", "type": "electric_scooter", "is_disabled": 0, "lat": 38.87443433333333, "rental_uris": {"ios": "https://dc.lft.to/lastmile_qr_scan", "android": "https://dc.lft.to/lastmile_qr_scan"}, "is_reserved": 0, "fusion_lon": 0.0, "fusion_lat": 0.0, "lon": -77.00050283333333, "name": "dcbbf34472d555e807a2835a8c0c8785"}, {"bike_id": "c8818ae8aceaa8231303abae812d7a43", "type": "electric_scooter", "is_disabled": 0, "lat": 38.87829283333333, "rental_uris": {"ios": "https://dc.lft.to/lastmile_qr_scan", "android": "https://dc.lft.to/lastmile_qr_scan"}, "is_reserved": 0, "fusion_lon": 0.0, "fusion_lat": 0.0, "lon": -76.96307216666666, "name": "c8818ae8aceaa8231303abae812d7a43"}, {"bike_id": "614e787cf4d5d81f40d88f87bff55005", "type": "electric_scooter", "is_disabled": 0, "lat": 38.86699933333333, "rental_uris": {"ios": "https://dc.lft.to/lastmile_qr_scan", "android": "https://dc.lft.to/lastmile_qr_scan"}, "is_reserved": 0, "fusion_lon": 0.0, "fusion_lat": 0.0, "lon": -76.9871565, "name": "614e787cf4d5d81f40d88f87bff55005"}, {"bike_id": "542cb0e500ca2f6c4da470783b3f794c", "type": "electric_scooter", "is_disabled": 0, "lat": 38.940887000000004, "rental_uris": {"ios": "https://dc.lft.to/lastmile_qr_scan", "android": "https://dc.lft.to/lastmile_qr_scan"}, "is_reserved": 0, "fusion_lon": 0.0, "fusion_lat": 0.0, "lon": -77.0271845, "name": "542cb0e500ca2f6c4da470783b3f794c"}, {"bike_id": "360c9506c303ccd0c49c887f4a1bc404", "type": "electric_scooter", "is_disabled": 0, "lat": 38.87093516666667, "rental_uris": {"ios": "https://dc.lft.to/lastmile_qr_scan", "android": "https://dc.lft.to/lastmile_qr_scan"}, "is_reserved": 0, "fusion_lon": 0.0, "fusion_lat": 0.0, "lon": -76.96586, "name": "360c9506c303ccd0c49c887f4a1bc404"}, {"bike_id": "bf5b7d3f67aeb70ed11f91f7e768c1e8", "type": "electric_scooter", "is_disabled": 0, "lat": 38.91468783333333, "rental_uris": {"ios": "https://dc.lft.to/lastmile_qr_scan", "android": "https://dc.lft.to/lastmile_qr_scan"}, "is_reserved": 0, "fusion_lon": 0.0, "fusion_lat": 0.0, "lon": -76.984119, "name": "bf5b7d3f67aeb70ed11f91f7e768c1e8"}, {"bike_id": "aa968c80f4b30ad4c0f2b02fea37b5dc", "type": "electric_scooter", "is_disabled": 0, "lat": 38.918232333333336, "rental_uris": {"ios": "https://dc.lft.to/lastmile_qr_scan", "android": "https://dc.lft.to/lastmile_qr_scan"}, "is_reserved": 0, "fusion_lon": 0.0, "fusion_lat": 0.0, "lon": -77.04940066666667, "name": "aa968c80f4b30ad4c0f2b02fea37b5dc"}, {"bike_id": "e09dbb65127fa144a614e4c094e7ce38", "type": "electric_scooter", "is_disabled": 0, "lat": 38.91549666666667, "rental_uris": {"ios": "https://dc.lft.to/lastmile_qr_scan", "android": "https://dc.lft.to/lastmile_qr_scan"}, "is_reserved": 0, "fusion_lon": 0.0, "fusion_lat": 0.0, "lon": -76.9834955, "name": "e09dbb65127fa144a614e4c094e7ce38"}, {"bike_id": "6469d108b1b54bfd1d759defc79007c7", "type": "electric_bike", "is_disabled": 0, "lat": 39.052795833333334, "rental_uris": {"ios": "https://dc.lft.to/lastmile_qr_scan", "android": "https://dc.lft.to/lastmile_qr_scan"}, "is_reserved": 0, "fusion_lon": 0.0, "fusion_lat": 0.0, "lon": -77.0806575, "name": "6469d108b1b54bfd1d759defc79007c7"}, {"bike_id": "7c2d0cfaf023cc710b6422e4ccb5309f", "type": "electric_scooter", "is_disabled": 0, "lat": 38.917041166666664, "rental_uris": {"ios": "https://dc.lft.to/lastmile_qr_scan", "android": "https://dc.lft.to/lastmile_qr_scan"}, "is_reserved": 0, "fusion_lon": 0.0, "fusion_lat": 0.0, "lon": -77.0065585, "name": "7c2d0cfaf023cc710b6422e4ccb5309f"}, {"bike_id": "b208e2776409baf1e17e56b83881d6a4", "type": "electric_scooter", "is_disabled": 0, "lat": 38.900111833333334, "rental_uris": {"ios": "https://dc.lft.to/lastmile_qr_scan", "android": "https://dc.lft.to/lastmile_qr_scan"}, "is_reserved": 0, "fusion_lon": 0.0, "fusion_lat": 0.0, "lon": -77.04149883333334, "name": "b208e2776409baf1e17e56b83881d6a4"}, {"bike_id": "774bfcfbcf9165747e1379ceeb78a4e1", "type": "electric_scooter", "is_disabled": 0, "lat": 38.903794500000004, "rental_uris": {"ios": "https://dc.lft.to/lastmile_qr_scan", "android": "https://dc.lft.to/lastmile_qr_scan"}, "is_reserved": 0, "fusion_lon": 0.0, "fusion_lat": 0.0, "lon": -77.01638683333333, "name": "774bfcfbcf9165747e1379ceeb78a4e1"}, {"bike_id": "4392844b516feeab0fff0a28df273fe4", "type": "electric_scooter", "is_disabled": 0, "lat": 38.926576, "rental_uris": {"ios": "https://dc.lft.to/lastmile_qr_scan", "android": "https://dc.lft.to/lastmile_qr_scan"}, "is_reserved": 0, "fusion_lon": 0.0, "fusion_lat": 0.0, "lon": -77.03728183333334, "name": "4392844b516feeab0fff0a28df273fe4"}, {"bike_id": "e00ec6f8ddec4b3577f40a4da5c88bdb", "type": "electric_scooter", "is_disabled": 0, "lat": 38.917012166666666, "rental_uris": {"ios": "https://dc.lft.to/lastmile_qr_scan", "android": "https://dc.lft.to/lastmile_qr_scan"}, "is_reserved": 0, "fusion_lon": 0.0, "fusion_lat": 0.0, "lon": -77.00798433333334, "name": "e00ec6f8ddec4b3577f40a4da5c88bdb"}, {"bike_id": "29cb6794466c38f64488f239327a3302", "type": "electric_scooter", "is_disabled": 0, "lat": 38.925842, "rental_uris": {"ios": "https://dc.lft.to/lastmile_qr_scan", "android": "https://dc.lft.to/lastmile_qr_scan"}, "is_reserved": 0, "fusion_lon": 0.0, "fusion_lat": 0.0, "lon": -77.02761616666666, "name": "29cb6794466c38f64488f239327a3302"}, {"bike_id": "1b1bf80613cff74f82315673f21d4e71", "type": "electric_scooter", "is_disabled": 0, "lat": 38.922695833333336, "rental_uris": {"ios": "https://dc.lft.to/lastmile_qr_scan", "android": "https://dc.lft.to/lastmile_qr_scan"}, "is_reserved": 0, "fusion_lon": 0.0, "fusion_lat": 0.0, "lon": -77.03261283333333, "name": "1b1bf80613cff74f82315673f21d4e71"}, {"bike_id": "7b81a1f998458be568c225eda92a6f58", "type": "electric_scooter", "is_disabled": 0, "lat": 38.909721, "rental_uris": {"ios": "https://dc.lft.to/lastmile_qr_scan", "android": "https://dc.lft.to/lastmile_qr_scan"}, "is_reserved": 0, "fusion_lon": 0.0, "fusion_lat": 0.0, "lon": -77.03755416666667, "name": "7b81a1f998458be568c225eda92a6f58"}, {"bike_id": "f47d93b3296a36aec9bb6dd4db47bad9", "type": "electric_scooter", "is_disabled": 0, "lat": 38.91416, "rental_uris": {"ios": "https://dc.lft.to/lastmile_qr_scan", "android": "https://dc.lft.to/lastmile_qr_scan"}, "is_reserved": 0, "fusion_lon": 0.0, "fusion_lat": 0.0, "lon": -77.02252283333333, "name": "f47d93b3296a36aec9bb6dd4db47bad9"}, {"bike_id": "f1e10ded157efd2e056164d3c54d93c8", "type": "electric_scooter", "is_disabled": 0, "lat": 38.90119466666667, "rental_uris": {"ios": "https://dc.lft.to/lastmile_qr_scan", "android": "https://dc.lft.to/lastmile_qr_scan"}, "is_reserved": 0, "fusion_lon": 0.0, "fusion_lat": 0.0, "lon": -77.0248695, "name": "f1e10ded157efd2e056164d3c54d93c8"}, {"bike_id": "1cb5df3319960012c3ce6395c881d2c1", "type": "electric_scooter", "is_disabled": 0, "lat": 38.8961635, "rental_uris": {"ios": "https://dc.lft.to/lastmile_qr_scan", "android": "https://dc.lft.to/lastmile_qr_scan"}, "is_reserved": 0, "fusion_lon": 0.0, "fusion_lat": 0.0, "lon": -77.00024416666666, "name": "1cb5df3319960012c3ce6395c881d2c1"}, {"bike_id": "a0244522dc76638205f563ffd5be1837", "type": "electric_scooter", "is_disabled": 0, "lat": 38.915684, "rental_uris": {"ios": "https://dc.lft.to/lastmile_qr_scan", "android": "https://dc.lft.to/lastmile_qr_scan"}, "is_reserved": 0, "fusion_lon": 0.0, "fusion_lat": 0.0, "lon": -77.02382883333334, "name": "a0244522dc76638205f563ffd5be1837"}, {"bike_id": "6fb803fe1c6c7a83315590d19e53642d", "type": "electric_scooter", "is_disabled": 0, "lat": 38.89254, "rental_uris": {"ios": "https://dc.lft.to/lastmile_qr_scan", "android": "https://dc.lft.to/lastmile_qr_scan"}, "is_reserved": 0, "fusion_lon": 0.0, "fusion_lat": 0.0, "lon": -77.03345583333333, "name": "6fb803fe1c6c7a83315590d19e53642d"}, {"bike_id": "b42211d54e0bf033636958f3b616e9ae", "type": "electric_bike", "is_disabled": 0, "lat": 38.871383333333334, "rental_uris": {"ios": "https://dc.lft.to/lastmile_qr_scan", "android": "https://dc.lft.to/lastmile_qr_scan"}, "is_reserved": 0, "fusion_lon": 0.0, "fusion_lat": 0.0, "lon": -77.10032633333333, "name": "b42211d54e0bf033636958f3b616e9ae"}, {"bike_id": "51ac94f6d43a936dc69a32f8aa49be1c", "type": "electric_bike", "is_disabled": 0, "lat": 38.836085, "rental_uris": {"ios": "https://dc.lft.to/lastmile_qr_scan", "android": "https://dc.lft.to/lastmile_qr_scan"}, "is_reserved": 0, "fusion_lon": 0.0, "fusion_lat": 0.0, "lon": -77.00378216666667, "name": "51ac94f6d43a936dc69a32f8aa49be1c"}, {"bike_id": "889454f87fb99ec7b4fe8ae15d51a6c6", "type": "electric_scooter", "is_disabled": 0, "lat": 38.902603166666665, "rental_uris": {"ios": "https://dc.lft.to/lastmile_qr_scan", "android": "https://dc.lft.to/lastmile_qr_scan"}, "is_reserved": 0, "fusion_lon": 0.0, "fusion_lat": 0.0, "lon": -77.01841933333333, "name": "889454f87fb99ec7b4fe8ae15d51a6c6"}, {"bike_id": "60a892fa0c88e54733b0a71fa586ac9f", "type": "electric_scooter", "is_disabled": 0, "lat": 38.91615766666666, "rental_uris": {"ios": "https://dc.lft.to/lastmile_qr_scan", "android": "https://dc.lft.to/lastmile_qr_scan"}, "is_reserved": 0, "fusion_lon": 0.0, "fusion_lat": 0.0, "lon": -77.04863483333334, "name": "60a892fa0c88e54733b0a71fa586ac9f"}, {"bike_id": "05795e764ff4cbc4615bea8899404a5c", "type": "electric_scooter", "is_disabled": 0, "lat": 38.91865716666667, "rental_uris": {"ios": "https://dc.lft.to/lastmile_qr_scan", "android": "https://dc.lft.to/lastmile_qr_scan"}, "is_reserved": 0, "fusion_lon": 0.0, "fusion_lat": 0.0, "lon": -77.0280835, "name": "05795e764ff4cbc4615bea8899404a5c"}, {"bike_id": "7e77a848b85c5951327570f201fc5790", "type": "electric_scooter", "is_disabled": 0, "lat": 38.9000855, "rental_uris": {"ios": "https://dc.lft.to/lastmile_qr_scan", "android": "https://dc.lft.to/lastmile_qr_scan"}, "is_reserved": 0, "fusion_lon": 0.0, "fusion_lat": 0.0, "lon": -77.0533775, "name": "7e77a848b85c5951327570f201fc5790"}, {"bike_id": "2d3786892481685fe319b03cc4108b88", "type": "electric_scooter", "is_disabled": 0, "lat": 38.942160666666666, "rental_uris": {"ios": "https://dc.lft.to/lastmile_qr_scan", "android": "https://dc.lft.to/lastmile_qr_scan"}, "is_reserved": 0, "fusion_lon": 0.0, "fusion_lat": 0.0, "lon": -77.0258425, "name": "2d3786892481685fe319b03cc4108b88"}, {"bike_id": "33f6c09eb331949565f49caf6656b46a", "type": "electric_scooter", "is_disabled": 0, "lat": 38.9064125, "rental_uris": {"ios": "https://dc.lft.to/lastmile_qr_scan", "android": "https://dc.lft.to/lastmile_qr_scan"}, "is_reserved": 0, "fusion_lon": 0.0, "fusion_lat": 0.0, "lon": -77.0142575, "name": "33f6c09eb331949565f49caf6656b46a"}, {"bike_id": "e6629e9886ecfc015e17a3a4975cb1e7", "type": "electric_scooter", "is_disabled": 0, "lat": 38.90511433333333, "rental_uris": {"ios": "https://dc.lft.to/lastmile_qr_scan", "android": "https://dc.lft.to/lastmile_qr_scan"}, "is_reserved": 0, "fusion_lon": 0.0, "fusion_lat": 0.0, "lon": -77.0383325, "name": "e6629e9886ecfc015e17a3a4975cb1e7"}, {"bike_id": "f24cc4d3f395ccd23c84866d5b176235", "type": "electric_scooter", "is_disabled": 0, "lat": 38.902248, "rental_uris": {"ios": "https://dc.lft.to/lastmile_qr_scan", "android": "https://dc.lft.to/lastmile_qr_scan"}, "is_reserved": 0, "fusion_lon": 0.0, "fusion_lat": 0.0, "lon": -77.02216633333333, "name": "f24cc4d3f395ccd23c84866d5b176235"}, {"bike_id": "da432f31f396b5aacd70f7bf55f6be5d", "type": "electric_scooter", "is_disabled": 0, "lat": 38.9106665, "rental_uris": {"ios": "https://dc.lft.to/lastmile_qr_scan", "android": "https://dc.lft.to/lastmile_qr_scan"}, "is_reserved": 0, "fusion_lon": 0.0, "fusion_lat": 0.0, "lon": -77.03715066666666, "name": "da432f31f396b5aacd70f7bf55f6be5d"}, {"bike_id": "160e865e5afe008abe79c4b4b3df60b2", "type": "electric_scooter", "is_disabled": 0, "lat": 38.93638166666667, "rental_uris": {"ios": "https://dc.lft.to/lastmile_qr_scan", "android": "https://dc.lft.to/lastmile_qr_scan"}, "is_reserved": 0, "fusion_lon": 0.0, "fusion_lat": 0.0, "lon": -77.05883783333333, "name": "160e865e5afe008abe79c4b4b3df60b2"}, {"bike_id": "e05d385fb3eda3dc14a4e215d08b965e", "type": "electric_scooter", "is_disabled": 0, "lat": 38.8520395, "rental_uris": {"ios": "https://dc.lft.to/lastmile_qr_scan", "android": "https://dc.lft.to/lastmile_qr_scan"}, "is_reserved": 0, "fusion_lon": 0.0, "fusion_lat": 0.0, "lon": -76.98556066666667, "name": "e05d385fb3eda3dc14a4e215d08b965e"}, {"bike_id": "87a3c735eca64c1e953c7daf2e6fd8fc", "type": "electric_scooter", "is_disabled": 0, "lat": 38.93537233333333, "rental_uris": {"ios": "https://dc.lft.to/lastmile_qr_scan", "android": "https://dc.lft.to/lastmile_qr_scan"}, "is_reserved": 0, "fusion_lon": 0.0, "fusion_lat": 0.0, "lon": -77.02346816666666, "name": "87a3c735eca64c1e953c7daf2e6fd8fc"}, {"bike_id": "c0b85e53e38a1f133c524aa19f7d9bb0", "type": "electric_bike", "is_disabled": 0, "lat": 38.897405166666665, "rental_uris": {"ios": "https://dc.lft.to/lastmile_qr_scan", "android": "https://dc.lft.to/lastmile_qr_scan"}, "is_reserved": 0, "fusion_lon": 0.0, "fusion_lat": 0.0, "lon": -76.94245633333334, "name": "c0b85e53e38a1f133c524aa19f7d9bb0"}, {"bike_id": "95a9eaf609334930dcdc2d0bd2dabcf4", "type": "electric_scooter", "is_disabled": 0, "lat": 38.903658666666665, "rental_uris": {"ios": "https://dc.lft.to/lastmile_qr_scan", "android": "https://dc.lft.to/lastmile_qr_scan"}, "is_reserved": 0, "fusion_lon": 0.0, "fusion_lat": 0.0, "lon": -76.993861, "name": "95a9eaf609334930dcdc2d0bd2dabcf4"}, {"bike_id": "48bfbc9a2dacd680df14e0f7e0d145d7", "type": "electric_scooter", "is_disabled": 0, "lat": 38.934437333333335, "rental_uris": {"ios": "https://dc.lft.to/lastmile_qr_scan", "android": "https://dc.lft.to/lastmile_qr_scan"}, "is_reserved": 0, "fusion_lon": 0.0, "fusion_lat": 0.0, "lon": -77.02984933333333, "name": "48bfbc9a2dacd680df14e0f7e0d145d7"}, {"bike_id": "f892f3fbe63b4038602b6a9c0f2a1b98", "type": "electric_scooter", "is_disabled": 0, "lat": 38.921928, "rental_uris": {"ios": "https://dc.lft.to/lastmile_qr_scan", "android": "https://dc.lft.to/lastmile_qr_scan"}, "is_reserved": 0, "fusion_lon": 0.0, "fusion_lat": 0.0, "lon": -76.99364966666667, "name": "f892f3fbe63b4038602b6a9c0f2a1b98"}, {"bike_id": "637942261362ca8c2a52cac68c8f30a8", "type": "electric_scooter", "is_disabled": 0, "lat": 38.912786, "rental_uris": {"ios": "https://dc.lft.to/lastmile_qr_scan", "android": "https://dc.lft.to/lastmile_qr_scan"}, "is_reserved": 0, "fusion_lon": 0.0, "fusion_lat": 0.0, "lon": -77.04729816666666, "name": "637942261362ca8c2a52cac68c8f30a8"}, {"bike_id": "6052db583c4982521cc72f395908e207", "type": "electric_scooter", "is_disabled": 0, "lat": 38.930096, "rental_uris": {"ios": "https://dc.lft.to/lastmile_qr_scan", "android": "https://dc.lft.to/lastmile_qr_scan"}, "is_reserved": 0, "fusion_lon": 0.0, "fusion_lat": 0.0, "lon": -77.01430883333333, "name": "6052db583c4982521cc72f395908e207"}, {"bike_id": "40004570bc9cadd0bcd0bcb547f8ae79", "type": "electric_scooter", "is_disabled": 0, "lat": 38.857042666666665, "rental_uris": {"ios": "https://dc.lft.to/lastmile_qr_scan", "android": "https://dc.lft.to/lastmile_qr_scan"}, "is_reserved": 0, "fusion_lon": 0.0, "fusion_lat": 0.0, "lon": -76.98966883333334, "name": "40004570bc9cadd0bcd0bcb547f8ae79"}, {"bike_id": "9da87b8731516a5e490dc8f728c774d7", "type": "electric_bike", "is_disabled": 0, "lat": 39.057926333333334, "rental_uris": {"ios": "https://dc.lft.to/lastmile_qr_scan", "android": "https://dc.lft.to/lastmile_qr_scan"}, "is_reserved": 0, "fusion_lon": 0.0, "fusion_lat": 0.0, "lon": -77.15022033333334, "name": "9da87b8731516a5e490dc8f728c774d7"}, {"bike_id": "a945df035bd0c9f6508335016aec599b", "type": "electric_scooter", "is_disabled": 0, "lat": 38.9006055, "rental_uris": {"ios": "https://dc.lft.to/lastmile_qr_scan", "android": "https://dc.lft.to/lastmile_qr_scan"}, "is_reserved": 0, "fusion_lon": 0.0, "fusion_lat": 0.0, "lon": -76.93474266666666, "name": "a945df035bd0c9f6508335016aec599b"}, {"bike_id": "45810b6ec90e0698a0e954ac64741d31", "type": "electric_bike", "is_disabled": 0, "lat": 38.85317116666667, "rental_uris": {"ios": "https://dc.lft.to/lastmile_qr_scan", "android": "https://dc.lft.to/lastmile_qr_scan"}, "is_reserved": 0, "fusion_lon": 0.0, "fusion_lat": 0.0, "lon": -76.98009483333334, "name": "45810b6ec90e0698a0e954ac64741d31"}, {"bike_id": "75cf362070a4ee61e23b13613d017bed", "type": "electric_scooter", "is_disabled": 0, "lat": 38.923642, "rental_uris": {"ios": "https://dc.lft.to/lastmile_qr_scan", "android": "https://dc.lft.to/lastmile_qr_scan"}, "is_reserved": 0, "fusion_lon": 0.0, "fusion_lat": 0.0, "lon": -77.01950066666667, "name": "75cf362070a4ee61e23b13613d017bed"}, {"bike_id": "edccfb03dedfb844cabe5a410e8493ef", "type": "electric_scooter", "is_disabled": 0, "lat": 38.905928833333334, "rental_uris": {"ios": "https://dc.lft.to/lastmile_qr_scan", "android": "https://dc.lft.to/lastmile_qr_scan"}, "is_reserved": 0, "fusion_lon": 0.0, "fusion_lat": 0.0, "lon": -77.05134183333334, "name": "edccfb03dedfb844cabe5a410e8493ef"}, {"bike_id": "267cf832f55c395b8566f01323cc59cf", "type": "electric_scooter", "is_disabled": 0, "lat": 38.9038785, "rental_uris": {"ios": "https://dc.lft.to/lastmile_qr_scan", "android": "https://dc.lft.to/lastmile_qr_scan"}, "is_reserved": 0, "fusion_lon": 0.0, "fusion_lat": 0.0, "lon": -77.024105, "name": "267cf832f55c395b8566f01323cc59cf"}, {"bike_id": "4e18581315240c41ff87289ef122f8d3", "type": "electric_scooter", "is_disabled": 0, "lat": 38.926595166666665, "rental_uris": {"ios": "https://dc.lft.to/lastmile_qr_scan", "android": "https://dc.lft.to/lastmile_qr_scan"}, "is_reserved": 0, "fusion_lon": 0.0, "fusion_lat": 0.0, "lon": -77.03727733333334, "name": "4e18581315240c41ff87289ef122f8d3"}, {"bike_id": "ed0dd556220731a91b68397bc1f7fd4d", "type": "electric_scooter", "is_disabled": 0, "lat": 38.89015833333333, "rental_uris": {"ios": "https://dc.lft.to/lastmile_qr_scan", "android": "https://dc.lft.to/lastmile_qr_scan"}, "is_reserved": 0, "fusion_lon": 0.0, "fusion_lat": 0.0, "lon": -77.0332785, "name": "ed0dd556220731a91b68397bc1f7fd4d"}, {"bike_id": "34c485de61019d5964f61f9630722212", "type": "electric_scooter", "is_disabled": 0, "lat": 38.915864, "rental_uris": {"ios": "https://dc.lft.to/lastmile_qr_scan", "android": "https://dc.lft.to/lastmile_qr_scan"}, "is_reserved": 0, "fusion_lon": 0.0, "fusion_lat": 0.0, "lon": -77.04485016666666, "name": "34c485de61019d5964f61f9630722212"}, {"bike_id": "ba8301e05bc28ff8ef1200e7a632de47", "type": "electric_bike", "is_disabled": 0, "lat": 38.876706666666664, "rental_uris": {"ios": "https://dc.lft.to/lastmile_qr_scan", "android": "https://dc.lft.to/lastmile_qr_scan"}, "is_reserved": 0, "fusion_lon": 0.0, "fusion_lat": 0.0, "lon": -77.0143285, "name": "ba8301e05bc28ff8ef1200e7a632de47"}, {"bike_id": "124e49b54239f5fb1a7b98fd54b714b1", "type": "electric_scooter", "is_disabled": 0, "lat": 38.933634833333336, "rental_uris": {"ios": "https://dc.lft.to/lastmile_qr_scan", "android": "https://dc.lft.to/lastmile_qr_scan"}, "is_reserved": 0, "fusion_lon": 0.0, "fusion_lat": 0.0, "lon": -77.08856466666667, "name": "124e49b54239f5fb1a7b98fd54b714b1"}, {"bike_id": "971809fffb77ad5848c9481eaf77eb67", "type": "electric_scooter", "is_disabled": 0, "lat": 38.91604983333333, "rental_uris": {"ios": "https://dc.lft.to/lastmile_qr_scan", "android": "https://dc.lft.to/lastmile_qr_scan"}, "is_reserved": 0, "fusion_lon": 0.0, "fusion_lat": 0.0, "lon": -77.0449365, "name": "971809fffb77ad5848c9481eaf77eb67"}, {"bike_id": "eeafd2752d106c74e7b69812eb007cf0", "type": "electric_scooter", "is_disabled": 0, "lat": 38.94495033333333, "rental_uris": {"ios": "https://dc.lft.to/lastmile_qr_scan", "android": "https://dc.lft.to/lastmile_qr_scan"}, "is_reserved": 0, "fusion_lon": 0.0, "fusion_lat": 0.0, "lon": -77.02617833333333, "name": "eeafd2752d106c74e7b69812eb007cf0"}, {"bike_id": "e555194131a8c828bcecf29df9b30a38", "type": "electric_scooter", "is_disabled": 0, "lat": 38.905049166666664, "rental_uris": {"ios": "https://dc.lft.to/lastmile_qr_scan", "android": "https://dc.lft.to/lastmile_qr_scan"}, "is_reserved": 0, "fusion_lon": 0.0, "fusion_lat": 0.0, "lon": -77.06108133333333, "name": "e555194131a8c828bcecf29df9b30a38"}, {"bike_id": "b5640ec05370c80cefee771cbdbb030f", "type": "electric_scooter", "is_disabled": 0, "lat": 38.916314666666665, "rental_uris": {"ios": "https://dc.lft.to/lastmile_qr_scan", "android": "https://dc.lft.to/lastmile_qr_scan"}, "is_reserved": 0, "fusion_lon": 0.0, "fusion_lat": 0.0, "lon": -77.03731683333334, "name": "b5640ec05370c80cefee771cbdbb030f"}, {"bike_id": "1c7025557a1de10acb1f71ff1e48ec5e", "type": "electric_scooter", "is_disabled": 0, "lat": 38.914774666666666, "rental_uris": {"ios": "https://dc.lft.to/lastmile_qr_scan", "android": "https://dc.lft.to/lastmile_qr_scan"}, "is_reserved": 0, "fusion_lon": 0.0, "fusion_lat": 0.0, "lon": -77.0091765, "name": "1c7025557a1de10acb1f71ff1e48ec5e"}, {"bike_id": "6bd5313c5c51ae0b9191df214313d8e4", "type": "electric_scooter", "is_disabled": 0, "lat": 38.897202166666666, "rental_uris": {"ios": "https://dc.lft.to/lastmile_qr_scan", "android": "https://dc.lft.to/lastmile_qr_scan"}, "is_reserved": 0, "fusion_lon": 0.0, "fusion_lat": 0.0, "lon": -77.02612416666666, "name": "6bd5313c5c51ae0b9191df214313d8e4"}, {"bike_id": "a4fd644553e73214b868eb56daa17027", "type": "electric_scooter", "is_disabled": 0, "lat": 38.923831166666666, "rental_uris": {"ios": "https://dc.lft.to/lastmile_qr_scan", "android": "https://dc.lft.to/lastmile_qr_scan"}, "is_reserved": 0, "fusion_lon": 0.0, "fusion_lat": 0.0, "lon": -77.02692733333333, "name": "a4fd644553e73214b868eb56daa17027"}, {"bike_id": "2af3599bea70620a8709650a6ee91e89", "type": "electric_scooter", "is_disabled": 0, "lat": 38.92477233333334, "rental_uris": {"ios": "https://dc.lft.to/lastmile_qr_scan", "android": "https://dc.lft.to/lastmile_qr_scan"}, "is_reserved": 0, "fusion_lon": 0.0, "fusion_lat": 0.0, "lon": -77.02202033333333, "name": "2af3599bea70620a8709650a6ee91e89"}, {"bike_id": "5d4593a35a4d069b1597e5527d6264be", "type": "electric_bike", "is_disabled": 0, "lat": 38.978785333333335, "rental_uris": {"ios": "https://dc.lft.to/lastmile_qr_scan", "android": "https://dc.lft.to/lastmile_qr_scan"}, "is_reserved": 0, "fusion_lon": 0.0, "fusion_lat": 0.0, "lon": -77.060253, "name": "5d4593a35a4d069b1597e5527d6264be"}, {"bike_id": "c8c7e9cd8b1b64a37ae2dc889fcc6978", "type": "electric_scooter", "is_disabled": 0, "lat": 38.935324666666666, "rental_uris": {"ios": "https://dc.lft.to/lastmile_qr_scan", "android": "https://dc.lft.to/lastmile_qr_scan"}, "is_reserved": 0, "fusion_lon": 0.0, "fusion_lat": 0.0, "lon": -77.02346166666666, "name": "c8c7e9cd8b1b64a37ae2dc889fcc6978"}, {"bike_id": "d00c93075c1f719840ca0b79d7854ff9", "type": "electric_scooter", "is_disabled": 0, "lat": 38.90262466666667, "rental_uris": {"ios": "https://dc.lft.to/lastmile_qr_scan", "android": "https://dc.lft.to/lastmile_qr_scan"}, "is_reserved": 0, "fusion_lon": 0.0, "fusion_lat": 0.0, "lon": -77.003286, "name": "d00c93075c1f719840ca0b79d7854ff9"}, {"bike_id": "3692ff515791c63327d740e5d286b080", "type": "electric_scooter", "is_disabled": 0, "lat": 38.88365066666667, "rental_uris": {"ios": "https://dc.lft.to/lastmile_qr_scan", "android": "https://dc.lft.to/lastmile_qr_scan"}, "is_reserved": 0, "fusion_lon": 0.0, "fusion_lat": 0.0, "lon": -76.99519316666667, "name": "3692ff515791c63327d740e5d286b080"}, {"bike_id": "e723cd89ee8e18a878e82ac1ce23eaa1", "type": "electric_scooter", "is_disabled": 0, "lat": 38.884311833333335, "rental_uris": {"ios": "https://dc.lft.to/lastmile_qr_scan", "android": "https://dc.lft.to/lastmile_qr_scan"}, "is_reserved": 0, "fusion_lon": 0.0, "fusion_lat": 0.0, "lon": -76.95748483333334, "name": "e723cd89ee8e18a878e82ac1ce23eaa1"}, {"bike_id": "3ab43e9cffcb91a79c6f7372ee8d377c", "type": "electric_scooter", "is_disabled": 0, "lat": 38.92682666666666, "rental_uris": {"ios": "https://dc.lft.to/lastmile_qr_scan", "android": "https://dc.lft.to/lastmile_qr_scan"}, "is_reserved": 0, "fusion_lon": 0.0, "fusion_lat": 0.0, "lon": -77.02784483333333, "name": "3ab43e9cffcb91a79c6f7372ee8d377c"}, {"bike_id": "96eb58678f0cc2a4611b98fc44eb9aca", "type": "electric_scooter", "is_disabled": 0, "lat": 38.91976316666667, "rental_uris": {"ios": "https://dc.lft.to/lastmile_qr_scan", "android": "https://dc.lft.to/lastmile_qr_scan"},