{"data": {"bikes": [{"fusion_lat": 0.0, "name": "737d98e49b7b7c1753b08899e0c72501", "is_disabled": 0, "rental_uris": {"android": "https://dc.lft.to/lastmile_qr_scan", "ios": "https://dc.lft.to/lastmile_qr_scan"}, "fusion_lon": 0.0, "lat": 38.81910166666667, "bike_id": "737d98e49b7b7c1753b08899e0c72501", "type": "electric_bike", "is_reserved": 0, "lon": -77.047928}, {"fusion_lat": 0.0, "name": "98d5a8cc0b5eeb99e6aa7bab64a0d78d", "is_disabled": 0, "rental_uris": {"android": "https://dc.lft.to/lastmile_qr_scan", "ios": "https://dc.lft.to/lastmile_qr_scan"}, "fusion_lon": 0.0, "lat": 38.903430166666666, "bike_id": "98d5a8cc0b5eeb99e6aa7bab64a0d78d", "type": "electric_scooter", "is_reserved": 0, "lon": -76.93367166666667}, {"fusion_lat": 0.0, "name": "e5c08ee969a19378050c32fa8b52947f", "is_disabled": 0, "rental_uris": {"android": "https://dc.lft.to/lastmile_qr_scan", "ios": "https://dc.lft.to/lastmile_qr_scan"}, "fusion_lon": 0.0, "lat": 38.9073415, "bike_id": "e5c08ee969a19378050c32fa8b52947f", "type": "electric_scooter", "is_reserved": 0, "lon": -77.04751066666667}, {"fusion_lat": 0.0, "name": "8a483786d4c5af118ca264a5db7c5e0c", "is_disabled": 0, "rental_uris": {"android": "https://dc.lft.to/lastmile_qr_scan", "ios": "https://dc.lft.to/lastmile_qr_scan"}, "fusion_lon": 0.0, "lat": 38.9267995, "bike_id": "8a483786d4c5af118ca264a5db7c5e0c", "type": "electric_scooter", "is_reserved": 0, "lon": -77.03074983333333}, {"fusion_lat": 0.0, "name": "09cbe3f27a14381792f5bfa1faf9a306", "is_disabled": 0, "rental_uris": {"android": "https://dc.lft.to/lastmile_qr_scan", "ios": "https://dc.lft.to/lastmile_qr_scan"}, "fusion_lon": 0.0, "lat": 38.807074166666666, "bike_id": "09cbe3f27a14381792f5bfa1faf9a306", "type": "electric_bike", "is_reserved": 0, "lon": -77.0617815}, {"fusion_lat": 0.0, "name": "df1ba6857014bd4978c810e9b292bdb9", "is_disabled": 0, "rental_uris": {"android": "https://dc.lft.to/lastmile_qr_scan", "ios": "https://dc.lft.to/lastmile_qr_scan"}, "fusion_lon": 0.0, "lat": 38.90016583333333, "bike_id": "df1ba6857014bd4978c810e9b292bdb9", "type": "electric_scooter", "is_reserved": 0, "lon": -77.01111}, {"fusion_lat": 0.0, "name": "5f1d94d044db0d35eeb53a934945aa06", "is_disabled": 0, "rental_uris": {"android": "https://dc.lft.to/lastmile_qr_scan", "ios": "https://dc.lft.to/lastmile_qr_scan"}, "fusion_lon": 0.0, "lat": 38.88302766666666, "bike_id": "5f1d94d044db0d35eeb53a934945aa06", "type": "electric_scooter", "is_reserved": 0, "lon": -76.94856}, {"fusion_lat": 0.0, "name": "38908708d2b3bb8dc7c100c7b37c097a", "is_disabled": 0, "rental_uris": {"android": "https://dc.lft.to/lastmile_qr_scan", "ios": "https://dc.lft.to/lastmile_qr_scan"}, "fusion_lon": 0.0, "lat": 38.921918, "bike_id": "38908708d2b3bb8dc7c100c7b37c097a", "type": "electric_scooter", "is_reserved": 0, "lon": -77.042324}, {"fusion_lat": 0.0, "name": "8c29aadb7ef46dc3a9d58c53706ad15f", "is_disabled": 0, "rental_uris": {"android": "https://dc.lft.to/lastmile_qr_scan", "ios": "https://dc.lft.to/lastmile_qr_scan"}, "fusion_lon": 0.0, "lat": 38.905916166666664, "bike_id": "8c29aadb7ef46dc3a9d58c53706ad15f", "type": "electric_scooter", "is_reserved": 0, "lon": -77.034181}, {"fusion_lat": 0.0, "name": "e6421b171b0d496a85493b1d6ec31c39", "is_disabled": 0, "rental_uris": {"android": "https://dc.lft.to/lastmile_qr_scan", "ios": "https://dc.lft.to/lastmile_qr_scan"}, "fusion_lon": 0.0, "lat": 38.89979066666667, "bike_id": "e6421b171b0d496a85493b1d6ec31c39", "type": "electric_scooter", "is_reserved": 0, "lon": -77.03355166666667}, {"fusion_lat": 0.0, "name": "c7f8c8db668d0e9d2c90980095274aff", "is_disabled": 0, "rental_uris": {"android": "https://dc.lft.to/lastmile_qr_scan", "ios": "https://dc.lft.to/lastmile_qr_scan"}, "fusion_lon": 0.0, "lat": 38.9253085, "bike_id": "c7f8c8db668d0e9d2c90980095274aff", "type": "electric_scooter", "is_reserved": 0, "lon": -77.00753116666667}, {"fusion_lat": 0.0, "name": "6f89ce3c3049159eb50333a3ece6f624", "is_disabled": 0, "rental_uris": {"android": "https://dc.lft.to/lastmile_qr_scan", "ios": "https://dc.lft.to/lastmile_qr_scan"}, "fusion_lon": 0.0, "lat": 38.88312666666667, "bike_id": "6f89ce3c3049159eb50333a3ece6f624", "type": "electric_scooter", "is_reserved": 0, "lon": -76.99489966666667}, {"fusion_lat": 0.0, "name": "87139b17cb897c1292ba77667825ffcb", "is_disabled": 0, "rental_uris": {"android": "https://dc.lft.to/lastmile_qr_scan", "ios": "https://dc.lft.to/lastmile_qr_scan"}, "fusion_lon": 0.0, "lat": 38.9048425, "bike_id": "87139b17cb897c1292ba77667825ffcb", "type": "electric_scooter", "is_reserved": 0, "lon": -77.04862216666666}, {"fusion_lat": 0.0, "name": "d4cbfd6df83d9c91705cadbc045be0ba", "is_disabled": 0, "rental_uris": {"android": "https://dc.lft.to/lastmile_qr_scan", "ios": "https://dc.lft.to/lastmile_qr_scan"}, "fusion_lon": 0.0, "lat": 38.96572233333333, "bike_id": "d4cbfd6df83d9c91705cadbc045be0ba", "type": "electric_scooter", "is_reserved": 0, "lon": -77.01573883333333}, {"fusion_lat": 0.0, "name": "a895ff4fac29d84e110689683153f538", "is_disabled": 0, "rental_uris": {"android": "https://dc.lft.to/lastmile_qr_scan", "ios": "https://dc.lft.to/lastmile_qr_scan"}, "fusion_lon": 0.0, "lat": 38.896962333333335, "bike_id": "a895ff4fac29d84e110689683153f538", "type": "electric_scooter", "is_reserved": 0, "lon": -77.043415}, {"fusion_lat": 0.0, "name": "6fd20c75ef7265e714a200c2220b1c0a", "is_disabled": 0, "rental_uris": {"android": "https://dc.lft.to/lastmile_qr_scan", "ios": "https://dc.lft.to/lastmile_qr_scan"}, "fusion_lon": 0.0, "lat": 38.88118266666667, "bike_id": "6fd20c75ef7265e714a200c2220b1c0a", "type": "electric_scooter", "is_reserved": 0, "lon": -77.01632616666667}, {"fusion_lat": 0.0, "name": "ede721a35c8cda3b1bc7ffd940bd60a2", "is_disabled": 0, "rental_uris": {"android": "https://dc.lft.to/lastmile_qr_scan", "ios": "https://dc.lft.to/lastmile_qr_scan"}, "fusion_lon": 0.0, "lat": 38.90027083333333, "bike_id": "ede721a35c8cda3b1bc7ffd940bd60a2", "type": "electric_scooter", "is_reserved": 0, "lon": -76.98857633333333}, {"fusion_lat": 0.0, "name": "c688673b66cd4b54d30a3abfefab1781", "is_disabled": 0, "rental_uris": {"android": "https://dc.lft.to/lastmile_qr_scan", "ios": "https://dc.lft.to/lastmile_qr_scan"}, "fusion_lon": 0.0, "lat": 38.9207465, "bike_id": "c688673b66cd4b54d30a3abfefab1781", "type": "electric_scooter", "is_reserved": 0, "lon": -77.00445383333333}, {"fusion_lat": 0.0, "name": "a2e73720ec8f8be7b7a4495dc4dd737e", "is_disabled": 0, "rental_uris": {"android": "https://dc.lft.to/lastmile_qr_scan", "ios": "https://dc.lft.to/lastmile_qr_scan"}, "fusion_lon": 0.0, "lat": 38.933795333333336, "bike_id": "a2e73720ec8f8be7b7a4495dc4dd737e", "type": "electric_scooter", "is_reserved": 0, "lon": -77.03885183333334}, {"fusion_lat": 0.0, "name": "ab1a150040815ade5b89bc2a9481c579", "is_disabled": 0, "rental_uris": {"android": "https://dc.lft.to/lastmile_qr_scan", "ios": "https://dc.lft.to/lastmile_qr_scan"}, "fusion_lon": 0.0, "lat": 38.87475366666666, "bike_id": "ab1a150040815ade5b89bc2a9481c579", "type": "electric_scooter", "is_reserved": 0, "lon": -77.0005375}, {"fusion_lat": 0.0, "name": "01f8e17f7ac11138defa3fce169375fa", "is_disabled": 0, "rental_uris": {"android": "https://dc.lft.to/lastmile_qr_scan", "ios": "https://dc.lft.to/lastmile_qr_scan"}, "fusion_lon": 0.0, "lat": 38.903707833333335, "bike_id": "01f8e17f7ac11138defa3fce169375fa", "type": "electric_scooter", "is_reserved": 0, "lon": -77.04599916666666}, {"fusion_lat": 0.0, "name": "329a6079105d54b92e1a8d085f66a45b", "is_disabled": 0, "rental_uris": {"android": "https://dc.lft.to/lastmile_qr_scan", "ios": "https://dc.lft.to/lastmile_qr_scan"}, "fusion_lon": 0.0, "lat": 38.919600833333334, "bike_id": "329a6079105d54b92e1a8d085f66a45b", "type": "electric_scooter", "is_reserved": 0, "lon": -77.0320035}, {"fusion_lat": 0.0, "name": "8dc409f45c4c6593db8eb4350348d219", "is_disabled": 0, "rental_uris": {"android": "https://dc.lft.to/lastmile_qr_scan", "ios": "https://dc.lft.to/lastmile_qr_scan"}, "fusion_lon": 0.0, "lat": 38.904550666666665, "bike_id": "8dc409f45c4c6593db8eb4350348d219", "type": "electric_scooter", "is_reserved": 0, "lon": -77.00165666666666}, {"fusion_lat": 0.0, "name": "872ca8b611572950812b09289a14f39d", "is_disabled": 0, "rental_uris": {"android": "https://dc.lft.to/lastmile_qr_scan", "ios": "https://dc.lft.to/lastmile_qr_scan"}, "fusion_lon": 0.0, "lat": 38.896790833333334, "bike_id": "872ca8b611572950812b09289a14f39d", "type": "electric_scooter", "is_reserved": 0, "lon": -77.00794183333333}, {"fusion_lat": 0.0, "name": "a1e86ae178dbc49f108fab9581d0e348", "is_disabled": 0, "rental_uris": {"android": "https://dc.lft.to/lastmile_qr_scan", "ios": "https://dc.lft.to/lastmile_qr_scan"}, "fusion_lon": 0.0, "lat": 38.911567166666664, "bike_id": "a1e86ae178dbc49f108fab9581d0e348", "type": "electric_scooter", "is_reserved": 0, "lon": -77.0200065}, {"fusion_lat": 0.0, "name": "46008c576bf740bdfee740ad614f9593", "is_disabled": 0, "rental_uris": {"android": "https://dc.lft.to/lastmile_qr_scan", "ios": "https://dc.lft.to/lastmile_qr_scan"}, "fusion_lon": 0.0, "lat": 38.90005283333333, "bike_id": "46008c576bf740bdfee740ad614f9593", "type": "electric_scooter", "is_reserved": 0, "lon": -77.00726316666666}, {"fusion_lat": 0.0, "name": "bf704e3f9ab7c2a38ea57fcbc4f43663", "is_disabled": 0, "rental_uris": {"android": "https://dc.lft.to/lastmile_qr_scan", "ios": "https://dc.lft.to/lastmile_qr_scan"}, "fusion_lon": 0.0, "lat": 38.885203, "bike_id": "bf704e3f9ab7c2a38ea57fcbc4f43663", "type": "electric_scooter", "is_reserved": 0, "lon": -77.015177}, {"fusion_lat": 0.0, "name": "672a9f26dd07a02cceb19b9b7cab7833", "is_disabled": 0, "rental_uris": {"android": "https://dc.lft.to/lastmile_qr_scan", "ios": "https://dc.lft.to/lastmile_qr_scan"}, "fusion_lon": 0.0, "lat": 38.904242333333336, "bike_id": "672a9f26dd07a02cceb19b9b7cab7833", "type": "electric_scooter", "is_reserved": 0, "lon": -76.94974966666666}, {"fusion_lat": 0.0, "name": "252b2d6593f11960098a455c2352b30e", "is_disabled": 0, "rental_uris": {"android": "https://dc.lft.to/lastmile_qr_scan", "ios": "https://dc.lft.to/lastmile_qr_scan"}, "fusion_lon": 0.0, "lat": 38.92611466666666, "bike_id": "252b2d6593f11960098a455c2352b30e", "type": "electric_scooter", "is_reserved": 0, "lon": -77.03957983333333}, {"fusion_lat": 0.0, "name": "4df88ff98b0507ab4db68e9d3a48e4f0", "is_disabled": 0, "rental_uris": {"android": "https://dc.lft.to/lastmile_qr_scan", "ios": "https://dc.lft.to/lastmile_qr_scan"}, "fusion_lon": 0.0, "lat": 38.94077633333333, "bike_id": "4df88ff98b0507ab4db68e9d3a48e4f0", "type": "electric_scooter", "is_reserved": 0, "lon": -77.02396233333333}, {"fusion_lat": 0.0, "name": "3fab78e7eb17f165a00c57ee4d660430", "is_disabled": 0, "rental_uris": {"android": "https://dc.lft.to/lastmile_qr_scan", "ios": "https://dc.lft.to/lastmile_qr_scan"}, "fusion_lon": 0.0, "lat": 38.90955966666667, "bike_id": "3fab78e7eb17f165a00c57ee4d660430", "type": "electric_scooter", "is_reserved": 0, "lon": -77.0103985}, {"fusion_lat": 0.0, "name": "336322b49e4038767866a2164d6949c6", "is_disabled": 0, "rental_uris": {"android": "https://dc.lft.to/lastmile_qr_scan", "ios": "https://dc.lft.to/lastmile_qr_scan"}, "fusion_lon": 0.0, "lat": 38.88736683333333, "bike_id": "336322b49e4038767866a2164d6949c6", "type": "electric_scooter", "is_reserved": 0, "lon": -77.01536233333333}, {"fusion_lat": 0.0, "name": "94d5ddd7220c1f4aa642b97004cacc54", "is_disabled": 0, "rental_uris": {"android": "https://dc.lft.to/lastmile_qr_scan", "ios": "https://dc.lft.to/lastmile_qr_scan"}, "fusion_lon": 0.0, "lat": 38.93249466666666, "bike_id": "94d5ddd7220c1f4aa642b97004cacc54", "type": "electric_scooter", "is_reserved": 0, "lon": -77.04012933333334}, {"fusion_lat": 0.0, "name": "efaaae4e3a6b82abd2cfcebcc68699f5", "is_disabled": 0, "rental_uris": {"android": "https://dc.lft.to/lastmile_qr_scan", "ios": "https://dc.lft.to/lastmile_qr_scan"}, "fusion_lon": 0.0, "lat": 38.92828, "bike_id": "efaaae4e3a6b82abd2cfcebcc68699f5", "type": "electric_scooter", "is_reserved": 0, "lon": -77.0225475}, {"fusion_lat": 0.0, "name": "5cfaa9946e05d464c7afee9e643e383a", "is_disabled": 0, "rental_uris": {"android": "https://dc.lft.to/lastmile_qr_scan", "ios": "https://dc.lft.to/lastmile_qr_scan"}, "fusion_lon": 0.0, "lat": 38.92487166666667, "bike_id": "5cfaa9946e05d464c7afee9e643e383a", "type": "electric_scooter", "is_reserved": 0, "lon": -77.05758233333333}, {"fusion_lat": 0.0, "name": "33aab0ed4c8f61ac113913d2c9340202", "is_disabled": 0, "rental_uris": {"android": "https://dc.lft.to/lastmile_qr_scan", "ios": "https://dc.lft.to/lastmile_qr_scan"}, "fusion_lon": 0.0, "lat": 38.93055783333333, "bike_id": "33aab0ed4c8f61ac113913d2c9340202", "type": "electric_scooter", "is_reserved": 0, "lon": -77.03191533333333}, {"fusion_lat": 0.0, "name": "60697d7f56143623bb02c3759825cbb6", "is_disabled": 0, "rental_uris": {"android": "https://dc.lft.to/lastmile_qr_scan", "ios": "https://dc.lft.to/lastmile_qr_scan"}, "fusion_lon": 0.0, "lat": 38.89593466666667, "bike_id": "60697d7f56143623bb02c3759825cbb6", "type": "electric_scooter", "is_reserved": 0, "lon": -77.02512016666667}, {"fusion_lat": 0.0, "name": "cce0262e4fb897608921506f25b4fc9d", "is_disabled": 0, "rental_uris": {"android": "https://dc.lft.to/lastmile_qr_scan", "ios": "https://dc.lft.to/lastmile_qr_scan"}, "fusion_lon": 0.0, "lat": 38.93703683333333, "bike_id": "cce0262e4fb897608921506f25b4fc9d", "type": "electric_scooter", "is_reserved": 0, "lon": -77.061043}, {"fusion_lat": 0.0, "name": "2b0b3405b8acedea7b96400122a27b4e", "is_disabled": 0, "rental_uris": {"android": "https://dc.lft.to/lastmile_qr_scan", "ios": "https://dc.lft.to/lastmile_qr_scan"}, "fusion_lon": 0.0, "lat": 38.91811383333334, "bike_id": "2b0b3405b8acedea7b96400122a27b4e", "type": "electric_scooter", "is_reserved": 0, "lon": -77.0451625}, {"fusion_lat": 0.0, "name": "2642163e854a82c0044a6a0ebc532e5b", "is_disabled": 0, "rental_uris": {"android": "https://dc.lft.to/lastmile_qr_scan", "ios": "https://dc.lft.to/lastmile_qr_scan"}, "fusion_lon": 0.0, "lat": 38.9197205, "bike_id": "2642163e854a82c0044a6a0ebc532e5b", "type": "electric_scooter", "is_reserved": 0, "lon": -77.07101133333333}, {"fusion_lat": 0.0, "name": "22e784de741231c3032d39d737550361", "is_disabled": 0, "rental_uris": {"android": "https://dc.lft.to/lastmile_qr_scan", "ios": "https://dc.lft.to/lastmile_qr_scan"}, "fusion_lon": 0.0, "lat": 38.907882, "bike_id": "22e784de741231c3032d39d737550361", "type": "electric_scooter", "is_reserved": 0, "lon": -77.041859}, {"fusion_lat": 0.0, "name": "b8875d2063d2da0841341b17f1875e1c", "is_disabled": 0, "rental_uris": {"android": "https://dc.lft.to/lastmile_qr_scan", "ios": "https://dc.lft.to/lastmile_qr_scan"}, "fusion_lon": 0.0, "lat": 38.84754983333333, "bike_id": "b8875d2063d2da0841341b17f1875e1c", "type": "electric_scooter", "is_reserved": 0, "lon": -76.9950285}, {"fusion_lat": 0.0, "name": "26b7b5612c5da78a998d742dc50bd315", "is_disabled": 0, "rental_uris": {"android": "https://dc.lft.to/lastmile_qr_scan", "ios": "https://dc.lft.to/lastmile_qr_scan"}, "fusion_lon": 0.0, "lat": 38.90977083333333, "bike_id": "26b7b5612c5da78a998d742dc50bd315", "type": "electric_scooter", "is_reserved": 0, "lon": -77.03251816666666}, {"fusion_lat": 0.0, "name": "d5e3e6ec2663be5fac1c6a863ca9488f", "is_disabled": 0, "rental_uris": {"android": "https://dc.lft.to/lastmile_qr_scan", "ios": "https://dc.lft.to/lastmile_qr_scan"}, "fusion_lon": 0.0, "lat": 38.921501666666664, "bike_id": "d5e3e6ec2663be5fac1c6a863ca9488f", "type": "electric_scooter", "is_reserved": 0, "lon": -77.033893}, {"fusion_lat": 0.0, "name": "bee4ab0422bd18e8119f783c2c0429f2", "is_disabled": 0, "rental_uris": {"android": "https://dc.lft.to/lastmile_qr_scan", "ios": "https://dc.lft.to/lastmile_qr_scan"}, "fusion_lon": 0.0, "lat": 38.924605166666666, "bike_id": "bee4ab0422bd18e8119f783c2c0429f2", "type": "electric_scooter", "is_reserved": 0, "lon": -77.03636583333333}, {"fusion_lat": 0.0, "name": "656284d7354f3ec7510fdae060089be1", "is_disabled": 0, "rental_uris": {"android": "https://dc.lft.to/lastmile_qr_scan", "ios": "https://dc.lft.to/lastmile_qr_scan"}, "fusion_lon": 0.0, "lat": 38.9228415, "bike_id": "656284d7354f3ec7510fdae060089be1", "type": "electric_scooter", "is_reserved": 0, "lon": -77.04241733333333}, {"fusion_lat": 0.0, "name": "6e6a4ef3510f1b3cdd19d254bb1806a3", "is_disabled": 0, "rental_uris": {"android": "https://dc.lft.to/lastmile_qr_scan", "ios": "https://dc.lft.to/lastmile_qr_scan"}, "fusion_lon": 0.0, "lat": 38.9149695, "bike_id": "6e6a4ef3510f1b3cdd19d254bb1806a3", "type": "electric_scooter", "is_reserved": 0, "lon": -77.01326016666667}, {"fusion_lat": 0.0, "name": "90b1b5ba7b9334e9f8756ad3615a39de", "is_disabled": 0, "rental_uris": {"android": "https://dc.lft.to/lastmile_qr_scan", "ios": "https://dc.lft.to/lastmile_qr_scan"}, "fusion_lon": 0.0, "lat": 38.909691333333335, "bike_id": "90b1b5ba7b9334e9f8756ad3615a39de", "type": "electric_scooter", "is_reserved": 0, "lon": -77.03249933333333}, {"fusion_lat": 0.0, "name": "6ea631d38eeb048fd72eff4936330a37", "is_disabled": 0, "rental_uris": {"android": "https://dc.lft.to/lastmile_qr_scan", "ios": "https://dc.lft.to/lastmile_qr_scan"}, "fusion_lon": 0.0, "lat": 38.92396566666667, "bike_id": "6ea631d38eeb048fd72eff4936330a37", "type": "electric_scooter", "is_reserved": 0, "lon": -77.0251955}, {"fusion_lat": 0.0, "name": "1e4e667bb5cc944633803f8a1bcfb28d", "is_disabled": 0, "rental_uris": {"android": "https://dc.lft.to/lastmile_qr_scan", "ios": "https://dc.lft.to/lastmile_qr_scan"}, "fusion_lon": 0.0, "lat": 38.8849465, "bike_id": "1e4e667bb5cc944633803f8a1bcfb28d", "type": "electric_scooter", "is_reserved": 0, "lon": -77.01085283333333}, {"fusion_lat": 0.0, "name": "902a88c166074401c3c5e235184d5bdf", "is_disabled": 0, "rental_uris": {"android": "https://dc.lft.to/lastmile_qr_scan", "ios": "https://dc.lft.to/lastmile_qr_scan"}, "fusion_lon": 0.0, "lat": 38.910231333333336, "bike_id": "902a88c166074401c3c5e235184d5bdf", "type": "electric_scooter", "is_reserved": 0, "lon": -77.03442766666667}, {"fusion_lat": 0.0, "name": "e0b35f1569a9b494ee9242c31880a29a", "is_disabled": 0, "rental_uris": {"android": "https://dc.lft.to/lastmile_qr_scan", "ios": "https://dc.lft.to/lastmile_qr_scan"}, "fusion_lon": 0.0, "lat": 38.91599216666667, "bike_id": "e0b35f1569a9b494ee9242c31880a29a", "type": "electric_scooter", "is_reserved": 0, "lon": -77.01114733333333}, {"fusion_lat": 0.0, "name": "453471aaed17a9597e1b28fbeff65634", "is_disabled": 0, "rental_uris": {"android": "https://dc.lft.to/lastmile_qr_scan", "ios": "https://dc.lft.to/lastmile_qr_scan"}, "fusion_lon": 0.0, "lat": 38.892192333333334, "bike_id": "453471aaed17a9597e1b28fbeff65634", "type": "electric_scooter", "is_reserved": 0, "lon": -77.02623366666667}, {"fusion_lat": 0.0, "name": "a2bb6fafd166ae243c0591f49d2632d2", "is_disabled": 0, "rental_uris": {"android": "https://dc.lft.to/lastmile_qr_scan", "ios": "https://dc.lft.to/lastmile_qr_scan"}, "fusion_lon": 0.0, "lat": 38.888489166666666, "bike_id": "a2bb6fafd166ae243c0591f49d2632d2", "type": "electric_scooter", "is_reserved": 0, "lon": -76.9268105}, {"fusion_lat": 0.0, "name": "1a71054954d647a128cd3664f058d09e", "is_disabled": 0, "rental_uris": {"android": "https://dc.lft.to/lastmile_qr_scan", "ios": "https://dc.lft.to/lastmile_qr_scan"}, "fusion_lon": 0.0, "lat": 38.908198166666665, "bike_id": "1a71054954d647a128cd3664f058d09e", "type": "electric_scooter", "is_reserved": 0, "lon": -77.04359666666667}, {"fusion_lat": 0.0, "name": "2e3739d19de0d0d5ad2cf6abda18c4db", "is_disabled": 0, "rental_uris": {"android": "https://dc.lft.to/lastmile_qr_scan", "ios": "https://dc.lft.to/lastmile_qr_scan"}, "fusion_lon": 0.0, "lat": 38.915136333333336, "bike_id": "2e3739d19de0d0d5ad2cf6abda18c4db", "type": "electric_scooter", "is_reserved": 0, "lon": -77.04614983333333}, {"fusion_lat": 0.0, "name": "55b2483ed80193233dfa4d50848f4554", "is_disabled": 0, "rental_uris": {"android": "https://dc.lft.to/lastmile_qr_scan", "ios": "https://dc.lft.to/lastmile_qr_scan"}, "fusion_lon": 0.0, "lat": 38.8874125, "bike_id": "55b2483ed80193233dfa4d50848f4554", "type": "electric_scooter", "is_reserved": 0, "lon": -77.024587}, {"fusion_lat": 0.0, "name": "fefd16a02ad0c174c5d676461ab8d60d", "is_disabled": 0, "rental_uris": {"android": "https://dc.lft.to/lastmile_qr_scan", "ios": "https://dc.lft.to/lastmile_qr_scan"}, "fusion_lon": 0.0, "lat": 38.913297166666666, "bike_id": "fefd16a02ad0c174c5d676461ab8d60d", "type": "electric_scooter", "is_reserved": 0, "lon": -77.02124666666667}, {"fusion_lat": 0.0, "name": "3def64a679a6ae60541bd283a0cfdd9a", "is_disabled": 0, "rental_uris": {"android": "https://dc.lft.to/lastmile_qr_scan", "ios": "https://dc.lft.to/lastmile_qr_scan"}, "fusion_lon": 0.0, "lat": 38.897340666666665, "bike_id": "3def64a679a6ae60541bd283a0cfdd9a", "type": "electric_scooter", "is_reserved": 0, "lon": -77.00752216666666}, {"fusion_lat": 0.0, "name": "835b4d6ab325ff17a5fa739baec41b6b", "is_disabled": 0, "rental_uris": {"android": "https://dc.lft.to/lastmile_qr_scan", "ios": "https://dc.lft.to/lastmile_qr_scan"}, "fusion_lon": 0.0, "lat": 38.90528416666667, "bike_id": "835b4d6ab325ff17a5fa739baec41b6b", "type": "electric_scooter", "is_reserved": 0, "lon": -77.06783416666667}, {"fusion_lat": 0.0, "name": "2fe4433c0c1a132e80268b486dcb99e2", "is_disabled": 0, "rental_uris": {"android": "https://dc.lft.to/lastmile_qr_scan", "ios": "https://dc.lft.to/lastmile_qr_scan"}, "fusion_lon": 0.0, "lat": 38.89252583333333, "bike_id": "2fe4433c0c1a132e80268b486dcb99e2", "type": "electric_scooter", "is_reserved": 0, "lon": -77.03375516666667}, {"fusion_lat": 0.0, "name": "764d76b50aa0861b1cb99d5edc1c8144", "is_disabled": 0, "rental_uris": {"android": "https://dc.lft.to/lastmile_qr_scan", "ios": "https://dc.lft.to/lastmile_qr_scan"}, "fusion_lon": 0.0, "lat": 38.94388516666667, "bike_id": "764d76b50aa0861b1cb99d5edc1c8144", "type": "electric_scooter", "is_reserved": 0, "lon": -77.03210466666667}, {"fusion_lat": 0.0, "name": "d2f4894c79cf2f29a24104278fb9471e", "is_disabled": 0, "rental_uris": {"android": "https://dc.lft.to/lastmile_qr_scan", "ios": "https://dc.lft.to/lastmile_qr_scan"}, "fusion_lon": 0.0, "lat": 38.930558166666664, "bike_id": "d2f4894c79cf2f29a24104278fb9471e", "type": "electric_scooter", "is_reserved": 0, "lon": -77.0394385}, {"fusion_lat": 0.0, "name": "1c928967dfd355f56ad74c90a4ed8bcc", "is_disabled": 0, "rental_uris": {"android": "https://dc.lft.to/lastmile_qr_scan", "ios": "https://dc.lft.to/lastmile_qr_scan"}, "fusion_lon": 0.0, "lat": 38.89514666666667, "bike_id": "1c928967dfd355f56ad74c90a4ed8bcc", "type": "electric_scooter", "is_reserved": 0, "lon": -76.98082316666667}, {"fusion_lat": 0.0, "name": "1e7b9624c8790fb1706b1e9c55a68912", "is_disabled": 0, "rental_uris": {"android": "https://dc.lft.to/lastmile_qr_scan", "ios": "https://dc.lft.to/lastmile_qr_scan"}, "fusion_lon": 0.0, "lat": 38.9534665, "bike_id": "1e7b9624c8790fb1706b1e9c55a68912", "type": "electric_scooter", "is_reserved": 0, "lon": -77.07954066666667}, {"fusion_lat": 0.0, "name": "e0a60bc44bdb6e30cc555fae4acc7e25", "is_disabled": 0, "rental_uris": {"android": "https://dc.lft.to/lastmile_qr_scan", "ios": "https://dc.lft.to/lastmile_qr_scan"}, "fusion_lon": 0.0, "lat": 38.906507500000004, "bike_id": "e0a60bc44bdb6e30cc555fae4acc7e25", "type": "electric_scooter", "is_reserved": 0, "lon": -77.029623}, {"fusion_lat": 0.0, "name": "71f9591de57a9b38f1f01a63a1019119", "is_disabled": 0, "rental_uris": {"android": "https://dc.lft.to/lastmile_qr_scan", "ios": "https://dc.lft.to/lastmile_qr_scan"}, "fusion_lon": 0.0, "lat": 38.93553283333333, "bike_id": "71f9591de57a9b38f1f01a63a1019119", "type": "electric_scooter", "is_reserved": 0, "lon": -77.0221895}, {"fusion_lat": 0.0, "name": "9b0ed7c23ded7855c51b180ee3c1dee0", "is_disabled": 0, "rental_uris": {"android": "https://dc.lft.to/lastmile_qr_scan", "ios": "https://dc.lft.to/lastmile_qr_scan"}, "fusion_lon": 0.0, "lat": 38.91112716666667, "bike_id": "9b0ed7c23ded7855c51b180ee3c1dee0", "type": "electric_scooter", "is_reserved": 0, "lon": -76.99769483333333}, {"fusion_lat": 0.0, "name": "27b9b0bdf6ffc3d7c45a2ae98e64b7d1", "is_disabled": 0, "rental_uris": {"android": "https://dc.lft.to/lastmile_qr_scan", "ios": "https://dc.lft.to/lastmile_qr_scan"}, "fusion_lon": 0.0, "lat": 38.94511416666667, "bike_id": "27b9b0bdf6ffc3d7c45a2ae98e64b7d1", "type": "electric_bike", "is_reserved": 0, "lon": -77.006654}, {"fusion_lat": 0.0, "name": "1ab5ae82d29fa8258054a330ba93c65c", "is_disabled": 0, "rental_uris": {"android": "https://dc.lft.to/lastmile_qr_scan", "ios": "https://dc.lft.to/lastmile_qr_scan"}, "fusion_lon": 0.0, "lat": 38.95922733333333, "bike_id": "1ab5ae82d29fa8258054a330ba93c65c", "type": "electric_scooter", "is_reserved": 0, "lon": -77.08491916666667}, {"fusion_lat": 0.0, "name": "ded358c6fc8514c10095619b691271bf", "is_disabled": 0, "rental_uris": {"android": "https://dc.lft.to/lastmile_qr_scan", "ios": "https://dc.lft.to/lastmile_qr_scan"}, "fusion_lon": 0.0, "lat": 38.926809666666664, "bike_id": "ded358c6fc8514c10095619b691271bf", "type": "electric_scooter", "is_reserved": 0, "lon": -77.02249016666667}, {"fusion_lat": 0.0, "name": "3860aa38d975f2cdb1322babed88d47b", "is_disabled": 0, "rental_uris": {"android": "https://dc.lft.to/lastmile_qr_scan", "ios": "https://dc.lft.to/lastmile_qr_scan"}, "fusion_lon": 0.0, "lat": 38.949777, "bike_id": "3860aa38d975f2cdb1322babed88d47b", "type": "electric_scooter", "is_reserved": 0, "lon": -77.026977}, {"fusion_lat": 0.0, "name": "9f6adbae5c54d8cc5e9f552571004284", "is_disabled": 0, "rental_uris": {"android": "https://dc.lft.to/lastmile_qr_scan", "ios": "https://dc.lft.to/lastmile_qr_scan"}, "fusion_lon": 0.0, "lat": 38.94977383333333, "bike_id": "9f6adbae5c54d8cc5e9f552571004284", "type": "electric_scooter", "is_reserved": 0, "lon": -77.02698716666667}, {"fusion_lat": 0.0, "name": "be957c4c4ad4f4fc19e61e0925370a12", "is_disabled": 0, "rental_uris": {"android": "https://dc.lft.to/lastmile_qr_scan", "ios": "https://dc.lft.to/lastmile_qr_scan"}, "fusion_lon": 0.0, "lat": 38.868507666666666, "bike_id": "be957c4c4ad4f4fc19e61e0925370a12", "type": "electric_scooter", "is_reserved": 0, "lon": -76.9882985}, {"fusion_lat": 0.0, "name": "b294aeb89367bb5768e669dff2bdb1a4", "is_disabled": 0, "rental_uris": {"android": "https://dc.lft.to/lastmile_qr_scan", "ios": "https://dc.lft.to/lastmile_qr_scan"}, "fusion_lon": 0.0, "lat": 38.92537033333333, "bike_id": "b294aeb89367bb5768e669dff2bdb1a4", "type": "electric_scooter", "is_reserved": 0, "lon": -77.05115783333333}, {"fusion_lat": 0.0, "name": "437efaa558c35ff0c9a2c4df6cf298df", "is_disabled": 0, "rental_uris": {"android": "https://dc.lft.to/lastmile_qr_scan", "ios": "https://dc.lft.to/lastmile_qr_scan"}, "fusion_lon": 0.0, "lat": 38.875729166666666, "bike_id": "437efaa558c35ff0c9a2c4df6cf298df", "type": "electric_scooter", "is_reserved": 0, "lon": -77.00730983333334}, {"fusion_lat": 0.0, "name": "b60e2484875b7aa6c7d45809131d5231", "is_disabled": 0, "rental_uris": {"android": "https://dc.lft.to/lastmile_qr_scan", "ios": "https://dc.lft.to/lastmile_qr_scan"}, "fusion_lon": 0.0, "lat": 38.91689566666667, "bike_id": "b60e2484875b7aa6c7d45809131d5231", "type": "electric_bike", "is_reserved": 0, "lon": -76.982389}, {"fusion_lat": 0.0, "name": "e4093cba69b1774fc7f4a0a606d90801", "is_disabled": 0, "rental_uris": {"android": "https://dc.lft.to/lastmile_qr_scan", "ios": "https://dc.lft.to/lastmile_qr_scan"}, "fusion_lon": 0.0, "lat": 38.8874115, "bike_id": "e4093cba69b1774fc7f4a0a606d90801", "type": "electric_scooter", "is_reserved": 0, "lon": -77.02174616666667}, {"fusion_lat": 0.0, "name": "0ae589d03dfb3cc10579d2c3df01a54d", "is_disabled": 0, "rental_uris": {"android": "https://dc.lft.to/lastmile_qr_scan", "ios": "https://dc.lft.to/lastmile_qr_scan"}, "fusion_lon": 0.0, "lat": 38.912137, "bike_id": "0ae589d03dfb3cc10579d2c3df01a54d", "type": "electric_scooter", "is_reserved": 0, "lon": -77.04493583333333}, {"fusion_lat": 0.0, "name": "9cdbc5fcdb6d91d5caf2d0bc714aef7d", "is_disabled": 0, "rental_uris": {"android": "https://dc.lft.to/lastmile_qr_scan", "ios": "https://dc.lft.to/lastmile_qr_scan"}, "fusion_lon": 0.0, "lat": 38.92889533333334, "bike_id": "9cdbc5fcdb6d91d5caf2d0bc714aef7d", "type": "electric_scooter", "is_reserved": 0, "lon": -77.03256983333333}, {"fusion_lat": 0.0, "name": "f6c38453947a91bcfc0ba0c1667d2703", "is_disabled": 0, "rental_uris": {"android": "https://dc.lft.to/lastmile_qr_scan", "ios": "https://dc.lft.to/lastmile_qr_scan"}, "fusion_lon": 0.0, "lat": 38.922131, "bike_id": "f6c38453947a91bcfc0ba0c1667d2703", "type": "electric_scooter", "is_reserved": 0, "lon": -77.04262716666666}, {"fusion_lat": 0.0, "name": "193238b39440ef08e972941c05a28d34", "is_disabled": 0, "rental_uris": {"android": "https://dc.lft.to/lastmile_qr_scan", "ios": "https://dc.lft.to/lastmile_qr_scan"}, "fusion_lon": 0.0, "lat": 38.90193216666667, "bike_id": "193238b39440ef08e972941c05a28d34", "type": "electric_scooter", "is_reserved": 0, "lon": -77.02513066666667}, {"fusion_lat": 0.0, "name": "2e8786d65bf178b1229ecd8835056fd1", "is_disabled": 0, "rental_uris": {"android": "https://dc.lft.to/lastmile_qr_scan", "ios": "https://dc.lft.to/lastmile_qr_scan"}, "fusion_lon": 0.0, "lat": 38.892237, "bike_id": "2e8786d65bf178b1229ecd8835056fd1", "type": "electric_scooter", "is_reserved": 0, "lon": -77.02778916666666}, {"fusion_lat": 0.0, "name": "196e3cb029d25ab693fc8ad9dbce99af", "is_disabled": 0, "rental_uris": {"android": "https://dc.lft.to/lastmile_qr_scan", "ios": "https://dc.lft.to/lastmile_qr_scan"}, "fusion_lon": 0.0, "lat": 38.90551383333333, "bike_id": "196e3cb029d25ab693fc8ad9dbce99af", "type": "electric_scooter", "is_reserved": 0, "lon": -77.06284633333334}, {"fusion_lat": 0.0, "name": "a6dff3766a5de058b5552958ac08988d", "is_disabled": 0, "rental_uris": {"android": "https://dc.lft.to/lastmile_qr_scan", "ios": "https://dc.lft.to/lastmile_qr_scan"}, "fusion_lon": 0.0, "lat": 38.911956833333335, "bike_id": "a6dff3766a5de058b5552958ac08988d", "type": "electric_scooter", "is_reserved": 0, "lon": -77.03857616666667}, {"fusion_lat": 0.0, "name": "674122587fbfc9f4f7e57c7b5f31577c", "is_disabled": 0, "rental_uris": {"android": "https://dc.lft.to/lastmile_qr_scan", "ios": "https://dc.lft.to/lastmile_qr_scan"}, "fusion_lon": 0.0, "lat": 38.87451933333333, "bike_id": "674122587fbfc9f4f7e57c7b5f31577c", "type": "electric_scooter", "is_reserved": 0, "lon": -77.00924266666667}, {"fusion_lat": 0.0, "name": "9b35c69670d2a79732a718755e0f36f2", "is_disabled": 0, "rental_uris": {"android": "https://dc.lft.to/lastmile_qr_scan", "ios": "https://dc.lft.to/lastmile_qr_scan"}, "fusion_lon": 0.0, "lat": 38.917966166666666, "bike_id": "9b35c69670d2a79732a718755e0f36f2", "type": "electric_scooter", "is_reserved": 0, "lon": -77.02714283333333}, {"fusion_lat": 0.0, "name": "e61afbba8f3d7b303b9a9b4dacd94956", "is_disabled": 0, "rental_uris": {"android": "https://dc.lft.to/lastmile_qr_scan", "ios": "https://dc.lft.to/lastmile_qr_scan"}, "fusion_lon": 0.0, "lat": 38.90943883333333, "bike_id": "e61afbba8f3d7b303b9a9b4dacd94956", "type": "electric_scooter", "is_reserved": 0, "lon": -77.02183883333333}, {"fusion_lat": 0.0, "name": "3b50f370320dacf32344afa6aac226ba", "is_disabled": 0, "rental_uris": {"android": "https://dc.lft.to/lastmile_qr_scan", "ios": "https://dc.lft.to/lastmile_qr_scan"}, "fusion_lon": 0.0, "lat": 38.91559633333333, "bike_id": "3b50f370320dacf32344afa6aac226ba", "type": "electric_scooter", "is_reserved": 0, "lon": -77.038271}, {"fusion_lat": 0.0, "name": "7215abc66a0ff558fa39603846a2b86a", "is_disabled": 0, "rental_uris": {"android": "https://dc.lft.to/lastmile_qr_scan", "ios": "https://dc.lft.to/lastmile_qr_scan"}, "fusion_lon": 0.0, "lat": 38.914627833333334, "bike_id": "7215abc66a0ff558fa39603846a2b86a", "type": "electric_scooter", "is_reserved": 0, "lon": -77.03896633333333}, {"fusion_lat": 0.0, "name": "c6e218140530740a6266f0612dc17bb1", "is_disabled": 0, "rental_uris": {"android": "https://dc.lft.to/lastmile_qr_scan", "ios": "https://dc.lft.to/lastmile_qr_scan"}, "fusion_lon": 0.0, "lat": 38.92925966666667, "bike_id": "c6e218140530740a6266f0612dc17bb1", "type": "electric_scooter", "is_reserved": 0, "lon": -77.032854}, {"fusion_lat": 0.0, "name": "bef321ac67d6d55055e9a4752cff1b6a", "is_disabled": 0, "rental_uris": {"android": "https://dc.lft.to/lastmile_qr_scan", "ios": "https://dc.lft.to/lastmile_qr_scan"}, "fusion_lon": 0.0, "lat": 38.921037, "bike_id": "bef321ac67d6d55055e9a4752cff1b6a", "type": "electric_scooter", "is_reserved": 0, "lon": -77.0747195}, {"fusion_lat": 0.0, "name": "c2b193baf2bd64854a8bb4dd59616f6c", "is_disabled": 0, "rental_uris": {"android": "https://dc.lft.to/lastmile_qr_scan", "ios": "https://dc.lft.to/lastmile_qr_scan"}, "fusion_lon": 0.0, "lat": 38.898786333333334, "bike_id": "c2b193baf2bd64854a8bb4dd59616f6c", "type": "electric_scooter", "is_reserved": 0, "lon": -77.02049616666666}, {"fusion_lat": 0.0, "name": "c6b33d2d11a15b5413bb97b104d6d4e1", "is_disabled": 0, "rental_uris": {"android": "https://dc.lft.to/lastmile_qr_scan", "ios": "https://dc.lft.to/lastmile_qr_scan"}, "fusion_lon": 0.0, "lat": 38.938591833333334, "bike_id": "c6b33d2d11a15b5413bb97b104d6d4e1", "type": "electric_scooter", "is_reserved": 0, "lon": -77.02463916666666}, {"fusion_lat": 0.0, "name": "91bf86a35be469e4fedbf1b7ef8d3db7", "is_disabled": 0, "rental_uris": {"android": "https://dc.lft.to/lastmile_qr_scan", "ios": "https://dc.lft.to/lastmile_qr_scan"}, "fusion_lon": 0.0, "lat": 38.873787166666666, "bike_id": "91bf86a35be469e4fedbf1b7ef8d3db7", "type": "electric_scooter", "is_reserved": 0, "lon": -77.00154133333334}, {"fusion_lat": 0.0, "name": "c2541c9f609e5bc4257ab13424105b6a", "is_disabled": 0, "rental_uris": {"android": "https://dc.lft.to/lastmile_qr_scan", "ios": "https://dc.lft.to/lastmile_qr_scan"}, "fusion_lon": 0.0, "lat": 38.89998216666667, "bike_id": "c2541c9f609e5bc4257ab13424105b6a", "type": "electric_scooter", "is_reserved": 0, "lon": -77.00381383333334}, {"fusion_lat": 0.0, "name": "8519dbe1a202fff62a975ab01a0d9b74", "is_disabled": 0, "rental_uris": {"android": "https://dc.lft.to/lastmile_qr_scan", "ios": "https://dc.lft.to/lastmile_qr_scan"}, "fusion_lon": 0.0, "lat": 38.898764666666665, "bike_id": "8519dbe1a202fff62a975ab01a0d9b74", "type": "electric_scooter", "is_reserved": 0, "lon": -76.9318435}, {"fusion_lat": 0.0, "name": "bdcb0716ff208321805a55fe87eb843f", "is_disabled": 0, "rental_uris": {"android": "https://dc.lft.to/lastmile_qr_scan", "ios": "https://dc.lft.to/lastmile_qr_scan"}, "fusion_lon": 0.0, "lat": 38.877035166666666, "bike_id": "bdcb0716ff208321805a55fe87eb843f", "type": "electric_scooter", "is_reserved": 0, "lon": -76.9937585}, {"fusion_lat": 0.0, "name": "050181632d713391b08608b5869656e7", "is_disabled": 0, "rental_uris": {"android": "https://dc.lft.to/lastmile_qr_scan", "ios": "https://dc.lft.to/lastmile_qr_scan"}, "fusion_lon": 0.0, "lat": 38.9181505, "bike_id": "050181632d713391b08608b5869656e7", "type": "electric_scooter", "is_reserved": 0, "lon": -77.02489566666667}, {"fusion_lat": 0.0, "name": "76e1f973780feec7427a36087a36118f", "is_disabled": 0, "rental_uris": {"android": "https://dc.lft.to/lastmile_qr_scan", "ios": "https://dc.lft.to/lastmile_qr_scan"}, "fusion_lon": 0.0, "lat": 38.916718333333336, "bike_id": "76e1f973780feec7427a36087a36118f", "type": "electric_scooter", "is_reserved": 0, "lon": -77.029614}, {"fusion_lat": 0.0, "name": "c5a2200880bba75467dc4d6d8401dab5", "is_disabled": 0, "rental_uris": {"android": "https://dc.lft.to/lastmile_qr_scan", "ios": "https://dc.lft.to/lastmile_qr_scan"}, "fusion_lon": 0.0, "lat": 38.886135, "bike_id": "c5a2200880bba75467dc4d6d8401dab5", "type": "electric_scooter", "is_reserved": 0, "lon": -77.0155445}, {"fusion_lat": 0.0, "name": "2d593a380ce929e8faa7c3db14e37bb3", "is_disabled": 0, "rental_uris": {"android": "https://dc.lft.to/lastmile_qr_scan", "ios": "https://dc.lft.to/lastmile_qr_scan"}, "fusion_lon": 0.0, "lat": 38.920445, "bike_id": "2d593a380ce929e8faa7c3db14e37bb3", "type": "electric_scooter", "is_reserved": 0, "lon": -77.02370533333334}, {"fusion_lat": 0.0, "name": "3b43d4f8dfa34a9e8da61b9ae0f09481", "is_disabled": 0, "rental_uris": {"android": "https://dc.lft.to/lastmile_qr_scan", "ios": "https://dc.lft.to/lastmile_qr_scan"}, "fusion_lon": 0.0, "lat": 38.92269833333334, "bike_id": "3b43d4f8dfa34a9e8da61b9ae0f09481", "type": "electric_scooter", "is_reserved": 0, "lon": -77.042834}, {"fusion_lat": 0.0, "name": "06fea1298b976de4b3aa6363c4d7b924", "is_disabled": 0, "rental_uris": {"android": "https://dc.lft.to/lastmile_qr_scan", "ios": "https://dc.lft.to/lastmile_qr_scan"}, "fusion_lon": 0.0, "lat": 38.915639666666664, "bike_id": "06fea1298b976de4b3aa6363c4d7b924", "type": "electric_scooter", "is_reserved": 0, "lon": -77.031963}, {"fusion_lat": 0.0, "name": "7ab186b60d803e3b0198971270ed0bda", "is_disabled": 0, "rental_uris": {"android": "https://dc.lft.to/lastmile_qr_scan", "ios": "https://dc.lft.to/lastmile_qr_scan"}, "fusion_lon": 0.0, "lat": 38.931467166666664, "bike_id": "7ab186b60d803e3b0198971270ed0bda", "type": "electric_scooter", "is_reserved": 0, "lon": -77.03963183333333}, {"fusion_lat": 0.0, "name": "5c8f1d796019df9035b5516aa806940e", "is_disabled": 0, "rental_uris": {"android": "https://dc.lft.to/lastmile_qr_scan", "ios": "https://dc.lft.to/lastmile_qr_scan"}, "fusion_lon": 0.0, "lat": 38.90661516666667, "bike_id": "5c8f1d796019df9035b5516aa806940e", "type": "electric_scooter", "is_reserved": 0, "lon": -77.02692666666667}, {"fusion_lat": 0.0, "name": "3d86fb5bea9ff08b362776334a83941f", "is_disabled": 0, "rental_uris": {"android": "https://dc.lft.to/lastmile_qr_scan", "ios": "https://dc.lft.to/lastmile_qr_scan"}, "fusion_lon": 0.0, "lat": 38.8541495, "bike_id": "3d86fb5bea9ff08b362776334a83941f", "type": "electric_bike", "is_reserved": 0, "lon": -77.12074533333333}, {"fusion_lat": 0.0, "name": "660ae295ee4c186b06386acbece686b8", "is_disabled": 0, "rental_uris": {"android": "https://dc.lft.to/lastmile_qr_scan", "ios": "https://dc.lft.to/lastmile_qr_scan"}, "fusion_lon": 0.0, "lat": 38.948533833333336, "bike_id": "660ae295ee4c186b06386acbece686b8", "type": "electric_scooter", "is_reserved": 0, "lon": -77.02573983333333}, {"fusion_lat": 0.0, "name": "78d3e630cd0b050dc2880693eb792315", "is_disabled": 0, "rental_uris": {"android": "https://dc.lft.to/lastmile_qr_scan", "ios": "https://dc.lft.to/lastmile_qr_scan"}, "fusion_lon": 0.0, "lat": 38.919929833333335, "bike_id": "78d3e630cd0b050dc2880693eb792315", "type": "electric_scooter", "is_reserved": 0, "lon": -77.0719105}, {"fusion_lat": 0.0, "name": "79aa3040784816859e150dc0e0111200", "is_disabled": 0, "rental_uris": {"android": "https://dc.lft.to/lastmile_qr_scan", "ios": "https://dc.lft.to/lastmile_qr_scan"}, "fusion_lon": 0.0, "lat": 38.88301116666667, "bike_id": "79aa3040784816859e150dc0e0111200", "type": "electric_scooter", "is_reserved": 0, "lon": -76.948523}, {"fusion_lat": 0.0, "name": "cdbdc7aad1c52c9d882b55865dfd4810", "is_disabled": 0, "rental_uris": {"android": "https://dc.lft.to/lastmile_qr_scan", "ios": "https://dc.lft.to/lastmile_qr_scan"}, "fusion_lon": 0.0, "lat": 38.882188666666664, "bike_id": "cdbdc7aad1c52c9d882b55865dfd4810", "type": "electric_scooter", "is_reserved": 0, "lon": -77.02938916666666}, {"fusion_lat": 0.0, "name": "72812f23a5ed603e7a68ad88f96b03ac", "is_disabled": 0, "rental_uris": {"android": "https://dc.lft.to/lastmile_qr_scan", "ios": "https://dc.lft.to/lastmile_qr_scan"}, "fusion_lon": 0.0, "lat": 38.8820705, "bike_id": "72812f23a5ed603e7a68ad88f96b03ac", "type": "electric_bike", "is_reserved": 0, "lon": -76.99274616666666}, {"fusion_lat": 0.0, "name": "153b965e1ee82e4ba3a49be83d03704a", "is_disabled": 0, "rental_uris": {"android": "https://dc.lft.to/lastmile_qr_scan", "ios": "https://dc.lft.to/lastmile_qr_scan"}, "fusion_lon": 0.0, "lat": 38.935763, "bike_id": "153b965e1ee82e4ba3a49be83d03704a", "type": "electric_scooter", "is_reserved": 0, "lon": -77.02845383333333}, {"fusion_lat": 0.0, "name": "e82fed34bc8360b7b575a2b38513c325", "is_disabled": 0, "rental_uris": {"android": "https://dc.lft.to/lastmile_qr_scan", "ios": "https://dc.lft.to/lastmile_qr_scan"}, "fusion_lon": 0.0, "lat": 38.952207333333334, "bike_id": "e82fed34bc8360b7b575a2b38513c325", "type": "electric_scooter", "is_reserved": 0, "lon": -77.08218416666666}, {"fusion_lat": 0.0, "name": "2d3ce0b4c41834835e00442a8e8c8b05", "is_disabled": 0, "rental_uris": {"android": "https://dc.lft.to/lastmile_qr_scan", "ios": "https://dc.lft.to/lastmile_qr_scan"}, "fusion_lon": 0.0, "lat": 38.92463633333333, "bike_id": "2d3ce0b4c41834835e00442a8e8c8b05", "type": "electric_scooter", "is_reserved": 0, "lon": -77.02074183333333}, {"fusion_lat": 0.0, "name": "bfeafadd1773c768c2cd8671419d09c4", "is_disabled": 0, "rental_uris": {"android": "https://dc.lft.to/lastmile_qr_scan", "ios": "https://dc.lft.to/lastmile_qr_scan"}, "fusion_lon": 0.0, "lat": 38.89219116666666, "bike_id": "bfeafadd1773c768c2cd8671419d09c4", "type": "electric_scooter", "is_reserved": 0, "lon": -77.032169}, {"fusion_lat": 0.0, "name": "3f4e505217a0a0026693824020a73ba6", "is_disabled": 0, "rental_uris": {"android": "https://dc.lft.to/lastmile_qr_scan", "ios": "https://dc.lft.to/lastmile_qr_scan"}, "fusion_lon": 0.0, "lat": 38.9008045, "bike_id": "3f4e505217a0a0026693824020a73ba6", "type": "electric_scooter", "is_reserved": 0, "lon": -77.049719}, {"fusion_lat": 0.0, "name": "03894634cb226d71fedeb1e88ba3bb47", "is_disabled": 0, "rental_uris": {"android": "https://dc.lft.to/lastmile_qr_scan", "ios": "https://dc.lft.to/lastmile_qr_scan"}, "fusion_lon": 0.0, "lat": 38.906806333333336, "bike_id": "03894634cb226d71fedeb1e88ba3bb47", "type": "electric_scooter", "is_reserved": 0, "lon": -77.0217945}, {"fusion_lat": 0.0, "name": "5fe6d398f3dc89e3502d6f006d601b8f", "is_disabled": 0, "rental_uris": {"android": "https://dc.lft.to/lastmile_qr_scan", "ios": "https://dc.lft.to/lastmile_qr_scan"}, "fusion_lon": 0.0, "lat": 38.90734616666667, "bike_id": "5fe6d398f3dc89e3502d6f006d601b8f", "type": "electric_scooter", "is_reserved": 0, "lon": -77.047596}, {"fusion_lat": 0.0, "name": "3e509d1d4860ce350990e16df9920e07", "is_disabled": 0, "rental_uris": {"android": "https://dc.lft.to/lastmile_qr_scan", "ios": "https://dc.lft.to/lastmile_qr_scan"}, "fusion_lon": 0.0, "lat": 38.93528166666667, "bike_id": "3e509d1d4860ce350990e16df9920e07", "type": "electric_scooter", "is_reserved": 0, "lon": -77.02850833333333}, {"fusion_lat": 0.0, "name": "6186f35220352ec3d3042849b296a5b5", "is_disabled": 0, "rental_uris": {"android": "https://dc.lft.to/lastmile_qr_scan", "ios": "https://dc.lft.to/lastmile_qr_scan"}, "fusion_lon": 0.0, "lat": 38.891938333333336, "bike_id": "6186f35220352ec3d3042849b296a5b5", "type": "electric_scooter", "is_reserved": 0, "lon": -77.022305}, {"fusion_lat": 0.0, "name": "ae81b054fd6b42e105429a0b74c7a649", "is_disabled": 0, "rental_uris": {"android": "https://dc.lft.to/lastmile_qr_scan", "ios": "https://dc.lft.to/lastmile_qr_scan"}, "fusion_lon": 0.0, "lat": 38.9389645, "bike_id": "ae81b054fd6b42e105429a0b74c7a649", "type": "electric_scooter", "is_reserved": 0, "lon": -77.03266233333333}, {"fusion_lat": 0.0, "name": "78d245f21b07b73128fd342d72170e41", "is_disabled": 0, "rental_uris": {"android": "https://dc.lft.to/lastmile_qr_scan", "ios": "https://dc.lft.to/lastmile_qr_scan"}, "fusion_lon": 0.0, "lat": 38.92599516666667, "bike_id": "78d245f21b07b73128fd342d72170e41", "type": "electric_scooter", "is_reserved": 0, "lon": -77.02152366666667}, {"fusion_lat": 0.0, "name": "bc94670079685ecbb2186597696ac148", "is_disabled": 0, "rental_uris": {"android": "https://dc.lft.to/lastmile_qr_scan", "ios": "https://dc.lft.to/lastmile_qr_scan"}, "fusion_lon": 0.0, "lat": 38.930576, "bike_id": "bc94670079685ecbb2186597696ac148", "type": "electric_scooter", "is_reserved": 0, "lon": -77.03216183333333}, {"fusion_lat": 0.0, "name": "b4d8fbc4a7b41538f0fd21ad8dbcce3b", "is_disabled": 0, "rental_uris": {"android": "https://dc.lft.to/lastmile_qr_scan", "ios": "https://dc.lft.to/lastmile_qr_scan"}, "fusion_lon": 0.0, "lat": 38.905811, "bike_id": "b4d8fbc4a7b41538f0fd21ad8dbcce3b", "type": "electric_scooter", "is_reserved": 0, "lon": -77.00491066666666}, {"fusion_lat": 0.0, "name": "060aeda0c0c5742945a1b7a8829fdf78", "is_disabled": 0, "rental_uris": {"android": "https://dc.lft.to/lastmile_qr_scan", "ios": "https://dc.lft.to/lastmile_qr_scan"}, "fusion_lon": 0.0, "lat": 38.87824483333333, "bike_id": "060aeda0c0c5742945a1b7a8829fdf78", "type": "electric_scooter", "is_reserved": 0, "lon": -76.9901405}, {"fusion_lat": 0.0, "name": "6ffe805b71bf5e7388588fd87b9af004", "is_disabled": 0, "rental_uris": {"android": "https://dc.lft.to/lastmile_qr_scan", "ios": "https://dc.lft.to/lastmile_qr_scan"}, "fusion_lon": 0.0, "lat": 39.0388845, "bike_id": "6ffe805b71bf5e7388588fd87b9af004", "type": "electric_bike", "is_reserved": 0, "lon": -77.0502405}, {"fusion_lat": 0.0, "name": "5356afed8c9058dcbf202773bd70fb10", "is_disabled": 0, "rental_uris": {"android": "https://dc.lft.to/lastmile_qr_scan", "ios": "https://dc.lft.to/lastmile_qr_scan"}, "fusion_lon": 0.0, "lat": 38.91803, "bike_id": "5356afed8c9058dcbf202773bd70fb10", "type": "electric_scooter", "is_reserved": 0, "lon": -77.02705}, {"fusion_lat": 0.0, "name": "b3b32cc5c5608abcc569d772c168b054", "is_disabled": 0, "rental_uris": {"android": "https://dc.lft.to/lastmile_qr_scan", "ios": "https://dc.lft.to/lastmile_qr_scan"}, "fusion_lon": 0.0, "lat": 38.90006966666667, "bike_id": "b3b32cc5c5608abcc569d772c168b054", "type": "electric_scooter", "is_reserved": 0, "lon": -76.99840183333333}, {"fusion_lat": 0.0, "name": "0f8ad1f3432e2987c51a35bd4a13858d", "is_disabled": 0, "rental_uris": {"android": "https://dc.lft.to/lastmile_qr_scan", "ios": "https://dc.lft.to/lastmile_qr_scan"}, "fusion_lon": 0.0, "lat": 38.909734, "bike_id": "0f8ad1f3432e2987c51a35bd4a13858d", "type": "electric_scooter", "is_reserved": 0, "lon": -77.04733}, {"fusion_lat": 0.0, "name": "1e2ee428677f9eb30257a8aba66db6ef", "is_disabled": 0, "rental_uris": {"android": "https://dc.lft.to/lastmile_qr_scan", "ios": "https://dc.lft.to/lastmile_qr_scan"}, "fusion_lon": 0.0, "lat": 38.900431166666664, "bike_id": "1e2ee428677f9eb30257a8aba66db6ef", "type": "electric_scooter", "is_reserved": 0, "lon": -77.0448855}, {"fusion_lat": 0.0, "name": "89af2b6268560153141da453a463cc14", "is_disabled": 0, "rental_uris": {"android": "https://dc.lft.to/lastmile_qr_scan", "ios": "https://dc.lft.to/lastmile_qr_scan"}, "fusion_lon": 0.0, "lat": 38.914223, "bike_id": "89af2b6268560153141da453a463cc14", "type": "electric_scooter", "is_reserved": 0, "lon": -76.98441616666666}, {"fusion_lat": 0.0, "name": "b5035487d091b39900835e17db261803", "is_disabled": 0, "rental_uris": {"android": "https://dc.lft.to/lastmile_qr_scan", "ios": "https://dc.lft.to/lastmile_qr_scan"}, "fusion_lon": 0.0, "lat": 38.90461666666667, "bike_id": "b5035487d091b39900835e17db261803", "type": "electric_scooter", "is_reserved": 0, "lon": -77.003464}, {"fusion_lat": 0.0, "name": "0a8f2fa92e8847e17dd4cd0ab7401e7c", "is_disabled": 0, "rental_uris": {"android": "https://dc.lft.to/lastmile_qr_scan", "ios": "https://dc.lft.to/lastmile_qr_scan"}, "fusion_lon": 0.0, "lat": 38.9248235, "bike_id": "0a8f2fa92e8847e17dd4cd0ab7401e7c", "type": "electric_scooter", "is_reserved": 0, "lon": -77.02712916666667}, {"fusion_lat": 0.0, "name": "114c9ae7fa401959517455c07de7ff9b", "is_disabled": 0, "rental_uris": {"android": "https://dc.lft.to/lastmile_qr_scan", "ios": "https://dc.lft.to/lastmile_qr_scan"}, "fusion_lon": 0.0, "lat": 38.909871833333334, "bike_id": "114c9ae7fa401959517455c07de7ff9b", "type": "electric_scooter", "is_reserved": 0, "lon": -77.03203133333334}, {"fusion_lat": 0.0, "name": "e83ceb352ccfa1a57f817319dfcaf0fc", "is_disabled": 0, "rental_uris": {"android": "https://dc.lft.to/lastmile_qr_scan", "ios": "https://dc.lft.to/lastmile_qr_scan"}, "fusion_lon": 0.0, "lat": 38.9386255, "bike_id": "e83ceb352ccfa1a57f817319dfcaf0fc", "type": "electric_scooter", "is_reserved": 0, "lon": -77.032056}, {"fusion_lat": 0.0, "name": "89e87d7aa48a43e8170834e4d8b0a9ce", "is_disabled": 0, "rental_uris": {"android": "https://dc.lft.to/lastmile_qr_scan", "ios": "https://dc.lft.to/lastmile_qr_scan"}, "fusion_lon": 0.0, "lat": 38.915625166666665, "bike_id": "89e87d7aa48a43e8170834e4d8b0a9ce", "type": "electric_scooter", "is_reserved": 0, "lon": -77.03171483333334}, {"fusion_lat": 0.0, "name": "2fad246e559f32c465f5cd4d7160fbcd", "is_disabled": 0, "rental_uris": {"android": "https://dc.lft.to/lastmile_qr_scan", "ios": "https://dc.lft.to/lastmile_qr_scan"}, "fusion_lon": 0.0, "lat": 38.9169265, "bike_id": "2fad246e559f32c465f5cd4d7160fbcd", "type": "electric_scooter", "is_reserved": 0, "lon": -77.03757133333333}, {"fusion_lat": 0.0, "name": "7c7f26b5599421756cf0138377ecb4a7", "is_disabled": 0, "rental_uris": {"android": "https://dc.lft.to/lastmile_qr_scan", "ios": "https://dc.lft.to/lastmile_qr_scan"}, "fusion_lon": 0.0, "lat": 38.8535975, "bike_id": "7c7f26b5599421756cf0138377ecb4a7", "type": "electric_bike", "is_reserved": 0, "lon": -77.114889}, {"fusion_lat": 0.0, "name": "9ca7edfa87523ecb66f92192b8155859", "is_disabled": 0, "rental_uris": {"android": "https://dc.lft.to/lastmile_qr_scan", "ios": "https://dc.lft.to/lastmile_qr_scan"}, "fusion_lon": 0.0, "lat": 38.91275233333333, "bike_id": "9ca7edfa87523ecb66f92192b8155859", "type": "electric_scooter", "is_reserved": 0, "lon": -77.02258033333334}, {"fusion_lat": 0.0, "name": "286b9437d1aa4b10db3e5048460bb569", "is_disabled": 0, "rental_uris": {"android": "https://dc.lft.to/lastmile_qr_scan", "ios": "https://dc.lft.to/lastmile_qr_scan"}, "fusion_lon": 0.0, "lat": 38.892183833333334, "bike_id": "286b9437d1aa4b10db3e5048460bb569", "type": "electric_scooter", "is_reserved": 0, "lon": -77.02362066666667}, {"fusion_lat": 0.0, "name": "6ced9dc03f5bd8f3ad6b689692584d10", "is_disabled": 0, "rental_uris": {"android": "https://dc.lft.to/lastmile_qr_scan", "ios": "https://dc.lft.to/lastmile_qr_scan"}, "fusion_lon": 0.0, "lat": 38.884533833333336, "bike_id": "6ced9dc03f5bd8f3ad6b689692584d10", "type": "electric_scooter", "is_reserved": 0, "lon": -76.99390733333334}, {"fusion_lat": 0.0, "name": "5c8245240631e0b256871442875ef164", "is_disabled": 0, "rental_uris": {"android": "https://dc.lft.to/lastmile_qr_scan", "ios": "https://dc.lft.to/lastmile_qr_scan"}, "fusion_lon": 0.0, "lat": 38.901221, "bike_id": "5c8245240631e0b256871442875ef164", "type": "electric_scooter", "is_reserved": 0, "lon": -77.04580183333333}, {"fusion_lat": 0.0, "name": "0f068f9446e6f4255e92267b866ef462", "is_disabled": 0, "rental_uris": {"android": "https://dc.lft.to/lastmile_qr_scan", "ios": "https://dc.lft.to/lastmile_qr_scan"}, "fusion_lon": 0.0, "lat": 38.93736716666667, "bike_id": "0f068f9446e6f4255e92267b866ef462", "type": "electric_scooter", "is_reserved": 0, "lon": -77.03590366666667}, {"fusion_lat": 0.0, "name": "b168f2c8121cd4aeaabef3834a8aa3ea", "is_disabled": 0, "rental_uris": {"android": "https://dc.lft.to/lastmile_qr_scan", "ios": "https://dc.lft.to/lastmile_qr_scan"}, "fusion_lon": 0.0, "lat": 38.9086905, "bike_id": "b168f2c8121cd4aeaabef3834a8aa3ea", "type": "electric_scooter", "is_reserved": 0, "lon": -77.04733516666667}, {"fusion_lat": 0.0, "name": "4dceeb530ef7a818ca84ed9f8a4cce0e", "is_disabled": 0, "rental_uris": {"android": "https://dc.lft.to/lastmile_qr_scan", "ios": "https://dc.lft.to/lastmile_qr_scan"}, "fusion_lon": 0.0, "lat": 38.917088666666665, "bike_id": "4dceeb530ef7a818ca84ed9f8a4cce0e", "type": "electric_bike", "is_reserved": 0, "lon": -77.04495116666666}, {"fusion_lat": 0.0, "name": "2cc64aabf9aac7d5b8050cd9063aff9a", "is_disabled": 0, "rental_uris": {"android": "https://dc.lft.to/lastmile_qr_scan", "ios": "https://dc.lft.to/lastmile_qr_scan"}, "fusion_lon": 0.0, "lat": 38.907138333333336, "bike_id": "2cc64aabf9aac7d5b8050cd9063aff9a", "type": "electric_scooter", "is_reserved": 0, "lon": -77.05046083333333}, {"fusion_lat": 0.0, "name": "33c36f189718fee7c1e857d35cfe5bb6", "is_disabled": 0, "rental_uris": {"android": "https://dc.lft.to/lastmile_qr_scan", "ios": "https://dc.lft.to/lastmile_qr_scan"}, "fusion_lon": 0.0, "lat": 38.900408166666665, "bike_id": "33c36f189718fee7c1e857d35cfe5bb6", "type": "electric_scooter", "is_reserved": 0, "lon": -77.02000316666667}, {"fusion_lat": 0.0, "name": "c76fea9de9f7a110588045747cd4079e", "is_disabled": 0, "rental_uris": {"android": "https://dc.lft.to/lastmile_qr_scan", "ios": "https://dc.lft.to/lastmile_qr_scan"}, "fusion_lon": 0.0, "lat": 38.89608783333333, "bike_id": "c76fea9de9f7a110588045747cd4079e", "type": "electric_scooter", "is_reserved": 0, "lon": -77.009253}, {"fusion_lat": 0.0, "name": "c5e405d1cc551b51edcf3dbf3a470a24", "is_disabled": 0, "rental_uris": {"android": "https://dc.lft.to/lastmile_qr_scan", "ios": "https://dc.lft.to/lastmile_qr_scan"}, "fusion_lon": 0.0, "lat": 38.80674666666667, "bike_id": "c5e405d1cc551b51edcf3dbf3a470a24", "type": "electric_bike", "is_reserved": 0, "lon": -77.06916116666666}, {"fusion_lat": 0.0, "name": "8e35ac58fb13513c25e6ddbdee0c621e", "is_disabled": 0, "rental_uris": {"android": "https://dc.lft.to/lastmile_qr_scan", "ios": "https://dc.lft.to/lastmile_qr_scan"}, "fusion_lon": 0.0, "lat": 38.89740833333333, "bike_id": "8e35ac58fb13513c25e6ddbdee0c621e", "type": "electric_scooter", "is_reserved": 0, "lon": -77.0196075}, {"fusion_lat": 0.0, "name": "7c098da823dfc807d9a8f8eb5b70e41c", "is_disabled": 0, "rental_uris": {"android": "https://dc.lft.to/lastmile_qr_scan", "ios": "https://dc.lft.to/lastmile_qr_scan"}, "fusion_lon": 0.0, "lat": 38.87047233333333, "bike_id": "7c098da823dfc807d9a8f8eb5b70e41c", "type": "electric_scooter", "is_reserved": 0, "lon": -77.00976683333333}, {"fusion_lat": 0.0, "name": "96fe5f905d1b3a719a625541f27ecdac", "is_disabled": 0, "rental_uris": {"android": "https://dc.lft.to/lastmile_qr_scan", "ios": "https://dc.lft.to/lastmile_qr_scan"}, "fusion_lon": 0.0, "lat": 38.93648966666667, "bike_id": "96fe5f905d1b3a719a625541f27ecdac", "type": "electric_scooter", "is_reserved": 0, "lon": -77.03053166666666}, {"fusion_lat": 0.0, "name": "351d3aee62bd087866997379bbb40792", "is_disabled": 0, "rental_uris": {"android": "https://dc.lft.to/lastmile_qr_scan", "ios": "https://dc.lft.to/lastmile_qr_scan"}, "fusion_lon": 0.0, "lat": 38.899645, "bike_id": "351d3aee62bd087866997379bbb40792", "type": "electric_scooter", "is_reserved": 0, "lon": -76.98710416666667}, {"fusion_lat": 0.0, "name": "b64e7ae470585f357807935ffe100cee", "is_disabled": 0, "rental_uris": {"android": "https://dc.lft.to/lastmile_qr_scan", "ios": "https://dc.lft.to/lastmile_qr_scan"}, "fusion_lon": 0.0, "lat": 38.94467816666667, "bike_id": "b64e7ae470585f357807935ffe100cee", "type": "electric_bike", "is_reserved": 0, "lon": -77.063609}, {"fusion_lat": 0.0, "name": "f8ed0b496b3532dfd632c5b7d9b4797f", "is_disabled": 0, "rental_uris": {"android": "https://dc.lft.to/lastmile_qr_scan", "ios": "https://dc.lft.to/lastmile_qr_scan"}, "fusion_lon": 0.0, "lat": 38.9207875, "bike_id": "f8ed0b496b3532dfd632c5b7d9b4797f", "type": "electric_bike", "is_reserved": 0, "lon": -76.98941933333333}, {"fusion_lat": 0.0, "name": "fdf0abc4dde16ae8db7e46f8b07dc5dc", "is_disabled": 0, "rental_uris": {"android": "https://dc.lft.to/lastmile_qr_scan", "ios": "https://dc.lft.to/lastmile_qr_scan"}, "fusion_lon": 0.0, "lat": 38.887239666666666, "bike_id": "fdf0abc4dde16ae8db7e46f8b07dc5dc", "type": "electric_scooter", "is_reserved": 0, "lon": -76.98356416666667}, {"fusion_lat": 0.0, "name": "c0759819a62d3ef348301eaf66ea4356", "is_disabled": 0, "rental_uris": {"android": "https://dc.lft.to/lastmile_qr_scan", "ios": "https://dc.lft.to/lastmile_qr_scan"}, "fusion_lon": 0.0, "lat": 38.92968616666667, "bike_id": "c0759819a62d3ef348301eaf66ea4356", "type": "electric_scooter", "is_reserved": 0, "lon": -77.02790333333333}, {"fusion_lat": 0.0, "name": "bd4e12cf4f534475832b5d7d23bfa6b4", "is_disabled": 0, "rental_uris": {"android": "https://dc.lft.to/lastmile_qr_scan", "ios": "https://dc.lft.to/lastmile_qr_scan"}, "fusion_lon": 0.0, "lat": 38.94228916666667, "bike_id": "bd4e12cf4f534475832b5d7d23bfa6b4", "type": "electric_scooter", "is_reserved": 0, "lon": -77.01386083333334}, {"fusion_lat": 0.0, "name": "5d75e68970b9e56e0f71f8abe6521f34", "is_disabled": 0, "rental_uris": {"android": "https://dc.lft.to/lastmile_qr_scan", "ios": "https://dc.lft.to/lastmile_qr_scan"}, "fusion_lon": 0.0, "lat": 38.885177, "bike_id": "5d75e68970b9e56e0f71f8abe6521f34", "type": "electric_scooter", "is_reserved": 0, "lon": -77.0151525}, {"fusion_lat": 0.0, "name": "4636edbdda5e105cfcb0044a05f3aa8f", "is_disabled": 0, "rental_uris": {"android": "https://dc.lft.to/lastmile_qr_scan", "ios": "https://dc.lft.to/lastmile_qr_scan"}, "fusion_lon": 0.0, "lat": 38.911571, "bike_id": "4636edbdda5e105cfcb0044a05f3aa8f", "type": "electric_scooter", "is_reserved": 0, "lon": -77.031937}, {"fusion_lat": 0.0, "name": "02fbce119f6530c92701dc4fcfa4f8ed", "is_disabled": 0, "rental_uris": {"android": "https://dc.lft.to/lastmile_qr_scan", "ios": "https://dc.lft.to/lastmile_qr_scan"}, "fusion_lon": 0.0, "lat": 38.89327083333333, "bike_id": "02fbce119f6530c92701dc4fcfa4f8ed", "type": "electric_scooter", "is_reserved": 0, "lon": -77.022442}, {"fusion_lat": 0.0, "name": "dcf23a3d6d23ead9625963cd7e3ba845", "is_disabled": 0, "rental_uris": {"android": "https://dc.lft.to/lastmile_qr_scan", "ios": "https://dc.lft.to/lastmile_qr_scan"}, "fusion_lon": 0.0, "lat": 38.8922935, "bike_id": "dcf23a3d6d23ead9625963cd7e3ba845", "type": "electric_scooter", "is_reserved": 0, "lon": -77.02710266666666}, {"fusion_lat": 0.0, "name": "baff0b63d85b4e5c1d3bc5117a09a476", "is_disabled": 0, "rental_uris": {"android": "https://dc.lft.to/lastmile_qr_scan", "ios": "https://dc.lft.to/lastmile_qr_scan"}, "fusion_lon": 0.0, "lat": 38.91339266666667, "bike_id": "baff0b63d85b4e5c1d3bc5117a09a476", "type": "electric_bike", "is_reserved": 0, "lon": -76.988884}, {"fusion_lat": 0.0, "name": "95d8dcd1689220bbc765bf34d6f77c9c", "is_disabled": 0, "rental_uris": {"android": "https://dc.lft.to/lastmile_qr_scan", "ios": "https://dc.lft.to/lastmile_qr_scan"}, "fusion_lon": 0.0, "lat": 38.926861833333334, "bike_id": "95d8dcd1689220bbc765bf34d6f77c9c", "type": "electric_scooter", "is_reserved": 0, "lon": -77.03142016666666}, {"fusion_lat": 0.0, "name": "cd12860df67dc4cd5c57c44d2d1599c3", "is_disabled": 0, "rental_uris": {"android": "https://dc.lft.to/lastmile_qr_scan", "ios": "https://dc.lft.to/lastmile_qr_scan"}, "fusion_lon": 0.0, "lat": 38.92413083333334, "bike_id": "cd12860df67dc4cd5c57c44d2d1599c3", "type": "electric_scooter", "is_reserved": 0, "lon": -77.02007083333334}, {"fusion_lat": 0.0, "name": "3c70811de7c0ae3dc1eceb8c0538342e", "is_disabled": 0, "rental_uris": {"android": "https://dc.lft.to/lastmile_qr_scan", "ios": "https://dc.lft.to/lastmile_qr_scan"}, "fusion_lon": 0.0, "lat": 38.903652, "bike_id": "3c70811de7c0ae3dc1eceb8c0538342e", "type": "electric_scooter", "is_reserved": 0, "lon": -77.0450155}, {"fusion_lat": 0.0, "name": "25b1f87938db5ae3fff66776a3817614", "is_disabled": 0, "rental_uris": {"android": "https://dc.lft.to/lastmile_qr_scan", "ios": "https://dc.lft.to/lastmile_qr_scan"}, "fusion_lon": 0.0, "lat": 38.9416265, "bike_id": "25b1f87938db5ae3fff66776a3817614", "type": "electric_scooter", "is_reserved": 0, "lon": -77.02506966666667}, {"fusion_lat": 0.0, "name": "dc5ad4995744220553ee9fdae7003a64", "is_disabled": 0, "rental_uris": {"android": "https://dc.lft.to/lastmile_qr_scan", "ios": "https://dc.lft.to/lastmile_qr_scan"}, "fusion_lon": 0.0, "lat": 38.9082595, "bike_id": "dc5ad4995744220553ee9fdae7003a64", "type": "electric_scooter", "is_reserved": 0, "lon": -77.04324016666666}, {"fusion_lat": 0.0, "name": "c28fdfafb5a75de8f75e3fc6ceff31b3", "is_disabled": 0, "rental_uris": {"android": "https://dc.lft.to/lastmile_qr_scan", "ios": "https://dc.lft.to/lastmile_qr_scan"}, "fusion_lon": 0.0, "lat": 38.90298083333333, "bike_id": "c28fdfafb5a75de8f75e3fc6ceff31b3", "type": "electric_scooter", "is_reserved": 0, "lon": -76.99250833333333}, {"fusion_lat": 0.0, "name": "cd99b2faaebc44fc1b9ce24a27ab1173", "is_disabled": 0, "rental_uris": {"android": "https://dc.lft.to/lastmile_qr_scan", "ios": "https://dc.lft.to/lastmile_qr_scan"}, "fusion_lon": 0.0, "lat": 38.899417166666666, "bike_id": "cd99b2faaebc44fc1b9ce24a27ab1173", "type": "electric_scooter", "is_reserved": 0, "lon": -77.05355733333333}, {"fusion_lat": 0.0, "name": "2ded015081bc8e6290d12286633bd5f9", "is_disabled": 0, "rental_uris": {"android": "https://dc.lft.to/lastmile_qr_scan", "ios": "https://dc.lft.to/lastmile_qr_scan"}, "fusion_lon": 0.0, "lat": 38.88806066666667, "bike_id": "2ded015081bc8e6290d12286633bd5f9", "type": "electric_scooter", "is_reserved": 0, "lon": -76.9835985}, {"fusion_lat": 0.0, "name": "516b160559f76892cce1eaf45ca36c37", "is_disabled": 0, "rental_uris": {"android": "https://dc.lft.to/lastmile_qr_scan", "ios": "https://dc.lft.to/lastmile_qr_scan"}, "fusion_lon": 0.0, "lat": 38.887447333333334, "bike_id": "516b160559f76892cce1eaf45ca36c37", "type": "electric_scooter", "is_reserved": 0, "lon": -76.98357866666667}, {"fusion_lat": 0.0, "name": "a1f3e61c7f56b189bfc2bcdd7552171f", "is_disabled": 0, "rental_uris": {"android": "https://dc.lft.to/lastmile_qr_scan", "ios": "https://dc.lft.to/lastmile_qr_scan"}, "fusion_lon": 0.0, "lat": 38.880388833333335, "bike_id": "a1f3e61c7f56b189bfc2bcdd7552171f", "type": "electric_bike", "is_reserved": 0, "lon": -77.025154}, {"fusion_lat": 0.0, "name": "6d20897e1e1461f2ae5c2ae2296d7bf2", "is_disabled": 0, "rental_uris": {"android": "https://dc.lft.to/lastmile_qr_scan", "ios": "https://dc.lft.to/lastmile_qr_scan"}, "fusion_lon": 0.0, "lat": 38.913368, "bike_id": "6d20897e1e1461f2ae5c2ae2296d7bf2", "type": "electric_scooter", "is_reserved": 0, "lon": -77.04276283333333}, {"fusion_lat": 0.0, "name": "eae127254c93f9aff55ebf87eb76da2f", "is_disabled": 0, "rental_uris": {"android": "https://dc.lft.to/lastmile_qr_scan", "ios": "https://dc.lft.to/lastmile_qr_scan"}, "fusion_lon": 0.0, "lat": 38.90154183333333, "bike_id": "eae127254c93f9aff55ebf87eb76da2f", "type": "electric_scooter", "is_reserved": 0, "lon": -77.02018216666667}, {"fusion_lat": 0.0, "name": "a94ab3e47b2fa8b43389e60305acc0e3", "is_disabled": 0, "rental_uris": {"android": "https://dc.lft.to/lastmile_qr_scan", "ios": "https://dc.lft.to/lastmile_qr_scan"}, "fusion_lon": 0.0, "lat": 38.92075066666666, "bike_id": "a94ab3e47b2fa8b43389e60305acc0e3", "type": "electric_scooter", "is_reserved": 0, "lon": -77.01481133333333}, {"fusion_lat": 0.0, "name": "8d79d287cd0375a7647a67eabe9684b8", "is_disabled": 0, "rental_uris": {"android": "https://dc.lft.to/lastmile_qr_scan", "ios": "https://dc.lft.to/lastmile_qr_scan"}, "fusion_lon": 0.0, "lat": 38.9077795, "bike_id": "8d79d287cd0375a7647a67eabe9684b8", "type": "electric_scooter", "is_reserved": 0, "lon": -77.01111633333333}, {"fusion_lat": 0.0, "name": "ac65b2aef44f40c4124bfb84b07f901c", "is_disabled": 0, "rental_uris": {"android": "https://dc.lft.to/lastmile_qr_scan", "ios": "https://dc.lft.to/lastmile_qr_scan"}, "fusion_lon": 0.0, "lat": 38.915497333333334, "bike_id": "ac65b2aef44f40c4124bfb84b07f901c", "type": "electric_scooter", "is_reserved": 0, "lon": -77.0306935}, {"fusion_lat": 0.0, "name": "f6669e5a2ab9b4e9d787100489d8f97e", "is_disabled": 0, "rental_uris": {"android": "https://dc.lft.to/lastmile_qr_scan", "ios": "https://dc.lft.to/lastmile_qr_scan"}, "fusion_lon": 0.0, "lat": 38.956135, "bike_id": "f6669e5a2ab9b4e9d787100489d8f97e", "type": "electric_scooter", "is_reserved": 0, "lon": -77.02760783333333}, {"fusion_lat": 0.0, "name": "88cb657fefc15b67cb0ff876fb81475c", "is_disabled": 0, "rental_uris": {"android": "https://dc.lft.to/lastmile_qr_scan", "ios": "https://dc.lft.to/lastmile_qr_scan"}, "fusion_lon": 0.0, "lat": 38.946352166666664, "bike_id": "88cb657fefc15b67cb0ff876fb81475c", "type": "electric_scooter", "is_reserved": 0, "lon": -77.095367}, {"fusion_lat": 0.0, "name": "8c834b3b5d8748280ba5947f52a6fca3", "is_disabled": 0, "rental_uris": {"android": "https://dc.lft.to/lastmile_qr_scan", "ios": "https://dc.lft.to/lastmile_qr_scan"}, "fusion_lon": 0.0, "lat": 38.902649333333336, "bike_id": "8c834b3b5d8748280ba5947f52a6fca3", "type": "electric_scooter", "is_reserved": 0, "lon": -77.029663}, {"fusion_lat": 0.0, "name": "8c8ab589d6256c10d9bce193512a1b7a", "is_disabled": 0, "rental_uris": {"android": "https://dc.lft.to/lastmile_qr_scan", "ios": "https://dc.lft.to/lastmile_qr_scan"}, "fusion_lon": 0.0, "lat": 38.915683, "bike_id": "8c8ab589d6256c10d9bce193512a1b7a", "type": "electric_scooter", "is_reserved": 0, "lon": -77.0385215}, {"fusion_lat": 0.0, "name": "26cd659f79887b95b5ed97292cfc4e69", "is_disabled": 0, "rental_uris": {"android": "https://dc.lft.to/lastmile_qr_scan", "ios": "https://dc.lft.to/lastmile_qr_scan"}, "fusion_lon": 0.0, "lat": 38.925299333333335, "bike_id": "26cd659f79887b95b5ed97292cfc4e69", "type": "electric_scooter", "is_reserved": 0, "lon": -77.03825766666667}, {"fusion_lat": 0.0, "name": "e4482d5c6c5b1133ca5e214007b35fe3", "is_disabled": 0, "rental_uris": {"android": "https://dc.lft.to/lastmile_qr_scan", "ios": "https://dc.lft.to/lastmile_qr_scan"}, "fusion_lon": 0.0, "lat": 38.8922235, "bike_id": "e4482d5c6c5b1133ca5e214007b35fe3", "type": "electric_scooter", "is_reserved": 0, "lon": -77.03143283333333}, {"fusion_lat": 0.0, "name": "907498f5260b12a9afec8b6815f7f9ba", "is_disabled": 0, "rental_uris": {"android": "https://dc.lft.to/lastmile_qr_scan", "ios": "https://dc.lft.to/lastmile_qr_scan"}, "fusion_lon": 0.0, "lat": 38.928905666666665, "bike_id": "907498f5260b12a9afec8b6815f7f9ba", "type": "electric_bike", "is_reserved": 0, "lon": -77.23181183333334}, {"fusion_lat": 0.0, "name": "7f7e828e4da84b42f15a361cbe5c84ad", "is_disabled": 0, "rental_uris": {"android": "https://dc.lft.to/lastmile_qr_scan", "ios": "https://dc.lft.to/lastmile_qr_scan"}, "fusion_lon": 0.0, "lat": 38.898914, "bike_id": "7f7e828e4da84b42f15a361cbe5c84ad", "type": "electric_scooter", "is_reserved": 0, "lon": -77.01515916666666}, {"fusion_lat": 0.0, "name": "ec702b35c8060008cb7c5443d292cb57", "is_disabled": 0, "rental_uris": {"android": "https://dc.lft.to/lastmile_qr_scan", "ios": "https://dc.lft.to/lastmile_qr_scan"}, "fusion_lon": 0.0, "lat": 38.938678333333336, "bike_id": "ec702b35c8060008cb7c5443d292cb57", "type": "electric_scooter", "is_reserved": 0, "lon": -77.02460716666667}, {"fusion_lat": 0.0, "name": "712823b7039138358864643d4ef3c2e1", "is_disabled": 0, "rental_uris": {"android": "https://dc.lft.to/lastmile_qr_scan", "ios": "https://dc.lft.to/lastmile_qr_scan"}, "fusion_lon": 0.0, "lat": 38.910318, "bike_id": "712823b7039138358864643d4ef3c2e1", "type": "electric_scooter", "is_reserved": 0, "lon": -77.00828366666667}, {"fusion_lat": 0.0, "name": "75533ed77ca7f8859e5fd1b3bdad2b1b", "is_disabled": 0, "rental_uris": {"android": "https://dc.lft.to/lastmile_qr_scan", "ios": "https://dc.lft.to/lastmile_qr_scan"}, "fusion_lon": 0.0, "lat": 38.900907833333335, "bike_id": "75533ed77ca7f8859e5fd1b3bdad2b1b", "type": "electric_scooter", "is_reserved": 0, "lon": -76.98333233333334}, {"fusion_lat": 0.0, "name": "4c92ead9a024fece6150992766293dfe", "is_disabled": 0, "rental_uris": {"android": "https://dc.lft.to/lastmile_qr_scan", "ios": "https://dc.lft.to/lastmile_qr_scan"}, "fusion_lon": 0.0, "lat": 38.952853, "bike_id": "4c92ead9a024fece6150992766293dfe", "type": "electric_scooter", "is_reserved": 0, "lon": -77.06862083333333}, {"fusion_lat": 0.0, "name": "078574fa525b367ef414ca255ce803ad", "is_disabled": 0, "rental_uris": {"android": "https://dc.lft.to/lastmile_qr_scan", "ios": "https://dc.lft.to/lastmile_qr_scan"}, "fusion_lon": 0.0, "lat": 38.89941266666666, "bike_id": "078574fa525b367ef414ca255ce803ad", "type": "electric_scooter", "is_reserved": 0, "lon": -77.01449966666667}, {"fusion_lat": 0.0, "name": "7bfc600d8c621cd73dbe956ecf3a9c75", "is_disabled": 0, "rental_uris": {"android": "https://dc.lft.to/lastmile_qr_scan", "ios": "https://dc.lft.to/lastmile_qr_scan"}, "fusion_lon": 0.0, "lat": 38.8918055, "bike_id": "7bfc600d8c621cd73dbe956ecf3a9c75", "type": "electric_scooter", "is_reserved": 0, "lon": -77.0217525}, {"fusion_lat": 0.0, "name": "58f2a82e7159c7ee2ea8e034f704db9f", "is_disabled": 0, "rental_uris": {"android": "https://dc.lft.to/lastmile_qr_scan", "ios": "https://dc.lft.to/lastmile_qr_scan"}, "fusion_lon": 0.0, "lat": 38.93558516666667, "bike_id": "58f2a82e7159c7ee2ea8e034f704db9f", "type": "electric_scooter", "is_reserved": 0, "lon": -77.03481666666667}, {"fusion_lat": 0.0, "name": "759e8f909e108732c50f2d407dbf0083", "is_disabled": 0, "rental_uris": {"android": "https://dc.lft.to/lastmile_qr_scan", "ios": "https://dc.lft.to/lastmile_qr_scan"}, "fusion_lon": 0.0, "lat": 38.9025535, "bike_id": "759e8f909e108732c50f2d407dbf0083", "type": "electric_scooter", "is_reserved": 0, "lon": -77.01915133333334}, {"fusion_lat": 0.0, "name": "19b2d46c5e048661f7563fd195805644", "is_disabled": 0, "rental_uris": {"android": "https://dc.lft.to/lastmile_qr_scan", "ios": "https://dc.lft.to/lastmile_qr_scan"}, "fusion_lon": 0.0, "lat": 38.857966, "bike_id": "19b2d46c5e048661f7563fd195805644", "type": "electric_bike", "is_reserved": 0, "lon": -77.120119}, {"fusion_lat": 0.0, "name": "ffa21f3c94658f7c775f1d7a4bddc222", "is_disabled": 0, "rental_uris": {"android": "https://dc.lft.to/lastmile_qr_scan", "ios": "https://dc.lft.to/lastmile_qr_scan"}, "fusion_lon": 0.0, "lat": 38.93037733333333, "bike_id": "ffa21f3c94658f7c775f1d7a4bddc222", "type": "electric_scooter", "is_reserved": 0, "lon": -77.033638}, {"fusion_lat": 0.0, "name": "ef3ddf9f34f35a0e9b0cb4392464f882", "is_disabled": 0, "rental_uris": {"android": "https://dc.lft.to/lastmile_qr_scan", "ios": "https://dc.lft.to/lastmile_qr_scan"}, "fusion_lon": 0.0, "lat": 38.93064733333333, "bike_id": "ef3ddf9f34f35a0e9b0cb4392464f882", "type": "electric_scooter", "is_reserved": 0, "lon": -77.029755}, {"fusion_lat": 0.0, "name": "80c491ceb9f890ec7438bd34d3767fc6", "is_disabled": 0, "rental_uris": {"android": "https://dc.lft.to/lastmile_qr_scan", "ios": "https://dc.lft.to/lastmile_qr_scan"}, "fusion_lon": 0.0, "lat": 38.916661, "bike_id": "80c491ceb9f890ec7438bd34d3767fc6", "type": "electric_scooter", "is_reserved": 0, "lon": -77.0272255}, {"fusion_lat": 0.0, "name": "cafe342d9c3c7cba8293a8dfbe4f8ee8", "is_disabled": 0, "rental_uris": {"android": "https://dc.lft.to/lastmile_qr_scan", "ios": "https://dc.lft.to/lastmile_qr_scan"}, "fusion_lon": 0.0, "lat": 38.949208166666665, "bike_id": "cafe342d9c3c7cba8293a8dfbe4f8ee8", "type": "electric_scooter", "is_reserved": 0, "lon": -77.0185085}, {"fusion_lat": 0.0, "name": "9b805de61fb7e110e8327f2ebcb17cc1", "is_disabled": 0, "rental_uris": {"android": "https://dc.lft.to/lastmile_qr_scan", "ios": "https://dc.lft.to/lastmile_qr_scan"}, "fusion_lon": 0.0, "lat": 38.92404583333333, "bike_id": "9b805de61fb7e110e8327f2ebcb17cc1", "type": "electric_scooter", "is_reserved": 0, "lon": -77.02541716666667}, {"fusion_lat": 0.0, "name": "cacf82839b91916030a5303cca634b17", "is_disabled": 0, "rental_uris": {"android": "https://dc.lft.to/lastmile_qr_scan", "ios": "https://dc.lft.to/lastmile_qr_scan"}, "fusion_lon": 0.0, "lat": 38.91151966666666, "bike_id": "cacf82839b91916030a5303cca634b17", "type": "electric_scooter", "is_reserved": 0, "lon": -76.9872375}, {"fusion_lat": 0.0, "name": "531d6c01dfe4aa64a5ee33b8081e7439", "is_disabled": 0, "rental_uris": {"android": "https://dc.lft.to/lastmile_qr_scan", "ios": "https://dc.lft.to/lastmile_qr_scan"}, "fusion_lon": 0.0, "lat": 38.873794833333335, "bike_id": "531d6c01dfe4aa64a5ee33b8081e7439", "type": "electric_scooter", "is_reserved": 0, "lon": -77.00131916666666}, {"fusion_lat": 0.0, "name": "4b1c99f6a33d220f5ccd2942bcf6a142", "is_disabled": 0, "rental_uris": {"android": "https://dc.lft.to/lastmile_qr_scan", "ios": "https://dc.lft.to/lastmile_qr_scan"}, "fusion_lon": 0.0, "lat": 38.867650833333336, "bike_id": "4b1c99f6a33d220f5ccd2942bcf6a142", "type": "electric_scooter", "is_reserved": 0, "lon": -76.982702}, {"fusion_lat": 0.0, "name": "5d55969f552386b29110b5b7291e8f25", "is_disabled": 0, "rental_uris": {"android": "https://dc.lft.to/lastmile_qr_scan", "ios": "https://dc.lft.to/lastmile_qr_scan"}, "fusion_lon": 0.0, "lat": 38.892214833333334, "bike_id": "5d55969f552386b29110b5b7291e8f25", "type": "electric_scooter", "is_reserved": 0, "lon": -77.04370066666667}, {"fusion_lat": 0.0, "name": "6a4cef76dee30e87ed083d08a22691de", "is_disabled": 0, "rental_uris": {"android": "https://dc.lft.to/lastmile_qr_scan", "ios": "https://dc.lft.to/lastmile_qr_scan"}, "fusion_lon": 0.0, "lat": 38.914881, "bike_id": "6a4cef76dee30e87ed083d08a22691de", "type": "electric_scooter", "is_reserved": 0, "lon": -77.01418066666666}, {"fusion_lat": 0.0, "name": "d58628196c0a8fac479e1195f7424f46", "is_disabled": 0, "rental_uris": {"android": "https://dc.lft.to/lastmile_qr_scan", "ios": "https://dc.lft.to/lastmile_qr_scan"}, "fusion_lon": 0.0, "lat": 38.90202566666667, "bike_id": "d58628196c0a8fac479e1195f7424f46", "type": "electric_scooter", "is_reserved": 0, "lon": -77.0220645}, {"fusion_lat": 0.0, "name": "18d01f869fc50a3e5f213ae9494faa56", "is_disabled": 0, "rental_uris": {"android": "https://dc.lft.to/lastmile_qr_scan", "ios": "https://dc.lft.to/lastmile_qr_scan"}, "fusion_lon": 0.0, "lat": 38.89630483333333, "bike_id": "18d01f869fc50a3e5f213ae9494faa56", "type": "electric_scooter", "is_reserved": 0, "lon": -77.02656366666666}, {"fusion_lat": 0.0, "name": "f867f0d4a01ccb2b22c1765603819009", "is_disabled": 0, "rental_uris": {"android": "https://dc.lft.to/lastmile_qr_scan", "ios": "https://dc.lft.to/lastmile_qr_scan"}, "fusion_lon": 0.0, "lat": 38.926576833333336, "bike_id": "f867f0d4a01ccb2b22c1765603819009", "type": "electric_scooter", "is_reserved": 0, "lon": -77.05154966666667}, {"fusion_lat": 0.0, "name": "f5f34f0eb89ea76e1e6deda5f3774c81", "is_disabled": 0, "rental_uris": {"android": "https://dc.lft.to/lastmile_qr_scan", "ios": "https://dc.lft.to/lastmile_qr_scan"}, "fusion_lon": 0.0, "lat": 38.91711816666667, "bike_id": "f5f34f0eb89ea76e1e6deda5f3774c81", "type": "electric_scooter", "is_reserved": 0, "lon": -77.0289475}, {"fusion_lat": 0.0, "name": "40b68583833948ad98d58dc82fc661e3", "is_disabled": 0, "rental_uris": {"android": "https://dc.lft.to/lastmile_qr_scan", "ios": "https://dc.lft.to/lastmile_qr_scan"}, "fusion_lon": 0.0, "lat": 38.876379166666666, "bike_id": "40b68583833948ad98d58dc82fc661e3", "type": "electric_scooter", "is_reserved": 0, "lon": -77.01649783333333}, {"fusion_lat": 0.0, "name": "bc2459d7a60170001362f6c27a60394c", "is_disabled": 0, "rental_uris": {"android": "https://dc.lft.to/lastmile_qr_scan", "ios": "https://dc.lft.to/lastmile_qr_scan"}, "fusion_lon": 0.0, "lat": 38.88751933333333, "bike_id": "bc2459d7a60170001362f6c27a60394c", "type": "electric_scooter", "is_reserved": 0, "lon": -77.0025815}, {"fusion_lat": 0.0, "name": "08de0acd29a7300ed9d616a55d38ffa4", "is_disabled": 0, "rental_uris": {"android": "https://dc.lft.to/lastmile_qr_scan", "ios": "https://dc.lft.to/lastmile_qr_scan"}, "fusion_lon": 0.0, "lat": 38.92649516666667, "bike_id": "08de0acd29a7300ed9d616a55d38ffa4", "type": "electric_scooter", "is_reserved": 0, "lon": -77.05336066666666}, {"fusion_lat": 0.0, "name": "3208d93d32a3a637fd92a8ec381e3935", "is_disabled": 0, "rental_uris": {"android": "https://dc.lft.to/lastmile_qr_scan", "ios": "https://dc.lft.to/lastmile_qr_scan"}, "fusion_lon": 0.0, "lat": 38.93189666666667, "bike_id": "3208d93d32a3a637fd92a8ec381e3935", "type": "electric_scooter", "is_reserved": 0, "lon": -77.0430055}, {"fusion_lat": 0.0, "name": "c04f7ee48aae62faef9e8e1c2f2bd13e", "is_disabled": 0, "rental_uris": {"android": "https://dc.lft.to/lastmile_qr_scan", "ios": "https://dc.lft.to/lastmile_qr_scan"}, "fusion_lon": 0.0, "lat": 38.905405, "bike_id": "c04f7ee48aae62faef9e8e1c2f2bd13e", "type": "electric_scooter", "is_reserved": 0, "lon": -77.0466045}, {"fusion_lat": 0.0, "name": "01fd459be8ad11312144e253eb10377a", "is_disabled": 0, "rental_uris": {"android": "https://dc.lft.to/lastmile_qr_scan", "ios": "https://dc.lft.to/lastmile_qr_scan"}, "fusion_lon": 0.0, "lat": 38.884310666666664, "bike_id": "01fd459be8ad11312144e253eb10377a", "type": "electric_scooter", "is_reserved": 0, "lon": -77.02478083333334}, {"fusion_lat": 0.0, "name": "40fc105b93a846a9c0f06b363120bbc9", "is_disabled": 0, "rental_uris": {"android": "https://dc.lft.to/lastmile_qr_scan", "ios": "https://dc.lft.to/lastmile_qr_scan"}, "fusion_lon": 0.0, "lat": 38.887255, "bike_id": "40fc105b93a846a9c0f06b363120bbc9", "type": "electric_scooter", "is_reserved": 0, "lon": -76.98356116666666}, {"fusion_lat": 0.0, "name": "e400c8e5a2a9e229a7f0e699bd565c11", "is_disabled": 0, "rental_uris": {"android": "https://dc.lft.to/lastmile_qr_scan", "ios": "https://dc.lft.to/lastmile_qr_scan"}, "fusion_lon": 0.0, "lat": 38.905558166666665, "bike_id": "e400c8e5a2a9e229a7f0e699bd565c11", "type": "electric_scooter", "is_reserved": 0, "lon": -77.0625635}, {"fusion_lat": 0.0, "name": "f5bd78659582aaaf23a47682fbe730e0", "is_disabled": 0, "rental_uris": {"android": "https://dc.lft.to/lastmile_qr_scan", "ios": "https://dc.lft.to/lastmile_qr_scan"}, "fusion_lon": 0.0, "lat": 38.84136633333333, "bike_id": "f5bd78659582aaaf23a47682fbe730e0", "type": "electric_bike", "is_reserved": 0, "lon": -76.9475765}, {"fusion_lat": 0.0, "name": "254ca9db43c815f68935810ea86ae8bc", "is_disabled": 0, "rental_uris": {"android": "https://dc.lft.to/lastmile_qr_scan", "ios": "https://dc.lft.to/lastmile_qr_scan"}, "fusion_lon": 0.0, "lat": 38.9020345, "bike_id": "254ca9db43c815f68935810ea86ae8bc", "type": "electric_scooter", "is_reserved": 0, "lon": -76.99507166666666}, {"fusion_lat": 0.0, "name": "de8b2fc6b60d8bcbcbea809bf2276c7f", "is_disabled": 0, "rental_uris": {"android": "https://dc.lft.to/lastmile_qr_scan", "ios": "https://dc.lft.to/lastmile_qr_scan"}, "fusion_lon": 0.0, "lat": 38.897357, "bike_id": "de8b2fc6b60d8bcbcbea809bf2276c7f", "type": "electric_scooter", "is_reserved": 0, "lon": -77.02726633333333}, {"fusion_lat": 0.0, "name": "8b6140d7f83a6c3cfdddc03aaf3117d6", "is_disabled": 0, "rental_uris": {"android": "https://dc.lft.to/lastmile_qr_scan", "ios": "https://dc.lft.to/lastmile_qr_scan"}, "fusion_lon": 0.0, "lat": 38.87468883333333, "bike_id": "8b6140d7f83a6c3cfdddc03aaf3117d6", "type": "electric_scooter", "is_reserved": 0, "lon": -77.0170435}, {"fusion_lat": 0.0, "name": "fb4acc3592462fb7a146905a3795dca6", "is_disabled": 0, "rental_uris": {"android": "https://dc.lft.to/lastmile_qr_scan", "ios": "https://dc.lft.to/lastmile_qr_scan"}, "fusion_lon": 0.0, "lat": 38.865155666666666, "bike_id": "fb4acc3592462fb7a146905a3795dca6", "type": "electric_bike", "is_reserved": 0, "lon": -77.12935983333334}, {"fusion_lat": 0.0, "name": "c8880bd4cfc30aa2974dff22c39057da", "is_disabled": 0, "rental_uris": {"android": "https://dc.lft.to/lastmile_qr_scan", "ios": "https://dc.lft.to/lastmile_qr_scan"}, "fusion_lon": 0.0, "lat": 38.909046000000004, "bike_id": "c8880bd4cfc30aa2974dff22c39057da", "type": "electric_scooter", "is_reserved": 0, "lon": -77.04213783333333}, {"fusion_lat": 0.0, "name": "605b7a0df67d33e02a209d2c09f5c6ba", "is_disabled": 0, "rental_uris": {"android": "https://dc.lft.to/lastmile_qr_scan", "ios": "https://dc.lft.to/lastmile_qr_scan"}, "fusion_lon": 0.0, "lat": 38.928528666666665, "bike_id": "605b7a0df67d33e02a209d2c09f5c6ba", "type": "electric_bike", "is_reserved": 0, "lon": -76.9961375}, {"fusion_lat": 0.0, "name": "e680bdfc4c9ae12e15ba9e36d291651c", "is_disabled": 0, "rental_uris": {"android": "https://dc.lft.to/lastmile_qr_scan", "ios": "https://dc.lft.to/lastmile_qr_scan"}, "fusion_lon": 0.0, "lat": 38.927316, "bike_id": "e680bdfc4c9ae12e15ba9e36d291651c", "type": "electric_scooter", "is_reserved": 0, "lon": -77.02700966666667}, {"fusion_lat": 0.0, "name": "e6e5adf681a11e9c58692fedf8c946e2", "is_disabled": 0, "rental_uris": {"android": "https://dc.lft.to/lastmile_qr_scan", "ios": "https://dc.lft.to/lastmile_qr_scan"}, "fusion_lon": 0.0, "lat": 38.89863833333333, "bike_id": "e6e5adf681a11e9c58692fedf8c946e2", "type": "electric_scooter", "is_reserved": 0, "lon": -77.0261835}, {"fusion_lat": 0.0, "name": "7e132a99a4e46e923abfb59ddfe429a5", "is_disabled": 0, "rental_uris": {"android": "https://dc.lft.to/lastmile_qr_scan", "ios": "https://dc.lft.to/lastmile_qr_scan"}, "fusion_lon": 0.0, "lat": 38.9023515, "bike_id": "7e132a99a4e46e923abfb59ddfe429a5", "type": "electric_scooter", "is_reserved": 0, "lon": -77.023093}, {"fusion_lat": 0.0, "name": "1fb7d8838a9d08a6a5045c273167df62", "is_disabled": 0, "rental_uris": {"android": "https://dc.lft.to/lastmile_qr_scan", "ios": "https://dc.lft.to/lastmile_qr_scan"}, "fusion_lon": 0.0, "lat": 38.93088766666666, "bike_id": "1fb7d8838a9d08a6a5045c273167df62", "type": "electric_scooter", "is_reserved": 0, "lon": -77.02548633333333}, {"fusion_lat": 0.0, "name": "53966dff3180195fe0ca2591144e5f85", "is_disabled": 0, "rental_uris": {"android": "https://dc.lft.to/lastmile_qr_scan", "ios": "https://dc.lft.to/lastmile_qr_scan"}, "fusion_lon": 0.0, "lat": 38.93857916666666, "bike_id": "53966dff3180195fe0ca2591144e5f85", "type": "electric_scooter", "is_reserved": 0, "lon": -77.0245565}, {"fusion_lat": 0.0, "name": "4090be8708a3376e88f58fd00def35ad", "is_disabled": 0, "rental_uris": {"android": "https://dc.lft.to/lastmile_qr_scan", "ios": "https://dc.lft.to/lastmile_qr_scan"}, "fusion_lon": 0.0, "lat": 38.923324, "bike_id": "4090be8708a3376e88f58fd00def35ad", "type": "electric_scooter", "is_reserved": 0, "lon": -77.05614916666667}, {"fusion_lat": 0.0, "name": "f2c8ff3930fc19191c2bb4f94ae9c3bf", "is_disabled": 0, "rental_uris": {"android": "https://dc.lft.to/lastmile_qr_scan", "ios": "https://dc.lft.to/lastmile_qr_scan"}, "fusion_lon": 0.0, "lat": 38.93813, "bike_id": "f2c8ff3930fc19191c2bb4f94ae9c3bf", "type": "electric_scooter", "is_reserved": 0, "lon": -77.06018366666666}, {"fusion_lat": 0.0, "name": "35f757f05ae222fc9f44c4696d57b6af", "is_disabled": 0, "rental_uris": {"android": "https://dc.lft.to/lastmile_qr_scan", "ios": "https://dc.lft.to/lastmile_qr_scan"}, "fusion_lon": 0.0, "lat": 38.92795983333333, "bike_id": "35f757f05ae222fc9f44c4696d57b6af", "type": "electric_scooter", "is_reserved": 0, "lon": -77.03710616666666}, {"fusion_lat": 0.0, "name": "cc05d312dcd4a538f5725c61a81c9933", "is_disabled": 0, "rental_uris": {"android": "https://dc.lft.to/lastmile_qr_scan", "ios": "https://dc.lft.to/lastmile_qr_scan"}, "fusion_lon": 0.0, "lat": 38.922348, "bike_id": "cc05d312dcd4a538f5725c61a81c9933", "type": "electric_scooter", "is_reserved": 0, "lon": -77.0425295}, {"fusion_lat": 0.0, "name": "ccdbda3da551aaad46c9551278c11133", "is_disabled": 0, "rental_uris": {"android": "https://dc.lft.to/lastmile_qr_scan", "ios": "https://dc.lft.to/lastmile_qr_scan"}, "fusion_lon": 0.0, "lat": 38.887280833333335, "bike_id": "ccdbda3da551aaad46c9551278c11133", "type": "electric_scooter", "is_reserved": 0, "lon": -77.01751716666666}, {"fusion_lat": 0.0, "name": "e86b5961fe56196ccf4a3d681c974f65", "is_disabled": 0, "rental_uris": {"android": "https://dc.lft.to/lastmile_qr_scan", "ios": "https://dc.lft.to/lastmile_qr_scan"}, "fusion_lon": 0.0, "lat": 38.9049975, "bike_id": "e86b5961fe56196ccf4a3d681c974f65", "type": "electric_scooter", "is_reserved": 0, "lon": -76.99684333333333}, {"fusion_lat": 0.0, "name": "a014dcb1e7ddd3f4b125990da82bf082", "is_disabled": 0, "rental_uris": {"android": "https://dc.lft.to/lastmile_qr_scan", "ios": "https://dc.lft.to/lastmile_qr_scan"}, "fusion_lon": 0.0, "lat": 38.90938583333333, "bike_id": "a014dcb1e7ddd3f4b125990da82bf082", "type": "electric_scooter", "is_reserved": 0, "lon": -77.0212715}, {"fusion_lat": 0.0, "name": "ad2018c89e02246283f446896a4ae36d", "is_disabled": 0, "rental_uris": {"android": "https://dc.lft.to/lastmile_qr_scan", "ios": "https://dc.lft.to/lastmile_qr_scan"}, "fusion_lon": 0.0, "lat": 38.8898235, "bike_id": "ad2018c89e02246283f446896a4ae36d", "type": "electric_scooter", "is_reserved": 0, "lon": -76.99634716666667}, {"fusion_lat": 0.0, "name": "4be8219c93252c28aa4de96dcd1489ee", "is_disabled": 0, "rental_uris": {"android": "https://dc.lft.to/lastmile_qr_scan", "ios": "https://dc.lft.to/lastmile_qr_scan"}, "fusion_lon": 0.0, "lat": 38.88985233333333, "bike_id": "4be8219c93252c28aa4de96dcd1489ee", "type": "electric_scooter", "is_reserved": 0, "lon": -76.987361}, {"fusion_lat": 0.0, "name": "04de0e03b573dc015ab952c687d344dd", "is_disabled": 0, "rental_uris": {"android": "https://dc.lft.to/lastmile_qr_scan", "ios": "https://dc.lft.to/lastmile_qr_scan"}, "fusion_lon": 0.0, "lat": 38.9394195, "bike_id": "04de0e03b573dc015ab952c687d344dd", "type": "electric_scooter", "is_reserved": 0, "lon": -77.03326116666666}, {"fusion_lat": 0.0, "name": "c9d200aadc87f722c5de5cd950e8ad69", "is_disabled": 0, "rental_uris": {"android": "https://dc.lft.to/lastmile_qr_scan", "ios": "https://dc.lft.to/lastmile_qr_scan"}, "fusion_lon": 0.0, "lat": 38.91734733333333, "bike_id": "c9d200aadc87f722c5de5cd950e8ad69", "type": "electric_scooter", "is_reserved": 0, "lon": -77.04832016666667}, {"fusion_lat": 0.0, "name": "d5481734cc9fb185ace9ead9c1bbb9b7", "is_disabled": 0, "rental_uris": {"android": "https://dc.lft.to/lastmile_qr_scan", "ios": "https://dc.lft.to/lastmile_qr_scan"}, "fusion_lon": 0.0, "lat": 38.920596, "bike_id": "d5481734cc9fb185ace9ead9c1bbb9b7", "type": "electric_scooter", "is_reserved": 0, "lon": -77.03395633333334}, {"fusion_lat": 0.0, "name": "13eb5000339d5b0f7884b0f65eff4b36", "is_disabled": 0, "rental_uris": {"android": "https://dc.lft.to/lastmile_qr_scan", "ios": "https://dc.lft.to/lastmile_qr_scan"}, "fusion_lon": 0.0, "lat": 38.858966833333334, "bike_id": "13eb5000339d5b0f7884b0f65eff4b36", "type": "electric_bike", "is_reserved": 0, "lon": -77.09539866666667}, {"fusion_lat": 0.0, "name": "890c856c0b06b505756c98ff4299f598", "is_disabled": 0, "rental_uris": {"android": "https://dc.lft.to/lastmile_qr_scan", "ios": "https://dc.lft.to/lastmile_qr_scan"}, "fusion_lon": 0.0, "lat": 38.90543266666667, "bike_id": "890c856c0b06b505756c98ff4299f598", "type": "electric_scooter", "is_reserved": 0, "lon": -77.03456083333333}, {"fusion_lat": 0.0, "name": "049aa6ba7902f65d1dd1be9b922826cf", "is_disabled": 0, "rental_uris": {"android": "https://dc.lft.to/lastmile_qr_scan", "ios": "https://dc.lft.to/lastmile_qr_scan"}, "fusion_lon": 0.0, "lat": 38.89944583333333, "bike_id": "049aa6ba7902f65d1dd1be9b922826cf", "type": "electric_scooter", "is_reserved": 0, "lon": -77.05355}, {"fusion_lat": 0.0, "name": "51d2d0b5b522fa338f47617f07ffab5c", "is_disabled": 0, "rental_uris": {"android": "https://dc.lft.to/lastmile_qr_scan", "ios": "https://dc.lft.to/lastmile_qr_scan"}, "fusion_lon": 0.0, "lat": 38.92963483333333, "bike_id": "51d2d0b5b522fa338f47617f07ffab5c", "type": "electric_scooter", "is_reserved": 0, "lon": -77.02012316666666}, {"fusion_lat": 0.0, "name": "dae72cbd45ffe01dcd2ce8bd0d0470ff", "is_disabled": 0, "rental_uris": {"android": "https://dc.lft.to/lastmile_qr_scan", "ios": "https://dc.lft.to/lastmile_qr_scan"}, "fusion_lon": 0.0, "lat": 38.894962166666666, "bike_id": "dae72cbd45ffe01dcd2ce8bd0d0470ff", "type": "electric_scooter", "is_reserved": 0, "lon": -77.02215466666667}, {"fusion_lat": 0.0, "name": "17cba6e981b7298341e4178d244e356f", "is_disabled": 0, "rental_uris": {"android": "https://dc.lft.to/lastmile_qr_scan", "ios": "https://dc.lft.to/lastmile_qr_scan"}, "fusion_lon": 0.0, "lat": 38.9001705, "bike_id": "17cba6e981b7298341e4178d244e356f", "type": "electric_scooter", "is_reserved": 0, "lon": -77.00214366666667}, {"fusion_lat": 0.0, "name": "771d264ed6258a72871e9a3f84f74587", "is_disabled": 0, "rental_uris": {"android": "https://dc.lft.to/lastmile_qr_scan", "ios": "https://dc.lft.to/lastmile_qr_scan"}, "fusion_lon": 0.0, "lat": 38.909521, "bike_id": "771d264ed6258a72871e9a3f84f74587", "type": "electric_scooter", "is_reserved": 0, "lon": -77.02382616666667}, {"fusion_lat": 0.0, "name": "6df573d987e2009c129d47066a691dad", "is_disabled": 0, "rental_uris": {"android": "https://dc.lft.to/lastmile_qr_scan", "ios": "https://dc.lft.to/lastmile_qr_scan"}, "fusion_lon": 0.0, "lat": 38.899872, "bike_id": "6df573d987e2009c129d47066a691dad", "type": "electric_scooter", "is_reserved": 0, "lon": -77.02919816666666}, {"fusion_lat": 0.0, "name": "5e58676ee9f4091f96384884f404a6b5", "is_disabled": 0, "rental_uris": {"android": "https://dc.lft.to/lastmile_qr_scan", "ios": "https://dc.lft.to/lastmile_qr_scan"}, "fusion_lon": 0.0, "lat": 38.813314, "bike_id": "5e58676ee9f4091f96384884f404a6b5", "type": "electric_bike", "is_reserved": 0, "lon": -77.05087983333334}, {"fusion_lat": 0.0, "name": "079df8fccb046c22a1c0994791d050d6", "is_disabled": 0, "rental_uris": {"android": "https://dc.lft.to/lastmile_qr_scan", "ios": "https://dc.lft.to/lastmile_qr_scan"}, "fusion_lon": 0.0, "lat": 38.910382166666665, "bike_id": "079df8fccb046c22a1c0994791d050d6", "type": "electric_scooter", "is_reserved": 0, "lon": -77.01283133333334}, {"fusion_lat": 0.0, "name": "95a49629c3c77acc952c0f8117c7115d", "is_disabled": 0, "rental_uris": {"android": "https://dc.lft.to/lastmile_qr_scan", "ios": "https://dc.lft.to/lastmile_qr_scan"}, "fusion_lon": 0.0, "lat": 38.89566116666666, "bike_id": "95a49629c3c77acc952c0f8117c7115d", "type": "electric_scooter", "is_reserved": 0, "lon": -77.0337855}, {"fusion_lat": 0.0, "name": "d0f774d3e6d74ba92d9bc4c3c98504b1", "is_disabled": 0, "rental_uris": {"android": "https://dc.lft.to/lastmile_qr_scan", "ios": "https://dc.lft.to/lastmile_qr_scan"}, "fusion_lon": 0.0, "lat": 38.91709733333333, "bike_id": "d0f774d3e6d74ba92d9bc4c3c98504b1", "type": "electric_scooter", "is_reserved": 0, "lon": -77.028719}, {"fusion_lat": 0.0, "name": "b1758ab154817131c6559421098b700f", "is_disabled": 0, "rental_uris": {"android": "https://dc.lft.to/lastmile_qr_scan", "ios": "https://dc.lft.to/lastmile_qr_scan"}, "fusion_lon": 0.0, "lat": 38.94194316666667, "bike_id": "b1758ab154817131c6559421098b700f", "type": "electric_scooter", "is_reserved": 0, "lon": -77.02323083333333}, {"fusion_lat": 0.0, "name": "86b192a6455c5599c362308bd25dd8a4", "is_disabled": 0, "rental_uris": {"android": "https://dc.lft.to/lastmile_qr_scan", "ios": "https://dc.lft.to/lastmile_qr_scan"}, "fusion_lon": 0.0, "lat": 38.916053833333336, "bike_id": "86b192a6455c5599c362308bd25dd8a4", "type": "electric_scooter", "is_reserved": 0, "lon": -77.04348383333334}, {"fusion_lat": 0.0, "name": "db6258916d99ca2ea604979a8db0a1cc", "is_disabled": 0, "rental_uris": {"android": "https://dc.lft.to/lastmile_qr_scan", "ios": "https://dc.lft.to/lastmile_qr_scan"}, "fusion_lon": 0.0, "lat": 38.892460166666666, "bike_id": "db6258916d99ca2ea604979a8db0a1cc", "type": "electric_scooter", "is_reserved": 0, "lon": -77.020037}, {"fusion_lat": 0.0, "name": "2724fd472e78e4553cf2cab289726672", "is_disabled": 0, "rental_uris": {"android": "https://dc.lft.to/lastmile_qr_scan", "ios": "https://dc.lft.to/lastmile_qr_scan"}, "fusion_lon": 0.0, "lat": 38.9155025, "bike_id": "2724fd472e78e4553cf2cab289726672", "type": "electric_scooter", "is_reserved": 0, "lon": -77.0325165}, {"fusion_lat": 0.0, "name": "a18217439aa1ae579011da7302624453", "is_disabled": 0, "rental_uris": {"android": "https://dc.lft.to/lastmile_qr_scan", "ios": "https://dc.lft.to/lastmile_qr_scan"}, "fusion_lon": 0.0, "lat": 38.9103605, "bike_id": "a18217439aa1ae579011da7302624453", "type": "electric_scooter", "is_reserved": 0, "lon": -77.03843266666667}, {"fusion_lat": 0.0, "name": "c0b103c225a39f82781b58c88c6adc21", "is_disabled": 0, "rental_uris": {"android": "https://dc.lft.to/lastmile_qr_scan", "ios": "https://dc.lft.to/lastmile_qr_scan"}, "fusion_lon": 0.0, "lat": 38.84914533333333, "bike_id": "c0b103c225a39f82781b58c88c6adc21", "type": "electric_bike", "is_reserved": 0, "lon": -77.0997805}, {"fusion_lat": 0.0, "name": "9feea902b1c16139164f8ac62e52a7a2", "is_disabled": 0, "rental_uris": {"android": "https://dc.lft.to/lastmile_qr_scan", "ios": "https://dc.lft.to/lastmile_qr_scan"}, "fusion_lon": 0.0, "lat": 38.9171065, "bike_id": "9feea902b1c16139164f8ac62e52a7a2", "type": "electric_scooter", "is_reserved": 0, "lon": -77.03169566666666}, {"fusion_lat": 0.0, "name": "84d9ae09bf5fd11f2ca5b9c8a459dc80", "is_disabled": 0, "rental_uris": {"android": "https://dc.lft.to/lastmile_qr_scan", "ios": "https://dc.lft.to/lastmile_qr_scan"}, "fusion_lon": 0.0, "lat": 38.86514183333333, "bike_id": "84d9ae09bf5fd11f2ca5b9c8a459dc80", "type": "electric_bike", "is_reserved": 0, "lon": -76.97331466666667}, {"fusion_lat": 0.0, "name": "bd9cace00bb969fe106d4a1c7773191f", "is_disabled": 0, "rental_uris": {"android": "https://dc.lft.to/lastmile_qr_scan", "ios": "https://dc.lft.to/lastmile_qr_scan"}, "fusion_lon": 0.0, "lat": 38.876791, "bike_id": "bd9cace00bb969fe106d4a1c7773191f", "type": "electric_scooter", "is_reserved": 0, "lon": -77.00766283333333}, {"fusion_lat": 0.0, "name": "df4e0efe4076ddc6ab2805f7c18b616e", "is_disabled": 0, "rental_uris": {"android": "https://dc.lft.to/lastmile_qr_scan", "ios": "https://dc.lft.to/lastmile_qr_scan"}, "fusion_lon": 0.0, "lat": 38.9035405, "bike_id": "df4e0efe4076ddc6ab2805f7c18b616e", "type": "electric_scooter", "is_reserved": 0, "lon": -77.06269983333334}, {"fusion_lat": 0.0, "name": "10a69dad0ee6ea752509886761e2d4de", "is_disabled": 0, "rental_uris": {"android": "https://dc.lft.to/lastmile_qr_scan", "ios": "https://dc.lft.to/lastmile_qr_scan"}, "fusion_lon": 0.0, "lat": 38.938802, "bike_id": "10a69dad0ee6ea752509886761e2d4de", "type": "electric_scooter", "is_reserved": 0, "lon": -77.02457416666667}, {"fusion_lat": 0.0, "name": "6e9296d37a3aeb801fc51ad1a3684b4f", "is_disabled": 0, "rental_uris": {"android": "https://dc.lft.to/lastmile_qr_scan", "ios": "https://dc.lft.to/lastmile_qr_scan"}, "fusion_lon": 0.0, "lat": 38.9156995, "bike_id": "6e9296d37a3aeb801fc51ad1a3684b4f", "type": "electric_scooter", "is_reserved": 0, "lon": -77.03165166666666}, {"fusion_lat": 0.0, "name": "d8cf51e04d6d54ea5ce20d71e3a49423", "is_disabled": 0, "rental_uris": {"android": "https://dc.lft.to/lastmile_qr_scan", "ios": "https://dc.lft.to/lastmile_qr_scan"}, "fusion_lon": 0.0, "lat": 38.893467666666666, "bike_id": "d8cf51e04d6d54ea5ce20d71e3a49423", "type": "electric_scooter", "is_reserved": 0, "lon": -76.99381966666667}, {"fusion_lat": 0.0, "name": "8875fd247cde61cfbcea586679b01de9", "is_disabled": 0, "rental_uris": {"android": "https://dc.lft.to/lastmile_qr_scan", "ios": "https://dc.lft.to/lastmile_qr_scan"}, "fusion_lon": 0.0, "lat": 38.96750483333334, "bike_id": "8875fd247cde61cfbcea586679b01de9", "type": "electric_bike", "is_reserved": 0, "lon": -77.033581}, {"fusion_lat": 0.0, "name": "eed78334da60d3c6310e3c4b34373fb1", "is_disabled": 0, "rental_uris": {"android": "https://dc.lft.to/lastmile_qr_scan", "ios": "https://dc.lft.to/lastmile_qr_scan"}, "fusion_lon": 0.0, "lat": 38.8932815, "bike_id": "eed78334da60d3c6310e3c4b34373fb1", "type": "electric_scooter", "is_reserved": 0, "lon": -76.93929383333334}, {"fusion_lat": 0.0, "name": "1c5ab7f091de423960d5786cbfb33b8f", "is_disabled": 0, "rental_uris": {"android": "https://dc.lft.to/lastmile_qr_scan", "ios": "https://dc.lft.to/lastmile_qr_scan"}, "fusion_lon": 0.0, "lat": 38.906988166666665, "bike_id": "1c5ab7f091de423960d5786cbfb33b8f", "type": "electric_scooter", "is_reserved": 0, "lon": -77.065232}, {"fusion_lat": 0.0, "name": "9be27672c2bc056763e65a6cff300121", "is_disabled": 0, "rental_uris": {"android": "https://dc.lft.to/lastmile_qr_scan", "ios": "https://dc.lft.to/lastmile_qr_scan"}, "fusion_lon": 0.0, "lat": 38.918174666666665, "bike_id": "9be27672c2bc056763e65a6cff300121", "type": "electric_scooter", "is_reserved": 0, "lon": -77.02612416666666}, {"fusion_lat": 0.0, "name": "633b57c18b9cbdf43f6d57785dcb0fef", "is_disabled": 0, "rental_uris": {"android": "https://dc.lft.to/lastmile_qr_scan", "ios": "https://dc.lft.to/lastmile_qr_scan"}, "fusion_lon": 0.0, "lat": 38.92002, "bike_id": "633b57c18b9cbdf43f6d57785dcb0fef", "type": "electric_scooter", "is_reserved": 0, "lon": -77.032804}, {"fusion_lat": 0.0, "name": "110b0a2395eda88ffd29aa97604eede0", "is_disabled": 0, "rental_uris": {"android": "https://dc.lft.to/lastmile_qr_scan", "ios": "https://dc.lft.to/lastmile_qr_scan"}, "fusion_lon": 0.0, "lat": 38.9095625, "bike_id": "110b0a2395eda88ffd29aa97604eede0", "type": "electric_scooter", "is_reserved": 0, "lon": -77.0486695}, {"fusion_lat": 0.0, "name": "91123a275ea24791f2a57fb7d9804ff9", "is_disabled": 0, "rental_uris": {"android": "https://dc.lft.to/lastmile_qr_scan", "ios": "https://dc.lft.to/lastmile_qr_scan"}, "fusion_lon": 0.0, "lat": 38.9238435, "bike_id": "91123a275ea24791f2a57fb7d9804ff9", "type": "electric_scooter", "is_reserved": 0, "lon": -77.04030666666667}, {"fusion_lat": 0.0, "name": "7d92c3a73fc141e3e6cf145140a7e471", "is_disabled": 0, "rental_uris": {"android": "https://dc.lft.to/lastmile_qr_scan", "ios": "https://dc.lft.to/lastmile_qr_scan"}, "fusion_lon": 0.0, "lat": 38.8044635, "bike_id": "7d92c3a73fc141e3e6cf145140a7e471", "type": "electric_bike", "is_reserved": 0, "lon": -77.13228383333333}, {"fusion_lat": 0.0, "name": "12fcee418c71b7d43b14e45347e7436c", "is_disabled": 0, "rental_uris": {"android": "https://dc.lft.to/lastmile_qr_scan", "ios": "https://dc.lft.to/lastmile_qr_scan"}, "fusion_lon": 0.0, "lat": 38.8873435, "bike_id": "12fcee418c71b7d43b14e45347e7436c", "type": "electric_scooter", "is_reserved": 0, "lon": -77.01748216666667}, {"fusion_lat": 0.0, "name": "8f25253478b5bd51384b0cc89a9559f2", "is_disabled": 0, "rental_uris": {"android": "https://dc.lft.to/lastmile_qr_scan", "ios": "https://dc.lft.to/lastmile_qr_scan"}, "fusion_lon": 0.0, "lat": 38.91051066666667, "bike_id": "8f25253478b5bd51384b0cc89a9559f2", "type": "electric_scooter", "is_reserved": 0, "lon": -77.021923}, {"fusion_lat": 0.0, "name": "39a3eff09c6465e54d7e190df49bd8f2", "is_disabled": 0, "rental_uris": {"android": "https://dc.lft.to/lastmile_qr_scan", "ios": "https://dc.lft.to/lastmile_qr_scan"}, "fusion_lon": 0.0, "lat": 38.88577083333333, "bike_id": "39a3eff09c6465e54d7e190df49bd8f2", "type": "electric_scooter", "is_reserved": 0, "lon": -77.012129}, {"fusion_lat": 0.0, "name": "e5c3243451b0096d7b5180194d15ddbd", "is_disabled": 0, "rental_uris": {"android": "https://dc.lft.to/lastmile_qr_scan", "ios": "https://dc.lft.to/lastmile_qr_scan"}, "fusion_lon": 0.0, "lat": 38.92119666666667, "bike_id": "e5c3243451b0096d7b5180194d15ddbd", "type": "electric_scooter", "is_reserved": 0, "lon": -77.0469675}, {"fusion_lat": 0.0, "name": "4441acb8671f7cdd888cef576b90f35e", "is_disabled": 0, "rental_uris": {"android": "https://dc.lft.to/lastmile_qr_scan", "ios": "https://dc.lft.to/lastmile_qr_scan"}, "fusion_lon": 0.0, "lat": 38.906075666666666, "bike_id": "4441acb8671f7cdd888cef576b90f35e", "type": "electric_scooter", "is_reserved": 0, "lon": -77.06478366666667}, {"fusion_lat": 0.0, "name": "11edfd65d8e06c0141591088ed4454a4", "is_disabled": 0, "rental_uris": {"android": "https://dc.lft.to/lastmile_qr_scan", "ios": "https://dc.lft.to/lastmile_qr_scan"}, "fusion_lon": 0.0, "lat": 38.92664333333333, "bike_id": "11edfd65d8e06c0141591088ed4454a4", "type": "electric_scooter", "is_reserved": 0, "lon": -77.03052}, {"fusion_lat": 0.0, "name": "0da1c73e852183062685c9a3e9431116", "is_disabled": 0, "rental_uris": {"android": "https://dc.lft.to/lastmile_qr_scan", "ios": "https://dc.lft.to/lastmile_qr_scan"}, "fusion_lon": 0.0, "lat": 38.944301833333334, "bike_id": "0da1c73e852183062685c9a3e9431116", "type": "electric_bike", "is_reserved": 0, "lon": -77.02601}, {"fusion_lat": 0.0, "name": "e29d50d18d26fb19593d8b795aa74a7d", "is_disabled": 0, "rental_uris": {"android": "https://dc.lft.to/lastmile_qr_scan", "ios": "https://dc.lft.to/lastmile_qr_scan"},