{"data": {"bikes": [{"is_disabled": 0, "rental_uris": {"android": "https://dc.lft.to/lastmile_qr_scan", "ios": "https://dc.lft.to/lastmile_qr_scan"}, "is_reserved": 0, "name": "3c869277a023e705ebc5396cce468084", "lon": -77.01849566666667, "type": "electric_scooter", "bike_id": "3c869277a023e705ebc5396cce468084", "fusion_lon": 0.0, "lat": 38.9543035, "fusion_lat": 0.0}, {"is_disabled": 0, "rental_uris": {"android": "https://dc.lft.to/lastmile_qr_scan", "ios": "https://dc.lft.to/lastmile_qr_scan"}, "is_reserved": 0, "name": "a3cd747c6050a747e11fb6fb459bc6aa", "lon": -77.02396583333334, "type": "electric_scooter", "bike_id": "a3cd747c6050a747e11fb6fb459bc6aa", "fusion_lon": 0.0, "lat": 38.92076016666667, "fusion_lat": 0.0}, {"is_disabled": 0, "rental_uris": {"android": "https://dc.lft.to/lastmile_qr_scan", "ios": "https://dc.lft.to/lastmile_qr_scan"}, "is_reserved": 0, "name": "1c3c44a230d158c18ed096a56068908d", "lon": -77.01888666666666, "type": "electric_scooter", "bike_id": "1c3c44a230d158c18ed096a56068908d", "fusion_lon": 0.0, "lat": 38.9294565, "fusion_lat": 0.0}, {"is_disabled": 0, "rental_uris": {"android": "https://dc.lft.to/lastmile_qr_scan", "ios": "https://dc.lft.to/lastmile_qr_scan"}, "is_reserved": 0, "name": "70873b2355750453a090ac1a97d47a64", "lon": -77.02370733333333, "type": "electric_scooter", "bike_id": "70873b2355750453a090ac1a97d47a64", "fusion_lon": 0.0, "lat": 38.919116833333334, "fusion_lat": 0.0}, {"is_disabled": 0, "rental_uris": {"android": "https://dc.lft.to/lastmile_qr_scan", "ios": "https://dc.lft.to/lastmile_qr_scan"}, "is_reserved": 0, "name": "4297cef5ba5e79ccea3d01302162e447", "lon": -77.02127166666666, "type": "electric_bike", "bike_id": "4297cef5ba5e79ccea3d01302162e447", "fusion_lon": 0.0, "lat": 38.93578633333333, "fusion_lat": 0.0}, {"is_disabled": 0, "rental_uris": {"android": "https://dc.lft.to/lastmile_qr_scan", "ios": "https://dc.lft.to/lastmile_qr_scan"}, "is_reserved": 0, "name": "a3bcde9471ccbf795171b3bcec3607f5", "lon": -77.00085183333333, "type": "electric_bike", "bike_id": "a3bcde9471ccbf795171b3bcec3607f5", "fusion_lon": 0.0, "lat": 38.885984, "fusion_lat": 0.0}, {"is_disabled": 0, "rental_uris": {"android": "https://dc.lft.to/lastmile_qr_scan", "ios": "https://dc.lft.to/lastmile_qr_scan"}, "is_reserved": 0, "name": "ea8b4ec8f83f19e22940b5fd9f84366d", "lon": -77.0324855, "type": "electric_scooter", "bike_id": "ea8b4ec8f83f19e22940b5fd9f84366d", "fusion_lon": 0.0, "lat": 38.921119166666664, "fusion_lat": 0.0}, {"is_disabled": 0, "rental_uris": {"android": "https://dc.lft.to/lastmile_qr_scan", "ios": "https://dc.lft.to/lastmile_qr_scan"}, "is_reserved": 0, "name": "75252268b9c39cea86df319a6e753199", "lon": -77.0432815, "type": "electric_scooter", "bike_id": "75252268b9c39cea86df319a6e753199", "fusion_lon": 0.0, "lat": 38.92335666666666, "fusion_lat": 0.0}, {"is_disabled": 0, "rental_uris": {"android": "https://dc.lft.to/lastmile_qr_scan", "ios": "https://dc.lft.to/lastmile_qr_scan"}, "is_reserved": 0, "name": "8ec83ddb8b530cc4ab2139394197d70b", "lon": -77.0122815, "type": "electric_scooter", "bike_id": "8ec83ddb8b530cc4ab2139394197d70b", "fusion_lon": 0.0, "lat": 38.907239, "fusion_lat": 0.0}, {"is_disabled": 0, "rental_uris": {"android": "https://dc.lft.to/lastmile_qr_scan", "ios": "https://dc.lft.to/lastmile_qr_scan"}, "is_reserved": 0, "name": "c844baa835c404ac84bf881c7309f08f", "lon": -77.034393, "type": "electric_scooter", "bike_id": "c844baa835c404ac84bf881c7309f08f", "fusion_lon": 0.0, "lat": 38.908862166666665, "fusion_lat": 0.0}, {"is_disabled": 0, "rental_uris": {"android": "https://dc.lft.to/lastmile_qr_scan", "ios": "https://dc.lft.to/lastmile_qr_scan"}, "is_reserved": 0, "name": "fea626c557cd8cd8ff56eff7339e5e55", "lon": -76.97916833333333, "type": "electric_scooter", "bike_id": "fea626c557cd8cd8ff56eff7339e5e55", "fusion_lon": 0.0, "lat": 38.904318333333336, "fusion_lat": 0.0}, {"is_disabled": 0, "rental_uris": {"android": "https://dc.lft.to/lastmile_qr_scan", "ios": "https://dc.lft.to/lastmile_qr_scan"}, "is_reserved": 0, "name": "e61ea7565cce168b6208172e61900e78", "lon": -77.00876966666667, "type": "electric_scooter", "bike_id": "e61ea7565cce168b6208172e61900e78", "fusion_lon": 0.0, "lat": 38.9057495, "fusion_lat": 0.0}, {"is_disabled": 0, "rental_uris": {"android": "https://dc.lft.to/lastmile_qr_scan", "ios": "https://dc.lft.to/lastmile_qr_scan"}, "is_reserved": 0, "name": "83bcfc7053efcef44ea8d0a6c657c875", "lon": -77.03903, "type": "electric_scooter", "bike_id": "83bcfc7053efcef44ea8d0a6c657c875", "fusion_lon": 0.0, "lat": 38.914255, "fusion_lat": 0.0}, {"is_disabled": 0, "rental_uris": {"android": "https://dc.lft.to/lastmile_qr_scan", "ios": "https://dc.lft.to/lastmile_qr_scan"}, "is_reserved": 0, "name": "b4d5aee80ec835878567379712155ad9", "lon": -76.98072266666667, "type": "electric_scooter", "bike_id": "b4d5aee80ec835878567379712155ad9", "fusion_lon": 0.0, "lat": 38.91935383333333, "fusion_lat": 0.0}, {"is_disabled": 0, "rental_uris": {"android": "https://dc.lft.to/lastmile_qr_scan", "ios": "https://dc.lft.to/lastmile_qr_scan"}, "is_reserved": 0, "name": "9daddc41841d709ce081d7a4662b338b", "lon": -77.00813266666667, "type": "electric_scooter", "bike_id": "9daddc41841d709ce081d7a4662b338b", "fusion_lon": 0.0, "lat": 38.88333516666667, "fusion_lat": 0.0}, {"is_disabled": 0, "rental_uris": {"android": "https://dc.lft.to/lastmile_qr_scan", "ios": "https://dc.lft.to/lastmile_qr_scan"}, "is_reserved": 0, "name": "4a79c15e314157452fba18ccf743d36a", "lon": -76.93199283333334, "type": "electric_bike", "bike_id": "4a79c15e314157452fba18ccf743d36a", "fusion_lon": 0.0, "lat": 38.8723405, "fusion_lat": 0.0}, {"is_disabled": 0, "rental_uris": {"android": "https://dc.lft.to/lastmile_qr_scan", "ios": "https://dc.lft.to/lastmile_qr_scan"}, "is_reserved": 0, "name": "682faf88d74a1c39a133ec5b1f436859", "lon": -76.9969935, "type": "electric_scooter", "bike_id": "682faf88d74a1c39a133ec5b1f436859", "fusion_lon": 0.0, "lat": 38.838673666666665, "fusion_lat": 0.0}, {"is_disabled": 0, "rental_uris": {"android": "https://dc.lft.to/lastmile_qr_scan", "ios": "https://dc.lft.to/lastmile_qr_scan"}, "is_reserved": 0, "name": "4a202355de95d06efe07bfec18ff6539", "lon": -77.00591833333333, "type": "electric_scooter", "bike_id": "4a202355de95d06efe07bfec18ff6539", "fusion_lon": 0.0, "lat": 38.92756516666667, "fusion_lat": 0.0}, {"is_disabled": 0, "rental_uris": {"android": "https://dc.lft.to/lastmile_qr_scan", "ios": "https://dc.lft.to/lastmile_qr_scan"}, "is_reserved": 0, "name": "15060f91b2f32d54bdcfdea795d9588f", "lon": -77.03270633333334, "type": "electric_scooter", "bike_id": "15060f91b2f32d54bdcfdea795d9588f", "fusion_lon": 0.0, "lat": 38.933281, "fusion_lat": 0.0}, {"is_disabled": 0, "rental_uris": {"android": "https://dc.lft.to/lastmile_qr_scan", "ios": "https://dc.lft.to/lastmile_qr_scan"}, "is_reserved": 0, "name": "a4a111569c660e1753d08afdbb7e1506", "lon": -77.01661216666666, "type": "electric_bike", "bike_id": "a4a111569c660e1753d08afdbb7e1506", "fusion_lon": 0.0, "lat": 38.9543315, "fusion_lat": 0.0}, {"is_disabled": 0, "rental_uris": {"android": "https://dc.lft.to/lastmile_qr_scan", "ios": "https://dc.lft.to/lastmile_qr_scan"}, "is_reserved": 0, "name": "5ca2ad1ac87d4a2dc780e528f9927ace", "lon": -76.98712166666667, "type": "electric_scooter", "bike_id": "5ca2ad1ac87d4a2dc780e528f9927ace", "fusion_lon": 0.0, "lat": 38.8669925, "fusion_lat": 0.0}, {"is_disabled": 0, "rental_uris": {"android": "https://dc.lft.to/lastmile_qr_scan", "ios": "https://dc.lft.to/lastmile_qr_scan"}, "is_reserved": 0, "name": "677b9f8240cd4a8ba13941c5c67ff284", "lon": -77.00606716666667, "type": "electric_scooter", "bike_id": "677b9f8240cd4a8ba13941c5c67ff284", "fusion_lon": 0.0, "lat": 38.905758666666664, "fusion_lat": 0.0}, {"is_disabled": 0, "rental_uris": {"android": "https://dc.lft.to/lastmile_qr_scan", "ios": "https://dc.lft.to/lastmile_qr_scan"}, "is_reserved": 0, "name": "0ee0a60c7f95df494a0eb6237e9d0592", "lon": -77.02695133333333, "type": "electric_scooter", "bike_id": "0ee0a60c7f95df494a0eb6237e9d0592", "fusion_lon": 0.0, "lat": 38.90737266666667, "fusion_lat": 0.0}, {"is_disabled": 0, "rental_uris": {"android": "https://dc.lft.to/lastmile_qr_scan", "ios": "https://dc.lft.to/lastmile_qr_scan"}, "is_reserved": 0, "name": "935b40b6659a5efeac405fcb36099f12", "lon": -77.00914466666667, "type": "electric_scooter", "bike_id": "935b40b6659a5efeac405fcb36099f12", "fusion_lon": 0.0, "lat": 38.897841666666665, "fusion_lat": 0.0}, {"is_disabled": 0, "rental_uris": {"android": "https://dc.lft.to/lastmile_qr_scan", "ios": "https://dc.lft.to/lastmile_qr_scan"}, "is_reserved": 0, "name": "2d1c83008468cd376bc1a75a66a5bbcc", "lon": -77.04202416666666, "type": "electric_scooter", "bike_id": "2d1c83008468cd376bc1a75a66a5bbcc", "fusion_lon": 0.0, "lat": 38.92966233333333, "fusion_lat": 0.0}, {"is_disabled": 0, "rental_uris": {"android": "https://dc.lft.to/lastmile_qr_scan", "ios": "https://dc.lft.to/lastmile_qr_scan"}, "is_reserved": 0, "name": "25ae554959cef3a5b4492f28eccaa032", "lon": -77.02260116666666, "type": "electric_scooter", "bike_id": "25ae554959cef3a5b4492f28eccaa032", "fusion_lon": 0.0, "lat": 38.927375166666664, "fusion_lat": 0.0}, {"is_disabled": 0, "rental_uris": {"android": "https://dc.lft.to/lastmile_qr_scan", "ios": "https://dc.lft.to/lastmile_qr_scan"}, "is_reserved": 0, "name": "5ab58a1005fe5df49d028458545905b0", "lon": -77.04145716666666, "type": "electric_scooter", "bike_id": "5ab58a1005fe5df49d028458545905b0", "fusion_lon": 0.0, "lat": 38.910259833333335, "fusion_lat": 0.0}, {"is_disabled": 0, "rental_uris": {"android": "https://dc.lft.to/lastmile_qr_scan", "ios": "https://dc.lft.to/lastmile_qr_scan"}, "is_reserved": 0, "name": "cec273fafcb0d30b837cba780628b1a3", "lon": -77.0525145, "type": "electric_scooter", "bike_id": "cec273fafcb0d30b837cba780628b1a3", "fusion_lon": 0.0, "lat": 38.9273535, "fusion_lat": 0.0}, {"is_disabled": 0, "rental_uris": {"android": "https://dc.lft.to/lastmile_qr_scan", "ios": "https://dc.lft.to/lastmile_qr_scan"}, "is_reserved": 0, "name": "bd187665ec8e31f49d25e148d8c8c95b", "lon": -77.05291583333333, "type": "electric_scooter", "bike_id": "bd187665ec8e31f49d25e148d8c8c95b", "fusion_lon": 0.0, "lat": 38.903407, "fusion_lat": 0.0}, {"is_disabled": 0, "rental_uris": {"android": "https://dc.lft.to/lastmile_qr_scan", "ios": "https://dc.lft.to/lastmile_qr_scan"}, "is_reserved": 0, "name": "51cf040b2ebfdb738be8e1c5eb0e3788", "lon": -76.9499655, "type": "electric_scooter", "bike_id": "51cf040b2ebfdb738be8e1c5eb0e3788", "fusion_lon": 0.0, "lat": 38.893914333333335, "fusion_lat": 0.0}, {"is_disabled": 0, "rental_uris": {"android": "https://dc.lft.to/lastmile_qr_scan", "ios": "https://dc.lft.to/lastmile_qr_scan"}, "is_reserved": 0, "name": "e7da7d95f6dff625e43d71bdeb5d4069", "lon": -77.03963316666666, "type": "electric_scooter", "bike_id": "e7da7d95f6dff625e43d71bdeb5d4069", "fusion_lon": 0.0, "lat": 38.9314855, "fusion_lat": 0.0}, {"is_disabled": 0, "rental_uris": {"android": "https://dc.lft.to/lastmile_qr_scan", "ios": "https://dc.lft.to/lastmile_qr_scan"}, "is_reserved": 0, "name": "6726aaa08de23fff9d811a7ed7542fc7", "lon": -77.0157895, "type": "electric_scooter", "bike_id": "6726aaa08de23fff9d811a7ed7542fc7", "fusion_lon": 0.0, "lat": 38.876515833333336, "fusion_lat": 0.0}, {"is_disabled": 0, "rental_uris": {"android": "https://dc.lft.to/lastmile_qr_scan", "ios": "https://dc.lft.to/lastmile_qr_scan"}, "is_reserved": 0, "name": "c860515537c9673534fa26fb6bb73ec8", "lon": -77.05971866666667, "type": "electric_scooter", "bike_id": "c860515537c9673534fa26fb6bb73ec8", "fusion_lon": 0.0, "lat": 38.90528183333333, "fusion_lat": 0.0}, {"is_disabled": 0, "rental_uris": {"android": "https://dc.lft.to/lastmile_qr_scan", "ios": "https://dc.lft.to/lastmile_qr_scan"}, "is_reserved": 0, "name": "7fedb69af1104942eb0ce7d5666b0cd5", "lon": -76.934122, "type": "electric_bike", "bike_id": "7fedb69af1104942eb0ce7d5666b0cd5", "fusion_lon": 0.0, "lat": 38.9462775, "fusion_lat": 0.0}, {"is_disabled": 0, "rental_uris": {"android": "https://dc.lft.to/lastmile_qr_scan", "ios": "https://dc.lft.to/lastmile_qr_scan"}, "is_reserved": 0, "name": "ec2ac5cf2731d8171160c505bc761e23", "lon": -77.03733283333334, "type": "electric_scooter", "bike_id": "ec2ac5cf2731d8171160c505bc761e23", "fusion_lon": 0.0, "lat": 38.909754, "fusion_lat": 0.0}, {"is_disabled": 0, "rental_uris": {"android": "https://dc.lft.to/lastmile_qr_scan", "ios": "https://dc.lft.to/lastmile_qr_scan"}, "is_reserved": 0, "name": "d7ce166428eae21324c9b8a6e3535c2f", "lon": -77.0284475, "type": "electric_scooter", "bike_id": "d7ce166428eae21324c9b8a6e3535c2f", "fusion_lon": 0.0, "lat": 38.9341645, "fusion_lat": 0.0}, {"is_disabled": 0, "rental_uris": {"android": "https://dc.lft.to/lastmile_qr_scan", "ios": "https://dc.lft.to/lastmile_qr_scan"}, "is_reserved": 0, "name": "c66985b6fe3a5cc34ab7b23181d127b0", "lon": -77.01257133333333, "type": "electric_scooter", "bike_id": "c66985b6fe3a5cc34ab7b23181d127b0", "fusion_lon": 0.0, "lat": 38.876334666666665, "fusion_lat": 0.0}, {"is_disabled": 0, "rental_uris": {"android": "https://dc.lft.to/lastmile_qr_scan", "ios": "https://dc.lft.to/lastmile_qr_scan"}, "is_reserved": 0, "name": "cc0682598b5109bdb30daefea59b367e", "lon": -77.03512066666667, "type": "electric_scooter", "bike_id": "cc0682598b5109bdb30daefea59b367e", "fusion_lon": 0.0, "lat": 38.9359305, "fusion_lat": 0.0}, {"is_disabled": 0, "rental_uris": {"android": "https://dc.lft.to/lastmile_qr_scan", "ios": "https://dc.lft.to/lastmile_qr_scan"}, "is_reserved": 0, "name": "617042734355c6239b4cdb9b7bc9c998", "lon": -77.02125133333334, "type": "electric_scooter", "bike_id": "617042734355c6239b4cdb9b7bc9c998", "fusion_lon": 0.0, "lat": 38.8874635, "fusion_lat": 0.0}, {"is_disabled": 0, "rental_uris": {"android": "https://dc.lft.to/lastmile_qr_scan", "ios": "https://dc.lft.to/lastmile_qr_scan"}, "is_reserved": 0, "name": "f6392c8a15f3e01e1ac5019154ab33a5", "lon": -77.02957333333333, "type": "electric_scooter", "bike_id": "f6392c8a15f3e01e1ac5019154ab33a5", "fusion_lon": 0.0, "lat": 38.90781233333333, "fusion_lat": 0.0}, {"is_disabled": 0, "rental_uris": {"android": "https://dc.lft.to/lastmile_qr_scan", "ios": "https://dc.lft.to/lastmile_qr_scan"}, "is_reserved": 0, "name": "014004252d98af803196255f36c28e7f", "lon": -76.9654275, "type": "electric_scooter", "bike_id": "014004252d98af803196255f36c28e7f", "fusion_lon": 0.0, "lat": 38.918946, "fusion_lat": 0.0}, {"is_disabled": 0, "rental_uris": {"android": "https://dc.lft.to/lastmile_qr_scan", "ios": "https://dc.lft.to/lastmile_qr_scan"}, "is_reserved": 0, "name": "69970ab8f95ef100e00b890418c04833", "lon": -77.0291825, "type": "electric_scooter", "bike_id": "69970ab8f95ef100e00b890418c04833", "fusion_lon": 0.0, "lat": 38.938724, "fusion_lat": 0.0}, {"is_disabled": 0, "rental_uris": {"android": "https://dc.lft.to/lastmile_qr_scan", "ios": "https://dc.lft.to/lastmile_qr_scan"}, "is_reserved": 0, "name": "b456fe86e297e069b69c13eeb17da794", "lon": -77.04547483333333, "type": "electric_scooter", "bike_id": "b456fe86e297e069b69c13eeb17da794", "fusion_lon": 0.0, "lat": 38.91940916666667, "fusion_lat": 0.0}, {"is_disabled": 0, "rental_uris": {"android": "https://dc.lft.to/lastmile_qr_scan", "ios": "https://dc.lft.to/lastmile_qr_scan"}, "is_reserved": 0, "name": "6a217c1ce14758061f6571b43d039553", "lon": -77.04348516666667, "type": "electric_scooter", "bike_id": "6a217c1ce14758061f6571b43d039553", "fusion_lon": 0.0, "lat": 38.90876166666666, "fusion_lat": 0.0}, {"is_disabled": 0, "rental_uris": {"android": "https://dc.lft.to/lastmile_qr_scan", "ios": "https://dc.lft.to/lastmile_qr_scan"}, "is_reserved": 0, "name": "b5a2f24faf0292bb69d3b8a44fe79438", "lon": -76.99950416666667, "type": "electric_scooter", "bike_id": "b5a2f24faf0292bb69d3b8a44fe79438", "fusion_lon": 0.0, "lat": 38.84289183333333, "fusion_lat": 0.0}, {"is_disabled": 0, "rental_uris": {"android": "https://dc.lft.to/lastmile_qr_scan", "ios": "https://dc.lft.to/lastmile_qr_scan"}, "is_reserved": 0, "name": "752bd250c9a9ad7aa549be5d821f4efa", "lon": -77.02397033333334, "type": "electric_scooter", "bike_id": "752bd250c9a9ad7aa549be5d821f4efa", "fusion_lon": 0.0, "lat": 38.920760666666666, "fusion_lat": 0.0}, {"is_disabled": 0, "rental_uris": {"android": "https://dc.lft.to/lastmile_qr_scan", "ios": "https://dc.lft.to/lastmile_qr_scan"}, "is_reserved": 0, "name": "458aa57dd06715fbc1f82db33b1a3259", "lon": -77.02491066666667, "type": "electric_scooter", "bike_id": "458aa57dd06715fbc1f82db33b1a3259", "fusion_lon": 0.0, "lat": 38.905697333333336, "fusion_lat": 0.0}, {"is_disabled": 0, "rental_uris": {"android": "https://dc.lft.to/lastmile_qr_scan", "ios": "https://dc.lft.to/lastmile_qr_scan"}, "is_reserved": 0, "name": "7849e335a54b7daf0ce6e318e2a7a148", "lon": -76.947811, "type": "electric_scooter", "bike_id": "7849e335a54b7daf0ce6e318e2a7a148", "fusion_lon": 0.0, "lat": 38.884603, "fusion_lat": 0.0}, {"is_disabled": 0, "rental_uris": {"android": "https://dc.lft.to/lastmile_qr_scan", "ios": "https://dc.lft.to/lastmile_qr_scan"}, "is_reserved": 0, "name": "7098ff1c835d3ac2eae4024c00ec4d3b", "lon": -76.98236216666666, "type": "electric_scooter", "bike_id": "7098ff1c835d3ac2eae4024c00ec4d3b", "fusion_lon": 0.0, "lat": 38.864728666666664, "fusion_lat": 0.0}, {"is_disabled": 0, "rental_uris": {"android": "https://dc.lft.to/lastmile_qr_scan", "ios": "https://dc.lft.to/lastmile_qr_scan"}, "is_reserved": 0, "name": "bd9c5d1fdea8ef291a980089d2d9b177", "lon": -77.00683166666667, "type": "electric_scooter", "bike_id": "bd9c5d1fdea8ef291a980089d2d9b177", "fusion_lon": 0.0, "lat": 38.899996333333334, "fusion_lat": 0.0}, {"is_disabled": 0, "rental_uris": {"android": "https://dc.lft.to/lastmile_qr_scan", "ios": "https://dc.lft.to/lastmile_qr_scan"}, "is_reserved": 0, "name": "e0e69aaaf145cfd758e786ebf891306a", "lon": -77.05939816666667, "type": "electric_scooter", "bike_id": "e0e69aaaf145cfd758e786ebf891306a", "fusion_lon": 0.0, "lat": 38.936782666666666, "fusion_lat": 0.0}, {"is_disabled": 0, "rental_uris": {"android": "https://dc.lft.to/lastmile_qr_scan", "ios": "https://dc.lft.to/lastmile_qr_scan"}, "is_reserved": 0, "name": "cb75f3be61163cdb801480c632e2bc7a", "lon": -77.0230115, "type": "electric_scooter", "bike_id": "cb75f3be61163cdb801480c632e2bc7a", "fusion_lon": 0.0, "lat": 38.91788783333333, "fusion_lat": 0.0}, {"is_disabled": 0, "rental_uris": {"android": "https://dc.lft.to/lastmile_qr_scan", "ios": "https://dc.lft.to/lastmile_qr_scan"}, "is_reserved": 0, "name": "5ce892aa7f1f9b9fc137457250107365", "lon": -76.948971, "type": "electric_scooter", "bike_id": "5ce892aa7f1f9b9fc137457250107365", "fusion_lon": 0.0, "lat": 38.895274, "fusion_lat": 0.0}, {"is_disabled": 0, "rental_uris": {"android": "https://dc.lft.to/lastmile_qr_scan", "ios": "https://dc.lft.to/lastmile_qr_scan"}, "is_reserved": 0, "name": "c609eb22da0ac0800c2a7f6c872e1989", "lon": -77.04389133333333, "type": "electric_scooter", "bike_id": "c609eb22da0ac0800c2a7f6c872e1989", "fusion_lon": 0.0, "lat": 38.9057815, "fusion_lat": 0.0}, {"is_disabled": 0, "rental_uris": {"android": "https://dc.lft.to/lastmile_qr_scan", "ios": "https://dc.lft.to/lastmile_qr_scan"}, "is_reserved": 0, "name": "856be2162f2a390d9810028a198ea9a4", "lon": -77.03657683333333, "type": "electric_scooter", "bike_id": "856be2162f2a390d9810028a198ea9a4", "fusion_lon": 0.0, "lat": 38.915915, "fusion_lat": 0.0}, {"is_disabled": 0, "rental_uris": {"android": "https://dc.lft.to/lastmile_qr_scan", "ios": "https://dc.lft.to/lastmile_qr_scan"}, "is_reserved": 0, "name": "28506da3091f3f80e752b3dde4a156fb", "lon": -77.01747183333333, "type": "electric_scooter", "bike_id": "28506da3091f3f80e752b3dde4a156fb", "fusion_lon": 0.0, "lat": 38.9143785, "fusion_lat": 0.0}, {"is_disabled": 0, "rental_uris": {"android": "https://dc.lft.to/lastmile_qr_scan", "ios": "https://dc.lft.to/lastmile_qr_scan"}, "is_reserved": 0, "name": "5997d2fe761c6d778a4e0cd8ced48b18", "lon": -76.96564983333333, "type": "electric_scooter", "bike_id": "5997d2fe761c6d778a4e0cd8ced48b18", "fusion_lon": 0.0, "lat": 38.918406833333336, "fusion_lat": 0.0}, {"is_disabled": 0, "rental_uris": {"android": "https://dc.lft.to/lastmile_qr_scan", "ios": "https://dc.lft.to/lastmile_qr_scan"}, "is_reserved": 0, "name": "add72ea8134666d4d7d06dedbe714da8", "lon": -76.99063533333333, "type": "electric_scooter", "bike_id": "add72ea8134666d4d7d06dedbe714da8", "fusion_lon": 0.0, "lat": 38.86358583333333, "fusion_lat": 0.0}, {"is_disabled": 0, "rental_uris": {"android": "https://dc.lft.to/lastmile_qr_scan", "ios": "https://dc.lft.to/lastmile_qr_scan"}, "is_reserved": 0, "name": "0da9b3fb643447119c25a4ce19650586", "lon": -77.03294683333333, "type": "electric_scooter", "bike_id": "0da9b3fb643447119c25a4ce19650586", "fusion_lon": 0.0, "lat": 38.9338555, "fusion_lat": 0.0}, {"is_disabled": 0, "rental_uris": {"android": "https://dc.lft.to/lastmile_qr_scan", "ios": "https://dc.lft.to/lastmile_qr_scan"}, "is_reserved": 0, "name": "017041a3850bca805fe97191c672573d", "lon": -77.07289033333333, "type": "electric_scooter", "bike_id": "017041a3850bca805fe97191c672573d", "fusion_lon": 0.0, "lat": 38.92283966666667, "fusion_lat": 0.0}, {"is_disabled": 0, "rental_uris": {"android": "https://dc.lft.to/lastmile_qr_scan", "ios": "https://dc.lft.to/lastmile_qr_scan"}, "is_reserved": 0, "name": "8698509c207ae99ff6abdfdf55a879fc", "lon": -77.03462083333334, "type": "electric_scooter", "bike_id": "8698509c207ae99ff6abdfdf55a879fc", "fusion_lon": 0.0, "lat": 38.91005083333334, "fusion_lat": 0.0}, {"is_disabled": 0, "rental_uris": {"android": "https://dc.lft.to/lastmile_qr_scan", "ios": "https://dc.lft.to/lastmile_qr_scan"}, "is_reserved": 0, "name": "21baf79f981415da1400b610d341fff3", "lon": -77.0146, "type": "electric_scooter", "bike_id": "21baf79f981415da1400b610d341fff3", "fusion_lon": 0.0, "lat": 38.92992433333333, "fusion_lat": 0.0}, {"is_disabled": 0, "rental_uris": {"android": "https://dc.lft.to/lastmile_qr_scan", "ios": "https://dc.lft.to/lastmile_qr_scan"}, "is_reserved": 0, "name": "30c336b8db3a6a57d977140d8ef7bc04", "lon": -77.01141033333333, "type": "electric_scooter", "bike_id": "30c336b8db3a6a57d977140d8ef7bc04", "fusion_lon": 0.0, "lat": 38.92028616666666, "fusion_lat": 0.0}, {"is_disabled": 0, "rental_uris": {"android": "https://dc.lft.to/lastmile_qr_scan", "ios": "https://dc.lft.to/lastmile_qr_scan"}, "is_reserved": 0, "name": "d613bb025f5a379b369e122d9f31a59c", "lon": -76.99555583333333, "type": "electric_scooter", "bike_id": "d613bb025f5a379b369e122d9f31a59c", "fusion_lon": 0.0, "lat": 38.88384666666666, "fusion_lat": 0.0}, {"is_disabled": 0, "rental_uris": {"android": "https://dc.lft.to/lastmile_qr_scan", "ios": "https://dc.lft.to/lastmile_qr_scan"}, "is_reserved": 0, "name": "5f5566361517ad801e1154684cb63102", "lon": -77.030534, "type": "electric_scooter", "bike_id": "5f5566361517ad801e1154684cb63102", "fusion_lon": 0.0, "lat": 38.899791, "fusion_lat": 0.0}, {"is_disabled": 0, "rental_uris": {"android": "https://dc.lft.to/lastmile_qr_scan", "ios": "https://dc.lft.to/lastmile_qr_scan"}, "is_reserved": 0, "name": "90f8132c4df8094453308a8c359b00c9", "lon": -76.9808005, "type": "electric_scooter", "bike_id": "90f8132c4df8094453308a8c359b00c9", "fusion_lon": 0.0, "lat": 38.936514, "fusion_lat": 0.0}, {"is_disabled": 0, "rental_uris": {"android": "https://dc.lft.to/lastmile_qr_scan", "ios": "https://dc.lft.to/lastmile_qr_scan"}, "is_reserved": 0, "name": "e769e899b060109ee329e98296ee7523", "lon": -77.027184, "type": "electric_scooter", "bike_id": "e769e899b060109ee329e98296ee7523", "fusion_lon": 0.0, "lat": 38.90962116666667, "fusion_lat": 0.0}, {"is_disabled": 0, "rental_uris": {"android": "https://dc.lft.to/lastmile_qr_scan", "ios": "https://dc.lft.to/lastmile_qr_scan"}, "is_reserved": 0, "name": "91751ccbe6814fdecd1575ca724680c5", "lon": -77.0200165, "type": "electric_scooter", "bike_id": "91751ccbe6814fdecd1575ca724680c5", "fusion_lon": 0.0, "lat": 38.898706, "fusion_lat": 0.0}, {"is_disabled": 0, "rental_uris": {"android": "https://dc.lft.to/lastmile_qr_scan", "ios": "https://dc.lft.to/lastmile_qr_scan"}, "is_reserved": 0, "name": "d87a0b550fcf7e6a54256cd1dad5b108", "lon": -76.94540116666667, "type": "electric_bike", "bike_id": "d87a0b550fcf7e6a54256cd1dad5b108", "fusion_lon": 0.0, "lat": 38.867562, "fusion_lat": 0.0}, {"is_disabled": 0, "rental_uris": {"android": "https://dc.lft.to/lastmile_qr_scan", "ios": "https://dc.lft.to/lastmile_qr_scan"}, "is_reserved": 0, "name": "bf79ceda330a41869029f6cc8a650f81", "lon": -77.034596, "type": "electric_scooter", "bike_id": "bf79ceda330a41869029f6cc8a650f81", "fusion_lon": 0.0, "lat": 38.921545, "fusion_lat": 0.0}, {"is_disabled": 0, "rental_uris": {"android": "https://dc.lft.to/lastmile_qr_scan", "ios": "https://dc.lft.to/lastmile_qr_scan"}, "is_reserved": 0, "name": "170ce72b0334ad18ad551cf5ad674215", "lon": -77.0437845, "type": "electric_scooter", "bike_id": "170ce72b0334ad18ad551cf5ad674215", "fusion_lon": 0.0, "lat": 38.91049966666667, "fusion_lat": 0.0}, {"is_disabled": 0, "rental_uris": {"android": "https://dc.lft.to/lastmile_qr_scan", "ios": "https://dc.lft.to/lastmile_qr_scan"}, "is_reserved": 0, "name": "30cb537ab3ae32d8e42e50c78e9816b5", "lon": -77.02963983333333, "type": "electric_scooter", "bike_id": "30cb537ab3ae32d8e42e50c78e9816b5", "fusion_lon": 0.0, "lat": 38.9043135, "fusion_lat": 0.0}, {"is_disabled": 0, "rental_uris": {"android": "https://dc.lft.to/lastmile_qr_scan", "ios": "https://dc.lft.to/lastmile_qr_scan"}, "is_reserved": 0, "name": "b28095461e821e6dfb0c188f1ecb13e0", "lon": -77.03788116666666, "type": "electric_scooter", "bike_id": "b28095461e821e6dfb0c188f1ecb13e0", "fusion_lon": 0.0, "lat": 38.930262, "fusion_lat": 0.0}, {"is_disabled": 0, "rental_uris": {"android": "https://dc.lft.to/lastmile_qr_scan", "ios": "https://dc.lft.to/lastmile_qr_scan"}, "is_reserved": 0, "name": "66be9d8fc138d3fcea1663bc895a6ada", "lon": -77.03270883333333, "type": "electric_scooter", "bike_id": "66be9d8fc138d3fcea1663bc895a6ada", "fusion_lon": 0.0, "lat": 38.9332855, "fusion_lat": 0.0}, {"is_disabled": 0, "rental_uris": {"android": "https://dc.lft.to/lastmile_qr_scan", "ios": "https://dc.lft.to/lastmile_qr_scan"}, "is_reserved": 0, "name": "1b05ca49e1c9e33d84eb80b57cdcc682", "lon": -76.94713833333333, "type": "electric_scooter", "bike_id": "1b05ca49e1c9e33d84eb80b57cdcc682", "fusion_lon": 0.0, "lat": 38.89699233333333, "fusion_lat": 0.0}, {"is_disabled": 0, "rental_uris": {"android": "https://dc.lft.to/lastmile_qr_scan", "ios": "https://dc.lft.to/lastmile_qr_scan"}, "is_reserved": 0, "name": "b7dc687d74a965fe8b4572e856e17223", "lon": -76.99191883333333, "type": "electric_scooter", "bike_id": "b7dc687d74a965fe8b4572e856e17223", "fusion_lon": 0.0, "lat": 38.889638833333336, "fusion_lat": 0.0}, {"is_disabled": 0, "rental_uris": {"android": "https://dc.lft.to/lastmile_qr_scan", "ios": "https://dc.lft.to/lastmile_qr_scan"}, "is_reserved": 0, "name": "6c8a5968a6ea5c6e132ac3e714f82389", "lon": -77.02782683333334, "type": "electric_scooter", "bike_id": "6c8a5968a6ea5c6e132ac3e714f82389", "fusion_lon": 0.0, "lat": 38.927898166666665, "fusion_lat": 0.0}, {"is_disabled": 0, "rental_uris": {"android": "https://dc.lft.to/lastmile_qr_scan", "ios": "https://dc.lft.to/lastmile_qr_scan"}, "is_reserved": 0, "name": "3ed0186d749087a284ea411949b14a8b", "lon": -77.06008733333333, "type": "electric_scooter", "bike_id": "3ed0186d749087a284ea411949b14a8b", "fusion_lon": 0.0, "lat": 38.905261333333335, "fusion_lat": 0.0}, {"is_disabled": 0, "rental_uris": {"android": "https://dc.lft.to/lastmile_qr_scan", "ios": "https://dc.lft.to/lastmile_qr_scan"}, "is_reserved": 0, "name": "6c42da2c90b077d2a4a8e15e9d830053", "lon": -77.0338475, "type": "electric_scooter", "bike_id": "6c42da2c90b077d2a4a8e15e9d830053", "fusion_lon": 0.0, "lat": 38.91913133333333, "fusion_lat": 0.0}, {"is_disabled": 0, "rental_uris": {"android": "https://dc.lft.to/lastmile_qr_scan", "ios": "https://dc.lft.to/lastmile_qr_scan"}, "is_reserved": 0, "name": "ebfb7227d97c008bdc813094c6b00b1d", "lon": -77.005641, "type": "electric_scooter", "bike_id": "ebfb7227d97c008bdc813094c6b00b1d", "fusion_lon": 0.0, "lat": 38.885052333333334, "fusion_lat": 0.0}, {"is_disabled": 0, "rental_uris": {"android": "https://dc.lft.to/lastmile_qr_scan", "ios": "https://dc.lft.to/lastmile_qr_scan"}, "is_reserved": 0, "name": "dcc64a7a1dd9a2bef4d567a71c441fbc", "lon": -77.01645083333334, "type": "electric_scooter", "bike_id": "dcc64a7a1dd9a2bef4d567a71c441fbc", "fusion_lon": 0.0, "lat": 38.876349833333336, "fusion_lat": 0.0}, {"is_disabled": 0, "rental_uris": {"android": "https://dc.lft.to/lastmile_qr_scan", "ios": "https://dc.lft.to/lastmile_qr_scan"}, "is_reserved": 0, "name": "50acfc44f5303fbbb5deaec386ea6600", "lon": -76.996506, "type": "electric_scooter", "bike_id": "50acfc44f5303fbbb5deaec386ea6600", "fusion_lon": 0.0, "lat": 38.88722116666667, "fusion_lat": 0.0}, {"is_disabled": 0, "rental_uris": {"android": "https://dc.lft.to/lastmile_qr_scan", "ios": "https://dc.lft.to/lastmile_qr_scan"}, "is_reserved": 0, "name": "b3278fcc20bc7ba20dbb1fba1248201c", "lon": -77.03420983333334, "type": "electric_scooter", "bike_id": "b3278fcc20bc7ba20dbb1fba1248201c", "fusion_lon": 0.0, "lat": 38.9118785, "fusion_lat": 0.0}, {"is_disabled": 0, "rental_uris": {"android": "https://dc.lft.to/lastmile_qr_scan", "ios": "https://dc.lft.to/lastmile_qr_scan"}, "is_reserved": 0, "name": "a539e5fafa8f372d4657036befade3c5", "lon": -77.03855233333333, "type": "electric_scooter", "bike_id": "a539e5fafa8f372d4657036befade3c5", "fusion_lon": 0.0, "lat": 38.916862, "fusion_lat": 0.0}, {"is_disabled": 0, "rental_uris": {"android": "https://dc.lft.to/lastmile_qr_scan", "ios": "https://dc.lft.to/lastmile_qr_scan"}, "is_reserved": 0, "name": "783de6576ca78a778b39e8a9232d8ad4", "lon": -77.01759033333333, "type": "electric_scooter", "bike_id": "783de6576ca78a778b39e8a9232d8ad4", "fusion_lon": 0.0, "lat": 38.90386816666667, "fusion_lat": 0.0}, {"is_disabled": 0, "rental_uris": {"android": "https://dc.lft.to/lastmile_qr_scan", "ios": "https://dc.lft.to/lastmile_qr_scan"}, "is_reserved": 0, "name": "e04e87dc64f7f603cbfc199a0d1519e4", "lon": -77.03283366666666, "type": "electric_scooter", "bike_id": "e04e87dc64f7f603cbfc199a0d1519e4", "fusion_lon": 0.0, "lat": 38.904401666666665, "fusion_lat": 0.0}, {"is_disabled": 0, "rental_uris": {"android": "https://dc.lft.to/lastmile_qr_scan", "ios": "https://dc.lft.to/lastmile_qr_scan"}, "is_reserved": 0, "name": "bc503542e7e635533cb33428db610c4b", "lon": -77.040416, "type": "electric_scooter", "bike_id": "bc503542e7e635533cb33428db610c4b", "fusion_lon": 0.0, "lat": 38.906207333333334, "fusion_lat": 0.0}, {"is_disabled": 0, "rental_uris": {"android": "https://dc.lft.to/lastmile_qr_scan", "ios": "https://dc.lft.to/lastmile_qr_scan"}, "is_reserved": 0, "name": "63f49785b083aa0247770a1c5536660d", "lon": -77.05745716666667, "type": "electric_scooter", "bike_id": "63f49785b083aa0247770a1c5536660d", "fusion_lon": 0.0, "lat": 38.9335435, "fusion_lat": 0.0}, {"is_disabled": 0, "rental_uris": {"android": "https://dc.lft.to/lastmile_qr_scan", "ios": "https://dc.lft.to/lastmile_qr_scan"}, "is_reserved": 0, "name": "ea7201b3ad12393491b38c4cb0b9cbc1", "lon": -77.05789433333334, "type": "electric_scooter", "bike_id": "ea7201b3ad12393491b38c4cb0b9cbc1", "fusion_lon": 0.0, "lat": 38.905083833333336, "fusion_lat": 0.0}, {"is_disabled": 0, "rental_uris": {"android": "https://dc.lft.to/lastmile_qr_scan", "ios": "https://dc.lft.to/lastmile_qr_scan"}, "is_reserved": 0, "name": "d911481c349d2e603a2c4a64c95c98b2", "lon": -77.0317575, "type": "electric_scooter", "bike_id": "d911481c349d2e603a2c4a64c95c98b2", "fusion_lon": 0.0, "lat": 38.914177333333335, "fusion_lat": 0.0}, {"is_disabled": 0, "rental_uris": {"android": "https://dc.lft.to/lastmile_qr_scan", "ios": "https://dc.lft.to/lastmile_qr_scan"}, "is_reserved": 0, "name": "7dab7110b599d9400ac3a988a49f62a8", "lon": -77.03859016666667, "type": "electric_scooter", "bike_id": "7dab7110b599d9400ac3a988a49f62a8", "fusion_lon": 0.0, "lat": 38.90123283333333, "fusion_lat": 0.0}, {"is_disabled": 0, "rental_uris": {"android": "https://dc.lft.to/lastmile_qr_scan", "ios": "https://dc.lft.to/lastmile_qr_scan"}, "is_reserved": 0, "name": "208e221870def923a592d44a195fb8ec", "lon": -77.0153085, "type": "electric_scooter", "bike_id": "208e221870def923a592d44a195fb8ec", "fusion_lon": 0.0, "lat": 38.884831166666665, "fusion_lat": 0.0}, {"is_disabled": 0, "rental_uris": {"android": "https://dc.lft.to/lastmile_qr_scan", "ios": "https://dc.lft.to/lastmile_qr_scan"}, "is_reserved": 0, "name": "ec57bbe48ecb680f1a72990fc2202d07", "lon": -77.02386933333334, "type": "electric_scooter", "bike_id": "ec57bbe48ecb680f1a72990fc2202d07", "fusion_lon": 0.0, "lat": 38.90870116666667, "fusion_lat": 0.0}, {"is_disabled": 0, "rental_uris": {"android": "https://dc.lft.to/lastmile_qr_scan", "ios": "https://dc.lft.to/lastmile_qr_scan"}, "is_reserved": 0, "name": "3cf16993c11cd6d1f2a253b7b1e7e123", "lon": -77.042397, "type": "electric_scooter", "bike_id": "3cf16993c11cd6d1f2a253b7b1e7e123", "fusion_lon": 0.0, "lat": 38.91931916666667, "fusion_lat": 0.0}, {"is_disabled": 0, "rental_uris": {"android": "https://dc.lft.to/lastmile_qr_scan", "ios": "https://dc.lft.to/lastmile_qr_scan"}, "is_reserved": 0, "name": "ab2932d22aa1975d1972232746482f8a", "lon": -77.018852, "type": "electric_scooter", "bike_id": "ab2932d22aa1975d1972232746482f8a", "fusion_lon": 0.0, "lat": 38.900574666666664, "fusion_lat": 0.0}, {"is_disabled": 0, "rental_uris": {"android": "https://dc.lft.to/lastmile_qr_scan", "ios": "https://dc.lft.to/lastmile_qr_scan"}, "is_reserved": 0, "name": "e16466f9596c96fe7c4412f4e723911d", "lon": -77.031926, "type": "electric_scooter", "bike_id": "e16466f9596c96fe7c4412f4e723911d", "fusion_lon": 0.0, "lat": 38.916694, "fusion_lat": 0.0}, {"is_disabled": 0, "rental_uris": {"android": "https://dc.lft.to/lastmile_qr_scan", "ios": "https://dc.lft.to/lastmile_qr_scan"}, "is_reserved": 0, "name": "f4df4e124841cb4f056e90b94ab1102e", "lon": -77.04178566666667, "type": "electric_scooter", "bike_id": "f4df4e124841cb4f056e90b94ab1102e", "fusion_lon": 0.0, "lat": 38.913640666666666, "fusion_lat": 0.0}, {"is_disabled": 0, "rental_uris": {"android": "https://dc.lft.to/lastmile_qr_scan", "ios": "https://dc.lft.to/lastmile_qr_scan"}, "is_reserved": 0, "name": "6114171c41c825872ca875d93bb2e612", "lon": -77.03815183333333, "type": "electric_scooter", "bike_id": "6114171c41c825872ca875d93bb2e612", "fusion_lon": 0.0, "lat": 38.91562616666667, "fusion_lat": 0.0}, {"is_disabled": 0, "rental_uris": {"android": "https://dc.lft.to/lastmile_qr_scan", "ios": "https://dc.lft.to/lastmile_qr_scan"}, "is_reserved": 0, "name": "07a7dcd0ee967e1ba111c860d4b64f0f", "lon": -77.00198933333333, "type": "electric_scooter", "bike_id": "07a7dcd0ee967e1ba111c860d4b64f0f", "fusion_lon": 0.0, "lat": 38.902359833333335, "fusion_lat": 0.0}, {"is_disabled": 0, "rental_uris": {"android": "https://dc.lft.to/lastmile_qr_scan", "ios": "https://dc.lft.to/lastmile_qr_scan"}, "is_reserved": 0, "name": "5aa3fa5ef2cd87053c3653feded6401d", "lon": -77.0278725, "type": "electric_scooter", "bike_id": "5aa3fa5ef2cd87053c3653feded6401d", "fusion_lon": 0.0, "lat": 38.961320666666666, "fusion_lat": 0.0}, {"is_disabled": 0, "rental_uris": {"android": "https://dc.lft.to/lastmile_qr_scan", "ios": "https://dc.lft.to/lastmile_qr_scan"}, "is_reserved": 0, "name": "c7bab30dd6b74b7e73194fe4d7ade8db", "lon": -77.01221766666667, "type": "electric_scooter", "bike_id": "c7bab30dd6b74b7e73194fe4d7ade8db", "fusion_lon": 0.0, "lat": 38.914974666666666, "fusion_lat": 0.0}, {"is_disabled": 0, "rental_uris": {"android": "https://dc.lft.to/lastmile_qr_scan", "ios": "https://dc.lft.to/lastmile_qr_scan"}, "is_reserved": 0, "name": "52d12616fd6297e17ab0b7ad134f446b", "lon": -77.0418465, "type": "electric_scooter", "bike_id": "52d12616fd6297e17ab0b7ad134f446b", "fusion_lon": 0.0, "lat": 38.9155375, "fusion_lat": 0.0}, {"is_disabled": 0, "rental_uris": {"android": "https://dc.lft.to/lastmile_qr_scan", "ios": "https://dc.lft.to/lastmile_qr_scan"}, "is_reserved": 0, "name": "8df0f83a1c831370c4a052ecc2a38f1f", "lon": -77.06767633333334, "type": "electric_scooter", "bike_id": "8df0f83a1c831370c4a052ecc2a38f1f", "fusion_lon": 0.0, "lat": 38.90514683333333, "fusion_lat": 0.0}, {"is_disabled": 0, "rental_uris": {"android": "https://dc.lft.to/lastmile_qr_scan", "ios": "https://dc.lft.to/lastmile_qr_scan"}, "is_reserved": 0, "name": "c1160461af8637a98d4f164c7711ef05", "lon": -77.03288583333334, "type": "electric_scooter", "bike_id": "c1160461af8637a98d4f164c7711ef05", "fusion_lon": 0.0, "lat": 38.90840683333333, "fusion_lat": 0.0}, {"is_disabled": 0, "rental_uris": {"android": "https://dc.lft.to/lastmile_qr_scan", "ios": "https://dc.lft.to/lastmile_qr_scan"}, "is_reserved": 0, "name": "beaec5534fff5dd788413d30d968457d", "lon": -77.03263383333334, "type": "electric_scooter", "bike_id": "beaec5534fff5dd788413d30d968457d", "fusion_lon": 0.0, "lat": 38.9326515, "fusion_lat": 0.0}, {"is_disabled": 0, "rental_uris": {"android": "https://dc.lft.to/lastmile_qr_scan", "ios": "https://dc.lft.to/lastmile_qr_scan"}, "is_reserved": 0, "name": "50ecde7fe28ff31f0ca68ff5a7308592", "lon": -77.02858033333334, "type": "electric_scooter", "bike_id": "50ecde7fe28ff31f0ca68ff5a7308592", "fusion_lon": 0.0, "lat": 38.90268716666667, "fusion_lat": 0.0}, {"is_disabled": 0, "rental_uris": {"android": "https://dc.lft.to/lastmile_qr_scan", "ios": "https://dc.lft.to/lastmile_qr_scan"}, "is_reserved": 0, "name": "cdde3d568d0d9611a02b3e4f6e88880e", "lon": -77.0319495, "type": "electric_scooter", "bike_id": "cdde3d568d0d9611a02b3e4f6e88880e", "fusion_lon": 0.0, "lat": 38.930685833333335, "fusion_lat": 0.0}, {"is_disabled": 0, "rental_uris": {"android": "https://dc.lft.to/lastmile_qr_scan", "ios": "https://dc.lft.to/lastmile_qr_scan"}, "is_reserved": 0, "name": "5c5e175c2b0bbff2968a5c4b51deec44", "lon": -77.022239, "type": "electric_scooter", "bike_id": "5c5e175c2b0bbff2968a5c4b51deec44", "fusion_lon": 0.0, "lat": 38.91415583333333, "fusion_lat": 0.0}, {"is_disabled": 0, "rental_uris": {"android": "https://dc.lft.to/lastmile_qr_scan", "ios": "https://dc.lft.to/lastmile_qr_scan"}, "is_reserved": 0, "name": "dbe763eff0c36c235c1227fe33e91063", "lon": -77.00696716666667, "type": "electric_scooter", "bike_id": "dbe763eff0c36c235c1227fe33e91063", "fusion_lon": 0.0, "lat": 38.90566066666667, "fusion_lat": 0.0}, {"is_disabled": 0, "rental_uris": {"android": "https://dc.lft.to/lastmile_qr_scan", "ios": "https://dc.lft.to/lastmile_qr_scan"}, "is_reserved": 0, "name": "197c1fc33f809b5cbeeae54da358b8aa", "lon": -77.04460716666667, "type": "electric_scooter", "bike_id": "197c1fc33f809b5cbeeae54da358b8aa", "fusion_lon": 0.0, "lat": 38.914088666666665, "fusion_lat": 0.0}, {"is_disabled": 0, "rental_uris": {"android": "https://dc.lft.to/lastmile_qr_scan", "ios": "https://dc.lft.to/lastmile_qr_scan"}, "is_reserved": 0, "name": "f26c37f15e9026dd9281192b774cb682", "lon": -76.99903666666667, "type": "electric_scooter", "bike_id": "f26c37f15e9026dd9281192b774cb682", "fusion_lon": 0.0, "lat": 38.92454766666667, "fusion_lat": 0.0}, {"is_disabled": 0, "rental_uris": {"android": "https://dc.lft.to/lastmile_qr_scan", "ios": "https://dc.lft.to/lastmile_qr_scan"}, "is_reserved": 0, "name": "0a5cae6674f3f7bceb74070ab1b7ca58", "lon": -77.01985333333333, "type": "electric_scooter", "bike_id": "0a5cae6674f3f7bceb74070ab1b7ca58", "fusion_lon": 0.0, "lat": 38.895104833333335, "fusion_lat": 0.0}, {"is_disabled": 0, "rental_uris": {"android": "https://dc.lft.to/lastmile_qr_scan", "ios": "https://dc.lft.to/lastmile_qr_scan"}, "is_reserved": 0, "name": "4ece8952fd25e1334443d24e84e713de", "lon": -77.038153, "type": "electric_scooter", "bike_id": "4ece8952fd25e1334443d24e84e713de", "fusion_lon": 0.0, "lat": 38.909776666666666, "fusion_lat": 0.0}, {"is_disabled": 0, "rental_uris": {"android": "https://dc.lft.to/lastmile_qr_scan", "ios": "https://dc.lft.to/lastmile_qr_scan"}, "is_reserved": 0, "name": "5d7528663c33a3390e4cb89069973f90", "lon": -76.9488735, "type": "electric_scooter", "bike_id": "5d7528663c33a3390e4cb89069973f90", "fusion_lon": 0.0, "lat": 38.895088666666666, "fusion_lat": 0.0}, {"is_disabled": 0, "rental_uris": {"android": "https://dc.lft.to/lastmile_qr_scan", "ios": "https://dc.lft.to/lastmile_qr_scan"}, "is_reserved": 0, "name": "436b5e9edced0958b7ed1c5dbe5be796", "lon": -77.03664583333334, "type": "electric_scooter", "bike_id": "436b5e9edced0958b7ed1c5dbe5be796", "fusion_lon": 0.0, "lat": 38.92258533333333, "fusion_lat": 0.0}, {"is_disabled": 0, "rental_uris": {"android": "https://dc.lft.to/lastmile_qr_scan", "ios": "https://dc.lft.to/lastmile_qr_scan"}, "is_reserved": 0, "name": "7e1dc6df53a75a7300a3333d181ccdda", "lon": -77.07906833333334, "type": "electric_bike", "bike_id": "7e1dc6df53a75a7300a3333d181ccdda", "fusion_lon": 0.0, "lat": 38.839318666666664, "fusion_lat": 0.0}, {"is_disabled": 0, "rental_uris": {"android": "https://dc.lft.to/lastmile_qr_scan", "ios": "https://dc.lft.to/lastmile_qr_scan"}, "is_reserved": 0, "name": "c0a8c943c958ed9fff1314be754c4d01", "lon": -77.07078266666667, "type": "electric_scooter", "bike_id": "c0a8c943c958ed9fff1314be754c4d01", "fusion_lon": 0.0, "lat": 38.919403833333334, "fusion_lat": 0.0}, {"is_disabled": 0, "rental_uris": {"android": "https://dc.lft.to/lastmile_qr_scan", "ios": "https://dc.lft.to/lastmile_qr_scan"}, "is_reserved": 0, "name": "b1f6c96efde8ceaf499059c06231fdfb", "lon": -77.03470333333334, "type": "electric_scooter", "bike_id": "b1f6c96efde8ceaf499059c06231fdfb", "fusion_lon": 0.0, "lat": 38.92150783333334, "fusion_lat": 0.0}, {"is_disabled": 0, "rental_uris": {"android": "https://dc.lft.to/lastmile_qr_scan", "ios": "https://dc.lft.to/lastmile_qr_scan"}, "is_reserved": 0, "name": "d5a68960f69330baac6ab572804effd7", "lon": -77.0434455, "type": "electric_scooter", "bike_id": "d5a68960f69330baac6ab572804effd7", "fusion_lon": 0.0, "lat": 38.89844133333333, "fusion_lat": 0.0}, {"is_disabled": 0, "rental_uris": {"android": "https://dc.lft.to/lastmile_qr_scan", "ios": "https://dc.lft.to/lastmile_qr_scan"}, "is_reserved": 0, "name": "1b9fc4321144a9256e176b848acfc761", "lon": -77.05133283333333, "type": "electric_scooter", "bike_id": "1b9fc4321144a9256e176b848acfc761", "fusion_lon": 0.0, "lat": 38.906006, "fusion_lat": 0.0}, {"is_disabled": 0, "rental_uris": {"android": "https://dc.lft.to/lastmile_qr_scan", "ios": "https://dc.lft.to/lastmile_qr_scan"}, "is_reserved": 0, "name": "2d94716febf92d0d505c6ec67f1a0560", "lon": -76.95207833333333, "type": "electric_scooter", "bike_id": "2d94716febf92d0d505c6ec67f1a0560", "fusion_lon": 0.0, "lat": 38.892501333333335, "fusion_lat": 0.0}, {"is_disabled": 0, "rental_uris": {"android": "https://dc.lft.to/lastmile_qr_scan", "ios": "https://dc.lft.to/lastmile_qr_scan"}, "is_reserved": 0, "name": "a8928f6da28fce67358fad0376d97928", "lon": -77.04671083333334, "type": "electric_scooter", "bike_id": "a8928f6da28fce67358fad0376d97928", "fusion_lon": 0.0, "lat": 38.905003, "fusion_lat": 0.0}, {"is_disabled": 0, "rental_uris": {"android": "https://dc.lft.to/lastmile_qr_scan", "ios": "https://dc.lft.to/lastmile_qr_scan"}, "is_reserved": 0, "name": "4a495d9b6a8c5503f601d82c1dfee4bf", "lon": -76.98363166666667, "type": "electric_scooter", "bike_id": "4a495d9b6a8c5503f601d82c1dfee4bf", "fusion_lon": 0.0, "lat": 38.91498416666667, "fusion_lat": 0.0}, {"is_disabled": 0, "rental_uris": {"android": "https://dc.lft.to/lastmile_qr_scan", "ios": "https://dc.lft.to/lastmile_qr_scan"}, "is_reserved": 0, "name": "e6043c5bd1d228dad3b486f0dc48237e", "lon": -77.04457733333334, "type": "electric_scooter", "bike_id": "e6043c5bd1d228dad3b486f0dc48237e", "fusion_lon": 0.0, "lat": 38.91876833333333, "fusion_lat": 0.0}, {"is_disabled": 0, "rental_uris": {"android": "https://dc.lft.to/lastmile_qr_scan", "ios": "https://dc.lft.to/lastmile_qr_scan"}, "is_reserved": 0, "name": "55c77ca92eebbbe5870cbca81caf0041", "lon": -76.99899766666667, "type": "electric_scooter", "bike_id": "55c77ca92eebbbe5870cbca81caf0041", "fusion_lon": 0.0, "lat": 38.9002595, "fusion_lat": 0.0}, {"is_disabled": 0, "rental_uris": {"android": "https://dc.lft.to/lastmile_qr_scan", "ios": "https://dc.lft.to/lastmile_qr_scan"}, "is_reserved": 0, "name": "8907f9adad0f472b5c520c5e016174a3", "lon": -77.040129, "type": "electric_scooter", "bike_id": "8907f9adad0f472b5c520c5e016174a3", "fusion_lon": 0.0, "lat": 38.92086166666667, "fusion_lat": 0.0}, {"is_disabled": 0, "rental_uris": {"android": "https://dc.lft.to/lastmile_qr_scan", "ios": "https://dc.lft.to/lastmile_qr_scan"}, "is_reserved": 0, "name": "7c0d7b77cbce4935ae918d54491a0218", "lon": -77.00326833333334, "type": "electric_scooter", "bike_id": "7c0d7b77cbce4935ae918d54491a0218", "fusion_lon": 0.0, "lat": 38.90463583333333, "fusion_lat": 0.0}, {"is_disabled": 0, "rental_uris": {"android": "https://dc.lft.to/lastmile_qr_scan", "ios": "https://dc.lft.to/lastmile_qr_scan"}, "is_reserved": 0, "name": "4a7bfc943a7fbca60418e1872a7150f6", "lon": -77.09439183333333, "type": "electric_scooter", "bike_id": "4a7bfc943a7fbca60418e1872a7150f6", "fusion_lon": 0.0, "lat": 38.91794183333333, "fusion_lat": 0.0}, {"is_disabled": 0, "rental_uris": {"android": "https://dc.lft.to/lastmile_qr_scan", "ios": "https://dc.lft.to/lastmile_qr_scan"}, "is_reserved": 0, "name": "5afbba19a45cd93f4d67e95db11ef40d", "lon": -76.98833283333333, "type": "electric_scooter", "bike_id": "5afbba19a45cd93f4d67e95db11ef40d", "fusion_lon": 0.0, "lat": 38.898528, "fusion_lat": 0.0}, {"is_disabled": 0, "rental_uris": {"android": "https://dc.lft.to/lastmile_qr_scan", "ios": "https://dc.lft.to/lastmile_qr_scan"}, "is_reserved": 0, "name": "0d5621b6d819db7342de278032154c24", "lon": -77.0414955, "type": "electric_scooter", "bike_id": "0d5621b6d819db7342de278032154c24", "fusion_lon": 0.0, "lat": 38.923336166666665, "fusion_lat": 0.0}, {"is_disabled": 0, "rental_uris": {"android": "https://dc.lft.to/lastmile_qr_scan", "ios": "https://dc.lft.to/lastmile_qr_scan"}, "is_reserved": 0, "name": "daa09e17368c423b029bc3c07ac0f52e", "lon": -77.0153845, "type": "electric_scooter", "bike_id": "daa09e17368c423b029bc3c07ac0f52e", "fusion_lon": 0.0, "lat": 38.895407166666665, "fusion_lat": 0.0}, {"is_disabled": 0, "rental_uris": {"android": "https://dc.lft.to/lastmile_qr_scan", "ios": "https://dc.lft.to/lastmile_qr_scan"}, "is_reserved": 0, "name": "1cf09bf3dd6c9d06a53aca318e174750", "lon": -77.02829483333333, "type": "electric_scooter", "bike_id": "1cf09bf3dd6c9d06a53aca318e174750", "fusion_lon": 0.0, "lat": 38.92974866666667, "fusion_lat": 0.0}, {"is_disabled": 0, "rental_uris": {"android": "https://dc.lft.to/lastmile_qr_scan", "ios": "https://dc.lft.to/lastmile_qr_scan"}, "is_reserved": 0, "name": "8be14c21e8c1a5e7b8e690e3f4a2a454", "lon": -77.04325666666666, "type": "electric_scooter", "bike_id": "8be14c21e8c1a5e7b8e690e3f4a2a454", "fusion_lon": 0.0, "lat": 38.92332783333333, "fusion_lat": 0.0}, {"is_disabled": 0, "rental_uris": {"android": "https://dc.lft.to/lastmile_qr_scan", "ios": "https://dc.lft.to/lastmile_qr_scan"}, "is_reserved": 0, "name": "777acabf4822d43fe44ff56770cb40a0", "lon": -76.983009, "type": "electric_scooter", "bike_id": "777acabf4822d43fe44ff56770cb40a0", "fusion_lon": 0.0, "lat": 38.903686, "fusion_lat": 0.0}, {"is_disabled": 0, "rental_uris": {"android": "https://dc.lft.to/lastmile_qr_scan", "ios": "https://dc.lft.to/lastmile_qr_scan"}, "is_reserved": 0, "name": "9de002849fdcd1a7969bb28a11b33d53", "lon": -77.010168, "type": "electric_scooter", "bike_id": "9de002849fdcd1a7969bb28a11b33d53", "fusion_lon": 0.0, "lat": 38.918138666666664, "fusion_lat": 0.0}, {"is_disabled": 0, "rental_uris": {"android": "https://dc.lft.to/lastmile_qr_scan", "ios": "https://dc.lft.to/lastmile_qr_scan"}, "is_reserved": 0, "name": "75f5d8f02263107b0e786b85a3b80ce9", "lon": -77.0242135, "type": "electric_scooter", "bike_id": "75f5d8f02263107b0e786b85a3b80ce9", "fusion_lon": 0.0, "lat": 38.89360583333333, "fusion_lat": 0.0}, {"is_disabled": 0, "rental_uris": {"android": "https://dc.lft.to/lastmile_qr_scan", "ios": "https://dc.lft.to/lastmile_qr_scan"}, "is_reserved": 0, "name": "1364aa86d5bc5f2d2eed404d300c0d7e", "lon": -76.9494295, "type": "electric_scooter", "bike_id": "1364aa86d5bc5f2d2eed404d300c0d7e", "fusion_lon": 0.0, "lat": 38.88324816666667, "fusion_lat": 0.0}, {"is_disabled": 0, "rental_uris": {"android": "https://dc.lft.to/lastmile_qr_scan", "ios": "https://dc.lft.to/lastmile_qr_scan"}, "is_reserved": 0, "name": "caae167830a9c574826ebe4ea0d6804b", "lon": -77.03179733333333, "type": "electric_scooter", "bike_id": "caae167830a9c574826ebe4ea0d6804b", "fusion_lon": 0.0, "lat": 38.91927533333333, "fusion_lat": 0.0}, {"is_disabled": 0, "rental_uris": {"android": "https://dc.lft.to/lastmile_qr_scan", "ios": "https://dc.lft.to/lastmile_qr_scan"}, "is_reserved": 0, "name": "0e609a9b562ed64cf0104932eabe2afe", "lon": -77.01965083333333, "type": "electric_bike", "bike_id": "0e609a9b562ed64cf0104932eabe2afe", "fusion_lon": 0.0, "lat": 38.929900333333336, "fusion_lat": 0.0}, {"is_disabled": 0, "rental_uris": {"android": "https://dc.lft.to/lastmile_qr_scan", "ios": "https://dc.lft.to/lastmile_qr_scan"}, "is_reserved": 0, "name": "14c1f7494aa2e149a7286dfebde3d086", "lon": -77.11182283333333, "type": "electric_bike", "bike_id": "14c1f7494aa2e149a7286dfebde3d086", "fusion_lon": 0.0, "lat": 38.85646583333333, "fusion_lat": 0.0}, {"is_disabled": 0, "rental_uris": {"android": "https://dc.lft.to/lastmile_qr_scan", "ios": "https://dc.lft.to/lastmile_qr_scan"}, "is_reserved": 0, "name": "0186e81cb12603d0a117c7c15ccc8c49", "lon": -77.01754633333333, "type": "electric_scooter", "bike_id": "0186e81cb12603d0a117c7c15ccc8c49", "fusion_lon": 0.0, "lat": 38.9135355, "fusion_lat": 0.0}, {"is_disabled": 0, "rental_uris": {"android": "https://dc.lft.to/lastmile_qr_scan", "ios": "https://dc.lft.to/lastmile_qr_scan"}, "is_reserved": 0, "name": "aeccb571deb76e412049f8995073bae1", "lon": -76.99168183333333, "type": "electric_bike", "bike_id": "aeccb571deb76e412049f8995073bae1", "fusion_lon": 0.0, "lat": 38.97254, "fusion_lat": 0.0}, {"is_disabled": 0, "rental_uris": {"android": "https://dc.lft.to/lastmile_qr_scan", "ios": "https://dc.lft.to/lastmile_qr_scan"}, "is_reserved": 0, "name": "73e5aed1c5ec9937e47e024908238692", "lon": -77.00118016666667, "type": "electric_scooter", "bike_id": "73e5aed1c5ec9937e47e024908238692", "fusion_lon": 0.0, "lat": 38.91249166666667, "fusion_lat": 0.0}, {"is_disabled": 0, "rental_uris": {"android": "https://dc.lft.to/lastmile_qr_scan", "ios": "https://dc.lft.to/lastmile_qr_scan"}, "is_reserved": 0, "name": "a2b82b0a0efbbb54c48956bfe81246e0", "lon": -77.01615083333333, "type": "electric_scooter", "bike_id": "a2b82b0a0efbbb54c48956bfe81246e0", "fusion_lon": 0.0, "lat": 38.898508, "fusion_lat": 0.0}, {"is_disabled": 0, "rental_uris": {"android": "https://dc.lft.to/lastmile_qr_scan", "ios": "https://dc.lft.to/lastmile_qr_scan"}, "is_reserved": 0, "name": "b8db0205629f83629a9e2d870ee543da", "lon": -76.994835, "type": "electric_scooter", "bike_id": "b8db0205629f83629a9e2d870ee543da", "fusion_lon": 0.0, "lat": 38.93225266666666, "fusion_lat": 0.0}, {"is_disabled": 0, "rental_uris": {"android": "https://dc.lft.to/lastmile_qr_scan", "ios": "https://dc.lft.to/lastmile_qr_scan"}, "is_reserved": 0, "name": "3f2b227d5f72e42cd4f550e730bc85ba", "lon": -77.02802333333334, "type": "electric_scooter", "bike_id": "3f2b227d5f72e42cd4f550e730bc85ba", "fusion_lon": 0.0, "lat": 38.917700833333335, "fusion_lat": 0.0}, {"is_disabled": 0, "rental_uris": {"android": "https://dc.lft.to/lastmile_qr_scan", "ios": "https://dc.lft.to/lastmile_qr_scan"}, "is_reserved": 0, "name": "8408991866b9a8de0e9241b64b6838d5", "lon": -77.01010783333334, "type": "electric_scooter", "bike_id": "8408991866b9a8de0e9241b64b6838d5", "fusion_lon": 0.0, "lat": 38.879674333333334, "fusion_lat": 0.0}, {"is_disabled": 0, "rental_uris": {"android": "https://dc.lft.to/lastmile_qr_scan", "ios": "https://dc.lft.to/lastmile_qr_scan"}, "is_reserved": 0, "name": "4746eadf795755aae3bd3a73465c6391", "lon": -77.00894966666667, "type": "electric_scooter", "bike_id": "4746eadf795755aae3bd3a73465c6391", "fusion_lon": 0.0, "lat": 38.89546033333333, "fusion_lat": 0.0}, {"is_disabled": 0, "rental_uris": {"android": "https://dc.lft.to/lastmile_qr_scan", "ios": "https://dc.lft.to/lastmile_qr_scan"}, "is_reserved": 0, "name": "bc6aa47a0ad7fc614677f1cb225ae727", "lon": -77.033983, "type": "electric_scooter", "bike_id": "bc6aa47a0ad7fc614677f1cb225ae727", "fusion_lon": 0.0, "lat": 38.919667833333335, "fusion_lat": 0.0}, {"is_disabled": 0, "rental_uris": {"android": "https://dc.lft.to/lastmile_qr_scan", "ios": "https://dc.lft.to/lastmile_qr_scan"}, "is_reserved": 0, "name": "ec0fdab275e3782817e8049b653225bc", "lon": -77.06169083333333, "type": "electric_bike", "bike_id": "ec0fdab275e3782817e8049b653225bc", "fusion_lon": 0.0, "lat": 38.81269966666667, "fusion_lat": 0.0}, {"is_disabled": 0, "rental_uris": {"android": "https://dc.lft.to/lastmile_qr_scan", "ios": "https://dc.lft.to/lastmile_qr_scan"}, "is_reserved": 0, "name": "0db7afc5e092a48e275be4e750ce59e8", "lon": -77.06092166666667, "type": "electric_scooter", "bike_id": "0db7afc5e092a48e275be4e750ce59e8", "fusion_lon": 0.0, "lat": 38.943704, "fusion_lat": 0.0}, {"is_disabled": 0, "rental_uris": {"android": "https://dc.lft.to/lastmile_qr_scan", "ios": "https://dc.lft.to/lastmile_qr_scan"}, "is_reserved": 0, "name": "301391a70b2e9cef21c6024e1cdd6c4a", "lon": -77.0466735, "type": "electric_scooter", "bike_id": "301391a70b2e9cef21c6024e1cdd6c4a", "fusion_lon": 0.0, "lat": 38.907409666666666, "fusion_lat": 0.0}, {"is_disabled": 0, "rental_uris": {"android": "https://dc.lft.to/lastmile_qr_scan", "ios": "https://dc.lft.to/lastmile_qr_scan"}, "is_reserved": 0, "name": "03a0fa8daf03a5538c3c3c64036e8de3", "lon": -77.02404566666667, "type": "electric_scooter", "bike_id": "03a0fa8daf03a5538c3c3c64036e8de3", "fusion_lon": 0.0, "lat": 38.916828333333335, "fusion_lat": 0.0}, {"is_disabled": 0, "rental_uris": {"android": "https://dc.lft.to/lastmile_qr_scan", "ios": "https://dc.lft.to/lastmile_qr_scan"}, "is_reserved": 0, "name": "e68fcd27aac0fa2363745a49a079c024", "lon": -77.07903, "type": "electric_bike", "bike_id": "e68fcd27aac0fa2363745a49a079c024", "fusion_lon": 0.0, "lat": 38.83932166666666, "fusion_lat": 0.0}, {"is_disabled": 0, "rental_uris": {"android": "https://dc.lft.to/lastmile_qr_scan", "ios": "https://dc.lft.to/lastmile_qr_scan"}, "is_reserved": 0, "name": "7dd9703969083bb6ef5da3d2a039f320", "lon": -77.03487133333333, "type": "electric_scooter", "bike_id": "7dd9703969083bb6ef5da3d2a039f320", "fusion_lon": 0.0, "lat": 38.92479983333333, "fusion_lat": 0.0}, {"is_disabled": 0, "rental_uris": {"android": "https://dc.lft.to/lastmile_qr_scan", "ios": "https://dc.lft.to/lastmile_qr_scan"}, "is_reserved": 0, "name": "e723117edd8c1cd9a3c08cf55740be33", "lon": -77.0284325, "type": "electric_scooter", "bike_id": "e723117edd8c1cd9a3c08cf55740be33", "fusion_lon": 0.0, "lat": 38.90156183333333, "fusion_lat": 0.0}, {"is_disabled": 0, "rental_uris": {"android": "https://dc.lft.to/lastmile_qr_scan", "ios": "https://dc.lft.to/lastmile_qr_scan"}, "is_reserved": 0, "name": "38fa16649c4836054996fe776966f407", "lon": -76.9964825, "type": "electric_scooter", "bike_id": "38fa16649c4836054996fe776966f407", "fusion_lon": 0.0, "lat": 38.887195, "fusion_lat": 0.0}, {"is_disabled": 0, "rental_uris": {"android": "https://dc.lft.to/lastmile_qr_scan", "ios": "https://dc.lft.to/lastmile_qr_scan"}, "is_reserved": 0, "name": "6e983021a6a31a292334d18cbcdc4dc8", "lon": -77.04146666666666, "type": "electric_scooter", "bike_id": "6e983021a6a31a292334d18cbcdc4dc8", "fusion_lon": 0.0, "lat": 38.91271316666667, "fusion_lat": 0.0}, {"is_disabled": 0, "rental_uris": {"android": "https://dc.lft.to/lastmile_qr_scan", "ios": "https://dc.lft.to/lastmile_qr_scan"}, "is_reserved": 0, "name": "439577aa0565fb48c987de9f8360af2f", "lon": -77.04819883333333, "type": "electric_scooter", "bike_id": "439577aa0565fb48c987de9f8360af2f", "fusion_lon": 0.0, "lat": 38.92040316666667, "fusion_lat": 0.0}, {"is_disabled": 0, "rental_uris": {"android": "https://dc.lft.to/lastmile_qr_scan", "ios": "https://dc.lft.to/lastmile_qr_scan"}, "is_reserved": 0, "name": "04b1e0f0ca5aa593e0d8fa7d4dafb4be", "lon": -76.9779575, "type": "electric_bike", "bike_id": "04b1e0f0ca5aa593e0d8fa7d4dafb4be", "fusion_lon": 0.0, "lat": 38.896104, "fusion_lat": 0.0}, {"is_disabled": 0, "rental_uris": {"android": "https://dc.lft.to/lastmile_qr_scan", "ios": "https://dc.lft.to/lastmile_qr_scan"}, "is_reserved": 0, "name": "08da759314df0cce1a818733afc106da", "lon": -77.0238245, "type": "electric_bike", "bike_id": "08da759314df0cce1a818733afc106da", "fusion_lon": 0.0, "lat": 38.99072816666666, "fusion_lat": 0.0}, {"is_disabled": 0, "rental_uris": {"android": "https://dc.lft.to/lastmile_qr_scan", "ios": "https://dc.lft.to/lastmile_qr_scan"}, "is_reserved": 0, "name": "2d419833e1e5199c4938248c6da8d5db", "lon": -77.02072116666666, "type": "electric_scooter", "bike_id": "2d419833e1e5199c4938248c6da8d5db", "fusion_lon": 0.0, "lat": 38.881190333333336, "fusion_lat": 0.0}, {"is_disabled": 0, "rental_uris": {"android": "https://dc.lft.to/lastmile_qr_scan", "ios": "https://dc.lft.to/lastmile_qr_scan"}, "is_reserved": 0, "name": "dbbc74ad92b37c0488c7fa506266c8a6", "lon": -76.98882166666667, "type": "electric_scooter", "bike_id": "dbbc74ad92b37c0488c7fa506266c8a6", "fusion_lon": 0.0, "lat": 38.866647666666665, "fusion_lat": 0.0}, {"is_disabled": 0, "rental_uris": {"android": "https://dc.lft.to/lastmile_qr_scan", "ios": "https://dc.lft.to/lastmile_qr_scan"}, "is_reserved": 0, "name": "8c303ff5114fd896374e2a1f407c18cc", "lon": -77.02701966666666, "type": "electric_scooter", "bike_id": "8c303ff5114fd896374e2a1f407c18cc", "fusion_lon": 0.0, "lat": 38.896569, "fusion_lat": 0.0}, {"is_disabled": 0, "rental_uris": {"android": "https://dc.lft.to/lastmile_qr_scan", "ios": "https://dc.lft.to/lastmile_qr_scan"}, "is_reserved": 0, "name": "73cf11f260bd2941e46490d989f28003", "lon": -77.02978466666667, "type": "electric_scooter", "bike_id": "73cf11f260bd2941e46490d989f28003", "fusion_lon": 0.0, "lat": 38.922520166666665, "fusion_lat": 0.0}, {"is_disabled": 0, "rental_uris": {"android": "https://dc.lft.to/lastmile_qr_scan", "ios": "https://dc.lft.to/lastmile_qr_scan"}, "is_reserved": 0, "name": "cc1f89e9df038c57d11564c53368a6f8", "lon": -77.04278316666667, "type": "electric_scooter", "bike_id": "cc1f89e9df038c57d11564c53368a6f8", "fusion_lon": 0.0, "lat": 38.93417566666667, "fusion_lat": 0.0}, {"is_disabled": 0, "rental_uris": {"android": "https://dc.lft.to/lastmile_qr_scan", "ios": "https://dc.lft.to/lastmile_qr_scan"}, "is_reserved": 0, "name": "ac44cef206c1f78b1497a13d05b919bb", "lon": -77.08817266666667, "type": "electric_bike", "bike_id": "ac44cef206c1f78b1497a13d05b919bb", "fusion_lon": 0.0, "lat": 38.90974833333333, "fusion_lat": 0.0}, {"is_disabled": 0, "rental_uris": {"android": "https://dc.lft.to/lastmile_qr_scan", "ios": "https://dc.lft.to/lastmile_qr_scan"}, "is_reserved": 0, "name": "db44b24c924bedc7c5b979c76491e519", "lon": -77.00528866666667, "type": "electric_scooter", "bike_id": "db44b24c924bedc7c5b979c76491e519", "fusion_lon": 0.0, "lat": 38.874671, "fusion_lat": 0.0}, {"is_disabled": 0, "rental_uris": {"android": "https://dc.lft.to/lastmile_qr_scan", "ios": "https://dc.lft.to/lastmile_qr_scan"}, "is_reserved": 0, "name": "febab19474d1f8a15cc899c07b6e918b", "lon": -77.044069, "type": "electric_scooter", "bike_id": "febab19474d1f8a15cc899c07b6e918b", "fusion_lon": 0.0, "lat": 38.89395416666667, "fusion_lat": 0.0}, {"is_disabled": 0, "rental_uris": {"android": "https://dc.lft.to/lastmile_qr_scan", "ios": "https://dc.lft.to/lastmile_qr_scan"}, "is_reserved": 0, "name": "9c77de689e894b0cf74d47da280e78e0", "lon": -77.0353425, "type": "electric_scooter", "bike_id": "9c77de689e894b0cf74d47da280e78e0", "fusion_lon": 0.0, "lat": 38.923263666666664, "fusion_lat": 0.0}, {"is_disabled": 0, "rental_uris": {"android": "https://dc.lft.to/lastmile_qr_scan", "ios": "https://dc.lft.to/lastmile_qr_scan"}, "is_reserved": 0, "name": "dec0c49b911d614c813fb81907368352", "lon": -77.036636, "type": "electric_scooter", "bike_id": "dec0c49b911d614c813fb81907368352", "fusion_lon": 0.0, "lat": 38.912449, "fusion_lat": 0.0}, {"is_disabled": 0, "rental_uris": {"android": "https://dc.lft.to/lastmile_qr_scan", "ios": "https://dc.lft.to/lastmile_qr_scan"}, "is_reserved": 0, "name": "f7c5e2789741ab3ffde1026702393045", "lon": -77.1043865, "type": "electric_bike", "bike_id": "f7c5e2789741ab3ffde1026702393045", "fusion_lon": 0.0, "lat": 39.028687833333336, "fusion_lat": 0.0}, {"is_disabled": 0, "rental_uris": {"android": "https://dc.lft.to/lastmile_qr_scan", "ios": "https://dc.lft.to/lastmile_qr_scan"}, "is_reserved": 0, "name": "bf2f75cc78dd5b4046fb5d95746fb490", "lon": -77.04641383333333, "type": "electric_scooter", "bike_id": "bf2f75cc78dd5b4046fb5d95746fb490", "fusion_lon": 0.0, "lat": 38.905570833333336, "fusion_lat": 0.0}, {"is_disabled": 0, "rental_uris": {"android": "https://dc.lft.to/lastmile_qr_scan", "ios": "https://dc.lft.to/lastmile_qr_scan"}, "is_reserved": 0, "name": "81fbd3700675308599bb2c3882cec4e8", "lon": -77.00856816666666, "type": "electric_scooter", "bike_id": "81fbd3700675308599bb2c3882cec4e8", "fusion_lon": 0.0, "lat": 38.906754666666664, "fusion_lat": 0.0}, {"is_disabled": 0, "rental_uris": {"android": "https://dc.lft.to/lastmile_qr_scan", "ios": "https://dc.lft.to/lastmile_qr_scan"}, "is_reserved": 0, "name": "a21d982c255608340d1657592db1246b", "lon": -76.94827683333334, "type": "electric_scooter", "bike_id": "a21d982c255608340d1657592db1246b", "fusion_lon": 0.0, "lat": 38.885153, "fusion_lat": 0.0}, {"is_disabled": 0, "rental_uris": {"android": "https://dc.lft.to/lastmile_qr_scan", "ios": "https://dc.lft.to/lastmile_qr_scan"}, "is_reserved": 0, "name": "ecdf23bf2cf13d4be8f58a8758a264d1", "lon": -77.020016, "type": "electric_scooter", "bike_id": "ecdf23bf2cf13d4be8f58a8758a264d1", "fusion_lon": 0.0, "lat": 38.9158145, "fusion_lat": 0.0}, {"is_disabled": 0, "rental_uris": {"android": "https://dc.lft.to/lastmile_qr_scan", "ios": "https://dc.lft.to/lastmile_qr_scan"}, "is_reserved": 0, "name": "c63a4c755e882e6873cec7b5b5d28959", "lon": -77.038642, "type": "electric_scooter", "bike_id": "c63a4c755e882e6873cec7b5b5d28959", "fusion_lon": 0.0, "lat": 38.9156515, "fusion_lat": 0.0}, {"is_disabled": 0, "rental_uris": {"android": "https://dc.lft.to/lastmile_qr_scan", "ios": "https://dc.lft.to/lastmile_qr_scan"}, "is_reserved": 0, "name": "c0eb0367eff4a47017ee82ab7466b21e", "lon": -76.97512766666667, "type": "electric_bike", "bike_id": "c0eb0367eff4a47017ee82ab7466b21e", "fusion_lon": 0.0, "lat": 38.90307283333333, "fusion_lat": 0.0}, {"is_disabled": 0, "rental_uris": {"android": "https://dc.lft.to/lastmile_qr_scan", "ios": "https://dc.lft.to/lastmile_qr_scan"}, "is_reserved": 0, "name": "811bd0c59010ed71eb9128c0f60d36dc", "lon": -76.9788265, "type": "electric_scooter", "bike_id": "811bd0c59010ed71eb9128c0f60d36dc", "fusion_lon": 0.0, "lat": 38.92726483333333, "fusion_lat": 0.0}, {"is_disabled": 0, "rental_uris": {"android": "https://dc.lft.to/lastmile_qr_scan", "ios": "https://dc.lft.to/lastmile_qr_scan"}, "is_reserved": 0, "name": "191721fd11b29211ad136359729936df", "lon": -77.01226483333333, "type": "electric_scooter", "bike_id": "191721fd11b29211ad136359729936df", "fusion_lon": 0.0, "lat": 38.88583666666667, "fusion_lat": 0.0}, {"is_disabled": 0, "rental_uris": {"android": "https://dc.lft.to/lastmile_qr_scan", "ios": "https://dc.lft.to/lastmile_qr_scan"}, "is_reserved": 0, "name": "c689d95faec29364574837e7d5d56bfa", "lon": -77.03311416666666, "type": "electric_scooter", "bike_id": "c689d95faec29364574837e7d5d56bfa", "fusion_lon": 0.0, "lat": 38.89850283333333, "fusion_lat": 0.0}, {"is_disabled": 0, "rental_uris": {"android": "https://dc.lft.to/lastmile_qr_scan", "ios": "https://dc.lft.to/lastmile_qr_scan"}, "is_reserved": 0, "name": "681ac875a3cb14fc9fbbecc1e618c51d", "lon": -77.02300183333334, "type": "electric_scooter", "bike_id": "681ac875a3cb14fc9fbbecc1e618c51d", "fusion_lon": 0.0, "lat": 38.91605466666667, "fusion_lat": 0.0}, {"is_disabled": 0, "rental_uris": {"android": "https://dc.lft.to/lastmile_qr_scan", "ios": "https://dc.lft.to/lastmile_qr_scan"}, "is_reserved": 0, "name": "787d4d7e69be18658898b563f212598b", "lon": -77.02343816666666, "type": "electric_scooter", "bike_id": "787d4d7e69be18658898b563f212598b", "fusion_lon": 0.0, "lat": 38.91598116666667, "fusion_lat": 0.0}, {"is_disabled": 0, "rental_uris": {"android": "https://dc.lft.to/lastmile_qr_scan", "ios": "https://dc.lft.to/lastmile_qr_scan"}, "is_reserved": 0, "name": "5e4fdfb27c27c4cb2edfab95c0dfceec", "lon": -77.04569933333333, "type": "electric_scooter", "bike_id": "5e4fdfb27c27c4cb2edfab95c0dfceec", "fusion_lon": 0.0, "lat": 38.917814, "fusion_lat": 0.0}, {"is_disabled": 0, "rental_uris": {"android": "https://dc.lft.to/lastmile_qr_scan", "ios": "https://dc.lft.to/lastmile_qr_scan"}, "is_reserved": 0, "name": "2058f6e7d4d7e710b02c483c8cc09a33", "lon": -77.05439016666666, "type": "electric_scooter", "bike_id": "2058f6e7d4d7e710b02c483c8cc09a33", "fusion_lon": 0.0, "lat": 38.89603683333333, "fusion_lat": 0.0}, {"is_disabled": 0, "rental_uris": {"android": "https://dc.lft.to/lastmile_qr_scan", "ios": "https://dc.lft.to/lastmile_qr_scan"}, "is_reserved": 0, "name": "fe97ce3bbcfe5b61bea1977ef36dd09b", "lon": -77.032549, "type": "electric_scooter", "bike_id": "fe97ce3bbcfe5b61bea1977ef36dd09b", "fusion_lon": 0.0, "lat": 38.93700483333333, "fusion_lat": 0.0}, {"is_disabled": 0, "rental_uris": {"android": "https://dc.lft.to/lastmile_qr_scan", "ios": "https://dc.lft.to/lastmile_qr_scan"}, "is_reserved": 0, "name": "56bd5b58bdc4e8312db7caaf243352c9", "lon": -77.05934616666667, "type": "electric_scooter", "bike_id": "56bd5b58bdc4e8312db7caaf243352c9", "fusion_lon": 0.0, "lat": 38.93679366666667, "fusion_lat": 0.0}, {"is_disabled": 0, "rental_uris": {"android": "https://dc.lft.to/lastmile_qr_scan", "ios": "https://dc.lft.to/lastmile_qr_scan"}, "is_reserved": 0, "name": "10c68c891beed3bb5eec3ca23648cc32", "lon": -76.99856866666667, "type": "electric_scooter", "bike_id": "10c68c891beed3bb5eec3ca23648cc32", "fusion_lon": 0.0, "lat": 38.9088, "fusion_lat": 0.0}, {"is_disabled": 0, "rental_uris": {"android": "https://dc.lft.to/lastmile_qr_scan", "ios": "https://dc.lft.to/lastmile_qr_scan"}, "is_reserved": 0, "name": "9402d7d81be7de8aa0927f4e29b8aa00", "lon": -77.03054833333333, "type": "electric_scooter", "bike_id": "9402d7d81be7de8aa0927f4e29b8aa00", "fusion_lon": 0.0, "lat": 38.92372133333333, "fusion_lat": 0.0}, {"is_disabled": 0, "rental_uris": {"android": "https://dc.lft.to/lastmile_qr_scan", "ios": "https://dc.lft.to/lastmile_qr_scan"}, "is_reserved": 0, "name": "44b19e15f62358cf982c19b0be0cebb7", "lon": -77.04553366666667, "type": "electric_scooter", "bike_id": "44b19e15f62358cf982c19b0be0cebb7", "fusion_lon": 0.0, "lat": 38.913136333333334, "fusion_lat": 0.0}, {"is_disabled": 0, "rental_uris": {"android": "https://dc.lft.to/lastmile_qr_scan", "ios": "https://dc.lft.to/lastmile_qr_scan"}, "is_reserved": 0, "name": "ccac74ba44bd63a32559a602c683b607", "lon": -77.0074775, "type": "electric_scooter", "bike_id": "ccac74ba44bd63a32559a602c683b607", "fusion_lon": 0.0, "lat": 38.903702, "fusion_lat": 0.0}, {"is_disabled": 0, "rental_uris": {"android": "https://dc.lft.to/lastmile_qr_scan", "ios": "https://dc.lft.to/lastmile_qr_scan"}, "is_reserved": 0, "name": "cb3140e0f6208c7c6c3cc75c20211eac", "lon": -77.04236983333334, "type": "electric_scooter", "bike_id": "cb3140e0f6208c7c6c3cc75c20211eac", "fusion_lon": 0.0, "lat": 38.9077765, "fusion_lat": 0.0}, {"is_disabled": 0, "rental_uris": {"android": "https://dc.lft.to/lastmile_qr_scan", "ios": "https://dc.lft.to/lastmile_qr_scan"}, "is_reserved": 0, "name": "31f5ac5868bd48ab7ac3b14ab171efef", "lon": -76.99869933333333, "type": "electric_scooter", "bike_id": "31f5ac5868bd48ab7ac3b14ab171efef", "fusion_lon": 0.0, "lat": 38.900324, "fusion_lat": 0.0}, {"is_disabled": 0, "rental_uris": {"android": "https://dc.lft.to/lastmile_qr_scan", "ios": "https://dc.lft.to/lastmile_qr_scan"}, "is_reserved": 0, "name": "5d41ce8d4bf4cbc6251b44bc4b0c15c5", "lon": -76.9831695, "type": "electric_bike", "bike_id": "5d41ce8d4bf4cbc6251b44bc4b0c15c5", "fusion_lon": 0.0, "lat": 38.92252916666666, "fusion_lat": 0.0}, {"is_disabled": 0, "rental_uris": {"android": "https://dc.lft.to/lastmile_qr_scan", "ios": "https://dc.lft.to/lastmile_qr_scan"}, "is_reserved": 0, "name": "06c82decf4de0a3b38e5d46266f7a308", "lon": -77.03305283333333, "type": "electric_scooter", "bike_id": "06c82decf4de0a3b38e5d46266f7a308", "fusion_lon": 0.0, "lat": 38.91807216666667, "fusion_lat": 0.0}, {"is_disabled": 0, "rental_uris": {"android": "https://dc.lft.to/lastmile_qr_scan", "ios": "https://dc.lft.to/lastmile_qr_scan"}, "is_reserved": 0, "name": "2c74177ba29a9b925fbea4e88bcb8ed3", "lon": -77.05209066666667, "type": "electric_scooter", "bike_id": "2c74177ba29a9b925fbea4e88bcb8ed3", "fusion_lon": 0.0, "lat": 38.924779666666666, "fusion_lat": 0.0}, {"is_disabled": 0, "rental_uris": {"android": "https://dc.lft.to/lastmile_qr_scan", "ios": "https://dc.lft.to/lastmile_qr_scan"}, "is_reserved": 0, "name": "45500520e09f8e4368af5570c6a01ce4", "lon": -77.03852516666667, "type": "electric_scooter", "bike_id": "45500520e09f8e4368af5570c6a01ce4", "fusion_lon": 0.0, "lat": 38.93204983333333, "fusion_lat": 0.0}, {"is_disabled": 0, "rental_uris": {"android": "https://dc.lft.to/lastmile_qr_scan", "ios": "https://dc.lft.to/lastmile_qr_scan"}, "is_reserved": 0, "name": "aa43b5f6e0c5e086b789d7bf5140331a", "lon": -76.9463425, "type": "electric_scooter", "bike_id": "aa43b5f6e0c5e086b789d7bf5140331a", "fusion_lon": 0.0, "lat": 38.89833766666667, "fusion_lat": 0.0}, {"is_disabled": 0, "rental_uris": {"android": "https://dc.lft.to/lastmile_qr_scan", "ios": "https://dc.lft.to/lastmile_qr_scan"}, "is_reserved": 0, "name": "166259b5d151433f82d8030c7f769fba", "lon": -77.04997433333334, "type": "electric_scooter", "bike_id": "166259b5d151433f82d8030c7f769fba", "fusion_lon": 0.0, "lat": 38.9052775, "fusion_lat": 0.0}, {"is_disabled": 0, "rental_uris": {"android": "https://dc.lft.to/lastmile_qr_scan", "ios": "https://dc.lft.to/lastmile_qr_scan"}, "is_reserved": 0, "name": "dd50dce5f2993bbbec70c4fb172c0c44", "lon": -77.04027233333333, "type": "electric_scooter", "bike_id": "dd50dce5f2993bbbec70c4fb172c0c44", "fusion_lon": 0.0, "lat": 38.91708583333333, "fusion_lat": 0.0}, {"is_disabled": 0, "rental_uris": {"android": "https://dc.lft.to/lastmile_qr_scan", "ios": "https://dc.lft.to/lastmile_qr_scan"}, "is_reserved": 0, "name": "51e5f7e49edd89e7c43b9f59cb312923", "lon": -77.0452685, "type": "electric_scooter", "bike_id": "51e5f7e49edd89e7c43b9f59cb312923", "fusion_lon": 0.0, "lat": 38.90648616666667, "fusion_lat": 0.0}, {"is_disabled": 0, "rental_uris": {"android": "https://dc.lft.to/lastmile_qr_scan", "ios": "https://dc.lft.to/lastmile_qr_scan"}, "is_reserved": 0, "name": "ebf7171bb5b59c50227bd81aaf46104c", "lon": -77.0377485, "type": "electric_bike", "bike_id": "ebf7171bb5b59c50227bd81aaf46104c", "fusion_lon": 0.0, "lat": 38.9294285, "fusion_lat": 0.0}, {"is_disabled": 0, "rental_uris": {"android": "https://dc.lft.to/lastmile_qr_scan", "ios": "https://dc.lft.to/lastmile_qr_scan"}, "is_reserved": 0, "name": "17199afe7bc880780141e6c58406bbfe", "lon": -76.99569816666667, "type": "electric_bike", "bike_id": "17199afe7bc880780141e6c58406bbfe", "fusion_lon": 0.0, "lat": 39.00786633333333, "fusion_lat": 0.0}, {"is_disabled": 0, "rental_uris": {"android": "https://dc.lft.to/lastmile_qr_scan", "ios": "https://dc.lft.to/lastmile_qr_scan"}, "is_reserved": 0, "name": "197e2831f53d8dd295af7c18961f52a8", "lon": -77.02157783333334, "type": "electric_scooter", "bike_id": "197e2831f53d8dd295af7c18961f52a8", "fusion_lon": 0.0, "lat": 38.926029666666665, "fusion_lat": 0.0}, {"is_disabled": 0, "rental_uris": {"android": "https://dc.lft.to/lastmile_qr_scan", "ios": "https://dc.lft.to/lastmile_qr_scan"}, "is_reserved": 0, "name": "32fb1b5ee61e881844a425555de7bbec", "lon": -77.02220583333333, "type": "electric_scooter", "bike_id": "32fb1b5ee61e881844a425555de7bbec", "fusion_lon": 0.0, "lat": 38.905581833333336, "fusion_lat": 0.0}, {"is_disabled": 0, "rental_uris": {"android": "https://dc.lft.to/lastmile_qr_scan", "ios": "https://dc.lft.to/lastmile_qr_scan"}, "is_reserved": 0, "name": "b75ad8fa10047c90a4dfc19bf8f1eee0", "lon": -77.02264833333334, "type": "electric_scooter", "bike_id": "b75ad8fa10047c90a4dfc19bf8f1eee0", "fusion_lon": 0.0, "lat": 38.92737266666666, "fusion_lat": 0.0}, {"is_disabled": 0, "rental_uris": {"android": "https://dc.lft.to/lastmile_qr_scan", "ios": "https://dc.lft.to/lastmile_qr_scan"}, "is_reserved": 0, "name": "343e04844974f337000d97ca52cb5fad", "lon": -76.98711366666667, "type": "electric_scooter", "bike_id": "343e04844974f337000d97ca52cb5fad", "fusion_lon": 0.0, "lat": 38.8670005, "fusion_lat": 0.0}, {"is_disabled": 0, "rental_uris": {"android": "https://dc.lft.to/lastmile_qr_scan", "ios": "https://dc.lft.to/lastmile_qr_scan"}, "is_reserved": 0, "name": "bb11918a9cf6f6e2a464b13c14ac4449", "lon": -76.98872183333333, "type": "electric_scooter", "bike_id": "bb11918a9cf6f6e2a464b13c14ac4449", "fusion_lon": 0.0, "lat": 38.892066166666666, "fusion_lat": 0.0}, {"is_disabled": 0, "rental_uris": {"android": "https://dc.lft.to/lastmile_qr_scan", "ios": "https://dc.lft.to/lastmile_qr_scan"}, "is_reserved": 0, "name": "dc95876bb61802f00d49659bc29c7095", "lon": -77.02666616666667, "type": "electric_scooter", "bike_id": "dc95876bb61802f00d49659bc29c7095", "fusion_lon": 0.0, "lat": 38.896244, "fusion_lat": 0.0}, {"is_disabled": 0, "rental_uris": {"android": "https://dc.lft.to/lastmile_qr_scan", "ios": "https://dc.lft.to/lastmile_qr_scan"}, "is_reserved": 0, "name": "e8c723ff02e5ad0c43ac21ef5f902284", "lon": -77.03211466666667, "type": "electric_scooter", "bike_id": "e8c723ff02e5ad0c43ac21ef5f902284", "fusion_lon": 0.0, "lat": 38.925836833333335, "fusion_lat": 0.0}, {"is_disabled": 0, "rental_uris": {"android": "https://dc.lft.to/lastmile_qr_scan", "ios": "https://dc.lft.to/lastmile_qr_scan"}, "is_reserved": 0, "name": "68b9be5ff042ff6217ab5d1733faa996", "lon": -77.0295185, "type": "electric_scooter", "bike_id": "68b9be5ff042ff6217ab5d1733faa996", "fusion_lon": 0.0, "lat": 38.917740333333334, "fusion_lat": 0.0}, {"is_disabled": 0, "rental_uris": {"android": "https://dc.lft.to/lastmile_qr_scan", "ios": "https://dc.lft.to/lastmile_qr_scan"}, "is_reserved": 0, "name": "7b6cd806d44b4a32d44962da0ab8e6a5", "lon": -77.05210983333333, "type": "electric_scooter", "bike_id": "7b6cd806d44b4a32d44962da0ab8e6a5", "fusion_lon": 0.0, "lat": 38.897885, "fusion_lat": 0.0}, {"is_disabled": 0, "rental_uris": {"android": "https://dc.lft.to/lastmile_qr_scan", "ios": "https://dc.lft.to/lastmile_qr_scan"}, "is_reserved": 0, "name": "d42bd4c4e8a476f80626d0fbf9f54044", "lon": -76.92763783333334, "type": "electric_bike", "bike_id": "d42bd4c4e8a476f80626d0fbf9f54044", "fusion_lon": 0.0, "lat": 38.9603675, "fusion_lat": 0.0}, {"is_disabled": 0, "rental_uris": {"android": "https://dc.lft.to/lastmile_qr_scan", "ios": "https://dc.lft.to/lastmile_qr_scan"}, "is_reserved": 0, "name": "ff0429aceb0a7871b9e765ebce650402", "lon": -77.010161, "type": "electric_scooter", "bike_id": "ff0429aceb0a7871b9e765ebce650402", "fusion_lon": 0.0, "lat": 38.866680833333334, "fusion_lat": 0.0}, {"is_disabled": 0, "rental_uris": {"android": "https://dc.lft.to/lastmile_qr_scan", "ios": "https://dc.lft.to/lastmile_qr_scan"}, "is_reserved": 0, "name": "15c9091b917b4524edd2c31b7a7e5f2f", "lon": -76.98885016666667, "type": "electric_scooter", "bike_id": "15c9091b917b4524edd2c31b7a7e5f2f", "fusion_lon": 0.0, "lat": 38.8667285, "fusion_lat": 0.0}, {"is_disabled": 0, "rental_uris": {"android": "https://dc.lft.to/lastmile_qr_scan", "ios": "https://dc.lft.to/lastmile_qr_scan"}, "is_reserved": 0, "name": "5054e753138539542e3643047db9a9a9", "lon": -77.00844416666666, "type": "electric_scooter", "bike_id": "5054e753138539542e3643047db9a9a9", "fusion_lon": 0.0, "lat": 38.885035, "fusion_lat": 0.0}, {"is_disabled": 0, "rental_uris": {"android": "https://dc.lft.to/lastmile_qr_scan", "ios": "https://dc.lft.to/lastmile_qr_scan"}, "is_reserved": 0, "name": "6a0bfb0f4d4533faa17d3b9310b46481", "lon": -77.002047, "type": "electric_bike", "bike_id": "6a0bfb0f4d4533faa17d3b9310b46481", "fusion_lon": 0.0, "lat": 38.81925733333333, "fusion_lat": 0.0}, {"is_disabled": 0, "rental_uris": {"android": "https://dc.lft.to/lastmile_qr_scan", "ios": "https://dc.lft.to/lastmile_qr_scan"}, "is_reserved": 0, "name": "6aba2adcd7d3b647e27b94ee59be4e21", "lon": -77.06704483333333, "type": "electric_scooter", "bike_id": "6aba2adcd7d3b647e27b94ee59be4e21", "fusion_lon": 0.0, "lat": 38.955917, "fusion_lat": 0.0}, {"is_disabled": 0, "rental_uris": {"android": "https://dc.lft.to/lastmile_qr_scan", "ios": "https://dc.lft.to/lastmile_qr_scan"}, "is_reserved": 0, "name": "a9c6576286b7df49d824897451613ea9", "lon": -77.063817, "type": "electric_bike", "bike_id": "a9c6576286b7df49d824897451613ea9", "fusion_lon": 0.0, "lat": 39.0173385, "fusion_lat": 0.0}, {"is_disabled": 0, "rental_uris": {"android": "https://dc.lft.to/lastmile_qr_scan", "ios": "https://dc.lft.to/lastmile_qr_scan"}, "is_reserved": 0, "name": "c8df40934824a15c2915d6d293ae4833", "lon": -76.96089366666666, "type": "electric_bike", "bike_id": "c8df40934824a15c2915d6d293ae4833", "fusion_lon": 0.0, "lat": 38.9186255, "fusion_lat": 0.0}, {"is_disabled": 0, "rental_uris": {"android": "https://dc.lft.to/lastmile_qr_scan", "ios": "https://dc.lft.to/lastmile_qr_scan"}, "is_reserved": 0, "name": "acc08508e5d83ce9684184b99c5ca7db", "lon": -77.024812, "type": "electric_scooter", "bike_id": "acc08508e5d83ce9684184b99c5ca7db", "fusion_lon": 0.0, "lat": 38.93097933333333, "fusion_lat": 0.0}, {"is_disabled": 0, "rental_uris": {"android": "https://dc.lft.to/lastmile_qr_scan", "ios": "https://dc.lft.to/lastmile_qr_scan"}, "is_reserved": 0, "name": "5afac5d062009789bb6309f7ecb8ca13", "lon": -77.026697, "type": "electric_scooter", "bike_id": "5afac5d062009789bb6309f7ecb8ca13", "fusion_lon": 0.0, "lat": 38.912671333333336, "fusion_lat": 0.0}, {"is_disabled": 0, "rental_uris": {"android": "https://dc.lft.to/lastmile_qr_scan", "ios": "https://dc.lft.to/lastmile_qr_scan"}, "is_reserved": 0, "name": "b6a084eac7e66d5f027202486463ac61", "lon": -77.07043683333333, "type": "electric_bike", "bike_id": "b6a084eac7e66d5f027202486463ac61", "fusion_lon": 0.0, "lat": 38.82444916666667, "fusion_lat": 0.0}, {"is_disabled": 0, "rental_uris": {"android": "https://dc.lft.to/lastmile_qr_scan", "ios": "https://dc.lft.to/lastmile_qr_scan"}, "is_reserved": 0, "name": "afd47440cfaaf4dec835227076830f79", "lon": -77.02845716666667, "type": "electric_scooter", "bike_id": "afd47440cfaaf4dec835227076830f79", "fusion_lon": 0.0, "lat": 38.904353, "fusion_lat": 0.0}, {"is_disabled": 0, "rental_uris": {"android": "https://dc.lft.to/lastmile_qr_scan", "ios": "https://dc.lft.to/lastmile_qr_scan"}, "is_reserved": 0, "name": "6d1444a2142e9ae3234e97a24aa6f2dd", "lon": -77.1282155, "type": "electric_bike", "bike_id": "6d1444a2142e9ae3234e97a24aa6f2dd", "fusion_lon": 0.0, "lat": 38.86532016666666, "fusion_lat": 0.0}, {"is_disabled": 0, "rental_uris": {"android": "https://dc.lft.to/lastmile_qr_scan", "ios": "https://dc.lft.to/lastmile_qr_scan"}, "is_reserved": 0, "name": "0e1ab3fa6953cba4884bb10d5c808754", "lon": -77.02549433333333, "type": "electric_scooter", "bike_id": "0e1ab3fa6953cba4884bb10d5c808754", "fusion_lon": 0.0, "lat": 38.88439283333334, "fusion_lat": 0.0}, {"is_disabled": 0, "rental_uris": {"android": "https://dc.lft.to/lastmile_qr_scan", "ios": "https://dc.lft.to/lastmile_qr_scan"}, "is_reserved": 0, "name": "844b235dff498dd43c0e21c44b40e69d", "lon": -77.045108, "type": "electric_scooter", "bike_id": "844b235dff498dd43c0e21c44b40e69d", "fusion_lon": 0.0, "lat": 38.8860435, "fusion_lat": 0.0}, {"is_disabled": 0, "rental_uris": {"android": "https://dc.lft.to/lastmile_qr_scan", "ios": "https://dc.lft.to/lastmile_qr_scan"}, "is_reserved": 0, "name": "4ea3673f8dfa60d4bcd2677f7a574cb9", "lon": -77.03581333333334, "type": "electric_scooter", "bike_id": "4ea3673f8dfa60d4bcd2677f7a574cb9", "fusion_lon": 0.0, "lat": 38.90762933333333, "fusion_lat": 0.0}, {"is_disabled": 0, "rental_uris": {"android": "https://dc.lft.to/lastmile_qr_scan", "ios": "https://dc.lft.to/lastmile_qr_scan"}, "is_reserved": 0, "name": "a86fbf35c2aded5d107a0e27b663ffae", "lon": -77.00603816666667, "type": "electric_scooter", "bike_id": "a86fbf35c2aded5d107a0e27b663ffae", "fusion_lon": 0.0, "lat": 38.90541416666667, "fusion_lat": 0.0}, {"is_disabled": 0, "rental_uris": {"android": "https://dc.lft.to/lastmile_qr_scan", "ios": "https://dc.lft.to/lastmile_qr_scan"}, "is_reserved": 0, "name": "b858a9b149d92ab761bf6665dc331462", "lon": -77.01753933333333, "type": "electric_scooter", "bike_id": "b858a9b149d92ab761bf6665dc331462", "fusion_lon": 0.0, "lat": 38.883155333333335, "fusion_lat": 0.0}, {"is_disabled": 0, "rental_uris": {"android": "https://dc.lft.to/lastmile_qr_scan", "ios": "https://dc.lft.to/lastmile_qr_scan"}, "is_reserved": 0, "name": "e90f49a697a7a7a8b96433e87e41802f", "lon": -77.02801933333333, "type": "electric_scooter", "bike_id": "e90f49a697a7a7a8b96433e87e41802f", "fusion_lon": 0.0, "lat": 38.90569166666667, "fusion_lat": 0.0}, {"is_disabled": 0, "rental_uris": {"android": "https://dc.lft.to/lastmile_qr_scan", "ios": "https://dc.lft.to/lastmile_qr_scan"}, "is_reserved": 0, "name": "ea37c5f5f672cf9b074234894d120e81", "lon": -77.03061283333334, "type": "electric_scooter", "bike_id": "ea37c5f5f672cf9b074234894d120e81", "fusion_lon": 0.0, "lat": 38.925824166666665, "fusion_lat": 0.0}, {"is_disabled": 0, "rental_uris": {"android": "https://dc.lft.to/lastmile_qr_scan", "ios": "https://dc.lft.to/lastmile_qr_scan"}, "is_reserved": 0, "name": "4f810ab0d2520403a6d06b9d7df1d5ad", "lon": -76.98707983333334, "type": "electric_scooter", "bike_id": "4f810ab0d2520403a6d06b9d7df1d5ad", "fusion_lon": 0.0, "lat": 38.865338, "fusion_lat": 0.0}, {"is_disabled": 0, "rental_uris": {"android": "https://dc.lft.to/lastmile_qr_scan", "ios": "https://dc.lft.to/lastmile_qr_scan"}, "is_reserved": 0, "name": "8e91b1c136b8706764e213f4a4e2ce86", "lon": -76.99030616666667, "type": "electric_scooter", "bike_id": "8e91b1c136b8706764e213f4a4e2ce86", "fusion_lon": 0.0, "lat": 38.89879233333333, "fusion_lat": 0.0}, {"is_disabled": 0, "rental_uris": {"android": "https://dc.lft.to/lastmile_qr_scan", "ios": "https://dc.lft.to/lastmile_qr_scan"}, "is_reserved": 0, "name": "229633bc8da4eb29cce9e33486e87a5e", "lon": -77.038573, "type": "electric_scooter", "bike_id": "229633bc8da4eb29cce9e33486e87a5e", "fusion_lon": 0.0, "lat": 38.926615, "fusion_lat": 0.0}, {"is_disabled": 0, "rental_uris": {"android": "https://dc.lft.to/lastmile_qr_scan", "ios": "https://dc.lft.to/lastmile_qr_scan"}, "is_reserved": 0, "name": "dcd5ba6cabc5b9024c9df74e5dd89229", "lon": -77.0551025, "type": "electric_scooter", "bike_id": "dcd5ba6cabc5b9024c9df74e5dd89229", "fusion_lon": 0.0, "lat": 38.899989, "fusion_lat": 0.0}, {"is_disabled": 0, "rental_uris": {"android": "https://dc.lft.to/lastmile_qr_scan", "ios": "https://dc.lft.to/lastmile_qr_scan"}, "is_reserved": 0, "name": "930c9b9a7c9d9cae8cd8bdf6e594bc5c", "lon": -77.00338316666667, "type": "electric_scooter", "bike_id": "930c9b9a7c9d9cae8cd8bdf6e594bc5c", "fusion_lon": 0.0, "lat": 38.88985866666667, "fusion_lat": 0.0}, {"is_disabled": 0, "rental_uris": {"android": "https://dc.lft.to/lastmile_qr_scan", "ios": "https://dc.lft.to/lastmile_qr_scan"}, "is_reserved": 0, "name": "1fb861419d7fdc02dd955308dbd7c7a5", "lon": -77.0417935, "type": "electric_scooter", "bike_id": "1fb861419d7fdc02dd955308dbd7c7a5", "fusion_lon": 0.0, "lat": 38.914076333333334, "fusion_lat": 0.0}, {"is_disabled": 0, "rental_uris": {"android": "https://dc.lft.to/lastmile_qr_scan", "ios": "https://dc.lft.to/lastmile_qr_scan"}, "is_reserved": 0, "name": "477f05537e3b758fa7c06628206373b4", "lon": -76.97503283333333, "type": "electric_bike", "bike_id": "477f05537e3b758fa7c06628206373b4", "fusion_lon": 0.0, "lat": 38.919345166666666, "fusion_lat": 0.0}, {"is_disabled": 0, "rental_uris": {"android": "https://dc.lft.to/lastmile_qr_scan", "ios": "https://dc.lft.to/lastmile_qr_scan"}, "is_reserved": 0, "name": "9cde79e2368efccf49c22059463ebda5", "lon": -77.0094575, "type": "electric_scooter", "bike_id": "9cde79e2368efccf49c22059463ebda5", "fusion_lon": 0.0, "lat": 38.894983, "fusion_lat": 0.0}, {"is_disabled": 0, "rental_uris": {"android": "https://dc.lft.to/lastmile_qr_scan", "ios": "https://dc.lft.to/lastmile_qr_scan"}, "is_reserved": 0, "name": "e0749d6ee73ff04b34435dc3ef3bc6e0", "lon": -77.04281766666666, "type": "electric_scooter", "bike_id": "e0749d6ee73ff04b34435dc3ef3bc6e0", "fusion_lon": 0.0, "lat": 38.9169195, "fusion_lat": 0.0}, {"is_disabled": 0, "rental_uris": {"android": "https://dc.lft.to/lastmile_qr_scan", "ios": "https://dc.lft.to/lastmile_qr_scan"}, "is_reserved": 0, "name": "59c6c69519feaa2d48ca04e9b9d31d25", "lon": -76.9482565, "type": "electric_scooter", "bike_id": "59c6c69519feaa2d48ca04e9b9d31d25", "fusion_lon": 0.0, "lat": 38.88520283333333, "fusion_lat": 0.0}, {"is_disabled": 0, "rental_uris": {"android": "https://dc.lft.to/lastmile_qr_scan", "ios": "https://dc.lft.to/lastmile_qr_scan"}, "is_reserved": 0, "name": "21ea3b296162096e6bbcf0791591e93f", "lon": -76.97909483333333, "type": "electric_scooter", "bike_id": "21ea3b296162096e6bbcf0791591e93f", "fusion_lon": 0.0, "lat": 38.90427366666667, "fusion_lat": 0.0}, {"is_disabled": 0, "rental_uris": {"android": "https://dc.lft.to/lastmile_qr_scan", "ios": "https://dc.lft.to/lastmile_qr_scan"}, "is_reserved": 0, "name": "e798c42ca0daf8349daec65f1a275f20", "lon": -77.023346, "type": "electric_scooter", "bike_id": "e798c42ca0daf8349daec65f1a275f20", "fusion_lon": 0.0, "lat": 38.922326, "fusion_lat": 0.0}, {"is_disabled": 0, "rental_uris": {"android": "https://dc.lft.to/lastmile_qr_scan", "ios": "https://dc.lft.to/lastmile_qr_scan"}, "is_reserved": 0, "name": "cb8c5d1df9a6067276f4901270fe7e63", "lon": -77.02762666666666, "type": "electric_scooter", "bike_id": "cb8c5d1df9a6067276f4901270fe7e63", "fusion_lon": 0.0, "lat": 38.943057833333334, "fusion_lat": 0.0}, {"is_disabled": 0, "rental_uris": {"android": "https://dc.lft.to/lastmile_qr_scan", "ios": "https://dc.lft.to/lastmile_qr_scan"}, "is_reserved": 0, "name": "90e65616d02ff212fd8e5e16c34c13b4", "lon": -77.0375755, "type": "electric_scooter", "bike_id": "90e65616d02ff212fd8e5e16c34c13b4", "fusion_lon": 0.0, "lat": 38.906912166666665, "fusion_lat": 0.0}, {"is_disabled": 0, "rental_uris": {"android": "https://dc.lft.to/lastmile_qr_scan", "ios": "https://dc.lft.to/lastmile_qr_scan"}, "is_reserved": 0, "name": "7e14f877de621f1ae836ab0ddd2d2b53", "lon": -77.00230116666667, "type": "electric_scooter", "bike_id": "7e14f877de621f1ae836ab0ddd2d2b53", "fusion_lon": 0.0, "lat": 38.913379166666665, "fusion_lat": 0.0}, {"is_disabled": 0, "rental_uris": {"android": "https://dc.lft.to/lastmile_qr_scan", "ios": "https://dc.lft.to/lastmile_qr_scan"}, "is_reserved": 0, "name": "b522ca90cc576da7ecd92def546a5310", "lon": -77.08438566666666, "type": "electric_bike", "bike_id": "b522ca90cc576da7ecd92def546a5310", "fusion_lon": 0.0, "lat": 38.81028966666667, "fusion_lat": 0.0}, {"is_disabled": 0, "rental_uris": {"android": "https://dc.lft.to/lastmile_qr_scan", "ios": "https://dc.lft.to/lastmile_qr_scan"}, "is_reserved": 0, "name": "6ec748a4eda906368f7b03d8394eaa1f", "lon": -76.96920316666667, "type": "electric_scooter", "bike_id": "6ec748a4eda906368f7b03d8394eaa1f", "fusion_lon": 0.0, "lat": 38.85527, "fusion_lat": 0.0}, {"is_disabled": 0, "rental_uris": {"android": "https://dc.lft.to/lastmile_qr_scan", "ios": "https://dc.lft.to/lastmile_qr_scan"}, "is_reserved": 0, "name": "dd8c66a64e753bcdeb879c96d030e430", "lon": -76.985201, "type": "electric_scooter", "bike_id": "dd8c66a64e753bcdeb879c96d030e430", "fusion_lon": 0.0, "lat": 38.86005866666667, "fusion_lat": 0.0}, {"is_disabled": 0, "rental_uris": {"android": "https://dc.lft.to/lastmile_qr_scan", "ios": "https://dc.lft.to/lastmile_qr_scan"}, "is_reserved": 0, "name": "4144731be2411332fa6a002b2791affd", "lon": -77.03558116666666, "type": "electric_scooter", "bike_id": "4144731be2411332fa6a002b2791affd", "fusion_lon": 0.0, "lat": 38.906788666666664, "fusion_lat": 0.0}, {"is_disabled": 0, "rental_uris": {"android": "https://dc.lft.to/lastmile_qr_scan", "ios": "https://dc.lft.to/lastmile_qr_scan"}, "is_reserved": 0, "name": "3025a9c52c162f32b502631a47744bcf", "lon": -77.18292283333334, "type": "electric_bike", "bike_id": "3025a9c52c162f32b502631a47744bcf", "fusion_lon": 0.0, "lat": 38.8834145, "fusion_lat": 0.0}, {"is_disabled": 0, "rental_uris": {"android": "https://dc.lft.to/lastmile_qr_scan", "ios": "https://dc.lft.to/lastmile_qr_scan"}, "is_reserved": 0, "name": "fd0b55e55aff80b3aee0b5b77f70f671", "lon": -76.93111183333333, "type": "electric_scooter", "bike_id": "fd0b55e55aff80b3aee0b5b77f70f671", "fusion_lon": 0.0, "lat": 38.8802045, "fusion_lat": 0.0}, {"is_disabled": 0, "rental_uris": {"android": "https://dc.lft.to/lastmile_qr_scan", "ios": "https://dc.lft.to/lastmile_qr_scan"}, "is_reserved": 0, "name": "8c74ab778791e1883f4f2319d0f8a710", "lon": -77.05936533333333, "type": "electric_scooter", "bike_id": "8c74ab778791e1883f4f2319d0f8a710", "fusion_lon": 0.0, "lat": 38.936637, "fusion_lat": 0.0}, {"is_disabled": 0, "rental_uris": {"android": "https://dc.lft.to/lastmile_qr_scan", "ios": "https://dc.lft.to/lastmile_qr_scan"}, "is_reserved": 0, "name": "3339bf2f359395571b32f3b4a86db572", "lon": -77.02837483333333, "type": "electric_scooter", "bike_id": "3339bf2f359395571b32f3b4a86db572", "fusion_lon": 0.0, "lat": 38.89527233333333, "fusion_lat": 0.0}, {"is_disabled": 0, "rental_uris": {"android": "https://dc.lft.to/lastmile_qr_scan", "ios": "https://dc.lft.to/lastmile_qr_scan"}, "is_reserved": 0, "name": "4fd3d462da779abdd27e6558a9022a6c", "lon": -77.01211983333333, "type": "electric_scooter", "bike_id": "4fd3d462da779abdd27e6558a9022a6c", "fusion_lon": 0.0, "lat": 38.91822033333333, "fusion_lat": 0.0}, {"is_disabled": 0, "rental_uris": {"android": "https://dc.lft.to/lastmile_qr_scan", "ios": "https://dc.lft.to/lastmile_qr_scan"}, "is_reserved": 0, "name": "ec77217fa6d6db1d202846748d808e6e", "lon": -77.05097266666667, "type": "electric_scooter", "bike_id": "ec77217fa6d6db1d202846748d808e6e", "fusion_lon": 0.0, "lat": 38.92344516666667, "fusion_lat": 0.0}, {"is_disabled": 0, "rental_uris": {"android": "https://dc.lft.to/lastmile_qr_scan", "ios": "https://dc.lft.to/lastmile_qr_scan"}, "is_reserved": 0, "name": "7a88728893b41b9aa7a6ac876bf1ed30", "lon": -77.01692116666666, "type": "electric_scooter", "bike_id": "7a88728893b41b9aa7a6ac876bf1ed30", "fusion_lon": 0.0, "lat": 38.97489133333333, "fusion_lat": 0.0}, {"is_disabled": 0, "rental_uris": {"android": "https://dc.lft.to/lastmile_qr_scan", "ios": "https://dc.lft.to/lastmile_qr_scan"}, "is_reserved": 0, "name": "c1d4268d7e497ccdca338dd1217db1fc", "lon": -76.98089466666667, "type": "electric_scooter", "bike_id": "c1d4268d7e497ccdca338dd1217db1fc", "fusion_lon": 0.0, "lat": 38.857189, "fusion_lat": 0.0}, {"is_disabled": 0, "rental_uris": {"android": "https://dc.lft.to/lastmile_qr_scan", "ios": "https://dc.lft.to/lastmile_qr_scan"}, "is_reserved": 0, "name": "ba6475dc660f2151513e5f2940aaf629", "lon": -77.03281383333334, "type": "electric_scooter", "bike_id": "ba6475dc660f2151513e5f2940aaf629", "fusion_lon": 0.0, "lat": 38.91839016666667, "fusion_lat": 0.0}, {"is_disabled": 0, "rental_uris": {"android": "https://dc.lft.to/lastmile_qr_scan", "ios": "https://dc.lft.to/lastmile_qr_scan"}, "is_reserved": 0, "name": "d325f6112c44cf86478ad2b69ce4f700", "lon": -77.04339166666666, "type": "electric_scooter", "bike_id": "d325f6112c44cf86478ad2b69ce4f700", "fusion_lon": 0.0, "lat": 38.89662116666667, "fusion_lat": 0.0}, {"is_disabled": 0, "rental_uris": {"android": "https://dc.lft.to/lastmile_qr_scan", "ios": "https://dc.lft.to/lastmile_qr_scan"}, "is_reserved": 0, "name": "c13afb07348569ff03af079b97fd71d4", "lon": -77.01584216666667, "type": "electric_bike", "bike_id": "c13afb07348569ff03af079b97fd71d4", "fusion_lon": 0.0, "lat": 39.04636583333333, "fusion_lat": 0.0}, {"is_disabled": 0, "rental_uris": {"android": "https://dc.lft.to/lastmile_qr_scan", "ios": "https://dc.lft.to/lastmile_qr_scan"}, "is_reserved": 0, "name": "b076d48bb2b5cca78452e4e0cb75ec56", "lon": -77.02476516666667, "type": "electric_scooter", "bike_id": "b076d48bb2b5cca78452e4e0cb75ec56", "fusion_lon": 0.0, "lat": 38.9390315, "fusion_lat": 0.0}, {"is_disabled": 0, "rental_uris": {"android": "https://dc.lft.to/lastmile_qr_scan", "ios": "https://dc.lft.to/lastmile_qr_scan"}, "is_reserved": 0, "name": "b66f39b1e741b7a44e8ad13de0514378", "lon": -77.01218033333333, "type": "electric_scooter", "bike_id": "b66f39b1e741b7a44e8ad13de0514378", "fusion_lon": 0.0, "lat": 38.91496516666667, "fusion_lat": 0.0}, {"is_disabled": 0, "rental_uris": {"android": "https://dc.lft.to/lastmile_qr_scan", "ios": "https://dc.lft.to/lastmile_qr_scan"}, "is_reserved": 0, "name": "6f540c8119a9078393ced1f3da84d0c3", "lon": -76.99007283333333, "type": "electric_scooter", "bike_id": "6f540c8119a9078393ced1f3da84d0c3", "fusion_lon": 0.0, "lat": 38.86505533333333, "fusion_lat": 0.0}, {"is_disabled": 0, "rental_uris": {"android": "https://dc.lft.to/lastmile_qr_scan", "ios": "https://dc.lft.to/lastmile_qr_scan"}, "is_reserved": 0, "name": "8a7a418222d0cb6f7a3fb5754fed0895", "lon": -77.0364055, "type": "electric_scooter", "bike_id": "8a7a418222d0cb6f7a3fb5754fed0895", "fusion_lon": 0.0, "lat": 38.91630333333333, "fusion_lat": 0.0}, {"is_disabled": 0, "rental_uris": {"android": "https://dc.lft.to/lastmile_qr_scan", "ios": "https://dc.lft.to/lastmile_qr_scan"}, "is_reserved": 0, "name": "a72295fd94c100368fcca27fb3d7e2f9", "lon": -77.03730883333333, "type": "electric_scooter", "bike_id": "a72295fd94c100368fcca27fb3d7e2f9", "fusion_lon": 0.0, "lat": 38.92647733333333, "fusion_lat": 0.0}, {"is_disabled": 0, "rental_uris": {"android": "https://dc.lft.to/lastmile_qr_scan", "ios": "https://dc.lft.to/lastmile_qr_scan"}, "is_reserved": 0, "name": "9f476f454ee3dfbc08a4f660957aa532", "lon": -76.9499515, "type": "electric_scooter", "bike_id": "9f476f454ee3dfbc08a4f660957aa532", "fusion_lon": 0.0, "lat": 38.893960666666665, "fusion_lat": 0.0}, {"is_disabled": 0, "rental_uris": {"android": "https://dc.lft.to/lastmile_qr_scan", "ios": "https://dc.lft.to/lastmile_qr_scan"}, "is_reserved": 0, "name": "b88973cb5f3328b44fb74edcd0ec146c", "lon": -76.99078833333333, "type": "electric_scooter", "bike_id": "b88973cb5f3328b44fb74edcd0ec146c", "fusion_lon": 0.0, "lat": 38.86051833333333, "fusion_lat": 0.0}, {"is_disabled": 0, "rental_uris": {"android": "https://dc.lft.to/lastmile_qr_scan", "ios": "https://dc.lft.to/lastmile_qr_scan"}, "is_reserved": 0, "name": "14ec4ed729217d07ff495a3c6cce23f8", "lon": -77.04175533333333, "type": "electric_scooter", "bike_id": "14ec4ed729217d07ff495a3c6cce23f8", "fusion_lon": 0.0, "lat": 38.9080615, "fusion_lat": 0.0}, {"is_disabled": 0, "rental_uris": {"android": "https://dc.lft.to/lastmile_qr_scan", "ios": "https://dc.lft.to/lastmile_qr_scan"}, "is_reserved": 0, "name": "3b69d0782280b0808ccb79eea0d184d4", "lon": -76.965578, "type": "electric_scooter", "bike_id": "3b69d0782280b0808ccb79eea0d184d4", "fusion_lon": 0.0, "lat": 38.918353333333336, "fusion_lat": 0.0}, {"is_disabled": 0, "rental_uris": {"android": "https://dc.lft.to/lastmile_qr_scan", "ios": "https://dc.lft.to/lastmile_qr_scan"}, "is_reserved": 0, "name": "eb3f5704705713268c44adb53e3d66d1", "lon": -77.03516, "type": "electric_scooter", "bike_id": "eb3f5704705713268c44adb53e3d66d1", "fusion_lon": 0.0, "lat": 38.92235316666667, "fusion_lat": 0.0}, {"is_disabled": 0, "rental_uris": {"android": "https://dc.lft.to/lastmile_qr_scan", "ios": "https://dc.lft.to/lastmile_qr_scan"}, "is_reserved": 0, "name": "597befa57d0cf7aa908aaa396f8deffc", "lon": -77.03663216666666, "type": "electric_scooter", "bike_id": "597befa57d0cf7aa908aaa396f8deffc", "fusion_lon": 0.0, "lat": 38.917110666666666, "fusion_lat": 0.0}, {"is_disabled": 0, "rental_uris": {"android": "https://dc.lft.to/lastmile_qr_scan", "ios": "https://dc.lft.to/lastmile_qr_scan"}, "is_reserved": 0, "name": "1d481b6805806a01e7f2d67caf1edcfc", "lon": -77.05398833333334, "type": "electric_scooter", "bike_id": "1d481b6805806a01e7f2d67caf1edcfc", "fusion_lon": 0.0, "lat": 38.90521066666667, "fusion_lat": 0.0}, {"is_disabled": 0, "rental_uris": {"android": "https://dc.lft.to/lastmile_qr_scan", "ios": "https://dc.lft.to/lastmile_qr_scan"}, "is_reserved": 0, "name": "156c744c0d56897a5195192d0f613dc4", "lon": -76.99394966666667, "type": "electric_scooter", "bike_id": "156c744c0d56897a5195192d0f613dc4", "fusion_lon": 0.0, "lat": 38.92117966666667, "fusion_lat": 0.0}, {"is_disabled": 0, "rental_uris": {"android": "https://dc.lft.to/lastmile_qr_scan", "ios": "https://dc.lft.to/lastmile_qr_scan"}, "is_reserved": 0, "name": "a43e270e4bf7cb6b31480097fe5682a3", "lon": -77.03475216666666, "type": "electric_scooter", "bike_id": "a43e270e4bf7cb6b31480097fe5682a3", "fusion_lon": 0.0, "lat": 38.90723766666667, "fusion_lat": 0.0}, {"is_disabled": 0, "rental_uris": {"android": "https://dc.lft.to/lastmile_qr_scan", "ios": "https://dc.lft.to/lastmile_qr_scan"}, "is_reserved": 0, "name": "d55c240b25f274b4a4678bc0a576f732", "lon": -77.04017, "type": "electric_scooter", "bike_id": "d55c240b25f274b4a4678bc0a576f732", "fusion_lon": 0.0, "lat": 38.913025, "fusion_lat": 0.0}, {"is_disabled": 0, "rental_uris": {"android": "https://dc.lft.to/lastmile_qr_scan", "ios": "https://dc.lft.to/lastmile_qr_scan"}, "is_reserved": 0, "name": "c386ca46f50c3658ee4a5e0ef10c5661", "lon": -77.02723783333333, "type": "electric_scooter", "bike_id": "c386ca46f50c3658ee4a5e0ef10c5661", "fusion_lon": 0.0, "lat": 38.908583, "fusion_lat": 0.0}, {"is_disabled": 0, "rental_uris": {"android": "https://dc.lft.to/lastmile_qr_scan", "ios": "https://dc.lft.to/lastmile_qr_scan"}, "is_reserved": 0, "name": "6424b0f8a37f8e7189c0f8000b6272a9", "lon": -77.02714866666666, "type": "electric_scooter", "bike_id": "6424b0f8a37f8e7189c0f8000b6272a9", "fusion_lon": 0.0, "lat": 38.94091216666666, "fusion_lat": 0.0}, {"is_disabled": 0, "rental_uris": {"android": "https://dc.lft.to/lastmile_qr_scan", "ios": "https://dc.lft.to/lastmile_qr_scan"}, "is_reserved": 0, "name": "642086b2f4e02d208264212259350c9d", "lon": -77.02107916666667, "type": "electric_bike", "bike_id": "642086b2f4e02d208264212259350c9d", "fusion_lon": 0.0, "lat": 39.02296333333334, "fusion_lat": 0.0}, {"is_disabled": 0, "rental_uris": {"android": "https://dc.lft.to/lastmile_qr_scan", "ios": "https://dc.lft.to/lastmile_qr_scan"}, "is_reserved": 0, "name": "6c709af33f9cd0ef23f7292cd99d49fb", "lon": -77.02777966666666, "type": "electric_scooter", "bike_id": "6c709af33f9cd0ef23f7292cd99d49fb", "fusion_lon": 0.0, "lat": 38.926822, "fusion_lat": 0.0}, {"is_disabled": 0, "rental_uris": {"android": "https://dc.lft.to/lastmile_qr_scan", "ios": "https://dc.lft.to/lastmile_qr_scan"}, "is_reserved": 0, "name": "0194f3e5290e0fbf9ca8f5c87c65ecaf", "lon": -76.93783966666666, "type": "electric_scooter", "bike_id": "0194f3e5290e0fbf9ca8f5c87c65ecaf", "fusion_lon": 0.0, "lat": 38.899683833333334, "fusion_lat": 0.0},