{"data": {"bikes": [{"fusion_lat": 0.0, "name": "69ced9f386d9bd0ecfee9a27c93fe65a", "is_disabled": 0, "rental_uris": {"android": "https://dc.lft.to/lastmile_qr_scan", "ios": "https://dc.lft.to/lastmile_qr_scan"}, "fusion_lon": 0.0, "lat": 38.92381483333333, "bike_id": "69ced9f386d9bd0ecfee9a27c93fe65a", "type": "electric_scooter", "is_reserved": 0, "lon": -77.0411365}, {"fusion_lat": 0.0, "name": "6c289094658a8a2d98056ec1550f055f", "is_disabled": 0, "rental_uris": {"android": "https://dc.lft.to/lastmile_qr_scan", "ios": "https://dc.lft.to/lastmile_qr_scan"}, "fusion_lon": 0.0, "lat": 38.911082, "bike_id": "6c289094658a8a2d98056ec1550f055f", "type": "electric_scooter", "is_reserved": 0, "lon": -77.02103233333334}, {"fusion_lat": 0.0, "name": "9f8c5e4ee9e108f1e942da0ef34aa08a", "is_disabled": 0, "rental_uris": {"android": "https://dc.lft.to/lastmile_qr_scan", "ios": "https://dc.lft.to/lastmile_qr_scan"}, "fusion_lon": 0.0, "lat": 38.89561333333333, "bike_id": "9f8c5e4ee9e108f1e942da0ef34aa08a", "type": "electric_scooter", "is_reserved": 0, "lon": -76.99430116666667}, {"fusion_lat": 0.0, "name": "7c27ec76690373c9228936012df824b9", "is_disabled": 0, "rental_uris": {"android": "https://dc.lft.to/lastmile_qr_scan", "ios": "https://dc.lft.to/lastmile_qr_scan"}, "fusion_lon": 0.0, "lat": 38.882113333333336, "bike_id": "7c27ec76690373c9228936012df824b9", "type": "electric_bike", "is_reserved": 0, "lon": -76.99272533333334}, {"fusion_lat": 0.0, "name": "e6d616896b0e7721db69a318d3612454", "is_disabled": 0, "rental_uris": {"android": "https://dc.lft.to/lastmile_qr_scan", "ios": "https://dc.lft.to/lastmile_qr_scan"}, "fusion_lon": 0.0, "lat": 38.87668333333333, "bike_id": "e6d616896b0e7721db69a318d3612454", "type": "electric_scooter", "is_reserved": 0, "lon": -77.01758783333334}, {"fusion_lat": 0.0, "name": "327864429e18d303cce19092e3a9e98a", "is_disabled": 0, "rental_uris": {"android": "https://dc.lft.to/lastmile_qr_scan", "ios": "https://dc.lft.to/lastmile_qr_scan"}, "fusion_lon": 0.0, "lat": 38.89876233333333, "bike_id": "327864429e18d303cce19092e3a9e98a", "type": "electric_bike", "is_reserved": 0, "lon": -77.1133725}, {"fusion_lat": 0.0, "name": "032bcd16f99b2283728c389ecb6ba813", "is_disabled": 0, "rental_uris": {"android": "https://dc.lft.to/lastmile_qr_scan", "ios": "https://dc.lft.to/lastmile_qr_scan"}, "fusion_lon": 0.0, "lat": 39.01415983333333, "bike_id": "032bcd16f99b2283728c389ecb6ba813", "type": "electric_bike", "is_reserved": 0, "lon": -77.0449945}, {"fusion_lat": 0.0, "name": "01ff3fe7a379d56b2b1e6c0800d99fc0", "is_disabled": 0, "rental_uris": {"android": "https://dc.lft.to/lastmile_qr_scan", "ios": "https://dc.lft.to/lastmile_qr_scan"}, "fusion_lon": 0.0, "lat": 38.87372666666667, "bike_id": "01ff3fe7a379d56b2b1e6c0800d99fc0", "type": "electric_bike", "is_reserved": 0, "lon": -77.1180025}, {"fusion_lat": 0.0, "name": "42e1a33a951b71517e153097f93ded7e", "is_disabled": 0, "rental_uris": {"android": "https://dc.lft.to/lastmile_qr_scan", "ios": "https://dc.lft.to/lastmile_qr_scan"}, "fusion_lon": 0.0, "lat": 38.91933016666667, "bike_id": "42e1a33a951b71517e153097f93ded7e", "type": "electric_scooter", "is_reserved": 0, "lon": -77.04556183333334}, {"fusion_lat": 0.0, "name": "80089f0e09d5d193430baf21fe536859", "is_disabled": 0, "rental_uris": {"android": "https://dc.lft.to/lastmile_qr_scan", "ios": "https://dc.lft.to/lastmile_qr_scan"}, "fusion_lon": 0.0, "lat": 38.923395, "bike_id": "80089f0e09d5d193430baf21fe536859", "type": "electric_scooter", "is_reserved": 0, "lon": -77.03612366666667}, {"fusion_lat": 0.0, "name": "391a9691f587b8fcda0f5274d57ef6ad", "is_disabled": 0, "rental_uris": {"android": "https://dc.lft.to/lastmile_qr_scan", "ios": "https://dc.lft.to/lastmile_qr_scan"}, "fusion_lon": 0.0, "lat": 38.92356733333333, "bike_id": "391a9691f587b8fcda0f5274d57ef6ad", "type": "electric_scooter", "is_reserved": 0, "lon": -77.033761}, {"fusion_lat": 0.0, "name": "1510581b9f934952d573fcf4c3625cf0", "is_disabled": 0, "rental_uris": {"android": "https://dc.lft.to/lastmile_qr_scan", "ios": "https://dc.lft.to/lastmile_qr_scan"}, "fusion_lon": 0.0, "lat": 38.8989405, "bike_id": "1510581b9f934952d573fcf4c3625cf0", "type": "electric_scooter", "is_reserved": 0, "lon": -76.98064266666667}, {"fusion_lat": 0.0, "name": "cf4d112b947356b021fe6829563d0797", "is_disabled": 0, "rental_uris": {"android": "https://dc.lft.to/lastmile_qr_scan", "ios": "https://dc.lft.to/lastmile_qr_scan"}, "fusion_lon": 0.0, "lat": 38.89995433333333, "bike_id": "cf4d112b947356b021fe6829563d0797", "type": "electric_scooter", "is_reserved": 0, "lon": -77.023016}, {"fusion_lat": 0.0, "name": "0dbee9766761969ef34543c05c016197", "is_disabled": 0, "rental_uris": {"android": "https://dc.lft.to/lastmile_qr_scan", "ios": "https://dc.lft.to/lastmile_qr_scan"}, "fusion_lon": 0.0, "lat": 38.89831616666667, "bike_id": "0dbee9766761969ef34543c05c016197", "type": "electric_scooter", "is_reserved": 0, "lon": -77.00734483333333}, {"fusion_lat": 0.0, "name": "e5a270b1d2dab0460533aa7ab90b1ce5", "is_disabled": 0, "rental_uris": {"android": "https://dc.lft.to/lastmile_qr_scan", "ios": "https://dc.lft.to/lastmile_qr_scan"}, "fusion_lon": 0.0, "lat": 38.8984385, "bike_id": "e5a270b1d2dab0460533aa7ab90b1ce5", "type": "electric_scooter", "is_reserved": 0, "lon": -77.039292}, {"fusion_lat": 0.0, "name": "0070a75c85cf9c953621c1ceb2654075", "is_disabled": 0, "rental_uris": {"android": "https://dc.lft.to/lastmile_qr_scan", "ios": "https://dc.lft.to/lastmile_qr_scan"}, "fusion_lon": 0.0, "lat": 38.876627, "bike_id": "0070a75c85cf9c953621c1ceb2654075", "type": "electric_scooter", "is_reserved": 0, "lon": -77.000653}, {"fusion_lat": 0.0, "name": "e720d079d8caa7110ed80b71814f71e1", "is_disabled": 0, "rental_uris": {"android": "https://dc.lft.to/lastmile_qr_scan", "ios": "https://dc.lft.to/lastmile_qr_scan"}, "fusion_lon": 0.0, "lat": 39.070537, "bike_id": "e720d079d8caa7110ed80b71814f71e1", "type": "electric_bike", "is_reserved": 0, "lon": -77.11483433333333}, {"fusion_lat": 0.0, "name": "be44ff742999635058a541390fd9a051", "is_disabled": 0, "rental_uris": {"android": "https://dc.lft.to/lastmile_qr_scan", "ios": "https://dc.lft.to/lastmile_qr_scan"}, "fusion_lon": 0.0, "lat": 38.9164535, "bike_id": "be44ff742999635058a541390fd9a051", "type": "electric_scooter", "is_reserved": 0, "lon": -77.00951383333333}, {"fusion_lat": 0.0, "name": "b7de45f09dc477140f49f368bcf320fb", "is_disabled": 0, "rental_uris": {"android": "https://dc.lft.to/lastmile_qr_scan", "ios": "https://dc.lft.to/lastmile_qr_scan"}, "fusion_lon": 0.0, "lat": 38.9053985, "bike_id": "b7de45f09dc477140f49f368bcf320fb", "type": "electric_scooter", "is_reserved": 0, "lon": -76.98196233333333}, {"fusion_lat": 0.0, "name": "624ea24c688f095f77b40ac86c985eab", "is_disabled": 0, "rental_uris": {"android": "https://dc.lft.to/lastmile_qr_scan", "ios": "https://dc.lft.to/lastmile_qr_scan"}, "fusion_lon": 0.0, "lat": 38.907780333333335, "bike_id": "624ea24c688f095f77b40ac86c985eab", "type": "electric_scooter", "is_reserved": 0, "lon": -77.0386375}, {"fusion_lat": 0.0, "name": "e6fc600f554e664166a7f368952a1ee5", "is_disabled": 0, "rental_uris": {"android": "https://dc.lft.to/lastmile_qr_scan", "ios": "https://dc.lft.to/lastmile_qr_scan"}, "fusion_lon": 0.0, "lat": 38.917915, "bike_id": "e6fc600f554e664166a7f368952a1ee5", "type": "electric_scooter", "is_reserved": 0, "lon": -77.02314616666666}, {"fusion_lat": 0.0, "name": "1b73c903c17f0e346ea4b17debb9552f", "is_disabled": 0, "rental_uris": {"android": "https://dc.lft.to/lastmile_qr_scan", "ios": "https://dc.lft.to/lastmile_qr_scan"}, "fusion_lon": 0.0, "lat": 38.930966833333336, "bike_id": "1b73c903c17f0e346ea4b17debb9552f", "type": "electric_scooter", "is_reserved": 0, "lon": -77.02553033333334}, {"fusion_lat": 0.0, "name": "4fb7769e912389bea7c1fa37570451de", "is_disabled": 0, "rental_uris": {"android": "https://dc.lft.to/lastmile_qr_scan", "ios": "https://dc.lft.to/lastmile_qr_scan"}, "fusion_lon": 0.0, "lat": 38.8651745, "bike_id": "4fb7769e912389bea7c1fa37570451de", "type": "electric_bike", "is_reserved": 0, "lon": -77.12937966666667}, {"fusion_lat": 0.0, "name": "2179c40c577fa913430880a43899a931", "is_disabled": 0, "rental_uris": {"android": "https://dc.lft.to/lastmile_qr_scan", "ios": "https://dc.lft.to/lastmile_qr_scan"}, "fusion_lon": 0.0, "lat": 38.91266316666667, "bike_id": "2179c40c577fa913430880a43899a931", "type": "electric_scooter", "is_reserved": 0, "lon": -77.03872283333334}, {"fusion_lat": 0.0, "name": "79c18d7f5acf14b2c3d565cd781b0be0", "is_disabled": 0, "rental_uris": {"android": "https://dc.lft.to/lastmile_qr_scan", "ios": "https://dc.lft.to/lastmile_qr_scan"}, "fusion_lon": 0.0, "lat": 38.9220255, "bike_id": "79c18d7f5acf14b2c3d565cd781b0be0", "type": "electric_scooter", "is_reserved": 0, "lon": -77.02349316666667}, {"fusion_lat": 0.0, "name": "d288149c0ad0f06aae08fcd0140e557b", "is_disabled": 0, "rental_uris": {"android": "https://dc.lft.to/lastmile_qr_scan", "ios": "https://dc.lft.to/lastmile_qr_scan"}, "fusion_lon": 0.0, "lat": 38.904945166666664, "bike_id": "d288149c0ad0f06aae08fcd0140e557b", "type": "electric_scooter", "is_reserved": 0, "lon": -77.0268505}, {"fusion_lat": 0.0, "name": "3d079542ec22ff0664ecabba6d060ec1", "is_disabled": 0, "rental_uris": {"android": "https://dc.lft.to/lastmile_qr_scan", "ios": "https://dc.lft.to/lastmile_qr_scan"}, "fusion_lon": 0.0, "lat": 38.902709333333334, "bike_id": "3d079542ec22ff0664ecabba6d060ec1", "type": "electric_scooter", "is_reserved": 0, "lon": -77.0177245}, {"fusion_lat": 0.0, "name": "6b89f309ecb2a8d3601f1938661eca58", "is_disabled": 0, "rental_uris": {"android": "https://dc.lft.to/lastmile_qr_scan", "ios": "https://dc.lft.to/lastmile_qr_scan"}, "fusion_lon": 0.0, "lat": 38.96599483333333, "bike_id": "6b89f309ecb2a8d3601f1938661eca58", "type": "electric_bike", "is_reserved": 0, "lon": -77.0280665}, {"fusion_lat": 0.0, "name": "0c38b535d2864f81f6ba9d5771b216d7", "is_disabled": 0, "rental_uris": {"android": "https://dc.lft.to/lastmile_qr_scan", "ios": "https://dc.lft.to/lastmile_qr_scan"}, "fusion_lon": 0.0, "lat": 38.8883395, "bike_id": "0c38b535d2864f81f6ba9d5771b216d7", "type": "electric_scooter", "is_reserved": 0, "lon": -77.04911816666667}, {"fusion_lat": 0.0, "name": "075f01e335e0b132736f6f4f0c8ebea8", "is_disabled": 0, "rental_uris": {"android": "https://dc.lft.to/lastmile_qr_scan", "ios": "https://dc.lft.to/lastmile_qr_scan"}, "fusion_lon": 0.0, "lat": 38.922426333333334, "bike_id": "075f01e335e0b132736f6f4f0c8ebea8", "type": "electric_scooter", "is_reserved": 0, "lon": -77.02240933333333}, {"fusion_lat": 0.0, "name": "fd75357d2b09d8b3b177d9a15ac5e0f5", "is_disabled": 0, "rental_uris": {"android": "https://dc.lft.to/lastmile_qr_scan", "ios": "https://dc.lft.to/lastmile_qr_scan"}, "fusion_lon": 0.0, "lat": 38.91411983333333, "bike_id": "fd75357d2b09d8b3b177d9a15ac5e0f5", "type": "electric_scooter", "is_reserved": 0, "lon": -77.0425435}, {"fusion_lat": 0.0, "name": "d7e666350f12d65e75c9e0ea28393f2b", "is_disabled": 0, "rental_uris": {"android": "https://dc.lft.to/lastmile_qr_scan", "ios": "https://dc.lft.to/lastmile_qr_scan"}, "fusion_lon": 0.0, "lat": 38.903969833333335, "bike_id": "d7e666350f12d65e75c9e0ea28393f2b", "type": "electric_scooter", "is_reserved": 0, "lon": -77.01776016666666}, {"fusion_lat": 0.0, "name": "ac957c3b323c3005abd294a55d5de8a8", "is_disabled": 0, "rental_uris": {"android": "https://dc.lft.to/lastmile_qr_scan", "ios": "https://dc.lft.to/lastmile_qr_scan"}, "fusion_lon": 0.0, "lat": 38.901044, "bike_id": "ac957c3b323c3005abd294a55d5de8a8", "type": "electric_scooter", "is_reserved": 0, "lon": -77.02280466666667}, {"fusion_lat": 0.0, "name": "6c72375de3ddff12081fe32e600c6d46", "is_disabled": 0, "rental_uris": {"android": "https://dc.lft.to/lastmile_qr_scan", "ios": "https://dc.lft.to/lastmile_qr_scan"}, "fusion_lon": 0.0, "lat": 38.87802283333333, "bike_id": "6c72375de3ddff12081fe32e600c6d46", "type": "electric_scooter", "is_reserved": 0, "lon": -77.01754116666666}, {"fusion_lat": 0.0, "name": "a2009f96d3d40b8568a67c32387a2bab", "is_disabled": 0, "rental_uris": {"android": "https://dc.lft.to/lastmile_qr_scan", "ios": "https://dc.lft.to/lastmile_qr_scan"}, "fusion_lon": 0.0, "lat": 38.966669333333336, "bike_id": "a2009f96d3d40b8568a67c32387a2bab", "type": "electric_scooter", "is_reserved": 0, "lon": -77.02553566666667}, {"fusion_lat": 0.0, "name": "9c4962b85856fcaa03305b9ded6c0ddb", "is_disabled": 0, "rental_uris": {"android": "https://dc.lft.to/lastmile_qr_scan", "ios": "https://dc.lft.to/lastmile_qr_scan"}, "fusion_lon": 0.0, "lat": 38.889870333333334, "bike_id": "9c4962b85856fcaa03305b9ded6c0ddb", "type": "electric_scooter", "is_reserved": 0, "lon": -76.99249833333333}, {"fusion_lat": 0.0, "name": "dcce967b39c3741dfc5e895aa52ab5e3", "is_disabled": 0, "rental_uris": {"android": "https://dc.lft.to/lastmile_qr_scan", "ios": "https://dc.lft.to/lastmile_qr_scan"}, "fusion_lon": 0.0, "lat": 38.881412, "bike_id": "dcce967b39c3741dfc5e895aa52ab5e3", "type": "electric_scooter", "is_reserved": 0, "lon": -76.99502816666667}, {"fusion_lat": 0.0, "name": "55562fede4d3c4ea1d8e9f106e995be7", "is_disabled": 0, "rental_uris": {"android": "https://dc.lft.to/lastmile_qr_scan", "ios": "https://dc.lft.to/lastmile_qr_scan"}, "fusion_lon": 0.0, "lat": 38.90549733333334, "bike_id": "55562fede4d3c4ea1d8e9f106e995be7", "type": "electric_scooter", "is_reserved": 0, "lon": -77.04652}, {"fusion_lat": 0.0, "name": "3595ffbf383686d18ebbbaae18b1b72f", "is_disabled": 0, "rental_uris": {"android": "https://dc.lft.to/lastmile_qr_scan", "ios": "https://dc.lft.to/lastmile_qr_scan"}, "fusion_lon": 0.0, "lat": 38.90253933333334, "bike_id": "3595ffbf383686d18ebbbaae18b1b72f", "type": "electric_scooter", "is_reserved": 0, "lon": -77.06328716666667}, {"fusion_lat": 0.0, "name": "4e0cc84885186fe952243d5865295b7f", "is_disabled": 0, "rental_uris": {"android": "https://dc.lft.to/lastmile_qr_scan", "ios": "https://dc.lft.to/lastmile_qr_scan"}, "fusion_lon": 0.0, "lat": 38.91897983333333, "bike_id": "4e0cc84885186fe952243d5865295b7f", "type": "electric_scooter", "is_reserved": 0, "lon": -77.0004855}, {"fusion_lat": 0.0, "name": "5244392c46293e0f150fbb1ed8682cdc", "is_disabled": 0, "rental_uris": {"android": "https://dc.lft.to/lastmile_qr_scan", "ios": "https://dc.lft.to/lastmile_qr_scan"}, "fusion_lon": 0.0, "lat": 38.91259, "bike_id": "5244392c46293e0f150fbb1ed8682cdc", "type": "electric_scooter", "is_reserved": 0, "lon": -77.03873683333333}, {"fusion_lat": 0.0, "name": "383edb2805471bc3cacafcfcce5f2618", "is_disabled": 0, "rental_uris": {"android": "https://dc.lft.to/lastmile_qr_scan", "ios": "https://dc.lft.to/lastmile_qr_scan"}, "fusion_lon": 0.0, "lat": 38.9256075, "bike_id": "383edb2805471bc3cacafcfcce5f2618", "type": "electric_scooter", "is_reserved": 0, "lon": -77.03342416666666}, {"fusion_lat": 0.0, "name": "8bba33789c747ace41a6c41843196bc5", "is_disabled": 0, "rental_uris": {"android": "https://dc.lft.to/lastmile_qr_scan", "ios": "https://dc.lft.to/lastmile_qr_scan"}, "fusion_lon": 0.0, "lat": 38.9143785, "bike_id": "8bba33789c747ace41a6c41843196bc5", "type": "electric_scooter", "is_reserved": 0, "lon": -77.0122165}, {"fusion_lat": 0.0, "name": "3d82c69e4bd124b86a01dd7d5c4ca257", "is_disabled": 0, "rental_uris": {"android": "https://dc.lft.to/lastmile_qr_scan", "ios": "https://dc.lft.to/lastmile_qr_scan"}, "fusion_lon": 0.0, "lat": 38.8535535, "bike_id": "3d82c69e4bd124b86a01dd7d5c4ca257", "type": "electric_bike", "is_reserved": 0, "lon": -77.13464583333334}, {"fusion_lat": 0.0, "name": "8558977307ac7df5e473908c00913024", "is_disabled": 0, "rental_uris": {"android": "https://dc.lft.to/lastmile_qr_scan", "ios": "https://dc.lft.to/lastmile_qr_scan"}, "fusion_lon": 0.0, "lat": 38.84754433333333, "bike_id": "8558977307ac7df5e473908c00913024", "type": "electric_scooter", "is_reserved": 0, "lon": -76.99504}, {"fusion_lat": 0.0, "name": "c9b442dc4a04ad49ccf5fecf214e1431", "is_disabled": 0, "rental_uris": {"android": "https://dc.lft.to/lastmile_qr_scan", "ios": "https://dc.lft.to/lastmile_qr_scan"}, "fusion_lon": 0.0, "lat": 38.924679166666664, "bike_id": "c9b442dc4a04ad49ccf5fecf214e1431", "type": "electric_scooter", "is_reserved": 0, "lon": -77.03533816666666}, {"fusion_lat": 0.0, "name": "5cdff5cea740ae5ff29d182f2735bb34", "is_disabled": 0, "rental_uris": {"android": "https://dc.lft.to/lastmile_qr_scan", "ios": "https://dc.lft.to/lastmile_qr_scan"}, "fusion_lon": 0.0, "lat": 38.87479166666667, "bike_id": "5cdff5cea740ae5ff29d182f2735bb34", "type": "electric_scooter", "is_reserved": 0, "lon": -77.00030483333333}, {"fusion_lat": 0.0, "name": "84b41ddbe2ddd5a87ebcc9e4bb562bb8", "is_disabled": 0, "rental_uris": {"android": "https://dc.lft.to/lastmile_qr_scan", "ios": "https://dc.lft.to/lastmile_qr_scan"}, "fusion_lon": 0.0, "lat": 38.9205485, "bike_id": "84b41ddbe2ddd5a87ebcc9e4bb562bb8", "type": "electric_scooter", "is_reserved": 0, "lon": -76.99883483333333}, {"fusion_lat": 0.0, "name": "039c3b1e3291ef9762a586de83c785d3", "is_disabled": 0, "rental_uris": {"android": "https://dc.lft.to/lastmile_qr_scan", "ios": "https://dc.lft.to/lastmile_qr_scan"}, "fusion_lon": 0.0, "lat": 38.925994, "bike_id": "039c3b1e3291ef9762a586de83c785d3", "type": "electric_scooter", "is_reserved": 0, "lon": -77.03742683333333}, {"fusion_lat": 0.0, "name": "ce8ae15c7f4f7515bb649e80d9caffcf", "is_disabled": 0, "rental_uris": {"android": "https://dc.lft.to/lastmile_qr_scan", "ios": "https://dc.lft.to/lastmile_qr_scan"}, "fusion_lon": 0.0, "lat": 38.911433833333334, "bike_id": "ce8ae15c7f4f7515bb649e80d9caffcf", "type": "electric_scooter", "is_reserved": 0, "lon": -77.02388083333334}, {"fusion_lat": 0.0, "name": "2ade449da3636c8d227298509924c0f2", "is_disabled": 0, "rental_uris": {"android": "https://dc.lft.to/lastmile_qr_scan", "ios": "https://dc.lft.to/lastmile_qr_scan"}, "fusion_lon": 0.0, "lat": 38.9277485, "bike_id": "2ade449da3636c8d227298509924c0f2", "type": "electric_scooter", "is_reserved": 0, "lon": -77.02744983333334}, {"fusion_lat": 0.0, "name": "a3d947ad96367ba0df7de3b7b56f2f0f", "is_disabled": 0, "rental_uris": {"android": "https://dc.lft.to/lastmile_qr_scan", "ios": "https://dc.lft.to/lastmile_qr_scan"}, "fusion_lon": 0.0, "lat": 38.88352583333333, "bike_id": "a3d947ad96367ba0df7de3b7b56f2f0f", "type": "electric_scooter", "is_reserved": 0, "lon": -77.01355616666666}, {"fusion_lat": 0.0, "name": "0a1644a73991bb892a065538000e8fa9", "is_disabled": 0, "rental_uris": {"android": "https://dc.lft.to/lastmile_qr_scan", "ios": "https://dc.lft.to/lastmile_qr_scan"}, "fusion_lon": 0.0, "lat": 38.91923583333333, "bike_id": "0a1644a73991bb892a065538000e8fa9", "type": "electric_scooter", "is_reserved": 0, "lon": -77.02660633333333}, {"fusion_lat": 0.0, "name": "c10d22791f0be35f80527a7b5f220102", "is_disabled": 0, "rental_uris": {"android": "https://dc.lft.to/lastmile_qr_scan", "ios": "https://dc.lft.to/lastmile_qr_scan"}, "fusion_lon": 0.0, "lat": 38.922631333333335, "bike_id": "c10d22791f0be35f80527a7b5f220102", "type": "electric_scooter", "is_reserved": 0, "lon": -77.03520283333333}, {"fusion_lat": 0.0, "name": "a12060b19749df1acdcb0a57597d0c45", "is_disabled": 0, "rental_uris": {"android": "https://dc.lft.to/lastmile_qr_scan", "ios": "https://dc.lft.to/lastmile_qr_scan"}, "fusion_lon": 0.0, "lat": 38.9051695, "bike_id": "a12060b19749df1acdcb0a57597d0c45", "type": "electric_scooter", "is_reserved": 0, "lon": -77.06769716666666}, {"fusion_lat": 0.0, "name": "dcc4c60b834fe755f1d8b0d696dfcf33", "is_disabled": 0, "rental_uris": {"android": "https://dc.lft.to/lastmile_qr_scan", "ios": "https://dc.lft.to/lastmile_qr_scan"}, "fusion_lon": 0.0, "lat": 38.930280833333335, "bike_id": "dcc4c60b834fe755f1d8b0d696dfcf33", "type": "electric_scooter", "is_reserved": 0, "lon": -77.03786066666666}, {"fusion_lat": 0.0, "name": "c642dc8b90b833634bfe5b1cd4e7a535", "is_disabled": 0, "rental_uris": {"android": "https://dc.lft.to/lastmile_qr_scan", "ios": "https://dc.lft.to/lastmile_qr_scan"}, "fusion_lon": 0.0, "lat": 38.966342, "bike_id": "c642dc8b90b833634bfe5b1cd4e7a535", "type": "electric_bike", "is_reserved": 0, "lon": -77.02747833333333}, {"fusion_lat": 0.0, "name": "ee5934eafa237221c360207b96dfcd69", "is_disabled": 0, "rental_uris": {"android": "https://dc.lft.to/lastmile_qr_scan", "ios": "https://dc.lft.to/lastmile_qr_scan"}, "fusion_lon": 0.0, "lat": 38.8974335, "bike_id": "ee5934eafa237221c360207b96dfcd69", "type": "electric_scooter", "is_reserved": 0, "lon": -77.00192733333333}, {"fusion_lat": 0.0, "name": "d3d4f9e9a60ff1c4e0867b96379434b4", "is_disabled": 0, "rental_uris": {"android": "https://dc.lft.to/lastmile_qr_scan", "ios": "https://dc.lft.to/lastmile_qr_scan"}, "fusion_lon": 0.0, "lat": 38.86266083333334, "bike_id": "d3d4f9e9a60ff1c4e0867b96379434b4", "type": "electric_bike", "is_reserved": 0, "lon": -76.98352766666666}, {"fusion_lat": 0.0, "name": "881993450a8b4705d8a60f07389e9f31", "is_disabled": 0, "rental_uris": {"android": "https://dc.lft.to/lastmile_qr_scan", "ios": "https://dc.lft.to/lastmile_qr_scan"}, "fusion_lon": 0.0, "lat": 38.8839505, "bike_id": "881993450a8b4705d8a60f07389e9f31", "type": "electric_scooter", "is_reserved": 0, "lon": -76.93039233333333}, {"fusion_lat": 0.0, "name": "6d3cac6a221f0b3e8ef2ea3875417243", "is_disabled": 0, "rental_uris": {"android": "https://dc.lft.to/lastmile_qr_scan", "ios": "https://dc.lft.to/lastmile_qr_scan"}, "fusion_lon": 0.0, "lat": 38.936712, "bike_id": "6d3cac6a221f0b3e8ef2ea3875417243", "type": "electric_scooter", "is_reserved": 0, "lon": -77.0363335}, {"fusion_lat": 0.0, "name": "077b9647cfd1a2e8966ba2718e69d9fd", "is_disabled": 0, "rental_uris": {"android": "https://dc.lft.to/lastmile_qr_scan", "ios": "https://dc.lft.to/lastmile_qr_scan"}, "fusion_lon": 0.0, "lat": 38.928649, "bike_id": "077b9647cfd1a2e8966ba2718e69d9fd", "type": "electric_scooter", "is_reserved": 0, "lon": -77.07340566666667}, {"fusion_lat": 0.0, "name": "22d51726fd5d49de83fcb5252612cf07", "is_disabled": 0, "rental_uris": {"android": "https://dc.lft.to/lastmile_qr_scan", "ios": "https://dc.lft.to/lastmile_qr_scan"}, "fusion_lon": 0.0, "lat": 38.900619, "bike_id": "22d51726fd5d49de83fcb5252612cf07", "type": "electric_scooter", "is_reserved": 0, "lon": -77.0163795}, {"fusion_lat": 0.0, "name": "d40fede77840cc7e30e521252aa6aee7", "is_disabled": 0, "rental_uris": {"android": "https://dc.lft.to/lastmile_qr_scan", "ios": "https://dc.lft.to/lastmile_qr_scan"}, "fusion_lon": 0.0, "lat": 38.910141, "bike_id": "d40fede77840cc7e30e521252aa6aee7", "type": "electric_scooter", "is_reserved": 0, "lon": -77.05283783333333}, {"fusion_lat": 0.0, "name": "1bbd373298081d9662ec5b3bc17246b8", "is_disabled": 0, "rental_uris": {"android": "https://dc.lft.to/lastmile_qr_scan", "ios": "https://dc.lft.to/lastmile_qr_scan"}, "fusion_lon": 0.0, "lat": 38.92770266666667, "bike_id": "1bbd373298081d9662ec5b3bc17246b8", "type": "electric_scooter", "is_reserved": 0, "lon": -77.02749083333333}, {"fusion_lat": 0.0, "name": "d2568208e7d75b809d0d8c93744d9c8e", "is_disabled": 0, "rental_uris": {"android": "https://dc.lft.to/lastmile_qr_scan", "ios": "https://dc.lft.to/lastmile_qr_scan"}, "fusion_lon": 0.0, "lat": 38.84193066666667, "bike_id": "d2568208e7d75b809d0d8c93744d9c8e", "type": "electric_bike", "is_reserved": 0, "lon": -77.077515}, {"fusion_lat": 0.0, "name": "1dd4d99fa6e60a1fdba4b27b32240b41", "is_disabled": 0, "rental_uris": {"android": "https://dc.lft.to/lastmile_qr_scan", "ios": "https://dc.lft.to/lastmile_qr_scan"}, "fusion_lon": 0.0, "lat": 38.94118116666667, "bike_id": "1dd4d99fa6e60a1fdba4b27b32240b41", "type": "electric_bike", "is_reserved": 0, "lon": -76.99033866666667}, {"fusion_lat": 0.0, "name": "9002231e2bd52412954562c7afd8595e", "is_disabled": 0, "rental_uris": {"android": "https://dc.lft.to/lastmile_qr_scan", "ios": "https://dc.lft.to/lastmile_qr_scan"}, "fusion_lon": 0.0, "lat": 38.9217755, "bike_id": "9002231e2bd52412954562c7afd8595e", "type": "electric_scooter", "is_reserved": 0, "lon": -77.07441083333333}, {"fusion_lat": 0.0, "name": "375905cef8ef0eb6c8814d2630a41369", "is_disabled": 0, "rental_uris": {"android": "https://dc.lft.to/lastmile_qr_scan", "ios": "https://dc.lft.to/lastmile_qr_scan"}, "fusion_lon": 0.0, "lat": 38.90713983333333, "bike_id": "375905cef8ef0eb6c8814d2630a41369", "type": "electric_scooter", "is_reserved": 0, "lon": -76.99822766666666}, {"fusion_lat": 0.0, "name": "43be8a3a90725dcf84cebc85405d59a5", "is_disabled": 0, "rental_uris": {"android": "https://dc.lft.to/lastmile_qr_scan", "ios": "https://dc.lft.to/lastmile_qr_scan"}, "fusion_lon": 0.0, "lat": 38.91278666666667, "bike_id": "43be8a3a90725dcf84cebc85405d59a5", "type": "electric_scooter", "is_reserved": 0, "lon": -77.02244233333333}, {"fusion_lat": 0.0, "name": "7e2cae027252f80a01ed6e348d8730b8", "is_disabled": 0, "rental_uris": {"android": "https://dc.lft.to/lastmile_qr_scan", "ios": "https://dc.lft.to/lastmile_qr_scan"}, "fusion_lon": 0.0, "lat": 38.92238783333333, "bike_id": "7e2cae027252f80a01ed6e348d8730b8", "type": "electric_scooter", "is_reserved": 0, "lon": -77.0389805}, {"fusion_lat": 0.0, "name": "77786f1d995ef1f7c8f8a7a621358033", "is_disabled": 0, "rental_uris": {"android": "https://dc.lft.to/lastmile_qr_scan", "ios": "https://dc.lft.to/lastmile_qr_scan"}, "fusion_lon": 0.0, "lat": 38.91749883333333, "bike_id": "77786f1d995ef1f7c8f8a7a621358033", "type": "electric_scooter", "is_reserved": 0, "lon": -77.04577416666666}, {"fusion_lat": 0.0, "name": "132f5bac0cae3ec06267e1693fb7e0c6", "is_disabled": 0, "rental_uris": {"android": "https://dc.lft.to/lastmile_qr_scan", "ios": "https://dc.lft.to/lastmile_qr_scan"}, "fusion_lon": 0.0, "lat": 38.91843033333333, "bike_id": "132f5bac0cae3ec06267e1693fb7e0c6", "type": "electric_scooter", "is_reserved": 0, "lon": -77.04030733333333}, {"fusion_lat": 0.0, "name": "13116100e03151a5c48508cca42cb9aa", "is_disabled": 0, "rental_uris": {"android": "https://dc.lft.to/lastmile_qr_scan", "ios": "https://dc.lft.to/lastmile_qr_scan"}, "fusion_lon": 0.0, "lat": 38.94921083333333, "bike_id": "13116100e03151a5c48508cca42cb9aa", "type": "electric_bike", "is_reserved": 0, "lon": -77.00798966666666}, {"fusion_lat": 0.0, "name": "bb4a19059171e972a44bc1c5e545f179", "is_disabled": 0, "rental_uris": {"android": "https://dc.lft.to/lastmile_qr_scan", "ios": "https://dc.lft.to/lastmile_qr_scan"}, "fusion_lon": 0.0, "lat": 38.926872833333334, "bike_id": "bb4a19059171e972a44bc1c5e545f179", "type": "electric_scooter", "is_reserved": 0, "lon": -77.02966333333333}, {"fusion_lat": 0.0, "name": "ea4355aff7f9328e8f4faeb83c02482f", "is_disabled": 0, "rental_uris": {"android": "https://dc.lft.to/lastmile_qr_scan", "ios": "https://dc.lft.to/lastmile_qr_scan"}, "fusion_lon": 0.0, "lat": 38.94269366666666, "bike_id": "ea4355aff7f9328e8f4faeb83c02482f", "type": "electric_scooter", "is_reserved": 0, "lon": -77.03257516666666}, {"fusion_lat": 0.0, "name": "c15ad03870f16a2f1728049da833cfd2", "is_disabled": 0, "rental_uris": {"android": "https://dc.lft.to/lastmile_qr_scan", "ios": "https://dc.lft.to/lastmile_qr_scan"}, "fusion_lon": 0.0, "lat": 38.90765966666667, "bike_id": "c15ad03870f16a2f1728049da833cfd2", "type": "electric_scooter", "is_reserved": 0, "lon": -77.0559475}, {"fusion_lat": 0.0, "name": "3e20ed64521e2e0c68a3d97904c30b34", "is_disabled": 0, "rental_uris": {"android": "https://dc.lft.to/lastmile_qr_scan", "ios": "https://dc.lft.to/lastmile_qr_scan"}, "fusion_lon": 0.0, "lat": 38.90470333333333, "bike_id": "3e20ed64521e2e0c68a3d97904c30b34", "type": "electric_scooter", "is_reserved": 0, "lon": -77.03243183333333}, {"fusion_lat": 0.0, "name": "0e94b4371b907f1f23d22a881e6b0c09", "is_disabled": 0, "rental_uris": {"android": "https://dc.lft.to/lastmile_qr_scan", "ios": "https://dc.lft.to/lastmile_qr_scan"}, "fusion_lon": 0.0, "lat": 38.914357833333334, "bike_id": "0e94b4371b907f1f23d22a881e6b0c09", "type": "electric_scooter", "is_reserved": 0, "lon": -77.02201033333333}, {"fusion_lat": 0.0, "name": "90832312ea841f67ea618e0f4b9ed0bb", "is_disabled": 0, "rental_uris": {"android": "https://dc.lft.to/lastmile_qr_scan", "ios": "https://dc.lft.to/lastmile_qr_scan"}, "fusion_lon": 0.0, "lat": 38.90681033333333, "bike_id": "90832312ea841f67ea618e0f4b9ed0bb", "type": "electric_scooter", "is_reserved": 0, "lon": -77.07212416666667}, {"fusion_lat": 0.0, "name": "0bd1b0a02aaf9826d9525b410778bbe9", "is_disabled": 0, "rental_uris": {"android": "https://dc.lft.to/lastmile_qr_scan", "ios": "https://dc.lft.to/lastmile_qr_scan"}, "fusion_lon": 0.0, "lat": 38.91269, "bike_id": "0bd1b0a02aaf9826d9525b410778bbe9", "type": "electric_scooter", "is_reserved": 0, "lon": -77.0383395}, {"fusion_lat": 0.0, "name": "de0febbc7bae053ee5544fb1f6912fb2", "is_disabled": 0, "rental_uris": {"android": "https://dc.lft.to/lastmile_qr_scan", "ios": "https://dc.lft.to/lastmile_qr_scan"}, "fusion_lon": 0.0, "lat": 38.900627, "bike_id": "de0febbc7bae053ee5544fb1f6912fb2", "type": "electric_scooter", "is_reserved": 0, "lon": -76.9338715}, {"fusion_lat": 0.0, "name": "05eb27958bd2a4e877bda3ef482ae8b5", "is_disabled": 0, "rental_uris": {"android": "https://dc.lft.to/lastmile_qr_scan", "ios": "https://dc.lft.to/lastmile_qr_scan"}, "fusion_lon": 0.0, "lat": 38.915520666666666, "bike_id": "05eb27958bd2a4e877bda3ef482ae8b5", "type": "electric_scooter", "is_reserved": 0, "lon": -77.01134133333333}, {"fusion_lat": 0.0, "name": "29b6e3aa478e61eb2d138d16fc7fb76c", "is_disabled": 0, "rental_uris": {"android": "https://dc.lft.to/lastmile_qr_scan", "ios": "https://dc.lft.to/lastmile_qr_scan"}, "fusion_lon": 0.0, "lat": 38.83519416666667, "bike_id": "29b6e3aa478e61eb2d138d16fc7fb76c", "type": "electric_bike", "is_reserved": 0, "lon": -76.986756}, {"fusion_lat": 0.0, "name": "982b640e4c34a40b6c0d06096cb61315", "is_disabled": 0, "rental_uris": {"android": "https://dc.lft.to/lastmile_qr_scan", "ios": "https://dc.lft.to/lastmile_qr_scan"}, "fusion_lon": 0.0, "lat": 38.939958, "bike_id": "982b640e4c34a40b6c0d06096cb61315", "type": "electric_scooter", "is_reserved": 0, "lon": -77.0842495}, {"fusion_lat": 0.0, "name": "b940fb253ec99e5e629eead9741e2fd3", "is_disabled": 0, "rental_uris": {"android": "https://dc.lft.to/lastmile_qr_scan", "ios": "https://dc.lft.to/lastmile_qr_scan"}, "fusion_lon": 0.0, "lat": 38.92120416666667, "bike_id": "b940fb253ec99e5e629eead9741e2fd3", "type": "electric_scooter", "is_reserved": 0, "lon": -77.01209433333334}, {"fusion_lat": 0.0, "name": "959f51cba3d5e29166cb5a3f57323ee8", "is_disabled": 0, "rental_uris": {"android": "https://dc.lft.to/lastmile_qr_scan", "ios": "https://dc.lft.to/lastmile_qr_scan"}, "fusion_lon": 0.0, "lat": 39.00312366666667, "bike_id": "959f51cba3d5e29166cb5a3f57323ee8", "type": "electric_bike", "is_reserved": 0, "lon": -76.90330416666667}, {"fusion_lat": 0.0, "name": "e3148823578734158d4ed12a1ae58838", "is_disabled": 0, "rental_uris": {"android": "https://dc.lft.to/lastmile_qr_scan", "ios": "https://dc.lft.to/lastmile_qr_scan"}, "fusion_lon": 0.0, "lat": 38.91568216666667, "bike_id": "e3148823578734158d4ed12a1ae58838", "type": "electric_scooter", "is_reserved": 0, "lon": -77.0364135}, {"fusion_lat": 0.0, "name": "f7a6c9c722cf47caf3acf38dd52813cd", "is_disabled": 0, "rental_uris": {"android": "https://dc.lft.to/lastmile_qr_scan", "ios": "https://dc.lft.to/lastmile_qr_scan"}, "fusion_lon": 0.0, "lat": 38.945236666666666, "bike_id": "f7a6c9c722cf47caf3acf38dd52813cd", "type": "electric_scooter", "is_reserved": 0, "lon": -77.020889}, {"fusion_lat": 0.0, "name": "c108704d03c7e6c11064d540fa9c6ece", "is_disabled": 0, "rental_uris": {"android": "https://dc.lft.to/lastmile_qr_scan", "ios": "https://dc.lft.to/lastmile_qr_scan"}, "fusion_lon": 0.0, "lat": 38.91922016666667, "bike_id": "c108704d03c7e6c11064d540fa9c6ece", "type": "electric_scooter", "is_reserved": 0, "lon": -77.012123}, {"fusion_lat": 0.0, "name": "fc1c4f0da18627b143b0b88bd24480a6", "is_disabled": 0, "rental_uris": {"android": "https://dc.lft.to/lastmile_qr_scan", "ios": "https://dc.lft.to/lastmile_qr_scan"}, "fusion_lon": 0.0, "lat": 38.9562445, "bike_id": "fc1c4f0da18627b143b0b88bd24480a6", "type": "electric_bike", "is_reserved": 0, "lon": -76.938773}, {"fusion_lat": 0.0, "name": "7eb538b772ab7dda92f1b9632b229e7f", "is_disabled": 0, "rental_uris": {"android": "https://dc.lft.to/lastmile_qr_scan", "ios": "https://dc.lft.to/lastmile_qr_scan"}, "fusion_lon": 0.0, "lat": 38.91814133333333, "bike_id": "7eb538b772ab7dda92f1b9632b229e7f", "type": "electric_scooter", "is_reserved": 0, "lon": -77.02473016666667}, {"fusion_lat": 0.0, "name": "47af1cd3f5916cd21bf0e10d8cd107ef", "is_disabled": 0, "rental_uris": {"android": "https://dc.lft.to/lastmile_qr_scan", "ios": "https://dc.lft.to/lastmile_qr_scan"}, "fusion_lon": 0.0, "lat": 38.90258983333333, "bike_id": "47af1cd3f5916cd21bf0e10d8cd107ef", "type": "electric_scooter", "is_reserved": 0, "lon": -77.02779833333334}, {"fusion_lat": 0.0, "name": "496242f1bf3d4ad50ab6d21d836e6873", "is_disabled": 0, "rental_uris": {"android": "https://dc.lft.to/lastmile_qr_scan", "ios": "https://dc.lft.to/lastmile_qr_scan"}, "fusion_lon": 0.0, "lat": 38.9233255, "bike_id": "496242f1bf3d4ad50ab6d21d836e6873", "type": "electric_scooter", "is_reserved": 0, "lon": -77.05347466666667}, {"fusion_lat": 0.0, "name": "4710d46e813d194a204996a9d94e2b0e", "is_disabled": 0, "rental_uris": {"android": "https://dc.lft.to/lastmile_qr_scan", "ios": "https://dc.lft.to/lastmile_qr_scan"}, "fusion_lon": 0.0, "lat": 38.937028833333336, "bike_id": "4710d46e813d194a204996a9d94e2b0e", "type": "electric_scooter", "is_reserved": 0, "lon": -77.0610355}, {"fusion_lat": 0.0, "name": "c7c42f4a6e67c644e3e5029289fffd1e", "is_disabled": 0, "rental_uris": {"android": "https://dc.lft.to/lastmile_qr_scan", "ios": "https://dc.lft.to/lastmile_qr_scan"}, "fusion_lon": 0.0, "lat": 38.9008265, "bike_id": "c7c42f4a6e67c644e3e5029289fffd1e", "type": "electric_scooter", "is_reserved": 0, "lon": -77.02018116666666}, {"fusion_lat": 0.0, "name": "b5f19c32c9e8c87f9ea6ecd4428accef", "is_disabled": 0, "rental_uris": {"android": "https://dc.lft.to/lastmile_qr_scan", "ios": "https://dc.lft.to/lastmile_qr_scan"}, "fusion_lon": 0.0, "lat": 38.876303166666666, "bike_id": "b5f19c32c9e8c87f9ea6ecd4428accef", "type": "electric_scooter", "is_reserved": 0, "lon": -77.0082465}, {"fusion_lat": 0.0, "name": "dd4661774485e15e00047cbdd35da6ec", "is_disabled": 0, "rental_uris": {"android": "https://dc.lft.to/lastmile_qr_scan", "ios": "https://dc.lft.to/lastmile_qr_scan"}, "fusion_lon": 0.0, "lat": 38.92286283333333, "bike_id": "dd4661774485e15e00047cbdd35da6ec", "type": "electric_scooter", "is_reserved": 0, "lon": -77.03661566666666}, {"fusion_lat": 0.0, "name": "b18e65dd6ba54288f2e35b7f4c5ea629", "is_disabled": 0, "rental_uris": {"android": "https://dc.lft.to/lastmile_qr_scan", "ios": "https://dc.lft.to/lastmile_qr_scan"}, "fusion_lon": 0.0, "lat": 38.91935316666667, "bike_id": "b18e65dd6ba54288f2e35b7f4c5ea629", "type": "electric_scooter", "is_reserved": 0, "lon": -77.024182}, {"fusion_lat": 0.0, "name": "adcabcfc8f6d6fece72fcacfe8a3c4ff", "is_disabled": 0, "rental_uris": {"android": "https://dc.lft.to/lastmile_qr_scan", "ios": "https://dc.lft.to/lastmile_qr_scan"}, "fusion_lon": 0.0, "lat": 38.89909166666666, "bike_id": "adcabcfc8f6d6fece72fcacfe8a3c4ff", "type": "electric_scooter", "is_reserved": 0, "lon": -76.933545}, {"fusion_lat": 0.0, "name": "c2e5fe26d6cc9f25d15c31f207e372d5", "is_disabled": 0, "rental_uris": {"android": "https://dc.lft.to/lastmile_qr_scan", "ios": "https://dc.lft.to/lastmile_qr_scan"}, "fusion_lon": 0.0, "lat": 38.934051833333335, "bike_id": "c2e5fe26d6cc9f25d15c31f207e372d5", "type": "electric_scooter", "is_reserved": 0, "lon": -77.04157516666666}, {"fusion_lat": 0.0, "name": "72d3a6b90607670630997b1c3be6c97f", "is_disabled": 0, "rental_uris": {"android": "https://dc.lft.to/lastmile_qr_scan", "ios": "https://dc.lft.to/lastmile_qr_scan"}, "fusion_lon": 0.0, "lat": 38.91847166666667, "bike_id": "72d3a6b90607670630997b1c3be6c97f", "type": "electric_scooter", "is_reserved": 0, "lon": -77.0245505}, {"fusion_lat": 0.0, "name": "501c81fb1180f9e00a42b12c55b05806", "is_disabled": 0, "rental_uris": {"android": "https://dc.lft.to/lastmile_qr_scan", "ios": "https://dc.lft.to/lastmile_qr_scan"}, "fusion_lon": 0.0, "lat": 38.938546, "bike_id": "501c81fb1180f9e00a42b12c55b05806", "type": "electric_scooter", "is_reserved": 0, "lon": -77.03429383333334}, {"fusion_lat": 0.0, "name": "cfce850ae5882a3b55f1a9f068eaa5e9", "is_disabled": 0, "rental_uris": {"android": "https://dc.lft.to/lastmile_qr_scan", "ios": "https://dc.lft.to/lastmile_qr_scan"}, "fusion_lon": 0.0, "lat": 38.9497715, "bike_id": "cfce850ae5882a3b55f1a9f068eaa5e9", "type": "electric_scooter", "is_reserved": 0, "lon": -77.0244575}, {"fusion_lat": 0.0, "name": "acf2fe20b8603f194821eee466cb51a1", "is_disabled": 0, "rental_uris": {"android": "https://dc.lft.to/lastmile_qr_scan", "ios": "https://dc.lft.to/lastmile_qr_scan"}, "fusion_lon": 0.0, "lat": 38.9345125, "bike_id": "acf2fe20b8603f194821eee466cb51a1", "type": "electric_scooter", "is_reserved": 0, "lon": -77.03874116666667}, {"fusion_lat": 0.0, "name": "53f2a7d823f859fb7a8dfb85ad4aca97", "is_disabled": 0, "rental_uris": {"android": "https://dc.lft.to/lastmile_qr_scan", "ios": "https://dc.lft.to/lastmile_qr_scan"}, "fusion_lon": 0.0, "lat": 38.91820383333334, "bike_id": "53f2a7d823f859fb7a8dfb85ad4aca97", "type": "electric_scooter", "is_reserved": 0, "lon": -77.02713716666666}, {"fusion_lat": 0.0, "name": "902dfbade7d5b0042c5839095854e4b2", "is_disabled": 0, "rental_uris": {"android": "https://dc.lft.to/lastmile_qr_scan", "ios": "https://dc.lft.to/lastmile_qr_scan"}, "fusion_lon": 0.0, "lat": 38.900012, "bike_id": "902dfbade7d5b0042c5839095854e4b2", "type": "electric_scooter", "is_reserved": 0, "lon": -77.02284566666667}, {"fusion_lat": 0.0, "name": "ab50dda1a090e71502bdbc56fab7d760", "is_disabled": 0, "rental_uris": {"android": "https://dc.lft.to/lastmile_qr_scan", "ios": "https://dc.lft.to/lastmile_qr_scan"}, "fusion_lon": 0.0, "lat": 38.94837166666667, "bike_id": "ab50dda1a090e71502bdbc56fab7d760", "type": "electric_scooter", "is_reserved": 0, "lon": -77.02570833333333}, {"fusion_lat": 0.0, "name": "eb49d5d3b83d2f547678111ab2a0d31f", "is_disabled": 0, "rental_uris": {"android": "https://dc.lft.to/lastmile_qr_scan", "ios": "https://dc.lft.to/lastmile_qr_scan"}, "fusion_lon": 0.0, "lat": 38.919088333333335, "bike_id": "eb49d5d3b83d2f547678111ab2a0d31f", "type": "electric_scooter", "is_reserved": 0, "lon": -77.033765}, {"fusion_lat": 0.0, "name": "6fd8fa1648b3413a0f6ef3bc44c5c925", "is_disabled": 0, "rental_uris": {"android": "https://dc.lft.to/lastmile_qr_scan", "ios": "https://dc.lft.to/lastmile_qr_scan"}, "fusion_lon": 0.0, "lat": 38.91119116666667, "bike_id": "6fd8fa1648b3413a0f6ef3bc44c5c925", "type": "electric_scooter", "is_reserved": 0, "lon": -77.03828516666667}, {"fusion_lat": 0.0, "name": "bcc87d323c4872a4b6d68ce04eeacbd0", "is_disabled": 0, "rental_uris": {"android": "https://dc.lft.to/lastmile_qr_scan", "ios": "https://dc.lft.to/lastmile_qr_scan"}, "fusion_lon": 0.0, "lat": 38.879559666666665, "bike_id": "bcc87d323c4872a4b6d68ce04eeacbd0", "type": "electric_scooter", "is_reserved": 0, "lon": -77.00835116666667}, {"fusion_lat": 0.0, "name": "0b095d8a623ad1df92ac72aeec0fd182", "is_disabled": 0, "rental_uris": {"android": "https://dc.lft.to/lastmile_qr_scan", "ios": "https://dc.lft.to/lastmile_qr_scan"}, "fusion_lon": 0.0, "lat": 38.962352, "bike_id": "0b095d8a623ad1df92ac72aeec0fd182", "type": "electric_bike", "is_reserved": 0, "lon": -76.92799666666667}, {"fusion_lat": 0.0, "name": "6f3f71631b74fdf55a276d186328eeb0", "is_disabled": 0, "rental_uris": {"android": "https://dc.lft.to/lastmile_qr_scan", "ios": "https://dc.lft.to/lastmile_qr_scan"}, "fusion_lon": 0.0, "lat": 38.903785, "bike_id": "6f3f71631b74fdf55a276d186328eeb0", "type": "electric_scooter", "is_reserved": 0, "lon": -77.037975}, {"fusion_lat": 0.0, "name": "2e94032257f64a004202e76ac434367c", "is_disabled": 0, "rental_uris": {"android": "https://dc.lft.to/lastmile_qr_scan", "ios": "https://dc.lft.to/lastmile_qr_scan"}, "fusion_lon": 0.0, "lat": 38.9012115, "bike_id": "2e94032257f64a004202e76ac434367c", "type": "electric_scooter", "is_reserved": 0, "lon": -77.04176583333333}, {"fusion_lat": 0.0, "name": "46b0b6b5ddfbb6305a3ce8f263662e7e", "is_disabled": 0, "rental_uris": {"android": "https://dc.lft.to/lastmile_qr_scan", "ios": "https://dc.lft.to/lastmile_qr_scan"}, "fusion_lon": 0.0, "lat": 38.906016, "bike_id": "46b0b6b5ddfbb6305a3ce8f263662e7e", "type": "electric_scooter", "is_reserved": 0, "lon": -77.07152533333333}, {"fusion_lat": 0.0, "name": "473ec7f5a99a531128a42d5fd63a6854", "is_disabled": 0, "rental_uris": {"android": "https://dc.lft.to/lastmile_qr_scan", "ios": "https://dc.lft.to/lastmile_qr_scan"}, "fusion_lon": 0.0, "lat": 38.95960783333334, "bike_id": "473ec7f5a99a531128a42d5fd63a6854", "type": "electric_bike", "is_reserved": 0, "lon": -77.03059516666667}, {"fusion_lat": 0.0, "name": "4127e0f09ab6fa665c4cc4911a83a76e", "is_disabled": 0, "rental_uris": {"android": "https://dc.lft.to/lastmile_qr_scan", "ios": "https://dc.lft.to/lastmile_qr_scan"}, "fusion_lon": 0.0, "lat": 38.920434666666665, "bike_id": "4127e0f09ab6fa665c4cc4911a83a76e", "type": "electric_scooter", "is_reserved": 0, "lon": -77.0341455}, {"fusion_lat": 0.0, "name": "d2631218e5e8e646578e771ba855c2ee", "is_disabled": 0, "rental_uris": {"android": "https://dc.lft.to/lastmile_qr_scan", "ios": "https://dc.lft.to/lastmile_qr_scan"}, "fusion_lon": 0.0, "lat": 38.92736, "bike_id": "d2631218e5e8e646578e771ba855c2ee", "type": "electric_scooter", "is_reserved": 0, "lon": -77.02280216666666}, {"fusion_lat": 0.0, "name": "54f785e22d7806dba1d25bd7665c84ae", "is_disabled": 0, "rental_uris": {"android": "https://dc.lft.to/lastmile_qr_scan", "ios": "https://dc.lft.to/lastmile_qr_scan"}, "fusion_lon": 0.0, "lat": 38.938750166666665, "bike_id": "54f785e22d7806dba1d25bd7665c84ae", "type": "electric_scooter", "is_reserved": 0, "lon": -77.02920883333333}, {"fusion_lat": 0.0, "name": "c0d9b73e839bac14a8ded1ef0aa79d76", "is_disabled": 0, "rental_uris": {"android": "https://dc.lft.to/lastmile_qr_scan", "ios": "https://dc.lft.to/lastmile_qr_scan"}, "fusion_lon": 0.0, "lat": 38.92034183333333, "bike_id": "c0d9b73e839bac14a8ded1ef0aa79d76", "type": "electric_scooter", "is_reserved": 0, "lon": -76.98998}, {"fusion_lat": 0.0, "name": "b6661be101aa58433bdea20a5a249d8e", "is_disabled": 0, "rental_uris": {"android": "https://dc.lft.to/lastmile_qr_scan", "ios": "https://dc.lft.to/lastmile_qr_scan"}, "fusion_lon": 0.0, "lat": 38.895989166666666, "bike_id": "b6661be101aa58433bdea20a5a249d8e", "type": "electric_scooter", "is_reserved": 0, "lon": -77.02134116666667}, {"fusion_lat": 0.0, "name": "fac1c8ad5ada7f6e3b63eef499400a6b", "is_disabled": 0, "rental_uris": {"android": "https://dc.lft.to/lastmile_qr_scan", "ios": "https://dc.lft.to/lastmile_qr_scan"}, "fusion_lon": 0.0, "lat": 38.956648, "bike_id": "fac1c8ad5ada7f6e3b63eef499400a6b", "type": "electric_bike", "is_reserved": 0, "lon": -77.01127833333334}, {"fusion_lat": 0.0, "name": "5c2bb04f23a267321f6fb4638cb2d17e", "is_disabled": 0, "rental_uris": {"android": "https://dc.lft.to/lastmile_qr_scan", "ios": "https://dc.lft.to/lastmile_qr_scan"}, "fusion_lon": 0.0, "lat": 38.906765666666665, "bike_id": "5c2bb04f23a267321f6fb4638cb2d17e", "type": "electric_scooter", "is_reserved": 0, "lon": -77.04474833333333}, {"fusion_lat": 0.0, "name": "f5697973434d455a371f582088b5edbe", "is_disabled": 0, "rental_uris": {"android": "https://dc.lft.to/lastmile_qr_scan", "ios": "https://dc.lft.to/lastmile_qr_scan"}, "fusion_lon": 0.0, "lat": 38.892298333333336, "bike_id": "f5697973434d455a371f582088b5edbe", "type": "electric_scooter", "is_reserved": 0, "lon": -77.05000716666666}, {"fusion_lat": 0.0, "name": "83f7474134d130c4d935f5804253d4f1", "is_disabled": 0, "rental_uris": {"android": "https://dc.lft.to/lastmile_qr_scan", "ios": "https://dc.lft.to/lastmile_qr_scan"}, "fusion_lon": 0.0, "lat": 38.93375666666667, "bike_id": "83f7474134d130c4d935f5804253d4f1", "type": "electric_scooter", "is_reserved": 0, "lon": -77.03252433333333}, {"fusion_lat": 0.0, "name": "3e4ff56d9c700414dcb6a5a88c872f6c", "is_disabled": 0, "rental_uris": {"android": "https://dc.lft.to/lastmile_qr_scan", "ios": "https://dc.lft.to/lastmile_qr_scan"}, "fusion_lon": 0.0, "lat": 38.90844333333333, "bike_id": "3e4ff56d9c700414dcb6a5a88c872f6c", "type": "electric_scooter", "is_reserved": 0, "lon": -77.03292733333333}, {"fusion_lat": 0.0, "name": "c8742dbd661010b13d53e2a12ed3e8ee", "is_disabled": 0, "rental_uris": {"android": "https://dc.lft.to/lastmile_qr_scan", "ios": "https://dc.lft.to/lastmile_qr_scan"}, "fusion_lon": 0.0, "lat": 39.03434566666667, "bike_id": "c8742dbd661010b13d53e2a12ed3e8ee", "type": "electric_bike", "is_reserved": 0, "lon": -77.043139}, {"fusion_lat": 0.0, "name": "5bf0aafd627939aefc33a0701a8c00e0", "is_disabled": 0, "rental_uris": {"android": "https://dc.lft.to/lastmile_qr_scan", "ios": "https://dc.lft.to/lastmile_qr_scan"}, "fusion_lon": 0.0, "lat": 38.88719616666667, "bike_id": "5bf0aafd627939aefc33a0701a8c00e0", "type": "electric_scooter", "is_reserved": 0, "lon": -77.0258385}, {"fusion_lat": 0.0, "name": "473f3bee5a1061d32eee4c66188fc092", "is_disabled": 0, "rental_uris": {"android": "https://dc.lft.to/lastmile_qr_scan", "ios": "https://dc.lft.to/lastmile_qr_scan"}, "fusion_lon": 0.0, "lat": 38.93864633333333, "bike_id": "473f3bee5a1061d32eee4c66188fc092", "type": "electric_scooter", "is_reserved": 0, "lon": -77.03208433333333}, {"fusion_lat": 0.0, "name": "2e4cc03eaf6243870af89c0f8dc9e2a5", "is_disabled": 0, "rental_uris": {"android": "https://dc.lft.to/lastmile_qr_scan", "ios": "https://dc.lft.to/lastmile_qr_scan"}, "fusion_lon": 0.0, "lat": 38.873861833333336, "bike_id": "2e4cc03eaf6243870af89c0f8dc9e2a5", "type": "electric_scooter", "is_reserved": 0, "lon": -77.00042083333334}, {"fusion_lat": 0.0, "name": "7aff22d798098e7e53b04d95ed7deb1b", "is_disabled": 0, "rental_uris": {"android": "https://dc.lft.to/lastmile_qr_scan", "ios": "https://dc.lft.to/lastmile_qr_scan"}, "fusion_lon": 0.0, "lat": 38.913743833333335, "bike_id": "7aff22d798098e7e53b04d95ed7deb1b", "type": "electric_scooter", "is_reserved": 0, "lon": -77.01996233333334}, {"fusion_lat": 0.0, "name": "10111a265d2718719dc2fe5b727299a8", "is_disabled": 0, "rental_uris": {"android": "https://dc.lft.to/lastmile_qr_scan", "ios": "https://dc.lft.to/lastmile_qr_scan"}, "fusion_lon": 0.0, "lat": 38.91922916666667, "bike_id": "10111a265d2718719dc2fe5b727299a8", "type": "electric_scooter", "is_reserved": 0, "lon": -77.024141}, {"fusion_lat": 0.0, "name": "df0fd299bf1fb70655db75521c4661aa", "is_disabled": 0, "rental_uris": {"android": "https://dc.lft.to/lastmile_qr_scan", "ios": "https://dc.lft.to/lastmile_qr_scan"}, "fusion_lon": 0.0, "lat": 38.900331666666666, "bike_id": "df0fd299bf1fb70655db75521c4661aa", "type": "electric_scooter", "is_reserved": 0, "lon": -77.044677}, {"fusion_lat": 0.0, "name": "0e92446fb289ea7d0db08f4a868f98af", "is_disabled": 0, "rental_uris": {"android": "https://dc.lft.to/lastmile_qr_scan", "ios": "https://dc.lft.to/lastmile_qr_scan"}, "fusion_lon": 0.0, "lat": 38.8783365, "bike_id": "0e92446fb289ea7d0db08f4a868f98af", "type": "electric_scooter", "is_reserved": 0, "lon": -76.99038266666666}, {"fusion_lat": 0.0, "name": "322a3d0d7c8d7c196a3bf9d1331b4a07", "is_disabled": 0, "rental_uris": {"android": "https://dc.lft.to/lastmile_qr_scan", "ios": "https://dc.lft.to/lastmile_qr_scan"}, "fusion_lon": 0.0, "lat": 38.91421966666667, "bike_id": "322a3d0d7c8d7c196a3bf9d1331b4a07", "type": "electric_scooter", "is_reserved": 0, "lon": -76.984378}, {"fusion_lat": 0.0, "name": "58e21968579abf98b769f0f7e0c849f0", "is_disabled": 0, "rental_uris": {"android": "https://dc.lft.to/lastmile_qr_scan", "ios": "https://dc.lft.to/lastmile_qr_scan"}, "fusion_lon": 0.0, "lat": 38.85363016666667, "bike_id": "58e21968579abf98b769f0f7e0c849f0", "type": "electric_bike", "is_reserved": 0, "lon": -77.1151095}, {"fusion_lat": 0.0, "name": "85ac9990fef27cb12fd6b276864da583", "is_disabled": 0, "rental_uris": {"android": "https://dc.lft.to/lastmile_qr_scan", "ios": "https://dc.lft.to/lastmile_qr_scan"}, "fusion_lon": 0.0, "lat": 38.92272233333333, "bike_id": "85ac9990fef27cb12fd6b276864da583", "type": "electric_scooter", "is_reserved": 0, "lon": -77.042865}, {"fusion_lat": 0.0, "name": "7103019428ad8e3695c4cd6c68676974", "is_disabled": 0, "rental_uris": {"android": "https://dc.lft.to/lastmile_qr_scan", "ios": "https://dc.lft.to/lastmile_qr_scan"}, "fusion_lon": 0.0, "lat": 38.897430166666666, "bike_id": "7103019428ad8e3695c4cd6c68676974", "type": "electric_scooter", "is_reserved": 0, "lon": -77.02683916666666}, {"fusion_lat": 0.0, "name": "4af4395b734fcb4ede72c9c17078811e", "is_disabled": 0, "rental_uris": {"android": "https://dc.lft.to/lastmile_qr_scan", "ios": "https://dc.lft.to/lastmile_qr_scan"}, "fusion_lon": 0.0, "lat": 38.8772705, "bike_id": "4af4395b734fcb4ede72c9c17078811e", "type": "electric_scooter", "is_reserved": 0, "lon": -76.99661833333333}, {"fusion_lat": 0.0, "name": "053c6b74968e5e67c506533105602769", "is_disabled": 0, "rental_uris": {"android": "https://dc.lft.to/lastmile_qr_scan", "ios": "https://dc.lft.to/lastmile_qr_scan"}, "fusion_lon": 0.0, "lat": 38.918167833333335, "bike_id": "053c6b74968e5e67c506533105602769", "type": "electric_scooter", "is_reserved": 0, "lon": -77.03143366666667}, {"fusion_lat": 0.0, "name": "4cc8ddee093c160b14d0e8fc98237959", "is_disabled": 0, "rental_uris": {"android": "https://dc.lft.to/lastmile_qr_scan", "ios": "https://dc.lft.to/lastmile_qr_scan"}, "fusion_lon": 0.0, "lat": 38.8830275, "bike_id": "4cc8ddee093c160b14d0e8fc98237959", "type": "electric_scooter", "is_reserved": 0, "lon": -77.017682}, {"fusion_lat": 0.0, "name": "5c8a31838bda1bf6236224ff59ebe7a3", "is_disabled": 0, "rental_uris": {"android": "https://dc.lft.to/lastmile_qr_scan", "ios": "https://dc.lft.to/lastmile_qr_scan"}, "fusion_lon": 0.0, "lat": 38.911027, "bike_id": "5c8a31838bda1bf6236224ff59ebe7a3", "type": "electric_scooter", "is_reserved": 0, "lon": -77.07350666666666}, {"fusion_lat": 0.0, "name": "97811dcefd88099a1bb439a13c3d3e76", "is_disabled": 0, "rental_uris": {"android": "https://dc.lft.to/lastmile_qr_scan", "ios": "https://dc.lft.to/lastmile_qr_scan"}, "fusion_lon": 0.0, "lat": 38.90830866666667, "bike_id": "97811dcefd88099a1bb439a13c3d3e76", "type": "electric_scooter", "is_reserved": 0, "lon": -77.03668483333334}, {"fusion_lat": 0.0, "name": "b09f3351bf0d14f2ea56d6d48b42afc9", "is_disabled": 0, "rental_uris": {"android": "https://dc.lft.to/lastmile_qr_scan", "ios": "https://dc.lft.to/lastmile_qr_scan"}, "fusion_lon": 0.0, "lat": 38.876642333333336, "bike_id": "b09f3351bf0d14f2ea56d6d48b42afc9", "type": "electric_scooter", "is_reserved": 0, "lon": -77.00806683333333}, {"fusion_lat": 0.0, "name": "229d18dfda33417a1b42ccb6b9a51eff", "is_disabled": 0, "rental_uris": {"android": "https://dc.lft.to/lastmile_qr_scan", "ios": "https://dc.lft.to/lastmile_qr_scan"}, "fusion_lon": 0.0, "lat": 38.899514833333335, "bike_id": "229d18dfda33417a1b42ccb6b9a51eff", "type": "electric_scooter", "is_reserved": 0, "lon": -77.05705266666666}, {"fusion_lat": 0.0, "name": "17c700fca52fa699e80feb5cbf58489e", "is_disabled": 0, "rental_uris": {"android": "https://dc.lft.to/lastmile_qr_scan", "ios": "https://dc.lft.to/lastmile_qr_scan"}, "fusion_lon": 0.0, "lat": 38.88386533333333, "bike_id": "17c700fca52fa699e80feb5cbf58489e", "type": "electric_scooter", "is_reserved": 0, "lon": -77.02589}, {"fusion_lat": 0.0, "name": "d9cf35971107e40c65ca48d1731f2c9e", "is_disabled": 0, "rental_uris": {"android": "https://dc.lft.to/lastmile_qr_scan", "ios": "https://dc.lft.to/lastmile_qr_scan"}, "fusion_lon": 0.0, "lat": 38.8897715, "bike_id": "d9cf35971107e40c65ca48d1731f2c9e", "type": "electric_scooter", "is_reserved": 0, "lon": -77.00336366666667}, {"fusion_lat": 0.0, "name": "270c70ee770a980ca2116322011c0d5a", "is_disabled": 0, "rental_uris": {"android": "https://dc.lft.to/lastmile_qr_scan", "ios": "https://dc.lft.to/lastmile_qr_scan"}, "fusion_lon": 0.0, "lat": 38.89680216666667, "bike_id": "270c70ee770a980ca2116322011c0d5a", "type": "electric_scooter", "is_reserved": 0, "lon": -77.0248175}, {"fusion_lat": 0.0, "name": "5bc47f2f7753d59a9e6229d5780e3098", "is_disabled": 0, "rental_uris": {"android": "https://dc.lft.to/lastmile_qr_scan", "ios": "https://dc.lft.to/lastmile_qr_scan"}, "fusion_lon": 0.0, "lat": 38.91818833333333, "bike_id": "5bc47f2f7753d59a9e6229d5780e3098", "type": "electric_scooter", "is_reserved": 0, "lon": -77.02709616666667}, {"fusion_lat": 0.0, "name": "9b0161591c8a832f8562ee9ba467da8b", "is_disabled": 0, "rental_uris": {"android": "https://dc.lft.to/lastmile_qr_scan", "ios": "https://dc.lft.to/lastmile_qr_scan"}, "fusion_lon": 0.0, "lat": 38.9111995, "bike_id": "9b0161591c8a832f8562ee9ba467da8b", "type": "electric_scooter", "is_reserved": 0, "lon": -77.011584}, {"fusion_lat": 0.0, "name": "ab854c5d0b1d5b5fb25e0e3f9a71c99a", "is_disabled": 0, "rental_uris": {"android": "https://dc.lft.to/lastmile_qr_scan", "ios": "https://dc.lft.to/lastmile_qr_scan"}, "fusion_lon": 0.0, "lat": 38.901230166666664, "bike_id": "ab854c5d0b1d5b5fb25e0e3f9a71c99a", "type": "electric_scooter", "is_reserved": 0, "lon": -77.04155883333334}, {"fusion_lat": 0.0, "name": "17e9ed3357a021f09c958008c23e0b0c", "is_disabled": 0, "rental_uris": {"android": "https://dc.lft.to/lastmile_qr_scan", "ios": "https://dc.lft.to/lastmile_qr_scan"}, "fusion_lon": 0.0, "lat": 38.90432233333333, "bike_id": "17e9ed3357a021f09c958008c23e0b0c", "type": "electric_scooter", "is_reserved": 0, "lon": -77.02590533333333}, {"fusion_lat": 0.0, "name": "39f6565fe7e7e6027daa9dae2ce2c1c2", "is_disabled": 0, "rental_uris": {"android": "https://dc.lft.to/lastmile_qr_scan", "ios": "https://dc.lft.to/lastmile_qr_scan"}, "fusion_lon": 0.0, "lat": 38.8922065, "bike_id": "39f6565fe7e7e6027daa9dae2ce2c1c2", "type": "electric_scooter", "is_reserved": 0, "lon": -77.0321545}, {"fusion_lat": 0.0, "name": "b030ab784303df31c04445db93c0e55d", "is_disabled": 0, "rental_uris": {"android": "https://dc.lft.to/lastmile_qr_scan", "ios": "https://dc.lft.to/lastmile_qr_scan"}, "fusion_lon": 0.0, "lat": 38.909139, "bike_id": "b030ab784303df31c04445db93c0e55d", "type": "electric_scooter", "is_reserved": 0, "lon": -77.0228075}, {"fusion_lat": 0.0, "name": "9a21c364620207c982f711c60cd71c2a", "is_disabled": 0, "rental_uris": {"android": "https://dc.lft.to/lastmile_qr_scan", "ios": "https://dc.lft.to/lastmile_qr_scan"}, "fusion_lon": 0.0, "lat": 38.923140333333336, "bike_id": "9a21c364620207c982f711c60cd71c2a", "type": "electric_scooter", "is_reserved": 0, "lon": -77.041344}, {"fusion_lat": 0.0, "name": "070e3f6b93d2615109ac418b9e2a2a2d", "is_disabled": 0, "rental_uris": {"android": "https://dc.lft.to/lastmile_qr_scan", "ios": "https://dc.lft.to/lastmile_qr_scan"}, "fusion_lon": 0.0, "lat": 38.9103415, "bike_id": "070e3f6b93d2615109ac418b9e2a2a2d", "type": "electric_scooter", "is_reserved": 0, "lon": -77.03431383333333}, {"fusion_lat": 0.0, "name": "0276d7051f2b5190b2cc3e28af1a829d", "is_disabled": 0, "rental_uris": {"android": "https://dc.lft.to/lastmile_qr_scan", "ios": "https://dc.lft.to/lastmile_qr_scan"}, "fusion_lon": 0.0, "lat": 38.9192465, "bike_id": "0276d7051f2b5190b2cc3e28af1a829d", "type": "electric_scooter", "is_reserved": 0, "lon": -77.02421833333334}, {"fusion_lat": 0.0, "name": "9a7f25d150e658609b0aa0b980848c74", "is_disabled": 0, "rental_uris": {"android": "https://dc.lft.to/lastmile_qr_scan", "ios": "https://dc.lft.to/lastmile_qr_scan"}, "fusion_lon": 0.0, "lat": 38.90502516666667, "bike_id": "9a7f25d150e658609b0aa0b980848c74", "type": "electric_scooter", "is_reserved": 0, "lon": -77.029517}, {"fusion_lat": 0.0, "name": "eae7498a9a58e0f9820e503a20b99d0f", "is_disabled": 0, "rental_uris": {"android": "https://dc.lft.to/lastmile_qr_scan", "ios": "https://dc.lft.to/lastmile_qr_scan"}, "fusion_lon": 0.0, "lat": 38.90017116666667, "bike_id": "eae7498a9a58e0f9820e503a20b99d0f", "type": "electric_scooter", "is_reserved": 0, "lon": -77.0033355}, {"fusion_lat": 0.0, "name": "2ab9ed200fba3633607e1b6e1a617b42", "is_disabled": 0, "rental_uris": {"android": "https://dc.lft.to/lastmile_qr_scan", "ios": "https://dc.lft.to/lastmile_qr_scan"}, "fusion_lon": 0.0, "lat": 38.9181465, "bike_id": "2ab9ed200fba3633607e1b6e1a617b42", "type": "electric_scooter", "is_reserved": 0, "lon": -77.02476183333333}, {"fusion_lat": 0.0, "name": "8f8a538c65dac040fe1586ed18eb7565", "is_disabled": 0, "rental_uris": {"android": "https://dc.lft.to/lastmile_qr_scan", "ios": "https://dc.lft.to/lastmile_qr_scan"}, "fusion_lon": 0.0, "lat": 38.92613083333333, "bike_id": "8f8a538c65dac040fe1586ed18eb7565", "type": "electric_scooter", "is_reserved": 0, "lon": -77.07569383333333}, {"fusion_lat": 0.0, "name": "9369e1ada32eadf4a1c294d509edbdde", "is_disabled": 0, "rental_uris": {"android": "https://dc.lft.to/lastmile_qr_scan", "ios": "https://dc.lft.to/lastmile_qr_scan"}, "fusion_lon": 0.0, "lat": 38.896629833333336, "bike_id": "9369e1ada32eadf4a1c294d509edbdde", "type": "electric_scooter", "is_reserved": 0, "lon": -77.011509}, {"fusion_lat": 0.0, "name": "78024d3343079e314001f44628dc81ae", "is_disabled": 0, "rental_uris": {"android": "https://dc.lft.to/lastmile_qr_scan", "ios": "https://dc.lft.to/lastmile_qr_scan"}, "fusion_lon": 0.0, "lat": 38.916042, "bike_id": "78024d3343079e314001f44628dc81ae", "type": "electric_scooter", "is_reserved": 0, "lon": -77.04553733333333}, {"fusion_lat": 0.0, "name": "095cd2311ba6b0103b394513cb41fd6f", "is_disabled": 0, "rental_uris": {"android": "https://dc.lft.to/lastmile_qr_scan", "ios": "https://dc.lft.to/lastmile_qr_scan"}, "fusion_lon": 0.0, "lat": 38.871264833333335, "bike_id": "095cd2311ba6b0103b394513cb41fd6f", "type": "electric_scooter", "is_reserved": 0, "lon": -77.012269}, {"fusion_lat": 0.0, "name": "00be8ab654fb983444c12d178bd4b1cc", "is_disabled": 0, "rental_uris": {"android": "https://dc.lft.to/lastmile_qr_scan", "ios": "https://dc.lft.to/lastmile_qr_scan"}, "fusion_lon": 0.0, "lat": 38.91553416666667, "bike_id": "00be8ab654fb983444c12d178bd4b1cc", "type": "electric_scooter", "is_reserved": 0, "lon": -77.03863433333333}, {"fusion_lat": 0.0, "name": "f7c75c2927f156d4c4ea8878cc527947", "is_disabled": 0, "rental_uris": {"android": "https://dc.lft.to/lastmile_qr_scan", "ios": "https://dc.lft.to/lastmile_qr_scan"}, "fusion_lon": 0.0, "lat": 38.92806, "bike_id": "f7c75c2927f156d4c4ea8878cc527947", "type": "electric_scooter", "is_reserved": 0, "lon": -77.04359166666667}, {"fusion_lat": 0.0, "name": "f0f398f67947f6ae7b278b754993f6bc", "is_disabled": 0, "rental_uris": {"android": "https://dc.lft.to/lastmile_qr_scan", "ios": "https://dc.lft.to/lastmile_qr_scan"}, "fusion_lon": 0.0, "lat": 38.89807966666667, "bike_id": "f0f398f67947f6ae7b278b754993f6bc", "type": "electric_scooter", "is_reserved": 0, "lon": -77.05012616666667}, {"fusion_lat": 0.0, "name": "3331ba30df4b1863f2253e1fa0cbdffe", "is_disabled": 0, "rental_uris": {"android": "https://dc.lft.to/lastmile_qr_scan", "ios": "https://dc.lft.to/lastmile_qr_scan"}, "fusion_lon": 0.0, "lat": 38.9010895, "bike_id": "3331ba30df4b1863f2253e1fa0cbdffe", "type": "electric_scooter", "is_reserved": 0, "lon": -76.9742725}, {"fusion_lat": 0.0, "name": "9dce9ea450cb8c9172fb7bbca5820321", "is_disabled": 0, "rental_uris": {"android": "https://dc.lft.to/lastmile_qr_scan", "ios": "https://dc.lft.to/lastmile_qr_scan"}, "fusion_lon": 0.0, "lat": 38.933807333333334, "bike_id": "9dce9ea450cb8c9172fb7bbca5820321", "type": "electric_scooter", "is_reserved": 0, "lon": -77.01962033333334}, {"fusion_lat": 0.0, "name": "8faa11ab49666c2a5253b79e95475bd1", "is_disabled": 0, "rental_uris": {"android": "https://dc.lft.to/lastmile_qr_scan", "ios": "https://dc.lft.to/lastmile_qr_scan"}, "fusion_lon": 0.0, "lat": 38.904505666666665, "bike_id": "8faa11ab49666c2a5253b79e95475bd1", "type": "electric_scooter", "is_reserved": 0, "lon": -77.0585885}, {"fusion_lat": 0.0, "name": "8e897b5e14dcef9aeebf2a1e44bded65", "is_disabled": 0, "rental_uris": {"android": "https://dc.lft.to/lastmile_qr_scan", "ios": "https://dc.lft.to/lastmile_qr_scan"}, "fusion_lon": 0.0, "lat": 38.81944816666667, "bike_id": "8e897b5e14dcef9aeebf2a1e44bded65", "type": "electric_bike", "is_reserved": 0, "lon": -77.12717833333333}, {"fusion_lat": 0.0, "name": "a85541a06f9d80e8738464d7458ec3d4", "is_disabled": 0, "rental_uris": {"android": "https://dc.lft.to/lastmile_qr_scan", "ios": "https://dc.lft.to/lastmile_qr_scan"}, "fusion_lon": 0.0, "lat": 38.8783165, "bike_id": "a85541a06f9d80e8738464d7458ec3d4", "type": "electric_scooter", "is_reserved": 0, "lon": -76.96322433333333}, {"fusion_lat": 0.0, "name": "79a329ee2f03bdc65de2c5e40d70bd1d", "is_disabled": 0, "rental_uris": {"android": "https://dc.lft.to/lastmile_qr_scan", "ios": "https://dc.lft.to/lastmile_qr_scan"}, "fusion_lon": 0.0, "lat": 38.9078025, "bike_id": "79a329ee2f03bdc65de2c5e40d70bd1d", "type": "electric_scooter", "is_reserved": 0, "lon": -77.038663}, {"fusion_lat": 0.0, "name": "8e2aa14c1f82e4e68bff5da659646deb", "is_disabled": 0, "rental_uris": {"android": "https://dc.lft.to/lastmile_qr_scan", "ios": "https://dc.lft.to/lastmile_qr_scan"}, "fusion_lon": 0.0, "lat": 38.925510833333334, "bike_id": "8e2aa14c1f82e4e68bff5da659646deb", "type": "electric_scooter", "is_reserved": 0, "lon": -77.077629}, {"fusion_lat": 0.0, "name": "3f2a44cbed98554ea46d8811433bf5c4", "is_disabled": 0, "rental_uris": {"android": "https://dc.lft.to/lastmile_qr_scan", "ios": "https://dc.lft.to/lastmile_qr_scan"}, "fusion_lon": 0.0, "lat": 38.920687, "bike_id": "3f2a44cbed98554ea46d8811433bf5c4", "type": "electric_scooter", "is_reserved": 0, "lon": -77.03385083333333}, {"fusion_lat": 0.0, "name": "52275eedc23ed4d3457d1d7a845c046e", "is_disabled": 0, "rental_uris": {"android": "https://dc.lft.to/lastmile_qr_scan", "ios": "https://dc.lft.to/lastmile_qr_scan"}, "fusion_lon": 0.0, "lat": 38.91540666666667, "bike_id": "52275eedc23ed4d3457d1d7a845c046e", "type": "electric_scooter", "is_reserved": 0, "lon": -77.01264166666667}, {"fusion_lat": 0.0, "name": "b19058c85aa7f343a60b93e50d74fb02", "is_disabled": 0, "rental_uris": {"android": "https://dc.lft.to/lastmile_qr_scan", "ios": "https://dc.lft.to/lastmile_qr_scan"}, "fusion_lon": 0.0, "lat": 38.91772733333333, "bike_id": "b19058c85aa7f343a60b93e50d74fb02", "type": "electric_scooter", "is_reserved": 0, "lon": -77.03572916666667}, {"fusion_lat": 0.0, "name": "15c3cc97f6339e052f0ba85ad3b6b9a4", "is_disabled": 0, "rental_uris": {"android": "https://dc.lft.to/lastmile_qr_scan", "ios": "https://dc.lft.to/lastmile_qr_scan"}, "fusion_lon": 0.0, "lat": 38.90581866666667, "bike_id": "15c3cc97f6339e052f0ba85ad3b6b9a4", "type": "electric_scooter", "is_reserved": 0, "lon": -77.03477666666667}, {"fusion_lat": 0.0, "name": "ec271db673373225c8ba0c4971ee7a90", "is_disabled": 0, "rental_uris": {"android": "https://dc.lft.to/lastmile_qr_scan", "ios": "https://dc.lft.to/lastmile_qr_scan"}, "fusion_lon": 0.0, "lat": 38.873901333333336, "bike_id": "ec271db673373225c8ba0c4971ee7a90", "type": "electric_scooter", "is_reserved": 0, "lon": -77.00034966666666}, {"fusion_lat": 0.0, "name": "479d1226a6a3055284ec5ee61525877d", "is_disabled": 0, "rental_uris": {"android": "https://dc.lft.to/lastmile_qr_scan", "ios": "https://dc.lft.to/lastmile_qr_scan"}, "fusion_lon": 0.0, "lat": 38.9125405, "bike_id": "479d1226a6a3055284ec5ee61525877d", "type": "electric_scooter", "is_reserved": 0, "lon": -77.01030883333334}, {"fusion_lat": 0.0, "name": "19d1a98139d837f202845a01c5b709f9", "is_disabled": 0, "rental_uris": {"android": "https://dc.lft.to/lastmile_qr_scan", "ios": "https://dc.lft.to/lastmile_qr_scan"}, "fusion_lon": 0.0, "lat": 38.91302, "bike_id": "19d1a98139d837f202845a01c5b709f9", "type": "electric_scooter", "is_reserved": 0, "lon": -77.04872083333333}, {"fusion_lat": 0.0, "name": "c3e6b223ec8c1e73bed53f0462b2416f", "is_disabled": 0, "rental_uris": {"android": "https://dc.lft.to/lastmile_qr_scan", "ios": "https://dc.lft.to/lastmile_qr_scan"}, "fusion_lon": 0.0, "lat": 38.9209615, "bike_id": "c3e6b223ec8c1e73bed53f0462b2416f", "type": "electric_scooter", "is_reserved": 0, "lon": -77.046968}, {"fusion_lat": 0.0, "name": "c37d125b2e53218aa5da0463349231c6", "is_disabled": 0, "rental_uris": {"android": "https://dc.lft.to/lastmile_qr_scan", "ios": "https://dc.lft.to/lastmile_qr_scan"}, "fusion_lon": 0.0, "lat": 38.91174183333333, "bike_id": "c37d125b2e53218aa5da0463349231c6", "type": "electric_bike", "is_reserved": 0, "lon": -77.00446916666667}, {"fusion_lat": 0.0, "name": "96cde86198900d48d3cffa93157db68e", "is_disabled": 0, "rental_uris": {"android": "https://dc.lft.to/lastmile_qr_scan", "ios": "https://dc.lft.to/lastmile_qr_scan"}, "fusion_lon": 0.0, "lat": 38.90716166666667, "bike_id": "96cde86198900d48d3cffa93157db68e", "type": "electric_scooter", "is_reserved": 0, "lon": -77.04189166666667}, {"fusion_lat": 0.0, "name": "bfd3ac528bf10e18c1451756f0447b2e", "is_disabled": 0, "rental_uris": {"android": "https://dc.lft.to/lastmile_qr_scan", "ios": "https://dc.lft.to/lastmile_qr_scan"}, "fusion_lon": 0.0, "lat": 38.915643, "bike_id": "bfd3ac528bf10e18c1451756f0447b2e", "type": "electric_scooter", "is_reserved": 0, "lon": -77.02234833333333}, {"fusion_lat": 0.0, "name": "4b2f61570a87bbf8cf59ebbd1ac244a8", "is_disabled": 0, "rental_uris": {"android": "https://dc.lft.to/lastmile_qr_scan", "ios": "https://dc.lft.to/lastmile_qr_scan"}, "fusion_lon": 0.0, "lat": 38.9071325, "bike_id": "4b2f61570a87bbf8cf59ebbd1ac244a8", "type": "electric_scooter", "is_reserved": 0, "lon": -77.03446633333333}, {"fusion_lat": 0.0, "name": "daa7a99e8867bd4cd3d0e8fc485553cf", "is_disabled": 0, "rental_uris": {"android": "https://dc.lft.to/lastmile_qr_scan", "ios": "https://dc.lft.to/lastmile_qr_scan"}, "fusion_lon": 0.0, "lat": 38.89906216666667, "bike_id": "daa7a99e8867bd4cd3d0e8fc485553cf", "type": "electric_scooter", "is_reserved": 0, "lon": -76.933529}, {"fusion_lat": 0.0, "name": "fe4f8e0d6c220954871ee40e81a80606", "is_disabled": 0, "rental_uris": {"android": "https://dc.lft.to/lastmile_qr_scan", "ios": "https://dc.lft.to/lastmile_qr_scan"}, "fusion_lon": 0.0, "lat": 38.88522533333333, "bike_id": "fe4f8e0d6c220954871ee40e81a80606", "type": "electric_scooter", "is_reserved": 0, "lon": -76.929163}, {"fusion_lat": 0.0, "name": "735e23ec3513ae0f65074f23c4695cee", "is_disabled": 0, "rental_uris": {"android": "https://dc.lft.to/lastmile_qr_scan", "ios": "https://dc.lft.to/lastmile_qr_scan"}, "fusion_lon": 0.0, "lat": 38.90577616666667, "bike_id": "735e23ec3513ae0f65074f23c4695cee", "type": "electric_scooter", "is_reserved": 0, "lon": -77.02601616666666}, {"fusion_lat": 0.0, "name": "c222103ac5f664186d46099f918060a2", "is_disabled": 0, "rental_uris": {"android": "https://dc.lft.to/lastmile_qr_scan", "ios": "https://dc.lft.to/lastmile_qr_scan"}, "fusion_lon": 0.0, "lat": 38.9084565, "bike_id": "c222103ac5f664186d46099f918060a2", "type": "electric_scooter", "is_reserved": 0, "lon": -77.03296116666667}, {"fusion_lat": 0.0, "name": "bd583e8480e65f80b6b646ed4cf7c940", "is_disabled": 0, "rental_uris": {"android": "https://dc.lft.to/lastmile_qr_scan", "ios": "https://dc.lft.to/lastmile_qr_scan"}, "fusion_lon": 0.0, "lat": 38.89910483333333, "bike_id": "bd583e8480e65f80b6b646ed4cf7c940", "type": "electric_scooter", "is_reserved": 0, "lon": -76.94590883333333}, {"fusion_lat": 0.0, "name": "6069ee8af93788fadd8ba3535a01f312", "is_disabled": 0, "rental_uris": {"android": "https://dc.lft.to/lastmile_qr_scan", "ios": "https://dc.lft.to/lastmile_qr_scan"}, "fusion_lon": 0.0, "lat": 38.928348666666665, "bike_id": "6069ee8af93788fadd8ba3535a01f312", "type": "electric_scooter", "is_reserved": 0, "lon": -77.01584566666666}, {"fusion_lat": 0.0, "name": "9ec102c3363c228b64c58292391f9e57", "is_disabled": 0, "rental_uris": {"android": "https://dc.lft.to/lastmile_qr_scan", "ios": "https://dc.lft.to/lastmile_qr_scan"}, "fusion_lon": 0.0, "lat": 38.87578166666667, "bike_id": "9ec102c3363c228b64c58292391f9e57", "type": "electric_bike", "is_reserved": 0, "lon": -77.23410733333333}, {"fusion_lat": 0.0, "name": "842f0fd338225f69d526d59499fc469c", "is_disabled": 0, "rental_uris": {"android": "https://dc.lft.to/lastmile_qr_scan", "ios": "https://dc.lft.to/lastmile_qr_scan"}, "fusion_lon": 0.0, "lat": 38.939018, "bike_id": "842f0fd338225f69d526d59499fc469c", "type": "electric_scooter", "is_reserved": 0, "lon": -77.07796766666667}, {"fusion_lat": 0.0, "name": "dbc3653a8cb50313495c9ef069e03cc1", "is_disabled": 0, "rental_uris": {"android": "https://dc.lft.to/lastmile_qr_scan", "ios": "https://dc.lft.to/lastmile_qr_scan"}, "fusion_lon": 0.0, "lat": 38.907728666666664, "bike_id": "dbc3653a8cb50313495c9ef069e03cc1", "type": "electric_scooter", "is_reserved": 0, "lon": -77.04250566666667}, {"fusion_lat": 0.0, "name": "40a5c83982313c4e232f53ba229694c0", "is_disabled": 0, "rental_uris": {"android": "https://dc.lft.to/lastmile_qr_scan", "ios": "https://dc.lft.to/lastmile_qr_scan"}, "fusion_lon": 0.0, "lat": 38.888333333333335, "bike_id": "40a5c83982313c4e232f53ba229694c0", "type": "electric_scooter", "is_reserved": 0, "lon": -77.04907783333333}, {"fusion_lat": 0.0, "name": "3793a04ddad7c5dcec8488226c4055bb", "is_disabled": 0, "rental_uris": {"android": "https://dc.lft.to/lastmile_qr_scan", "ios": "https://dc.lft.to/lastmile_qr_scan"}, "fusion_lon": 0.0, "lat": 38.915543166666666, "bike_id": "3793a04ddad7c5dcec8488226c4055bb", "type": "electric_scooter", "is_reserved": 0, "lon": -77.00365266666667}, {"fusion_lat": 0.0, "name": "6f2970e234393975eb4b5bf54a8c3da5", "is_disabled": 0, "rental_uris": {"android": "https://dc.lft.to/lastmile_qr_scan", "ios": "https://dc.lft.to/lastmile_qr_scan"}, "fusion_lon": 0.0, "lat": 38.899270666666666, "bike_id": "6f2970e234393975eb4b5bf54a8c3da5", "type": "electric_scooter", "is_reserved": 0, "lon": -77.02165466666666}, {"fusion_lat": 0.0, "name": "e669b8cdf477bac504671723f9f24bd1", "is_disabled": 0, "rental_uris": {"android": "https://dc.lft.to/lastmile_qr_scan", "ios": "https://dc.lft.to/lastmile_qr_scan"}, "fusion_lon": 0.0, "lat": 38.9191815, "bike_id": "e669b8cdf477bac504671723f9f24bd1", "type": "electric_scooter", "is_reserved": 0, "lon": -77.03396216666667}, {"fusion_lat": 0.0, "name": "af38e94ec04fb7bc80152bcadd678547", "is_disabled": 0, "rental_uris": {"android": "https://dc.lft.to/lastmile_qr_scan", "ios": "https://dc.lft.to/lastmile_qr_scan"}, "fusion_lon": 0.0, "lat": 38.9588705, "bike_id": "af38e94ec04fb7bc80152bcadd678547", "type": "electric_scooter", "is_reserved": 0, "lon": -77.002843}, {"fusion_lat": 0.0, "name": "690030c47e3baed787824d66f5460e28", "is_disabled": 0, "rental_uris": {"android": "https://dc.lft.to/lastmile_qr_scan", "ios": "https://dc.lft.to/lastmile_qr_scan"}, "fusion_lon": 0.0, "lat": 38.87665483333333, "bike_id": "690030c47e3baed787824d66f5460e28", "type": "electric_scooter", "is_reserved": 0, "lon": -77.004649}, {"fusion_lat": 0.0, "name": "e8831f01f0e4ac71a3b8fec81dbcfeb6", "is_disabled": 0, "rental_uris": {"android": "https://dc.lft.to/lastmile_qr_scan", "ios": "https://dc.lft.to/lastmile_qr_scan"}, "fusion_lon": 0.0, "lat": 38.92741866666667, "bike_id": "e8831f01f0e4ac71a3b8fec81dbcfeb6", "type": "electric_scooter", "is_reserved": 0, "lon": -77.02261566666667}, {"fusion_lat": 0.0, "name": "b4778cbbd96a0d5bfa8e6ce45a388776", "is_disabled": 0, "rental_uris": {"android": "https://dc.lft.to/lastmile_qr_scan", "ios": "https://dc.lft.to/lastmile_qr_scan"}, "fusion_lon": 0.0, "lat": 38.8971535, "bike_id": "b4778cbbd96a0d5bfa8e6ce45a388776", "type": "electric_bike", "is_reserved": 0, "lon": -77.01162983333333}, {"fusion_lat": 0.0, "name": "25de8df48995bca01b9b760f0c64ca98", "is_disabled": 0, "rental_uris": {"android": "https://dc.lft.to/lastmile_qr_scan", "ios": "https://dc.lft.to/lastmile_qr_scan"}, "fusion_lon": 0.0, "lat": 38.921180166666666, "bike_id": "25de8df48995bca01b9b760f0c64ca98", "type": "electric_scooter", "is_reserved": 0, "lon": -77.0442355}, {"fusion_lat": 0.0, "name": "e6d683a805efd78ac2e0a9d5a072059a", "is_disabled": 0, "rental_uris": {"android": "https://dc.lft.to/lastmile_qr_scan", "ios": "https://dc.lft.to/lastmile_qr_scan"}, "fusion_lon": 0.0, "lat": 38.90666983333333, "bike_id": "e6d683a805efd78ac2e0a9d5a072059a", "type": "electric_scooter", "is_reserved": 0, "lon": -77.0270725}, {"fusion_lat": 0.0, "name": "c6f8ba439a6e70a28a39d41727196621", "is_disabled": 0, "rental_uris": {"android": "https://dc.lft.to/lastmile_qr_scan", "ios": "https://dc.lft.to/lastmile_qr_scan"}, "fusion_lon": 0.0, "lat": 38.92753166666667, "bike_id": "c6f8ba439a6e70a28a39d41727196621", "type": "electric_scooter", "is_reserved": 0, "lon": -77.02425033333333}, {"fusion_lat": 0.0, "name": "87d89769ccbf38306e3bd17d6003345c", "is_disabled": 0, "rental_uris": {"android": "https://dc.lft.to/lastmile_qr_scan", "ios": "https://dc.lft.to/lastmile_qr_scan"}, "fusion_lon": 0.0, "lat": 38.9006115, "bike_id": "87d89769ccbf38306e3bd17d6003345c", "type": "electric_scooter", "is_reserved": 0, "lon": -76.92743383333334}, {"fusion_lat": 0.0, "name": "ab83cbbfb9f8ec933fffbb5ba260bffd", "is_disabled": 0, "rental_uris": {"android": "https://dc.lft.to/lastmile_qr_scan", "ios": "https://dc.lft.to/lastmile_qr_scan"}, "fusion_lon": 0.0, "lat": 38.89688183333333, "bike_id": "ab83cbbfb9f8ec933fffbb5ba260bffd", "type": "electric_scooter", "is_reserved": 0, "lon": -77.05142083333334}, {"fusion_lat": 0.0, "name": "94807485d2496ea9e37acd732e8bf215", "is_disabled": 0, "rental_uris": {"android": "https://dc.lft.to/lastmile_qr_scan", "ios": "https://dc.lft.to/lastmile_qr_scan"}, "fusion_lon": 0.0, "lat": 38.89547616666667, "bike_id": "94807485d2496ea9e37acd732e8bf215", "type": "electric_scooter", "is_reserved": 0, "lon": -76.94944933333333}, {"fusion_lat": 0.0, "name": "e3ef9fe17a70b2477ff7ed878e5af744", "is_disabled": 0, "rental_uris": {"android": "https://dc.lft.to/lastmile_qr_scan", "ios": "https://dc.lft.to/lastmile_qr_scan"}, "fusion_lon": 0.0, "lat": 38.87663283333333, "bike_id": "e3ef9fe17a70b2477ff7ed878e5af744", "type": "electric_scooter", "is_reserved": 0, "lon": -76.99623783333334}, {"fusion_lat": 0.0, "name": "a257ec7cc4a1964f73575aeff7d83b4d", "is_disabled": 0, "rental_uris": {"android": "https://dc.lft.to/lastmile_qr_scan", "ios": "https://dc.lft.to/lastmile_qr_scan"}, "fusion_lon": 0.0, "lat": 38.873856333333336, "bike_id": "a257ec7cc4a1964f73575aeff7d83b4d", "type": "electric_scooter", "is_reserved": 0, "lon": -77.00038316666667}, {"fusion_lat": 0.0, "name": "eaa5ddaa3d9054da9008de344b639bb4", "is_disabled": 0, "rental_uris": {"android": "https://dc.lft.to/lastmile_qr_scan", "ios": "https://dc.lft.to/lastmile_qr_scan"}, "fusion_lon": 0.0, "lat": 38.87482266666667, "bike_id": "eaa5ddaa3d9054da9008de344b639bb4", "type": "electric_scooter", "is_reserved": 0, "lon": -77.0011625}, {"fusion_lat": 0.0, "name": "a5b52f2389b27eedd26f814df19238b6", "is_disabled": 0, "rental_uris": {"android": "https://dc.lft.to/lastmile_qr_scan", "ios": "https://dc.lft.to/lastmile_qr_scan"}, "fusion_lon": 0.0, "lat": 38.95731283333333, "bike_id": "a5b52f2389b27eedd26f814df19238b6", "type": "electric_scooter", "is_reserved": 0, "lon": -77.02402066666667}, {"fusion_lat": 0.0, "name": "00c8ab5065149d87030bf9b4722b6dd7", "is_disabled": 0, "rental_uris": {"android": "https://dc.lft.to/lastmile_qr_scan", "ios": "https://dc.lft.to/lastmile_qr_scan"}, "fusion_lon": 0.0, "lat": 38.91595083333333, "bike_id": "00c8ab5065149d87030bf9b4722b6dd7", "type": "electric_scooter", "is_reserved": 0, "lon": -77.04558533333334}, {"fusion_lat": 0.0, "name": "7cd5106077d919cae5064bf604a91735", "is_disabled": 0, "rental_uris": {"android": "https://dc.lft.to/lastmile_qr_scan", "ios": "https://dc.lft.to/lastmile_qr_scan"}, "fusion_lon": 0.0, "lat": 38.909712666666664, "bike_id": "7cd5106077d919cae5064bf604a91735", "type": "electric_scooter", "is_reserved": 0, "lon": -77.03259966666667}, {"fusion_lat": 0.0, "name": "79d10c057d4c4c1af5596b3b7e08ab73", "is_disabled": 0, "rental_uris": {"android": "https://dc.lft.to/lastmile_qr_scan", "ios": "https://dc.lft.to/lastmile_qr_scan"}, "fusion_lon": 0.0, "lat": 38.91489333333333, "bike_id": "79d10c057d4c4c1af5596b3b7e08ab73", "type": "electric_scooter", "is_reserved": 0, "lon": -77.04282366666666}, {"fusion_lat": 0.0, "name": "d7e9d8387b2c8063e9c72d18fb01f32a", "is_disabled": 0, "rental_uris": {"android": "https://dc.lft.to/lastmile_qr_scan", "ios": "https://dc.lft.to/lastmile_qr_scan"}, "fusion_lon": 0.0, "lat": 38.92315283333333, "bike_id": "d7e9d8387b2c8063e9c72d18fb01f32a", "type": "electric_scooter", "is_reserved": 0, "lon": -77.04411166666667}, {"fusion_lat": 0.0, "name": "c03effe86c9ecc42ee5fbdcd128280b1", "is_disabled": 0, "rental_uris": {"android": "https://dc.lft.to/lastmile_qr_scan", "ios": "https://dc.lft.to/lastmile_qr_scan"}, "fusion_lon": 0.0, "lat": 38.92791783333333, "bike_id": "c03effe86c9ecc42ee5fbdcd128280b1", "type": "electric_scooter", "is_reserved": 0, "lon": -77.022563}, {"fusion_lat": 0.0, "name": "409014cb7e1ea925751fd423853af6e4", "is_disabled": 0, "rental_uris": {"android": "https://dc.lft.to/lastmile_qr_scan", "ios": "https://dc.lft.to/lastmile_qr_scan"}, "fusion_lon": 0.0, "lat": 38.90606433333333, "bike_id": "409014cb7e1ea925751fd423853af6e4", "type": "electric_scooter", "is_reserved": 0, "lon": -77.06290783333333}, {"fusion_lat": 0.0, "name": "369aca045862e731a4044bf367ef6223", "is_disabled": 0, "rental_uris": {"android": "https://dc.lft.to/lastmile_qr_scan", "ios": "https://dc.lft.to/lastmile_qr_scan"}, "fusion_lon": 0.0, "lat": 38.87533083333334, "bike_id": "369aca045862e731a4044bf367ef6223", "type": "electric_scooter", "is_reserved": 0, "lon": -77.00506166666666}, {"fusion_lat": 0.0, "name": "be347fc5154fce4d7eece473f39aed6f", "is_disabled": 0, "rental_uris": {"android": "https://dc.lft.to/lastmile_qr_scan", "ios": "https://dc.lft.to/lastmile_qr_scan"}, "fusion_lon": 0.0, "lat": 38.91170133333333, "bike_id": "be347fc5154fce4d7eece473f39aed6f", "type": "electric_scooter", "is_reserved": 0, "lon": -77.03854316666667}, {"fusion_lat": 0.0, "name": "877516a45cc16fa849a49d460ad8123b", "is_disabled": 0, "rental_uris": {"android": "https://dc.lft.to/lastmile_qr_scan", "ios": "https://dc.lft.to/lastmile_qr_scan"}, "fusion_lon": 0.0, "lat": 38.94181066666667, "bike_id": "877516a45cc16fa849a49d460ad8123b", "type": "electric_scooter", "is_reserved": 0, "lon": -77.030677}, {"fusion_lat": 0.0, "name": "a78dc147916cc798f4820e35582d8a93", "is_disabled": 0, "rental_uris": {"android": "https://dc.lft.to/lastmile_qr_scan", "ios": "https://dc.lft.to/lastmile_qr_scan"}, "fusion_lon": 0.0, "lat": 38.906400166666664, "bike_id": "a78dc147916cc798f4820e35582d8a93", "type": "electric_scooter", "is_reserved": 0, "lon": -77.0432615}, {"fusion_lat": 0.0, "name": "7841477089ae217eb9e9ec0e97c55bc0", "is_disabled": 0, "rental_uris": {"android": "https://dc.lft.to/lastmile_qr_scan", "ios": "https://dc.lft.to/lastmile_qr_scan"}, "fusion_lon": 0.0, "lat": 38.905124666666666, "bike_id": "7841477089ae217eb9e9ec0e97c55bc0", "type": "electric_scooter", "is_reserved": 0, "lon": -77.06155066666666}, {"fusion_lat": 0.0, "name": "b433f379a6e404c0ede527bc59e5912c", "is_disabled": 0, "rental_uris": {"android": "https://dc.lft.to/lastmile_qr_scan", "ios": "https://dc.lft.to/lastmile_qr_scan"}, "fusion_lon": 0.0, "lat": 38.900346, "bike_id": "b433f379a6e404c0ede527bc59e5912c", "type": "electric_scooter", "is_reserved": 0, "lon": -77.00204966666666}, {"fusion_lat": 0.0, "name": "8175b37998791ec6fdc46d4f67839334", "is_disabled": 0, "rental_uris": {"android": "https://dc.lft.to/lastmile_qr_scan", "ios": "https://dc.lft.to/lastmile_qr_scan"}, "fusion_lon": 0.0, "lat": 38.9661635, "bike_id": "8175b37998791ec6fdc46d4f67839334", "type": "electric_bike", "is_reserved": 0, "lon": -77.03433416666667}, {"fusion_lat": 0.0, "name": "f126ffafd4b5326b8b36eea69b5951ad", "is_disabled": 0, "rental_uris": {"android": "https://dc.lft.to/lastmile_qr_scan", "ios": "https://dc.lft.to/lastmile_qr_scan"}, "fusion_lon": 0.0, "lat": 38.90226716666667, "bike_id": "f126ffafd4b5326b8b36eea69b5951ad", "type": "electric_scooter", "is_reserved": 0, "lon": -77.05472283333333}, {"fusion_lat": 0.0, "name": "68006a043140d396483f0e7a7aa96238", "is_disabled": 0, "rental_uris": {"android": "https://dc.lft.to/lastmile_qr_scan", "ios": "https://dc.lft.to/lastmile_qr_scan"}, "fusion_lon": 0.0, "lat": 38.90757516666667, "bike_id": "68006a043140d396483f0e7a7aa96238", "type": "electric_scooter", "is_reserved": 0, "lon": -77.035844}, {"fusion_lat": 0.0, "name": "8ad4559cec48332f2c98447690521180", "is_disabled": 0, "rental_uris": {"android": "https://dc.lft.to/lastmile_qr_scan", "ios": "https://dc.lft.to/lastmile_qr_scan"}, "fusion_lon": 0.0, "lat": 38.914023666666665, "bike_id": "8ad4559cec48332f2c98447690521180", "type": "electric_scooter", "is_reserved": 0, "lon": -77.04158383333333}, {"fusion_lat": 0.0, "name": "88e8fb6fc548647073e6af39b8b5cec0", "is_disabled": 0, "rental_uris": {"android": "https://dc.lft.to/lastmile_qr_scan", "ios": "https://dc.lft.to/lastmile_qr_scan"}, "fusion_lon": 0.0, "lat": 38.905801, "bike_id": "88e8fb6fc548647073e6af39b8b5cec0", "type": "electric_scooter", "is_reserved": 0, "lon": -77.00810166666666}, {"fusion_lat": 0.0, "name": "ec81003f37dfc62b622b58a8441df47a", "is_disabled": 0, "rental_uris": {"android": "https://dc.lft.to/lastmile_qr_scan", "ios": "https://dc.lft.to/lastmile_qr_scan"}, "fusion_lon": 0.0, "lat": 38.892247, "bike_id": "ec81003f37dfc62b622b58a8441df47a", "type": "electric_scooter", "is_reserved": 0, "lon": -77.04867533333334}, {"fusion_lat": 0.0, "name": "79427d98db046d708cf7f7a3fb78c518", "is_disabled": 0, "rental_uris": {"android": "https://dc.lft.to/lastmile_qr_scan", "ios": "https://dc.lft.to/lastmile_qr_scan"}, "fusion_lon": 0.0, "lat": 38.91329533333333, "bike_id": "79427d98db046d708cf7f7a3fb78c518", "type": "electric_scooter", "is_reserved": 0, "lon": -77.0428705}, {"fusion_lat": 0.0, "name": "47a2be159955c76ed29ce79b4e3941ba", "is_disabled": 0, "rental_uris": {"android": "https://dc.lft.to/lastmile_qr_scan", "ios": "https://dc.lft.to/lastmile_qr_scan"}, "fusion_lon": 0.0, "lat": 38.90633916666667, "bike_id": "47a2be159955c76ed29ce79b4e3941ba", "type": "electric_scooter", "is_reserved": 0, "lon": -77.05327366666667}, {"fusion_lat": 0.0, "name": "60aed2d0c003fcdcde837862efe6a66b", "is_disabled": 0, "rental_uris": {"android": "https://dc.lft.to/lastmile_qr_scan", "ios": "https://dc.lft.to/lastmile_qr_scan"}, "fusion_lon": 0.0, "lat": 38.8475485, "bike_id": "60aed2d0c003fcdcde837862efe6a66b", "type": "electric_scooter", "is_reserved": 0, "lon": -76.9950155}, {"fusion_lat": 0.0, "name": "a5aa65c3d834a966e95d9cd02df11319", "is_disabled": 0, "rental_uris": {"android": "https://dc.lft.to/lastmile_qr_scan", "ios": "https://dc.lft.to/lastmile_qr_scan"}, "fusion_lon": 0.0, "lat": 38.8987885, "bike_id": "a5aa65c3d834a966e95d9cd02df11319", "type": "electric_scooter", "is_reserved": 0, "lon": -76.93185416666667}, {"fusion_lat": 0.0, "name": "33286091908a495d8baafa892178d3ac", "is_disabled": 0, "rental_uris": {"android": "https://dc.lft.to/lastmile_qr_scan", "ios": "https://dc.lft.to/lastmile_qr_scan"}, "fusion_lon": 0.0, "lat": 38.902535666666665, "bike_id": "33286091908a495d8baafa892178d3ac", "type": "electric_scooter", "is_reserved": 0, "lon": -77.06383733333334}, {"fusion_lat": 0.0, "name": "84c27835e1fa304fbf8671e3e77d19c4", "is_disabled": 0, "rental_uris": {"android": "https://dc.lft.to/lastmile_qr_scan", "ios": "https://dc.lft.to/lastmile_qr_scan"}, "fusion_lon": 0.0, "lat": 38.89512116666667, "bike_id": "84c27835e1fa304fbf8671e3e77d19c4", "type": "electric_scooter", "is_reserved": 0, "lon": -76.98817916666667}, {"fusion_lat": 0.0, "name": "09c089f71a74b93e8eb8262eea1d569e", "is_disabled": 0, "rental_uris": {"android": "https://dc.lft.to/lastmile_qr_scan", "ios": "https://dc.lft.to/lastmile_qr_scan"}, "fusion_lon": 0.0, "lat": 39.052549166666665, "bike_id": "09c089f71a74b93e8eb8262eea1d569e", "type": "electric_bike", "is_reserved": 0, "lon": -77.08066066666666}, {"fusion_lat": 0.0, "name": "4d1330b07bb9ff79f073aa120ab6eec5", "is_disabled": 0, "rental_uris": {"android": "https://dc.lft.to/lastmile_qr_scan", "ios": "https://dc.lft.to/lastmile_qr_scan"}, "fusion_lon": 0.0, "lat": 38.93524466666667, "bike_id": "4d1330b07bb9ff79f073aa120ab6eec5", "type": "electric_scooter", "is_reserved": 0, "lon": -77.07260766666667}, {"fusion_lat": 0.0, "name": "7343692e190a0f5251904a25e71e6679", "is_disabled": 0, "rental_uris": {"android": "https://dc.lft.to/lastmile_qr_scan", "ios": "https://dc.lft.to/lastmile_qr_scan"}, "fusion_lon": 0.0, "lat": 38.908588, "bike_id": "7343692e190a0f5251904a25e71e6679", "type": "electric_scooter", "is_reserved": 0, "lon": -77.02284866666666}, {"fusion_lat": 0.0, "name": "0e0a0ff9fb3c7ba4606a4891f2fd1d06", "is_disabled": 0, "rental_uris": {"android": "https://dc.lft.to/lastmile_qr_scan", "ios": "https://dc.lft.to/lastmile_qr_scan"}, "fusion_lon": 0.0, "lat": 38.900490833333336, "bike_id": "0e0a0ff9fb3c7ba4606a4891f2fd1d06", "type": "electric_scooter", "is_reserved": 0, "lon": -77.038252}, {"fusion_lat": 0.0, "name": "d85f0653d7e3ff0ee560c52ce4d182e1", "is_disabled": 0, "rental_uris": {"android": "https://dc.lft.to/lastmile_qr_scan", "ios": "https://dc.lft.to/lastmile_qr_scan"}, "fusion_lon": 0.0, "lat": 38.9253265, "bike_id": "d85f0653d7e3ff0ee560c52ce4d182e1", "type": "electric_scooter", "is_reserved": 0, "lon": -77.03526333333333}, {"fusion_lat": 0.0, "name": "ad1054c26ce4f6f10a7bc3202b4592a7", "is_disabled": 0, "rental_uris": {"android": "https://dc.lft.to/lastmile_qr_scan", "ios": "https://dc.lft.to/lastmile_qr_scan"}, "fusion_lon": 0.0, "lat": 38.899100833333335, "bike_id": "ad1054c26ce4f6f10a7bc3202b4592a7", "type": "electric_scooter", "is_reserved": 0, "lon": -76.945492}, {"fusion_lat": 0.0, "name": "611744b97f1043b3855fdd9d499cae6f", "is_disabled": 0, "rental_uris": {"android": "https://dc.lft.to/lastmile_qr_scan", "ios": "https://dc.lft.to/lastmile_qr_scan"}, "fusion_lon": 0.0, "lat": 38.824558333333336, "bike_id": "611744b97f1043b3855fdd9d499cae6f", "type": "electric_bike", "is_reserved": 0, "lon": -77.00789916666666}, {"fusion_lat": 0.0, "name": "b71589754ab7f589e5be2b2d200b585d", "is_disabled": 0, "rental_uris": {"android": "https://dc.lft.to/lastmile_qr_scan", "ios": "https://dc.lft.to/lastmile_qr_scan"}, "fusion_lon": 0.0, "lat": 38.929630333333336, "bike_id": "b71589754ab7f589e5be2b2d200b585d", "type": "electric_scooter", "is_reserved": 0, "lon": -77.01964016666666}, {"fusion_lat": 0.0, "name": "c686c4b6082947c6b794f73fbc672a1e", "is_disabled": 0, "rental_uris": {"android": "https://dc.lft.to/lastmile_qr_scan", "ios": "https://dc.lft.to/lastmile_qr_scan"}, "fusion_lon": 0.0, "lat": 38.892168, "bike_id": "c686c4b6082947c6b794f73fbc672a1e", "type": "electric_scooter", "is_reserved": 0, "lon": -77.03218033333333}, {"fusion_lat": 0.0, "name": "0d4f253d3194c38a921a807aefd35ded", "is_disabled": 0, "rental_uris": {"android": "https://dc.lft.to/lastmile_qr_scan", "ios": "https://dc.lft.to/lastmile_qr_scan"}, "fusion_lon": 0.0, "lat": 38.910865333333334, "bike_id": "0d4f253d3194c38a921a807aefd35ded", "type": "electric_scooter", "is_reserved": 0, "lon": -77.06505133333333}, {"fusion_lat": 0.0, "name": "01e2dc7e5e57bb8bb2050b615d5c8066", "is_disabled": 0, "rental_uris": {"android": "https://dc.lft.to/lastmile_qr_scan", "ios": "https://dc.lft.to/lastmile_qr_scan"}, "fusion_lon": 0.0, "lat": 38.88761683333333, "bike_id": "01e2dc7e5e57bb8bb2050b615d5c8066", "type": "electric_scooter", "is_reserved": 0, "lon": -76.97752116666666}, {"fusion_lat": 0.0, "name": "9ae6af62959dbd0b861619d7cb28dc56", "is_disabled": 0, "rental_uris": {"android": "https://dc.lft.to/lastmile_qr_scan", "ios": "https://dc.lft.to/lastmile_qr_scan"}, "fusion_lon": 0.0, "lat": 38.892283166666665, "bike_id": "9ae6af62959dbd0b861619d7cb28dc56", "type": "electric_scooter", "is_reserved": 0, "lon": -77.02409933333334}, {"fusion_lat": 0.0, "name": "6eefee379696fd1880e22dfdb356c66c", "is_disabled": 0, "rental_uris": {"android": "https://dc.lft.to/lastmile_qr_scan", "ios": "https://dc.lft.to/lastmile_qr_scan"}, "fusion_lon": 0.0, "lat": 38.9094775, "bike_id": "6eefee379696fd1880e22dfdb356c66c", "type": "electric_scooter", "is_reserved": 0, "lon": -77.04869216666667}, {"fusion_lat": 0.0, "name": "8e29fe4cc206ee8d04ea77c9d78ee593", "is_disabled": 0, "rental_uris": {"android": "https://dc.lft.to/lastmile_qr_scan", "ios": "https://dc.lft.to/lastmile_qr_scan"}, "fusion_lon": 0.0, "lat": 38.90730383333333, "bike_id": "8e29fe4cc206ee8d04ea77c9d78ee593", "type": "electric_scooter", "is_reserved": 0, "lon": -77.031845}, {"fusion_lat": 0.0, "name": "7e98c36106db8978f11849d22c60ef7f", "is_disabled": 0, "rental_uris": {"android": "https://dc.lft.to/lastmile_qr_scan", "ios": "https://dc.lft.to/lastmile_qr_scan"}, "fusion_lon": 0.0, "lat": 38.91400866666667, "bike_id": "7e98c36106db8978f11849d22c60ef7f", "type": "electric_scooter", "is_reserved": 0, "lon": -77.00837183333333}, {"fusion_lat": 0.0, "name": "6e4bd75fafc106b72f71806454b2f7cb", "is_disabled": 0, "rental_uris": {"android": "https://dc.lft.to/lastmile_qr_scan", "ios": "https://dc.lft.to/lastmile_qr_scan"}, "fusion_lon": 0.0, "lat": 38.842985166666665, "bike_id": "6e4bd75fafc106b72f71806454b2f7cb", "type": "electric_bike", "is_reserved": 0, "lon": -77.10866183333333}, {"fusion_lat": 0.0, "name": "ade15620d15454d63dc8144fd3b0bb29", "is_disabled": 0, "rental_uris": {"android": "https://dc.lft.to/lastmile_qr_scan", "ios": "https://dc.lft.to/lastmile_qr_scan"}, "fusion_lon": 0.0, "lat": 38.904687833333334, "bike_id": "ade15620d15454d63dc8144fd3b0bb29", "type": "electric_scooter", "is_reserved": 0, "lon": -77.00707183333333}, {"fusion_lat": 0.0, "name": "18d04976e016b0c6d727242ba73d33e6", "is_disabled": 0, "rental_uris": {"android": "https://dc.lft.to/lastmile_qr_scan", "ios": "https://dc.lft.to/lastmile_qr_scan"}, "fusion_lon": 0.0, "lat": 38.944046666666665, "bike_id": "18d04976e016b0c6d727242ba73d33e6", "type": "electric_scooter", "is_reserved": 0, "lon": -77.03862233333334}, {"fusion_lat": 0.0, "name": "b269e05d0a15bb34e04e1eb9006d3d00", "is_disabled": 0, "rental_uris": {"android": "https://dc.lft.to/lastmile_qr_scan", "ios": "https://dc.lft.to/lastmile_qr_scan"}, "fusion_lon": 0.0, "lat": 38.92554916666667, "bike_id": "b269e05d0a15bb34e04e1eb9006d3d00", "type": "electric_scooter", "is_reserved": 0, "lon": -77.033422}, {"fusion_lat": 0.0, "name": "c5d1e87cacf7405faeeb8367a5ac5390", "is_disabled": 0, "rental_uris": {"android": "https://dc.lft.to/lastmile_qr_scan", "ios": "https://dc.lft.to/lastmile_qr_scan"}, "fusion_lon": 0.0, "lat": 38.880158, "bike_id": "c5d1e87cacf7405faeeb8367a5ac5390", "type": "electric_scooter", "is_reserved": 0, "lon": -76.93111566666667}, {"fusion_lat": 0.0, "name": "29bf9e28fccfac94c7de331e59dcabaf", "is_disabled": 0, "rental_uris": {"android": "https://dc.lft.to/lastmile_qr_scan", "ios": "https://dc.lft.to/lastmile_qr_scan"}, "fusion_lon": 0.0, "lat": 38.925392, "bike_id": "29bf9e28fccfac94c7de331e59dcabaf", "type": "electric_scooter", "is_reserved": 0, "lon": -77.00767333333333}, {"fusion_lat": 0.0, "name": "1fc43e87f0beecb4b70db15efd171898", "is_disabled": 0, "rental_uris": {"android": "https://dc.lft.to/lastmile_qr_scan", "ios": "https://dc.lft.to/lastmile_qr_scan"}, "fusion_lon": 0.0, "lat": 38.883001666666665, "bike_id": "1fc43e87f0beecb4b70db15efd171898", "type": "electric_scooter", "is_reserved": 0, "lon": -76.94855466666667}, {"fusion_lat": 0.0, "name": "e20e98ad13c8aeda39ef155ff2ff2ead", "is_disabled": 0, "rental_uris": {"android": "https://dc.lft.to/lastmile_qr_scan", "ios": "https://dc.lft.to/lastmile_qr_scan"}, "fusion_lon": 0.0, "lat": 38.9073025, "bike_id": "e20e98ad13c8aeda39ef155ff2ff2ead", "type": "electric_scooter", "is_reserved": 0, "lon": -76.9354475}, {"fusion_lat": 0.0, "name": "d1c612e7170c49e8d0b4276a412e5248", "is_disabled": 0, "rental_uris": {"android": "https://dc.lft.to/lastmile_qr_scan", "ios": "https://dc.lft.to/lastmile_qr_scan"}, "fusion_lon": 0.0, "lat": 38.90404683333333, "bike_id": "d1c612e7170c49e8d0b4276a412e5248", "type": "electric_scooter", "is_reserved": 0, "lon": -77.06801566666667}, {"fusion_lat": 0.0, "name": "ab378334d8818401b93b424b838fb66a", "is_disabled": 0, "rental_uris": {"android": "https://dc.lft.to/lastmile_qr_scan", "ios": "https://dc.lft.to/lastmile_qr_scan"}, "fusion_lon": 0.0, "lat": 38.807058166666664, "bike_id": "ab378334d8818401b93b424b838fb66a", "type": "electric_bike", "is_reserved": 0, "lon": -77.06175133333333}, {"fusion_lat": 0.0, "name": "1aafea99e62e86294a0ee72fecfd55dd", "is_disabled": 0, "rental_uris": {"android": "https://dc.lft.to/lastmile_qr_scan", "ios": "https://dc.lft.to/lastmile_qr_scan"}, "fusion_lon": 0.0, "lat": 38.8191925, "bike_id": "1aafea99e62e86294a0ee72fecfd55dd", "type": "electric_bike", "is_reserved": 0, "lon": -77.048008}, {"fusion_lat": 0.0, "name": "c5faa795d694dbc773c55c629a60190f", "is_disabled": 0, "rental_uris": {"android": "https://dc.lft.to/lastmile_qr_scan", "ios": "https://dc.lft.to/lastmile_qr_scan"}, "fusion_lon": 0.0, "lat": 38.812489666666664, "bike_id": "c5faa795d694dbc773c55c629a60190f", "type": "electric_bike", "is_reserved": 0, "lon": -77.1176865}, {"fusion_lat": 0.0, "name": "7d7da505ef0709c57eea246f8df58279", "is_disabled": 0, "rental_uris": {"android": "https://dc.lft.to/lastmile_qr_scan", "ios": "https://dc.lft.to/lastmile_qr_scan"}, "fusion_lon": 0.0, "lat": 38.927211166666666, "bike_id": "7d7da505ef0709c57eea246f8df58279", "type": "electric_scooter", "is_reserved": 0, "lon": -77.03063533333334}, {"fusion_lat": 0.0, "name": "fb33a47c868ebf2f449f32e67ee890de", "is_disabled": 0, "rental_uris": {"android": "https://dc.lft.to/lastmile_qr_scan", "ios": "https://dc.lft.to/lastmile_qr_scan"}, "fusion_lon": 0.0, "lat": 38.89107216666667, "bike_id": "fb33a47c868ebf2f449f32e67ee890de", "type": "electric_scooter", "is_reserved": 0, "lon": -76.996272}, {"fusion_lat": 0.0, "name": "36a7882b9ccd505bb5f120cd4d5a4324", "is_disabled": 0, "rental_uris": {"android": "https://dc.lft.to/lastmile_qr_scan", "ios": "https://dc.lft.to/lastmile_qr_scan"}, "fusion_lon": 0.0, "lat": 38.91635083333333, "bike_id": "36a7882b9ccd505bb5f120cd4d5a4324", "type": "electric_scooter", "is_reserved": 0, "lon": -77.05064483333334}, {"fusion_lat": 0.0, "name": "83552f571d5522ee6bb3f3b9245e455d", "is_disabled": 0, "rental_uris": {"android": "https://dc.lft.to/lastmile_qr_scan", "ios": "https://dc.lft.to/lastmile_qr_scan"}, "fusion_lon": 0.0, "lat": 38.93076716666667, "bike_id": "83552f571d5522ee6bb3f3b9245e455d", "type": "electric_scooter", "is_reserved": 0, "lon": -77.02268166666667}, {"fusion_lat": 0.0, "name": "ba278de2e02c0bfc6101ad5c0713cff1", "is_disabled": 0, "rental_uris": {"android": "https://dc.lft.to/lastmile_qr_scan", "ios": "https://dc.lft.to/lastmile_qr_scan"}, "fusion_lon": 0.0, "lat": 38.890162833333335, "bike_id": "ba278de2e02c0bfc6101ad5c0713cff1", "type": "electric_scooter", "is_reserved": 0, "lon": -76.93737383333334}, {"fusion_lat": 0.0, "name": "ac4e3c4e8546e8923f506be8ae28b9b4", "is_disabled": 0, "rental_uris": {"android": "https://dc.lft.to/lastmile_qr_scan", "ios": "https://dc.lft.to/lastmile_qr_scan"}, "fusion_lon": 0.0, "lat": 38.92170633333333, "bike_id": "ac4e3c4e8546e8923f506be8ae28b9b4", "type": "electric_scooter", "is_reserved": 0, "lon": -77.04248566666666}, {"fusion_lat": 0.0, "name": "dc8f6d469537c2b26a1a3f8df07c0b3a", "is_disabled": 0, "rental_uris": {"android": "https://dc.lft.to/lastmile_qr_scan", "ios": "https://dc.lft.to/lastmile_qr_scan"}, "fusion_lon": 0.0, "lat": 38.91557666666667, "bike_id": "dc8f6d469537c2b26a1a3f8df07c0b3a", "type": "electric_scooter", "is_reserved": 0, "lon": -77.0205005}, {"fusion_lat": 0.0, "name": "92a7319e1e5985a059411cea148a5b6d", "is_disabled": 0, "rental_uris": {"android": "https://dc.lft.to/lastmile_qr_scan", "ios": "https://dc.lft.to/lastmile_qr_scan"}, "fusion_lon": 0.0, "lat": 38.879319833333334, "bike_id": "92a7319e1e5985a059411cea148a5b6d", "type": "electric_scooter", "is_reserved": 0, "lon": -77.004191}, {"fusion_lat": 0.0, "name": "e238043b24d2290ee24b94fccb8fa489", "is_disabled": 0, "rental_uris": {"android": "https://dc.lft.to/lastmile_qr_scan", "ios": "https://dc.lft.to/lastmile_qr_scan"}, "fusion_lon": 0.0, "lat": 38.9318365, "bike_id": "e238043b24d2290ee24b94fccb8fa489", "type": "electric_scooter", "is_reserved": 0, "lon": -77.01962683333333}, {"fusion_lat": 0.0, "name": "a5098a93a9f6dff98882838d93ebeb46", "is_disabled": 0, "rental_uris": {"android": "https://dc.lft.to/lastmile_qr_scan", "ios": "https://dc.lft.to/lastmile_qr_scan"}, "fusion_lon": 0.0, "lat": 38.9137885, "bike_id": "a5098a93a9f6dff98882838d93ebeb46", "type": "electric_scooter", "is_reserved": 0, "lon": -77.018026}, {"fusion_lat": 0.0, "name": "06c6c2f4d1c7c314b62471bb3fe3a98d", "is_disabled": 0, "rental_uris": {"android": "https://dc.lft.to/lastmile_qr_scan", "ios": "https://dc.lft.to/lastmile_qr_scan"}, "fusion_lon": 0.0, "lat": 38.95244833333334, "bike_id": "06c6c2f4d1c7c314b62471bb3fe3a98d", "type": "electric_scooter", "is_reserved": 0, "lon": -77.02380483333333}, {"fusion_lat": 0.0, "name": "f4fb892de7f1b0b15278f9cc2b86b913", "is_disabled": 0, "rental_uris": {"android": "https://dc.lft.to/lastmile_qr_scan", "ios": "https://dc.lft.to/lastmile_qr_scan"}, "fusion_lon": 0.0, "lat": 38.92123183333333, "bike_id": "f4fb892de7f1b0b15278f9cc2b86b913", "type": "electric_scooter", "is_reserved": 0, "lon": -77.04390966666666}, {"fusion_lat": 0.0, "name": "d1f7f70b5e8d8df6a9bd88bb3ba9b63a", "is_disabled": 0, "rental_uris": {"android": "https://dc.lft.to/lastmile_qr_scan", "ios": "https://dc.lft.to/lastmile_qr_scan"}, "fusion_lon": 0.0, "lat": 38.92975116666667, "bike_id": "d1f7f70b5e8d8df6a9bd88bb3ba9b63a", "type": "electric_scooter", "is_reserved": 0, "lon": -77.041901}, {"fusion_lat": 0.0, "name": "2ba541505126a96e319065bcb849459a", "is_disabled": 0, "rental_uris": {"android": "https://dc.lft.to/lastmile_qr_scan", "ios": "https://dc.lft.to/lastmile_qr_scan"}, "fusion_lon": 0.0, "lat": 38.9056005, "bike_id": "2ba541505126a96e319065bcb849459a", "type": "electric_scooter", "is_reserved": 0, "lon": -77.00703816666666}, {"fusion_lat": 0.0, "name": "8d27324f92116c31d9a9cb5068b844e0", "is_disabled": 0, "rental_uris": {"android": "https://dc.lft.to/lastmile_qr_scan", "ios": "https://dc.lft.to/lastmile_qr_scan"}, "fusion_lon": 0.0, "lat": 38.92676433333333, "bike_id": "8d27324f92116c31d9a9cb5068b844e0", "type": "electric_scooter", "is_reserved": 0, "lon": -77.03097866666667}, {"fusion_lat": 0.0, "name": "14c20a544f7d327cb866668e3025e004", "is_disabled": 0, "rental_uris": {"android": "https://dc.lft.to/lastmile_qr_scan", "ios": "https://dc.lft.to/lastmile_qr_scan"}, "fusion_lon": 0.0, "lat": 38.879914, "bike_id": "14c20a544f7d327cb866668e3025e004", "type": "electric_bike", "is_reserved": 0, "lon": -76.98412566666667}, {"fusion_lat": 0.0, "name": "f8f342bbda1006c85e095ec79b734bad", "is_disabled": 0, "rental_uris": {"android": "https://dc.lft.to/lastmile_qr_scan", "ios": "https://dc.lft.to/lastmile_qr_scan"}, "fusion_lon": 0.0, "lat": 38.906819, "bike_id": "f8f342bbda1006c85e095ec79b734bad", "type": "electric_scooter", "is_reserved": 0, "lon": -76.951958}, {"fusion_lat": 0.0, "name": "0726529d20837f0ae2723fe93dc7f183", "is_disabled": 0, "rental_uris": {"android": "https://dc.lft.to/lastmile_qr_scan", "ios": "https://dc.lft.to/lastmile_qr_scan"}, "fusion_lon": 0.0, "lat": 38.924057833333336, "bike_id": "0726529d20837f0ae2723fe93dc7f183", "type": "electric_scooter", "is_reserved": 0, "lon": -77.02540016666667},