{"data": {"bikes": [{"rental_uris": {"ios": "https://dc.lft.to/lastmile_qr_scan", "android": "https://dc.lft.to/lastmile_qr_scan"}, "fusion_lat": 0.0, "name": "1192629d196c5d791546b4c76b384138", "bike_id": "1192629d196c5d791546b4c76b384138", "is_disabled": 0, "type": "electric_scooter", "lat": 38.921501166666665, "lon": -77.0209495, "is_reserved": 0, "fusion_lon": 0.0}, {"rental_uris": {"ios": "https://dc.lft.to/lastmile_qr_scan", "android": "https://dc.lft.to/lastmile_qr_scan"}, "fusion_lat": 0.0, "name": "e941aca06210826577e5dc2a8b5b7677", "bike_id": "e941aca06210826577e5dc2a8b5b7677", "is_disabled": 0, "type": "electric_scooter", "lat": 38.92469066666666, "lon": -77.03153216666666, "is_reserved": 0, "fusion_lon": 0.0}, {"rental_uris": {"ios": "https://dc.lft.to/lastmile_qr_scan", "android": "https://dc.lft.to/lastmile_qr_scan"}, "fusion_lat": 0.0, "name": "4ed41d5b9cb01dd7f9a7aa9e5e4c979c", "bike_id": "4ed41d5b9cb01dd7f9a7aa9e5e4c979c", "is_disabled": 0, "type": "electric_scooter", "lat": 38.9215555, "lon": -77.04345333333333, "is_reserved": 0, "fusion_lon": 0.0}, {"rental_uris": {"ios": "https://dc.lft.to/lastmile_qr_scan", "android": "https://dc.lft.to/lastmile_qr_scan"}, "fusion_lat": 0.0, "name": "a7aed70660d94618c618e5d37b1f0229", "bike_id": "a7aed70660d94618c618e5d37b1f0229", "is_disabled": 0, "type": "electric_scooter", "lat": 38.89881233333333, "lon": -76.93176133333333, "is_reserved": 0, "fusion_lon": 0.0}, {"rental_uris": {"ios": "https://dc.lft.to/lastmile_qr_scan", "android": "https://dc.lft.to/lastmile_qr_scan"}, "fusion_lat": 0.0, "name": "64ca272607805ca912d1e745aa24d31e", "bike_id": "64ca272607805ca912d1e745aa24d31e", "is_disabled": 0, "type": "electric_scooter", "lat": 38.88731516666667, "lon": -77.02825983333334, "is_reserved": 0, "fusion_lon": 0.0}, {"rental_uris": {"ios": "https://dc.lft.to/lastmile_qr_scan", "android": "https://dc.lft.to/lastmile_qr_scan"}, "fusion_lat": 0.0, "name": "3b770123d179f4b56e3b617ee4d06749", "bike_id": "3b770123d179f4b56e3b617ee4d06749", "is_disabled": 0, "type": "electric_scooter", "lat": 38.873889166666665, "lon": -77.00033066666667, "is_reserved": 0, "fusion_lon": 0.0}, {"rental_uris": {"ios": "https://dc.lft.to/lastmile_qr_scan", "android": "https://dc.lft.to/lastmile_qr_scan"}, "fusion_lat": 0.0, "name": "116ee7f49e35204c482a2f1a032711f1", "bike_id": "116ee7f49e35204c482a2f1a032711f1", "is_disabled": 0, "type": "electric_scooter", "lat": 38.86884116666667, "lon": -76.98312733333333, "is_reserved": 0, "fusion_lon": 0.0}, {"rental_uris": {"ios": "https://dc.lft.to/lastmile_qr_scan", "android": "https://dc.lft.to/lastmile_qr_scan"}, "fusion_lat": 0.0, "name": "1888ffdd61749ada85a217ee6e934c80", "bike_id": "1888ffdd61749ada85a217ee6e934c80", "is_disabled": 0, "type": "electric_scooter", "lat": 38.84428116666667, "lon": -76.99777916666666, "is_reserved": 0, "fusion_lon": 0.0}, {"rental_uris": {"ios": "https://dc.lft.to/lastmile_qr_scan", "android": "https://dc.lft.to/lastmile_qr_scan"}, "fusion_lat": 0.0, "name": "31e9819822d6206e575fae22f4e6d86c", "bike_id": "31e9819822d6206e575fae22f4e6d86c", "is_disabled": 0, "type": "electric_scooter", "lat": 38.893491166666664, "lon": -77.0110485, "is_reserved": 0, "fusion_lon": 0.0}, {"rental_uris": {"ios": "https://dc.lft.to/lastmile_qr_scan", "android": "https://dc.lft.to/lastmile_qr_scan"}, "fusion_lat": 0.0, "name": "8fe1a5bdb8b56d98d47e735dc922507c", "bike_id": "8fe1a5bdb8b56d98d47e735dc922507c", "is_disabled": 0, "type": "electric_scooter", "lat": 38.92041116666667, "lon": -77.02987216666666, "is_reserved": 0, "fusion_lon": 0.0}, {"rental_uris": {"ios": "https://dc.lft.to/lastmile_qr_scan", "android": "https://dc.lft.to/lastmile_qr_scan"}, "fusion_lat": 0.0, "name": "44131e067354d6b566de8fd3cd7255df", "bike_id": "44131e067354d6b566de8fd3cd7255df", "is_disabled": 0, "type": "electric_bike", "lat": 38.8278235, "lon": -77.00914516666667, "is_reserved": 0, "fusion_lon": 0.0}, {"rental_uris": {"ios": "https://dc.lft.to/lastmile_qr_scan", "android": "https://dc.lft.to/lastmile_qr_scan"}, "fusion_lat": 0.0, "name": "4cfa3fa972cca92521b31bd0f590076b", "bike_id": "4cfa3fa972cca92521b31bd0f590076b", "is_disabled": 0, "type": "electric_scooter", "lat": 38.92361433333333, "lon": -77.05130466666667, "is_reserved": 0, "fusion_lon": 0.0}, {"rental_uris": {"ios": "https://dc.lft.to/lastmile_qr_scan", "android": "https://dc.lft.to/lastmile_qr_scan"}, "fusion_lat": 0.0, "name": "fd30dea758b9124cb042e404a606eb7d", "bike_id": "fd30dea758b9124cb042e404a606eb7d", "is_disabled": 0, "type": "electric_scooter", "lat": 38.8952215, "lon": -76.99208366666667, "is_reserved": 0, "fusion_lon": 0.0}, {"rental_uris": {"ios": "https://dc.lft.to/lastmile_qr_scan", "android": "https://dc.lft.to/lastmile_qr_scan"}, "fusion_lat": 0.0, "name": "336c561327026f26a94b4c791d98d055", "bike_id": "336c561327026f26a94b4c791d98d055", "is_disabled": 0, "type": "electric_scooter", "lat": 38.956101833333335, "lon": -77.02761316666667, "is_reserved": 0, "fusion_lon": 0.0}, {"rental_uris": {"ios": "https://dc.lft.to/lastmile_qr_scan", "android": "https://dc.lft.to/lastmile_qr_scan"}, "fusion_lat": 0.0, "name": "ad4fca7f78e8dfa9715746cc8d1cb49c", "bike_id": "ad4fca7f78e8dfa9715746cc8d1cb49c", "is_disabled": 0, "type": "electric_scooter", "lat": 38.866618333333335, "lon": -76.98505183333333, "is_reserved": 0, "fusion_lon": 0.0}, {"rental_uris": {"ios": "https://dc.lft.to/lastmile_qr_scan", "android": "https://dc.lft.to/lastmile_qr_scan"}, "fusion_lat": 0.0, "name": "99b5ad6ffb30a48c58630ba9d8ab2625", "bike_id": "99b5ad6ffb30a48c58630ba9d8ab2625", "is_disabled": 0, "type": "electric_bike", "lat": 38.80225766666667, "lon": -77.07912466666667, "is_reserved": 0, "fusion_lon": 0.0}, {"rental_uris": {"ios": "https://dc.lft.to/lastmile_qr_scan", "android": "https://dc.lft.to/lastmile_qr_scan"}, "fusion_lat": 0.0, "name": "4399616222b3fd317990d3ed77760211", "bike_id": "4399616222b3fd317990d3ed77760211", "is_disabled": 0, "type": "electric_bike", "lat": 38.967021333333335, "lon": -76.975191, "is_reserved": 0, "fusion_lon": 0.0}, {"rental_uris": {"ios": "https://dc.lft.to/lastmile_qr_scan", "android": "https://dc.lft.to/lastmile_qr_scan"}, "fusion_lat": 0.0, "name": "a05b55258cab3d80e4ef4f287fa59374", "bike_id": "a05b55258cab3d80e4ef4f287fa59374", "is_disabled": 0, "type": "electric_bike", "lat": 38.8427255, "lon": -76.98839216666667, "is_reserved": 0, "fusion_lon": 0.0}, {"rental_uris": {"ios": "https://dc.lft.to/lastmile_qr_scan", "android": "https://dc.lft.to/lastmile_qr_scan"}, "fusion_lat": 0.0, "name": "e049218db6ae1cf22173300ab0990264", "bike_id": "e049218db6ae1cf22173300ab0990264", "is_disabled": 0, "type": "electric_scooter", "lat": 38.902660833333336, "lon": -77.034501, "is_reserved": 0, "fusion_lon": 0.0}, {"rental_uris": {"ios": "https://dc.lft.to/lastmile_qr_scan", "android": "https://dc.lft.to/lastmile_qr_scan"}, "fusion_lat": 0.0, "name": "19035d166cbdb23501ebfac485c04681", "bike_id": "19035d166cbdb23501ebfac485c04681", "is_disabled": 0, "type": "electric_scooter", "lat": 38.92444366666667, "lon": -77.04107, "is_reserved": 0, "fusion_lon": 0.0}, {"rental_uris": {"ios": "https://dc.lft.to/lastmile_qr_scan", "android": "https://dc.lft.to/lastmile_qr_scan"}, "fusion_lat": 0.0, "name": "d2493b23f17c91a222397378c8f5a517", "bike_id": "d2493b23f17c91a222397378c8f5a517", "is_disabled": 0, "type": "electric_scooter", "lat": 38.91880883333333, "lon": -76.96546583333334, "is_reserved": 0, "fusion_lon": 0.0}, {"rental_uris": {"ios": "https://dc.lft.to/lastmile_qr_scan", "android": "https://dc.lft.to/lastmile_qr_scan"}, "fusion_lat": 0.0, "name": "7aee4f4328a9578e76cdd82abaabe407", "bike_id": "7aee4f4328a9578e76cdd82abaabe407", "is_disabled": 0, "type": "electric_scooter", "lat": 38.902626833333336, "lon": -77.04486033333333, "is_reserved": 0, "fusion_lon": 0.0}, {"rental_uris": {"ios": "https://dc.lft.to/lastmile_qr_scan", "android": "https://dc.lft.to/lastmile_qr_scan"}, "fusion_lat": 0.0, "name": "fc625d05760c9461353c7144e7369bcb", "bike_id": "fc625d05760c9461353c7144e7369bcb", "is_disabled": 0, "type": "electric_scooter", "lat": 38.863659, "lon": -76.99031016666666, "is_reserved": 0, "fusion_lon": 0.0}, {"rental_uris": {"ios": "https://dc.lft.to/lastmile_qr_scan", "android": "https://dc.lft.to/lastmile_qr_scan"}, "fusion_lat": 0.0, "name": "87dca4993423c4bbdd65a86e3cb0aa48", "bike_id": "87dca4993423c4bbdd65a86e3cb0aa48", "is_disabled": 0, "type": "electric_scooter", "lat": 38.8839725, "lon": -77.017755, "is_reserved": 0, "fusion_lon": 0.0}, {"rental_uris": {"ios": "https://dc.lft.to/lastmile_qr_scan", "android": "https://dc.lft.to/lastmile_qr_scan"}, "fusion_lat": 0.0, "name": "44d81bb01f344c9c31d7bde3b1ced12e", "bike_id": "44d81bb01f344c9c31d7bde3b1ced12e", "is_disabled": 0, "type": "electric_scooter", "lat": 38.93058966666667, "lon": -77.02322683333334, "is_reserved": 0, "fusion_lon": 0.0}, {"rental_uris": {"ios": "https://dc.lft.to/lastmile_qr_scan", "android": "https://dc.lft.to/lastmile_qr_scan"}, "fusion_lat": 0.0, "name": "83de3294674731b4d83ada4219d7aa31", "bike_id": "83de3294674731b4d83ada4219d7aa31", "is_disabled": 0, "type": "electric_scooter", "lat": 38.902271666666664, "lon": -77.0435605, "is_reserved": 0, "fusion_lon": 0.0}, {"rental_uris": {"ios": "https://dc.lft.to/lastmile_qr_scan", "android": "https://dc.lft.to/lastmile_qr_scan"}, "fusion_lat": 0.0, "name": "243a18f9c376a0273928b41f9c08e5bb", "bike_id": "243a18f9c376a0273928b41f9c08e5bb", "is_disabled": 0, "type": "electric_scooter", "lat": 38.918472, "lon": -77.00914766666666, "is_reserved": 0, "fusion_lon": 0.0}, {"rental_uris": {"ios": "https://dc.lft.to/lastmile_qr_scan", "android": "https://dc.lft.to/lastmile_qr_scan"}, "fusion_lat": 0.0, "name": "1e7afcc7269f0bf596656849e21b7984", "bike_id": "1e7afcc7269f0bf596656849e21b7984", "is_disabled": 0, "type": "electric_bike", "lat": 38.953556666666664, "lon": -76.9809125, "is_reserved": 0, "fusion_lon": 0.0}, {"rental_uris": {"ios": "https://dc.lft.to/lastmile_qr_scan", "android": "https://dc.lft.to/lastmile_qr_scan"}, "fusion_lat": 0.0, "name": "667ba14a6f82712eac4536fe531dd13b", "bike_id": "667ba14a6f82712eac4536fe531dd13b", "is_disabled": 0, "type": "electric_scooter", "lat": 38.907257333333334, "lon": -77.02339916666666, "is_reserved": 0, "fusion_lon": 0.0}, {"rental_uris": {"ios": "https://dc.lft.to/lastmile_qr_scan", "android": "https://dc.lft.to/lastmile_qr_scan"}, "fusion_lat": 0.0, "name": "15ec44a74be3b694d92511cfb75f2d6e", "bike_id": "15ec44a74be3b694d92511cfb75f2d6e", "is_disabled": 0, "type": "electric_bike", "lat": 38.906049333333335, "lon": -77.06297216666667, "is_reserved": 0, "fusion_lon": 0.0}, {"rental_uris": {"ios": "https://dc.lft.to/lastmile_qr_scan", "android": "https://dc.lft.to/lastmile_qr_scan"}, "fusion_lat": 0.0, "name": "7fc16609d2c6d65c6a85e28b07cc46d3", "bike_id": "7fc16609d2c6d65c6a85e28b07cc46d3", "is_disabled": 0, "type": "electric_scooter", "lat": 38.917108, "lon": -77.03672816666666, "is_reserved": 0, "fusion_lon": 0.0}, {"rental_uris": {"ios": "https://dc.lft.to/lastmile_qr_scan", "android": "https://dc.lft.to/lastmile_qr_scan"}, "fusion_lat": 0.0, "name": "adf724dd0055fee8ace46b3bbe74831c", "bike_id": "adf724dd0055fee8ace46b3bbe74831c", "is_disabled": 0, "type": "electric_scooter", "lat": 38.915670166666665, "lon": -77.01197733333333, "is_reserved": 0, "fusion_lon": 0.0}, {"rental_uris": {"ios": "https://dc.lft.to/lastmile_qr_scan", "android": "https://dc.lft.to/lastmile_qr_scan"}, "fusion_lat": 0.0, "name": "bd2aea13bf9e9d051e49517707358f1a", "bike_id": "bd2aea13bf9e9d051e49517707358f1a", "is_disabled": 0, "type": "electric_scooter", "lat": 38.88737483333333, "lon": -77.014656, "is_reserved": 0, "fusion_lon": 0.0}, {"rental_uris": {"ios": "https://dc.lft.to/lastmile_qr_scan", "android": "https://dc.lft.to/lastmile_qr_scan"}, "fusion_lat": 0.0, "name": "b60d6d6f704933dded163ee5b5c79b2c", "bike_id": "b60d6d6f704933dded163ee5b5c79b2c", "is_disabled": 0, "type": "electric_scooter", "lat": 38.86517933333333, "lon": -76.99035166666667, "is_reserved": 0, "fusion_lon": 0.0}, {"rental_uris": {"ios": "https://dc.lft.to/lastmile_qr_scan", "android": "https://dc.lft.to/lastmile_qr_scan"}, "fusion_lat": 0.0, "name": "b478f3827d2b026038266ac93e0e92ee", "bike_id": "b478f3827d2b026038266ac93e0e92ee", "is_disabled": 0, "type": "electric_scooter", "lat": 38.8764135, "lon": -77.01470616666667, "is_reserved": 0, "fusion_lon": 0.0}, {"rental_uris": {"ios": "https://dc.lft.to/lastmile_qr_scan", "android": "https://dc.lft.to/lastmile_qr_scan"}, "fusion_lat": 0.0, "name": "ec09456352c5a8681a47e53a1d41d866", "bike_id": "ec09456352c5a8681a47e53a1d41d866", "is_disabled": 0, "type": "electric_scooter", "lat": 38.91808366666667, "lon": -77.04169633333333, "is_reserved": 0, "fusion_lon": 0.0}, {"rental_uris": {"ios": "https://dc.lft.to/lastmile_qr_scan", "android": "https://dc.lft.to/lastmile_qr_scan"}, "fusion_lat": 0.0, "name": "5bffa743bc431d8cabca856470d322af", "bike_id": "5bffa743bc431d8cabca856470d322af", "is_disabled": 0, "type": "electric_bike", "lat": 38.806642, "lon": -77.06066766666666, "is_reserved": 0, "fusion_lon": 0.0}, {"rental_uris": {"ios": "https://dc.lft.to/lastmile_qr_scan", "android": "https://dc.lft.to/lastmile_qr_scan"}, "fusion_lat": 0.0, "name": "288ec3006d0ea14bfa9ce49bb4d3ae0e", "bike_id": "288ec3006d0ea14bfa9ce49bb4d3ae0e", "is_disabled": 0, "type": "electric_scooter", "lat": 38.91706333333333, "lon": -77.03878833333333, "is_reserved": 0, "fusion_lon": 0.0}, {"rental_uris": {"ios": "https://dc.lft.to/lastmile_qr_scan", "android": "https://dc.lft.to/lastmile_qr_scan"}, "fusion_lat": 0.0, "name": "0558b009915f0a27389b94b53e97d263", "bike_id": "0558b009915f0a27389b94b53e97d263", "is_disabled": 0, "type": "electric_scooter", "lat": 38.9087435, "lon": -77.0038455, "is_reserved": 0, "fusion_lon": 0.0}, {"rental_uris": {"ios": "https://dc.lft.to/lastmile_qr_scan", "android": "https://dc.lft.to/lastmile_qr_scan"}, "fusion_lat": 0.0, "name": "ede1b8c65a845a876cc8ce4cc1089461", "bike_id": "ede1b8c65a845a876cc8ce4cc1089461", "is_disabled": 0, "type": "electric_bike", "lat": 38.852189833333334, "lon": -77.12955116666667, "is_reserved": 0, "fusion_lon": 0.0}, {"rental_uris": {"ios": "https://dc.lft.to/lastmile_qr_scan", "android": "https://dc.lft.to/lastmile_qr_scan"}, "fusion_lat": 0.0, "name": "1dc9a5e047b3f71eb9a56de3ac81f0d4", "bike_id": "1dc9a5e047b3f71eb9a56de3ac81f0d4", "is_disabled": 0, "type": "electric_scooter", "lat": 38.892181, "lon": -77.02623566666666, "is_reserved": 0, "fusion_lon": 0.0}, {"rental_uris": {"ios": "https://dc.lft.to/lastmile_qr_scan", "android": "https://dc.lft.to/lastmile_qr_scan"}, "fusion_lat": 0.0, "name": "ee3c04545dcf80603c4efa9f2615f8be", "bike_id": "ee3c04545dcf80603c4efa9f2615f8be", "is_disabled": 0, "type": "electric_scooter", "lat": 38.90994583333333, "lon": -77.0400725, "is_reserved": 0, "fusion_lon": 0.0}, {"rental_uris": {"ios": "https://dc.lft.to/lastmile_qr_scan", "android": "https://dc.lft.to/lastmile_qr_scan"}, "fusion_lat": 0.0, "name": "ace438ad42d789f795deff5428a6ca46", "bike_id": "ace438ad42d789f795deff5428a6ca46", "is_disabled": 0, "type": "electric_scooter", "lat": 38.92447333333333, "lon": -77.04020766666666, "is_reserved": 0, "fusion_lon": 0.0}, {"rental_uris": {"ios": "https://dc.lft.to/lastmile_qr_scan", "android": "https://dc.lft.to/lastmile_qr_scan"}, "fusion_lat": 0.0, "name": "32e28d00d1081cb3f9609986a718bf65", "bike_id": "32e28d00d1081cb3f9609986a718bf65", "is_disabled": 0, "type": "electric_scooter", "lat": 38.90259016666667, "lon": -77.0274705, "is_reserved": 0, "fusion_lon": 0.0}, {"rental_uris": {"ios": "https://dc.lft.to/lastmile_qr_scan", "android": "https://dc.lft.to/lastmile_qr_scan"}, "fusion_lat": 0.0, "name": "2b6aa3d6992c05985ddfe59efdaa5c1e", "bike_id": "2b6aa3d6992c05985ddfe59efdaa5c1e", "is_disabled": 0, "type": "electric_bike", "lat": 38.865944666666664, "lon": -76.932293, "is_reserved": 0, "fusion_lon": 0.0}, {"rental_uris": {"ios": "https://dc.lft.to/lastmile_qr_scan", "android": "https://dc.lft.to/lastmile_qr_scan"}, "fusion_lat": 0.0, "name": "b0bd54a403b7ed1649d1fc7fe73347bb", "bike_id": "b0bd54a403b7ed1649d1fc7fe73347bb", "is_disabled": 0, "type": "electric_scooter", "lat": 38.908884, "lon": -77.02696016666667, "is_reserved": 0, "fusion_lon": 0.0}, {"rental_uris": {"ios": "https://dc.lft.to/lastmile_qr_scan", "android": "https://dc.lft.to/lastmile_qr_scan"}, "fusion_lat": 0.0, "name": "4c286fe2616878ad6576b56405882fd8", "bike_id": "4c286fe2616878ad6576b56405882fd8", "is_disabled": 0, "type": "electric_bike", "lat": 38.907893666666666, "lon": -77.04729816666666, "is_reserved": 0, "fusion_lon": 0.0}, {"rental_uris": {"ios": "https://dc.lft.to/lastmile_qr_scan", "android": "https://dc.lft.to/lastmile_qr_scan"}, "fusion_lat": 0.0, "name": "f5881798966dee5285a25399d3428194", "bike_id": "f5881798966dee5285a25399d3428194", "is_disabled": 0, "type": "electric_scooter", "lat": 38.924792, "lon": -77.03501983333334, "is_reserved": 0, "fusion_lon": 0.0}, {"rental_uris": {"ios": "https://dc.lft.to/lastmile_qr_scan", "android": "https://dc.lft.to/lastmile_qr_scan"}, "fusion_lat": 0.0, "name": "b1b1a7948aa1326d7a6f55ff01d463e8", "bike_id": "b1b1a7948aa1326d7a6f55ff01d463e8", "is_disabled": 0, "type": "electric_scooter", "lat": 38.914045, "lon": -77.03225766666667, "is_reserved": 0, "fusion_lon": 0.0}, {"rental_uris": {"ios": "https://dc.lft.to/lastmile_qr_scan", "android": "https://dc.lft.to/lastmile_qr_scan"}, "fusion_lat": 0.0, "name": "924e3ad622f68ec1935128c45cd936c0", "bike_id": "924e3ad622f68ec1935128c45cd936c0", "is_disabled": 0, "type": "electric_scooter", "lat": 38.924850666666664, "lon": -77.02259633333334, "is_reserved": 0, "fusion_lon": 0.0}, {"rental_uris": {"ios": "https://dc.lft.to/lastmile_qr_scan", "android": "https://dc.lft.to/lastmile_qr_scan"}, "fusion_lat": 0.0, "name": "c55f78e3d0139de9b716a27001f5503e", "bike_id": "c55f78e3d0139de9b716a27001f5503e", "is_disabled": 0, "type": "electric_scooter", "lat": 38.89588533333333, "lon": -76.94841566666666, "is_reserved": 0, "fusion_lon": 0.0}, {"rental_uris": {"ios": "https://dc.lft.to/lastmile_qr_scan", "android": "https://dc.lft.to/lastmile_qr_scan"}, "fusion_lat": 0.0, "name": "96571275ef76cea5c5317ca439e067da", "bike_id": "96571275ef76cea5c5317ca439e067da", "is_disabled": 0, "type": "electric_scooter", "lat": 38.914035166666665, "lon": -77.02891733333334, "is_reserved": 0, "fusion_lon": 0.0}, {"rental_uris": {"ios": "https://dc.lft.to/lastmile_qr_scan", "android": "https://dc.lft.to/lastmile_qr_scan"}, "fusion_lat": 0.0, "name": "fc436ce27ed590ec5afdeedc5345edd8", "bike_id": "fc436ce27ed590ec5afdeedc5345edd8", "is_disabled": 0, "type": "electric_scooter", "lat": 38.9014335, "lon": -77.04467233333334, "is_reserved": 0, "fusion_lon": 0.0}, {"rental_uris": {"ios": "https://dc.lft.to/lastmile_qr_scan", "android": "https://dc.lft.to/lastmile_qr_scan"}, "fusion_lat": 0.0, "name": "c50b671512a345b076c4ba81d9b7c341", "bike_id": "c50b671512a345b076c4ba81d9b7c341", "is_disabled": 0, "type": "electric_scooter", "lat": 38.87405183333333, "lon": -77.005769, "is_reserved": 0, "fusion_lon": 0.0}, {"rental_uris": {"ios": "https://dc.lft.to/lastmile_qr_scan", "android": "https://dc.lft.to/lastmile_qr_scan"}, "fusion_lat": 0.0, "name": "3da650bda99506229b9b748bf62126fc", "bike_id": "3da650bda99506229b9b748bf62126fc", "is_disabled": 0, "type": "electric_scooter", "lat": 38.9113475, "lon": -77.02189766666666, "is_reserved": 0, "fusion_lon": 0.0}, {"rental_uris": {"ios": "https://dc.lft.to/lastmile_qr_scan", "android": "https://dc.lft.to/lastmile_qr_scan"}, "fusion_lat": 0.0, "name": "64eb7687df38d2963c901670d5fbf263", "bike_id": "64eb7687df38d2963c901670d5fbf263", "is_disabled": 0, "type": "electric_scooter", "lat": 38.90980833333333, "lon": -77.04407166666667, "is_reserved": 0, "fusion_lon": 0.0}, {"rental_uris": {"ios": "https://dc.lft.to/lastmile_qr_scan", "android": "https://dc.lft.to/lastmile_qr_scan"}, "fusion_lat": 0.0, "name": "93d8e75f4cf50d3dae83933d24800d84", "bike_id": "93d8e75f4cf50d3dae83933d24800d84", "is_disabled": 0, "type": "electric_scooter", "lat": 38.96165633333333, "lon": -77.02789333333334, "is_reserved": 0, "fusion_lon": 0.0}, {"rental_uris": {"ios": "https://dc.lft.to/lastmile_qr_scan", "android": "https://dc.lft.to/lastmile_qr_scan"}, "fusion_lat": 0.0, "name": "655a21e663c4248d1665121b3bb8e722", "bike_id": "655a21e663c4248d1665121b3bb8e722", "is_disabled": 0, "type": "electric_scooter", "lat": 38.90803416666667, "lon": -77.04326416666666, "is_reserved": 0, "fusion_lon": 0.0}, {"rental_uris": {"ios": "https://dc.lft.to/lastmile_qr_scan", "android": "https://dc.lft.to/lastmile_qr_scan"}, "fusion_lat": 0.0, "name": "b11b3d8410f2a1d1c3c8a6862757a5b4", "bike_id": "b11b3d8410f2a1d1c3c8a6862757a5b4", "is_disabled": 0, "type": "electric_scooter", "lat": 38.904185, "lon": -77.03251783333333, "is_reserved": 0, "fusion_lon": 0.0}, {"rental_uris": {"ios": "https://dc.lft.to/lastmile_qr_scan", "android": "https://dc.lft.to/lastmile_qr_scan"}, "fusion_lat": 0.0, "name": "7ef5beab2eaf14672870d5db9e10b011", "bike_id": "7ef5beab2eaf14672870d5db9e10b011", "is_disabled": 0, "type": "electric_scooter", "lat": 38.90178433333333, "lon": -77.0130635, "is_reserved": 0, "fusion_lon": 0.0}, {"rental_uris": {"ios": "https://dc.lft.to/lastmile_qr_scan", "android": "https://dc.lft.to/lastmile_qr_scan"}, "fusion_lat": 0.0, "name": "0240e297ec012c16070ccca4a1e680f3", "bike_id": "0240e297ec012c16070ccca4a1e680f3", "is_disabled": 0, "type": "electric_scooter", "lat": 38.887136166666664, "lon": -77.01768616666666, "is_reserved": 0, "fusion_lon": 0.0}, {"rental_uris": {"ios": "https://dc.lft.to/lastmile_qr_scan", "android": "https://dc.lft.to/lastmile_qr_scan"}, "fusion_lat": 0.0, "name": "04c326af45794b5f2a2bfec648f56bea", "bike_id": "04c326af45794b5f2a2bfec648f56bea", "is_disabled": 0, "type": "electric_scooter", "lat": 38.91270883333333, "lon": -77.03642583333334, "is_reserved": 0, "fusion_lon": 0.0}, {"rental_uris": {"ios": "https://dc.lft.to/lastmile_qr_scan", "android": "https://dc.lft.to/lastmile_qr_scan"}, "fusion_lat": 0.0, "name": "12b924883927ed1ddc5e104d2c3b55f9", "bike_id": "12b924883927ed1ddc5e104d2c3b55f9", "is_disabled": 0, "type": "electric_scooter", "lat": 38.91901933333333, "lon": -77.03190033333334, "is_reserved": 0, "fusion_lon": 0.0}, {"rental_uris": {"ios": "https://dc.lft.to/lastmile_qr_scan", "android": "https://dc.lft.to/lastmile_qr_scan"}, "fusion_lat": 0.0, "name": "6e4724d7667c10a8be13873e1cd06161", "bike_id": "6e4724d7667c10a8be13873e1cd06161", "is_disabled": 0, "type": "electric_scooter", "lat": 38.92985916666667, "lon": -77.0550645, "is_reserved": 0, "fusion_lon": 0.0}, {"rental_uris": {"ios": "https://dc.lft.to/lastmile_qr_scan", "android": "https://dc.lft.to/lastmile_qr_scan"}, "fusion_lat": 0.0, "name": "627059172563052714f35328457d57ee", "bike_id": "627059172563052714f35328457d57ee", "is_disabled": 0, "type": "electric_scooter", "lat": 38.9204785, "lon": -77.02580183333333, "is_reserved": 0, "fusion_lon": 0.0}, {"rental_uris": {"ios": "https://dc.lft.to/lastmile_qr_scan", "android": "https://dc.lft.to/lastmile_qr_scan"}, "fusion_lat": 0.0, "name": "bf339d518587666e85d089bf20175748", "bike_id": "bf339d518587666e85d089bf20175748", "is_disabled": 0, "type": "electric_scooter", "lat": 38.903310833333336, "lon": -76.97595683333333, "is_reserved": 0, "fusion_lon": 0.0}, {"rental_uris": {"ios": "https://dc.lft.to/lastmile_qr_scan", "android": "https://dc.lft.to/lastmile_qr_scan"}, "fusion_lat": 0.0, "name": "af19c513e2281e9a7da16e65cbfc97c8", "bike_id": "af19c513e2281e9a7da16e65cbfc97c8", "is_disabled": 0, "type": "electric_scooter", "lat": 38.91742416666666, "lon": -77.03183166666666, "is_reserved": 0, "fusion_lon": 0.0}, {"rental_uris": {"ios": "https://dc.lft.to/lastmile_qr_scan", "android": "https://dc.lft.to/lastmile_qr_scan"}, "fusion_lat": 0.0, "name": "4e9e671944c3e2e86ac6fa6c39936506", "bike_id": "4e9e671944c3e2e86ac6fa6c39936506", "is_disabled": 0, "type": "electric_scooter", "lat": 38.90311483333333, "lon": -77.02505516666666, "is_reserved": 0, "fusion_lon": 0.0}, {"rental_uris": {"ios": "https://dc.lft.to/lastmile_qr_scan", "android": "https://dc.lft.to/lastmile_qr_scan"}, "fusion_lat": 0.0, "name": "f7af9546960ff59a1d967bb4dba20846", "bike_id": "f7af9546960ff59a1d967bb4dba20846", "is_disabled": 0, "type": "electric_scooter", "lat": 38.90868066666667, "lon": -77.04590966666666, "is_reserved": 0, "fusion_lon": 0.0}, {"rental_uris": {"ios": "https://dc.lft.to/lastmile_qr_scan", "android": "https://dc.lft.to/lastmile_qr_scan"}, "fusion_lat": 0.0, "name": "c1828fa4288d9adcd734163d6aa3a34d", "bike_id": "c1828fa4288d9adcd734163d6aa3a34d", "is_disabled": 0, "type": "electric_scooter", "lat": 38.9027825, "lon": -77.03835216666667, "is_reserved": 0, "fusion_lon": 0.0}, {"rental_uris": {"ios": "https://dc.lft.to/lastmile_qr_scan", "android": "https://dc.lft.to/lastmile_qr_scan"}, "fusion_lat": 0.0, "name": "8db8b6030dd7b5b17c3779e6161f28b2", "bike_id": "8db8b6030dd7b5b17c3779e6161f28b2", "is_disabled": 0, "type": "electric_bike", "lat": 38.913462333333335, "lon": -77.0294875, "is_reserved": 0, "fusion_lon": 0.0}, {"rental_uris": {"ios": "https://dc.lft.to/lastmile_qr_scan", "android": "https://dc.lft.to/lastmile_qr_scan"}, "fusion_lat": 0.0, "name": "64b4381f4bda97c3623bab9816ca63ee", "bike_id": "64b4381f4bda97c3623bab9816ca63ee", "is_disabled": 0, "type": "electric_scooter", "lat": 38.914018, "lon": -77.01307916666667, "is_reserved": 0, "fusion_lon": 0.0}, {"rental_uris": {"ios": "https://dc.lft.to/lastmile_qr_scan", "android": "https://dc.lft.to/lastmile_qr_scan"}, "fusion_lat": 0.0, "name": "5c8fcd86ffcf9a537816cf1359678fbd", "bike_id": "5c8fcd86ffcf9a537816cf1359678fbd", "is_disabled": 0, "type": "electric_scooter", "lat": 38.917102166666666, "lon": -77.034798, "is_reserved": 0, "fusion_lon": 0.0}, {"rental_uris": {"ios": "https://dc.lft.to/lastmile_qr_scan", "android": "https://dc.lft.to/lastmile_qr_scan"}, "fusion_lat": 0.0, "name": "f52a6cb0cc2968acb2c4b1953cb8a1be", "bike_id": "f52a6cb0cc2968acb2c4b1953cb8a1be", "is_disabled": 0, "type": "electric_scooter", "lat": 38.91276466666667, "lon": -77.07823483333334, "is_reserved": 0, "fusion_lon": 0.0}, {"rental_uris": {"ios": "https://dc.lft.to/lastmile_qr_scan", "android": "https://dc.lft.to/lastmile_qr_scan"}, "fusion_lat": 0.0, "name": "01b641c795019504325438d60221cd02", "bike_id": "01b641c795019504325438d60221cd02", "is_disabled": 0, "type": "electric_scooter", "lat": 38.931417, "lon": -77.0335225, "is_reserved": 0, "fusion_lon": 0.0}, {"rental_uris": {"ios": "https://dc.lft.to/lastmile_qr_scan", "android": "https://dc.lft.to/lastmile_qr_scan"}, "fusion_lat": 0.0, "name": "42f0cf6245dcc99a7ac1228cf91d700e", "bike_id": "42f0cf6245dcc99a7ac1228cf91d700e", "is_disabled": 0, "type": "electric_scooter", "lat": 38.9154995, "lon": -77.02212083333333, "is_reserved": 0, "fusion_lon": 0.0}, {"rental_uris": {"ios": "https://dc.lft.to/lastmile_qr_scan", "android": "https://dc.lft.to/lastmile_qr_scan"}, "fusion_lat": 0.0, "name": "7d4727847dd120c114da1395183f74cd", "bike_id": "7d4727847dd120c114da1395183f74cd", "is_disabled": 0, "type": "electric_scooter", "lat": 38.91703116666667, "lon": -77.03888216666667, "is_reserved": 0, "fusion_lon": 0.0}, {"rental_uris": {"ios": "https://dc.lft.to/lastmile_qr_scan", "android": "https://dc.lft.to/lastmile_qr_scan"}, "fusion_lat": 0.0, "name": "254c174305d6645f47dfafa2819adc9f", "bike_id": "254c174305d6645f47dfafa2819adc9f", "is_disabled": 0, "type": "electric_scooter", "lat": 38.904081, "lon": -77.04332233333334, "is_reserved": 0, "fusion_lon": 0.0}, {"rental_uris": {"ios": "https://dc.lft.to/lastmile_qr_scan", "android": "https://dc.lft.to/lastmile_qr_scan"}, "fusion_lat": 0.0, "name": "039995590816544601ce80729f80b8b6", "bike_id": "039995590816544601ce80729f80b8b6", "is_disabled": 0, "type": "electric_scooter", "lat": 38.893491166666664, "lon": -77.01166533333334, "is_reserved": 0, "fusion_lon": 0.0}, {"rental_uris": {"ios": "https://dc.lft.to/lastmile_qr_scan", "android": "https://dc.lft.to/lastmile_qr_scan"}, "fusion_lat": 0.0, "name": "fd92938b26b11cb8439f971ad22c0518", "bike_id": "fd92938b26b11cb8439f971ad22c0518", "is_disabled": 0, "type": "electric_scooter", "lat": 38.9329335, "lon": -77.0452945, "is_reserved": 0, "fusion_lon": 0.0}, {"rental_uris": {"ios": "https://dc.lft.to/lastmile_qr_scan", "android": "https://dc.lft.to/lastmile_qr_scan"}, "fusion_lat": 0.0, "name": "1f137ff40f4c364ca9a80f8068107990", "bike_id": "1f137ff40f4c364ca9a80f8068107990", "is_disabled": 0, "type": "electric_scooter", "lat": 38.9541015, "lon": -77.02796833333333, "is_reserved": 0, "fusion_lon": 0.0}, {"rental_uris": {"ios": "https://dc.lft.to/lastmile_qr_scan", "android": "https://dc.lft.to/lastmile_qr_scan"}, "fusion_lat": 0.0, "name": "18ddbf85772549f53383ca6532aedea2", "bike_id": "18ddbf85772549f53383ca6532aedea2", "is_disabled": 0, "type": "electric_scooter", "lat": 38.9577725, "lon": -77.02742983333333, "is_reserved": 0, "fusion_lon": 0.0}, {"rental_uris": {"ios": "https://dc.lft.to/lastmile_qr_scan", "android": "https://dc.lft.to/lastmile_qr_scan"}, "fusion_lat": 0.0, "name": "4bc28eec80d0ea939f03f1ad944124ca", "bike_id": "4bc28eec80d0ea939f03f1ad944124ca", "is_disabled": 0, "type": "electric_scooter", "lat": 38.92345383333333, "lon": -77.05123983333333, "is_reserved": 0, "fusion_lon": 0.0}, {"rental_uris": {"ios": "https://dc.lft.to/lastmile_qr_scan", "android": "https://dc.lft.to/lastmile_qr_scan"}, "fusion_lat": 0.0, "name": "abdc3b94e14dff4d850344f894b8bcb2", "bike_id": "abdc3b94e14dff4d850344f894b8bcb2", "is_disabled": 0, "type": "electric_scooter", "lat": 38.923392666666665, "lon": -77.05049166666667, "is_reserved": 0, "fusion_lon": 0.0}, {"rental_uris": {"ios": "https://dc.lft.to/lastmile_qr_scan", "android": "https://dc.lft.to/lastmile_qr_scan"}, "fusion_lat": 0.0, "name": "f27ee8c28755c3308206d6571f0fc8bc", "bike_id": "f27ee8c28755c3308206d6571f0fc8bc", "is_disabled": 0, "type": "electric_scooter", "lat": 38.885066333333334, "lon": -77.01583083333334, "is_reserved": 0, "fusion_lon": 0.0}, {"rental_uris": {"ios": "https://dc.lft.to/lastmile_qr_scan", "android": "https://dc.lft.to/lastmile_qr_scan"}, "fusion_lat": 0.0, "name": "63e84e06817f63492164e6931b2f7b9c", "bike_id": "63e84e06817f63492164e6931b2f7b9c", "is_disabled": 0, "type": "electric_scooter", "lat": 38.8921915, "lon": -77.0235005, "is_reserved": 0, "fusion_lon": 0.0}, {"rental_uris": {"ios": "https://dc.lft.to/lastmile_qr_scan", "android": "https://dc.lft.to/lastmile_qr_scan"}, "fusion_lat": 0.0, "name": "02097299f293e90c761271648e102e6b", "bike_id": "02097299f293e90c761271648e102e6b", "is_disabled": 0, "type": "electric_scooter", "lat": 38.8988795, "lon": -77.04325516666667, "is_reserved": 0, "fusion_lon": 0.0}, {"rental_uris": {"ios": "https://dc.lft.to/lastmile_qr_scan", "android": "https://dc.lft.to/lastmile_qr_scan"}, "fusion_lat": 0.0, "name": "c4322eb094b75ad7a57a458592fa58bb", "bike_id": "c4322eb094b75ad7a57a458592fa58bb", "is_disabled": 0, "type": "electric_scooter", "lat": 38.868315833333334, "lon": -76.97743216666667, "is_reserved": 0, "fusion_lon": 0.0}, {"rental_uris": {"ios": "https://dc.lft.to/lastmile_qr_scan", "android": "https://dc.lft.to/lastmile_qr_scan"}, "fusion_lat": 0.0, "name": "428fe44ddecf34dcf61262283e7fe734", "bike_id": "428fe44ddecf34dcf61262283e7fe734", "is_disabled": 0, "type": "electric_bike", "lat": 38.9328875, "lon": -77.02844966666666, "is_reserved": 0, "fusion_lon": 0.0}, {"rental_uris": {"ios": "https://dc.lft.to/lastmile_qr_scan", "android": "https://dc.lft.to/lastmile_qr_scan"}, "fusion_lat": 0.0, "name": "9234ae9cb63f7e7d51de509494ba3b16", "bike_id": "9234ae9cb63f7e7d51de509494ba3b16", "is_disabled": 0, "type": "electric_scooter", "lat": 38.86716416666667, "lon": -76.98703016666667, "is_reserved": 0, "fusion_lon": 0.0}, {"rental_uris": {"ios": "https://dc.lft.to/lastmile_qr_scan", "android": "https://dc.lft.to/lastmile_qr_scan"}, "fusion_lat": 0.0, "name": "2dd8b437f401d0f0f4ae0628c080a06c", "bike_id": "2dd8b437f401d0f0f4ae0628c080a06c", "is_disabled": 0, "type": "electric_scooter", "lat": 38.896493, "lon": -77.046584, "is_reserved": 0, "fusion_lon": 0.0}, {"rental_uris": {"ios": "https://dc.lft.to/lastmile_qr_scan", "android": "https://dc.lft.to/lastmile_qr_scan"}, "fusion_lat": 0.0, "name": "1967df3beb4b72364f66b1ca44b63649", "bike_id": "1967df3beb4b72364f66b1ca44b63649", "is_disabled": 0, "type": "electric_scooter", "lat": 38.892375666666666, "lon": -77.0466275, "is_reserved": 0, "fusion_lon": 0.0}, {"rental_uris": {"ios": "https://dc.lft.to/lastmile_qr_scan", "android": "https://dc.lft.to/lastmile_qr_scan"}, "fusion_lat": 0.0, "name": "9444d676a425b2e4fceb10759907ca27", "bike_id": "9444d676a425b2e4fceb10759907ca27", "is_disabled": 0, "type": "electric_scooter", "lat": 38.903885, "lon": -77.0177865, "is_reserved": 0, "fusion_lon": 0.0}, {"rental_uris": {"ios": "https://dc.lft.to/lastmile_qr_scan", "android": "https://dc.lft.to/lastmile_qr_scan"}, "fusion_lat": 0.0, "name": "5ab54a2221fbc387cefce040a29449e9", "bike_id": "5ab54a2221fbc387cefce040a29449e9", "is_disabled": 0, "type": "electric_scooter", "lat": 38.90081766666667, "lon": -77.05066983333333, "is_reserved": 0, "fusion_lon": 0.0}, {"rental_uris": {"ios": "https://dc.lft.to/lastmile_qr_scan", "android": "https://dc.lft.to/lastmile_qr_scan"}, "fusion_lat": 0.0, "name": "96d6d55fa51c7ae96343a0e064246e16", "bike_id": "96d6d55fa51c7ae96343a0e064246e16", "is_disabled": 0, "type": "electric_scooter", "lat": 38.903653166666665, "lon": -77.03836666666666, "is_reserved": 0, "fusion_lon": 0.0}, {"rental_uris": {"ios": "https://dc.lft.to/lastmile_qr_scan", "android": "https://dc.lft.to/lastmile_qr_scan"}, "fusion_lat": 0.0, "name": "6ae34d65a1390328ecc92c49ea00c2be", "bike_id": "6ae34d65a1390328ecc92c49ea00c2be", "is_disabled": 0, "type": "electric_scooter", "lat": 38.91130533333333, "lon": -77.02691216666666, "is_reserved": 0, "fusion_lon": 0.0}, {"rental_uris": {"ios": "https://dc.lft.to/lastmile_qr_scan", "android": "https://dc.lft.to/lastmile_qr_scan"}, "fusion_lat": 0.0, "name": "6f7594de6228e40a8075a6bd1f52a4fc", "bike_id": "6f7594de6228e40a8075a6bd1f52a4fc", "is_disabled": 0, "type": "electric_scooter", "lat": 38.895386, "lon": -77.02194166666666, "is_reserved": 0, "fusion_lon": 0.0}, {"rental_uris": {"ios": "https://dc.lft.to/lastmile_qr_scan", "android": "https://dc.lft.to/lastmile_qr_scan"}, "fusion_lat": 0.0, "name": "fb6d841d29d65ebdac68fa7be1bf73b4", "bike_id": "fb6d841d29d65ebdac68fa7be1bf73b4", "is_disabled": 0, "type": "electric_scooter", "lat": 38.9141175, "lon": -77.03997566666666, "is_reserved": 0, "fusion_lon": 0.0}, {"rental_uris": {"ios": "https://dc.lft.to/lastmile_qr_scan", "android": "https://dc.lft.to/lastmile_qr_scan"}, "fusion_lat": 0.0, "name": "c4f30002e93ff5c1eb8b628545856ecd", "bike_id": "c4f30002e93ff5c1eb8b628545856ecd", "is_disabled": 0, "type": "electric_scooter", "lat": 38.8922835, "lon": -77.05003816666667, "is_reserved": 0, "fusion_lon": 0.0}, {"rental_uris": {"ios": "https://dc.lft.to/lastmile_qr_scan", "android": "https://dc.lft.to/lastmile_qr_scan"}, "fusion_lat": 0.0, "name": "07eef02e87e106801d5d898c59f38b29", "bike_id": "07eef02e87e106801d5d898c59f38b29", "is_disabled": 0, "type": "electric_bike", "lat": 38.862114166666665, "lon": -76.99777516666667, "is_reserved": 0, "fusion_lon": 0.0}, {"rental_uris": {"ios": "https://dc.lft.to/lastmile_qr_scan", "android": "https://dc.lft.to/lastmile_qr_scan"}, "fusion_lat": 0.0, "name": "ca0148e06d1117129f83ae522c9bdbdc", "bike_id": "ca0148e06d1117129f83ae522c9bdbdc", "is_disabled": 0, "type": "electric_scooter", "lat": 38.918757166666666, "lon": -77.03539333333333, "is_reserved": 0, "fusion_lon": 0.0}, {"rental_uris": {"ios": "https://dc.lft.to/lastmile_qr_scan", "android": "https://dc.lft.to/lastmile_qr_scan"}, "fusion_lat": 0.0, "name": "3adea04bcd0f448e9046d399a228fefc", "bike_id": "3adea04bcd0f448e9046d399a228fefc", "is_disabled": 0, "type": "electric_scooter", "lat": 38.928569833333334, "lon": -77.03102166666666, "is_reserved": 0, "fusion_lon": 0.0}, {"rental_uris": {"ios": "https://dc.lft.to/lastmile_qr_scan", "android": "https://dc.lft.to/lastmile_qr_scan"}, "fusion_lat": 0.0, "name": "3029facb3cf8a68d33fb7a5529f48e5a", "bike_id": "3029facb3cf8a68d33fb7a5529f48e5a", "is_disabled": 0, "type": "electric_scooter", "lat": 38.9176195, "lon": -77.02712333333334, "is_reserved": 0, "fusion_lon": 0.0}, {"rental_uris": {"ios": "https://dc.lft.to/lastmile_qr_scan", "android": "https://dc.lft.to/lastmile_qr_scan"}, "fusion_lat": 0.0, "name": "a5ab4605354725b5c79ee93a22c29cd4", "bike_id": "a5ab4605354725b5c79ee93a22c29cd4", "is_disabled": 0, "type": "electric_scooter", "lat": 38.9281615, "lon": -77.02873133333334, "is_reserved": 0, "fusion_lon": 0.0}, {"rental_uris": {"ios": "https://dc.lft.to/lastmile_qr_scan", "android": "https://dc.lft.to/lastmile_qr_scan"}, "fusion_lat": 0.0, "name": "f9ce160f93e60cef97f8dfaeb0bfd7d4", "bike_id": "f9ce160f93e60cef97f8dfaeb0bfd7d4", "is_disabled": 0, "type": "electric_scooter", "lat": 38.91594683333334, "lon": -77.0317605, "is_reserved": 0, "fusion_lon": 0.0}, {"rental_uris": {"ios": "https://dc.lft.to/lastmile_qr_scan", "android": "https://dc.lft.to/lastmile_qr_scan"}, "fusion_lat": 0.0, "name": "a18f8acbf70550732a106d691718a255", "bike_id": "a18f8acbf70550732a106d691718a255", "is_disabled": 0, "type": "electric_scooter", "lat": 38.8665135, "lon": -76.98514216666666, "is_reserved": 0, "fusion_lon": 0.0}, {"rental_uris": {"ios": "https://dc.lft.to/lastmile_qr_scan", "android": "https://dc.lft.to/lastmile_qr_scan"}, "fusion_lat": 0.0, "name": "0b02a0685d00c807af5e70cb1862566b", "bike_id": "0b02a0685d00c807af5e70cb1862566b", "is_disabled": 0, "type": "electric_bike", "lat": 38.87091216666666, "lon": -77.01209966666667, "is_reserved": 0, "fusion_lon": 0.0}, {"rental_uris": {"ios": "https://dc.lft.to/lastmile_qr_scan", "android": "https://dc.lft.to/lastmile_qr_scan"}, "fusion_lat": 0.0, "name": "8bfb6fe83216b8fac3b87c4af0e4adaf", "bike_id": "8bfb6fe83216b8fac3b87c4af0e4adaf", "is_disabled": 0, "type": "electric_scooter", "lat": 38.914225333333334, "lon": -77.03928066666667, "is_reserved": 0, "fusion_lon": 0.0}, {"rental_uris": {"ios": "https://dc.lft.to/lastmile_qr_scan", "android": "https://dc.lft.to/lastmile_qr_scan"}, "fusion_lat": 0.0, "name": "980d0af67204ea872c848c96d07cc97e", "bike_id": "980d0af67204ea872c848c96d07cc97e", "is_disabled": 0, "type": "electric_scooter", "lat": 38.89880516666667, "lon": -76.931759, "is_reserved": 0, "fusion_lon": 0.0}, {"rental_uris": {"ios": "https://dc.lft.to/lastmile_qr_scan", "android": "https://dc.lft.to/lastmile_qr_scan"}, "fusion_lat": 0.0, "name": "12c20375e581f17e3e6b4b53d4d06cd1", "bike_id": "12c20375e581f17e3e6b4b53d4d06cd1", "is_disabled": 0, "type": "electric_scooter", "lat": 38.903778833333334, "lon": -77.03208683333334, "is_reserved": 0, "fusion_lon": 0.0}, {"rental_uris": {"ios": "https://dc.lft.to/lastmile_qr_scan", "android": "https://dc.lft.to/lastmile_qr_scan"}, "fusion_lat": 0.0, "name": "3a63dbafbe2034b6218b35aad50d15af", "bike_id": "3a63dbafbe2034b6218b35aad50d15af", "is_disabled": 0, "type": "electric_scooter", "lat": 38.922299, "lon": -77.02975533333333, "is_reserved": 0, "fusion_lon": 0.0}, {"rental_uris": {"ios": "https://dc.lft.to/lastmile_qr_scan", "android": "https://dc.lft.to/lastmile_qr_scan"}, "fusion_lat": 0.0, "name": "b45ba42354b8548c9578be47e63699cb", "bike_id": "b45ba42354b8548c9578be47e63699cb", "is_disabled": 0, "type": "electric_scooter", "lat": 38.9027535, "lon": -77.03845683333333, "is_reserved": 0, "fusion_lon": 0.0}, {"rental_uris": {"ios": "https://dc.lft.to/lastmile_qr_scan", "android": "https://dc.lft.to/lastmile_qr_scan"}, "fusion_lat": 0.0, "name": "1e18ee26e12296644e6765f2aa581eb0", "bike_id": "1e18ee26e12296644e6765f2aa581eb0", "is_disabled": 0, "type": "electric_scooter", "lat": 38.91336016666666, "lon": -77.03168833333334, "is_reserved": 0, "fusion_lon": 0.0}, {"rental_uris": {"ios": "https://dc.lft.to/lastmile_qr_scan", "android": "https://dc.lft.to/lastmile_qr_scan"}, "fusion_lat": 0.0, "name": "17fd8f6cc360f3183b56a0e68e756c26", "bike_id": "17fd8f6cc360f3183b56a0e68e756c26", "is_disabled": 0, "type": "electric_scooter", "lat": 38.9563735, "lon": -77.0329175, "is_reserved": 0, "fusion_lon": 0.0}, {"rental_uris": {"ios": "https://dc.lft.to/lastmile_qr_scan", "android": "https://dc.lft.to/lastmile_qr_scan"}, "fusion_lat": 0.0, "name": "9125336d6d90f70bb5b010b841eb89c0", "bike_id": "9125336d6d90f70bb5b010b841eb89c0", "is_disabled": 0, "type": "electric_bike", "lat": 39.052717, "lon": -77.11196366666667, "is_reserved": 0, "fusion_lon": 0.0}, {"rental_uris": {"ios": "https://dc.lft.to/lastmile_qr_scan", "android": "https://dc.lft.to/lastmile_qr_scan"}, "fusion_lat": 0.0, "name": "3418754f8770d5688dec670a13505116", "bike_id": "3418754f8770d5688dec670a13505116", "is_disabled": 0, "type": "electric_scooter", "lat": 38.90461283333333, "lon": -77.04478633333333, "is_reserved": 0, "fusion_lon": 0.0}, {"rental_uris": {"ios": "https://dc.lft.to/lastmile_qr_scan", "android": "https://dc.lft.to/lastmile_qr_scan"}, "fusion_lat": 0.0, "name": "fe65d1ce764cd4414ec8c3c07abe29c1", "bike_id": "fe65d1ce764cd4414ec8c3c07abe29c1", "is_disabled": 0, "type": "electric_scooter", "lat": 38.92474883333333, "lon": -77.02717716666666, "is_reserved": 0, "fusion_lon": 0.0}, {"rental_uris": {"ios": "https://dc.lft.to/lastmile_qr_scan", "android": "https://dc.lft.to/lastmile_qr_scan"}, "fusion_lat": 0.0, "name": "4765f23832d60353d902038cc2aac596", "bike_id": "4765f23832d60353d902038cc2aac596", "is_disabled": 0, "type": "electric_scooter", "lat": 38.91491233333333, "lon": -77.03208, "is_reserved": 0, "fusion_lon": 0.0}, {"rental_uris": {"ios": "https://dc.lft.to/lastmile_qr_scan", "android": "https://dc.lft.to/lastmile_qr_scan"}, "fusion_lat": 0.0, "name": "1c64dc9b029b1ee643da12ab35cdf799", "bike_id": "1c64dc9b029b1ee643da12ab35cdf799", "is_disabled": 0, "type": "electric_scooter", "lat": 38.91421966666667, "lon": -77.03187916666667, "is_reserved": 0, "fusion_lon": 0.0}, {"rental_uris": {"ios": "https://dc.lft.to/lastmile_qr_scan", "android": "https://dc.lft.to/lastmile_qr_scan"}, "fusion_lat": 0.0, "name": "8959458e526a6d200e1beba65fafbf1f", "bike_id": "8959458e526a6d200e1beba65fafbf1f", "is_disabled": 0, "type": "electric_scooter", "lat": 38.912065, "lon": -77.0412575, "is_reserved": 0, "fusion_lon": 0.0}, {"rental_uris": {"ios": "https://dc.lft.to/lastmile_qr_scan", "android": "https://dc.lft.to/lastmile_qr_scan"}, "fusion_lat": 0.0, "name": "12c851b3a01090ad338350c3bc0a30ca", "bike_id": "12c851b3a01090ad338350c3bc0a30ca", "is_disabled": 0, "type": "electric_scooter", "lat": 38.91560916666667, "lon": -77.03154216666667, "is_reserved": 0, "fusion_lon": 0.0}, {"rental_uris": {"ios": "https://dc.lft.to/lastmile_qr_scan", "android": "https://dc.lft.to/lastmile_qr_scan"}, "fusion_lat": 0.0, "name": "fc4b928cc7f780acfdc167b5cff264d4", "bike_id": "fc4b928cc7f780acfdc167b5cff264d4", "is_disabled": 0, "type": "electric_scooter", "lat": 38.901596166666664, "lon": -77.048619, "is_reserved": 0, "fusion_lon": 0.0}, {"rental_uris": {"ios": "https://dc.lft.to/lastmile_qr_scan", "android": "https://dc.lft.to/lastmile_qr_scan"}, "fusion_lat": 0.0, "name": "9e989971307c7ba4374194691a1f3737", "bike_id": "9e989971307c7ba4374194691a1f3737", "is_disabled": 0, "type": "electric_scooter", "lat": 38.9318975, "lon": -77.02829033333333, "is_reserved": 0, "fusion_lon": 0.0}, {"rental_uris": {"ios": "https://dc.lft.to/lastmile_qr_scan", "android": "https://dc.lft.to/lastmile_qr_scan"}, "fusion_lat": 0.0, "name": "ee6697f4213040512d7f52a93891c43d", "bike_id": "ee6697f4213040512d7f52a93891c43d", "is_disabled": 0, "type": "electric_bike", "lat": 38.949185166666666, "lon": -77.00798516666667, "is_reserved": 0, "fusion_lon": 0.0}, {"rental_uris": {"ios": "https://dc.lft.to/lastmile_qr_scan", "android": "https://dc.lft.to/lastmile_qr_scan"}, "fusion_lat": 0.0, "name": "ab3391aca9593b808d80777330ff505d", "bike_id": "ab3391aca9593b808d80777330ff505d", "is_disabled": 0, "type": "electric_scooter", "lat": 38.907976, "lon": -77.04326433333334, "is_reserved": 0, "fusion_lon": 0.0}, {"rental_uris": {"ios": "https://dc.lft.to/lastmile_qr_scan", "android": "https://dc.lft.to/lastmile_qr_scan"}, "fusion_lat": 0.0, "name": "f3b8ee2c6a0b07cd756be4717ddb1e78", "bike_id": "f3b8ee2c6a0b07cd756be4717ddb1e78", "is_disabled": 0, "type": "electric_scooter", "lat": 38.92175016666667, "lon": -77.04015033333333, "is_reserved": 0, "fusion_lon": 0.0}, {"rental_uris": {"ios": "https://dc.lft.to/lastmile_qr_scan", "android": "https://dc.lft.to/lastmile_qr_scan"}, "fusion_lat": 0.0, "name": "38c9b275163ca0f96b313f3d9eb84427", "bike_id": "38c9b275163ca0f96b313f3d9eb84427", "is_disabled": 0, "type": "electric_scooter", "lat": 38.928042166666664, "lon": -77.0260585, "is_reserved": 0, "fusion_lon": 0.0}, {"rental_uris": {"ios": "https://dc.lft.to/lastmile_qr_scan", "android": "https://dc.lft.to/lastmile_qr_scan"}, "fusion_lat": 0.0, "name": "2ef84f859ad00c3d879c1f069f163113", "bike_id": "2ef84f859ad00c3d879c1f069f163113", "is_disabled": 0, "type": "electric_scooter", "lat": 38.946470166666664, "lon": -77.03106416666667, "is_reserved": 0, "fusion_lon": 0.0}, {"rental_uris": {"ios": "https://dc.lft.to/lastmile_qr_scan", "android": "https://dc.lft.to/lastmile_qr_scan"}, "fusion_lat": 0.0, "name": "f482ba3832ff88fcadf48e3e682e4e7f", "bike_id": "f482ba3832ff88fcadf48e3e682e4e7f", "is_disabled": 0, "type": "electric_scooter", "lat": 38.89971766666667, "lon": -77.05269, "is_reserved": 0, "fusion_lon": 0.0}, {"rental_uris": {"ios": "https://dc.lft.to/lastmile_qr_scan", "android": "https://dc.lft.to/lastmile_qr_scan"}, "fusion_lat": 0.0, "name": "1836eca1e21b840ab96b2ae2376caa00", "bike_id": "1836eca1e21b840ab96b2ae2376caa00", "is_disabled": 0, "type": "electric_scooter", "lat": 38.8922375, "lon": -77.03221516666666, "is_reserved": 0, "fusion_lon": 0.0}, {"rental_uris": {"ios": "https://dc.lft.to/lastmile_qr_scan", "android": "https://dc.lft.to/lastmile_qr_scan"}, "fusion_lat": 0.0, "name": "b3baa6fcd3d5dcb4243890fa4ed726c7", "bike_id": "b3baa6fcd3d5dcb4243890fa4ed726c7", "is_disabled": 0, "type": "electric_scooter", "lat": 38.909772333333336, "lon": -76.9950795, "is_reserved": 0, "fusion_lon": 0.0}, {"rental_uris": {"ios": "https://dc.lft.to/lastmile_qr_scan", "android": "https://dc.lft.to/lastmile_qr_scan"}, "fusion_lat": 0.0, "name": "665a63f5b823873e031bea019ad9d811", "bike_id": "665a63f5b823873e031bea019ad9d811", "is_disabled": 0, "type": "electric_scooter", "lat": 38.90375233333334, "lon": -77.046027, "is_reserved": 0, "fusion_lon": 0.0}, {"rental_uris": {"ios": "https://dc.lft.to/lastmile_qr_scan", "android": "https://dc.lft.to/lastmile_qr_scan"}, "fusion_lat": 0.0, "name": "f8ec031eadeb992c88e0284f8bd501a8", "bike_id": "f8ec031eadeb992c88e0284f8bd501a8", "is_disabled": 0, "type": "electric_scooter", "lat": 38.90523366666667, "lon": -77.04179083333334, "is_reserved": 0, "fusion_lon": 0.0}, {"rental_uris": {"ios": "https://dc.lft.to/lastmile_qr_scan", "android": "https://dc.lft.to/lastmile_qr_scan"}, "fusion_lat": 0.0, "name": "e0217fca5eff3866ee558c77a0c0162d", "bike_id": "e0217fca5eff3866ee558c77a0c0162d", "is_disabled": 0, "type": "electric_scooter", "lat": 38.90960966666667, "lon": -77.04652833333333, "is_reserved": 0, "fusion_lon": 0.0}, {"rental_uris": {"ios": "https://dc.lft.to/lastmile_qr_scan", "android": "https://dc.lft.to/lastmile_qr_scan"}, "fusion_lat": 0.0, "name": "0bb5d8d038d606857126b699c4b630a6", "bike_id": "0bb5d8d038d606857126b699c4b630a6", "is_disabled": 0, "type": "electric_scooter", "lat": 38.901335, "lon": -77.04876916666667, "is_reserved": 0, "fusion_lon": 0.0}, {"rental_uris": {"ios": "https://dc.lft.to/lastmile_qr_scan", "android": "https://dc.lft.to/lastmile_qr_scan"}, "fusion_lat": 0.0, "name": "b97c915da717aeea397b53dced3501a8", "bike_id": "b97c915da717aeea397b53dced3501a8", "is_disabled": 0, "type": "electric_scooter", "lat": 38.917102666666665, "lon": -77.036734, "is_reserved": 0, "fusion_lon": 0.0}, {"rental_uris": {"ios": "https://dc.lft.to/lastmile_qr_scan", "android": "https://dc.lft.to/lastmile_qr_scan"}, "fusion_lat": 0.0, "name": "1374fa831719e954038279a1a42bc13f", "bike_id": "1374fa831719e954038279a1a42bc13f", "is_disabled": 0, "type": "electric_scooter", "lat": 38.907154166666665, "lon": -77.028913, "is_reserved": 0, "fusion_lon": 0.0}, {"rental_uris": {"ios": "https://dc.lft.to/lastmile_qr_scan", "android": "https://dc.lft.to/lastmile_qr_scan"}, "fusion_lat": 0.0, "name": "76b67d451ef88a67cefe016ac15f8bc5", "bike_id": "76b67d451ef88a67cefe016ac15f8bc5", "is_disabled": 0, "type": "electric_scooter", "lat": 38.93964483333333, "lon": -77.03205716666666, "is_reserved": 0, "fusion_lon": 0.0}, {"rental_uris": {"ios": "https://dc.lft.to/lastmile_qr_scan", "android": "https://dc.lft.to/lastmile_qr_scan"}, "fusion_lat": 0.0, "name": "8f5e8d6fd4f0c6a5e3323b92d0d05ce9", "bike_id": "8f5e8d6fd4f0c6a5e3323b92d0d05ce9", "is_disabled": 0, "type": "electric_scooter", "lat": 38.88261333333333, "lon": -77.003689, "is_reserved": 0, "fusion_lon": 0.0}, {"rental_uris": {"ios": "https://dc.lft.to/lastmile_qr_scan", "android": "https://dc.lft.to/lastmile_qr_scan"}, "fusion_lat": 0.0, "name": "a9a34357a6a4bb38635b0ff8ebf561b8", "bike_id": "a9a34357a6a4bb38635b0ff8ebf561b8", "is_disabled": 0, "type": "electric_scooter", "lat": 38.94812966666667, "lon": -76.999053, "is_reserved": 0, "fusion_lon": 0.0}, {"rental_uris": {"ios": "https://dc.lft.to/lastmile_qr_scan", "android": "https://dc.lft.to/lastmile_qr_scan"}, "fusion_lat": 0.0, "name": "a22ba9f657e9d4e4e4c0739f1cc7110d", "bike_id": "a22ba9f657e9d4e4e4c0739f1cc7110d", "is_disabled": 0, "type": "electric_scooter", "lat": 38.90252366666667, "lon": -77.01757383333333, "is_reserved": 0, "fusion_lon": 0.0}, {"rental_uris": {"ios": "https://dc.lft.to/lastmile_qr_scan", "android": "https://dc.lft.to/lastmile_qr_scan"}, "fusion_lat": 0.0, "name": "61c30319200a95c57498edd1c250d827", "bike_id": "61c30319200a95c57498edd1c250d827", "is_disabled": 0, "type": "electric_scooter", "lat": 38.9147725, "lon": -77.02181, "is_reserved": 0, "fusion_lon": 0.0}, {"rental_uris": {"ios": "https://dc.lft.to/lastmile_qr_scan", "android": "https://dc.lft.to/lastmile_qr_scan"}, "fusion_lat": 0.0, "name": "3505e6485fc2065180f014a908b5ada3", "bike_id": "3505e6485fc2065180f014a908b5ada3", "is_disabled": 0, "type": "electric_scooter", "lat": 38.90418716666667, "lon": -77.050721, "is_reserved": 0, "fusion_lon": 0.0}, {"rental_uris": {"ios": "https://dc.lft.to/lastmile_qr_scan", "android": "https://dc.lft.to/lastmile_qr_scan"}, "fusion_lat": 0.0, "name": "73e05705fda9c30bf592ff4f4b8f8547", "bike_id": "73e05705fda9c30bf592ff4f4b8f8547", "is_disabled": 0, "type": "electric_scooter", "lat": 38.910627, "lon": -77.044844, "is_reserved": 0, "fusion_lon": 0.0}, {"rental_uris": {"ios": "https://dc.lft.to/lastmile_qr_scan", "android": "https://dc.lft.to/lastmile_qr_scan"}, "fusion_lat": 0.0, "name": "4e4c262811ed50440397b7501f655d58", "bike_id": "4e4c262811ed50440397b7501f655d58", "is_disabled": 0, "type": "electric_scooter", "lat": 38.9111665, "lon": -77.04454166666666, "is_reserved": 0, "fusion_lon": 0.0}, {"rental_uris": {"ios": "https://dc.lft.to/lastmile_qr_scan", "android": "https://dc.lft.to/lastmile_qr_scan"}, "fusion_lat": 0.0, "name": "46a91a40a95084f0eb60bffef85dd2c0", "bike_id": "46a91a40a95084f0eb60bffef85dd2c0", "is_disabled": 0, "type": "electric_scooter", "lat": 38.89230216666667, "lon": -77.05001833333333, "is_reserved": 0, "fusion_lon": 0.0}, {"rental_uris": {"ios": "https://dc.lft.to/lastmile_qr_scan", "android": "https://dc.lft.to/lastmile_qr_scan"}, "fusion_lat": 0.0, "name": "6f2cfc9103ca37ab0d7ebb5c20ca0358", "bike_id": "6f2cfc9103ca37ab0d7ebb5c20ca0358", "is_disabled": 0, "type": "electric_scooter", "lat": 38.918412000000004, "lon": -77.03222566666666, "is_reserved": 0, "fusion_lon": 0.0}, {"rental_uris": {"ios": "https://dc.lft.to/lastmile_qr_scan", "android": "https://dc.lft.to/lastmile_qr_scan"}, "fusion_lat": 0.0, "name": "42a1c1ae1cb11bbe25a11c80ad764327", "bike_id": "42a1c1ae1cb11bbe25a11c80ad764327", "is_disabled": 0, "type": "electric_scooter", "lat": 38.91689133333333, "lon": -76.979484, "is_reserved": 0, "fusion_lon": 0.0}, {"rental_uris": {"ios": "https://dc.lft.to/lastmile_qr_scan", "android": "https://dc.lft.to/lastmile_qr_scan"}, "fusion_lat": 0.0, "name": "1e6a3511e03f4bd912686e62d9f04270", "bike_id": "1e6a3511e03f4bd912686e62d9f04270", "is_disabled": 0, "type": "electric_bike", "lat": 38.87066216666667, "lon": -77.11059666666667, "is_reserved": 0, "fusion_lon": 0.0}, {"rental_uris": {"ios": "https://dc.lft.to/lastmile_qr_scan", "android": "https://dc.lft.to/lastmile_qr_scan"}, "fusion_lat": 0.0, "name": "30fe25f8ca128645487b9ffd140758c3", "bike_id": "30fe25f8ca128645487b9ffd140758c3", "is_disabled": 0, "type": "electric_scooter", "lat": 38.899334333333336, "lon": -77.02801683333334, "is_reserved": 0, "fusion_lon": 0.0}, {"rental_uris": {"ios": "https://dc.lft.to/lastmile_qr_scan", "android": "https://dc.lft.to/lastmile_qr_scan"}, "fusion_lat": 0.0, "name": "748c325dabd3882b08024397b0ef3491", "bike_id": "748c325dabd3882b08024397b0ef3491", "is_disabled": 0, "type": "electric_scooter", "lat": 38.915542, "lon": -77.02214816666667, "is_reserved": 0, "fusion_lon": 0.0}, {"rental_uris": {"ios": "https://dc.lft.to/lastmile_qr_scan", "android": "https://dc.lft.to/lastmile_qr_scan"}, "fusion_lat": 0.0, "name": "0275a1db55c87f190c195e5803c9f1f7", "bike_id": "0275a1db55c87f190c195e5803c9f1f7", "is_disabled": 0, "type": "electric_bike", "lat": 38.8990935, "lon": -77.039319, "is_reserved": 0, "fusion_lon": 0.0}, {"rental_uris": {"ios": "https://dc.lft.to/lastmile_qr_scan", "android": "https://dc.lft.to/lastmile_qr_scan"}, "fusion_lat": 0.0, "name": "fe2303d0c20e37eacd417ce358bf407d", "bike_id": "fe2303d0c20e37eacd417ce358bf407d", "is_disabled": 0, "type": "electric_scooter", "lat": 38.92252633333333, "lon": -77.03464883333334, "is_reserved": 0, "fusion_lon": 0.0}, {"rental_uris": {"ios": "https://dc.lft.to/lastmile_qr_scan", "android": "https://dc.lft.to/lastmile_qr_scan"}, "fusion_lat": 0.0, "name": "b28017153ce16d5b4ae0aadf1f88469f", "bike_id": "b28017153ce16d5b4ae0aadf1f88469f", "is_disabled": 0, "type": "electric_scooter", "lat": 38.923623166666665, "lon": -77.050366, "is_reserved": 0, "fusion_lon": 0.0}, {"rental_uris": {"ios": "https://dc.lft.to/lastmile_qr_scan", "android": "https://dc.lft.to/lastmile_qr_scan"}, "fusion_lat": 0.0, "name": "443c510692d8ae8c801a533a6579fafc", "bike_id": "443c510692d8ae8c801a533a6579fafc", "is_disabled": 0, "type": "electric_bike", "lat": 38.85786933333333, "lon": -77.099606, "is_reserved": 0, "fusion_lon": 0.0}, {"rental_uris": {"ios": "https://dc.lft.to/lastmile_qr_scan", "android": "https://dc.lft.to/lastmile_qr_scan"}, "fusion_lat": 0.0, "name": "5dba411fcc16de8d28b472c7a5a315b2", "bike_id": "5dba411fcc16de8d28b472c7a5a315b2", "is_disabled": 0, "type": "electric_scooter", "lat": 38.909412833333334, "lon": -77.05521283333333, "is_reserved": 0, "fusion_lon": 0.0}, {"rental_uris": {"ios": "https://dc.lft.to/lastmile_qr_scan", "android": "https://dc.lft.to/lastmile_qr_scan"}, "fusion_lat": 0.0, "name": "125e9ba35643d024c9e80bb838702a02", "bike_id": "125e9ba35643d024c9e80bb838702a02", "is_disabled": 0, "type": "electric_scooter", "lat": 38.915949166666664, "lon": -77.029687, "is_reserved": 0, "fusion_lon": 0.0}, {"rental_uris": {"ios": "https://dc.lft.to/lastmile_qr_scan", "android": "https://dc.lft.to/lastmile_qr_scan"}, "fusion_lat": 0.0, "name": "5dc47f1244598e39fec59bc6d34fdc27", "bike_id": "5dc47f1244598e39fec59bc6d34fdc27", "is_disabled": 0, "type": "electric_scooter", "lat": 38.956473333333335, "lon": -77.03284633333334, "is_reserved": 0, "fusion_lon": 0.0}, {"rental_uris": {"ios": "https://dc.lft.to/lastmile_qr_scan", "android": "https://dc.lft.to/lastmile_qr_scan"}, "fusion_lat": 0.0, "name": "46e712906e0b40d7b4547300b66282c6", "bike_id": "46e712906e0b40d7b4547300b66282c6", "is_disabled": 0, "type": "electric_scooter", "lat": 38.91265416666667, "lon": -77.04468133333333, "is_reserved": 0, "fusion_lon": 0.0}, {"rental_uris": {"ios": "https://dc.lft.to/lastmile_qr_scan", "android": "https://dc.lft.to/lastmile_qr_scan"}, "fusion_lat": 0.0, "name": "b8dff0c228e8702ae1c84561b9b5f924", "bike_id": "b8dff0c228e8702ae1c84561b9b5f924", "is_disabled": 0, "type": "electric_scooter", "lat": 38.919169333333336, "lon": -77.07056166666666, "is_reserved": 0, "fusion_lon": 0.0}, {"rental_uris": {"ios": "https://dc.lft.to/lastmile_qr_scan", "android": "https://dc.lft.to/lastmile_qr_scan"}, "fusion_lat": 0.0, "name": "bbcaa916be784cf0d46fd2880f9e4adf", "bike_id": "bbcaa916be784cf0d46fd2880f9e4adf", "is_disabled": 0, "type": "electric_scooter", "lat": 38.90338916666666, "lon": -77.04139933333333, "is_reserved": 0, "fusion_lon": 0.0}, {"rental_uris": {"ios": "https://dc.lft.to/lastmile_qr_scan", "android": "https://dc.lft.to/lastmile_qr_scan"}, "fusion_lat": 0.0, "name": "4dad2a57b4a9d98ea70e63440ffaa48e", "bike_id": "4dad2a57b4a9d98ea70e63440ffaa48e", "is_disabled": 0, "type": "electric_scooter", "lat": 38.910098833333336, "lon": -77.03841266666667, "is_reserved": 0, "fusion_lon": 0.0}, {"rental_uris": {"ios": "https://dc.lft.to/lastmile_qr_scan", "android": "https://dc.lft.to/lastmile_qr_scan"}, "fusion_lat": 0.0, "name": "fe528ac0112ad05358f782cfe6f64c96", "bike_id": "fe528ac0112ad05358f782cfe6f64c96", "is_disabled": 0, "type": "electric_scooter", "lat": 38.9193055, "lon": -77.031807, "is_reserved": 0, "fusion_lon": 0.0}, {"rental_uris": {"ios": "https://dc.lft.to/lastmile_qr_scan", "android": "https://dc.lft.to/lastmile_qr_scan"}, "fusion_lat": 0.0, "name": "3a698c065de6386996a9f1c74346d592", "bike_id": "3a698c065de6386996a9f1c74346d592", "is_disabled": 0, "type": "electric_scooter", "lat": 38.887568, "lon": -77.03359233333333, "is_reserved": 0, "fusion_lon": 0.0}, {"rental_uris": {"ios": "https://dc.lft.to/lastmile_qr_scan", "android": "https://dc.lft.to/lastmile_qr_scan"}, "fusion_lat": 0.0, "name": "897ef4b805256f3e748f5dcdfe0b94b4", "bike_id": "897ef4b805256f3e748f5dcdfe0b94b4", "is_disabled": 0, "type": "electric_scooter", "lat": 38.92062516666667, "lon": -76.99535466666667, "is_reserved": 0, "fusion_lon": 0.0}, {"rental_uris": {"ios": "https://dc.lft.to/lastmile_qr_scan", "android": "https://dc.lft.to/lastmile_qr_scan"}, "fusion_lat": 0.0, "name": "3c37800077cae8e11ac0d0bb417cbdd2", "bike_id": "3c37800077cae8e11ac0d0bb417cbdd2", "is_disabled": 0, "type": "electric_scooter", "lat": 38.916502, "lon": -77.0228335, "is_reserved": 0, "fusion_lon": 0.0}, {"rental_uris": {"ios": "https://dc.lft.to/lastmile_qr_scan", "android": "https://dc.lft.to/lastmile_qr_scan"}, "fusion_lat": 0.0, "name": "9e726077600ae54a828eb03f361a8f70", "bike_id": "9e726077600ae54a828eb03f361a8f70", "is_disabled": 0, "type": "electric_bike", "lat": 38.85349083333333, "lon": -77.13470883333333, "is_reserved": 0, "fusion_lon": 0.0}, {"rental_uris": {"ios": "https://dc.lft.to/lastmile_qr_scan", "android": "https://dc.lft.to/lastmile_qr_scan"}, "fusion_lat": 0.0, "name": "1f4a20f806954f66fccf36fa84a4a74a", "bike_id": "1f4a20f806954f66fccf36fa84a4a74a", "is_disabled": 0, "type": "electric_scooter", "lat": 38.901097, "lon": -77.03167283333333, "is_reserved": 0, "fusion_lon": 0.0}, {"rental_uris": {"ios": "https://dc.lft.to/lastmile_qr_scan", "android": "https://dc.lft.to/lastmile_qr_scan"}, "fusion_lat": 0.0, "name": "df2ef1a9b50aafa3119e7ece6c96f3c0", "bike_id": "df2ef1a9b50aafa3119e7ece6c96f3c0", "is_disabled": 0, "type": "electric_scooter", "lat": 38.91927033333333, "lon": -77.0340905, "is_reserved": 0, "fusion_lon": 0.0}, {"rental_uris": {"ios": "https://dc.lft.to/lastmile_qr_scan", "android": "https://dc.lft.to/lastmile_qr_scan"}, "fusion_lat": 0.0, "name": "f5f3be6d24e1fb1ae1af09248f8f6e9f", "bike_id": "f5f3be6d24e1fb1ae1af09248f8f6e9f", "is_disabled": 0, "type": "electric_scooter", "lat": 38.931227666666665, "lon": -77.03403116666667, "is_reserved": 0, "fusion_lon": 0.0}, {"rental_uris": {"ios": "https://dc.lft.to/lastmile_qr_scan", "android": "https://dc.lft.to/lastmile_qr_scan"}, "fusion_lat": 0.0, "name": "01dbe57db0bc67ccae344d253157eb67", "bike_id": "01dbe57db0bc67ccae344d253157eb67", "is_disabled": 0, "type": "electric_scooter", "lat": 38.91533616666667, "lon": -77.03194933333333, "is_reserved": 0, "fusion_lon": 0.0}, {"rental_uris": {"ios": "https://dc.lft.to/lastmile_qr_scan", "android": "https://dc.lft.to/lastmile_qr_scan"}, "fusion_lat": 0.0, "name": "dff13747903f3c823557c5d6380b6979", "bike_id": "dff13747903f3c823557c5d6380b6979", "is_disabled": 0, "type": "electric_scooter", "lat": 38.90772033333333, "lon": -77.04005066666667, "is_reserved": 0, "fusion_lon": 0.0}, {"rental_uris": {"ios": "https://dc.lft.to/lastmile_qr_scan", "android": "https://dc.lft.to/lastmile_qr_scan"}, "fusion_lat": 0.0, "name": "96132909bcdeceeb6bf9f73667711450", "bike_id": "96132909bcdeceeb6bf9f73667711450", "is_disabled": 0, "type": "electric_bike", "lat": 38.90039816666667, "lon": -76.97187583333333, "is_reserved": 0, "fusion_lon": 0.0}, {"rental_uris": {"ios": "https://dc.lft.to/lastmile_qr_scan", "android": "https://dc.lft.to/lastmile_qr_scan"}, "fusion_lat": 0.0, "name": "61575aec01d85470c71b6a8356a06f85", "bike_id": "61575aec01d85470c71b6a8356a06f85", "is_disabled": 0, "type": "electric_bike", "lat": 38.9588665, "lon": -76.92476566666667, "is_reserved": 0, "fusion_lon": 0.0}, {"rental_uris": {"ios": "https://dc.lft.to/lastmile_qr_scan", "android": "https://dc.lft.to/lastmile_qr_scan"}, "fusion_lat": 0.0, "name": "c6057e2761bf873d35f16d2492190806", "bike_id": "c6057e2761bf873d35f16d2492190806", "is_disabled": 0, "type": "electric_scooter", "lat": 38.90959266666667, "lon": -77.034737, "is_reserved": 0, "fusion_lon": 0.0}, {"rental_uris": {"ios": "https://dc.lft.to/lastmile_qr_scan", "android": "https://dc.lft.to/lastmile_qr_scan"}, "fusion_lat": 0.0, "name": "db186bd6736245fe7967a1b7b3ae0764", "bike_id": "db186bd6736245fe7967a1b7b3ae0764", "is_disabled": 0, "type": "electric_scooter", "lat": 38.9082595, "lon": -77.009185, "is_reserved": 0, "fusion_lon": 0.0}, {"rental_uris": {"ios": "https://dc.lft.to/lastmile_qr_scan", "android": "https://dc.lft.to/lastmile_qr_scan"}, "fusion_lat": 0.0, "name": "09297d9d665aeff408c92e480bae0fcf", "bike_id": "09297d9d665aeff408c92e480bae0fcf", "is_disabled": 0, "type": "electric_scooter", "lat": 38.86243283333334, "lon": -76.994979, "is_reserved": 0, "fusion_lon": 0.0}, {"rental_uris": {"ios": "https://dc.lft.to/lastmile_qr_scan", "android": "https://dc.lft.to/lastmile_qr_scan"}, "fusion_lat": 0.0, "name": "f6351865fdc3ba656e3b5331b8c7be95", "bike_id": "f6351865fdc3ba656e3b5331b8c7be95", "is_disabled": 0, "type": "electric_scooter", "lat": 38.89223416666667, "lon": -77.043282, "is_reserved": 0, "fusion_lon": 0.0}, {"rental_uris": {"ios": "https://dc.lft.to/lastmile_qr_scan", "android": "https://dc.lft.to/lastmile_qr_scan"}, "fusion_lat": 0.0, "name": "076b5ea808b9f5f92a6b99097f1efc4d", "bike_id": "076b5ea808b9f5f92a6b99097f1efc4d", "is_disabled": 0, "type": "electric_scooter", "lat": 38.8922325, "lon": -77.04328716666667, "is_reserved": 0, "fusion_lon": 0.0}, {"rental_uris": {"ios": "https://dc.lft.to/lastmile_qr_scan", "android": "https://dc.lft.to/lastmile_qr_scan"}, "fusion_lat": 0.0, "name": "ef06b58477207d153107206c8164abd9", "bike_id": "ef06b58477207d153107206c8164abd9", "is_disabled": 0, "type": "electric_scooter", "lat": 38.905607833333335, "lon": -77.0397925, "is_reserved": 0, "fusion_lon": 0.0}, {"rental_uris": {"ios": "https://dc.lft.to/lastmile_qr_scan", "android": "https://dc.lft.to/lastmile_qr_scan"}, "fusion_lat": 0.0, "name": "6fe49c7b08ceffc145c8145bdad8626f", "bike_id": "6fe49c7b08ceffc145c8145bdad8626f", "is_disabled": 0, "type": "electric_scooter", "lat": 38.90999883333333, "lon": -77.0400775, "is_reserved": 0, "fusion_lon": 0.0}, {"rental_uris": {"ios": "https://dc.lft.to/lastmile_qr_scan", "android": "https://dc.lft.to/lastmile_qr_scan"}, "fusion_lat": 0.0, "name": "246a10631c371701d039c4ffcbf2ce60", "bike_id": "246a10631c371701d039c4ffcbf2ce60", "is_disabled": 0, "type": "electric_scooter", "lat": 38.89223366666667, "lon": -77.04687033333333, "is_reserved": 0, "fusion_lon": 0.0}, {"rental_uris": {"ios": "https://dc.lft.to/lastmile_qr_scan", "android": "https://dc.lft.to/lastmile_qr_scan"}, "fusion_lat": 0.0, "name": "cef5208e8516942751311c83dfa6febd", "bike_id": "cef5208e8516942751311c83dfa6febd", "is_disabled": 0, "type": "electric_scooter", "lat": 38.91004133333333, "lon": -77.04423883333334, "is_reserved": 0, "fusion_lon": 0.0}, {"rental_uris": {"ios": "https://dc.lft.to/lastmile_qr_scan", "android": "https://dc.lft.to/lastmile_qr_scan"}, "fusion_lat": 0.0, "name": "51d936ab8f9b136d06f2e5e4bf128e83", "bike_id": "51d936ab8f9b136d06f2e5e4bf128e83", "is_disabled": 0, "type": "electric_scooter", "lat": 38.899766166666666, "lon": -77.04371116666667, "is_reserved": 0, "fusion_lon": 0.0}, {"rental_uris": {"ios": "https://dc.lft.to/lastmile_qr_scan", "android": "https://dc.lft.to/lastmile_qr_scan"}, "fusion_lat": 0.0, "name": "3504fcdb57db734388389e25df7680f7", "bike_id": "3504fcdb57db734388389e25df7680f7", "is_disabled": 0, "type": "electric_scooter", "lat": 38.9013915, "lon": -77.00344866666667, "is_reserved": 0, "fusion_lon": 0.0}, {"rental_uris": {"ios": "https://dc.lft.to/lastmile_qr_scan", "android": "https://dc.lft.to/lastmile_qr_scan"}, "fusion_lat": 0.0, "name": "d93a2d2ac16ad5032737cfa8ebfa7845", "bike_id": "d93a2d2ac16ad5032737cfa8ebfa7845", "is_disabled": 0, "type": "electric_scooter", "lat": 38.9045445, "lon": -77.02708983333333, "is_reserved": 0, "fusion_lon": 0.0}, {"rental_uris": {"ios": "https://dc.lft.to/lastmile_qr_scan", "android": "https://dc.lft.to/lastmile_qr_scan"}, "fusion_lat": 0.0, "name": "c124706067a19c38aa25e0c2c5677a5a", "bike_id": "c124706067a19c38aa25e0c2c5677a5a", "is_disabled": 0, "type": "electric_bike", "lat": 38.910882666666666, "lon": -76.98487966666667, "is_reserved": 0, "fusion_lon": 0.0}, {"rental_uris": {"ios": "https://dc.lft.to/lastmile_qr_scan", "android": "https://dc.lft.to/lastmile_qr_scan"}, "fusion_lat": 0.0, "name": "7efdcbeb3bc1b36113efbe8f406b87b5", "bike_id": "7efdcbeb3bc1b36113efbe8f406b87b5", "is_disabled": 0, "type": "electric_scooter", "lat": 38.907770166666666, "lon": -76.9800555, "is_reserved": 0, "fusion_lon": 0.0}, {"rental_uris": {"ios": "https://dc.lft.to/lastmile_qr_scan", "android": "https://dc.lft.to/lastmile_qr_scan"}, "fusion_lat": 0.0, "name": "733e390fff9e017a54289ade64154116", "bike_id": "733e390fff9e017a54289ade64154116", "is_disabled": 0, "type": "electric_scooter", "lat": 38.922382166666665, "lon": -77.03414283333333, "is_reserved": 0, "fusion_lon": 0.0}, {"rental_uris": {"ios": "https://dc.lft.to/lastmile_qr_scan", "android": "https://dc.lft.to/lastmile_qr_scan"}, "fusion_lat": 0.0, "name": "90d488160b412ecf071ffd1a7c4bdaf7", "bike_id": "90d488160b412ecf071ffd1a7c4bdaf7", "is_disabled": 0, "type": "electric_scooter", "lat": 38.89353933333334, "lon": -77.04187216666666, "is_reserved": 0, "fusion_lon": 0.0}, {"rental_uris": {"ios": "https://dc.lft.to/lastmile_qr_scan", "android": "https://dc.lft.to/lastmile_qr_scan"}, "fusion_lat": 0.0, "name": "b253ae429cfce302adf0f8fb0b66eb31", "bike_id": "b253ae429cfce302adf0f8fb0b66eb31", "is_disabled": 0, "type": "electric_bike", "lat": 38.93183616666666, "lon": -77.02350933333334, "is_reserved": 0, "fusion_lon": 0.0}, {"rental_uris": {"ios": "https://dc.lft.to/lastmile_qr_scan", "android": "https://dc.lft.to/lastmile_qr_scan"}, "fusion_lat": 0.0, "name": "bd9702e3eb1754d77ab6bf9764307f40", "bike_id": "bd9702e3eb1754d77ab6bf9764307f40", "is_disabled": 0, "type": "electric_scooter", "lat": 38.90960833333333, "lon": -77.02581516666666, "is_reserved": 0, "fusion_lon": 0.0}, {"rental_uris": {"ios": "https://dc.lft.to/lastmile_qr_scan", "android": "https://dc.lft.to/lastmile_qr_scan"}, "fusion_lat": 0.0, "name": "d1e8b57dcbc9eee49efc09df915e91f7", "bike_id": "d1e8b57dcbc9eee49efc09df915e91f7", "is_disabled": 0, "type": "electric_scooter", "lat": 38.923681, "lon": -77.0191945, "is_reserved": 0, "fusion_lon": 0.0}, {"rental_uris": {"ios": "https://dc.lft.to/lastmile_qr_scan", "android": "https://dc.lft.to/lastmile_qr_scan"}, "fusion_lat": 0.0, "name": "e387dd47c3cd97ab62d16aef57c2116f", "bike_id": "e387dd47c3cd97ab62d16aef57c2116f", "is_disabled": 0, "type": "electric_scooter", "lat": 38.918017166666665, "lon": -77.04029016666667, "is_reserved": 0, "fusion_lon": 0.0}, {"rental_uris": {"ios": "https://dc.lft.to/lastmile_qr_scan", "android": "https://dc.lft.to/lastmile_qr_scan"}, "fusion_lat": 0.0, "name": "b021c5a5aee3a78e43e669bff564f0bb", "bike_id": "b021c5a5aee3a78e43e669bff564f0bb", "is_disabled": 0, "type": "electric_scooter", "lat": 38.89749916666667, "lon": -76.9419085, "is_reserved": 0, "fusion_lon": 0.0}, {"rental_uris": {"ios": "https://dc.lft.to/lastmile_qr_scan", "android": "https://dc.lft.to/lastmile_qr_scan"}, "fusion_lat": 0.0, "name": "fd40ba3f26e5d916026f271e62d71304", "bike_id": "fd40ba3f26e5d916026f271e62d71304", "is_disabled": 0, "type": "electric_scooter", "lat": 38.92322683333333, "lon": -77.02127966666667, "is_reserved": 0, "fusion_lon": 0.0}, {"rental_uris": {"ios": "https://dc.lft.to/lastmile_qr_scan", "android": "https://dc.lft.to/lastmile_qr_scan"}, "fusion_lat": 0.0, "name": "d460534c4ced28f4da68951ef1254dfe", "bike_id": "d460534c4ced28f4da68951ef1254dfe", "is_disabled": 0, "type": "electric_scooter", "lat": 38.926708833333336, "lon": -77.01471283333333, "is_reserved": 0, "fusion_lon": 0.0}, {"rental_uris": {"ios": "https://dc.lft.to/lastmile_qr_scan", "android": "https://dc.lft.to/lastmile_qr_scan"}, "fusion_lat": 0.0, "name": "3b4c572a2e5fa041c8a0e1d48b0fae2b", "bike_id": "3b4c572a2e5fa041c8a0e1d48b0fae2b", "is_disabled": 0, "type": "electric_scooter", "lat": 38.907867333333336, "lon": -77.0317915, "is_reserved": 0, "fusion_lon": 0.0}, {"rental_uris": {"ios": "https://dc.lft.to/lastmile_qr_scan", "android": "https://dc.lft.to/lastmile_qr_scan"}, "fusion_lat": 0.0, "name": "49380b42ccd330f5f16bb17241e3e878", "bike_id": "49380b42ccd330f5f16bb17241e3e878", "is_disabled": 0, "type": "electric_bike", "lat": 38.855095, "lon": -77.120298, "is_reserved": 0, "fusion_lon": 0.0}, {"rental_uris": {"ios": "https://dc.lft.to/lastmile_qr_scan", "android": "https://dc.lft.to/lastmile_qr_scan"}, "fusion_lat": 0.0, "name": "0de5e9fad33add60e1f5ab59b397e35a", "bike_id": "0de5e9fad33add60e1f5ab59b397e35a", "is_disabled": 0, "type": "electric_scooter", "lat": 38.9169045, "lon": -77.02598616666667, "is_reserved": 0, "fusion_lon": 0.0}, {"rental_uris": {"ios": "https://dc.lft.to/lastmile_qr_scan", "android": "https://dc.lft.to/lastmile_qr_scan"}, "fusion_lat": 0.0, "name": "1e0728e2a4974562d6abca176b5ccee7", "bike_id": "1e0728e2a4974562d6abca176b5ccee7", "is_disabled": 0, "type": "electric_scooter", "lat": 38.95933266666667, "lon": -77.03129783333333, "is_reserved": 0, "fusion_lon": 0.0}, {"rental_uris": {"ios": "https://dc.lft.to/lastmile_qr_scan", "android": "https://dc.lft.to/lastmile_qr_scan"}, "fusion_lat": 0.0, "name": "7df9a7f5da9d5694b5d0abcf2274f49d", "bike_id": "7df9a7f5da9d5694b5d0abcf2274f49d", "is_disabled": 0, "type": "electric_bike", "lat": 38.985053, "lon": -76.9819675, "is_reserved": 0, "fusion_lon": 0.0}, {"rental_uris": {"ios": "https://dc.lft.to/lastmile_qr_scan", "android": "https://dc.lft.to/lastmile_qr_scan"}, "fusion_lat": 0.0, "name": "4e36b8d1c8f38d870b3a47998b004273", "bike_id": "4e36b8d1c8f38d870b3a47998b004273", "is_disabled": 0, "type": "electric_scooter", "lat": 38.946987666666665, "lon": -77.02170866666667, "is_reserved": 0, "fusion_lon": 0.0}, {"rental_uris": {"ios": "https://dc.lft.to/lastmile_qr_scan", "android": "https://dc.lft.to/lastmile_qr_scan"}, "fusion_lat": 0.0, "name": "2c36149cc017d187aa948513d1c2d580", "bike_id": "2c36149cc017d187aa948513d1c2d580", "is_disabled": 0, "type": "electric_scooter", "lat": 38.89721216666667, "lon": -77.02662766666667, "is_reserved": 0, "fusion_lon": 0.0}, {"rental_uris": {"ios": "https://dc.lft.to/lastmile_qr_scan", "android": "https://dc.lft.to/lastmile_qr_scan"}, "fusion_lat": 0.0, "name": "402945db484ad586b80837dae5980282", "bike_id": "402945db484ad586b80837dae5980282", "is_disabled": 0, "type": "electric_bike", "lat": 38.90562083333333, "lon": -76.99795016666667, "is_reserved": 0, "fusion_lon": 0.0}, {"rental_uris": {"ios": "https://dc.lft.to/lastmile_qr_scan", "android": "https://dc.lft.to/lastmile_qr_scan"}, "fusion_lat": 0.0, "name": "f4b7128f80224f328e5541246b617da3", "bike_id": "f4b7128f80224f328e5541246b617da3", "is_disabled": 0, "type": "electric_bike", "lat": 38.96313133333334, "lon": -77.03331816666666, "is_reserved": 0, "fusion_lon": 0.0}, {"rental_uris": {"ios": "https://dc.lft.to/lastmile_qr_scan", "android": "https://dc.lft.to/lastmile_qr_scan"}, "fusion_lat": 0.0, "name": "369618dc14d035feca18369db7a24d9d", "bike_id": "369618dc14d035feca18369db7a24d9d", "is_disabled": 0, "type": "electric_scooter", "lat": 38.89451966666667, "lon": -76.97805333333334, "is_reserved": 0, "fusion_lon": 0.0}, {"rental_uris": {"ios": "https://dc.lft.to/lastmile_qr_scan", "android": "https://dc.lft.to/lastmile_qr_scan"}, "fusion_lat": 0.0, "name": "dfe01ebb2e6898ad47a2e3c72d6673ad", "bike_id": "dfe01ebb2e6898ad47a2e3c72d6673ad", "is_disabled": 0, "type": "electric_bike", "lat": 38.805757166666666, "lon": -77.06859083333333, "is_reserved": 0, "fusion_lon": 0.0}, {"rental_uris": {"ios": "https://dc.lft.to/lastmile_qr_scan", "android": "https://dc.lft.to/lastmile_qr_scan"}, "fusion_lat": 0.0, "name": "2ebf8f4a5e44a24b7214d712c2189529", "bike_id": "2ebf8f4a5e44a24b7214d712c2189529", "is_disabled": 0, "type": "electric_scooter", "lat": 38.92746066666667, "lon": -77.02481383333334, "is_reserved": 0, "fusion_lon": 0.0}, {"rental_uris": {"ios": "https://dc.lft.to/lastmile_qr_scan", "android": "https://dc.lft.to/lastmile_qr_scan"}, "fusion_lat": 0.0, "name": "ea583f18bb1a017b930a410cdd41db1f", "bike_id": "ea583f18bb1a017b930a410cdd41db1f", "is_disabled": 0, "type": "electric_scooter", "lat": 38.92602866666667, "lon": -77.02151816666667, "is_reserved": 0, "fusion_lon": 0.0}, {"rental_uris": {"ios": "https://dc.lft.to/lastmile_qr_scan", "android": "https://dc.lft.to/lastmile_qr_scan"}, "fusion_lat": 0.0, "name": "fc9ed4458c29a010de9525a65545c98e", "bike_id": "fc9ed4458c29a010de9525a65545c98e", "is_disabled": 0, "type": "electric_scooter", "lat": 38.892967666666664, "lon": -77.02178116666667, "is_reserved": 0, "fusion_lon": 0.0}, {"rental_uris": {"ios": "https://dc.lft.to/lastmile_qr_scan", "android": "https://dc.lft.to/lastmile_qr_scan"}, "fusion_lat": 0.0, "name": "335b4d8fbd999befc43abb48e18f1e35", "bike_id": "335b4d8fbd999befc43abb48e18f1e35", "is_disabled": 0, "type": "electric_bike", "lat": 38.982721833333336, "lon": -77.01773916666667, "is_reserved": 0, "fusion_lon": 0.0}, {"rental_uris": {"ios": "https://dc.lft.to/lastmile_qr_scan", "android": "https://dc.lft.to/lastmile_qr_scan"}, "fusion_lat": 0.0, "name": "97cfaa407cacf2beb901501f431576f4", "bike_id": "97cfaa407cacf2beb901501f431576f4", "is_disabled": 0, "type": "electric_bike", "lat": 38.95877766666667, "lon": -77.01031616666667, "is_reserved": 0, "fusion_lon": 0.0}, {"rental_uris": {"ios": "https://dc.lft.to/lastmile_qr_scan", "android": "https://dc.lft.to/lastmile_qr_scan"}, "fusion_lat": 0.0, "name": "088639d62c15f1bfa8a996db11ec5111", "bike_id": "088639d62c15f1bfa8a996db11ec5111", "is_disabled": 0, "type": "electric_scooter", "lat": 38.89229816666667, "lon": -77.0500025, "is_reserved": 0, "fusion_lon": 0.0}, {"rental_uris": {"ios": "https://dc.lft.to/lastmile_qr_scan", "android": "https://dc.lft.to/lastmile_qr_scan"}, "fusion_lat": 0.0, "name": "5dd586d20704ee35d43e25eb6adea7bc", "bike_id": "5dd586d20704ee35d43e25eb6adea7bc", "is_disabled": 0, "type": "electric_scooter", "lat": 38.89728733333333, "lon": -77.02760466666666, "is_reserved": 0, "fusion_lon": 0.0}, {"rental_uris": {"ios": "https://dc.lft.to/lastmile_qr_scan", "android": "https://dc.lft.to/lastmile_qr_scan"}, "fusion_lat": 0.0, "name": "9144b9f2fe5e781660317331b8ee57ed", "bike_id": "9144b9f2fe5e781660317331b8ee57ed", "is_disabled": 0, "type": "electric_scooter", "lat": 38.917090333333334, "lon": -77.02579633333333, "is_reserved": 0, "fusion_lon": 0.0}, {"rental_uris": {"ios": "https://dc.lft.to/lastmile_qr_scan", "android": "https://dc.lft.to/lastmile_qr_scan"}, "fusion_lat": 0.0, "name": "6d2d36b22d59c9294ca6d442d3e0ecf3", "bike_id": "6d2d36b22d59c9294ca6d442d3e0ecf3", "is_disabled": 0, "type": "electric_bike", "lat": 38.90531, "lon": -77.043441, "is_reserved": 0, "fusion_lon": 0.0}, {"rental_uris": {"ios": "https://dc.lft.to/lastmile_qr_scan", "android": "https://dc.lft.to/lastmile_qr_scan"}, "fusion_lat": 0.0, "name": "b0edaa828bd479d638066c6605101671", "bike_id": "b0edaa828bd479d638066c6605101671", "is_disabled": 0, "type": "electric_scooter", "lat": 38.91297433333333, "lon": -77.032017, "is_reserved": 0, "fusion_lon": 0.0}, {"rental_uris": {"ios": "https://dc.lft.to/lastmile_qr_scan", "android": "https://dc.lft.to/lastmile_qr_scan"}, "fusion_lat": 0.0, "name": "177613b50f42cefdfe307df87041b89a", "bike_id": "177613b50f42cefdfe307df87041b89a", "is_disabled": 0, "type": "electric_scooter", "lat": 38.900309, "lon": -76.99375666666667, "is_reserved": 0, "fusion_lon": 0.0}, {"rental_uris": {"ios": "https://dc.lft.to/lastmile_qr_scan", "android": "https://dc.lft.to/lastmile_qr_scan"}, "fusion_lat": 0.0, "name": "b3180174a4ce3f045f13a5c7ad41fd69", "bike_id": "b3180174a4ce3f045f13a5c7ad41fd69", "is_disabled": 0, "type": "electric_scooter", "lat": 38.918123666666666, "lon": -77.03176216666667, "is_reserved": 0, "fusion_lon": 0.0}, {"rental_uris": {"ios": "https://dc.lft.to/lastmile_qr_scan", "android": "https://dc.lft.to/lastmile_qr_scan"}, "fusion_lat": 0.0, "name": "bb5ae696913c989da4cfb7192eb2ff0e", "bike_id": "bb5ae696913c989da4cfb7192eb2ff0e", "is_disabled": 0, "type": "electric_scooter", "lat": 38.93511616666667, "lon": -77.03262183333334, "is_reserved": 0, "fusion_lon": 0.0}, {"rental_uris": {"ios": "https://dc.lft.to/lastmile_qr_scan", "android": "https://dc.lft.to/lastmile_qr_scan"}, "fusion_lat": 0.0, "name": "c9571c208c4e4868200ea302fa9d75a7", "bike_id": "c9571c208c4e4868200ea302fa9d75a7", "is_disabled": 0, "type": "electric_scooter", "lat": 38.925755333333335, "lon": -77.037709, "is_reserved": 0, "fusion_lon": 0.0}, {"rental_uris": {"ios": "https://dc.lft.to/lastmile_qr_scan", "android": "https://dc.lft.to/lastmile_qr_scan"}, "fusion_lat": 0.0, "name": "1ec22d2b2ec5b74883455e5c29c66353", "bike_id": "1ec22d2b2ec5b74883455e5c29c66353", "is_disabled": 0, "type": "electric_scooter", "lat": 38.844275333333336, "lon": -76.99708483333333, "is_reserved": 0, "fusion_lon": 0.0}, {"rental_uris": {"ios": "https://dc.lft.to/lastmile_qr_scan", "android": "https://dc.lft.to/lastmile_qr_scan"}, "fusion_lat": 0.0, "name": "913d4cf6b55c3b80307b5ef1da4acd1a", "bike_id": "913d4cf6b55c3b80307b5ef1da4acd1a", "is_disabled": 0, "type": "electric_scooter", "lat": 38.93774966666667, "lon": -77.032682, "is_reserved": 0, "fusion_lon": 0.0}, {"rental_uris": {"ios": "https://dc.lft.to/lastmile_qr_scan", "android": "https://dc.lft.to/lastmile_qr_scan"}, "fusion_lat": 0.0, "name": "4805f56d0b32f3d745ce91083d9cf6c4", "bike_id": "4805f56d0b32f3d745ce91083d9cf6c4", "is_disabled": 0, "type": "electric_scooter", "lat": 38.91596, "lon": -77.01616383333334, "is_reserved": 0, "fusion_lon": 0.0}, {"rental_uris": {"ios": "https://dc.lft.to/lastmile_qr_scan", "android": "https://dc.lft.to/lastmile_qr_scan"}, "fusion_lat": 0.0, "name": "2321aa8d0d5d86116c78d6094dd3ff86", "bike_id": "2321aa8d0d5d86116c78d6094dd3ff86", "is_disabled": 0, "type": "electric_scooter", "lat": 38.892270833333335, "lon": -77.028105, "is_reserved": 0, "fusion_lon": 0.0}, {"rental_uris": {"ios": "https://dc.lft.to/lastmile_qr_scan", "android": "https://dc.lft.to/lastmile_qr_scan"}, "fusion_lat": 0.0, "name": "5cc67945a5087cb7c45aced5abdb91af", "bike_id": "5cc67945a5087cb7c45aced5abdb91af", "is_disabled": 0, "type": "electric_scooter", "lat": 38.88493283333333, "lon": -77.00728333333333, "is_reserved": 0, "fusion_lon": 0.0}, {"rental_uris": {"ios": "https://dc.lft.to/lastmile_qr_scan", "android": "https://dc.lft.to/lastmile_qr_scan"}, "fusion_lat": 0.0, "name": "b4849e042f1fff6d5db7cbc3c5e1d9ad", "bike_id": "b4849e042f1fff6d5db7cbc3c5e1d9ad", "is_disabled": 0, "type": "electric_scooter", "lat": 38.90057183333333, "lon": -77.00755316666667, "is_reserved": 0, "fusion_lon": 0.0}, {"rental_uris": {"ios": "https://dc.lft.to/lastmile_qr_scan", "android": "https://dc.lft.to/lastmile_qr_scan"}, "fusion_lat": 0.0, "name": "2c3a9354839bb4c741d57f84db18c081", "bike_id": "2c3a9354839bb4c741d57f84db18c081", "is_disabled": 0, "type": "electric_scooter", "lat": 38.910383833333334, "lon": -77.04842433333333, "is_reserved": 0, "fusion_lon": 0.0}, {"rental_uris": {"ios": "https://dc.lft.to/lastmile_qr_scan", "android": "https://dc.lft.to/lastmile_qr_scan"}, "fusion_lat": 0.0, "name": "8c59a9a128f2b6005d64743f927d90cc", "bike_id": "8c59a9a128f2b6005d64743f927d90cc", "is_disabled": 0, "type": "electric_scooter", "lat": 38.892199833333336, "lon": -77.04330266666666, "is_reserved": 0, "fusion_lon": 0.0}, {"rental_uris": {"ios": "https://dc.lft.to/lastmile_qr_scan", "android": "https://dc.lft.to/lastmile_qr_scan"}, "fusion_lat": 0.0, "name": "7b2798b8968c6ab474dbdbf630e3b684", "bike_id": "7b2798b8968c6ab474dbdbf630e3b684", "is_disabled": 0, "type": "electric_scooter", "lat": 38.9081855, "lon": -77.0393245, "is_reserved": 0, "fusion_lon": 0.0}, {"rental_uris": {"ios": "https://dc.lft.to/lastmile_qr_scan", "android": "https://dc.lft.to/lastmile_qr_scan"}, "fusion_lat": 0.0, "name": "9c724ef9d778e82a21daf0f9148e8e6b", "bike_id": "9c724ef9d778e82a21daf0f9148e8e6b", "is_disabled": 0, "type": "electric_scooter", "lat": 38.933543, "lon": -77.08575983333333, "is_reserved": 0, "fusion_lon": 0.0}, {"rental_uris": {"ios": "https://dc.lft.to/lastmile_qr_scan", "android": "https://dc.lft.to/lastmile_qr_scan"}, "fusion_lat": 0.0, "name": "3a8a5dc12a8fcda39e4b3329e93dc51f", "bike_id": "3a8a5dc12a8fcda39e4b3329e93dc51f", "is_disabled": 0, "type": "electric_scooter", "lat": 38.893471, "lon": -77.04139133333334, "is_reserved": 0, "fusion_lon": 0.0}, {"rental_uris": {"ios": "https://dc.lft.to/lastmile_qr_scan", "android": "https://dc.lft.to/lastmile_qr_scan"}, "fusion_lat": 0.0, "name": "976c83b72b1e11cba12a364e2f993e85", "bike_id": "976c83b72b1e11cba12a364e2f993e85", "is_disabled": 0, "type": "electric_scooter", "lat": 38.907300666666664, "lon": -77.03309333333333, "is_reserved": 0, "fusion_lon": 0.0}, {"rental_uris": {"ios": "https://dc.lft.to/lastmile_qr_scan", "android": "https://dc.lft.to/lastmile_qr_scan"}, "fusion_lat": 0.0, "name": "b29b1f319062909e6f8799dd015273b6", "bike_id": "b29b1f319062909e6f8799dd015273b6", "is_disabled": 0, "type": "electric_scooter", "lat": 38.96160116666667, "lon": -77.027836, "is_reserved": 0, "fusion_lon": 0.0}, {"rental_uris": {"ios": "https://dc.lft.to/lastmile_qr_scan", "android": "https://dc.lft.to/lastmile_qr_scan"}, "fusion_lat": 0.0, "name": "da4b8cdb71759b144a479311247f4cc0", "bike_id": "da4b8cdb71759b144a479311247f4cc0", "is_disabled": 0, "type": "electric_scooter", "lat": 38.92675366666667, "lon": -77.01557533333333, "is_reserved": 0, "fusion_lon": 0.0}, {"rental_uris": {"ios": "https://dc.lft.to/lastmile_qr_scan", "android": "https://dc.lft.to/lastmile_qr_scan"}, "fusion_lat": 0.0, "name": "d825dbb760d04adbb6d017020ab7bda4", "bike_id": "d825dbb760d04adbb6d017020ab7bda4", "is_disabled": 0, "type": "electric_bike", "lat": 38.969324666666665, "lon": -77.02621633333334, "is_reserved": 0, "fusion_lon": 0.0}, {"rental_uris": {"ios": "https://dc.lft.to/lastmile_qr_scan", "android": "https://dc.lft.to/lastmile_qr_scan"}, "fusion_lat": 0.0, "name": "ec42277638fcbda74a7e4a139cfc53a0", "bike_id": "ec42277638fcbda74a7e4a139cfc53a0", "is_disabled": 0, "type": "electric_bike", "lat": 38.9148835, "lon": -77.02814333333333, "is_reserved": 0, "fusion_lon": 0.0}, {"rental_uris": {"ios": "https://dc.lft.to/lastmile_qr_scan", "android": "https://dc.lft.to/lastmile_qr_scan"}, "fusion_lat": 0.0, "name": "8b6087316dcbac162002704f1b0d907a", "bike_id": "8b6087316dcbac162002704f1b0d907a", "is_disabled": 0, "type": "electric_scooter", "lat": 38.916959, "lon": -77.0353315, "is_reserved": 0, "fusion_lon": 0.0}, {"rental_uris": {"ios": "https://dc.lft.to/lastmile_qr_scan", "android": "https://dc.lft.to/lastmile_qr_scan"}, "fusion_lat": 0.0, "name": "c1eb4ece18e77276141467d0b0cfebe7", "bike_id": "c1eb4ece18e77276141467d0b0cfebe7", "is_disabled": 0, "type": "electric_scooter", "lat": 38.90654083333333, "lon": -77.03865733333333, "is_reserved": 0, "fusion_lon": 0.0}, {"rental_uris": {"ios": "https://dc.lft.to/lastmile_qr_scan", "android": "https://dc.lft.to/lastmile_qr_scan"}, "fusion_lat": 0.0, "name": "e39a033d71069bff662037952b3de0df", "bike_id": "e39a033d71069bff662037952b3de0df", "is_disabled": 0, "type": "electric_scooter", "lat": 38.876278666666664, "lon": -76.96525866666667, "is_reserved": 0, "fusion_lon": 0.0}, {"rental_uris": {"ios": "https://dc.lft.to/lastmile_qr_scan", "android": "https://dc.lft.to/lastmile_qr_scan"}, "fusion_lat": 0.0, "name": "aee812d7803132f0f1fb5f76b4e6a8aa", "bike_id": "aee812d7803132f0f1fb5f76b4e6a8aa", "is_disabled": 0, "type": "electric_scooter", "lat": 38.91708083333333, "lon": -77.0388335, "is_reserved": 0, "fusion_lon": 0.0}, {"rental_uris": {"ios": "https://dc.lft.to/lastmile_qr_scan", "android": "https://dc.lft.to/lastmile_qr_scan"}, "fusion_lat": 0.0, "name": "1e00b100ce5f912dea23ba3ab5bc24f7", "bike_id": "1e00b100ce5f912dea23ba3ab5bc24f7", "is_disabled": 0, "type": "electric_scooter", "lat": 38.892274666666665, "lon": -77.0337595, "is_reserved": 0, "fusion_lon": 0.0}, {"rental_uris": {"ios": "https://dc.lft.to/lastmile_qr_scan", "android": "https://dc.lft.to/lastmile_qr_scan"}, "fusion_lat": 0.0, "name": "c2c92297f0422c4041108450285099cb", "bike_id": "c2c92297f0422c4041108450285099cb", "is_disabled": 0, "type": "electric_scooter", "lat": 38.914105166666666, "lon": -77.04740066666666, "is_reserved": 0, "fusion_lon": 0.0}, {"rental_uris": {"ios": "https://dc.lft.to/lastmile_qr_scan", "android": "https://dc.lft.to/lastmile_qr_scan"}, "fusion_lat": 0.0, "name": "69821c9d5a9e55fb43ed6b36612aee17", "bike_id": "69821c9d5a9e55fb43ed6b36612aee17", "is_disabled": 0, "type": "electric_scooter", "lat": 38.911715, "lon": -77.03186316666667, "is_reserved": 0, "fusion_lon": 0.0}, {"rental_uris": {"ios": "https://dc.lft.to/lastmile_qr_scan", "android": "https://dc.lft.to/lastmile_qr_scan"}, "fusion_lat": 0.0, "name": "79fe0b8988d2851d25b660ebb49f1f0a", "bike_id": "79fe0b8988d2851d25b660ebb49f1f0a", "is_disabled": 0, "type": "electric_scooter", "lat": 38.8841365, "lon": -76.9420555, "is_reserved": 0, "fusion_lon": 0.0}, {"rental_uris": {"ios": "https://dc.lft.to/lastmile_qr_scan", "android": "https://dc.lft.to/lastmile_qr_scan"}, "fusion_lat": 0.0, "name": "d6b202321cabd784c19bb4f67be7b01f", "bike_id": "d6b202321cabd784c19bb4f67be7b01f", "is_disabled": 0, "type": "electric_scooter", "lat": 38.918541833333336, "lon": -77.03896516666667, "is_reserved": 0, "fusion_lon": 0.0}, {"rental_uris": {"ios": "https://dc.lft.to/lastmile_qr_scan", "android": "https://dc.lft.to/lastmile_qr_scan"}, "fusion_lat": 0.0, "name": "c52bbc0d0e5fb71af69446e12ceb94c5", "bike_id": "c52bbc0d0e5fb71af69446e12ceb94c5", "is_disabled": 0, "type": "electric_scooter", "lat": 38.9111775, "lon": -77.04478033333334, "is_reserved": 0, "fusion_lon": 0.0}, {"rental_uris": {"ios": "https://dc.lft.to/lastmile_qr_scan", "android": "https://dc.lft.to/lastmile_qr_scan"}, "fusion_lat": 0.0, "name": "276d38b5b58b4e373e1f02f4b0890dba", "bike_id": "276d38b5b58b4e373e1f02f4b0890dba", "is_disabled": 0, "type": "electric_scooter", "lat": 38.876295166666665, "lon": -76.9652125, "is_reserved": 0, "fusion_lon": 0.0}, {"rental_uris": {"ios": "https://dc.lft.to/lastmile_qr_scan", "android": "https://dc.lft.to/lastmile_qr_scan"}, "fusion_lat": 0.0, "name": "a04b6823de61538c99316d337f6486ac", "bike_id": "a04b6823de61538c99316d337f6486ac", "is_disabled": 0, "type": "electric_bike", "lat": 38.873738833333334, "lon": -77.11798, "is_reserved": 0, "fusion_lon": 0.0}, {"rental_uris": {"ios": "https://dc.lft.to/lastmile_qr_scan", "android": "https://dc.lft.to/lastmile_qr_scan"}, "fusion_lat": 0.0, "name": "c83a26e9ceaeec9a7708ca267efb5208", "bike_id": "c83a26e9ceaeec9a7708ca267efb5208", "is_disabled": 0, "type": "electric_scooter", "lat": 38.924557666666665, "lon": -77.03384366666667, "is_reserved": 0, "fusion_lon": 0.0}, {"rental_uris": {"ios": "https://dc.lft.to/lastmile_qr_scan", "android": "https://dc.lft.to/lastmile_qr_scan"}, "fusion_lat": 0.0, "name": "ec3bff8f688dce3929ea37b726d12038", "bike_id": "ec3bff8f688dce3929ea37b726d12038", "is_disabled": 0, "type": "electric_scooter", "lat": 38.907244166666665, "lon": -77.02341083333333, "is_reserved": 0, "fusion_lon": 0.0}, {"rental_uris": {"ios": "https://dc.lft.to/lastmile_qr_scan", "android": "https://dc.lft.to/lastmile_qr_scan"}, "fusion_lat": 0.0, "name": "0f38f9f93b66cca2d24f5a94bc8ea1f0", "bike_id": "0f38f9f93b66cca2d24f5a94bc8ea1f0", "is_disabled": 0, "type": "electric_scooter", "lat": 38.88716083333333, "lon": -77.01776266666667, "is_reserved": 0, "fusion_lon": 0.0}, {"rental_uris": {"ios": "https://dc.lft.to/lastmile_qr_scan", "android": "https://dc.lft.to/lastmile_qr_scan"}, "fusion_lat": 0.0, "name": "4af6b1ce8a18b8b314f2a11d1cbd29ab", "bike_id": "4af6b1ce8a18b8b314f2a11d1cbd29ab", "is_disabled": 0, "type": "electric_scooter", "lat": 38.88015333333333, "lon": -76.984653, "is_reserved": 0, "fusion_lon": 0.0}, {"rental_uris": {"ios": "https://dc.lft.to/lastmile_qr_scan", "android": "https://dc.lft.to/lastmile_qr_scan"}, "fusion_lat": 0.0, "name": "f06937ce5f6f5ec3de31eb0c3e677838", "bike_id": "f06937ce5f6f5ec3de31eb0c3e677838", "is_disabled": 0, "type": "electric_scooter", "lat": 38.918154666666666, "lon": -77.032144, "is_reserved": 0, "fusion_lon": 0.0}, {"rental_uris": {"ios": "https://dc.lft.to/lastmile_qr_scan", "android": "https://dc.lft.to/lastmile_qr_scan"}, "fusion_lat": 0.0, "name": "0cfd5afb91087678df1ce41bdb90beaa", "bike_id": "0cfd5afb91087678df1ce41bdb90beaa", "is_disabled": 0, "type": "electric_bike", "lat": 38.81328283333333, "lon": -77.0508475, "is_reserved": 0, "fusion_lon": 0.0}, {"rental_uris": {"ios": "https://dc.lft.to/lastmile_qr_scan", "android": "https://dc.lft.to/lastmile_qr_scan"}, "fusion_lat": 0.0, "name": "62524cbeb78366196221458b2cd0deca", "bike_id": "62524cbeb78366196221458b2cd0deca", "is_disabled": 0, "type": "electric_scooter", "lat": 38.90904183333333, "lon": -76.99780966666667, "is_reserved": 0, "fusion_lon": 0.0}, {"rental_uris": {"ios": "https://dc.lft.to/lastmile_qr_scan", "android": "https://dc.lft.to/lastmile_qr_scan"}, "fusion_lat": 0.0, "name": "838b150814f08c78ef95e846952d92b4", "bike_id": "838b150814f08c78ef95e846952d92b4", "is_disabled": 0, "type": "electric_bike", "lat": 38.847999333333334, "lon": -77.07517283333334, "is_reserved": 0, "fusion_lon": 0.0}, {"rental_uris": {"ios": "https://dc.lft.to/lastmile_qr_scan", "android": "https://dc.lft.to/lastmile_qr_scan"}, "fusion_lat": 0.0, "name": "3672b19900e566aa22662c86c2a0096c", "bike_id": "3672b19900e566aa22662c86c2a0096c", "is_disabled": 0, "type": "electric_scooter", "lat": 38.92047933333333, "lon": -77.04197633333334, "is_reserved": 0, "fusion_lon": 0.0}, {"rental_uris": {"ios": "https://dc.lft.to/lastmile_qr_scan", "android": "https://dc.lft.to/lastmile_qr_scan"}, "fusion_lat": 0.0, "name": "352489b812b674dd0c9f1f8ce52c491f", "bike_id": "352489b812b674dd0c9f1f8ce52c491f", "is_disabled": 0, "type": "electric_scooter", "lat": 38.94628133333333, "lon": -77.01844416666667, "is_reserved": 0, "fusion_lon": 0.0}, {"rental_uris": {"ios": "https://dc.lft.to/lastmile_qr_scan", "android": "https://dc.lft.to/lastmile_qr_scan"}, "fusion_lat": 0.0, "name": "00aa5a73ad83e269ab43004a8cf0e558", "bike_id": "00aa5a73ad83e269ab43004a8cf0e558", "is_disabled": 0, "type": "electric_bike", "lat": 38.95185266666667, "lon": -76.93545916666666, "is_reserved": 0, "fusion_lon": 0.0}, {"rental_uris": {"ios": "https://dc.lft.to/lastmile_qr_scan", "android": "https://dc.lft.to/lastmile_qr_scan"}, "fusion_lat": 0.0, "name": "6cd3ea0b6cc703e7fbf263a6cfe4edc5", "bike_id": "6cd3ea0b6cc703e7fbf263a6cfe4edc5", "is_disabled": 0, "type": "electric_scooter", "lat": 38.898928, "lon": -77.0217335, "is_reserved": 0, "fusion_lon": 0.0}, {"rental_uris": {"ios": "https://dc.lft.to/lastmile_qr_scan", "android": "https://dc.lft.to/lastmile_qr_scan"}, "fusion_lat": 0.0, "name": "46c6e6fabe6c4a818d874528b3af7efe", "bike_id": "46c6e6fabe6c4a818d874528b3af7efe", "is_disabled": 0, "type": "electric_scooter", "lat": 38.90724633333333, "lon": -77.0276685, "is_reserved": 0, "fusion_lon": 0.0}, {"rental_uris": {"ios": "https://dc.lft.to/lastmile_qr_scan", "android": "https://dc.lft.to/lastmile_qr_scan"}, "fusion_lat": 0.0, "name": "ace39a06615abd9e88f1105b1aff6bf0", "bike_id": "ace39a06615abd9e88f1105b1aff6bf0", "is_disabled": 0, "type": "electric_scooter", "lat": 38.90730683333334, "lon": -77.0276535, "is_reserved": 0, "fusion_lon": 0.0}, {"rental_uris": {"ios": "https://dc.lft.to/lastmile_qr_scan", "android": "https://dc.lft.to/lastmile_qr_scan"}, "fusion_lat": 0.0, "name": "4b548ff5e663f48953ec7468b84055fd", "bike_id": "4b548ff5e663f48953ec7468b84055fd", "is_disabled": 0, "type": "electric_scooter", "lat": 38.866992333333336, "lon": -76.98709, "is_reserved": 0, "fusion_lon": 0.0}, {"rental_uris": {"ios": "https://dc.lft.to/lastmile_qr_scan", "android": "https://dc.lft.to/lastmile_qr_scan"}, "fusion_lat": 0.0, "name": "98e54019d87ca7650c3ea56547e2ca28", "bike_id": "98e54019d87ca7650c3ea56547e2ca28", "is_disabled": 0, "type": "electric_scooter", "lat": 38.902803, "lon": -77.03188716666666, "is_reserved": 0, "fusion_lon": 0.0}, {"rental_uris": {"ios": "https://dc.lft.to/lastmile_qr_scan", "android": "https://dc.lft.to/lastmile_qr_scan"}, "fusion_lat": 0.0, "name": "06ac97102ef5693a0ab3072bae2b5474", "bike_id": "06ac97102ef5693a0ab3072bae2b5474", "is_disabled": 0, "type": "electric_scooter", "lat": 38.91254, "lon": -77.0444045, "is_reserved": 0, "fusion_lon": 0.0}, {"rental_uris": {"ios": "https://dc.lft.to/lastmile_qr_scan", "android": "https://dc.lft.to/lastmile_qr_scan"}, "fusion_lat": 0.0, "name": "291fd91c9433042e97f6597148011a83", "bike_id": "291fd91c9433042e97f6597148011a83", "is_disabled": 0, "type": "electric_bike", "lat": 38.8315555, "lon": -77.1132255, "is_reserved": 0, "fusion_lon": 0.0}, {"rental_uris": {"ios": "https://dc.lft.to/lastmile_qr_scan", "android": "https://dc.lft.to/lastmile_qr_scan"}, "fusion_lat": 0.0, "name": "365632a0e61a4e13cf460cdecbe36526", "bike_id": "365632a0e61a4e13cf460cdecbe36526", "is_disabled": 0, "type": "electric_scooter", "lat": 38.8871815, "lon": -77.02175083333333, "is_reserved": 0, "fusion_lon": 0.0}, {"rental_uris": {"ios": "https://dc.lft.to/lastmile_qr_scan", "android": "https://dc.lft.to/lastmile_qr_scan"}, "fusion_lat": 0.0, "name": "310d1585382d6d50b67fc3e216865111", "bike_id": "310d1585382d6d50b67fc3e216865111", "is_disabled": 0, "type": "electric_bike", "lat": 38.8150905, "lon": -77.12648266666666, "is_reserved": 0, "fusion_lon": 0.0}, {"rental_uris": {"ios": "https://dc.lft.to/lastmile_qr_scan", "android": "https://dc.lft.to/lastmile_qr_scan"}, "fusion_lat": 0.0, "name": "19ffd808bff2de0323526a97ba66ec4a", "bike_id": "19ffd808bff2de0323526a97ba66ec4a", "is_disabled": 0, "type": "electric_scooter", "lat": 38.92100383333333, "lon": -77.04694033333334, "is_reserved": 0, "fusion_lon": 0.0}, {"rental_uris": {"ios": "https://dc.lft.to/lastmile_qr_scan", "android": "https://dc.lft.to/lastmile_qr_scan"}, "fusion_lat": 0.0, "name": "78880f0cc09e0e5a3bf955016bd233c2", "bike_id": "78880f0cc09e0e5a3bf955016bd233c2", "is_disabled": 0, "type": "electric_scooter", "lat": 38.899202, "lon": -77.0403245, "is_reserved": 0, "fusion_lon": 0.0}, {"rental_uris": {"ios": "https://dc.lft.to/lastmile_qr_scan", "android": "https://dc.lft.to/lastmile_qr_scan"}, "fusion_lat": 0.0, "name": "f9161a85aa49fc7ae2e2c7dfa63ca52a", "bike_id": "f9161a85aa49fc7ae2e2c7dfa63ca52a", "is_disabled": 0, "type": "electric_scooter", "lat": 38.866893833333336, "lon": -76.985477, "is_reserved": 0, "fusion_lon": 0.0}, {"rental_uris": {"ios": "https://dc.lft.to/lastmile_qr_scan", "android": "https://dc.lft.to/lastmile_qr_scan"}, "fusion_lat": 0.0, "name": "0da093e3e1e8d5ef532aab0c81f17645", "bike_id": "0da093e3e1e8d5ef532aab0c81f17645", "is_disabled": 0, "type": "electric_scooter", "lat": 38.915664166666666, "lon": -77.0200095, "is_reserved": 0, "fusion_lon": 0.0}, {"rental_uris": {"ios": "https://dc.lft.to/lastmile_qr_scan", "android": "https://dc.lft.to/lastmile_qr_scan"}, "fusion_lat": 0.0, "name": "7edb0d9df7acebc5679bc6f141c7807f", "bike_id": "7edb0d9df7acebc5679bc6f141c7807f", "is_disabled": 0, "type": "electric_scooter", "lat": 38.91706716666667, "lon": -77.032466, "is_reserved": 0, "fusion_lon": 0.0}, {"rental_uris": {"ios": "https://dc.lft.to/lastmile_qr_scan", "android": "https://dc.lft.to/lastmile_qr_scan"}, "fusion_lat": 0.0, "name": "33eae40207cb98c24f9c14c170ea826e", "bike_id": "33eae40207cb98c24f9c14c170ea826e", "is_disabled": 0, "type": "electric_scooter", "lat": 38.902791, "lon": -77.03468083333334, "is_reserved": 0, "fusion_lon": 0.0}, {"rental_uris": {"ios": "https://dc.lft.to/lastmile_qr_scan", "android": "https://dc.lft.to/lastmile_qr_scan"}, "fusion_lat": 0.0, "name": "79c57e78678a65c7fa654620f9bcdf4c", "bike_id": "79c57e78678a65c7fa654620f9bcdf4c", "is_disabled": 0, "type": "electric_scooter", "lat": 38.90830733333333, "lon": -76.9970235, "is_reserved": 0, "fusion_lon": 0.0}, {"rental_uris": {"ios": "https://dc.lft.to/lastmile_qr_scan", "android": "https://dc.lft.to/lastmile_qr_scan"}, "fusion_lat": 0.0, "name": "4e2e9ca83c9670aa96f04fcb0b01da06", "bike_id": "4e2e9ca83c9670aa96f04fcb0b01da06", "is_disabled": 0, "type": "electric_scooter", "lat": 38.9242005, "lon": -77.01943966666667, "is_reserved": 0, "fusion_lon": 0.0}, {"rental_uris": {"ios": "https://dc.lft.to/lastmile_qr_scan", "android": "https://dc.lft.to/lastmile_qr_scan"}, "fusion_lat": 0.0, "name": "a82d9a1e856b033279ed2409959cb094", "bike_id": "a82d9a1e856b033279ed2409959cb094", "is_disabled": 0, "type": "electric_scooter", "lat": 38.91475633333334, "lon": -77.0319745, "is_reserved": 0, "fusion_lon": 0.0}, {"rental_uris": {"ios": "https://dc.lft.to/lastmile_qr_scan", "android": "https://dc.lft.to/lastmile_qr_scan"}, "fusion_lat": 0.0, "name": "c7449df91c127fca8f01dad8d116b722", "bike_id": "c7449df91c127fca8f01dad8d116b722", "is_disabled": 0, "type": "electric_bike", "lat": 38.92461333333333, "lon": -77.20841133333333, "is_reserved": 0, "fusion_lon": 0.0}, {"rental_uris": {"ios": "https://dc.lft.to/lastmile_qr_scan", "android": "https://dc.lft.to/lastmile_qr_scan"}, "fusion_lat": 0.0, "name": "1b9101fb04842a3ae55785ce4b948a0b", "bike_id": "1b9101fb04842a3ae55785ce4b948a0b", "is_disabled": 0, "type": "electric_scooter", "lat": 38.892252, "lon": -77.02329933333333, "is_reserved": 0, "fusion_lon": 0.0}, {"rental_uris": {"ios": "https://dc.lft.to/lastmile_qr_scan", "android": "https://dc.lft.to/lastmile_qr_scan"}, "fusion_lat": 0.0, "name": "30e477772fe54cc4f85e6ee84d20f43c", "bike_id": "30e477772fe54cc4f85e6ee84d20f43c", "is_disabled": 0, "type": "electric_scooter", "lat": 38.89221466666667, "lon": -77.048724, "is_reserved": 0, "fusion_lon": 0.0}, {"rental_uris": {"ios": "https://dc.lft.to/lastmile_qr_scan", "android": "https://dc.lft.to/lastmile_qr_scan"},