{"data": {"bikes": [{"is_disabled": 0, "rental_uris": {"android": "https://dc.lft.to/lastmile_qr_scan", "ios": "https://dc.lft.to/lastmile_qr_scan"}, "is_reserved": 0, "name": "9132659aebbc684f2bcd569df10ab589", "lon": -77.02803866666666, "type": "electric_scooter", "bike_id": "9132659aebbc684f2bcd569df10ab589", "fusion_lon": 0.0, "lat": 38.90736666666667, "fusion_lat": 0.0}, {"is_disabled": 0, "rental_uris": {"android": "https://dc.lft.to/lastmile_qr_scan", "ios": "https://dc.lft.to/lastmile_qr_scan"}, "is_reserved": 0, "name": "511891b96fe80ba5c21641a4146b21c0", "lon": -77.03719583333333, "type": "electric_scooter", "bike_id": "511891b96fe80ba5c21641a4146b21c0", "fusion_lon": 0.0, "lat": 38.911030833333335, "fusion_lat": 0.0}, {"is_disabled": 0, "rental_uris": {"android": "https://dc.lft.to/lastmile_qr_scan", "ios": "https://dc.lft.to/lastmile_qr_scan"}, "is_reserved": 0, "name": "e4c982559af87ec97c4193627dc163ba", "lon": -76.9861935, "type": "electric_scooter", "bike_id": "e4c982559af87ec97c4193627dc163ba", "fusion_lon": 0.0, "lat": 38.903491333333335, "fusion_lat": 0.0}, {"is_disabled": 0, "rental_uris": {"android": "https://dc.lft.to/lastmile_qr_scan", "ios": "https://dc.lft.to/lastmile_qr_scan"}, "is_reserved": 0, "name": "95ed7e8565cf1da9f7a8c04d7031b255", "lon": -77.04342716666666, "type": "electric_scooter", "bike_id": "95ed7e8565cf1da9f7a8c04d7031b255", "fusion_lon": 0.0, "lat": 38.9216885, "fusion_lat": 0.0}, {"is_disabled": 0, "rental_uris": {"android": "https://dc.lft.to/lastmile_qr_scan", "ios": "https://dc.lft.to/lastmile_qr_scan"}, "is_reserved": 0, "name": "46e2969fd7fa9fc41cc490526b462fd5", "lon": -77.06899233333333, "type": "electric_scooter", "bike_id": "46e2969fd7fa9fc41cc490526b462fd5", "fusion_lon": 0.0, "lat": 38.90784766666667, "fusion_lat": 0.0}, {"is_disabled": 0, "rental_uris": {"android": "https://dc.lft.to/lastmile_qr_scan", "ios": "https://dc.lft.to/lastmile_qr_scan"}, "is_reserved": 0, "name": "e890ccc81027648711aa0a6705927f86", "lon": -76.99485966666667, "type": "electric_scooter", "bike_id": "e890ccc81027648711aa0a6705927f86", "fusion_lon": 0.0, "lat": 38.86237716666667, "fusion_lat": 0.0}, {"is_disabled": 0, "rental_uris": {"android": "https://dc.lft.to/lastmile_qr_scan", "ios": "https://dc.lft.to/lastmile_qr_scan"}, "is_reserved": 0, "name": "6846f7d100ff9e9018f94c647d43eae5", "lon": -77.0219205, "type": "electric_scooter", "bike_id": "6846f7d100ff9e9018f94c647d43eae5", "fusion_lon": 0.0, "lat": 38.90702983333333, "fusion_lat": 0.0}, {"is_disabled": 0, "rental_uris": {"android": "https://dc.lft.to/lastmile_qr_scan", "ios": "https://dc.lft.to/lastmile_qr_scan"}, "is_reserved": 0, "name": "24d073e5fff00d925b4c841b06da33d5", "lon": -77.03178333333334, "type": "electric_scooter", "bike_id": "24d073e5fff00d925b4c841b06da33d5", "fusion_lon": 0.0, "lat": 38.89184766666666, "fusion_lat": 0.0}, {"is_disabled": 0, "rental_uris": {"android": "https://dc.lft.to/lastmile_qr_scan", "ios": "https://dc.lft.to/lastmile_qr_scan"}, "is_reserved": 0, "name": "116697bd246405cab15dc224aa24d461", "lon": -77.02779, "type": "electric_scooter", "bike_id": "116697bd246405cab15dc224aa24d461", "fusion_lon": 0.0, "lat": 38.91013183333333, "fusion_lat": 0.0}, {"is_disabled": 0, "rental_uris": {"android": "https://dc.lft.to/lastmile_qr_scan", "ios": "https://dc.lft.to/lastmile_qr_scan"}, "is_reserved": 0, "name": "a9fd22288aebcff03d8329c637f53b0f", "lon": -77.0259285, "type": "electric_scooter", "bike_id": "a9fd22288aebcff03d8329c637f53b0f", "fusion_lon": 0.0, "lat": 38.90429183333333, "fusion_lat": 0.0}, {"is_disabled": 0, "rental_uris": {"android": "https://dc.lft.to/lastmile_qr_scan", "ios": "https://dc.lft.to/lastmile_qr_scan"}, "is_reserved": 0, "name": "d1c9190ec0a1754dc66d2dad3f3d4848", "lon": -77.03467983333333, "type": "electric_scooter", "bike_id": "d1c9190ec0a1754dc66d2dad3f3d4848", "fusion_lon": 0.0, "lat": 38.921505833333335, "fusion_lat": 0.0}, {"is_disabled": 0, "rental_uris": {"android": "https://dc.lft.to/lastmile_qr_scan", "ios": "https://dc.lft.to/lastmile_qr_scan"}, "is_reserved": 0, "name": "5211cf4925523a5431bc3fe83493aae0", "lon": -77.02180733333333, "type": "electric_scooter", "bike_id": "5211cf4925523a5431bc3fe83493aae0", "fusion_lon": 0.0, "lat": 38.895262333333335, "fusion_lat": 0.0}, {"is_disabled": 0, "rental_uris": {"android": "https://dc.lft.to/lastmile_qr_scan", "ios": "https://dc.lft.to/lastmile_qr_scan"}, "is_reserved": 0, "name": "ca805a4db5d123e0bfe8d1ef894ff754", "lon": -76.98617966666667, "type": "electric_scooter", "bike_id": "ca805a4db5d123e0bfe8d1ef894ff754", "fusion_lon": 0.0, "lat": 38.88297266666667, "fusion_lat": 0.0}, {"is_disabled": 0, "rental_uris": {"android": "https://dc.lft.to/lastmile_qr_scan", "ios": "https://dc.lft.to/lastmile_qr_scan"}, "is_reserved": 0, "name": "5f35ed5b60470d250c445b29ed0311f9", "lon": -77.03864366666667, "type": "electric_scooter", "bike_id": "5f35ed5b60470d250c445b29ed0311f9", "fusion_lon": 0.0, "lat": 38.91557133333333, "fusion_lat": 0.0}, {"is_disabled": 0, "rental_uris": {"android": "https://dc.lft.to/lastmile_qr_scan", "ios": "https://dc.lft.to/lastmile_qr_scan"}, "is_reserved": 0, "name": "de258cc7b01535bef72822115099faf8", "lon": -77.021596, "type": "electric_scooter", "bike_id": "de258cc7b01535bef72822115099faf8", "fusion_lon": 0.0, "lat": 38.9261295, "fusion_lat": 0.0}, {"is_disabled": 0, "rental_uris": {"android": "https://dc.lft.to/lastmile_qr_scan", "ios": "https://dc.lft.to/lastmile_qr_scan"}, "is_reserved": 0, "name": "c192fb81fa815e5137f46db6a923a66b", "lon": -77.04997633333333, "type": "electric_scooter", "bike_id": "c192fb81fa815e5137f46db6a923a66b", "fusion_lon": 0.0, "lat": 38.892297166666665, "fusion_lat": 0.0}, {"is_disabled": 0, "rental_uris": {"android": "https://dc.lft.to/lastmile_qr_scan", "ios": "https://dc.lft.to/lastmile_qr_scan"}, "is_reserved": 0, "name": "de999c72f8ce9785b06c7e88067c7a97", "lon": -77.127406, "type": "electric_bike", "bike_id": "de999c72f8ce9785b06c7e88067c7a97", "fusion_lon": 0.0, "lat": 38.888273, "fusion_lat": 0.0}, {"is_disabled": 0, "rental_uris": {"android": "https://dc.lft.to/lastmile_qr_scan", "ios": "https://dc.lft.to/lastmile_qr_scan"}, "is_reserved": 0, "name": "cd1f2a5044b0eb1bfb6a76be7551b8cd", "lon": -76.98375683333333, "type": "electric_scooter", "bike_id": "cd1f2a5044b0eb1bfb6a76be7551b8cd", "fusion_lon": 0.0, "lat": 38.90652933333333, "fusion_lat": 0.0}, {"is_disabled": 0, "rental_uris": {"android": "https://dc.lft.to/lastmile_qr_scan", "ios": "https://dc.lft.to/lastmile_qr_scan"}, "is_reserved": 0, "name": "fd54df4703d11f25df9e5f73989c1621", "lon": -77.04266466666667, "type": "electric_scooter", "bike_id": "fd54df4703d11f25df9e5f73989c1621", "fusion_lon": 0.0, "lat": 38.934108333333334, "fusion_lat": 0.0}, {"is_disabled": 0, "rental_uris": {"android": "https://dc.lft.to/lastmile_qr_scan", "ios": "https://dc.lft.to/lastmile_qr_scan"}, "is_reserved": 0, "name": "73105ad90bfc05e45a9205bb3f12b0ed", "lon": -77.040388, "type": "electric_scooter", "bike_id": "73105ad90bfc05e45a9205bb3f12b0ed", "fusion_lon": 0.0, "lat": 38.917843833333336, "fusion_lat": 0.0}, {"is_disabled": 0, "rental_uris": {"android": "https://dc.lft.to/lastmile_qr_scan", "ios": "https://dc.lft.to/lastmile_qr_scan"}, "is_reserved": 0, "name": "cf504a6f7fb717f49fe34f5462409ab8", "lon": -76.95194433333333, "type": "electric_bike", "bike_id": "cf504a6f7fb717f49fe34f5462409ab8", "fusion_lon": 0.0, "lat": 38.90682233333333, "fusion_lat": 0.0}, {"is_disabled": 0, "rental_uris": {"android": "https://dc.lft.to/lastmile_qr_scan", "ios": "https://dc.lft.to/lastmile_qr_scan"}, "is_reserved": 0, "name": "b129d788c8a1a9d970f44103075db9a0", "lon": -76.95018466666667, "type": "electric_scooter", "bike_id": "b129d788c8a1a9d970f44103075db9a0", "fusion_lon": 0.0, "lat": 38.8838965, "fusion_lat": 0.0}, {"is_disabled": 0, "rental_uris": {"android": "https://dc.lft.to/lastmile_qr_scan", "ios": "https://dc.lft.to/lastmile_qr_scan"}, "is_reserved": 0, "name": "bffe5c774eeb05143c92dcd89bc47949", "lon": -77.02463316666666, "type": "electric_scooter", "bike_id": "bffe5c774eeb05143c92dcd89bc47949", "fusion_lon": 0.0, "lat": 38.93715816666667, "fusion_lat": 0.0}, {"is_disabled": 0, "rental_uris": {"android": "https://dc.lft.to/lastmile_qr_scan", "ios": "https://dc.lft.to/lastmile_qr_scan"}, "is_reserved": 0, "name": "54fdefa6448eff4a9f10c8567ff6e46a", "lon": -77.10185683333333, "type": "electric_bike", "bike_id": "54fdefa6448eff4a9f10c8567ff6e46a", "fusion_lon": 0.0, "lat": 38.918112, "fusion_lat": 0.0}, {"is_disabled": 0, "rental_uris": {"android": "https://dc.lft.to/lastmile_qr_scan", "ios": "https://dc.lft.to/lastmile_qr_scan"}, "is_reserved": 0, "name": "8ec4a1b4142fdb9c9004ad0399166d8d", "lon": -77.0056985, "type": "electric_scooter", "bike_id": "8ec4a1b4142fdb9c9004ad0399166d8d", "fusion_lon": 0.0, "lat": 38.88504433333333, "fusion_lat": 0.0}, {"is_disabled": 0, "rental_uris": {"android": "https://dc.lft.to/lastmile_qr_scan", "ios": "https://dc.lft.to/lastmile_qr_scan"}, "is_reserved": 0, "name": "7081bdf3e2566fa06c006918525af767", "lon": -77.014079, "type": "electric_scooter", "bike_id": "7081bdf3e2566fa06c006918525af767", "fusion_lon": 0.0, "lat": 38.8765865, "fusion_lat": 0.0}, {"is_disabled": 0, "rental_uris": {"android": "https://dc.lft.to/lastmile_qr_scan", "ios": "https://dc.lft.to/lastmile_qr_scan"}, "is_reserved": 0, "name": "67d640276da4fe856e3d0eb976312e4c", "lon": -77.00761383333334, "type": "electric_bike", "bike_id": "67d640276da4fe856e3d0eb976312e4c", "fusion_lon": 0.0, "lat": 38.90063966666666, "fusion_lat": 0.0}, {"is_disabled": 0, "rental_uris": {"android": "https://dc.lft.to/lastmile_qr_scan", "ios": "https://dc.lft.to/lastmile_qr_scan"}, "is_reserved": 0, "name": "42454a61943e4ee15d0ab64d348a0933", "lon": -77.02153533333333, "type": "electric_scooter", "bike_id": "42454a61943e4ee15d0ab64d348a0933", "fusion_lon": 0.0, "lat": 38.925996, "fusion_lat": 0.0}, {"is_disabled": 0, "rental_uris": {"android": "https://dc.lft.to/lastmile_qr_scan", "ios": "https://dc.lft.to/lastmile_qr_scan"}, "is_reserved": 0, "name": "5f90f3d3e027622f9433d51e562437ef", "lon": -77.11236233333334, "type": "electric_bike", "bike_id": "5f90f3d3e027622f9433d51e562437ef", "fusion_lon": 0.0, "lat": 38.812365, "fusion_lat": 0.0}, {"is_disabled": 0, "rental_uris": {"android": "https://dc.lft.to/lastmile_qr_scan", "ios": "https://dc.lft.to/lastmile_qr_scan"}, "is_reserved": 0, "name": "94046c0af5848db85f337149629358ec", "lon": -76.99882733333334, "type": "electric_scooter", "bike_id": "94046c0af5848db85f337149629358ec", "fusion_lon": 0.0, "lat": 38.8897695, "fusion_lat": 0.0}, {"is_disabled": 0, "rental_uris": {"android": "https://dc.lft.to/lastmile_qr_scan", "ios": "https://dc.lft.to/lastmile_qr_scan"}, "is_reserved": 0, "name": "8e6c357a06e4818e2d0407f058ec6ac9", "lon": -77.02019066666666, "type": "electric_scooter", "bike_id": "8e6c357a06e4818e2d0407f058ec6ac9", "fusion_lon": 0.0, "lat": 38.895647833333335, "fusion_lat": 0.0}, {"is_disabled": 0, "rental_uris": {"android": "https://dc.lft.to/lastmile_qr_scan", "ios": "https://dc.lft.to/lastmile_qr_scan"}, "is_reserved": 0, "name": "b10cae22abea5d6d8e40596cc518bb76", "lon": -76.87497916666666, "type": "electric_bike", "bike_id": "b10cae22abea5d6d8e40596cc518bb76", "fusion_lon": 0.0, "lat": 38.990919166666664, "fusion_lat": 0.0}, {"is_disabled": 0, "rental_uris": {"android": "https://dc.lft.to/lastmile_qr_scan", "ios": "https://dc.lft.to/lastmile_qr_scan"}, "is_reserved": 0, "name": "1aeed1675d39ed55121a055c72eee71e", "lon": -77.11218533333333, "type": "electric_bike", "bike_id": "1aeed1675d39ed55121a055c72eee71e", "fusion_lon": 0.0, "lat": 38.8287535, "fusion_lat": 0.0}, {"is_disabled": 0, "rental_uris": {"android": "https://dc.lft.to/lastmile_qr_scan", "ios": "https://dc.lft.to/lastmile_qr_scan"}, "is_reserved": 0, "name": "6ad42896790ba6fad34a7265437cdbf8", "lon": -77.0318095, "type": "electric_scooter", "bike_id": "6ad42896790ba6fad34a7265437cdbf8", "fusion_lon": 0.0, "lat": 38.89228, "fusion_lat": 0.0}, {"is_disabled": 0, "rental_uris": {"android": "https://dc.lft.to/lastmile_qr_scan", "ios": "https://dc.lft.to/lastmile_qr_scan"}, "is_reserved": 0, "name": "b3e0cb1972fa287f50fa91b148e35cb6", "lon": -77.02846216666667, "type": "electric_scooter", "bike_id": "b3e0cb1972fa287f50fa91b148e35cb6", "fusion_lon": 0.0, "lat": 38.90147666666667, "fusion_lat": 0.0}, {"is_disabled": 0, "rental_uris": {"android": "https://dc.lft.to/lastmile_qr_scan", "ios": "https://dc.lft.to/lastmile_qr_scan"}, "is_reserved": 0, "name": "2965fad122dcbeac1e462a6834a9de28", "lon": -76.9375555, "type": "electric_scooter", "bike_id": "2965fad122dcbeac1e462a6834a9de28", "fusion_lon": 0.0, "lat": 38.890397166666666, "fusion_lat": 0.0}, {"is_disabled": 0, "rental_uris": {"android": "https://dc.lft.to/lastmile_qr_scan", "ios": "https://dc.lft.to/lastmile_qr_scan"}, "is_reserved": 0, "name": "cb03465028e07a46b2ef3d113361f5b6", "lon": -77.0381395, "type": "electric_scooter", "bike_id": "cb03465028e07a46b2ef3d113361f5b6", "fusion_lon": 0.0, "lat": 38.90970333333333, "fusion_lat": 0.0}, {"is_disabled": 0, "rental_uris": {"android": "https://dc.lft.to/lastmile_qr_scan", "ios": "https://dc.lft.to/lastmile_qr_scan"}, "is_reserved": 0, "name": "a6346f2375c5f29f795793f9e180860f", "lon": -77.03983966666667, "type": "electric_scooter", "bike_id": "a6346f2375c5f29f795793f9e180860f", "fusion_lon": 0.0, "lat": 38.902721166666666, "fusion_lat": 0.0}, {"is_disabled": 0, "rental_uris": {"android": "https://dc.lft.to/lastmile_qr_scan", "ios": "https://dc.lft.to/lastmile_qr_scan"}, "is_reserved": 0, "name": "c976b1a15477b466f688f0ff82703768", "lon": -77.0176025, "type": "electric_scooter", "bike_id": "c976b1a15477b466f688f0ff82703768", "fusion_lon": 0.0, "lat": 38.92115483333333, "fusion_lat": 0.0}, {"is_disabled": 0, "rental_uris": {"android": "https://dc.lft.to/lastmile_qr_scan", "ios": "https://dc.lft.to/lastmile_qr_scan"}, "is_reserved": 0, "name": "d75f0858b435d79dbd5c43705cf3e20a", "lon": -77.02947316666666, "type": "electric_scooter", "bike_id": "d75f0858b435d79dbd5c43705cf3e20a", "fusion_lon": 0.0, "lat": 38.90509566666667, "fusion_lat": 0.0}, {"is_disabled": 0, "rental_uris": {"android": "https://dc.lft.to/lastmile_qr_scan", "ios": "https://dc.lft.to/lastmile_qr_scan"}, "is_reserved": 0, "name": "d83cf40d1664030a7b047f9c9486c8ee", "lon": -77.04208483333333, "type": "electric_scooter", "bike_id": "d83cf40d1664030a7b047f9c9486c8ee", "fusion_lon": 0.0, "lat": 38.90905566666667, "fusion_lat": 0.0}, {"is_disabled": 0, "rental_uris": {"android": "https://dc.lft.to/lastmile_qr_scan", "ios": "https://dc.lft.to/lastmile_qr_scan"}, "is_reserved": 0, "name": "e91de4ee47e6921f6337feeafee8523b", "lon": -77.02807883333334, "type": "electric_scooter", "bike_id": "e91de4ee47e6921f6337feeafee8523b", "fusion_lon": 0.0, "lat": 38.89726566666667, "fusion_lat": 0.0}, {"is_disabled": 0, "rental_uris": {"android": "https://dc.lft.to/lastmile_qr_scan", "ios": "https://dc.lft.to/lastmile_qr_scan"}, "is_reserved": 0, "name": "3189b15062715b1b560ede1f41d737b8", "lon": -77.07294233333333, "type": "electric_scooter", "bike_id": "3189b15062715b1b560ede1f41d737b8", "fusion_lon": 0.0, "lat": 38.922800333333335, "fusion_lat": 0.0}, {"is_disabled": 0, "rental_uris": {"android": "https://dc.lft.to/lastmile_qr_scan", "ios": "https://dc.lft.to/lastmile_qr_scan"}, "is_reserved": 0, "name": "6d6f2407955479d475e0626a4512a861", "lon": -77.043478, "type": "electric_scooter", "bike_id": "6d6f2407955479d475e0626a4512a861", "fusion_lon": 0.0, "lat": 38.9035465, "fusion_lat": 0.0}, {"is_disabled": 0, "rental_uris": {"android": "https://dc.lft.to/lastmile_qr_scan", "ios": "https://dc.lft.to/lastmile_qr_scan"}, "is_reserved": 0, "name": "6be32f691dbd39469b082350e2ed3572", "lon": -77.0111235, "type": "electric_scooter", "bike_id": "6be32f691dbd39469b082350e2ed3572", "fusion_lon": 0.0, "lat": 38.90361866666667, "fusion_lat": 0.0}, {"is_disabled": 0, "rental_uris": {"android": "https://dc.lft.to/lastmile_qr_scan", "ios": "https://dc.lft.to/lastmile_qr_scan"}, "is_reserved": 0, "name": "697f2ecc641eb30a42343720b7d196f5", "lon": -77.03180733333333, "type": "electric_scooter", "bike_id": "697f2ecc641eb30a42343720b7d196f5", "fusion_lon": 0.0, "lat": 38.91919166666667, "fusion_lat": 0.0}, {"is_disabled": 0, "rental_uris": {"android": "https://dc.lft.to/lastmile_qr_scan", "ios": "https://dc.lft.to/lastmile_qr_scan"}, "is_reserved": 0, "name": "674d7eeeccec4b52e6571b6a854827ec", "lon": -76.99958166666667, "type": "electric_scooter", "bike_id": "674d7eeeccec4b52e6571b6a854827ec", "fusion_lon": 0.0, "lat": 38.84285583333333, "fusion_lat": 0.0}, {"is_disabled": 0, "rental_uris": {"android": "https://dc.lft.to/lastmile_qr_scan", "ios": "https://dc.lft.to/lastmile_qr_scan"}, "is_reserved": 0, "name": "19dc689d14105e0aedf6e7db27fb747b", "lon": -77.016144, "type": "electric_scooter", "bike_id": "19dc689d14105e0aedf6e7db27fb747b", "fusion_lon": 0.0, "lat": 38.8724025, "fusion_lat": 0.0}, {"is_disabled": 0, "rental_uris": {"android": "https://dc.lft.to/lastmile_qr_scan", "ios": "https://dc.lft.to/lastmile_qr_scan"}, "is_reserved": 0, "name": "be980ee4617301b48eb33f882c1b15fe", "lon": -77.0314765, "type": "electric_scooter", "bike_id": "be980ee4617301b48eb33f882c1b15fe", "fusion_lon": 0.0, "lat": 38.9161515, "fusion_lat": 0.0}, {"is_disabled": 0, "rental_uris": {"android": "https://dc.lft.to/lastmile_qr_scan", "ios": "https://dc.lft.to/lastmile_qr_scan"}, "is_reserved": 0, "name": "2b3e15f56b5d359d2aa60a1f02d25ba2", "lon": -76.98966666666666, "type": "electric_scooter", "bike_id": "2b3e15f56b5d359d2aa60a1f02d25ba2", "fusion_lon": 0.0, "lat": 38.90243233333333, "fusion_lat": 0.0}, {"is_disabled": 0, "rental_uris": {"android": "https://dc.lft.to/lastmile_qr_scan", "ios": "https://dc.lft.to/lastmile_qr_scan"}, "is_reserved": 0, "name": "9411918120c964c36cd002e30b55ba2a", "lon": -77.05004083333333, "type": "electric_scooter", "bike_id": "9411918120c964c36cd002e30b55ba2a", "fusion_lon": 0.0, "lat": 38.892326, "fusion_lat": 0.0}, {"is_disabled": 0, "rental_uris": {"android": "https://dc.lft.to/lastmile_qr_scan", "ios": "https://dc.lft.to/lastmile_qr_scan"}, "is_reserved": 0, "name": "e893dcf3f4a60973e126c5ec9efb0107", "lon": -77.03665383333333, "type": "electric_scooter", "bike_id": "e893dcf3f4a60973e126c5ec9efb0107", "fusion_lon": 0.0, "lat": 38.902721, "fusion_lat": 0.0}, {"is_disabled": 0, "rental_uris": {"android": "https://dc.lft.to/lastmile_qr_scan", "ios": "https://dc.lft.to/lastmile_qr_scan"}, "is_reserved": 0, "name": "cb66199bc4f56a7573e681a327ece2ce", "lon": -76.94949983333333, "type": "electric_bike", "bike_id": "cb66199bc4f56a7573e681a327ece2ce", "fusion_lon": 0.0, "lat": 38.93505616666667, "fusion_lat": 0.0}, {"is_disabled": 0, "rental_uris": {"android": "https://dc.lft.to/lastmile_qr_scan", "ios": "https://dc.lft.to/lastmile_qr_scan"}, "is_reserved": 0, "name": "8d71dda85d70600d3f3de1f9ab5fdb82", "lon": -77.01210316666666, "type": "electric_scooter", "bike_id": "8d71dda85d70600d3f3de1f9ab5fdb82", "fusion_lon": 0.0, "lat": 38.91820533333333, "fusion_lat": 0.0}, {"is_disabled": 0, "rental_uris": {"android": "https://dc.lft.to/lastmile_qr_scan", "ios": "https://dc.lft.to/lastmile_qr_scan"}, "is_reserved": 0, "name": "0d4e7acd530126ba6b73c8ee28f67b22", "lon": -76.9222895, "type": "electric_scooter", "bike_id": "0d4e7acd530126ba6b73c8ee28f67b22", "fusion_lon": 0.0, "lat": 38.89997666666667, "fusion_lat": 0.0}, {"is_disabled": 0, "rental_uris": {"android": "https://dc.lft.to/lastmile_qr_scan", "ios": "https://dc.lft.to/lastmile_qr_scan"}, "is_reserved": 0, "name": "8d2ac9ade9844b1409aee81de0fef68b", "lon": -77.02178366666666, "type": "electric_scooter", "bike_id": "8d2ac9ade9844b1409aee81de0fef68b", "fusion_lon": 0.0, "lat": 38.899460833333336, "fusion_lat": 0.0}, {"is_disabled": 0, "rental_uris": {"android": "https://dc.lft.to/lastmile_qr_scan", "ios": "https://dc.lft.to/lastmile_qr_scan"}, "is_reserved": 0, "name": "f9034c52fa18d6d871eea597e2b303d2", "lon": -77.04646833333334, "type": "electric_scooter", "bike_id": "f9034c52fa18d6d871eea597e2b303d2", "fusion_lon": 0.0, "lat": 38.89349583333333, "fusion_lat": 0.0}, {"is_disabled": 0, "rental_uris": {"android": "https://dc.lft.to/lastmile_qr_scan", "ios": "https://dc.lft.to/lastmile_qr_scan"}, "is_reserved": 0, "name": "ccdbe2d8ce77dbe5d2ebb1469f3a882d", "lon": -77.00389733333333, "type": "electric_scooter", "bike_id": "ccdbe2d8ce77dbe5d2ebb1469f3a882d", "fusion_lon": 0.0, "lat": 38.9107715, "fusion_lat": 0.0}, {"is_disabled": 0, "rental_uris": {"android": "https://dc.lft.to/lastmile_qr_scan", "ios": "https://dc.lft.to/lastmile_qr_scan"}, "is_reserved": 0, "name": "2204348f9be4ebaecf8e4a952ec9b4f8", "lon": -77.0737475, "type": "electric_bike", "bike_id": "2204348f9be4ebaecf8e4a952ec9b4f8", "fusion_lon": 0.0, "lat": 38.9618165, "fusion_lat": 0.0}, {"is_disabled": 0, "rental_uris": {"android": "https://dc.lft.to/lastmile_qr_scan", "ios": "https://dc.lft.to/lastmile_qr_scan"}, "is_reserved": 0, "name": "fc4a3cd5f4f09aecaa03fd340c087c32", "lon": -76.94284816666666, "type": "electric_scooter", "bike_id": "fc4a3cd5f4f09aecaa03fd340c087c32", "fusion_lon": 0.0, "lat": 38.88301533333333, "fusion_lat": 0.0}, {"is_disabled": 0, "rental_uris": {"android": "https://dc.lft.to/lastmile_qr_scan", "ios": "https://dc.lft.to/lastmile_qr_scan"}, "is_reserved": 0, "name": "7dcfd9020a572a2cfaf4685e16edec4e", "lon": -77.02215716666667, "type": "electric_scooter", "bike_id": "7dcfd9020a572a2cfaf4685e16edec4e", "fusion_lon": 0.0, "lat": 38.895053, "fusion_lat": 0.0}, {"is_disabled": 0, "rental_uris": {"android": "https://dc.lft.to/lastmile_qr_scan", "ios": "https://dc.lft.to/lastmile_qr_scan"}, "is_reserved": 0, "name": "1d617bbc93e8b252b2879bdea60e477a", "lon": -77.03852383333333, "type": "electric_scooter", "bike_id": "1d617bbc93e8b252b2879bdea60e477a", "fusion_lon": 0.0, "lat": 38.91621083333333, "fusion_lat": 0.0}, {"is_disabled": 0, "rental_uris": {"android": "https://dc.lft.to/lastmile_qr_scan", "ios": "https://dc.lft.to/lastmile_qr_scan"}, "is_reserved": 0, "name": "920f6ebc15dbeed8723f32c95055e585", "lon": -77.06382416666666, "type": "electric_scooter", "bike_id": "920f6ebc15dbeed8723f32c95055e585", "fusion_lon": 0.0, "lat": 38.90523233333333, "fusion_lat": 0.0}, {"is_disabled": 0, "rental_uris": {"android": "https://dc.lft.to/lastmile_qr_scan", "ios": "https://dc.lft.to/lastmile_qr_scan"}, "is_reserved": 0, "name": "b0682bab2122d5daba46847c85bab726", "lon": -77.014103, "type": "electric_scooter", "bike_id": "b0682bab2122d5daba46847c85bab726", "fusion_lon": 0.0, "lat": 38.91398933333333, "fusion_lat": 0.0}, {"is_disabled": 0, "rental_uris": {"android": "https://dc.lft.to/lastmile_qr_scan", "ios": "https://dc.lft.to/lastmile_qr_scan"}, "is_reserved": 0, "name": "820b14bdbfeb11cd95f995802b89ecf3", "lon": -77.07278466666666, "type": "electric_scooter", "bike_id": "820b14bdbfeb11cd95f995802b89ecf3", "fusion_lon": 0.0, "lat": 38.934709166666664, "fusion_lat": 0.0}, {"is_disabled": 0, "rental_uris": {"android": "https://dc.lft.to/lastmile_qr_scan", "ios": "https://dc.lft.to/lastmile_qr_scan"}, "is_reserved": 0, "name": "6ed67d20025bb2518cc5b9fcb5265b34", "lon": -76.90538933333333, "type": "electric_bike", "bike_id": "6ed67d20025bb2518cc5b9fcb5265b34", "fusion_lon": 0.0, "lat": 38.897364, "fusion_lat": 0.0}, {"is_disabled": 0, "rental_uris": {"android": "https://dc.lft.to/lastmile_qr_scan", "ios": "https://dc.lft.to/lastmile_qr_scan"}, "is_reserved": 0, "name": "a7722ad524f6d83d46f7c0abd1c0cc5c", "lon": -77.050164, "type": "electric_scooter", "bike_id": "a7722ad524f6d83d46f7c0abd1c0cc5c", "fusion_lon": 0.0, "lat": 38.9052105, "fusion_lat": 0.0}, {"is_disabled": 0, "rental_uris": {"android": "https://dc.lft.to/lastmile_qr_scan", "ios": "https://dc.lft.to/lastmile_qr_scan"}, "is_reserved": 0, "name": "e8dfd580249992c585f3396bfc267a84", "lon": -77.01534783333334, "type": "electric_scooter", "bike_id": "e8dfd580249992c585f3396bfc267a84", "fusion_lon": 0.0, "lat": 38.88739133333333, "fusion_lat": 0.0}, {"is_disabled": 0, "rental_uris": {"android": "https://dc.lft.to/lastmile_qr_scan", "ios": "https://dc.lft.to/lastmile_qr_scan"}, "is_reserved": 0, "name": "7effcfab0653cb407447f7ad7fabecf6", "lon": -77.01370666666666, "type": "electric_scooter", "bike_id": "7effcfab0653cb407447f7ad7fabecf6", "fusion_lon": 0.0, "lat": 38.886429166666666, "fusion_lat": 0.0}, {"is_disabled": 0, "rental_uris": {"android": "https://dc.lft.to/lastmile_qr_scan", "ios": "https://dc.lft.to/lastmile_qr_scan"}, "is_reserved": 0, "name": "58bafc1feeffb443756cd73c038d3230", "lon": -77.02838383333334, "type": "electric_scooter", "bike_id": "58bafc1feeffb443756cd73c038d3230", "fusion_lon": 0.0, "lat": 38.93238933333333, "fusion_lat": 0.0}, {"is_disabled": 0, "rental_uris": {"android": "https://dc.lft.to/lastmile_qr_scan", "ios": "https://dc.lft.to/lastmile_qr_scan"}, "is_reserved": 0, "name": "b8df83a2d44986a36caa0bafa013a5ea", "lon": -77.0435165, "type": "electric_scooter", "bike_id": "b8df83a2d44986a36caa0bafa013a5ea", "fusion_lon": 0.0, "lat": 38.9105495, "fusion_lat": 0.0}, {"is_disabled": 0, "rental_uris": {"android": "https://dc.lft.to/lastmile_qr_scan", "ios": "https://dc.lft.to/lastmile_qr_scan"}, "is_reserved": 0, "name": "717868ebfad8a8fe6bd650b16d8dfdd2", "lon": -77.00345816666666, "type": "electric_scooter", "bike_id": "717868ebfad8a8fe6bd650b16d8dfdd2", "fusion_lon": 0.0, "lat": 38.886688666666664, "fusion_lat": 0.0}, {"is_disabled": 0, "rental_uris": {"android": "https://dc.lft.to/lastmile_qr_scan", "ios": "https://dc.lft.to/lastmile_qr_scan"}, "is_reserved": 0, "name": "0989d389abea46b795c796c7056c1e73", "lon": -77.01963116666667, "type": "electric_scooter", "bike_id": "0989d389abea46b795c796c7056c1e73", "fusion_lon": 0.0, "lat": 38.883753, "fusion_lat": 0.0}, {"is_disabled": 0, "rental_uris": {"android": "https://dc.lft.to/lastmile_qr_scan", "ios": "https://dc.lft.to/lastmile_qr_scan"}, "is_reserved": 0, "name": "3f96bf35b79f5d50e26e114c21d3e444", "lon": -77.04215016666667, "type": "electric_scooter", "bike_id": "3f96bf35b79f5d50e26e114c21d3e444", "fusion_lon": 0.0, "lat": 38.914197, "fusion_lat": 0.0}, {"is_disabled": 0, "rental_uris": {"android": "https://dc.lft.to/lastmile_qr_scan", "ios": "https://dc.lft.to/lastmile_qr_scan"}, "is_reserved": 0, "name": "8ea56142dd21effd87b6cc3ffef57bfe", "lon": -77.013635, "type": "electric_scooter", "bike_id": "8ea56142dd21effd87b6cc3ffef57bfe", "fusion_lon": 0.0, "lat": 38.9287555, "fusion_lat": 0.0}, {"is_disabled": 0, "rental_uris": {"android": "https://dc.lft.to/lastmile_qr_scan", "ios": "https://dc.lft.to/lastmile_qr_scan"}, "is_reserved": 0, "name": "f13b5a1457fa9dc8b6a3e302535b3a0e", "lon": -77.044291, "type": "electric_scooter", "bike_id": "f13b5a1457fa9dc8b6a3e302535b3a0e", "fusion_lon": 0.0, "lat": 38.91259183333333, "fusion_lat": 0.0}, {"is_disabled": 0, "rental_uris": {"android": "https://dc.lft.to/lastmile_qr_scan", "ios": "https://dc.lft.to/lastmile_qr_scan"}, "is_reserved": 0, "name": "82c7af987475efa1c34a3aa8dff5ab14", "lon": -77.01094633333334, "type": "electric_scooter", "bike_id": "82c7af987475efa1c34a3aa8dff5ab14", "fusion_lon": 0.0, "lat": 38.90561683333333, "fusion_lat": 0.0}, {"is_disabled": 0, "rental_uris": {"android": "https://dc.lft.to/lastmile_qr_scan", "ios": "https://dc.lft.to/lastmile_qr_scan"}, "is_reserved": 0, "name": "404e8c24dc6de2ec533b75bb8bf38905", "lon": -77.03204866666667, "type": "electric_scooter", "bike_id": "404e8c24dc6de2ec533b75bb8bf38905", "fusion_lon": 0.0, "lat": 38.9146375, "fusion_lat": 0.0}, {"is_disabled": 0, "rental_uris": {"android": "https://dc.lft.to/lastmile_qr_scan", "ios": "https://dc.lft.to/lastmile_qr_scan"}, "is_reserved": 0, "name": "0955fbc6f41d3fdb4018c32313fe224b", "lon": -77.019655, "type": "electric_scooter", "bike_id": "0955fbc6f41d3fdb4018c32313fe224b", "fusion_lon": 0.0, "lat": 38.896177, "fusion_lat": 0.0}, {"is_disabled": 0, "rental_uris": {"android": "https://dc.lft.to/lastmile_qr_scan", "ios": "https://dc.lft.to/lastmile_qr_scan"}, "is_reserved": 0, "name": "089c8540310c36334e0acf8b03470cee", "lon": -77.03192766666666, "type": "electric_scooter", "bike_id": "089c8540310c36334e0acf8b03470cee", "fusion_lon": 0.0, "lat": 38.89781266666667, "fusion_lat": 0.0}, {"is_disabled": 0, "rental_uris": {"android": "https://dc.lft.to/lastmile_qr_scan", "ios": "https://dc.lft.to/lastmile_qr_scan"}, "is_reserved": 0, "name": "a680e428260f0213351ceb6ba463137d", "lon": -77.031299, "type": "electric_scooter", "bike_id": "a680e428260f0213351ceb6ba463137d", "fusion_lon": 0.0, "lat": 38.918070166666666, "fusion_lat": 0.0}, {"is_disabled": 0, "rental_uris": {"android": "https://dc.lft.to/lastmile_qr_scan", "ios": "https://dc.lft.to/lastmile_qr_scan"}, "is_reserved": 0, "name": "1262127b5ebea175f0c68e1cf5b22069", "lon": -77.04863233333333, "type": "electric_scooter", "bike_id": "1262127b5ebea175f0c68e1cf5b22069", "fusion_lon": 0.0, "lat": 38.91338, "fusion_lat": 0.0}, {"is_disabled": 0, "rental_uris": {"android": "https://dc.lft.to/lastmile_qr_scan", "ios": "https://dc.lft.to/lastmile_qr_scan"}, "is_reserved": 0, "name": "9ac268ff5a8e3903b9f974504e14c269", "lon": -77.1225795, "type": "electric_bike", "bike_id": "9ac268ff5a8e3903b9f974504e14c269", "fusion_lon": 0.0, "lat": 38.887707666666664, "fusion_lat": 0.0}, {"is_disabled": 0, "rental_uris": {"android": "https://dc.lft.to/lastmile_qr_scan", "ios": "https://dc.lft.to/lastmile_qr_scan"}, "is_reserved": 0, "name": "f097fda0e4af7b3a4c2bb9af16ed02b7", "lon": -77.07684383333333, "type": "electric_bike", "bike_id": "f097fda0e4af7b3a4c2bb9af16ed02b7", "fusion_lon": 0.0, "lat": 38.831927, "fusion_lat": 0.0}, {"is_disabled": 0, "rental_uris": {"android": "https://dc.lft.to/lastmile_qr_scan", "ios": "https://dc.lft.to/lastmile_qr_scan"}, "is_reserved": 0, "name": "dc2b897cb22c25b1db793839982593ee", "lon": -76.93543766666667, "type": "electric_bike", "bike_id": "dc2b897cb22c25b1db793839982593ee", "fusion_lon": 0.0, "lat": 38.95565333333333, "fusion_lat": 0.0}, {"is_disabled": 0, "rental_uris": {"android": "https://dc.lft.to/lastmile_qr_scan", "ios": "https://dc.lft.to/lastmile_qr_scan"}, "is_reserved": 0, "name": "5b3b90ed6cff849b853ce1bfd6252eed", "lon": -77.04203633333333, "type": "electric_scooter", "bike_id": "5b3b90ed6cff849b853ce1bfd6252eed", "fusion_lon": 0.0, "lat": 38.91120466666667, "fusion_lat": 0.0}, {"is_disabled": 0, "rental_uris": {"android": "https://dc.lft.to/lastmile_qr_scan", "ios": "https://dc.lft.to/lastmile_qr_scan"}, "is_reserved": 0, "name": "810b3d7d9b49d70a23e96b51e1e8d19b", "lon": -77.11225766666666, "type": "electric_bike", "bike_id": "810b3d7d9b49d70a23e96b51e1e8d19b", "fusion_lon": 0.0, "lat": 38.828672166666664, "fusion_lat": 0.0}, {"is_disabled": 0, "rental_uris": {"android": "https://dc.lft.to/lastmile_qr_scan", "ios": "https://dc.lft.to/lastmile_qr_scan"}, "is_reserved": 0, "name": "56e4ac086ad4e8aefa3857fab113e13d", "lon": -76.99534483333333, "type": "electric_scooter", "bike_id": "56e4ac086ad4e8aefa3857fab113e13d", "fusion_lon": 0.0, "lat": 38.92062983333334, "fusion_lat": 0.0}, {"is_disabled": 0, "rental_uris": {"android": "https://dc.lft.to/lastmile_qr_scan", "ios": "https://dc.lft.to/lastmile_qr_scan"}, "is_reserved": 0, "name": "f7f1648d8d9075a129bfce6a639f0d2e", "lon": -76.99646883333334, "type": "electric_scooter", "bike_id": "f7f1648d8d9075a129bfce6a639f0d2e", "fusion_lon": 0.0, "lat": 38.88720466666667, "fusion_lat": 0.0}, {"is_disabled": 0, "rental_uris": {"android": "https://dc.lft.to/lastmile_qr_scan", "ios": "https://dc.lft.to/lastmile_qr_scan"}, "is_reserved": 0, "name": "ea6aa1c1e8f99d0afee524a15b2f567c", "lon": -77.03348833333334, "type": "electric_scooter", "bike_id": "ea6aa1c1e8f99d0afee524a15b2f567c", "fusion_lon": 0.0, "lat": 38.8924805, "fusion_lat": 0.0}, {"is_disabled": 0, "rental_uris": {"android": "https://dc.lft.to/lastmile_qr_scan", "ios": "https://dc.lft.to/lastmile_qr_scan"}, "is_reserved": 0, "name": "348c8308f69ef989917ee7431f39085c", "lon": -77.07850316666666, "type": "electric_scooter", "bike_id": "348c8308f69ef989917ee7431f39085c", "fusion_lon": 0.0, "lat": 38.93134283333333, "fusion_lat": 0.0}, {"is_disabled": 0, "rental_uris": {"android": "https://dc.lft.to/lastmile_qr_scan", "ios": "https://dc.lft.to/lastmile_qr_scan"}, "is_reserved": 0, "name": "79ed1d0c357b0bad552b4bbe2117d8c6", "lon": -77.00776716666667, "type": "electric_scooter", "bike_id": "79ed1d0c357b0bad552b4bbe2117d8c6", "fusion_lon": 0.0, "lat": 38.914948833333334, "fusion_lat": 0.0}, {"is_disabled": 0, "rental_uris": {"android": "https://dc.lft.to/lastmile_qr_scan", "ios": "https://dc.lft.to/lastmile_qr_scan"}, "is_reserved": 0, "name": "77eed68720a1a740011f3948b169f165", "lon": -77.024899, "type": "electric_bike", "bike_id": "77eed68720a1a740011f3948b169f165", "fusion_lon": 0.0, "lat": 38.9737605, "fusion_lat": 0.0}, {"is_disabled": 0, "rental_uris": {"android": "https://dc.lft.to/lastmile_qr_scan", "ios": "https://dc.lft.to/lastmile_qr_scan"}, "is_reserved": 0, "name": "fe26ba11439228f5177e1d3f5259ce3c", "lon": -76.9713595, "type": "electric_bike", "bike_id": "fe26ba11439228f5177e1d3f5259ce3c", "fusion_lon": 0.0, "lat": 38.919589, "fusion_lat": 0.0}, {"is_disabled": 0, "rental_uris": {"android": "https://dc.lft.to/lastmile_qr_scan", "ios": "https://dc.lft.to/lastmile_qr_scan"}, "is_reserved": 0, "name": "a3343a24d2251e43c821f520b8aa984b", "lon": -77.0451225, "type": "electric_scooter", "bike_id": "a3343a24d2251e43c821f520b8aa984b", "fusion_lon": 0.0, "lat": 38.907839, "fusion_lat": 0.0}, {"is_disabled": 0, "rental_uris": {"android": "https://dc.lft.to/lastmile_qr_scan", "ios": "https://dc.lft.to/lastmile_qr_scan"}, "is_reserved": 0, "name": "3071fe2e56d929e2349340fcaa28137c", "lon": -76.99015833333333, "type": "electric_scooter", "bike_id": "3071fe2e56d929e2349340fcaa28137c", "fusion_lon": 0.0, "lat": 38.8610415, "fusion_lat": 0.0}, {"is_disabled": 0, "rental_uris": {"android": "https://dc.lft.to/lastmile_qr_scan", "ios": "https://dc.lft.to/lastmile_qr_scan"}, "is_reserved": 0, "name": "5c8a502d6009fce08789a1793d2fdd5b", "lon": -77.04458466666667, "type": "electric_scooter", "bike_id": "5c8a502d6009fce08789a1793d2fdd5b", "fusion_lon": 0.0, "lat": 38.918652, "fusion_lat": 0.0}, {"is_disabled": 0, "rental_uris": {"android": "https://dc.lft.to/lastmile_qr_scan", "ios": "https://dc.lft.to/lastmile_qr_scan"}, "is_reserved": 0, "name": "dcd82493f75e8443b4891547fe15a74d", "lon": -76.99632183333334, "type": "electric_scooter", "bike_id": "dcd82493f75e8443b4891547fe15a74d", "fusion_lon": 0.0, "lat": 38.84622533333334, "fusion_lat": 0.0}, {"is_disabled": 0, "rental_uris": {"android": "https://dc.lft.to/lastmile_qr_scan", "ios": "https://dc.lft.to/lastmile_qr_scan"}, "is_reserved": 0, "name": "0684d594e3b64df8ef3fb612b493199d", "lon": -77.02113633333333, "type": "electric_scooter", "bike_id": "0684d594e3b64df8ef3fb612b493199d", "fusion_lon": 0.0, "lat": 38.9155475, "fusion_lat": 0.0}, {"is_disabled": 0, "rental_uris": {"android": "https://dc.lft.to/lastmile_qr_scan", "ios": "https://dc.lft.to/lastmile_qr_scan"}, "is_reserved": 0, "name": "a8609c139fcd9f208db883a546711876", "lon": -77.0249465, "type": "electric_scooter", "bike_id": "a8609c139fcd9f208db883a546711876", "fusion_lon": 0.0, "lat": 38.941850333333335, "fusion_lat": 0.0}, {"is_disabled": 0, "rental_uris": {"android": "https://dc.lft.to/lastmile_qr_scan", "ios": "https://dc.lft.to/lastmile_qr_scan"}, "is_reserved": 0, "name": "d07294230145a1b33dd3494aab00d52d", "lon": -77.02589183333333, "type": "electric_scooter", "bike_id": "d07294230145a1b33dd3494aab00d52d", "fusion_lon": 0.0, "lat": 38.90433783333334, "fusion_lat": 0.0}, {"is_disabled": 0, "rental_uris": {"android": "https://dc.lft.to/lastmile_qr_scan", "ios": "https://dc.lft.to/lastmile_qr_scan"}, "is_reserved": 0, "name": "1c6e68699c0cff94f0c51155f4ecd737", "lon": -77.02979216666667, "type": "electric_scooter", "bike_id": "1c6e68699c0cff94f0c51155f4ecd737", "fusion_lon": 0.0, "lat": 38.945232, "fusion_lat": 0.0}, {"is_disabled": 0, "rental_uris": {"android": "https://dc.lft.to/lastmile_qr_scan", "ios": "https://dc.lft.to/lastmile_qr_scan"}, "is_reserved": 0, "name": "c3924bf20e4aadc86f2936d2cb005c55", "lon": -76.95756416666667, "type": "electric_scooter", "bike_id": "c3924bf20e4aadc86f2936d2cb005c55", "fusion_lon": 0.0, "lat": 38.88423733333333, "fusion_lat": 0.0}, {"is_disabled": 0, "rental_uris": {"android": "https://dc.lft.to/lastmile_qr_scan", "ios": "https://dc.lft.to/lastmile_qr_scan"}, "is_reserved": 0, "name": "59e2f402c8ee4594bd6d0b2fcfc47a90", "lon": -76.99391083333333, "type": "electric_scooter", "bike_id": "59e2f402c8ee4594bd6d0b2fcfc47a90", "fusion_lon": 0.0, "lat": 38.8844995, "fusion_lat": 0.0}, {"is_disabled": 0, "rental_uris": {"android": "https://dc.lft.to/lastmile_qr_scan", "ios": "https://dc.lft.to/lastmile_qr_scan"}, "is_reserved": 0, "name": "6d24eaf109d9df9b10ccdb5f82992023", "lon": -77.04650983333333, "type": "electric_scooter", "bike_id": "6d24eaf109d9df9b10ccdb5f82992023", "fusion_lon": 0.0, "lat": 38.900232, "fusion_lat": 0.0}, {"is_disabled": 0, "rental_uris": {"android": "https://dc.lft.to/lastmile_qr_scan", "ios": "https://dc.lft.to/lastmile_qr_scan"}, "is_reserved": 0, "name": "eeedb0792fcc693fba126aa814a431f9", "lon": -77.02312783333333, "type": "electric_scooter", "bike_id": "eeedb0792fcc693fba126aa814a431f9", "fusion_lon": 0.0, "lat": 38.916897166666665, "fusion_lat": 0.0}, {"is_disabled": 0, "rental_uris": {"android": "https://dc.lft.to/lastmile_qr_scan", "ios": "https://dc.lft.to/lastmile_qr_scan"}, "is_reserved": 0, "name": "05944121aa1468360da74d2aa3851c14", "lon": -76.973715, "type": "electric_bike", "bike_id": "05944121aa1468360da74d2aa3851c14", "fusion_lon": 0.0, "lat": 38.865549333333334, "fusion_lat": 0.0}, {"is_disabled": 0, "rental_uris": {"android": "https://dc.lft.to/lastmile_qr_scan", "ios": "https://dc.lft.to/lastmile_qr_scan"}, "is_reserved": 0, "name": "4894d315432afd29fb86384b78214071", "lon": -77.044301, "type": "electric_scooter", "bike_id": "4894d315432afd29fb86384b78214071", "fusion_lon": 0.0, "lat": 38.90940066666667, "fusion_lat": 0.0}, {"is_disabled": 0, "rental_uris": {"android": "https://dc.lft.to/lastmile_qr_scan", "ios": "https://dc.lft.to/lastmile_qr_scan"}, "is_reserved": 0, "name": "18b18f18c5fcfc998e0db82ebdc94e07", "lon": -77.04666383333333, "type": "electric_scooter", "bike_id": "18b18f18c5fcfc998e0db82ebdc94e07", "fusion_lon": 0.0, "lat": 38.9033795, "fusion_lat": 0.0}, {"is_disabled": 0, "rental_uris": {"android": "https://dc.lft.to/lastmile_qr_scan", "ios": "https://dc.lft.to/lastmile_qr_scan"}, "is_reserved": 0, "name": "fe6e61f6d7e173d22d791a7e554d0d9a", "lon": -77.05283833333333, "type": "electric_scooter", "bike_id": "fe6e61f6d7e173d22d791a7e554d0d9a", "fusion_lon": 0.0, "lat": 38.92250966666667, "fusion_lat": 0.0}, {"is_disabled": 0, "rental_uris": {"android": "https://dc.lft.to/lastmile_qr_scan", "ios": "https://dc.lft.to/lastmile_qr_scan"}, "is_reserved": 0, "name": "d0b70c06b2243a7a7319eee5ace5fcc4", "lon": -76.99399216666667, "type": "electric_scooter", "bike_id": "d0b70c06b2243a7a7319eee5ace5fcc4", "fusion_lon": 0.0, "lat": 38.921709166666666, "fusion_lat": 0.0}, {"is_disabled": 0, "rental_uris": {"android": "https://dc.lft.to/lastmile_qr_scan", "ios": "https://dc.lft.to/lastmile_qr_scan"}, "is_reserved": 0, "name": "fce77ddb912eca58b76156d10a67b9c5", "lon": -77.0344255, "type": "electric_scooter", "bike_id": "fce77ddb912eca58b76156d10a67b9c5", "fusion_lon": 0.0, "lat": 38.93362483333333, "fusion_lat": 0.0}, {"is_disabled": 0, "rental_uris": {"android": "https://dc.lft.to/lastmile_qr_scan", "ios": "https://dc.lft.to/lastmile_qr_scan"}, "is_reserved": 0, "name": "923af067bfc19ea505e3bf610fd048f2", "lon": -77.0365855, "type": "electric_scooter", "bike_id": "923af067bfc19ea505e3bf610fd048f2", "fusion_lon": 0.0, "lat": 38.922801166666666, "fusion_lat": 0.0}, {"is_disabled": 0, "rental_uris": {"android": "https://dc.lft.to/lastmile_qr_scan", "ios": "https://dc.lft.to/lastmile_qr_scan"}, "is_reserved": 0, "name": "1d86e4184e43fe34fbdc6f7799c486a6", "lon": -76.987301, "type": "electric_scooter", "bike_id": "1d86e4184e43fe34fbdc6f7799c486a6", "fusion_lon": 0.0, "lat": 38.867106166666666, "fusion_lat": 0.0}, {"is_disabled": 0, "rental_uris": {"android": "https://dc.lft.to/lastmile_qr_scan", "ios": "https://dc.lft.to/lastmile_qr_scan"}, "is_reserved": 0, "name": "6e381bc1069887ca3df38993525f86ad", "lon": -77.01765133333333, "type": "electric_scooter", "bike_id": "6e381bc1069887ca3df38993525f86ad", "fusion_lon": 0.0, "lat": 38.88393283333333, "fusion_lat": 0.0}, {"is_disabled": 0, "rental_uris": {"android": "https://dc.lft.to/lastmile_qr_scan", "ios": "https://dc.lft.to/lastmile_qr_scan"}, "is_reserved": 0, "name": "add7e26490389365dc5bb977d5dfa440", "lon": -77.02960466666667, "type": "electric_scooter", "bike_id": "add7e26490389365dc5bb977d5dfa440", "fusion_lon": 0.0, "lat": 38.904326, "fusion_lat": 0.0}, {"is_disabled": 0, "rental_uris": {"android": "https://dc.lft.to/lastmile_qr_scan", "ios": "https://dc.lft.to/lastmile_qr_scan"}, "is_reserved": 0, "name": "f14204568e384d4c087daffbc905a53e", "lon": -77.04168383333334, "type": "electric_scooter", "bike_id": "f14204568e384d4c087daffbc905a53e", "fusion_lon": 0.0, "lat": 38.898930666666665, "fusion_lat": 0.0}, {"is_disabled": 0, "rental_uris": {"android": "https://dc.lft.to/lastmile_qr_scan", "ios": "https://dc.lft.to/lastmile_qr_scan"}, "is_reserved": 0, "name": "d38918dec6382f4f7134d7243f340ddb", "lon": -76.93743316666666, "type": "electric_scooter", "bike_id": "d38918dec6382f4f7134d7243f340ddb", "fusion_lon": 0.0, "lat": 38.89018133333333, "fusion_lat": 0.0}, {"is_disabled": 0, "rental_uris": {"android": "https://dc.lft.to/lastmile_qr_scan", "ios": "https://dc.lft.to/lastmile_qr_scan"}, "is_reserved": 0, "name": "2542356517c8487f5aa67ec71a100e9e", "lon": -77.04205083333333, "type": "electric_scooter", "bike_id": "2542356517c8487f5aa67ec71a100e9e", "fusion_lon": 0.0, "lat": 38.911217, "fusion_lat": 0.0}, {"is_disabled": 0, "rental_uris": {"android": "https://dc.lft.to/lastmile_qr_scan", "ios": "https://dc.lft.to/lastmile_qr_scan"}, "is_reserved": 0, "name": "405533a07add27a25bde49c51275bbbe", "lon": -77.04559316666666, "type": "electric_scooter", "bike_id": "405533a07add27a25bde49c51275bbbe", "fusion_lon": 0.0, "lat": 38.90720983333333, "fusion_lat": 0.0}, {"is_disabled": 0, "rental_uris": {"android": "https://dc.lft.to/lastmile_qr_scan", "ios": "https://dc.lft.to/lastmile_qr_scan"}, "is_reserved": 0, "name": "38e1be473424cb81fdd1711d2603730f", "lon": -77.00607633333334, "type": "electric_bike", "bike_id": "38e1be473424cb81fdd1711d2603730f", "fusion_lon": 0.0, "lat": 38.89812233333333, "fusion_lat": 0.0}, {"is_disabled": 0, "rental_uris": {"android": "https://dc.lft.to/lastmile_qr_scan", "ios": "https://dc.lft.to/lastmile_qr_scan"}, "is_reserved": 0, "name": "77999a34563d2c1a257c139dfa8ecab3", "lon": -77.05413883333334, "type": "electric_scooter", "bike_id": "77999a34563d2c1a257c139dfa8ecab3", "fusion_lon": 0.0, "lat": 38.928293, "fusion_lat": 0.0}, {"is_disabled": 0, "rental_uris": {"android": "https://dc.lft.to/lastmile_qr_scan", "ios": "https://dc.lft.to/lastmile_qr_scan"}, "is_reserved": 0, "name": "308065171700acda19ec7c91cb56b471", "lon": -77.0441915, "type": "electric_scooter", "bike_id": "308065171700acda19ec7c91cb56b471", "fusion_lon": 0.0, "lat": 38.917681, "fusion_lat": 0.0}, {"is_disabled": 0, "rental_uris": {"android": "https://dc.lft.to/lastmile_qr_scan", "ios": "https://dc.lft.to/lastmile_qr_scan"}, "is_reserved": 0, "name": "f385d93125dd409734cf651ee79af670", "lon": -77.05516566666667, "type": "electric_bike", "bike_id": "f385d93125dd409734cf651ee79af670", "fusion_lon": 0.0, "lat": 38.9106175, "fusion_lat": 0.0}, {"is_disabled": 0, "rental_uris": {"android": "https://dc.lft.to/lastmile_qr_scan", "ios": "https://dc.lft.to/lastmile_qr_scan"}, "is_reserved": 0, "name": "7da41012479a16f475de76d1f0e12947", "lon": -77.05529466666667, "type": "electric_scooter", "bike_id": "7da41012479a16f475de76d1f0e12947", "fusion_lon": 0.0, "lat": 38.930100333333336, "fusion_lat": 0.0}, {"is_disabled": 0, "rental_uris": {"android": "https://dc.lft.to/lastmile_qr_scan", "ios": "https://dc.lft.to/lastmile_qr_scan"}, "is_reserved": 0, "name": "c857d0a77450999b00f2297dced0bc5c", "lon": -77.03761166666666, "type": "electric_scooter", "bike_id": "c857d0a77450999b00f2297dced0bc5c", "fusion_lon": 0.0, "lat": 38.929056, "fusion_lat": 0.0}, {"is_disabled": 0, "rental_uris": {"android": "https://dc.lft.to/lastmile_qr_scan", "ios": "https://dc.lft.to/lastmile_qr_scan"}, "is_reserved": 0, "name": "f43bf8866a48a0d00eff0c5ca3ca4b22", "lon": -77.04245733333333, "type": "electric_scooter", "bike_id": "f43bf8866a48a0d00eff0c5ca3ca4b22", "fusion_lon": 0.0, "lat": 38.92221583333333, "fusion_lat": 0.0}, {"is_disabled": 0, "rental_uris": {"android": "https://dc.lft.to/lastmile_qr_scan", "ios": "https://dc.lft.to/lastmile_qr_scan"}, "is_reserved": 0, "name": "1393f29561815c35c8390b56952d7483", "lon": -77.02672133333333, "type": "electric_scooter", "bike_id": "1393f29561815c35c8390b56952d7483", "fusion_lon": 0.0, "lat": 38.9126585, "fusion_lat": 0.0}, {"is_disabled": 0, "rental_uris": {"android": "https://dc.lft.to/lastmile_qr_scan", "ios": "https://dc.lft.to/lastmile_qr_scan"}, "is_reserved": 0, "name": "9edcfce9d9a953192cd8680380e4878b", "lon": -77.02180716666666, "type": "electric_scooter", "bike_id": "9edcfce9d9a953192cd8680380e4878b", "fusion_lon": 0.0, "lat": 38.89953766666667, "fusion_lat": 0.0}, {"is_disabled": 0, "rental_uris": {"android": "https://dc.lft.to/lastmile_qr_scan", "ios": "https://dc.lft.to/lastmile_qr_scan"}, "is_reserved": 0, "name": "bfc08456bee0c38a9360bf500961021a", "lon": -77.03031, "type": "electric_scooter", "bike_id": "bfc08456bee0c38a9360bf500961021a", "fusion_lon": 0.0, "lat": 38.93109716666667, "fusion_lat": 0.0}, {"is_disabled": 0, "rental_uris": {"android": "https://dc.lft.to/lastmile_qr_scan", "ios": "https://dc.lft.to/lastmile_qr_scan"}, "is_reserved": 0, "name": "7525cb0d0036a8ea8c896305bd230d90", "lon": -77.03871816666667, "type": "electric_scooter", "bike_id": "7525cb0d0036a8ea8c896305bd230d90", "fusion_lon": 0.0, "lat": 38.908087333333334, "fusion_lat": 0.0}, {"is_disabled": 0, "rental_uris": {"android": "https://dc.lft.to/lastmile_qr_scan", "ios": "https://dc.lft.to/lastmile_qr_scan"}, "is_reserved": 0, "name": "851090fe567102e4398120d499248638", "lon": -77.04856483333333, "type": "electric_scooter", "bike_id": "851090fe567102e4398120d499248638", "fusion_lon": 0.0, "lat": 38.911606166666665, "fusion_lat": 0.0}, {"is_disabled": 0, "rental_uris": {"android": "https://dc.lft.to/lastmile_qr_scan", "ios": "https://dc.lft.to/lastmile_qr_scan"}, "is_reserved": 0, "name": "eba1219c371d5ecd0ba8ea3b1b012072", "lon": -77.0313655, "type": "electric_scooter", "bike_id": "eba1219c371d5ecd0ba8ea3b1b012072", "fusion_lon": 0.0, "lat": 38.920196833333335, "fusion_lat": 0.0}, {"is_disabled": 0, "rental_uris": {"android": "https://dc.lft.to/lastmile_qr_scan", "ios": "https://dc.lft.to/lastmile_qr_scan"}, "is_reserved": 0, "name": "312255a428afef64c5fdd0794317047e", "lon": -76.9652855, "type": "electric_scooter", "bike_id": "312255a428afef64c5fdd0794317047e", "fusion_lon": 0.0, "lat": 38.87630866666667, "fusion_lat": 0.0}, {"is_disabled": 0, "rental_uris": {"android": "https://dc.lft.to/lastmile_qr_scan", "ios": "https://dc.lft.to/lastmile_qr_scan"}, "is_reserved": 0, "name": "f3c5b42aafbc2a5468a60172874b0e28", "lon": -77.02171916666667, "type": "electric_scooter", "bike_id": "f3c5b42aafbc2a5468a60172874b0e28", "fusion_lon": 0.0, "lat": 38.897239166666665, "fusion_lat": 0.0}, {"is_disabled": 0, "rental_uris": {"android": "https://dc.lft.to/lastmile_qr_scan", "ios": "https://dc.lft.to/lastmile_qr_scan"}, "is_reserved": 0, "name": "7f8cd7a8f10d52772837dd36d1abb87b", "lon": -77.01617233333333, "type": "electric_scooter", "bike_id": "7f8cd7a8f10d52772837dd36d1abb87b", "fusion_lon": 0.0, "lat": 38.87873483333333, "fusion_lat": 0.0}, {"is_disabled": 0, "rental_uris": {"android": "https://dc.lft.to/lastmile_qr_scan", "ios": "https://dc.lft.to/lastmile_qr_scan"}, "is_reserved": 0, "name": "251a8ea24a8f8e15aa7272b27efd91e1", "lon": -77.01623833333333, "type": "electric_scooter", "bike_id": "251a8ea24a8f8e15aa7272b27efd91e1", "fusion_lon": 0.0, "lat": 38.92048066666667, "fusion_lat": 0.0}, {"is_disabled": 0, "rental_uris": {"android": "https://dc.lft.to/lastmile_qr_scan", "ios": "https://dc.lft.to/lastmile_qr_scan"}, "is_reserved": 0, "name": "ff62af706add1e7f6d72caf1c096ad88", "lon": -77.00764833333334, "type": "electric_scooter", "bike_id": "ff62af706add1e7f6d72caf1c096ad88", "fusion_lon": 0.0, "lat": 38.9006645, "fusion_lat": 0.0}, {"is_disabled": 0, "rental_uris": {"android": "https://dc.lft.to/lastmile_qr_scan", "ios": "https://dc.lft.to/lastmile_qr_scan"}, "is_reserved": 0, "name": "f29e8b1703fa2af0a1c883fc28a48929", "lon": -77.0279845, "type": "electric_scooter", "bike_id": "f29e8b1703fa2af0a1c883fc28a48929", "fusion_lon": 0.0, "lat": 38.903941, "fusion_lat": 0.0}, {"is_disabled": 0, "rental_uris": {"android": "https://dc.lft.to/lastmile_qr_scan", "ios": "https://dc.lft.to/lastmile_qr_scan"}, "is_reserved": 0, "name": "4e0407c9f7712cb130505c556902e69c", "lon": -77.02468416666666, "type": "electric_scooter", "bike_id": "4e0407c9f7712cb130505c556902e69c", "fusion_lon": 0.0, "lat": 38.93770633333333, "fusion_lat": 0.0}, {"is_disabled": 0, "rental_uris": {"android": "https://dc.lft.to/lastmile_qr_scan", "ios": "https://dc.lft.to/lastmile_qr_scan"}, "is_reserved": 0, "name": "be8ed8c69967a84ae40b2bdb70e991a4", "lon": -77.02725033333333, "type": "electric_scooter", "bike_id": "be8ed8c69967a84ae40b2bdb70e991a4", "fusion_lon": 0.0, "lat": 38.89716816666667, "fusion_lat": 0.0}, {"is_disabled": 0, "rental_uris": {"android": "https://dc.lft.to/lastmile_qr_scan", "ios": "https://dc.lft.to/lastmile_qr_scan"}, "is_reserved": 0, "name": "da9c2e0d8ff79d441d3d729869b16882", "lon": -76.99538066666666, "type": "electric_scooter", "bike_id": "da9c2e0d8ff79d441d3d729869b16882", "fusion_lon": 0.0, "lat": 38.862523333333336, "fusion_lat": 0.0}, {"is_disabled": 0, "rental_uris": {"android": "https://dc.lft.to/lastmile_qr_scan", "ios": "https://dc.lft.to/lastmile_qr_scan"}, "is_reserved": 0, "name": "357e425d99058413ec6b6798fd7a4238", "lon": -77.04614366666667, "type": "electric_scooter", "bike_id": "357e425d99058413ec6b6798fd7a4238", "fusion_lon": 0.0, "lat": 38.899806166666664, "fusion_lat": 0.0}, {"is_disabled": 0, "rental_uris": {"android": "https://dc.lft.to/lastmile_qr_scan", "ios": "https://dc.lft.to/lastmile_qr_scan"}, "is_reserved": 0, "name": "38e7ab8b880cf9a9981bab8c2bb13afd", "lon": -77.04170233333333, "type": "electric_scooter", "bike_id": "38e7ab8b880cf9a9981bab8c2bb13afd", "fusion_lon": 0.0, "lat": 38.90801116666667, "fusion_lat": 0.0}, {"is_disabled": 0, "rental_uris": {"android": "https://dc.lft.to/lastmile_qr_scan", "ios": "https://dc.lft.to/lastmile_qr_scan"}, "is_reserved": 0, "name": "468e08529c7b52984d5f3dd423a5f42e", "lon": -76.9411925, "type": "electric_scooter", "bike_id": "468e08529c7b52984d5f3dd423a5f42e", "fusion_lon": 0.0, "lat": 38.9079135, "fusion_lat": 0.0}, {"is_disabled": 0, "rental_uris": {"android": "https://dc.lft.to/lastmile_qr_scan", "ios": "https://dc.lft.to/lastmile_qr_scan"}, "is_reserved": 0, "name": "046c2c918581db52118e17a1a20c26c7", "lon": -77.0270755, "type": "electric_scooter", "bike_id": "046c2c918581db52118e17a1a20c26c7", "fusion_lon": 0.0, "lat": 38.9196445, "fusion_lat": 0.0}, {"is_disabled": 0, "rental_uris": {"android": "https://dc.lft.to/lastmile_qr_scan", "ios": "https://dc.lft.to/lastmile_qr_scan"}, "is_reserved": 0, "name": "84adfce81dd4eb6a9825994fadfe0453", "lon": -77.024117, "type": "electric_scooter", "bike_id": "84adfce81dd4eb6a9825994fadfe0453", "fusion_lon": 0.0, "lat": 38.93703166666667, "fusion_lat": 0.0}, {"is_disabled": 0, "rental_uris": {"android": "https://dc.lft.to/lastmile_qr_scan", "ios": "https://dc.lft.to/lastmile_qr_scan"}, "is_reserved": 0, "name": "d5f327df6be985b8ed0ef7ed9d497f3a", "lon": -77.051106, "type": "electric_scooter", "bike_id": "d5f327df6be985b8ed0ef7ed9d497f3a", "fusion_lon": 0.0, "lat": 38.923596833333335, "fusion_lat": 0.0}, {"is_disabled": 0, "rental_uris": {"android": "https://dc.lft.to/lastmile_qr_scan", "ios": "https://dc.lft.to/lastmile_qr_scan"}, "is_reserved": 0, "name": "cb64384f20ea1533a1d70f924423dcab", "lon": -77.01232616666667, "type": "electric_scooter", "bike_id": "cb64384f20ea1533a1d70f924423dcab", "fusion_lon": 0.0, "lat": 38.874744166666666, "fusion_lat": 0.0}, {"is_disabled": 0, "rental_uris": {"android": "https://dc.lft.to/lastmile_qr_scan", "ios": "https://dc.lft.to/lastmile_qr_scan"}, "is_reserved": 0, "name": "1d953a393a2d589726a7395331a59b5d", "lon": -77.01433683333333, "type": "electric_scooter", "bike_id": "1d953a393a2d589726a7395331a59b5d", "fusion_lon": 0.0, "lat": 38.928639, "fusion_lat": 0.0}, {"is_disabled": 0, "rental_uris": {"android": "https://dc.lft.to/lastmile_qr_scan", "ios": "https://dc.lft.to/lastmile_qr_scan"}, "is_reserved": 0, "name": "697bf24b8d3b620fa18f17761a049ff9", "lon": -77.16235216666666, "type": "electric_bike", "bike_id": "697bf24b8d3b620fa18f17761a049ff9", "fusion_lon": 0.0, "lat": 38.8866055, "fusion_lat": 0.0}, {"is_disabled": 0, "rental_uris": {"android": "https://dc.lft.to/lastmile_qr_scan", "ios": "https://dc.lft.to/lastmile_qr_scan"}, "is_reserved": 0, "name": "80de002461df847cb02ac550335b149a", "lon": -77.01761516666667, "type": "electric_scooter", "bike_id": "80de002461df847cb02ac550335b149a", "fusion_lon": 0.0, "lat": 38.8723235, "fusion_lat": 0.0}, {"is_disabled": 0, "rental_uris": {"android": "https://dc.lft.to/lastmile_qr_scan", "ios": "https://dc.lft.to/lastmile_qr_scan"}, "is_reserved": 0, "name": "bdd03f0d428d8616c9492e8eee1899f7", "lon": -77.02084633333334, "type": "electric_scooter", "bike_id": "bdd03f0d428d8616c9492e8eee1899f7", "fusion_lon": 0.0, "lat": 38.93006583333333, "fusion_lat": 0.0}, {"is_disabled": 0, "rental_uris": {"android": "https://dc.lft.to/lastmile_qr_scan", "ios": "https://dc.lft.to/lastmile_qr_scan"}, "is_reserved": 0, "name": "dc7bb50198fe90dddef0b3c0bc7beb73", "lon": -77.00926466666667, "type": "electric_scooter", "bike_id": "dc7bb50198fe90dddef0b3c0bc7beb73", "fusion_lon": 0.0, "lat": 38.896076666666666, "fusion_lat": 0.0}, {"is_disabled": 0, "rental_uris": {"android": "https://dc.lft.to/lastmile_qr_scan", "ios": "https://dc.lft.to/lastmile_qr_scan"}, "is_reserved": 0, "name": "ff9017e51a96daad42d9e52a2d3239fc", "lon": -77.03260966666667, "type": "electric_scooter", "bike_id": "ff9017e51a96daad42d9e52a2d3239fc", "fusion_lon": 0.0, "lat": 38.936979666666666, "fusion_lat": 0.0}, {"is_disabled": 0, "rental_uris": {"android": "https://dc.lft.to/lastmile_qr_scan", "ios": "https://dc.lft.to/lastmile_qr_scan"}, "is_reserved": 0, "name": "433c7ea38c341a7eb1d1c690f4e45143", "lon": -77.05167283333333, "type": "electric_scooter", "bike_id": "433c7ea38c341a7eb1d1c690f4e45143", "fusion_lon": 0.0, "lat": 38.90591333333333, "fusion_lat": 0.0}, {"is_disabled": 0, "rental_uris": {"android": "https://dc.lft.to/lastmile_qr_scan", "ios": "https://dc.lft.to/lastmile_qr_scan"}, "is_reserved": 0, "name": "2ed2c8566a9c1996273b83185a063fea", "lon": -77.00829966666667, "type": "electric_scooter", "bike_id": "2ed2c8566a9c1996273b83185a063fea", "fusion_lon": 0.0, "lat": 38.912624, "fusion_lat": 0.0}, {"is_disabled": 0, "rental_uris": {"android": "https://dc.lft.to/lastmile_qr_scan", "ios": "https://dc.lft.to/lastmile_qr_scan"}, "is_reserved": 0, "name": "9cd85a43107d1ba61d56c6db1844530e", "lon": -77.01419616666666, "type": "electric_scooter", "bike_id": "9cd85a43107d1ba61d56c6db1844530e", "fusion_lon": 0.0, "lat": 38.928482, "fusion_lat": 0.0}, {"is_disabled": 0, "rental_uris": {"android": "https://dc.lft.to/lastmile_qr_scan", "ios": "https://dc.lft.to/lastmile_qr_scan"}, "is_reserved": 0, "name": "2da6300dc10bb2a66e7698e23571dfeb", "lon": -77.00336833333333, "type": "electric_scooter", "bike_id": "2da6300dc10bb2a66e7698e23571dfeb", "fusion_lon": 0.0, "lat": 38.89356683333333, "fusion_lat": 0.0}, {"is_disabled": 0, "rental_uris": {"android": "https://dc.lft.to/lastmile_qr_scan", "ios": "https://dc.lft.to/lastmile_qr_scan"}, "is_reserved": 0, "name": "d619d0908b38dc3254de5a022b224e6d", "lon": -77.00587, "type": "electric_scooter", "bike_id": "d619d0908b38dc3254de5a022b224e6d", "fusion_lon": 0.0, "lat": 38.90572683333333, "fusion_lat": 0.0}, {"is_disabled": 0, "rental_uris": {"android": "https://dc.lft.to/lastmile_qr_scan", "ios": "https://dc.lft.to/lastmile_qr_scan"}, "is_reserved": 0, "name": "b7bf12f5a929e6254113a590e123843e", "lon": -76.88907316666666, "type": "electric_bike", "bike_id": "b7bf12f5a929e6254113a590e123843e", "fusion_lon": 0.0, "lat": 38.92592916666667, "fusion_lat": 0.0}, {"is_disabled": 0, "rental_uris": {"android": "https://dc.lft.to/lastmile_qr_scan", "ios": "https://dc.lft.to/lastmile_qr_scan"}, "is_reserved": 0, "name": "1481c80e7641c9d748e9bb73da807517", "lon": -76.95221916666667, "type": "electric_bike", "bike_id": "1481c80e7641c9d748e9bb73da807517", "fusion_lon": 0.0, "lat": 38.89236916666667, "fusion_lat": 0.0}, {"is_disabled": 0, "rental_uris": {"android": "https://dc.lft.to/lastmile_qr_scan", "ios": "https://dc.lft.to/lastmile_qr_scan"}, "is_reserved": 0, "name": "e3a645a6c36a83a916d3fde6698225d7", "lon": -77.05421, "type": "electric_scooter", "bike_id": "e3a645a6c36a83a916d3fde6698225d7", "fusion_lon": 0.0, "lat": 38.899158666666665, "fusion_lat": 0.0}, {"is_disabled": 0, "rental_uris": {"android": "https://dc.lft.to/lastmile_qr_scan", "ios": "https://dc.lft.to/lastmile_qr_scan"}, "is_reserved": 0, "name": "f29fa7df7d71be6d37eaf35e9e2ec8ef", "lon": -77.07273833333333, "type": "electric_scooter", "bike_id": "f29fa7df7d71be6d37eaf35e9e2ec8ef", "fusion_lon": 0.0, "lat": 38.934711, "fusion_lat": 0.0}, {"is_disabled": 0, "rental_uris": {"android": "https://dc.lft.to/lastmile_qr_scan", "ios": "https://dc.lft.to/lastmile_qr_scan"}, "is_reserved": 0, "name": "9fab31e995e0b93b43bb8f4d1ab37b48", "lon": -77.02936233333334, "type": "electric_scooter", "bike_id": "9fab31e995e0b93b43bb8f4d1ab37b48", "fusion_lon": 0.0, "lat": 38.89533216666667, "fusion_lat": 0.0}, {"is_disabled": 0, "rental_uris": {"android": "https://dc.lft.to/lastmile_qr_scan", "ios": "https://dc.lft.to/lastmile_qr_scan"}, "is_reserved": 0, "name": "99e1bca7c49ec4479f3a177f1b5602d5", "lon": -76.991614, "type": "electric_scooter", "bike_id": "99e1bca7c49ec4479f3a177f1b5602d5", "fusion_lon": 0.0, "lat": 38.897767, "fusion_lat": 0.0}, {"is_disabled": 0, "rental_uris": {"android": "https://dc.lft.to/lastmile_qr_scan", "ios": "https://dc.lft.to/lastmile_qr_scan"}, "is_reserved": 0, "name": "91075c1ab004cd8fd5f7acd699446443", "lon": -77.03858, "type": "electric_scooter", "bike_id": "91075c1ab004cd8fd5f7acd699446443", "fusion_lon": 0.0, "lat": 38.906594166666665, "fusion_lat": 0.0}, {"is_disabled": 0, "rental_uris": {"android": "https://dc.lft.to/lastmile_qr_scan", "ios": "https://dc.lft.to/lastmile_qr_scan"}, "is_reserved": 0, "name": "7e10e1cfb1a4a31722b9d23b6099573b", "lon": -77.03212033333334, "type": "electric_scooter", "bike_id": "7e10e1cfb1a4a31722b9d23b6099573b", "fusion_lon": 0.0, "lat": 38.93619116666667, "fusion_lat": 0.0}, {"is_disabled": 0, "rental_uris": {"android": "https://dc.lft.to/lastmile_qr_scan", "ios": "https://dc.lft.to/lastmile_qr_scan"}, "is_reserved": 0, "name": "b384834d9544ab3e81a814da472138d5", "lon": -76.9945365, "type": "electric_scooter", "bike_id": "b384834d9544ab3e81a814da472138d5", "fusion_lon": 0.0, "lat": 38.92278683333333, "fusion_lat": 0.0}, {"is_disabled": 0, "rental_uris": {"android": "https://dc.lft.to/lastmile_qr_scan", "ios": "https://dc.lft.to/lastmile_qr_scan"}, "is_reserved": 0, "name": "7673042ed082140e86da0a36596a432a", "lon": -77.04116183333333, "type": "electric_scooter", "bike_id": "7673042ed082140e86da0a36596a432a", "fusion_lon": 0.0, "lat": 38.924484666666665, "fusion_lat": 0.0}, {"is_disabled": 0, "rental_uris": {"android": "https://dc.lft.to/lastmile_qr_scan", "ios": "https://dc.lft.to/lastmile_qr_scan"}, "is_reserved": 0, "name": "ca9c9f7fb5af802e03409ea4c2bee6a5", "lon": -77.0478975, "type": "electric_scooter", "bike_id": "ca9c9f7fb5af802e03409ea4c2bee6a5", "fusion_lon": 0.0, "lat": 38.89375116666667, "fusion_lat": 0.0}, {"is_disabled": 0, "rental_uris": {"android": "https://dc.lft.to/lastmile_qr_scan", "ios": "https://dc.lft.to/lastmile_qr_scan"}, "is_reserved": 0, "name": "149d072efc95bdd9fe77328f7a3aeb38", "lon": -77.0416515, "type": "electric_scooter", "bike_id": "149d072efc95bdd9fe77328f7a3aeb38", "fusion_lon": 0.0, "lat": 38.908536166666664, "fusion_lat": 0.0}, {"is_disabled": 0, "rental_uris": {"android": "https://dc.lft.to/lastmile_qr_scan", "ios": "https://dc.lft.to/lastmile_qr_scan"}, "is_reserved": 0, "name": "23ed2adc041fb8929ad0b37ebe75140b", "lon": -77.04477966666667, "type": "electric_scooter", "bike_id": "23ed2adc041fb8929ad0b37ebe75140b", "fusion_lon": 0.0, "lat": 38.9242645, "fusion_lat": 0.0}, {"is_disabled": 0, "rental_uris": {"android": "https://dc.lft.to/lastmile_qr_scan", "ios": "https://dc.lft.to/lastmile_qr_scan"}, "is_reserved": 0, "name": "2e29d99e3b95a48189efacdfdc0e0b2c", "lon": -77.04171766666667, "type": "electric_scooter", "bike_id": "2e29d99e3b95a48189efacdfdc0e0b2c", "fusion_lon": 0.0, "lat": 38.915712, "fusion_lat": 0.0}, {"is_disabled": 0, "rental_uris": {"android": "https://dc.lft.to/lastmile_qr_scan", "ios": "https://dc.lft.to/lastmile_qr_scan"}, "is_reserved": 0, "name": "909180b3a81fd5d3091c962c65050677", "lon": -77.0260425, "type": "electric_scooter", "bike_id": "909180b3a81fd5d3091c962c65050677", "fusion_lon": 0.0, "lat": 38.92888216666667, "fusion_lat": 0.0}, {"is_disabled": 0, "rental_uris": {"android": "https://dc.lft.to/lastmile_qr_scan", "ios": "https://dc.lft.to/lastmile_qr_scan"}, "is_reserved": 0, "name": "5d09a6e3f026c54eb725fdfd2ad801a2", "lon": -77.02664466666667, "type": "electric_bike", "bike_id": "5d09a6e3f026c54eb725fdfd2ad801a2", "fusion_lon": 0.0, "lat": 38.98811583333333, "fusion_lat": 0.0}, {"is_disabled": 0, "rental_uris": {"android": "https://dc.lft.to/lastmile_qr_scan", "ios": "https://dc.lft.to/lastmile_qr_scan"}, "is_reserved": 0, "name": "cbe4cc06705271465859c085e4c2c422", "lon": -77.048757, "type": "electric_scooter", "bike_id": "cbe4cc06705271465859c085e4c2c422", "fusion_lon": 0.0, "lat": 38.909515999999996, "fusion_lat": 0.0}, {"is_disabled": 0, "rental_uris": {"android": "https://dc.lft.to/lastmile_qr_scan", "ios": "https://dc.lft.to/lastmile_qr_scan"}, "is_reserved": 0, "name": "b4ae6e8d01ca1fe78af0539be4ea8943", "lon": -77.12623216666667, "type": "electric_bike", "bike_id": "b4ae6e8d01ca1fe78af0539be4ea8943", "fusion_lon": 0.0, "lat": 39.058109, "fusion_lat": 0.0}, {"is_disabled": 0, "rental_uris": {"android": "https://dc.lft.to/lastmile_qr_scan", "ios": "https://dc.lft.to/lastmile_qr_scan"}, "is_reserved": 0, "name": "d269ce376f69f6b4739d3fe8ba6f541d", "lon": -77.0074575, "type": "electric_scooter", "bike_id": "d269ce376f69f6b4739d3fe8ba6f541d", "fusion_lon": 0.0, "lat": 38.9155175, "fusion_lat": 0.0}, {"is_disabled": 0, "rental_uris": {"android": "https://dc.lft.to/lastmile_qr_scan", "ios": "https://dc.lft.to/lastmile_qr_scan"}, "is_reserved": 0, "name": "e8b4167b58f06342346c6e60d59868b9", "lon": -77.01767716666667, "type": "electric_scooter", "bike_id": "e8b4167b58f06342346c6e60d59868b9", "fusion_lon": 0.0, "lat": 38.906425, "fusion_lat": 0.0}, {"is_disabled": 0, "rental_uris": {"android": "https://dc.lft.to/lastmile_qr_scan", "ios": "https://dc.lft.to/lastmile_qr_scan"}, "is_reserved": 0, "name": "31fc1bb8383e5f2cb75b0072619d60f9", "lon": -77.00338116666667, "type": "electric_scooter", "bike_id": "31fc1bb8383e5f2cb75b0072619d60f9", "fusion_lon": 0.0, "lat": 38.893538666666664, "fusion_lat": 0.0}, {"is_disabled": 0, "rental_uris": {"android": "https://dc.lft.to/lastmile_qr_scan", "ios": "https://dc.lft.to/lastmile_qr_scan"}, "is_reserved": 0, "name": "83125095da82e40f9fbca50787b8b6db", "lon": -77.02959933333334, "type": "electric_scooter", "bike_id": "83125095da82e40f9fbca50787b8b6db", "fusion_lon": 0.0, "lat": 38.89222266666667, "fusion_lat": 0.0}, {"is_disabled": 0, "rental_uris": {"android": "https://dc.lft.to/lastmile_qr_scan", "ios": "https://dc.lft.to/lastmile_qr_scan"}, "is_reserved": 0, "name": "3e9a0c6b8711eb22bc445c74357bfbab", "lon": -77.02226533333334, "type": "electric_scooter", "bike_id": "3e9a0c6b8711eb22bc445c74357bfbab", "fusion_lon": 0.0, "lat": 38.88745316666667, "fusion_lat": 0.0}, {"is_disabled": 0, "rental_uris": {"android": "https://dc.lft.to/lastmile_qr_scan", "ios": "https://dc.lft.to/lastmile_qr_scan"}, "is_reserved": 0, "name": "0684d5484815f68e0ebaf601367930dd", "lon": -77.02125133333334, "type": "electric_scooter", "bike_id": "0684d5484815f68e0ebaf601367930dd", "fusion_lon": 0.0, "lat": 38.88737583333333, "fusion_lat": 0.0}, {"is_disabled": 0, "rental_uris": {"android": "https://dc.lft.to/lastmile_qr_scan", "ios": "https://dc.lft.to/lastmile_qr_scan"}, "is_reserved": 0, "name": "daeebad902bbb74baa16f8e8dd689d20", "lon": -77.17522616666666, "type": "electric_bike", "bike_id": "daeebad902bbb74baa16f8e8dd689d20", "fusion_lon": 0.0, "lat": 39.095991833333336, "fusion_lat": 0.0}, {"is_disabled": 0, "rental_uris": {"android": "https://dc.lft.to/lastmile_qr_scan", "ios": "https://dc.lft.to/lastmile_qr_scan"}, "is_reserved": 0, "name": "530674a4ed07f3b98072e4e570956514", "lon": -77.0416005, "type": "electric_scooter", "bike_id": "530674a4ed07f3b98072e4e570956514", "fusion_lon": 0.0, "lat": 38.910338333333335, "fusion_lat": 0.0}, {"is_disabled": 0, "rental_uris": {"android": "https://dc.lft.to/lastmile_qr_scan", "ios": "https://dc.lft.to/lastmile_qr_scan"}, "is_reserved": 0, "name": "eb37e9d3333c4962e48630f2cd702605", "lon": -76.99817033333333, "type": "electric_scooter", "bike_id": "eb37e9d3333c4962e48630f2cd702605", "fusion_lon": 0.0, "lat": 38.844317333333336, "fusion_lat": 0.0}, {"is_disabled": 0, "rental_uris": {"android": "https://dc.lft.to/lastmile_qr_scan", "ios": "https://dc.lft.to/lastmile_qr_scan"}, "is_reserved": 0, "name": "41908f974f3db7c86eea40d48143887f", "lon": -77.03199933333333, "type": "electric_scooter", "bike_id": "41908f974f3db7c86eea40d48143887f", "fusion_lon": 0.0, "lat": 38.91992666666667, "fusion_lat": 0.0}, {"is_disabled": 0, "rental_uris": {"android": "https://dc.lft.to/lastmile_qr_scan", "ios": "https://dc.lft.to/lastmile_qr_scan"}, "is_reserved": 0, "name": "eb6ab8e7f5859a8c08331aca5ab43dd4", "lon": -77.00533566666667, "type": "electric_scooter", "bike_id": "eb6ab8e7f5859a8c08331aca5ab43dd4", "fusion_lon": 0.0, "lat": 38.929691166666665, "fusion_lat": 0.0}, {"is_disabled": 0, "rental_uris": {"android": "https://dc.lft.to/lastmile_qr_scan", "ios": "https://dc.lft.to/lastmile_qr_scan"}, "is_reserved": 0, "name": "6aea3a001d77763b09c45de04d30d8f4", "lon": -77.03253166666667, "type": "electric_scooter", "bike_id": "6aea3a001d77763b09c45de04d30d8f4", "fusion_lon": 0.0, "lat": 38.9024795, "fusion_lat": 0.0}, {"is_disabled": 0, "rental_uris": {"android": "https://dc.lft.to/lastmile_qr_scan", "ios": "https://dc.lft.to/lastmile_qr_scan"}, "is_reserved": 0, "name": "6750c92db827320f2e251f5ed22155b3", "lon": -77.04489816666667, "type": "electric_scooter", "bike_id": "6750c92db827320f2e251f5ed22155b3", "fusion_lon": 0.0, "lat": 38.91369, "fusion_lat": 0.0}, {"is_disabled": 0, "rental_uris": {"android": "https://dc.lft.to/lastmile_qr_scan", "ios": "https://dc.lft.to/lastmile_qr_scan"}, "is_reserved": 0, "name": "709ee9f4c9bae7b39c07ccd2ddc83053", "lon": -77.03667516666667, "type": "electric_scooter", "bike_id": "709ee9f4c9bae7b39c07ccd2ddc83053", "fusion_lon": 0.0, "lat": 38.931722666666666, "fusion_lat": 0.0}, {"is_disabled": 0, "rental_uris": {"android": "https://dc.lft.to/lastmile_qr_scan", "ios": "https://dc.lft.to/lastmile_qr_scan"}, "is_reserved": 0, "name": "9296497f402992359764510dd7a5ca30", "lon": -77.04025283333333, "type": "electric_scooter", "bike_id": "9296497f402992359764510dd7a5ca30", "fusion_lon": 0.0, "lat": 38.921981, "fusion_lat": 0.0}, {"is_disabled": 0, "rental_uris": {"android": "https://dc.lft.to/lastmile_qr_scan", "ios": "https://dc.lft.to/lastmile_qr_scan"}, "is_reserved": 0, "name": "52c2fcd7eaadff6d8fff2dc383519b85", "lon": -77.03935616666666, "type": "electric_scooter", "bike_id": "52c2fcd7eaadff6d8fff2dc383519b85", "fusion_lon": 0.0, "lat": 38.899612, "fusion_lat": 0.0}, {"is_disabled": 0, "rental_uris": {"android": "https://dc.lft.to/lastmile_qr_scan", "ios": "https://dc.lft.to/lastmile_qr_scan"}, "is_reserved": 0, "name": "734d9a0015a12e155c15d2fcf34d5532", "lon": -77.01379416666667, "type": "electric_scooter", "bike_id": "734d9a0015a12e155c15d2fcf34d5532", "fusion_lon": 0.0, "lat": 38.928752833333334, "fusion_lat": 0.0}, {"is_disabled": 0, "rental_uris": {"android": "https://dc.lft.to/lastmile_qr_scan", "ios": "https://dc.lft.to/lastmile_qr_scan"}, "is_reserved": 0, "name": "734276466a0b0305bc61f4f35a3ea660", "lon": -77.00086633333333, "type": "electric_scooter", "bike_id": "734276466a0b0305bc61f4f35a3ea660", "fusion_lon": 0.0, "lat": 38.925509166666664, "fusion_lat": 0.0}, {"is_disabled": 0, "rental_uris": {"android": "https://dc.lft.to/lastmile_qr_scan", "ios": "https://dc.lft.to/lastmile_qr_scan"}, "is_reserved": 0, "name": "88959b5209095b9a6580500444f4bc83", "lon": -77.041561, "type": "electric_scooter", "bike_id": "88959b5209095b9a6580500444f4bc83", "fusion_lon": 0.0, "lat": 38.918004, "fusion_lat": 0.0}, {"is_disabled": 0, "rental_uris": {"android": "https://dc.lft.to/lastmile_qr_scan", "ios": "https://dc.lft.to/lastmile_qr_scan"}, "is_reserved": 0, "name": "2565f9bb61d6c0a1ccd40af2663362a5", "lon": -77.05098866666667, "type": "electric_scooter", "bike_id": "2565f9bb61d6c0a1ccd40af2663362a5", "fusion_lon": 0.0, "lat": 38.923427333333336, "fusion_lat": 0.0}, {"is_disabled": 0, "rental_uris": {"android": "https://dc.lft.to/lastmile_qr_scan", "ios": "https://dc.lft.to/lastmile_qr_scan"}, "is_reserved": 0, "name": "939825d97f9f4add4d6c8e138b59ff04", "lon": -77.02392283333333, "type": "electric_scooter", "bike_id": "939825d97f9f4add4d6c8e138b59ff04", "fusion_lon": 0.0, "lat": 38.907087, "fusion_lat": 0.0}, {"is_disabled": 0, "rental_uris": {"android": "https://dc.lft.to/lastmile_qr_scan", "ios": "https://dc.lft.to/lastmile_qr_scan"}, "is_reserved": 0, "name": "415ae5838f3f37eb50b96c79f85cfca8", "lon": -77.03862316666667, "type": "electric_scooter", "bike_id": "415ae5838f3f37eb50b96c79f85cfca8", "fusion_lon": 0.0, "lat": 38.9093015, "fusion_lat": 0.0}, {"is_disabled": 0, "rental_uris": {"android": "https://dc.lft.to/lastmile_qr_scan", "ios": "https://dc.lft.to/lastmile_qr_scan"}, "is_reserved": 0, "name": "b2716eae6e57a067579c765a53fbe91a", "lon": -77.023535, "type": "electric_scooter", "bike_id": "b2716eae6e57a067579c765a53fbe91a", "fusion_lon": 0.0, "lat": 38.931428333333336, "fusion_lat": 0.0}, {"is_disabled": 0, "rental_uris": {"android": "https://dc.lft.to/lastmile_qr_scan", "ios": "https://dc.lft.to/lastmile_qr_scan"}, "is_reserved": 0, "name": "fdaa03e46612314870d40a71f30d2c48", "lon": -77.03613866666667, "type": "electric_scooter", "bike_id": "fdaa03e46612314870d40a71f30d2c48", "fusion_lon": 0.0, "lat": 38.93151483333333, "fusion_lat": 0.0}, {"is_disabled": 0, "rental_uris": {"android": "https://dc.lft.to/lastmile_qr_scan", "ios": "https://dc.lft.to/lastmile_qr_scan"}, "is_reserved": 0, "name": "80d503e811db723a460d939b8543d60b", "lon": -77.02481133333333, "type": "electric_scooter", "bike_id": "80d503e811db723a460d939b8543d60b", "fusion_lon": 0.0, "lat": 38.91615133333333, "fusion_lat": 0.0}, {"is_disabled": 0, "rental_uris": {"android": "https://dc.lft.to/lastmile_qr_scan", "ios": "https://dc.lft.to/lastmile_qr_scan"}, "is_reserved": 0, "name": "99a33fb75a6c445c1fa4cc7ba896b498", "lon": -76.97332816666666, "type": "electric_bike", "bike_id": "99a33fb75a6c445c1fa4cc7ba896b498", "fusion_lon": 0.0, "lat": 38.85067316666667, "fusion_lat": 0.0}, {"is_disabled": 0, "rental_uris": {"android": "https://dc.lft.to/lastmile_qr_scan", "ios": "https://dc.lft.to/lastmile_qr_scan"}, "is_reserved": 0, "name": "deb37050437bdd84742d43054dc782bc", "lon": -77.04512266666667, "type": "electric_scooter", "bike_id": "deb37050437bdd84742d43054dc782bc", "fusion_lon": 0.0, "lat": 38.907868666666666, "fusion_lat": 0.0}, {"is_disabled": 0, "rental_uris": {"android": "https://dc.lft.to/lastmile_qr_scan", "ios": "https://dc.lft.to/lastmile_qr_scan"}, "is_reserved": 0, "name": "7188039d8bd4a8d993aff2106894ee59", "lon": -77.34414616666666, "type": "electric_bike", "bike_id": "7188039d8bd4a8d993aff2106894ee59", "fusion_lon": 0.0, "lat": 38.945901, "fusion_lat": 0.0}, {"is_disabled": 0, "rental_uris": {"android": "https://dc.lft.to/lastmile_qr_scan", "ios": "https://dc.lft.to/lastmile_qr_scan"}, "is_reserved": 0, "name": "fe5ac434cfb548392f890c0c8bae30f8", "lon": -77.00604733333333, "type": "electric_scooter", "bike_id": "fe5ac434cfb548392f890c0c8bae30f8", "fusion_lon": 0.0, "lat": 38.911185333333336, "fusion_lat": 0.0}, {"is_disabled": 0, "rental_uris": {"android": "https://dc.lft.to/lastmile_qr_scan", "ios": "https://dc.lft.to/lastmile_qr_scan"}, "is_reserved": 0, "name": "340e7614fb12fa064eb5a5232098c92f", "lon": -77.0335085, "type": "electric_scooter", "bike_id": "340e7614fb12fa064eb5a5232098c92f", "fusion_lon": 0.0, "lat": 38.89847016666667, "fusion_lat": 0.0}, {"is_disabled": 0, "rental_uris": {"android": "https://dc.lft.to/lastmile_qr_scan", "ios": "https://dc.lft.to/lastmile_qr_scan"}, "is_reserved": 0, "name": "b494d5087799eebb37ae97f839dd2ec4", "lon": -77.02949133333334, "type": "electric_scooter", "bike_id": "b494d5087799eebb37ae97f839dd2ec4", "fusion_lon": 0.0, "lat": 38.90739716666667, "fusion_lat": 0.0}, {"is_disabled": 0, "rental_uris": {"android": "https://dc.lft.to/lastmile_qr_scan", "ios": "https://dc.lft.to/lastmile_qr_scan"}, "is_reserved": 0, "name": "8128981904ef1d2624ffd7882c3f413b", "lon": -77.14325633333333, "type": "electric_bike", "bike_id": "8128981904ef1d2624ffd7882c3f413b", "fusion_lon": 0.0, "lat": 39.054562833333335, "fusion_lat": 0.0}, {"is_disabled": 0, "rental_uris": {"android": "https://dc.lft.to/lastmile_qr_scan", "ios": "https://dc.lft.to/lastmile_qr_scan"}, "is_reserved": 0, "name": "06808a7d9f9ce46f85f9c017fa07ff3b", "lon": -76.94897816666666, "type": "electric_scooter", "bike_id": "06808a7d9f9ce46f85f9c017fa07ff3b", "fusion_lon": 0.0, "lat": 38.895278166666664, "fusion_lat": 0.0}, {"is_disabled": 0, "rental_uris": {"android": "https://dc.lft.to/lastmile_qr_scan", "ios": "https://dc.lft.to/lastmile_qr_scan"}, "is_reserved": 0, "name": "c6e995d1f4dbf346a0d9b1594d72efd2", "lon": -77.0294935, "type": "electric_scooter", "bike_id": "c6e995d1f4dbf346a0d9b1594d72efd2", "fusion_lon": 0.0, "lat": 38.89872833333333, "fusion_lat": 0.0}, {"is_disabled": 0, "rental_uris": {"android": "https://dc.lft.to/lastmile_qr_scan", "ios": "https://dc.lft.to/lastmile_qr_scan"}, "is_reserved": 0, "name": "55053af8d31f60c98c353a9d8aaa1e68", "lon": -77.06190366666667, "type": "electric_scooter", "bike_id": "55053af8d31f60c98c353a9d8aaa1e68", "fusion_lon": 0.0, "lat": 38.93013766666667, "fusion_lat": 0.0}, {"is_disabled": 0, "rental_uris": {"android": "https://dc.lft.to/lastmile_qr_scan", "ios": "https://dc.lft.to/lastmile_qr_scan"}, "is_reserved": 0, "name": "ad9fd8180c06d3797abed272f18598a6", "lon": -77.04828666666667, "type": "electric_scooter", "bike_id": "ad9fd8180c06d3797abed272f18598a6", "fusion_lon": 0.0, "lat": 38.90231566666667, "fusion_lat": 0.0}, {"is_disabled": 0, "rental_uris": {"android": "https://dc.lft.to/lastmile_qr_scan", "ios": "https://dc.lft.to/lastmile_qr_scan"}, "is_reserved": 0, "name": "a172f8505b136960bd5f3274199ab1eb", "lon": -77.01225916666667, "type": "electric_scooter", "bike_id": "a172f8505b136960bd5f3274199ab1eb", "fusion_lon": 0.0, "lat": 38.91500666666666, "fusion_lat": 0.0}, {"is_disabled": 0, "rental_uris": {"android": "https://dc.lft.to/lastmile_qr_scan", "ios": "https://dc.lft.to/lastmile_qr_scan"}, "is_reserved": 0, "name": "cb04b0f544c049273e354b66e2a72113", "lon": -77.01179883333333, "type": "electric_scooter", "bike_id": "cb04b0f544c049273e354b66e2a72113", "fusion_lon": 0.0, "lat": 38.86816816666666, "fusion_lat": 0.0}, {"is_disabled": 0, "rental_uris": {"android": "https://dc.lft.to/lastmile_qr_scan", "ios": "https://dc.lft.to/lastmile_qr_scan"}, "is_reserved": 0, "name": "f97eb0516af758ca436810e70fb64dff", "lon": -77.03457233333333, "type": "electric_scooter", "bike_id": "f97eb0516af758ca436810e70fb64dff", "fusion_lon": 0.0, "lat": 38.916633, "fusion_lat": 0.0}, {"is_disabled": 0, "rental_uris": {"android": "https://dc.lft.to/lastmile_qr_scan", "ios": "https://dc.lft.to/lastmile_qr_scan"}, "is_reserved": 0, "name": "93af6a74b7016c7254d8ea27d34d6eb2", "lon": -76.9949775, "type": "electric_scooter", "bike_id": "93af6a74b7016c7254d8ea27d34d6eb2", "fusion_lon": 0.0, "lat": 38.862463, "fusion_lat": 0.0}, {"is_disabled": 0, "rental_uris": {"android": "https://dc.lft.to/lastmile_qr_scan", "ios": "https://dc.lft.to/lastmile_qr_scan"}, "is_reserved": 0, "name": "a8531a1b5b7deac5f1bfea0fc03fddd9", "lon": -76.98888583333333, "type": "electric_scooter", "bike_id": "a8531a1b5b7deac5f1bfea0fc03fddd9", "fusion_lon": 0.0, "lat": 38.86672516666667, "fusion_lat": 0.0}, {"is_disabled": 0, "rental_uris": {"android": "https://dc.lft.to/lastmile_qr_scan", "ios": "https://dc.lft.to/lastmile_qr_scan"}, "is_reserved": 0, "name": "fe21ec23e4f50f4283d0126c81660980", "lon": -77.0240505, "type": "electric_scooter", "bike_id": "fe21ec23e4f50f4283d0126c81660980", "fusion_lon": 0.0, "lat": 38.91566616666667, "fusion_lat": 0.0}, {"is_disabled": 0, "rental_uris": {"android": "https://dc.lft.to/lastmile_qr_scan", "ios": "https://dc.lft.to/lastmile_qr_scan"}, "is_reserved": 0, "name": "ca48f76aeb7a37acba4bb223cda37dc9", "lon": -77.04750583333333, "type": "electric_scooter", "bike_id": "ca48f76aeb7a37acba4bb223cda37dc9", "fusion_lon": 0.0, "lat": 38.90537, "fusion_lat": 0.0}, {"is_disabled": 0, "rental_uris": {"android": "https://dc.lft.to/lastmile_qr_scan", "ios": "https://dc.lft.to/lastmile_qr_scan"}, "is_reserved": 0, "name": "1e49d0a4add81f5eea705ec023b1cdd8", "lon": -77.00295183333333, "type": "electric_scooter", "bike_id": "1e49d0a4add81f5eea705ec023b1cdd8", "fusion_lon": 0.0, "lat": 38.89199216666667, "fusion_lat": 0.0}, {"is_disabled": 0, "rental_uris": {"android": "https://dc.lft.to/lastmile_qr_scan", "ios": "https://dc.lft.to/lastmile_qr_scan"}, "is_reserved": 0, "name": "efa3f45e0a294ffbf8f702f73fd7e19e", "lon": -77.01108116666667, "type": "electric_scooter", "bike_id": "efa3f45e0a294ffbf8f702f73fd7e19e", "fusion_lon": 0.0, "lat": 38.907775666666666, "fusion_lat": 0.0}, {"is_disabled": 0, "rental_uris": {"android": "https://dc.lft.to/lastmile_qr_scan", "ios": "https://dc.lft.to/lastmile_qr_scan"}, "is_reserved": 0, "name": "5f58348f44eb159fc6ba75a80ad0763a", "lon": -77.02993033333334, "type": "electric_scooter", "bike_id": "5f58348f44eb159fc6ba75a80ad0763a", "fusion_lon": 0.0, "lat": 38.92477183333333, "fusion_lat": 0.0}, {"is_disabled": 0, "rental_uris": {"android": "https://dc.lft.to/lastmile_qr_scan", "ios": "https://dc.lft.to/lastmile_qr_scan"}, "is_reserved": 0, "name": "b387590f53f14704cc2656ce74592f2b", "lon": -77.02784516666667, "type": "electric_scooter", "bike_id": "b387590f53f14704cc2656ce74592f2b", "fusion_lon": 0.0, "lat": 38.896475833333334, "fusion_lat": 0.0}, {"is_disabled": 0, "rental_uris": {"android": "https://dc.lft.to/lastmile_qr_scan", "ios": "https://dc.lft.to/lastmile_qr_scan"}, "is_reserved": 0, "name": "c91d625fd7b8629652e39a75e3951acf", "lon": -77.051132, "type": "electric_scooter", "bike_id": "c91d625fd7b8629652e39a75e3951acf", "fusion_lon": 0.0, "lat": 38.92358816666667, "fusion_lat": 0.0}, {"is_disabled": 0, "rental_uris": {"android": "https://dc.lft.to/lastmile_qr_scan", "ios": "https://dc.lft.to/lastmile_qr_scan"}, "is_reserved": 0, "name": "e6732cc17f075f6e74268cc9ef8b5b51", "lon": -77.00285733333334, "type": "electric_scooter", "bike_id": "e6732cc17f075f6e74268cc9ef8b5b51", "fusion_lon": 0.0, "lat": 38.905552, "fusion_lat": 0.0}, {"is_disabled": 0, "rental_uris": {"android": "https://dc.lft.to/lastmile_qr_scan", "ios": "https://dc.lft.to/lastmile_qr_scan"}, "is_reserved": 0, "name": "a90eb4f5f0c1d568e0d3ad256acafd17", "lon": -76.97316616666667, "type": "electric_scooter", "bike_id": "a90eb4f5f0c1d568e0d3ad256acafd17", "fusion_lon": 0.0, "lat": 38.91979, "fusion_lat": 0.0}, {"is_disabled": 0, "rental_uris": {"android": "https://dc.lft.to/lastmile_qr_scan", "ios": "https://dc.lft.to/lastmile_qr_scan"}, "is_reserved": 0, "name": "0b6138da54d743b75258fd9ec799faaa", "lon": -77.02987066666667, "type": "electric_scooter", "bike_id": "0b6138da54d743b75258fd9ec799faaa", "fusion_lon": 0.0, "lat": 38.924732166666665, "fusion_lat": 0.0}, {"is_disabled": 0, "rental_uris": {"android": "https://dc.lft.to/lastmile_qr_scan", "ios": "https://dc.lft.to/lastmile_qr_scan"}, "is_reserved": 0, "name": "7a943233753c1612b069370d87e5fb84", "lon": -77.05854516666666, "type": "electric_scooter", "bike_id": "7a943233753c1612b069370d87e5fb84", "fusion_lon": 0.0, "lat": 38.93699066666667, "fusion_lat": 0.0}, {"is_disabled": 0, "rental_uris": {"android": "https://dc.lft.to/lastmile_qr_scan", "ios": "https://dc.lft.to/lastmile_qr_scan"}, "is_reserved": 0, "name": "d632920f3d184cee9faaacb74129d423", "lon": -77.04486533333333, "type": "electric_scooter", "bike_id": "d632920f3d184cee9faaacb74129d423", "fusion_lon": 0.0, "lat": 38.897497333333334, "fusion_lat": 0.0}, {"is_disabled": 0, "rental_uris": {"android": "https://dc.lft.to/lastmile_qr_scan", "ios": "https://dc.lft.to/lastmile_qr_scan"}, "is_reserved": 0, "name": "fa09f5b8685dd8512b8b0dafb9f0b13f", "lon": -77.07798833333334, "type": "electric_bike", "bike_id": "fa09f5b8685dd8512b8b0dafb9f0b13f", "fusion_lon": 0.0, "lat": 38.84517116666667, "fusion_lat": 0.0}, {"is_disabled": 0, "rental_uris": {"android": "https://dc.lft.to/lastmile_qr_scan", "ios": "https://dc.lft.to/lastmile_qr_scan"}, "is_reserved": 0, "name": "b7968ffb14a6fadfadcda2e79b829566", "lon": -77.046232, "type": "electric_scooter", "bike_id": "b7968ffb14a6fadfadcda2e79b829566", "fusion_lon": 0.0, "lat": 38.904669, "fusion_lat": 0.0}, {"is_disabled": 0, "rental_uris": {"android": "https://dc.lft.to/lastmile_qr_scan", "ios": "https://dc.lft.to/lastmile_qr_scan"}, "is_reserved": 0, "name": "7a80750a01400489131496dd28899c06", "lon": -77.02492416666666, "type": "electric_scooter", "bike_id": "7a80750a01400489131496dd28899c06", "fusion_lon": 0.0, "lat": 38.9418415, "fusion_lat": 0.0}, {"is_disabled": 0, "rental_uris": {"android": "https://dc.lft.to/lastmile_qr_scan", "ios": "https://dc.lft.to/lastmile_qr_scan"}, "is_reserved": 0, "name": "470b3b53cd09bd0d41b2edd8a7bc0157", "lon": -77.02959366666667, "type": "electric_scooter", "bike_id": "470b3b53cd09bd0d41b2edd8a7bc0157", "fusion_lon": 0.0, "lat": 38.92146266666666, "fusion_lat": 0.0}, {"is_disabled": 0, "rental_uris": {"android": "https://dc.lft.to/lastmile_qr_scan", "ios": "https://dc.lft.to/lastmile_qr_scan"}, "is_reserved": 0, "name": "27643daca1ed6eca4607c8b6edeb4571", "lon": -77.04167566666666, "type": "electric_scooter", "bike_id": "27643daca1ed6eca4607c8b6edeb4571", "fusion_lon": 0.0, "lat": 38.9161675, "fusion_lat": 0.0}, {"is_disabled": 0, "rental_uris": {"android": "https://dc.lft.to/lastmile_qr_scan", "ios": "https://dc.lft.to/lastmile_qr_scan"}, "is_reserved": 0, "name": "5cfee1cdadaf4017db206f7cc9406fd8", "lon": -77.07292633333333, "type": "electric_scooter", "bike_id": "5cfee1cdadaf4017db206f7cc9406fd8", "fusion_lon": 0.0, "lat": 38.931821166666666, "fusion_lat": 0.0}, {"is_disabled": 0, "rental_uris": {"android": "https://dc.lft.to/lastmile_qr_scan", "ios": "https://dc.lft.to/lastmile_qr_scan"}, "is_reserved": 0, "name": "43a1406efd493444a89b19be627982b5", "lon": -76.98022033333334, "type": "electric_scooter", "bike_id": "43a1406efd493444a89b19be627982b5", "fusion_lon": 0.0, "lat": 38.864044666666665, "fusion_lat": 0.0}, {"is_disabled": 0, "rental_uris": {"android": "https://dc.lft.to/lastmile_qr_scan", "ios": "https://dc.lft.to/lastmile_qr_scan"}, "is_reserved": 0, "name": "9440131ce3e4b5399e2b2c50e99e6402", "lon": -77.04254566666667, "type": "electric_scooter", "bike_id": "9440131ce3e4b5399e2b2c50e99e6402", "fusion_lon": 0.0, "lat": 38.910414833333334, "fusion_lat": 0.0}, {"is_disabled": 0, "rental_uris": {"android": "https://dc.lft.to/lastmile_qr_scan", "ios": "https://dc.lft.to/lastmile_qr_scan"}, "is_reserved": 0, "name": "577da8d08bfc9ec7190e47dadb1f77b6", "lon": -76.999025, "type": "electric_scooter", "bike_id": "577da8d08bfc9ec7190e47dadb1f77b6", "fusion_lon": 0.0, "lat": 38.892064500000004, "fusion_lat": 0.0}, {"is_disabled": 0, "rental_uris": {"android": "https://dc.lft.to/lastmile_qr_scan", "ios": "https://dc.lft.to/lastmile_qr_scan"}, "is_reserved": 0, "name": "2cdcd45f306a8f45ff844e176ab3a233", "lon": -77.04160616666667, "type": "electric_scooter", "bike_id": "2cdcd45f306a8f45ff844e176ab3a233", "fusion_lon": 0.0, "lat": 38.905408, "fusion_lat": 0.0}, {"is_disabled": 0, "rental_uris": {"android": "https://dc.lft.to/lastmile_qr_scan", "ios": "https://dc.lft.to/lastmile_qr_scan"}, "is_reserved": 0, "name": "d0ce146ccf921a7ea634cadbb9ee73e5", "lon": -77.02315266666666, "type": "electric_scooter", "bike_id": "d0ce146ccf921a7ea634cadbb9ee73e5", "fusion_lon": 0.0, "lat": 38.87884916666667, "fusion_lat": 0.0}, {"is_disabled": 0, "rental_uris": {"android": "https://dc.lft.to/lastmile_qr_scan", "ios": "https://dc.lft.to/lastmile_qr_scan"}, "is_reserved": 0, "name": "edcdb0d59c0fe756e005afa9f62b7174", "lon": -76.98001666666667, "type": "electric_scooter", "bike_id": "edcdb0d59c0fe756e005afa9f62b7174", "fusion_lon": 0.0, "lat": 38.9068395, "fusion_lat": 0.0}, {"is_disabled": 0, "rental_uris": {"android": "https://dc.lft.to/lastmile_qr_scan", "ios": "https://dc.lft.to/lastmile_qr_scan"}, "is_reserved": 0, "name": "ba03017972a51ef5d81a95847fd1f0b6", "lon": -77.033818, "type": "electric_scooter", "bike_id": "ba03017972a51ef5d81a95847fd1f0b6", "fusion_lon": 0.0, "lat": 38.90270666666667, "fusion_lat": 0.0}, {"is_disabled": 0, "rental_uris": {"android": "https://dc.lft.to/lastmile_qr_scan", "ios": "https://dc.lft.to/lastmile_qr_scan"}, "is_reserved": 0, "name": "8d54b7941aa64d68e8aaa361116d2799", "lon": -76.998563, "type": "electric_scooter", "bike_id": "8d54b7941aa64d68e8aaa361116d2799", "fusion_lon": 0.0, "lat": 38.900255333333334, "fusion_lat": 0.0}, {"is_disabled": 0, "rental_uris": {"android": "https://dc.lft.to/lastmile_qr_scan", "ios": "https://dc.lft.to/lastmile_qr_scan"}, "is_reserved": 0, "name": "8843dda79324fa5c244b01193cf10015", "lon": -77.01598983333334, "type": "electric_scooter", "bike_id": "8843dda79324fa5c244b01193cf10015", "fusion_lon": 0.0, "lat": 38.88484416666667, "fusion_lat": 0.0}, {"is_disabled": 0, "rental_uris": {"android": "https://dc.lft.to/lastmile_qr_scan", "ios": "https://dc.lft.to/lastmile_qr_scan"}, "is_reserved": 0, "name": "1bec70b76491a69f73c249713e2f33de", "lon": -77.0112075, "type": "electric_scooter", "bike_id": "1bec70b76491a69f73c249713e2f33de", "fusion_lon": 0.0, "lat": 38.89730433333333, "fusion_lat": 0.0}, {"is_disabled": 0, "rental_uris": {"android": "https://dc.lft.to/lastmile_qr_scan", "ios": "https://dc.lft.to/lastmile_qr_scan"}, "is_reserved": 0, "name": "21d0e981406455f8bdcab9c9c3029f85", "lon": -77.00352566666666, "type": "electric_scooter", "bike_id": "21d0e981406455f8bdcab9c9c3029f85", "fusion_lon": 0.0, "lat": 38.89905816666667, "fusion_lat": 0.0}, {"is_disabled": 0, "rental_uris": {"android": "https://dc.lft.to/lastmile_qr_scan", "ios": "https://dc.lft.to/lastmile_qr_scan"}, "is_reserved": 0, "name": "1b160962545c0cdbafe9f15569718c58", "lon": -77.03045716666666, "type": "electric_bike", "bike_id": "1b160962545c0cdbafe9f15569718c58", "fusion_lon": 0.0, "lat": 38.88407133333333, "fusion_lat": 0.0}, {"is_disabled": 0, "rental_uris": {"android": "https://dc.lft.to/lastmile_qr_scan", "ios": "https://dc.lft.to/lastmile_qr_scan"}, "is_reserved": 0, "name": "52dfa84fceb7892ad35b99e0b825bcaf", "lon": -76.97803433333333, "type": "electric_scooter", "bike_id": "52dfa84fceb7892ad35b99e0b825bcaf", "fusion_lon": 0.0, "lat": 38.92063316666667, "fusion_lat": 0.0}, {"is_disabled": 0, "rental_uris": {"android": "https://dc.lft.to/lastmile_qr_scan", "ios": "https://dc.lft.to/lastmile_qr_scan"}, "is_reserved": 0, "name": "720993c6710c60fbbe8a6dc2eed0661d", "lon": -77.0443365, "type": "electric_scooter", "bike_id": "720993c6710c60fbbe8a6dc2eed0661d", "fusion_lon": 0.0, "lat": 38.905747166666664, "fusion_lat": 0.0}, {"is_disabled": 0, "rental_uris": {"android": "https://dc.lft.to/lastmile_qr_scan", "ios": "https://dc.lft.to/lastmile_qr_scan"}, "is_reserved": 0, "name": "a4c285ca6ae911bb391d38b5cdcd115e", "lon": -77.0200415, "type": "electric_scooter", "bike_id": "a4c285ca6ae911bb391d38b5cdcd115e", "fusion_lon": 0.0, "lat": 38.88331766666667, "fusion_lat": 0.0}, {"is_disabled": 0, "rental_uris": {"android": "https://dc.lft.to/lastmile_qr_scan", "ios": "https://dc.lft.to/lastmile_qr_scan"}, "is_reserved": 0, "name": "38fd7d2cb869c7b615f569277c893f29", "lon": -76.9671175, "type": "electric_scooter", "bike_id": "38fd7d2cb869c7b615f569277c893f29", "fusion_lon": 0.0, "lat": 38.84799016666667, "fusion_lat": 0.0}, {"is_disabled": 0, "rental_uris": {"android": "https://dc.lft.to/lastmile_qr_scan", "ios": "https://dc.lft.to/lastmile_qr_scan"}, "is_reserved": 0, "name": "593d2626e2703e61f390dbc813e1ed8e", "lon": -77.03492416666667, "type": "electric_scooter", "bike_id": "593d2626e2703e61f390dbc813e1ed8e", "fusion_lon": 0.0, "lat": 38.921526666666665, "fusion_lat": 0.0}, {"is_disabled": 0, "rental_uris": {"android": "https://dc.lft.to/lastmile_qr_scan", "ios": "https://dc.lft.to/lastmile_qr_scan"}, "is_reserved": 0, "name": "934ad954c8e721369191a31bcf30d2f1", "lon": -77.03825583333334, "type": "electric_scooter", "bike_id": "934ad954c8e721369191a31bcf30d2f1", "fusion_lon": 0.0, "lat": 38.914788333333334, "fusion_lat": 0.0}, {"is_disabled": 0, "rental_uris": {"android": "https://dc.lft.to/lastmile_qr_scan", "ios": "https://dc.lft.to/lastmile_qr_scan"}, "is_reserved": 0, "name": "07637953c7ca06877addc764516698e1", "lon": -77.10030066666667, "type": "electric_bike", "bike_id": "07637953c7ca06877addc764516698e1", "fusion_lon": 0.0, "lat": 38.990654666666664, "fusion_lat": 0.0}, {"is_disabled": 0, "rental_uris": {"android": "https://dc.lft.to/lastmile_qr_scan", "ios": "https://dc.lft.to/lastmile_qr_scan"}, "is_reserved": 0, "name": "698118d3d5152e6c637e5e15d41e3523", "lon": -77.03523766666666, "type": "electric_scooter", "bike_id": "698118d3d5152e6c637e5e15d41e3523", "fusion_lon": 0.0, "lat": 38.9216, "fusion_lat": 0.0}, {"is_disabled": 0, "rental_uris": {"android": "https://dc.lft.to/lastmile_qr_scan", "ios": "https://dc.lft.to/lastmile_qr_scan"}, "is_reserved": 0, "name": "c3c3820428ed98c4668f738ff25cf523", "lon": -77.02314916666667, "type": "electric_scooter", "bike_id": "c3c3820428ed98c4668f738ff25cf523", "fusion_lon": 0.0, "lat": 38.9168405, "fusion_lat": 0.0}, {"is_disabled": 0, "rental_uris": {"android": "https://dc.lft.to/lastmile_qr_scan", "ios": "https://dc.lft.to/lastmile_qr_scan"}, "is_reserved": 0, "name": "663db2b0824a10778da6f6adfb46d82b", "lon": -77.024856, "type": "electric_scooter", "bike_id": "663db2b0824a10778da6f6adfb46d82b", "fusion_lon": 0.0, "lat": 38.90863566666667, "fusion_lat": 0.0}, {"is_disabled": 0, "rental_uris": {"android": "https://dc.lft.to/lastmile_qr_scan", "ios": "https://dc.lft.to/lastmile_qr_scan"}, "is_reserved": 0, "name": "2062e7b29279d395a13b88745a443b1d", "lon": -77.02935816666667, "type": "electric_scooter", "bike_id": "2062e7b29279d395a13b88745a443b1d", "fusion_lon": 0.0, "lat": 38.91414266666666, "fusion_lat": 0.0}, {"is_disabled": 0, "rental_uris": {"android": "https://dc.lft.to/lastmile_qr_scan", "ios": "https://dc.lft.to/lastmile_qr_scan"}, "is_reserved": 0, "name": "9aa3f83fc4ab763cb81b8dca8bbb5ca6", "lon": -76.87495583333333, "type": "electric_bike", "bike_id": "9aa3f83fc4ab763cb81b8dca8bbb5ca6", "fusion_lon": 0.0, "lat": 38.990875833333334, "fusion_lat": 0.0}, {"is_disabled": 0, "rental_uris": {"android": "https://dc.lft.to/lastmile_qr_scan", "ios": "https://dc.lft.to/lastmile_qr_scan"}, "is_reserved": 0, "name": "c9953ffb392beb687ecc825e61252b71", "lon": -77.00200283333334, "type": "electric_scooter", "bike_id": "c9953ffb392beb687ecc825e61252b71", "fusion_lon": 0.0, "lat": 38.886812166666665, "fusion_lat": 0.0}, {"is_disabled": 0, "rental_uris": {"android": "https://dc.lft.to/lastmile_qr_scan", "ios": "https://dc.lft.to/lastmile_qr_scan"}, "is_reserved": 0, "name": "8b9f47449922ee4fcfe33ca00e7ee8a1", "lon": -77.0253335, "type": "electric_scooter", "bike_id": "8b9f47449922ee4fcfe33ca00e7ee8a1", "fusion_lon": 0.0, "lat": 38.88025716666667, "fusion_lat": 0.0}, {"is_disabled": 0, "rental_uris": {"android": "https://dc.lft.to/lastmile_qr_scan", "ios": "https://dc.lft.to/lastmile_qr_scan"}, "is_reserved": 0, "name": "68908ad526f442f35c8172927efe7876", "lon": -77.00797233333333, "type": "electric_scooter", "bike_id": "68908ad526f442f35c8172927efe7876", "fusion_lon": 0.0, "lat": 38.897172166666664, "fusion_lat": 0.0}, {"is_disabled": 0, "rental_uris": {"android": "https://dc.lft.to/lastmile_qr_scan", "ios": "https://dc.lft.to/lastmile_qr_scan"}, "is_reserved": 0, "name": "6db7f513183f386e4014c4c2b5c347d7", "lon": -77.0487895, "type": "electric_scooter", "bike_id": "6db7f513183f386e4014c4c2b5c347d7", "fusion_lon": 0.0, "lat": 38.91022533333334, "fusion_lat": 0.0}, {"is_disabled": 0, "rental_uris": {"android": "https://dc.lft.to/lastmile_qr_scan", "ios": "https://dc.lft.to/lastmile_qr_scan"}, "is_reserved": 0, "name": "671941d81f1bb2535bb784c107187788", "lon": -77.014211, "type": "electric_scooter", "bike_id": "671941d81f1bb2535bb784c107187788", "fusion_lon": 0.0, "lat": 38.928572833333334, "fusion_lat": 0.0}, {"is_disabled": 0, "rental_uris": {"android": "https://dc.lft.to/lastmile_qr_scan", "ios": "https://dc.lft.to/lastmile_qr_scan"}, "is_reserved": 0, "name": "6ea1f9857392fc2311260624b80833da", "lon": -77.04899866666666, "type": "electric_bike", "bike_id": "6ea1f9857392fc2311260624b80833da", "fusion_lon": 0.0, "lat": 38.8749125, "fusion_lat": 0.0}, {"is_disabled": 0, "rental_uris": {"android": "https://dc.lft.to/lastmile_qr_scan", "ios": "https://dc.lft.to/lastmile_qr_scan"}, "is_reserved": 0, "name": "35436865708d9a388991023e31cb4e21", "lon": -77.02799066666667, "type": "electric_scooter", "bike_id": "35436865708d9a388991023e31cb4e21", "fusion_lon": 0.0, "lat": 38.96205766666667, "fusion_lat": 0.0}, {"is_disabled": 0, "rental_uris": {"android": "https://dc.lft.to/lastmile_qr_scan", "ios": "https://dc.lft.to/lastmile_qr_scan"}, "is_reserved": 0, "name": "1482ffb458193656845c4c47d0d11e94", "lon": -77.05507416666667, "type": "electric_scooter", "bike_id": "1482ffb458193656845c4c47d0d11e94", "fusion_lon": 0.0, "lat": 38.929810333333336, "fusion_lat": 0.0}, {"is_disabled": 0, "rental_uris": {"android": "https://dc.lft.to/lastmile_qr_scan", "ios": "https://dc.lft.to/lastmile_qr_scan"}, "is_reserved": 0, "name": "2a33b1c5ae7e1a8cbeadec3533eba289", "lon": -77.02156383333333, "type": "electric_scooter", "bike_id": "2a33b1c5ae7e1a8cbeadec3533eba289", "fusion_lon": 0.0, "lat": 38.9260465, "fusion_lat": 0.0}, {"is_disabled": 0, "rental_uris": {"android": "https://dc.lft.to/lastmile_qr_scan", "ios": "https://dc.lft.to/lastmile_qr_scan"}, "is_reserved": 0, "name": "4625c928c7f1f9079769deaee3a7232e", "lon": -77.036371, "type": "electric_scooter", "bike_id": "4625c928c7f1f9079769deaee3a7232e", "fusion_lon": 0.0, "lat": 38.91820233333333, "fusion_lat": 0.0}, {"is_disabled": 0, "rental_uris": {"android": "https://dc.lft.to/lastmile_qr_scan", "ios": "https://dc.lft.to/lastmile_qr_scan"}, "is_reserved": 0, "name": "206b367d949bbae33a30904c226e7226", "lon": -77.017904, "type": "electric_scooter", "bike_id": "206b367d949bbae33a30904c226e7226", "fusion_lon": 0.0, "lat": 38.941206, "fusion_lat": 0.0}, {"is_disabled": 0, "rental_uris": {"android": "https://dc.lft.to/lastmile_qr_scan", "ios": "https://dc.lft.to/lastmile_qr_scan"}, "is_reserved": 0, "name": "155951c2b41a974702218f971f50e5f9", "lon": -76.9905035, "type": "electric_scooter", "bike_id": "155951c2b41a974702218f971f50e5f9", "fusion_lon": 0.0, "lat": 38.85896566666667, "fusion_lat": 0.0}, {"is_disabled": 0, "rental_uris": {"android": "https://dc.lft.to/lastmile_qr_scan", "ios": "https://dc.lft.to/lastmile_qr_scan"}, "is_reserved": 0, "name": "427851d1f41d4736fcae1071d58601d1", "lon": -76.954653, "type": "electric_bike", "bike_id": "427851d1f41d4736fcae1071d58601d1", "fusion_lon": 0.0, "lat": 38.93569216666667, "fusion_lat": 0.0}, {"is_disabled": 0, "rental_uris": {"android": "https://dc.lft.to/lastmile_qr_scan", "ios": "https://dc.lft.to/lastmile_qr_scan"}, "is_reserved": 0, "name": "d2783d4a34a88d6591a86c7ffa0b05e7", "lon": -77.03870533333334, "type": "electric_scooter", "bike_id": "d2783d4a34a88d6591a86c7ffa0b05e7", "fusion_lon": 0.0, "lat": 38.902859, "fusion_lat": 0.0}, {"is_disabled": 0, "rental_uris": {"android": "https://dc.lft.to/lastmile_qr_scan", "ios": "https://dc.lft.to/lastmile_qr_scan"}, "is_reserved": 0, "name": "781fd9369b434eeac205034862d435fe", "lon": -76.98303866666667, "type": "electric_scooter", "bike_id": "781fd9369b434eeac205034862d435fe", "fusion_lon": 0.0, "lat": 38.868868, "fusion_lat": 0.0}, {"is_disabled": 0, "rental_uris": {"android": "https://dc.lft.to/lastmile_qr_scan", "ios": "https://dc.lft.to/lastmile_qr_scan"}, "is_reserved": 0, "name": "06f2c5c2fbf476d1761bd9af83020ea8", "lon": -77.0267085, "type": "electric_scooter", "bike_id": "06f2c5c2fbf476d1761bd9af83020ea8", "fusion_lon": 0.0, "lat": 38.91266133333333, "fusion_lat": 0.0}, {"is_disabled": 0, "rental_uris": {"android": "https://dc.lft.to/lastmile_qr_scan", "ios": "https://dc.lft.to/lastmile_qr_scan"}, "is_reserved": 0, "name": "e3dfbc3e49d9de806debc277ba1924cd", "lon": -77.00500283333334, "type": "electric_scooter", "bike_id": "e3dfbc3e49d9de806debc277ba1924cd", "fusion_lon": 0.0, "lat": 38.896885, "fusion_lat": 0.0}, {"is_disabled": 0, "rental_uris": {"android": "https://dc.lft.to/lastmile_qr_scan", "ios": "https://dc.lft.to/lastmile_qr_scan"}, "is_reserved": 0, "name": "fe480fbebb5d34e7f6ac73c6c0868b85", "lon": -77.008763, "type": "electric_scooter", "bike_id": "fe480fbebb5d34e7f6ac73c6c0868b85", "fusion_lon": 0.0, "lat": 38.905741666666664, "fusion_lat": 0.0}, {"is_disabled": 0, "rental_uris": {"android": "https://dc.lft.to/lastmile_qr_scan", "ios": "https://dc.lft.to/lastmile_qr_scan"}, "is_reserved": 0, "name": "9dd2117d514acc0d8fc06760cb58632c", "lon": -76.97216966666667, "type": "electric_scooter", "bike_id": "9dd2117d514acc0d8fc06760cb58632c", "fusion_lon": 0.0, "lat": 38.8979665, "fusion_lat": 0.0}, {"is_disabled": 0, "rental_uris": {"android": "https://dc.lft.to/lastmile_qr_scan", "ios": "https://dc.lft.to/lastmile_qr_scan"}, "is_reserved": 0, "name": "edd6675cd2f34763bf79e803c3e46d33", "lon": -77.000808, "type": "electric_bike", "bike_id": "edd6675cd2f34763bf79e803c3e46d33", "fusion_lon": 0.0, "lat": 38.88600133333333, "fusion_lat": 0.0}, {"is_disabled": 0, "rental_uris": {"android": "https://dc.lft.to/lastmile_qr_scan", "ios": "https://dc.lft.to/lastmile_qr_scan"}, "is_reserved": 0, "name": "0690de22c964d35919b7cb3891e9476b", "lon": -77.01852766666667, "type": "electric_scooter", "bike_id": "0690de22c964d35919b7cb3891e9476b", "fusion_lon": 0.0, "lat": 38.9543245, "fusion_lat": 0.0},