{"data": {"bikes": [{"bike_id": "1f999beef29a61e5b85f3bc11c531d95", "lat": 38.84148, "is_reserved": 0, "fusion_lat": 0.0, "rental_uris": {"android": "https://dc.lft.to/lastmile_qr_scan", "ios": "https://dc.lft.to/lastmile_qr_scan"}, "fusion_lon": 0.0, "name": "1f999beef29a61e5b85f3bc11c531d95", "lon": -77.11465566666666, "is_disabled": 0, "type": "electric_bike"}, {"bike_id": "37dc6a879cf576575047d66ed7a5ba68", "lat": 38.8897445, "is_reserved": 0, "fusion_lat": 0.0, "rental_uris": {"android": "https://dc.lft.to/lastmile_qr_scan", "ios": "https://dc.lft.to/lastmile_qr_scan"}, "fusion_lon": 0.0, "name": "37dc6a879cf576575047d66ed7a5ba68", "lon": -76.99937816666667, "is_disabled": 0, "type": "electric_scooter"}, {"bike_id": "ce7664df1fd00f5ce41049fd8e5adb06", "lat": 38.9296415, "is_reserved": 0, "fusion_lat": 0.0, "rental_uris": {"android": "https://dc.lft.to/lastmile_qr_scan", "ios": "https://dc.lft.to/lastmile_qr_scan"}, "fusion_lon": 0.0, "name": "ce7664df1fd00f5ce41049fd8e5adb06", "lon": -77.01150583333333, "is_disabled": 0, "type": "electric_scooter"}, {"bike_id": "4705e10f239066757685258f801b6265", "lat": 38.914060666666664, "is_reserved": 0, "fusion_lat": 0.0, "rental_uris": {"android": "https://dc.lft.to/lastmile_qr_scan", "ios": "https://dc.lft.to/lastmile_qr_scan"}, "fusion_lon": 0.0, "name": "4705e10f239066757685258f801b6265", "lon": -77.02007766666667, "is_disabled": 0, "type": "electric_scooter"}, {"bike_id": "3e52d01eea8c74b1bb81b78da86694d2", "lat": 38.9277005, "is_reserved": 0, "fusion_lat": 0.0, "rental_uris": {"android": "https://dc.lft.to/lastmile_qr_scan", "ios": "https://dc.lft.to/lastmile_qr_scan"}, "fusion_lon": 0.0, "name": "3e52d01eea8c74b1bb81b78da86694d2", "lon": -77.027319, "is_disabled": 0, "type": "electric_scooter"}, {"bike_id": "8b38e41aec23ecf7aa1fcbd474f7aa32", "lat": 38.99232333333333, "is_reserved": 0, "fusion_lat": 0.0, "rental_uris": {"android": "https://dc.lft.to/lastmile_qr_scan", "ios": "https://dc.lft.to/lastmile_qr_scan"}, "fusion_lon": 0.0, "name": "8b38e41aec23ecf7aa1fcbd474f7aa32", "lon": -76.94421783333334, "is_disabled": 0, "type": "electric_bike"}, {"bike_id": "7440e7bdfc2c4187b52f1058fa522460", "lat": 38.854853, "is_reserved": 0, "fusion_lat": 0.0, "rental_uris": {"android": "https://dc.lft.to/lastmile_qr_scan", "ios": "https://dc.lft.to/lastmile_qr_scan"}, "fusion_lon": 0.0, "name": "7440e7bdfc2c4187b52f1058fa522460", "lon": -77.11609083333333, "is_disabled": 0, "type": "electric_bike"}, {"bike_id": "0a4164f5d87529cee5c84584c0c199ff", "lat": 38.9056705, "is_reserved": 0, "fusion_lat": 0.0, "rental_uris": {"android": "https://dc.lft.to/lastmile_qr_scan", "ios": "https://dc.lft.to/lastmile_qr_scan"}, "fusion_lon": 0.0, "name": "0a4164f5d87529cee5c84584c0c199ff", "lon": -77.01681716666667, "is_disabled": 0, "type": "electric_scooter"}, {"bike_id": "37736b18ed4780ef09bfb776488b1524", "lat": 38.90580716666667, "is_reserved": 0, "fusion_lat": 0.0, "rental_uris": {"android": "https://dc.lft.to/lastmile_qr_scan", "ios": "https://dc.lft.to/lastmile_qr_scan"}, "fusion_lon": 0.0, "name": "37736b18ed4780ef09bfb776488b1524", "lon": -77.00562133333334, "is_disabled": 0, "type": "electric_scooter"}, {"bike_id": "9055e5faccce7e51b18be04922bfec0a", "lat": 38.85564083333333, "is_reserved": 0, "fusion_lat": 0.0, "rental_uris": {"android": "https://dc.lft.to/lastmile_qr_scan", "ios": "https://dc.lft.to/lastmile_qr_scan"}, "fusion_lon": 0.0, "name": "9055e5faccce7e51b18be04922bfec0a", "lon": -77.11315533333334, "is_disabled": 0, "type": "electric_bike"}, {"bike_id": "19a17fa25a06ce05752bc121edcd8144", "lat": 38.90692516666667, "is_reserved": 0, "fusion_lat": 0.0, "rental_uris": {"android": "https://dc.lft.to/lastmile_qr_scan", "ios": "https://dc.lft.to/lastmile_qr_scan"}, "fusion_lon": 0.0, "name": "19a17fa25a06ce05752bc121edcd8144", "lon": -77.02603616666667, "is_disabled": 0, "type": "electric_scooter"}, {"bike_id": "70facb137adb9ac4e699c33979067ec9", "lat": 38.90744133333333, "is_reserved": 0, "fusion_lat": 0.0, "rental_uris": {"android": "https://dc.lft.to/lastmile_qr_scan", "ios": "https://dc.lft.to/lastmile_qr_scan"}, "fusion_lon": 0.0, "name": "70facb137adb9ac4e699c33979067ec9", "lon": -77.04163816666667, "is_disabled": 0, "type": "electric_scooter"}, {"bike_id": "4126418a3d0ea1cbda349ce67ae66bab", "lat": 38.947231, "is_reserved": 0, "fusion_lat": 0.0, "rental_uris": {"android": "https://dc.lft.to/lastmile_qr_scan", "ios": "https://dc.lft.to/lastmile_qr_scan"}, "fusion_lon": 0.0, "name": "4126418a3d0ea1cbda349ce67ae66bab", "lon": -77.06544516666666, "is_disabled": 0, "type": "electric_scooter"}, {"bike_id": "b5bd6b8ecab0241402a14b9f73608e84", "lat": 38.915692666666665, "is_reserved": 0, "fusion_lat": 0.0, "rental_uris": {"android": "https://dc.lft.to/lastmile_qr_scan", "ios": "https://dc.lft.to/lastmile_qr_scan"}, "fusion_lon": 0.0, "name": "b5bd6b8ecab0241402a14b9f73608e84", "lon": -77.03831033333333, "is_disabled": 0, "type": "electric_scooter"}, {"bike_id": "d5e65ccdf7ef961f484c162f8dee5f48", "lat": 38.921594999999996, "is_reserved": 0, "fusion_lat": 0.0, "rental_uris": {"android": "https://dc.lft.to/lastmile_qr_scan", "ios": "https://dc.lft.to/lastmile_qr_scan"}, "fusion_lon": 0.0, "name": "d5e65ccdf7ef961f484c162f8dee5f48", "lon": -77.02089666666667, "is_disabled": 0, "type": "electric_scooter"}, {"bike_id": "fba3665daacb08a7b2c681479f44a9d7", "lat": 38.9171365, "is_reserved": 0, "fusion_lat": 0.0, "rental_uris": {"android": "https://dc.lft.to/lastmile_qr_scan", "ios": "https://dc.lft.to/lastmile_qr_scan"}, "fusion_lon": 0.0, "name": "fba3665daacb08a7b2c681479f44a9d7", "lon": -77.0255585, "is_disabled": 0, "type": "electric_scooter"}, {"bike_id": "e2da79278508c0c6a930ee8de6baf60c", "lat": 38.82368666666667, "is_reserved": 0, "fusion_lat": 0.0, "rental_uris": {"android": "https://dc.lft.to/lastmile_qr_scan", "ios": "https://dc.lft.to/lastmile_qr_scan"}, "fusion_lon": 0.0, "name": "e2da79278508c0c6a930ee8de6baf60c", "lon": -77.002201, "is_disabled": 0, "type": "electric_bike"}, {"bike_id": "3de877ee69da839df9ccdabadcc8879c", "lat": 38.90276033333333, "is_reserved": 0, "fusion_lat": 0.0, "rental_uris": {"android": "https://dc.lft.to/lastmile_qr_scan", "ios": "https://dc.lft.to/lastmile_qr_scan"}, "fusion_lon": 0.0, "name": "3de877ee69da839df9ccdabadcc8879c", "lon": -77.03720783333333, "is_disabled": 0, "type": "electric_scooter"}, {"bike_id": "4cc58e40a9d6f4c06b151db1eae2feb3", "lat": 38.90740066666667, "is_reserved": 0, "fusion_lat": 0.0, "rental_uris": {"android": "https://dc.lft.to/lastmile_qr_scan", "ios": "https://dc.lft.to/lastmile_qr_scan"}, "fusion_lon": 0.0, "name": "4cc58e40a9d6f4c06b151db1eae2feb3", "lon": -77.068987, "is_disabled": 0, "type": "electric_scooter"}, {"bike_id": "32a865f9cf0cf630c40c77fdf990fac8", "lat": 38.91927666666667, "is_reserved": 0, "fusion_lat": 0.0, "rental_uris": {"android": "https://dc.lft.to/lastmile_qr_scan", "ios": "https://dc.lft.to/lastmile_qr_scan"}, "fusion_lon": 0.0, "name": "32a865f9cf0cf630c40c77fdf990fac8", "lon": -77.00928366666666, "is_disabled": 0, "type": "electric_scooter"}, {"bike_id": "a4ba75321376bc592545e198c760c2ae", "lat": 38.898286666666664, "is_reserved": 0, "fusion_lat": 0.0, "rental_uris": {"android": "https://dc.lft.to/lastmile_qr_scan", "ios": "https://dc.lft.to/lastmile_qr_scan"}, "fusion_lon": 0.0, "name": "a4ba75321376bc592545e198c760c2ae", "lon": -77.0327385, "is_disabled": 0, "type": "electric_scooter"}, {"bike_id": "0a8e9191747e6c432d306461bd3b61e0", "lat": 38.874432, "is_reserved": 0, "fusion_lat": 0.0, "rental_uris": {"android": "https://dc.lft.to/lastmile_qr_scan", "ios": "https://dc.lft.to/lastmile_qr_scan"}, "fusion_lon": 0.0, "name": "0a8e9191747e6c432d306461bd3b61e0", "lon": -77.00079166666667, "is_disabled": 0, "type": "electric_scooter"}, {"bike_id": "f18c2594cd429e9744932dee35e6fda7", "lat": 38.9236675, "is_reserved": 0, "fusion_lat": 0.0, "rental_uris": {"android": "https://dc.lft.to/lastmile_qr_scan", "ios": "https://dc.lft.to/lastmile_qr_scan"}, "fusion_lon": 0.0, "name": "f18c2594cd429e9744932dee35e6fda7", "lon": -77.0505465, "is_disabled": 0, "type": "electric_scooter"}, {"bike_id": "db0486b108d09d652997ca70cea60115", "lat": 38.90556566666667, "is_reserved": 0, "fusion_lat": 0.0, "rental_uris": {"android": "https://dc.lft.to/lastmile_qr_scan", "ios": "https://dc.lft.to/lastmile_qr_scan"}, "fusion_lon": 0.0, "name": "db0486b108d09d652997ca70cea60115", "lon": -77.04343483333334, "is_disabled": 0, "type": "electric_scooter"}, {"bike_id": "9b30eacd0343934d3687135bba95611d", "lat": 38.859364166666666, "is_reserved": 0, "fusion_lat": 0.0, "rental_uris": {"android": "https://dc.lft.to/lastmile_qr_scan", "ios": "https://dc.lft.to/lastmile_qr_scan"}, "fusion_lon": 0.0, "name": "9b30eacd0343934d3687135bba95611d", "lon": -77.1182545, "is_disabled": 0, "type": "electric_bike"}, {"bike_id": "149afaaeabf83b3a35bdbf7714951437", "lat": 38.8955775, "is_reserved": 0, "fusion_lat": 0.0, "rental_uris": {"android": "https://dc.lft.to/lastmile_qr_scan", "ios": "https://dc.lft.to/lastmile_qr_scan"}, "fusion_lon": 0.0, "name": "149afaaeabf83b3a35bdbf7714951437", "lon": -77.04671816666666, "is_disabled": 0, "type": "electric_scooter"}, {"bike_id": "a77fdef741dc379ee265ddff188979ab", "lat": 38.876899333333334, "is_reserved": 0, "fusion_lat": 0.0, "rental_uris": {"android": "https://dc.lft.to/lastmile_qr_scan", "ios": "https://dc.lft.to/lastmile_qr_scan"}, "fusion_lon": 0.0, "name": "a77fdef741dc379ee265ddff188979ab", "lon": -77.017562, "is_disabled": 0, "type": "electric_scooter"}, {"bike_id": "cd35c9c9d1cd0693a714e9160ef068bf", "lat": 38.96319783333333, "is_reserved": 0, "fusion_lat": 0.0, "rental_uris": {"android": "https://dc.lft.to/lastmile_qr_scan", "ios": "https://dc.lft.to/lastmile_qr_scan"}, "fusion_lon": 0.0, "name": "cd35c9c9d1cd0693a714e9160ef068bf", "lon": -76.97369716666667, "is_disabled": 0, "type": "electric_bike"}, {"bike_id": "17d010a1d734916a60cd947a55ae47b2", "lat": 38.921946166666665, "is_reserved": 0, "fusion_lat": 0.0, "rental_uris": {"android": "https://dc.lft.to/lastmile_qr_scan", "ios": "https://dc.lft.to/lastmile_qr_scan"}, "fusion_lon": 0.0, "name": "17d010a1d734916a60cd947a55ae47b2", "lon": -77.0392545, "is_disabled": 0, "type": "electric_scooter"}, {"bike_id": "4623619c262b15c42ee2ba31e54ac744", "lat": 38.887140333333335, "is_reserved": 0, "fusion_lat": 0.0, "rental_uris": {"android": "https://dc.lft.to/lastmile_qr_scan", "ios": "https://dc.lft.to/lastmile_qr_scan"}, "fusion_lon": 0.0, "name": "4623619c262b15c42ee2ba31e54ac744", "lon": -77.0220755, "is_disabled": 0, "type": "electric_scooter"}, {"bike_id": "c11f0f31e72f6b6424b905e3f5dabf2c", "lat": 38.92330966666667, "is_reserved": 0, "fusion_lat": 0.0, "rental_uris": {"android": "https://dc.lft.to/lastmile_qr_scan", "ios": "https://dc.lft.to/lastmile_qr_scan"}, "fusion_lon": 0.0, "name": "c11f0f31e72f6b6424b905e3f5dabf2c", "lon": -77.036813, "is_disabled": 0, "type": "electric_scooter"}, {"bike_id": "1dd5701ebc3fabe29b4ed906d4634185", "lat": 38.91120816666667, "is_reserved": 0, "fusion_lat": 0.0, "rental_uris": {"android": "https://dc.lft.to/lastmile_qr_scan", "ios": "https://dc.lft.to/lastmile_qr_scan"}, "fusion_lon": 0.0, "name": "1dd5701ebc3fabe29b4ed906d4634185", "lon": -77.022054, "is_disabled": 0, "type": "electric_scooter"}, {"bike_id": "eae142cb6006407d415654571f5ffa97", "lat": 38.90529, "is_reserved": 0, "fusion_lat": 0.0, "rental_uris": {"android": "https://dc.lft.to/lastmile_qr_scan", "ios": "https://dc.lft.to/lastmile_qr_scan"}, "fusion_lon": 0.0, "name": "eae142cb6006407d415654571f5ffa97", "lon": -77.07027283333333, "is_disabled": 0, "type": "electric_scooter"}, {"bike_id": "2989ee7ee075b00590d2b159871fe81f", "lat": 38.89886466666667, "is_reserved": 0, "fusion_lat": 0.0, "rental_uris": {"android": "https://dc.lft.to/lastmile_qr_scan", "ios": "https://dc.lft.to/lastmile_qr_scan"}, "fusion_lon": 0.0, "name": "2989ee7ee075b00590d2b159871fe81f", "lon": -76.93228733333333, "is_disabled": 0, "type": "electric_scooter"}, {"bike_id": "69f4ef657903ea033e456bb33441b02a", "lat": 38.9164455, "is_reserved": 0, "fusion_lat": 0.0, "rental_uris": {"android": "https://dc.lft.to/lastmile_qr_scan", "ios": "https://dc.lft.to/lastmile_qr_scan"}, "fusion_lon": 0.0, "name": "69f4ef657903ea033e456bb33441b02a", "lon": -77.03214233333334, "is_disabled": 0, "type": "electric_scooter"}, {"bike_id": "830f923ece7be953bc0acaa7a053e7da", "lat": 38.892219833333336, "is_reserved": 0, "fusion_lat": 0.0, "rental_uris": {"android": "https://dc.lft.to/lastmile_qr_scan", "ios": "https://dc.lft.to/lastmile_qr_scan"}, "fusion_lon": 0.0, "name": "830f923ece7be953bc0acaa7a053e7da", "lon": -77.00344216666667, "is_disabled": 0, "type": "electric_scooter"}, {"bike_id": "f226321fa8da69965f903c1ef36ac842", "lat": 38.917053833333334, "is_reserved": 0, "fusion_lat": 0.0, "rental_uris": {"android": "https://dc.lft.to/lastmile_qr_scan", "ios": "https://dc.lft.to/lastmile_qr_scan"}, "fusion_lon": 0.0, "name": "f226321fa8da69965f903c1ef36ac842", "lon": -77.03468516666666, "is_disabled": 0, "type": "electric_scooter"}, {"bike_id": "0c4d37a048f08bf76c73a977a753f385", "lat": 38.95525633333333, "is_reserved": 0, "fusion_lat": 0.0, "rental_uris": {"android": "https://dc.lft.to/lastmile_qr_scan", "ios": "https://dc.lft.to/lastmile_qr_scan"}, "fusion_lon": 0.0, "name": "0c4d37a048f08bf76c73a977a753f385", "lon": -77.02310266666667, "is_disabled": 0, "type": "electric_scooter"}, {"bike_id": "b01cbbce6d63529d0d0735c39fcdbf31", "lat": 38.903859, "is_reserved": 0, "fusion_lat": 0.0, "rental_uris": {"android": "https://dc.lft.to/lastmile_qr_scan", "ios": "https://dc.lft.to/lastmile_qr_scan"}, "fusion_lon": 0.0, "name": "b01cbbce6d63529d0d0735c39fcdbf31", "lon": -77.0347335, "is_disabled": 0, "type": "electric_scooter"}, {"bike_id": "1b1aaab922d7e8220dd900a77ed8d6f4", "lat": 38.944875833333334, "is_reserved": 0, "fusion_lat": 0.0, "rental_uris": {"android": "https://dc.lft.to/lastmile_qr_scan", "ios": "https://dc.lft.to/lastmile_qr_scan"}, "fusion_lon": 0.0, "name": "1b1aaab922d7e8220dd900a77ed8d6f4", "lon": -77.09444, "is_disabled": 0, "type": "electric_scooter"}, {"bike_id": "1dd62d7977746d05ca6ec551c802bd22", "lat": 38.873805833333336, "is_reserved": 0, "fusion_lat": 0.0, "rental_uris": {"android": "https://dc.lft.to/lastmile_qr_scan", "ios": "https://dc.lft.to/lastmile_qr_scan"}, "fusion_lon": 0.0, "name": "1dd62d7977746d05ca6ec551c802bd22", "lon": -77.00043316666667, "is_disabled": 0, "type": "electric_scooter"}, {"bike_id": "f52d0f8f238739fc5d63ea6dac33cb9c", "lat": 38.905337, "is_reserved": 0, "fusion_lat": 0.0, "rental_uris": {"android": "https://dc.lft.to/lastmile_qr_scan", "ios": "https://dc.lft.to/lastmile_qr_scan"}, "fusion_lon": 0.0, "name": "f52d0f8f238739fc5d63ea6dac33cb9c", "lon": -77.05988866666667, "is_disabled": 0, "type": "electric_scooter"}, {"bike_id": "fc1d186872f9c0ee7d86d268e6840824", "lat": 38.906683666666666, "is_reserved": 0, "fusion_lat": 0.0, "rental_uris": {"android": "https://dc.lft.to/lastmile_qr_scan", "ios": "https://dc.lft.to/lastmile_qr_scan"}, "fusion_lon": 0.0, "name": "fc1d186872f9c0ee7d86d268e6840824", "lon": -77.027109, "is_disabled": 0, "type": "electric_scooter"}, {"bike_id": "5d5422b76086d99aac4d3111bf614db0", "lat": 38.90168533333333, "is_reserved": 0, "fusion_lat": 0.0, "rental_uris": {"android": "https://dc.lft.to/lastmile_qr_scan", "ios": "https://dc.lft.to/lastmile_qr_scan"}, "fusion_lon": 0.0, "name": "5d5422b76086d99aac4d3111bf614db0", "lon": -76.92657216666667, "is_disabled": 0, "type": "electric_scooter"}, {"bike_id": "9595050575f22dea4ac388f4929e2840", "lat": 38.881883333333334, "is_reserved": 0, "fusion_lat": 0.0, "rental_uris": {"android": "https://dc.lft.to/lastmile_qr_scan", "ios": "https://dc.lft.to/lastmile_qr_scan"}, "fusion_lon": 0.0, "name": "9595050575f22dea4ac388f4929e2840", "lon": -77.02077683333333, "is_disabled": 0, "type": "electric_scooter"}, {"bike_id": "b69fe3f6c61a5357182099ab0d566fab", "lat": 38.915614166666664, "is_reserved": 0, "fusion_lat": 0.0, "rental_uris": {"android": "https://dc.lft.to/lastmile_qr_scan", "ios": "https://dc.lft.to/lastmile_qr_scan"}, "fusion_lon": 0.0, "name": "b69fe3f6c61a5357182099ab0d566fab", "lon": -77.03830666666667, "is_disabled": 0, "type": "electric_scooter"}, {"bike_id": "f0ddbb9f008dac62848021bfcef1b0b4", "lat": 38.9002405, "is_reserved": 0, "fusion_lat": 0.0, "rental_uris": {"android": "https://dc.lft.to/lastmile_qr_scan", "ios": "https://dc.lft.to/lastmile_qr_scan"}, "fusion_lon": 0.0, "name": "f0ddbb9f008dac62848021bfcef1b0b4", "lon": -77.01182983333334, "is_disabled": 0, "type": "electric_scooter"}, {"bike_id": "56695179bf6e18aa086a20485f88c427", "lat": 38.902747166666664, "is_reserved": 0, "fusion_lat": 0.0, "rental_uris": {"android": "https://dc.lft.to/lastmile_qr_scan", "ios": "https://dc.lft.to/lastmile_qr_scan"}, "fusion_lon": 0.0, "name": "56695179bf6e18aa086a20485f88c427", "lon": -77.03351933333333, "is_disabled": 0, "type": "electric_scooter"}, {"bike_id": "aa12e4dc9f7eaa5a22822704a084db02", "lat": 38.8919225, "is_reserved": 0, "fusion_lat": 0.0, "rental_uris": {"android": "https://dc.lft.to/lastmile_qr_scan", "ios": "https://dc.lft.to/lastmile_qr_scan"}, "fusion_lon": 0.0, "name": "aa12e4dc9f7eaa5a22822704a084db02", "lon": -77.02404666666666, "is_disabled": 0, "type": "electric_scooter"}, {"bike_id": "15c9f143cf539b7488f8f3c067941608", "lat": 38.910955666666666, "is_reserved": 0, "fusion_lat": 0.0, "rental_uris": {"android": "https://dc.lft.to/lastmile_qr_scan", "ios": "https://dc.lft.to/lastmile_qr_scan"}, "fusion_lon": 0.0, "name": "15c9f143cf539b7488f8f3c067941608", "lon": -77.03170116666666, "is_disabled": 0, "type": "electric_scooter"}, {"bike_id": "d210a9cdf8644e62f2ac1c64be9953ec", "lat": 38.901380333333336, "is_reserved": 0, "fusion_lat": 0.0, "rental_uris": {"android": "https://dc.lft.to/lastmile_qr_scan", "ios": "https://dc.lft.to/lastmile_qr_scan"}, "fusion_lon": 0.0, "name": "d210a9cdf8644e62f2ac1c64be9953ec", "lon": -77.04185416666667, "is_disabled": 0, "type": "electric_scooter"}, {"bike_id": "e37e12ed59aa6daa53cd5c0818f97dce", "lat": 38.92073633333333, "is_reserved": 0, "fusion_lat": 0.0, "rental_uris": {"android": "https://dc.lft.to/lastmile_qr_scan", "ios": "https://dc.lft.to/lastmile_qr_scan"}, "fusion_lon": 0.0, "name": "e37e12ed59aa6daa53cd5c0818f97dce", "lon": -77.02316683333333, "is_disabled": 0, "type": "electric_scooter"}, {"bike_id": "829c09c5ada1e8567bb15fdf8fd2cbd7", "lat": 38.87388, "is_reserved": 0, "fusion_lat": 0.0, "rental_uris": {"android": "https://dc.lft.to/lastmile_qr_scan", "ios": "https://dc.lft.to/lastmile_qr_scan"}, "fusion_lon": 0.0, "name": "829c09c5ada1e8567bb15fdf8fd2cbd7", "lon": -77.0004295, "is_disabled": 0, "type": "electric_scooter"}, {"bike_id": "05b1ca860d5a589d8aac6a04adf68105", "lat": 38.918522333333335, "is_reserved": 0, "fusion_lat": 0.0, "rental_uris": {"android": "https://dc.lft.to/lastmile_qr_scan", "ios": "https://dc.lft.to/lastmile_qr_scan"}, "fusion_lon": 0.0, "name": "05b1ca860d5a589d8aac6a04adf68105", "lon": -77.0696985, "is_disabled": 0, "type": "electric_bike"}, {"bike_id": "074be631318fb0a76133a46b6a0c4e7d", "lat": 38.915352, "is_reserved": 0, "fusion_lat": 0.0, "rental_uris": {"android": "https://dc.lft.to/lastmile_qr_scan", "ios": "https://dc.lft.to/lastmile_qr_scan"}, "fusion_lon": 0.0, "name": "074be631318fb0a76133a46b6a0c4e7d", "lon": -77.01977566666666, "is_disabled": 0, "type": "electric_scooter"}, {"bike_id": "797c8207186b1d6927c29b6eb9653fd2", "lat": 38.90217666666667, "is_reserved": 0, "fusion_lat": 0.0, "rental_uris": {"android": "https://dc.lft.to/lastmile_qr_scan", "ios": "https://dc.lft.to/lastmile_qr_scan"}, "fusion_lon": 0.0, "name": "797c8207186b1d6927c29b6eb9653fd2", "lon": -77.023601, "is_disabled": 0, "type": "electric_scooter"}, {"bike_id": "d00b7fb74be724f98e81d5097930717e", "lat": 38.903299833333335, "is_reserved": 0, "fusion_lat": 0.0, "rental_uris": {"android": "https://dc.lft.to/lastmile_qr_scan", "ios": "https://dc.lft.to/lastmile_qr_scan"}, "fusion_lon": 0.0, "name": "d00b7fb74be724f98e81d5097930717e", "lon": -77.04043433333334, "is_disabled": 0, "type": "electric_scooter"}, {"bike_id": "f08bd54d9788a13dfc30e076fee2b3fe", "lat": 38.9141625, "is_reserved": 0, "fusion_lat": 0.0, "rental_uris": {"android": "https://dc.lft.to/lastmile_qr_scan", "ios": "https://dc.lft.to/lastmile_qr_scan"}, "fusion_lon": 0.0, "name": "f08bd54d9788a13dfc30e076fee2b3fe", "lon": -77.02592416666667, "is_disabled": 0, "type": "electric_scooter"}, {"bike_id": "ce7db5b7dab71647de743510281e0b6a", "lat": 38.90145916666667, "is_reserved": 0, "fusion_lat": 0.0, "rental_uris": {"android": "https://dc.lft.to/lastmile_qr_scan", "ios": "https://dc.lft.to/lastmile_qr_scan"}, "fusion_lon": 0.0, "name": "ce7db5b7dab71647de743510281e0b6a", "lon": -77.02491666666667, "is_disabled": 0, "type": "electric_scooter"}, {"bike_id": "d3d224a50aa2d1ec9e3e8ba74e6cb72b", "lat": 38.921623, "is_reserved": 0, "fusion_lat": 0.0, "rental_uris": {"android": "https://dc.lft.to/lastmile_qr_scan", "ios": "https://dc.lft.to/lastmile_qr_scan"}, "fusion_lon": 0.0, "name": "d3d224a50aa2d1ec9e3e8ba74e6cb72b", "lon": -77.03381483333334, "is_disabled": 0, "type": "electric_scooter"}, {"bike_id": "6b092618c48f85eb0d0ffe35c4aa1cee", "lat": 38.89753866666667, "is_reserved": 0, "fusion_lat": 0.0, "rental_uris": {"android": "https://dc.lft.to/lastmile_qr_scan", "ios": "https://dc.lft.to/lastmile_qr_scan"}, "fusion_lon": 0.0, "name": "6b092618c48f85eb0d0ffe35c4aa1cee", "lon": -77.02974983333333, "is_disabled": 0, "type": "electric_scooter"}, {"bike_id": "447cab818c8fc0556a0558a95a9a4ae6", "lat": 38.902763, "is_reserved": 0, "fusion_lat": 0.0, "rental_uris": {"android": "https://dc.lft.to/lastmile_qr_scan", "ios": "https://dc.lft.to/lastmile_qr_scan"}, "fusion_lon": 0.0, "name": "447cab818c8fc0556a0558a95a9a4ae6", "lon": -77.04574866666667, "is_disabled": 0, "type": "electric_scooter"}, {"bike_id": "47006640dadbf72a2b192f48476dbcda", "lat": 38.8851115, "is_reserved": 0, "fusion_lat": 0.0, "rental_uris": {"android": "https://dc.lft.to/lastmile_qr_scan", "ios": "https://dc.lft.to/lastmile_qr_scan"}, "fusion_lon": 0.0, "name": "47006640dadbf72a2b192f48476dbcda", "lon": -77.017095, "is_disabled": 0, "type": "electric_scooter"}, {"bike_id": "2002901aa0b078e2b60d4a56d217c07c", "lat": 38.937799166666665, "is_reserved": 0, "fusion_lat": 0.0, "rental_uris": {"android": "https://dc.lft.to/lastmile_qr_scan", "ios": "https://dc.lft.to/lastmile_qr_scan"}, "fusion_lon": 0.0, "name": "2002901aa0b078e2b60d4a56d217c07c", "lon": -77.0361755, "is_disabled": 0, "type": "electric_scooter"}, {"bike_id": "36f489769b4de99c87061d70b8329634", "lat": 38.89209016666667, "is_reserved": 0, "fusion_lat": 0.0, "rental_uris": {"android": "https://dc.lft.to/lastmile_qr_scan", "ios": "https://dc.lft.to/lastmile_qr_scan"}, "fusion_lon": 0.0, "name": "36f489769b4de99c87061d70b8329634", "lon": -76.97641816666666, "is_disabled": 0, "type": "electric_bike"}, {"bike_id": "c08d839c2526c862966e41adf6130adf", "lat": 38.900963833333336, "is_reserved": 0, "fusion_lat": 0.0, "rental_uris": {"android": "https://dc.lft.to/lastmile_qr_scan", "ios": "https://dc.lft.to/lastmile_qr_scan"}, "fusion_lon": 0.0, "name": "c08d839c2526c862966e41adf6130adf", "lon": -77.01213116666666, "is_disabled": 0, "type": "electric_scooter"}, {"bike_id": "64cd566b3d9b8bcd689072f13efac58a", "lat": 38.924789833333335, "is_reserved": 0, "fusion_lat": 0.0, "rental_uris": {"android": "https://dc.lft.to/lastmile_qr_scan", "ios": "https://dc.lft.to/lastmile_qr_scan"}, "fusion_lon": 0.0, "name": "64cd566b3d9b8bcd689072f13efac58a", "lon": -77.0377595, "is_disabled": 0, "type": "electric_scooter"}, {"bike_id": "ba290510dca24ab13c50e4f26ef3ddef", "lat": 38.875448166666665, "is_reserved": 0, "fusion_lat": 0.0, "rental_uris": {"android": "https://dc.lft.to/lastmile_qr_scan", "ios": "https://dc.lft.to/lastmile_qr_scan"}, "fusion_lon": 0.0, "name": "ba290510dca24ab13c50e4f26ef3ddef", "lon": -77.0059885, "is_disabled": 0, "type": "electric_scooter"}, {"bike_id": "ddf3dc1093e332fa6524020125f8c5d1", "lat": 38.900810666666665, "is_reserved": 0, "fusion_lat": 0.0, "rental_uris": {"android": "https://dc.lft.to/lastmile_qr_scan", "ios": "https://dc.lft.to/lastmile_qr_scan"}, "fusion_lon": 0.0, "name": "ddf3dc1093e332fa6524020125f8c5d1", "lon": -77.050428, "is_disabled": 0, "type": "electric_scooter"}, {"bike_id": "fd62f6c29b176be4ca6df0d42bcb648b", "lat": 38.9060365, "is_reserved": 0, "fusion_lat": 0.0, "rental_uris": {"android": "https://dc.lft.to/lastmile_qr_scan", "ios": "https://dc.lft.to/lastmile_qr_scan"}, "fusion_lon": 0.0, "name": "fd62f6c29b176be4ca6df0d42bcb648b", "lon": -77.043402, "is_disabled": 0, "type": "electric_scooter"}, {"bike_id": "768b7161927d8fdbb26f859e3548cfb7", "lat": 38.8840945, "is_reserved": 0, "fusion_lat": 0.0, "rental_uris": {"android": "https://dc.lft.to/lastmile_qr_scan", "ios": "https://dc.lft.to/lastmile_qr_scan"}, "fusion_lon": 0.0, "name": "768b7161927d8fdbb26f859e3548cfb7", "lon": -76.96063016666666, "is_disabled": 0, "type": "electric_bike"}, {"bike_id": "c3b829527acd600713bf5ecf4b281187", "lat": 38.93001366666667, "is_reserved": 0, "fusion_lat": 0.0, "rental_uris": {"android": "https://dc.lft.to/lastmile_qr_scan", "ios": "https://dc.lft.to/lastmile_qr_scan"}, "fusion_lon": 0.0, "name": "c3b829527acd600713bf5ecf4b281187", "lon": -77.01301316666667, "is_disabled": 0, "type": "electric_scooter"}, {"bike_id": "71aa7c0bebe9a438e47447b5546a1c12", "lat": 38.90638666666667, "is_reserved": 0, "fusion_lat": 0.0, "rental_uris": {"android": "https://dc.lft.to/lastmile_qr_scan", "ios": "https://dc.lft.to/lastmile_qr_scan"}, "fusion_lon": 0.0, "name": "71aa7c0bebe9a438e47447b5546a1c12", "lon": -77.01791933333334, "is_disabled": 0, "type": "electric_scooter"}, {"bike_id": "a8cb392625223de9c9c3435e50b7ed5e", "lat": 38.918174666666665, "is_reserved": 0, "fusion_lat": 0.0, "rental_uris": {"android": "https://dc.lft.to/lastmile_qr_scan", "ios": "https://dc.lft.to/lastmile_qr_scan"}, "fusion_lon": 0.0, "name": "a8cb392625223de9c9c3435e50b7ed5e", "lon": -77.00258933333333, "is_disabled": 0, "type": "electric_scooter"}, {"bike_id": "149b2802ead680741b8fd64619676d90", "lat": 38.8964325, "is_reserved": 0, "fusion_lat": 0.0, "rental_uris": {"android": "https://dc.lft.to/lastmile_qr_scan", "ios": "https://dc.lft.to/lastmile_qr_scan"}, "fusion_lon": 0.0, "name": "149b2802ead680741b8fd64619676d90", "lon": -77.0281335, "is_disabled": 0, "type": "electric_scooter"}, {"bike_id": "5d5090dd56b7739355064435d7803f98", "lat": 38.909438, "is_reserved": 0, "fusion_lat": 0.0, "rental_uris": {"android": "https://dc.lft.to/lastmile_qr_scan", "ios": "https://dc.lft.to/lastmile_qr_scan"}, "fusion_lon": 0.0, "name": "5d5090dd56b7739355064435d7803f98", "lon": -77.04942566666666, "is_disabled": 0, "type": "electric_scooter"}, {"bike_id": "c2ec44e9297ac47e219d8f82534b988c", "lat": 38.923108, "is_reserved": 0, "fusion_lat": 0.0, "rental_uris": {"android": "https://dc.lft.to/lastmile_qr_scan", "ios": "https://dc.lft.to/lastmile_qr_scan"}, "fusion_lon": 0.0, "name": "c2ec44e9297ac47e219d8f82534b988c", "lon": -77.02977133333333, "is_disabled": 0, "type": "electric_scooter"}, {"bike_id": "c2a5ca5b8702fa543291902f5cbf7f05", "lat": 38.90231516666667, "is_reserved": 0, "fusion_lat": 0.0, "rental_uris": {"android": "https://dc.lft.to/lastmile_qr_scan", "ios": "https://dc.lft.to/lastmile_qr_scan"}, "fusion_lon": 0.0, "name": "c2a5ca5b8702fa543291902f5cbf7f05", "lon": -77.01990483333333, "is_disabled": 0, "type": "electric_scooter"}, {"bike_id": "9cc8992a6b9de2bcb1ce2065e7108156", "lat": 38.8986555, "is_reserved": 0, "fusion_lat": 0.0, "rental_uris": {"android": "https://dc.lft.to/lastmile_qr_scan", "ios": "https://dc.lft.to/lastmile_qr_scan"}, "fusion_lon": 0.0, "name": "9cc8992a6b9de2bcb1ce2065e7108156", "lon": -76.94639066666667, "is_disabled": 0, "type": "electric_scooter"}, {"bike_id": "4bd5d2875feb1bb8befb2f1727d889bb", "lat": 38.93388566666667, "is_reserved": 0, "fusion_lat": 0.0, "rental_uris": {"android": "https://dc.lft.to/lastmile_qr_scan", "ios": "https://dc.lft.to/lastmile_qr_scan"}, "fusion_lon": 0.0, "name": "4bd5d2875feb1bb8befb2f1727d889bb", "lon": -77.05742383333333, "is_disabled": 0, "type": "electric_scooter"}, {"bike_id": "88fc76fe8eb30afa118c12fcebd4675b", "lat": 38.9073225, "is_reserved": 0, "fusion_lat": 0.0, "rental_uris": {"android": "https://dc.lft.to/lastmile_qr_scan", "ios": "https://dc.lft.to/lastmile_qr_scan"}, "fusion_lon": 0.0, "name": "88fc76fe8eb30afa118c12fcebd4675b", "lon": -77.02375883333333, "is_disabled": 0, "type": "electric_scooter"}, {"bike_id": "fc2d6503acb0596deb0517bfbd3ee95b", "lat": 38.892421666666664, "is_reserved": 0, "fusion_lat": 0.0, "rental_uris": {"android": "https://dc.lft.to/lastmile_qr_scan", "ios": "https://dc.lft.to/lastmile_qr_scan"}, "fusion_lon": 0.0, "name": "fc2d6503acb0596deb0517bfbd3ee95b", "lon": -77.0395745, "is_disabled": 0, "type": "electric_scooter"}, {"bike_id": "6c0bca979521f0fc519d9cbba5a17b98", "lat": 38.90283066666667, "is_reserved": 0, "fusion_lat": 0.0, "rental_uris": {"android": "https://dc.lft.to/lastmile_qr_scan", "ios": "https://dc.lft.to/lastmile_qr_scan"}, "fusion_lon": 0.0, "name": "6c0bca979521f0fc519d9cbba5a17b98", "lon": -77.05807416666667, "is_disabled": 0, "type": "electric_scooter"}, {"bike_id": "a8d576a1c6caa1872603b406c597d2e3", "lat": 38.92967383333333, "is_reserved": 0, "fusion_lat": 0.0, "rental_uris": {"android": "https://dc.lft.to/lastmile_qr_scan", "ios": "https://dc.lft.to/lastmile_qr_scan"}, "fusion_lon": 0.0, "name": "a8d576a1c6caa1872603b406c597d2e3", "lon": -77.18562516666667, "is_disabled": 0, "type": "electric_bike"}, {"bike_id": "1bd1a533945f3467ff66f28bdf865f08", "lat": 38.86151433333333, "is_reserved": 0, "fusion_lat": 0.0, "rental_uris": {"android": "https://dc.lft.to/lastmile_qr_scan", "ios": "https://dc.lft.to/lastmile_qr_scan"}, "fusion_lon": 0.0, "name": "1bd1a533945f3467ff66f28bdf865f08", "lon": -77.091455, "is_disabled": 0, "type": "electric_bike"}, {"bike_id": "5e0a2a8593cc9b7f3e524ba34f9d4837", "lat": 38.893259, "is_reserved": 0, "fusion_lat": 0.0, "rental_uris": {"android": "https://dc.lft.to/lastmile_qr_scan", "ios": "https://dc.lft.to/lastmile_qr_scan"}, "fusion_lon": 0.0, "name": "5e0a2a8593cc9b7f3e524ba34f9d4837", "lon": -77.04674533333333, "is_disabled": 0, "type": "electric_scooter"}, {"bike_id": "9a460639a49f022328f1a2184177c053", "lat": 38.936288833333336, "is_reserved": 0, "fusion_lat": 0.0, "rental_uris": {"android": "https://dc.lft.to/lastmile_qr_scan", "ios": "https://dc.lft.to/lastmile_qr_scan"}, "fusion_lon": 0.0, "name": "9a460639a49f022328f1a2184177c053", "lon": -77.02461483333333, "is_disabled": 0, "type": "electric_scooter"}, {"bike_id": "d837ba77291d30c950f9bccbff3236f2", "lat": 38.90799033333333, "is_reserved": 0, "fusion_lat": 0.0, "rental_uris": {"android": "https://dc.lft.to/lastmile_qr_scan", "ios": "https://dc.lft.to/lastmile_qr_scan"}, "fusion_lon": 0.0, "name": "d837ba77291d30c950f9bccbff3236f2", "lon": -77.0305885, "is_disabled": 0, "type": "electric_scooter"}, {"bike_id": "d2a7627e5b228640cd9f39df8a0bcd3c", "lat": 38.905393833333335, "is_reserved": 0, "fusion_lat": 0.0, "rental_uris": {"android": "https://dc.lft.to/lastmile_qr_scan", "ios": "https://dc.lft.to/lastmile_qr_scan"}, "fusion_lon": 0.0, "name": "d2a7627e5b228640cd9f39df8a0bcd3c", "lon": -77.04175266666667, "is_disabled": 0, "type": "electric_scooter"}, {"bike_id": "68fdd7b5241f9bed4e13e772829e5843", "lat": 38.932276, "is_reserved": 0, "fusion_lat": 0.0, "rental_uris": {"android": "https://dc.lft.to/lastmile_qr_scan", "ios": "https://dc.lft.to/lastmile_qr_scan"}, "fusion_lon": 0.0, "name": "68fdd7b5241f9bed4e13e772829e5843", "lon": -77.03854366666667, "is_disabled": 0, "type": "electric_scooter"}, {"bike_id": "18e66d6629f055036b1d6eb9a82a0e16", "lat": 38.877154833333336, "is_reserved": 0, "fusion_lat": 0.0, "rental_uris": {"android": "https://dc.lft.to/lastmile_qr_scan", "ios": "https://dc.lft.to/lastmile_qr_scan"}, "fusion_lon": 0.0, "name": "18e66d6629f055036b1d6eb9a82a0e16", "lon": -77.00371083333333, "is_disabled": 0, "type": "electric_scooter"}, {"bike_id": "7275f5347797f49d36aa89bcf1285460", "lat": 38.873794, "is_reserved": 0, "fusion_lat": 0.0, "rental_uris": {"android": "https://dc.lft.to/lastmile_qr_scan", "ios": "https://dc.lft.to/lastmile_qr_scan"}, "fusion_lon": 0.0, "name": "7275f5347797f49d36aa89bcf1285460", "lon": -77.0434015, "is_disabled": 0, "type": "electric_scooter"}, {"bike_id": "392f8d7b024e1fb0c5beefc5b761bbcb", "lat": 38.83426633333333, "is_reserved": 0, "fusion_lat": 0.0, "rental_uris": {"android": "https://dc.lft.to/lastmile_qr_scan", "ios": "https://dc.lft.to/lastmile_qr_scan"}, "fusion_lon": 0.0, "name": "392f8d7b024e1fb0c5beefc5b761bbcb", "lon": -77.05882283333334, "is_disabled": 0, "type": "electric_bike"}, {"bike_id": "f3ddf2de476531a5ca65cd5aa779f112", "lat": 38.901842333333335, "is_reserved": 0, "fusion_lat": 0.0, "rental_uris": {"android": "https://dc.lft.to/lastmile_qr_scan", "ios": "https://dc.lft.to/lastmile_qr_scan"}, "fusion_lon": 0.0, "name": "f3ddf2de476531a5ca65cd5aa779f112", "lon": -77.021826, "is_disabled": 0, "type": "electric_scooter"}, {"bike_id": "37527f11d737b8e9cbbf2751b705688c", "lat": 38.9241515, "is_reserved": 0, "fusion_lat": 0.0, "rental_uris": {"android": "https://dc.lft.to/lastmile_qr_scan", "ios": "https://dc.lft.to/lastmile_qr_scan"}, "fusion_lon": 0.0, "name": "37527f11d737b8e9cbbf2751b705688c", "lon": -77.02035633333334, "is_disabled": 0, "type": "electric_scooter"}, {"bike_id": "c2c4d9f486c6d3dd7b59a1851de682f6", "lat": 38.90610983333333, "is_reserved": 0, "fusion_lat": 0.0, "rental_uris": {"android": "https://dc.lft.to/lastmile_qr_scan", "ios": "https://dc.lft.to/lastmile_qr_scan"}, "fusion_lon": 0.0, "name": "c2c4d9f486c6d3dd7b59a1851de682f6", "lon": -77.02572316666667, "is_disabled": 0, "type": "electric_scooter"}, {"bike_id": "d347b88f54851ec07ee526643f55dae6", "lat": 38.926883333333336, "is_reserved": 0, "fusion_lat": 0.0, "rental_uris": {"android": "https://dc.lft.to/lastmile_qr_scan", "ios": "https://dc.lft.to/lastmile_qr_scan"}, "fusion_lon": 0.0, "name": "d347b88f54851ec07ee526643f55dae6", "lon": -77.0356725, "is_disabled": 0, "type": "electric_scooter"}, {"bike_id": "69504c7d2990bb567cf0faa4327c4e72", "lat": 38.913638666666664, "is_reserved": 0, "fusion_lat": 0.0, "rental_uris": {"android": "https://dc.lft.to/lastmile_qr_scan", "ios": "https://dc.lft.to/lastmile_qr_scan"}, "fusion_lon": 0.0, "name": "69504c7d2990bb567cf0faa4327c4e72", "lon": -77.04487866666666, "is_disabled": 0, "type": "electric_scooter"}, {"bike_id": "24dfdaa1825e5d292f18de4216b79015", "lat": 38.92327733333333, "is_reserved": 0, "fusion_lat": 0.0, "rental_uris": {"android": "https://dc.lft.to/lastmile_qr_scan", "ios": "https://dc.lft.to/lastmile_qr_scan"}, "fusion_lon": 0.0, "name": "24dfdaa1825e5d292f18de4216b79015", "lon": -77.02433716666667, "is_disabled": 0, "type": "electric_scooter"}, {"bike_id": "ea7cbb0839e55edba756a521b2f351b1", "lat": 38.901127, "is_reserved": 0, "fusion_lat": 0.0, "rental_uris": {"android": "https://dc.lft.to/lastmile_qr_scan", "ios": "https://dc.lft.to/lastmile_qr_scan"}, "fusion_lon": 0.0, "name": "ea7cbb0839e55edba756a521b2f351b1", "lon": -76.98629883333334, "is_disabled": 0, "type": "electric_scooter"}, {"bike_id": "3d14ed7930383816b9d4509809355bb0", "lat": 38.89611083333333, "is_reserved": 0, "fusion_lat": 0.0, "rental_uris": {"android": "https://dc.lft.to/lastmile_qr_scan", "ios": "https://dc.lft.to/lastmile_qr_scan"}, "fusion_lon": 0.0, "name": "3d14ed7930383816b9d4509809355bb0", "lon": -77.05033933333333, "is_disabled": 0, "type": "electric_scooter"}, {"bike_id": "7f20fe395d3ce93e8630f1f9574108b7", "lat": 38.902788666666666, "is_reserved": 0, "fusion_lat": 0.0, "rental_uris": {"android": "https://dc.lft.to/lastmile_qr_scan", "ios": "https://dc.lft.to/lastmile_qr_scan"}, "fusion_lon": 0.0, "name": "7f20fe395d3ce93e8630f1f9574108b7", "lon": -77.0452335, "is_disabled": 0, "type": "electric_scooter"}, {"bike_id": "8ab8a8baf0d63da0339189331a2bb4e2", "lat": 38.90195416666667, "is_reserved": 0, "fusion_lat": 0.0, "rental_uris": {"android": "https://dc.lft.to/lastmile_qr_scan", "ios": "https://dc.lft.to/lastmile_qr_scan"}, "fusion_lon": 0.0, "name": "8ab8a8baf0d63da0339189331a2bb4e2", "lon": -77.05045933333334, "is_disabled": 0, "type": "electric_scooter"}, {"bike_id": "807a5f1e3c9544c6e2553c475d118a9b", "lat": 38.89852666666667, "is_reserved": 0, "fusion_lat": 0.0, "rental_uris": {"android": "https://dc.lft.to/lastmile_qr_scan", "ios": "https://dc.lft.to/lastmile_qr_scan"}, "fusion_lon": 0.0, "name": "807a5f1e3c9544c6e2553c475d118a9b", "lon": -77.01075983333334, "is_disabled": 0, "type": "electric_scooter"}, {"bike_id": "9ab84cbd6e6e5e3daf509aefe07e4e0d", "lat": 38.81979333333334, "is_reserved": 0, "fusion_lat": 0.0, "rental_uris": {"android": "https://dc.lft.to/lastmile_qr_scan", "ios": "https://dc.lft.to/lastmile_qr_scan"}, "fusion_lon": 0.0, "name": "9ab84cbd6e6e5e3daf509aefe07e4e0d", "lon": -76.998141, "is_disabled": 0, "type": "electric_bike"}, {"bike_id": "7ba167380aef54dd2f7ef502bb136d7b", "lat": 39.05783366666667, "is_reserved": 0, "fusion_lat": 0.0, "rental_uris": {"android": "https://dc.lft.to/lastmile_qr_scan", "ios": "https://dc.lft.to/lastmile_qr_scan"}, "fusion_lon": 0.0, "name": "7ba167380aef54dd2f7ef502bb136d7b", "lon": -77.1501765, "is_disabled": 0, "type": "electric_bike"}, {"bike_id": "c60cdca3fd30211d934642cf7bb9fa5b", "lat": 38.897734166666666, "is_reserved": 0, "fusion_lat": 0.0, "rental_uris": {"android": "https://dc.lft.to/lastmile_qr_scan", "ios": "https://dc.lft.to/lastmile_qr_scan"}, "fusion_lon": 0.0, "name": "c60cdca3fd30211d934642cf7bb9fa5b", "lon": -77.02702383333333, "is_disabled": 0, "type": "electric_scooter"}, {"bike_id": "dc30b793d42db51737b7f31010cff2ba", "lat": 38.9058795, "is_reserved": 0, "fusion_lat": 0.0, "rental_uris": {"android": "https://dc.lft.to/lastmile_qr_scan", "ios": "https://dc.lft.to/lastmile_qr_scan"}, "fusion_lon": 0.0, "name": "dc30b793d42db51737b7f31010cff2ba", "lon": -77.0698565, "is_disabled": 0, "type": "electric_bike"}, {"bike_id": "02657cf20be77d23c50429f24bca8691", "lat": 38.927093, "is_reserved": 0, "fusion_lat": 0.0, "rental_uris": {"android": "https://dc.lft.to/lastmile_qr_scan", "ios": "https://dc.lft.to/lastmile_qr_scan"}, "fusion_lon": 0.0, "name": "02657cf20be77d23c50429f24bca8691", "lon": -77.014762, "is_disabled": 0, "type": "electric_scooter"}, {"bike_id": "1dc6f122a49aecdb6228337dc2e854c6", "lat": 38.857145833333334, "is_reserved": 0, "fusion_lat": 0.0, "rental_uris": {"android": "https://dc.lft.to/lastmile_qr_scan", "ios": "https://dc.lft.to/lastmile_qr_scan"}, "fusion_lon": 0.0, "name": "1dc6f122a49aecdb6228337dc2e854c6", "lon": -76.98977966666666, "is_disabled": 0, "type": "electric_scooter"}, {"bike_id": "e58d994cfc89f91026ded8c601a55b05", "lat": 38.90031533333333, "is_reserved": 0, "fusion_lat": 0.0, "rental_uris": {"android": "https://dc.lft.to/lastmile_qr_scan", "ios": "https://dc.lft.to/lastmile_qr_scan"}, "fusion_lon": 0.0, "name": "e58d994cfc89f91026ded8c601a55b05", "lon": -76.9865275, "is_disabled": 0, "type": "electric_scooter"}, {"bike_id": "0e0688f294746496377bad9b2916e262", "lat": 38.871203333333334, "is_reserved": 0, "fusion_lat": 0.0, "rental_uris": {"android": "https://dc.lft.to/lastmile_qr_scan", "ios": "https://dc.lft.to/lastmile_qr_scan"}, "fusion_lon": 0.0, "name": "0e0688f294746496377bad9b2916e262", "lon": -76.98244083333333, "is_disabled": 0, "type": "electric_scooter"}, {"bike_id": "7cca57c973523600e42e4abb3763d3ee", "lat": 38.9055815, "is_reserved": 0, "fusion_lat": 0.0, "rental_uris": {"android": "https://dc.lft.to/lastmile_qr_scan", "ios": "https://dc.lft.to/lastmile_qr_scan"}, "fusion_lon": 0.0, "name": "7cca57c973523600e42e4abb3763d3ee", "lon": -77.02213533333334, "is_disabled": 0, "type": "electric_scooter"}, {"bike_id": "76f6b49b9d352bde42defa1e05187fa3", "lat": 38.895989, "is_reserved": 0, "fusion_lat": 0.0, "rental_uris": {"android": "https://dc.lft.to/lastmile_qr_scan", "ios": "https://dc.lft.to/lastmile_qr_scan"}, "fusion_lon": 0.0, "name": "76f6b49b9d352bde42defa1e05187fa3", "lon": -76.99032183333334, "is_disabled": 0, "type": "electric_scooter"}, {"bike_id": "b375bc75e122eda6a6648fe149aa95ee", "lat": 38.9074235, "is_reserved": 0, "fusion_lat": 0.0, "rental_uris": {"android": "https://dc.lft.to/lastmile_qr_scan", "ios": "https://dc.lft.to/lastmile_qr_scan"}, "fusion_lon": 0.0, "name": "b375bc75e122eda6a6648fe149aa95ee", "lon": -77.04211266666667, "is_disabled": 0, "type": "electric_scooter"}, {"bike_id": "d1e6de8d5b3a9a7fe46c121ccf86bbc5", "lat": 38.90556866666667, "is_reserved": 0, "fusion_lat": 0.0, "rental_uris": {"android": "https://dc.lft.to/lastmile_qr_scan", "ios": "https://dc.lft.to/lastmile_qr_scan"}, "fusion_lon": 0.0, "name": "d1e6de8d5b3a9a7fe46c121ccf86bbc5", "lon": -77.0445415, "is_disabled": 0, "type": "electric_scooter"}, {"bike_id": "7c29af47c869b4e9fc4cf5687166464f", "lat": 38.911085, "is_reserved": 0, "fusion_lat": 0.0, "rental_uris": {"android": "https://dc.lft.to/lastmile_qr_scan", "ios": "https://dc.lft.to/lastmile_qr_scan"}, "fusion_lon": 0.0, "name": "7c29af47c869b4e9fc4cf5687166464f", "lon": -77.044667, "is_disabled": 0, "type": "electric_scooter"}, {"bike_id": "4c3b5ec26041229cc6893b1dcc2ee533", "lat": 38.89489916666667, "is_reserved": 0, "fusion_lat": 0.0, "rental_uris": {"android": "https://dc.lft.to/lastmile_qr_scan", "ios": "https://dc.lft.to/lastmile_qr_scan"}, "fusion_lon": 0.0, "name": "4c3b5ec26041229cc6893b1dcc2ee533", "lon": -76.94949083333333, "is_disabled": 0, "type": "electric_scooter"}, {"bike_id": "eb7420c8bbff820d1717e5df7f83bacb", "lat": 38.914045, "is_reserved": 0, "fusion_lat": 0.0, "rental_uris": {"android": "https://dc.lft.to/lastmile_qr_scan", "ios": "https://dc.lft.to/lastmile_qr_scan"}, "fusion_lon": 0.0, "name": "eb7420c8bbff820d1717e5df7f83bacb", "lon": -77.032243, "is_disabled": 0, "type": "electric_scooter"}, {"bike_id": "b6e70af6ada3426a2822e1144ab23f24", "lat": 38.905287333333334, "is_reserved": 0, "fusion_lat": 0.0, "rental_uris": {"android": "https://dc.lft.to/lastmile_qr_scan", "ios": "https://dc.lft.to/lastmile_qr_scan"}, "fusion_lon": 0.0, "name": "b6e70af6ada3426a2822e1144ab23f24", "lon": -77.058234, "is_disabled": 0, "type": "electric_scooter"}, {"bike_id": "62570db76f8eee812c3df2f51692fb7b", "lat": 38.88119966666667, "is_reserved": 0, "fusion_lat": 0.0, "rental_uris": {"android": "https://dc.lft.to/lastmile_qr_scan", "ios": "https://dc.lft.to/lastmile_qr_scan"}, "fusion_lon": 0.0, "name": "62570db76f8eee812c3df2f51692fb7b", "lon": -77.01640466666667, "is_disabled": 0, "type": "electric_scooter"}, {"bike_id": "73de809ab27a250f95ec9cab6ee6635c", "lat": 38.9322975, "is_reserved": 0, "fusion_lat": 0.0, "rental_uris": {"android": "https://dc.lft.to/lastmile_qr_scan", "ios": "https://dc.lft.to/lastmile_qr_scan"}, "fusion_lon": 0.0, "name": "73de809ab27a250f95ec9cab6ee6635c", "lon": -77.18122483333333, "is_disabled": 0, "type": "electric_bike"}, {"bike_id": "65c3ff6d438edac929d9f231ce6580e2", "lat": 38.8922555, "is_reserved": 0, "fusion_lat": 0.0, "rental_uris": {"android": "https://dc.lft.to/lastmile_qr_scan", "ios": "https://dc.lft.to/lastmile_qr_scan"}, "fusion_lon": 0.0, "name": "65c3ff6d438edac929d9f231ce6580e2", "lon": -77.03022266666666, "is_disabled": 0, "type": "electric_scooter"}, {"bike_id": "8e9d297c71df44dad52cac48e2b89cf3", "lat": 38.8729045, "is_reserved": 0, "fusion_lat": 0.0, "rental_uris": {"android": "https://dc.lft.to/lastmile_qr_scan", "ios": "https://dc.lft.to/lastmile_qr_scan"}, "fusion_lon": 0.0, "name": "8e9d297c71df44dad52cac48e2b89cf3", "lon": -77.00986866666666, "is_disabled": 0, "type": "electric_scooter"}, {"bike_id": "0240e3dc3062bcbbe6a74a4b17fc4aee", "lat": 38.916065333333336, "is_reserved": 0, "fusion_lat": 0.0, "rental_uris": {"android": "https://dc.lft.to/lastmile_qr_scan", "ios": "https://dc.lft.to/lastmile_qr_scan"}, "fusion_lon": 0.0, "name": "0240e3dc3062bcbbe6a74a4b17fc4aee", "lon": -77.04880416666667, "is_disabled": 0, "type": "electric_scooter"}, {"bike_id": "8f5a71710a7ba824c5ea8ef90a49ab1d", "lat": 38.91718916666667, "is_reserved": 0, "fusion_lat": 0.0, "rental_uris": {"android": "https://dc.lft.to/lastmile_qr_scan", "ios": "https://dc.lft.to/lastmile_qr_scan"}, "fusion_lon": 0.0, "name": "8f5a71710a7ba824c5ea8ef90a49ab1d", "lon": -77.03180566666667, "is_disabled": 0, "type": "electric_scooter"}, {"bike_id": "8ee8423a2f1ee53863b24ea5d7769de7", "lat": 38.90487433333333, "is_reserved": 0, "fusion_lat": 0.0, "rental_uris": {"android": "https://dc.lft.to/lastmile_qr_scan", "ios": "https://dc.lft.to/lastmile_qr_scan"}, "fusion_lon": 0.0, "name": "8ee8423a2f1ee53863b24ea5d7769de7", "lon": -77.04337933333333, "is_disabled": 0, "type": "electric_scooter"}, {"bike_id": "a4c89f5c91c5bb105cee853a0fb7dee1", "lat": 38.903564, "is_reserved": 0, "fusion_lat": 0.0, "rental_uris": {"android": "https://dc.lft.to/lastmile_qr_scan", "ios": "https://dc.lft.to/lastmile_qr_scan"}, "fusion_lon": 0.0, "name": "a4c89f5c91c5bb105cee853a0fb7dee1", "lon": -76.97476433333334, "is_disabled": 0, "type": "electric_scooter"}, {"bike_id": "bab15b013ef2b1852ca8b48c246c2087", "lat": 38.9046725, "is_reserved": 0, "fusion_lat": 0.0, "rental_uris": {"android": "https://dc.lft.to/lastmile_qr_scan", "ios": "https://dc.lft.to/lastmile_qr_scan"}, "fusion_lon": 0.0, "name": "bab15b013ef2b1852ca8b48c246c2087", "lon": -76.9761335, "is_disabled": 0, "type": "electric_scooter"}, {"bike_id": "7a8bd1fd238c27d5b52c87dcd52338d6", "lat": 38.88494, "is_reserved": 0, "fusion_lat": 0.0, "rental_uris": {"android": "https://dc.lft.to/lastmile_qr_scan", "ios": "https://dc.lft.to/lastmile_qr_scan"}, "fusion_lon": 0.0, "name": "7a8bd1fd238c27d5b52c87dcd52338d6", "lon": -77.0071615, "is_disabled": 0, "type": "electric_scooter"}, {"bike_id": "7ffcebfdbf839b6afed403df9554d713", "lat": 38.92874883333333, "is_reserved": 0, "fusion_lat": 0.0, "rental_uris": {"android": "https://dc.lft.to/lastmile_qr_scan", "ios": "https://dc.lft.to/lastmile_qr_scan"}, "fusion_lon": 0.0, "name": "7ffcebfdbf839b6afed403df9554d713", "lon": -77.02775533333333, "is_disabled": 0, "type": "electric_scooter"}, {"bike_id": "c05a3cb4b0f3d2f4ce5b2f53b506deff", "lat": 38.91690216666667, "is_reserved": 0, "fusion_lat": 0.0, "rental_uris": {"android": "https://dc.lft.to/lastmile_qr_scan", "ios": "https://dc.lft.to/lastmile_qr_scan"}, "fusion_lon": 0.0, "name": "c05a3cb4b0f3d2f4ce5b2f53b506deff", "lon": -77.0237175, "is_disabled": 0, "type": "electric_scooter"}, {"bike_id": "4a8bcb3ce1531700f1d5707a8a6baf99", "lat": 38.912090666666664, "is_reserved": 0, "fusion_lat": 0.0, "rental_uris": {"android": "https://dc.lft.to/lastmile_qr_scan", "ios": "https://dc.lft.to/lastmile_qr_scan"}, "fusion_lon": 0.0, "name": "4a8bcb3ce1531700f1d5707a8a6baf99", "lon": -77.0446845, "is_disabled": 0, "type": "electric_scooter"}, {"bike_id": "11b9e6e80cbb50852891b893519df931", "lat": 38.92162733333333, "is_reserved": 0, "fusion_lat": 0.0, "rental_uris": {"android": "https://dc.lft.to/lastmile_qr_scan", "ios": "https://dc.lft.to/lastmile_qr_scan"}, "fusion_lon": 0.0, "name": "11b9e6e80cbb50852891b893519df931", "lon": -77.033886, "is_disabled": 0, "type": "electric_scooter"}, {"bike_id": "e7a72f3655db3065537142dbcef27d4d", "lat": 38.906786833333335, "is_reserved": 0, "fusion_lat": 0.0, "rental_uris": {"android": "https://dc.lft.to/lastmile_qr_scan", "ios": "https://dc.lft.to/lastmile_qr_scan"}, "fusion_lon": 0.0, "name": "e7a72f3655db3065537142dbcef27d4d", "lon": -76.98001783333333, "is_disabled": 0, "type": "electric_scooter"}, {"bike_id": "99e5f2f19839fd835b6350fb0c7b26f1", "lat": 38.8949075, "is_reserved": 0, "fusion_lat": 0.0, "rental_uris": {"android": "https://dc.lft.to/lastmile_qr_scan", "ios": "https://dc.lft.to/lastmile_qr_scan"}, "fusion_lon": 0.0, "name": "99e5f2f19839fd835b6350fb0c7b26f1", "lon": -77.02175283333334, "is_disabled": 0, "type": "electric_scooter"}, {"bike_id": "ba3b490e440ce97b96967958cd2406c5", "lat": 38.885158, "is_reserved": 0, "fusion_lat": 0.0, "rental_uris": {"android": "https://dc.lft.to/lastmile_qr_scan", "ios": "https://dc.lft.to/lastmile_qr_scan"}, "fusion_lon": 0.0, "name": "ba3b490e440ce97b96967958cd2406c5", "lon": -76.956347, "is_disabled": 0, "type": "electric_bike"}, {"bike_id": "a5dc24ca0a1d90e0313378296661d6ca", "lat": 38.8737125, "is_reserved": 0, "fusion_lat": 0.0, "rental_uris": {"android": "https://dc.lft.to/lastmile_qr_scan", "ios": "https://dc.lft.to/lastmile_qr_scan"}, "fusion_lon": 0.0, "name": "a5dc24ca0a1d90e0313378296661d6ca", "lon": -77.00105366666666, "is_disabled": 0, "type": "electric_scooter"}, {"bike_id": "97376b5a42a1ced520d1e3d195ed7078", "lat": 38.932392666666665, "is_reserved": 0, "fusion_lat": 0.0, "rental_uris": {"android": "https://dc.lft.to/lastmile_qr_scan", "ios": "https://dc.lft.to/lastmile_qr_scan"}, "fusion_lon": 0.0, "name": "97376b5a42a1ced520d1e3d195ed7078", "lon": -76.99513783333333, "is_disabled": 0, "type": "electric_scooter"}, {"bike_id": "aa9d5119a41165dcfc15be7f976ac94a", "lat": 38.8865475, "is_reserved": 0, "fusion_lat": 0.0, "rental_uris": {"android": "https://dc.lft.to/lastmile_qr_scan", "ios": "https://dc.lft.to/lastmile_qr_scan"}, "fusion_lon": 0.0, "name": "aa9d5119a41165dcfc15be7f976ac94a", "lon": -77.02826533333334, "is_disabled": 0, "type": "electric_scooter"}, {"bike_id": "f218c6c2de26c9755c94395f94c84425", "lat": 38.915629, "is_reserved": 0, "fusion_lat": 0.0, "rental_uris": {"android": "https://dc.lft.to/lastmile_qr_scan", "ios": "https://dc.lft.to/lastmile_qr_scan"}, "fusion_lon": 0.0, "name": "f218c6c2de26c9755c94395f94c84425", "lon": -77.02432716666667, "is_disabled": 0, "type": "electric_scooter"}, {"bike_id": "e828e3c4964a2ab455e0f238c3c6fd60", "lat": 38.948282666666664, "is_reserved": 0, "fusion_lat": 0.0, "rental_uris": {"android": "https://dc.lft.to/lastmile_qr_scan", "ios": "https://dc.lft.to/lastmile_qr_scan"}, "fusion_lon": 0.0, "name": "e828e3c4964a2ab455e0f238c3c6fd60", "lon": -77.02549733333333, "is_disabled": 0, "type": "electric_scooter"}, {"bike_id": "e18f0ce11000f6c3f3d29ba68c5076b6", "lat": 38.90640416666667, "is_reserved": 0, "fusion_lat": 0.0, "rental_uris": {"android": "https://dc.lft.to/lastmile_qr_scan", "ios": "https://dc.lft.to/lastmile_qr_scan"}, "fusion_lon": 0.0, "name": "e18f0ce11000f6c3f3d29ba68c5076b6", "lon": -77.03863566666666, "is_disabled": 0, "type": "electric_scooter"}, {"bike_id": "d85eac1ceef19906e6f064f0c6fcfee8", "lat": 38.88708966666667, "is_reserved": 0, "fusion_lat": 0.0, "rental_uris": {"android": "https://dc.lft.to/lastmile_qr_scan", "ios": "https://dc.lft.to/lastmile_qr_scan"}, "fusion_lon": 0.0, "name": "d85eac1ceef19906e6f064f0c6fcfee8", "lon": -77.02213266666666, "is_disabled": 0, "type": "electric_scooter"}, {"bike_id": "008acce85c647d7180d85833c6e96d7e", "lat": 38.925857666666666, "is_reserved": 0, "fusion_lat": 0.0, "rental_uris": {"android": "https://dc.lft.to/lastmile_qr_scan", "ios": "https://dc.lft.to/lastmile_qr_scan"}, "fusion_lon": 0.0, "name": "008acce85c647d7180d85833c6e96d7e", "lon": -77.028802, "is_disabled": 0, "type": "electric_scooter"}, {"bike_id": "b53841d5f3d2956848b16d471d0d8a01", "lat": 38.9184775, "is_reserved": 0, "fusion_lat": 0.0, "rental_uris": {"android": "https://dc.lft.to/lastmile_qr_scan", "ios": "https://dc.lft.to/lastmile_qr_scan"}, "fusion_lon": 0.0, "name": "b53841d5f3d2956848b16d471d0d8a01", "lon": -77.03213516666666, "is_disabled": 0, "type": "electric_scooter"}, {"bike_id": "dfb37a30da838fa2d221fe83ccb3f7e6", "lat": 38.886892, "is_reserved": 0, "fusion_lat": 0.0, "rental_uris": {"android": "https://dc.lft.to/lastmile_qr_scan", "ios": "https://dc.lft.to/lastmile_qr_scan"}, "fusion_lon": 0.0, "name": "dfb37a30da838fa2d221fe83ccb3f7e6", "lon": -76.9763795, "is_disabled": 0, "type": "electric_scooter"}, {"bike_id": "ad39d30b027055a5979b6c95e69360ef", "lat": 38.9203055, "is_reserved": 0, "fusion_lat": 0.0, "rental_uris": {"android": "https://dc.lft.to/lastmile_qr_scan", "ios": "https://dc.lft.to/lastmile_qr_scan"}, "fusion_lon": 0.0, "name": "ad39d30b027055a5979b6c95e69360ef", "lon": -77.07145066666666, "is_disabled": 0, "type": "electric_scooter"}, {"bike_id": "475c853266694e19d3944edc3363e3b2", "lat": 38.937318833333336, "is_reserved": 0, "fusion_lat": 0.0, "rental_uris": {"android": "https://dc.lft.to/lastmile_qr_scan", "ios": "https://dc.lft.to/lastmile_qr_scan"}, "fusion_lon": 0.0, "name": "475c853266694e19d3944edc3363e3b2", "lon": -77.0326735, "is_disabled": 0, "type": "electric_scooter"}, {"bike_id": "d274331f1d37d2485eaf98b0aa303fb3", "lat": 38.89956733333333, "is_reserved": 0, "fusion_lat": 0.0, "rental_uris": {"android": "https://dc.lft.to/lastmile_qr_scan", "ios": "https://dc.lft.to/lastmile_qr_scan"}, "fusion_lon": 0.0, "name": "d274331f1d37d2485eaf98b0aa303fb3", "lon": -77.0144675, "is_disabled": 0, "type": "electric_scooter"}, {"bike_id": "76fbf3048f209df539dd0b59f79e925e", "lat": 38.8982965, "is_reserved": 0, "fusion_lat": 0.0, "rental_uris": {"android": "https://dc.lft.to/lastmile_qr_scan", "ios": "https://dc.lft.to/lastmile_qr_scan"}, "fusion_lon": 0.0, "name": "76fbf3048f209df539dd0b59f79e925e", "lon": -77.02870216666666, "is_disabled": 0, "type": "electric_scooter"}, {"bike_id": "dfac3a271add470fe013ef8b51a4ab3a", "lat": 38.986954, "is_reserved": 0, "fusion_lat": 0.0, "rental_uris": {"android": "https://dc.lft.to/lastmile_qr_scan", "ios": "https://dc.lft.to/lastmile_qr_scan"}, "fusion_lon": 0.0, "name": "dfac3a271add470fe013ef8b51a4ab3a", "lon": -77.02978216666666, "is_disabled": 0, "type": "electric_scooter"}, {"bike_id": "b32dd3f16e8a9ba23034da398da3d95e", "lat": 38.910141833333334, "is_reserved": 0, "fusion_lat": 0.0, "rental_uris": {"android": "https://dc.lft.to/lastmile_qr_scan", "ios": "https://dc.lft.to/lastmile_qr_scan"}, "fusion_lon": 0.0, "name": "b32dd3f16e8a9ba23034da398da3d95e", "lon": -77.02846183333334, "is_disabled": 0, "type": "electric_scooter"}, {"bike_id": "0a2e902c9b5a97af71bf8695311acf8d", "lat": 38.906578333333336, "is_reserved": 0, "fusion_lat": 0.0, "rental_uris": {"android": "https://dc.lft.to/lastmile_qr_scan", "ios": "https://dc.lft.to/lastmile_qr_scan"}, "fusion_lon": 0.0, "name": "0a2e902c9b5a97af71bf8695311acf8d", "lon": -77.0095795, "is_disabled": 0, "type": "electric_scooter"}, {"bike_id": "d175d4423c10a20c4db559d4f5e7c658", "lat": 38.91467333333333, "is_reserved": 0, "fusion_lat": 0.0, "rental_uris": {"android": "https://dc.lft.to/lastmile_qr_scan", "ios": "https://dc.lft.to/lastmile_qr_scan"}, "fusion_lon": 0.0, "name": "d175d4423c10a20c4db559d4f5e7c658", "lon": -77.04587466666666, "is_disabled": 0, "type": "electric_scooter"}, {"bike_id": "a32c7b946ea4364bb3f6d45b90fb3733", "lat": 38.89241616666666, "is_reserved": 0, "fusion_lat": 0.0, "rental_uris": {"android": "https://dc.lft.to/lastmile_qr_scan", "ios": "https://dc.lft.to/lastmile_qr_scan"}, "fusion_lon": 0.0, "name": "a32c7b946ea4364bb3f6d45b90fb3733", "lon": -77.0450135, "is_disabled": 0, "type": "electric_scooter"}, {"bike_id": "80feb1f4d2e77083ecfaf7098a79a5ef", "lat": 38.8953025, "is_reserved": 0, "fusion_lat": 0.0, "rental_uris": {"android": "https://dc.lft.to/lastmile_qr_scan", "ios": "https://dc.lft.to/lastmile_qr_scan"}, "fusion_lon": 0.0, "name": "80feb1f4d2e77083ecfaf7098a79a5ef", "lon": -77.02287583333333, "is_disabled": 0, "type": "electric_scooter"}, {"bike_id": "b2499c36bd238473de78f2d4d74cc6e6", "lat": 38.887469833333334, "is_reserved": 0, "fusion_lat": 0.0, "rental_uris": {"android": "https://dc.lft.to/lastmile_qr_scan", "ios": "https://dc.lft.to/lastmile_qr_scan"}, "fusion_lon": 0.0, "name": "b2499c36bd238473de78f2d4d74cc6e6", "lon": -77.03163766666667, "is_disabled": 0, "type": "electric_scooter"}, {"bike_id": "252094cdb7c70e99534a825046f985a5", "lat": 38.8849455, "is_reserved": 0, "fusion_lat": 0.0, "rental_uris": {"android": "https://dc.lft.to/lastmile_qr_scan", "ios": "https://dc.lft.to/lastmile_qr_scan"}, "fusion_lon": 0.0, "name": "252094cdb7c70e99534a825046f985a5", "lon": -77.00725533333333, "is_disabled": 0, "type": "electric_scooter"}, {"bike_id": "8f017574b6957a4e0d831d562fbaf4f1", "lat": 38.900438666666666, "is_reserved": 0, "fusion_lat": 0.0, "rental_uris": {"android": "https://dc.lft.to/lastmile_qr_scan", "ios": "https://dc.lft.to/lastmile_qr_scan"}, "fusion_lon": 0.0, "name": "8f017574b6957a4e0d831d562fbaf4f1", "lon": -76.99158583333333, "is_disabled": 0, "type": "electric_scooter"}, {"bike_id": "6a4e2f1112fe90d47542ef90202c1dff", "lat": 38.89623783333333, "is_reserved": 0, "fusion_lat": 0.0, "rental_uris": {"android": "https://dc.lft.to/lastmile_qr_scan", "ios": "https://dc.lft.to/lastmile_qr_scan"}, "fusion_lon": 0.0, "name": "6a4e2f1112fe90d47542ef90202c1dff", "lon": -77.04487233333333, "is_disabled": 0, "type": "electric_scooter"}, {"bike_id": "f4253ce7fe2dbd3a382db8038f5fd3ff", "lat": 38.90399133333333, "is_reserved": 0, "fusion_lat": 0.0, "rental_uris": {"android": "https://dc.lft.to/lastmile_qr_scan", "ios": "https://dc.lft.to/lastmile_qr_scan"}, "fusion_lon": 0.0, "name": "f4253ce7fe2dbd3a382db8038f5fd3ff", "lon": -77.022043, "is_disabled": 0, "type": "electric_scooter"}, {"bike_id": "7b357d8439688883f6bc10d0e6c9c731", "lat": 38.96611016666667, "is_reserved": 0, "fusion_lat": 0.0, "rental_uris": {"android": "https://dc.lft.to/lastmile_qr_scan", "ios": "https://dc.lft.to/lastmile_qr_scan"}, "fusion_lon": 0.0, "name": "7b357d8439688883f6bc10d0e6c9c731", "lon": -77.01977833333333, "is_disabled": 0, "type": "electric_scooter"}, {"bike_id": "fa565ada6bf855802fd7ecf8a3b6483b", "lat": 38.909569166666664, "is_reserved": 0, "fusion_lat": 0.0, "rental_uris": {"android": "https://dc.lft.to/lastmile_qr_scan", "ios": "https://dc.lft.to/lastmile_qr_scan"}, "fusion_lon": 0.0, "name": "fa565ada6bf855802fd7ecf8a3b6483b", "lon": -77.032839, "is_disabled": 0, "type": "electric_scooter"}, {"bike_id": "96de36ce96db2a8355d5bce94af64fba", "lat": 38.914209666666665, "is_reserved": 0, "fusion_lat": 0.0, "rental_uris": {"android": "https://dc.lft.to/lastmile_qr_scan", "ios": "https://dc.lft.to/lastmile_qr_scan"}, "fusion_lon": 0.0, "name": "96de36ce96db2a8355d5bce94af64fba", "lon": -77.02225766666666, "is_disabled": 0, "type": "electric_scooter"}, {"bike_id": "efb81466f19ad97b16e133aeda1131c2", "lat": 38.899714833333334, "is_reserved": 0, "fusion_lat": 0.0, "rental_uris": {"android": "https://dc.lft.to/lastmile_qr_scan", "ios": "https://dc.lft.to/lastmile_qr_scan"}, "fusion_lon": 0.0, "name": "efb81466f19ad97b16e133aeda1131c2", "lon": -77.0197975, "is_disabled": 0, "type": "electric_scooter"}, {"bike_id": "d7b77ad8870cad048308487b1b78f81b", "lat": 38.911896166666665, "is_reserved": 0, "fusion_lat": 0.0, "rental_uris": {"android": "https://dc.lft.to/lastmile_qr_scan", "ios": "https://dc.lft.to/lastmile_qr_scan"}, "fusion_lon": 0.0, "name": "d7b77ad8870cad048308487b1b78f81b", "lon": -77.0383245, "is_disabled": 0, "type": "electric_scooter"}, {"bike_id": "f2e4f82b80932686c9f60fe43b77c91b", "lat": 38.92121316666667, "is_reserved": 0, "fusion_lat": 0.0, "rental_uris": {"android": "https://dc.lft.to/lastmile_qr_scan", "ios": "https://dc.lft.to/lastmile_qr_scan"}, "fusion_lon": 0.0, "name": "f2e4f82b80932686c9f60fe43b77c91b", "lon": -77.03662416666667, "is_disabled": 0, "type": "electric_scooter"}, {"bike_id": "d9f6b4410d7616a782bd61ce4242bd27", "lat": 38.880176, "is_reserved": 0, "fusion_lat": 0.0, "rental_uris": {"android": "https://dc.lft.to/lastmile_qr_scan", "ios": "https://dc.lft.to/lastmile_qr_scan"}, "fusion_lon": 0.0, "name": "d9f6b4410d7616a782bd61ce4242bd27", "lon": -77.00245333333334, "is_disabled": 0, "type": "electric_scooter"}, {"bike_id": "cdccaf1f4b8c1bb81558e362b1ddadb7", "lat": 38.8736035, "is_reserved": 0, "fusion_lat": 0.0, "rental_uris": {"android": "https://dc.lft.to/lastmile_qr_scan", "ios": "https://dc.lft.to/lastmile_qr_scan"}, "fusion_lon": 0.0, "name": "cdccaf1f4b8c1bb81558e362b1ddadb7", "lon": -76.9702915, "is_disabled": 0, "type": "electric_scooter"}, {"bike_id": "741d8b7db3eef0ce6641c9fd4b5b857e", "lat": 38.93331116666667, "is_reserved": 0, "fusion_lat": 0.0, "rental_uris": {"android": "https://dc.lft.to/lastmile_qr_scan", "ios": "https://dc.lft.to/lastmile_qr_scan"}, "fusion_lon": 0.0, "name": "741d8b7db3eef0ce6641c9fd4b5b857e", "lon": -77.02850583333333, "is_disabled": 0, "type": "electric_scooter"}, {"bike_id": "c48db7e5c61ec6e0bd2e123378769be5", "lat": 38.884357333333334, "is_reserved": 0, "fusion_lat": 0.0, "rental_uris": {"android": "https://dc.lft.to/lastmile_qr_scan", "ios": "https://dc.lft.to/lastmile_qr_scan"}, "fusion_lon": 0.0, "name": "c48db7e5c61ec6e0bd2e123378769be5", "lon": -77.0241825, "is_disabled": 0, "type": "electric_bike"}, {"bike_id": "bdbb36f42e95f0a7bfdb51219ba9672d", "lat": 38.915589833333335, "is_reserved": 0, "fusion_lat": 0.0, "rental_uris": {"android": "https://dc.lft.to/lastmile_qr_scan", "ios": "https://dc.lft.to/lastmile_qr_scan"}, "fusion_lon": 0.0, "name": "bdbb36f42e95f0a7bfdb51219ba9672d", "lon": -77.03992216666667, "is_disabled": 0, "type": "electric_scooter"}, {"bike_id": "ea02fbe9f0342ad81e8f7b2c5152e328", "lat": 38.898841, "is_reserved": 0, "fusion_lat": 0.0, "rental_uris": {"android": "https://dc.lft.to/lastmile_qr_scan", "ios": "https://dc.lft.to/lastmile_qr_scan"}, "fusion_lon": 0.0, "name": "ea02fbe9f0342ad81e8f7b2c5152e328", "lon": -76.9318015, "is_disabled": 0, "type": "electric_scooter"}, {"bike_id": "82a41326e9fe63d56c2156684e695a0a", "lat": 38.903888333333335, "is_reserved": 0, "fusion_lat": 0.0, "rental_uris": {"android": "https://dc.lft.to/lastmile_qr_scan", "ios": "https://dc.lft.to/lastmile_qr_scan"}, "fusion_lon": 0.0, "name": "82a41326e9fe63d56c2156684e695a0a", "lon": -77.0485215, "is_disabled": 0, "type": "electric_scooter"}, {"bike_id": "053e824feab7f415ed38ea787a2b57c4", "lat": 38.912658, "is_reserved": 0, "fusion_lat": 0.0, "rental_uris": {"android": "https://dc.lft.to/lastmile_qr_scan", "ios": "https://dc.lft.to/lastmile_qr_scan"}, "fusion_lon": 0.0, "name": "053e824feab7f415ed38ea787a2b57c4", "lon": -77.03231683333334, "is_disabled": 0, "type": "electric_scooter"}, {"bike_id": "e3e6f63300ab334cdb8fb06f71cc1858", "lat": 38.9200365, "is_reserved": 0, "fusion_lat": 0.0, "rental_uris": {"android": "https://dc.lft.to/lastmile_qr_scan", "ios": "https://dc.lft.to/lastmile_qr_scan"}, "fusion_lon": 0.0, "name": "e3e6f63300ab334cdb8fb06f71cc1858", "lon": -77.031956, "is_disabled": 0, "type": "electric_scooter"}, {"bike_id": "bdf0ee385799c0786dcf7782847a4964", "lat": 38.949382, "is_reserved": 0, "fusion_lat": 0.0, "rental_uris": {"android": "https://dc.lft.to/lastmile_qr_scan", "ios": "https://dc.lft.to/lastmile_qr_scan"}, "fusion_lon": 0.0, "name": "bdf0ee385799c0786dcf7782847a4964", "lon": -77.02025433333333, "is_disabled": 0, "type": "electric_scooter"}, {"bike_id": "0b128302bc5c67aaf22d4f7030fda0b2", "lat": 38.90850566666667, "is_reserved": 0, "fusion_lat": 0.0, "rental_uris": {"android": "https://dc.lft.to/lastmile_qr_scan", "ios": "https://dc.lft.to/lastmile_qr_scan"}, "fusion_lon": 0.0, "name": "0b128302bc5c67aaf22d4f7030fda0b2", "lon": -76.99803716666666, "is_disabled": 0, "type": "electric_scooter"}, {"bike_id": "6ba7bce4ca9537b9a488e0b6c26b2f7d", "lat": 38.900756333333334, "is_reserved": 0, "fusion_lat": 0.0, "rental_uris": {"android": "https://dc.lft.to/lastmile_qr_scan", "ios": "https://dc.lft.to/lastmile_qr_scan"}, "fusion_lon": 0.0, "name": "6ba7bce4ca9537b9a488e0b6c26b2f7d", "lon": -77.02715166666667, "is_disabled": 0, "type": "electric_scooter"}, {"bike_id": "173ce32842b7fab59e8fb7c6c17b163d", "lat": 38.900248833333336, "is_reserved": 0, "fusion_lat": 0.0, "rental_uris": {"android": "https://dc.lft.to/lastmile_qr_scan", "ios": "https://dc.lft.to/lastmile_qr_scan"}, "fusion_lon": 0.0, "name": "173ce32842b7fab59e8fb7c6c17b163d", "lon": -77.0380725, "is_disabled": 0, "type": "electric_scooter"}, {"bike_id": "86e0abdd248de03342a44822e94c2c40", "lat": 38.928645, "is_reserved": 0, "fusion_lat": 0.0, "rental_uris": {"android": "https://dc.lft.to/lastmile_qr_scan", "ios": "https://dc.lft.to/lastmile_qr_scan"}, "fusion_lon": 0.0, "name": "86e0abdd248de03342a44822e94c2c40", "lon": -77.005561, "is_disabled": 0, "type": "electric_scooter"}, {"bike_id": "48f5a2e6aa59fba0ba33729c985d5505", "lat": 38.832427333333335, "is_reserved": 0, "fusion_lat": 0.0, "rental_uris": {"android": "https://dc.lft.to/lastmile_qr_scan", "ios": "https://dc.lft.to/lastmile_qr_scan"}, "fusion_lon": 0.0, "name": "48f5a2e6aa59fba0ba33729c985d5505", "lon": -76.94622933333333, "is_disabled": 0, "type": "electric_bike"}, {"bike_id": "678a6c6b2bd6db294967820a32f43158", "lat": 39.034213666666666, "is_reserved": 0, "fusion_lat": 0.0, "rental_uris": {"android": "https://dc.lft.to/lastmile_qr_scan", "ios": "https://dc.lft.to/lastmile_qr_scan"}, "fusion_lon": 0.0, "name": "678a6c6b2bd6db294967820a32f43158", "lon": -77.04318283333333, "is_disabled": 0, "type": "electric_bike"}, {"bike_id": "e6e4200e5f215c549a773bb3e4efab43", "lat": 38.90570116666667, "is_reserved": 0, "fusion_lat": 0.0, "rental_uris": {"android": "https://dc.lft.to/lastmile_qr_scan", "ios": "https://dc.lft.to/lastmile_qr_scan"}, "fusion_lon": 0.0, "name": "e6e4200e5f215c549a773bb3e4efab43", "lon": -76.9778755, "is_disabled": 0, "type": "electric_scooter"}, {"bike_id": "ad90f92f44e1b0f663799c697d18823a", "lat": 38.877618, "is_reserved": 0, "fusion_lat": 0.0, "rental_uris": {"android": "https://dc.lft.to/lastmile_qr_scan", "ios": "https://dc.lft.to/lastmile_qr_scan"}, "fusion_lon": 0.0, "name": "ad90f92f44e1b0f663799c697d18823a", "lon": -76.9869035, "is_disabled": 0, "type": "electric_scooter"}, {"bike_id": "85230d0f4cc1dad9b9beb9ed95732d42", "lat": 38.921248, "is_reserved": 0, "fusion_lat": 0.0, "rental_uris": {"android": "https://dc.lft.to/lastmile_qr_scan", "ios": "https://dc.lft.to/lastmile_qr_scan"}, "fusion_lon": 0.0, "name": "85230d0f4cc1dad9b9beb9ed95732d42", "lon": -77.01753366666667, "is_disabled": 0, "type": "electric_scooter"}, {"bike_id": "26054583e9f739247148e6ea17ee8985", "lat": 38.919458666666664, "is_reserved": 0, "fusion_lat": 0.0, "rental_uris": {"android": "https://dc.lft.to/lastmile_qr_scan", "ios": "https://dc.lft.to/lastmile_qr_scan"}, "fusion_lon": 0.0, "name": "26054583e9f739247148e6ea17ee8985", "lon": -77.02403016666666, "is_disabled": 0, "type": "electric_scooter"}, {"bike_id": "4ce15aeaabb6bcbcf075505d7dca2d6d", "lat": 38.89568, "is_reserved": 0, "fusion_lat": 0.0, "rental_uris": {"android": "https://dc.lft.to/lastmile_qr_scan", "ios": "https://dc.lft.to/lastmile_qr_scan"}, "fusion_lon": 0.0, "name": "4ce15aeaabb6bcbcf075505d7dca2d6d", "lon": -76.930272, "is_disabled": 0, "type": "electric_scooter"}, {"bike_id": "a68c41f093c661d7d2309a85e90be818", "lat": 38.92178533333333, "is_reserved": 0, "fusion_lat": 0.0, "rental_uris": {"android": "https://dc.lft.to/lastmile_qr_scan", "ios": "https://dc.lft.to/lastmile_qr_scan"}, "fusion_lon": 0.0, "name": "a68c41f093c661d7d2309a85e90be818", "lon": -77.02659833333334, "is_disabled": 0, "type": "electric_scooter"}, {"bike_id": "e71c3abfab05db6e8af327d0ce7b4e26", "lat": 38.9142025, "is_reserved": 0, "fusion_lat": 0.0, "rental_uris": {"android": "https://dc.lft.to/lastmile_qr_scan", "ios": "https://dc.lft.to/lastmile_qr_scan"}, "fusion_lon": 0.0, "name": "e71c3abfab05db6e8af327d0ce7b4e26", "lon": -77.02408, "is_disabled": 0, "type": "electric_scooter"}, {"bike_id": "9eb6643744977c1513a81acaf054ce35", "lat": 38.900407333333334, "is_reserved": 0, "fusion_lat": 0.0, "rental_uris": {"android": "https://dc.lft.to/lastmile_qr_scan", "ios": "https://dc.lft.to/lastmile_qr_scan"}, "fusion_lon": 0.0, "name": "9eb6643744977c1513a81acaf054ce35", "lon": -77.00214733333334, "is_disabled": 0, "type": "electric_scooter"}, {"bike_id": "b4d86911f3e0772d95c509b861c1874e", "lat": 38.89835583333333, "is_reserved": 0, "fusion_lat": 0.0, "rental_uris": {"android": "https://dc.lft.to/lastmile_qr_scan", "ios": "https://dc.lft.to/lastmile_qr_scan"}, "fusion_lon": 0.0, "name": "b4d86911f3e0772d95c509b861c1874e", "lon": -77.03045316666666, "is_disabled": 0, "type": "electric_scooter"}, {"bike_id": "7893087964a57ed038bbce2ba6ffc9b9", "lat": 38.913857166666666, "is_reserved": 0, "fusion_lat": 0.0, "rental_uris": {"android": "https://dc.lft.to/lastmile_qr_scan", "ios": "https://dc.lft.to/lastmile_qr_scan"}, "fusion_lon": 0.0, "name": "7893087964a57ed038bbce2ba6ffc9b9", "lon": -77.01704666666667, "is_disabled": 0, "type": "electric_scooter"}, {"bike_id": "8eb07e0efdb1821e4dc419b8c230d376", "lat": 38.920232166666665, "is_reserved": 0, "fusion_lat": 0.0, "rental_uris": {"android": "https://dc.lft.to/lastmile_qr_scan", "ios": "https://dc.lft.to/lastmile_qr_scan"}, "fusion_lon": 0.0, "name": "8eb07e0efdb1821e4dc419b8c230d376", "lon": -77.03128666666667, "is_disabled": 0, "type": "electric_scooter"}, {"bike_id": "c40a63251821235b1b63b04aac812d8b", "lat": 38.98462216666667, "is_reserved": 0, "fusion_lat": 0.0, "rental_uris": {"android": "https://dc.lft.to/lastmile_qr_scan", "ios": "https://dc.lft.to/lastmile_qr_scan"}, "fusion_lon": 0.0, "name": "c40a63251821235b1b63b04aac812d8b", "lon": -76.970558, "is_disabled": 0, "type": "electric_bike"}, {"bike_id": "3c4d51cd96c875efd60c6e797789a34c", "lat": 38.91698983333333, "is_reserved": 0, "fusion_lat": 0.0, "rental_uris": {"android": "https://dc.lft.to/lastmile_qr_scan", "ios": "https://dc.lft.to/lastmile_qr_scan"}, "fusion_lon": 0.0, "name": "3c4d51cd96c875efd60c6e797789a34c", "lon": -77.041132, "is_disabled": 0, "type": "electric_scooter"}, {"bike_id": "d0c00c5c3dd35d27fe290fa28c25b3bc", "lat": 38.903234166666664, "is_reserved": 0, "fusion_lat": 0.0, "rental_uris": {"android": "https://dc.lft.to/lastmile_qr_scan", "ios": "https://dc.lft.to/lastmile_qr_scan"}, "fusion_lon": 0.0, "name": "d0c00c5c3dd35d27fe290fa28c25b3bc", "lon": -77.03834, "is_disabled": 0, "type": "electric_scooter"}, {"bike_id": "0ac67af82a5d027e24f6d80c8f1dec60", "lat": 38.927800166666664, "is_reserved": 0, "fusion_lat": 0.0, "rental_uris": {"android": "https://dc.lft.to/lastmile_qr_scan", "ios": "https://dc.lft.to/lastmile_qr_scan"}, "fusion_lon": 0.0, "name": "0ac67af82a5d027e24f6d80c8f1dec60", "lon": -77.02785066666667, "is_disabled": 0, "type": "electric_bike"}, {"bike_id": "ac7e0c1c296b313043fdee291391e83b", "lat": 38.902333666666664, "is_reserved": 0, "fusion_lat": 0.0, "rental_uris": {"android": "https://dc.lft.to/lastmile_qr_scan", "ios": "https://dc.lft.to/lastmile_qr_scan"}, "fusion_lon": 0.0, "name": "ac7e0c1c296b313043fdee291391e83b", "lon": -77.03472, "is_disabled": 0, "type": "electric_scooter"}, {"bike_id": "3bade0b294b0189be734b64a9f4d233d", "lat": 38.8664685, "is_reserved": 0, "fusion_lat": 0.0, "rental_uris": {"android": "https://dc.lft.to/lastmile_qr_scan", "ios": "https://dc.lft.to/lastmile_qr_scan"}, "fusion_lon": 0.0, "name": "3bade0b294b0189be734b64a9f4d233d", "lon": -76.98819783333333, "is_disabled": 0, "type": "electric_scooter"}, {"bike_id": "6e2fb11610bd7d6cf4d3f24f173c1f58", "lat": 38.93094383333333, "is_reserved": 0, "fusion_lat": 0.0, "rental_uris": {"android": "https://dc.lft.to/lastmile_qr_scan", "ios": "https://dc.lft.to/lastmile_qr_scan"}, "fusion_lon": 0.0, "name": "6e2fb11610bd7d6cf4d3f24f173c1f58", "lon": -77.02360916666666, "is_disabled": 0, "type": "electric_scooter"}, {"bike_id": "cb8308011a68b22674ff55770b0a2fa9", "lat": 38.866883, "is_reserved": 0, "fusion_lat": 0.0, "rental_uris": {"android": "https://dc.lft.to/lastmile_qr_scan", "ios": "https://dc.lft.to/lastmile_qr_scan"}, "fusion_lon": 0.0, "name": "cb8308011a68b22674ff55770b0a2fa9", "lon": -76.98577366666666, "is_disabled": 0, "type": "electric_scooter"}, {"bike_id": "e55a80828089e80135ab1f543835e6b9", "lat": 38.892879666666666, "is_reserved": 0, "fusion_lat": 0.0, "rental_uris": {"android": "https://dc.lft.to/lastmile_qr_scan", "ios": "https://dc.lft.to/lastmile_qr_scan"}, "fusion_lon": 0.0, "name": "e55a80828089e80135ab1f543835e6b9", "lon": -77.01970733333333, "is_disabled": 0, "type": "electric_scooter"}, {"bike_id": "2fdb852135afc29fba6ff89ee7b2bb5b", "lat": 38.952548, "is_reserved": 0, "fusion_lat": 0.0, "rental_uris": {"android": "https://dc.lft.to/lastmile_qr_scan", "ios": "https://dc.lft.to/lastmile_qr_scan"}, "fusion_lon": 0.0, "name": "2fdb852135afc29fba6ff89ee7b2bb5b", "lon": -77.01963316666667, "is_disabled": 0, "type": "electric_scooter"}, {"bike_id": "9cb2b39973c16c2731d18762477bf144", "lat": 38.91772383333333, "is_reserved": 0, "fusion_lat": 0.0, "rental_uris": {"android": "https://dc.lft.to/lastmile_qr_scan", "ios": "https://dc.lft.to/lastmile_qr_scan"}, "fusion_lon": 0.0, "name": "9cb2b39973c16c2731d18762477bf144", "lon": -77.031712, "is_disabled": 0, "type": "electric_scooter"}, {"bike_id": "be0e14a56c0e7a3aea5d9366c032dda5", "lat": 38.905757, "is_reserved": 0, "fusion_lat": 0.0, "rental_uris": {"android": "https://dc.lft.to/lastmile_qr_scan", "ios": "https://dc.lft.to/lastmile_qr_scan"}, "fusion_lon": 0.0, "name": "be0e14a56c0e7a3aea5d9366c032dda5", "lon": -77.0456085, "is_disabled": 0, "type": "electric_scooter"}, {"bike_id": "280571186c3f478b6d471fb754740f12", "lat": 39.05636766666667, "is_reserved": 0, "fusion_lat": 0.0, "rental_uris": {"android": "https://dc.lft.to/lastmile_qr_scan", "ios": "https://dc.lft.to/lastmile_qr_scan"}, "fusion_lon": 0.0, "name": "280571186c3f478b6d471fb754740f12", "lon": -77.1253475, "is_disabled": 0, "type": "electric_bike"}, {"bike_id": "dd6f058294db0b49df8fb4d7ec11fa8b", "lat": 38.9155465, "is_reserved": 0, "fusion_lat": 0.0, "rental_uris": {"android": "https://dc.lft.to/lastmile_qr_scan", "ios": "https://dc.lft.to/lastmile_qr_scan"}, "fusion_lon": 0.0, "name": "dd6f058294db0b49df8fb4d7ec11fa8b", "lon": -77.0221085, "is_disabled": 0, "type": "electric_scooter"}, {"bike_id": "78a229f68717372f177bcdfe86eff26b", "lat": 38.9421105, "is_reserved": 0, "fusion_lat": 0.0, "rental_uris": {"android": "https://dc.lft.to/lastmile_qr_scan", "ios": "https://dc.lft.to/lastmile_qr_scan"}, "fusion_lon": 0.0, "name": "78a229f68717372f177bcdfe86eff26b", "lon": -77.02586633333334, "is_disabled": 0, "type": "electric_scooter"}, {"bike_id": "fca2324247c36b80de3df1f6f3494a01", "lat": 38.93276083333333, "is_reserved": 0, "fusion_lat": 0.0, "rental_uris": {"android": "https://dc.lft.to/lastmile_qr_scan", "ios": "https://dc.lft.to/lastmile_qr_scan"}, "fusion_lon": 0.0, "name": "fca2324247c36b80de3df1f6f3494a01", "lon": -77.0350015, "is_disabled": 0, "type": "electric_scooter"}, {"bike_id": "38f576385eea275a34858853cc789d26", "lat": 38.919862333333334, "is_reserved": 0, "fusion_lat": 0.0, "rental_uris": {"android": "https://dc.lft.to/lastmile_qr_scan", "ios": "https://dc.lft.to/lastmile_qr_scan"}, "fusion_lon": 0.0, "name": "38f576385eea275a34858853cc789d26", "lon": -77.02166066666666, "is_disabled": 0, "type": "electric_scooter"}, {"bike_id": "b03ab09afb0b7b20f09b31a7ea0cbb24", "lat": 38.9382085, "is_reserved": 0, "fusion_lat": 0.0, "rental_uris": {"android": "https://dc.lft.to/lastmile_qr_scan", "ios": "https://dc.lft.to/lastmile_qr_scan"}, "fusion_lon": 0.0, "name": "b03ab09afb0b7b20f09b31a7ea0cbb24", "lon": -77.07164633333333, "is_disabled": 0, "type": "electric_scooter"}, {"bike_id": "9a3690d0106d0693e955d5fcd3c274b0", "lat": 38.90403366666666, "is_reserved": 0, "fusion_lat": 0.0, "rental_uris": {"android": "https://dc.lft.to/lastmile_qr_scan", "ios": "https://dc.lft.to/lastmile_qr_scan"}, "fusion_lon": 0.0, "name": "9a3690d0106d0693e955d5fcd3c274b0", "lon": -77.06506766666666, "is_disabled": 0, "type": "electric_scooter"}, {"bike_id": "d11abc36bb287b024c44f5ff118eac61", "lat": 38.902573833333335, "is_reserved": 0, "fusion_lat": 0.0, "rental_uris": {"android": "https://dc.lft.to/lastmile_qr_scan", "ios": "https://dc.lft.to/lastmile_qr_scan"}, "fusion_lon": 0.0, "name": "d11abc36bb287b024c44f5ff118eac61", "lon": -77.0081825, "is_disabled": 0, "type": "electric_scooter"}, {"bike_id": "2f6d0dcd601bd450f4a62f471fdaf2fe", "lat": 38.90863383333333, "is_reserved": 0, "fusion_lat": 0.0, "rental_uris": {"android": "https://dc.lft.to/lastmile_qr_scan", "ios": "https://dc.lft.to/lastmile_qr_scan"}, "fusion_lon": 0.0, "name": "2f6d0dcd601bd450f4a62f471fdaf2fe", "lon": -77.02708916666667, "is_disabled": 0, "type": "electric_scooter"}, {"bike_id": "f350b632500070c8d43edd9bbe9278f9", "lat": 38.907605333333336, "is_reserved": 0, "fusion_lat": 0.0, "rental_uris": {"android": "https://dc.lft.to/lastmile_qr_scan", "ios": "https://dc.lft.to/lastmile_qr_scan"}, "fusion_lon": 0.0, "name": "f350b632500070c8d43edd9bbe9278f9", "lon": -77.00882833333333, "is_disabled": 0, "type": "electric_scooter"}, {"bike_id": "fbf579276c3039f9a9689c0579b40d22", "lat": 38.911128833333336, "is_reserved": 0, "fusion_lat": 0.0, "rental_uris": {"android": "https://dc.lft.to/lastmile_qr_scan", "ios": "https://dc.lft.to/lastmile_qr_scan"}, "fusion_lon": 0.0, "name": "fbf579276c3039f9a9689c0579b40d22", "lon": -77.03866266666667, "is_disabled": 0, "type": "electric_scooter"}, {"bike_id": "c316460f4dbbf1bc81587dea33aff4e7", "lat": 38.888188166666666, "is_reserved": 0, "fusion_lat": 0.0, "rental_uris": {"android": "https://dc.lft.to/lastmile_qr_scan", "ios": "https://dc.lft.to/lastmile_qr_scan"}, "fusion_lon": 0.0, "name": "c316460f4dbbf1bc81587dea33aff4e7", "lon": -76.99156766666667, "is_disabled": 0, "type": "electric_scooter"}, {"bike_id": "725ae99e83b7e698d0e4998d3d729f29", "lat": 38.923463166666664, "is_reserved": 0, "fusion_lat": 0.0, "rental_uris": {"android": "https://dc.lft.to/lastmile_qr_scan", "ios": "https://dc.lft.to/lastmile_qr_scan"}, "fusion_lon": 0.0, "name": "725ae99e83b7e698d0e4998d3d729f29", "lon": -77.0511935, "is_disabled": 0, "type": "electric_scooter"}, {"bike_id": "b30cfa5917191938bef2e4d9a222e19d", "lat": 38.89611583333333, "is_reserved": 0, "fusion_lat": 0.0, "rental_uris": {"android": "https://dc.lft.to/lastmile_qr_scan", "ios": "https://dc.lft.to/lastmile_qr_scan"}, "fusion_lon": 0.0, "name": "b30cfa5917191938bef2e4d9a222e19d", "lon": -76.907354, "is_disabled": 0, "type": "electric_bike"}, {"bike_id": "99b4005bcd8f269c11a7c6d1c7b6bd29", "lat": 38.899006666666665, "is_reserved": 0, "fusion_lat": 0.0, "rental_uris": {"android": "https://dc.lft.to/lastmile_qr_scan", "ios": "https://dc.lft.to/lastmile_qr_scan"}, "fusion_lon": 0.0, "name": "99b4005bcd8f269c11a7c6d1c7b6bd29", "lon": -77.02180216666666, "is_disabled": 0, "type": "electric_scooter"}, {"bike_id": "a4a30b10a19903cc1872592091a29426", "lat": 38.92245966666667, "is_reserved": 0, "fusion_lat": 0.0, "rental_uris": {"android": "https://dc.lft.to/lastmile_qr_scan", "ios": "https://dc.lft.to/lastmile_qr_scan"}, "fusion_lon": 0.0, "name": "a4a30b10a19903cc1872592091a29426", "lon": -77.02896833333334, "is_disabled": 0, "type": "electric_scooter"}, {"bike_id": "b843dc863406463cadf152b5a18ceb99", "lat": 38.90288866666667, "is_reserved": 0, "fusion_lat": 0.0, "rental_uris": {"android": "https://dc.lft.to/lastmile_qr_scan", "ios": "https://dc.lft.to/lastmile_qr_scan"}, "fusion_lon": 0.0, "name": "b843dc863406463cadf152b5a18ceb99", "lon": -77.033465, "is_disabled": 0, "type": "electric_scooter"}, {"bike_id": "ff3e05e977ed376517a1761ae9d107db", "lat": 38.8929025, "is_reserved": 0, "fusion_lat": 0.0, "rental_uris": {"android": "https://dc.lft.to/lastmile_qr_scan", "ios": "https://dc.lft.to/lastmile_qr_scan"}, "fusion_lon": 0.0, "name": "ff3e05e977ed376517a1761ae9d107db", "lon": -77.01974716666666, "is_disabled": 0, "type": "electric_scooter"}, {"bike_id": "1e1f4140f211cb059705012000f414ee", "lat": 38.907735333333335, "is_reserved": 0, "fusion_lat": 0.0, "rental_uris": {"android": "https://dc.lft.to/lastmile_qr_scan", "ios": "https://dc.lft.to/lastmile_qr_scan"}, "fusion_lon": 0.0, "name": "1e1f4140f211cb059705012000f414ee", "lon": -77.03454366666666, "is_disabled": 0, "type": "electric_scooter"}, {"bike_id": "09c2bffc54fda0bae5b1b2711710925a", "lat": 38.91564233333333, "is_reserved": 0, "fusion_lat": 0.0, "rental_uris": {"android": "https://dc.lft.to/lastmile_qr_scan", "ios": "https://dc.lft.to/lastmile_qr_scan"}, "fusion_lon": 0.0, "name": "09c2bffc54fda0bae5b1b2711710925a", "lon": -77.03119066666666, "is_disabled": 0, "type": "electric_scooter"}, {"bike_id": "20fd63f129e3ad58ae5e6794d44b4cc5", "lat": 38.92622816666667, "is_reserved": 0, "fusion_lat": 0.0, "rental_uris": {"android": "https://dc.lft.to/lastmile_qr_scan", "ios": "https://dc.lft.to/lastmile_qr_scan"}, "fusion_lon": 0.0, "name": "20fd63f129e3ad58ae5e6794d44b4cc5", "lon": -77.037059, "is_disabled": 0, "type": "electric_scooter"}, {"bike_id": "a6f31fc0509e106823b8a73d47afd321", "lat": 38.90412383333334, "is_reserved": 0, "fusion_lat": 0.0, "rental_uris": {"android": "https://dc.lft.to/lastmile_qr_scan", "ios": "https://dc.lft.to/lastmile_qr_scan"}, "fusion_lon": 0.0, "name": "a6f31fc0509e106823b8a73d47afd321", "lon": -76.973318, "is_disabled": 0, "type": "electric_scooter"}, {"bike_id": "93341ab74029cb8ea23738bf9ad62c9e", "lat": 38.91415333333333, "is_reserved": 0, "fusion_lat": 0.0, "rental_uris": {"android": "https://dc.lft.to/lastmile_qr_scan", "ios": "https://dc.lft.to/lastmile_qr_scan"}, "fusion_lon": 0.0, "name": "93341ab74029cb8ea23738bf9ad62c9e", "lon": -77.025912, "is_disabled": 0, "type": "electric_scooter"}, {"bike_id": "9fcd9e3a7c7a01ba895ff24b70e125a2", "lat": 38.9134725, "is_reserved": 0, "fusion_lat": 0.0, "rental_uris": {"android": "https://dc.lft.to/lastmile_qr_scan", "ios": "https://dc.lft.to/lastmile_qr_scan"}, "fusion_lon": 0.0, "name": "9fcd9e3a7c7a01ba895ff24b70e125a2", "lon": -77.0422435, "is_disabled": 0, "type": "electric_scooter"}, {"bike_id": "6446a2456c2d20925f6fc1ce6bacf7d2", "lat": 39.052817166666664, "is_reserved": 0, "fusion_lat": 0.0, "rental_uris": {"android": "https://dc.lft.to/lastmile_qr_scan", "ios": "https://dc.lft.to/lastmile_qr_scan"}, "fusion_lon": 0.0, "name": "6446a2456c2d20925f6fc1ce6bacf7d2", "lon": -77.08070933333333, "is_disabled": 0, "type": "electric_bike"}, {"bike_id": "a7f064a3d8464df06c94a20f23f9e6cc", "lat": 38.8950655, "is_reserved": 0, "fusion_lat": 0.0, "rental_uris": {"android": "https://dc.lft.to/lastmile_qr_scan", "ios": "https://dc.lft.to/lastmile_qr_scan"}, "fusion_lon": 0.0, "name": "a7f064a3d8464df06c94a20f23f9e6cc", "lon": -77.02296283333334, "is_disabled": 0, "type": "electric_scooter"}, {"bike_id": "d59f16246be41757aa570da01aa64a34", "lat": 38.90639383333333, "is_reserved": 0, "fusion_lat": 0.0, "rental_uris": {"android": "https://dc.lft.to/lastmile_qr_scan", "ios": "https://dc.lft.to/lastmile_qr_scan"}, "fusion_lon": 0.0, "name": "d59f16246be41757aa570da01aa64a34", "lon": -77.06907283333334, "is_disabled": 0, "type": "electric_scooter"}, {"bike_id": "ce37938781d261484ca8c3036001a1b8", "lat": 38.9358005, "is_reserved": 0, "fusion_lat": 0.0, "rental_uris": {"android": "https://dc.lft.to/lastmile_qr_scan", "ios": "https://dc.lft.to/lastmile_qr_scan"}, "fusion_lon": 0.0, "name": "ce37938781d261484ca8c3036001a1b8", "lon": -77.01972066666667, "is_disabled": 0, "type": "electric_scooter"}, {"bike_id": "9e9f4c803a2e9cf53caced8f8a8682e2", "lat": 38.9151105, "is_reserved": 0, "fusion_lat": 0.0, "rental_uris": {"android": "https://dc.lft.to/lastmile_qr_scan", "ios": "https://dc.lft.to/lastmile_qr_scan"}, "fusion_lon": 0.0, "name": "9e9f4c803a2e9cf53caced8f8a8682e2", "lon": -77.04498883333333, "is_disabled": 0, "type": "electric_scooter"}, {"bike_id": "0e3830fe8a01cbf1df79527905ce77eb", "lat": 38.918243333333336, "is_reserved": 0, "fusion_lat": 0.0, "rental_uris": {"android": "https://dc.lft.to/lastmile_qr_scan", "ios": "https://dc.lft.to/lastmile_qr_scan"}, "fusion_lon": 0.0, "name": "0e3830fe8a01cbf1df79527905ce77eb", "lon": -77.049416, "is_disabled": 0, "type": "electric_scooter"}, {"bike_id": "b1ec095f2db26ff0a3f4cd967fa8cd88", "lat": 38.907102, "is_reserved": 0, "fusion_lat": 0.0, "rental_uris": {"android": "https://dc.lft.to/lastmile_qr_scan", "ios": "https://dc.lft.to/lastmile_qr_scan"}, "fusion_lon": 0.0, "name": "b1ec095f2db26ff0a3f4cd967fa8cd88", "lon": -77.03257316666667, "is_disabled": 0, "type": "electric_scooter"}, {"bike_id": "24420b9994cfc6050f298720160bfdd7", "lat": 38.88120833333333, "is_reserved": 0, "fusion_lat": 0.0, "rental_uris": {"android": "https://dc.lft.to/lastmile_qr_scan", "ios": "https://dc.lft.to/lastmile_qr_scan"}, "fusion_lon": 0.0, "name": "24420b9994cfc6050f298720160bfdd7", "lon": -77.00180283333333, "is_disabled": 0, "type": "electric_scooter"}, {"bike_id": "c0173233b265e034b2ef2e004f412495", "lat": 38.90517333333333, "is_reserved": 0, "fusion_lat": 0.0, "rental_uris": {"android": "https://dc.lft.to/lastmile_qr_scan", "ios": "https://dc.lft.to/lastmile_qr_scan"}, "fusion_lon": 0.0, "name": "c0173233b265e034b2ef2e004f412495", "lon": -77.06469566666667, "is_disabled": 0, "type": "electric_scooter"}, {"bike_id": "45c535f973d14d24f503b5b8e5794959", "lat": 38.896271666666664, "is_reserved": 0, "fusion_lat": 0.0, "rental_uris": {"android": "https://dc.lft.to/lastmile_qr_scan", "ios": "https://dc.lft.to/lastmile_qr_scan"}, "fusion_lon": 0.0, "name": "45c535f973d14d24f503b5b8e5794959", "lon": -77.0035135, "is_disabled": 0, "type": "electric_scooter"}, {"bike_id": "c19623d3eb66763dd2f6c8e8b0723616", "lat": 38.874663166666664, "is_reserved": 0, "fusion_lat": 0.0, "rental_uris": {"android": "https://dc.lft.to/lastmile_qr_scan", "ios": "https://dc.lft.to/lastmile_qr_scan"}, "fusion_lon": 0.0, "name": "c19623d3eb66763dd2f6c8e8b0723616", "lon": -77.00486, "is_disabled": 0, "type": "electric_scooter"}, {"bike_id": "807636e508288037732921a932bcee74", "lat": 38.873613666666664, "is_reserved": 0, "fusion_lat": 0.0, "rental_uris": {"android": "https://dc.lft.to/lastmile_qr_scan", "ios": "https://dc.lft.to/lastmile_qr_scan"}, "fusion_lon": 0.0, "name": "807636e508288037732921a932bcee74", "lon": -76.97025733333334, "is_disabled": 0, "type": "electric_scooter"}, {"bike_id": "fc3553eee53a2531f038b4d5a4078458", "lat": 38.933382333333334, "is_reserved": 0, "fusion_lat": 0.0, "rental_uris": {"android": "https://dc.lft.to/lastmile_qr_scan", "ios": "https://dc.lft.to/lastmile_qr_scan"}, "fusion_lon": 0.0, "name": "fc3553eee53a2531f038b4d5a4078458", "lon": -77.02061516666667, "is_disabled": 0, "type": "electric_scooter"}, {"bike_id": "d8bfde789c5f631b4c45b7144629758a", "lat": 38.907765, "is_reserved": 0, "fusion_lat": 0.0, "rental_uris": {"android": "https://dc.lft.to/lastmile_qr_scan", "ios": "https://dc.lft.to/lastmile_qr_scan"}, "fusion_lon": 0.0, "name": "d8bfde789c5f631b4c45b7144629758a", "lon": -77.03470366666667, "is_disabled": 0, "type": "electric_scooter"}, {"bike_id": "47ac0c770c82351ce6e9c4d7f60675ed", "lat": 38.86710983333333, "is_reserved": 0, "fusion_lat": 0.0, "rental_uris": {"android": "https://dc.lft.to/lastmile_qr_scan", "ios": "https://dc.lft.to/lastmile_qr_scan"}, "fusion_lon": 0.0, "name": "47ac0c770c82351ce6e9c4d7f60675ed", "lon": -76.987176, "is_disabled": 0, "type": "electric_scooter"}, {"bike_id": "cb1d06ccc835b8c55940effbd24d9e41", "lat": 38.955264, "is_reserved": 0, "fusion_lat": 0.0, "rental_uris": {"android": "https://dc.lft.to/lastmile_qr_scan", "ios": "https://dc.lft.to/lastmile_qr_scan"}, "fusion_lon": 0.0, "name": "cb1d06ccc835b8c55940effbd24d9e41", "lon": -77.02781533333334, "is_disabled": 0, "type": "electric_scooter"}, {"bike_id": "37862525da46e7a74ccc643a94be8ce4", "lat": 38.9021165, "is_reserved": 0, "fusion_lat": 0.0, "rental_uris": {"android": "https://dc.lft.to/lastmile_qr_scan", "ios": "https://dc.lft.to/lastmile_qr_scan"}, "fusion_lon": 0.0, "name": "37862525da46e7a74ccc643a94be8ce4", "lon": -77.021283, "is_disabled": 0, "type": "electric_scooter"}, {"bike_id": "ec8b3efea6bc144d3769fb6c65d437eb", "lat": 38.913220333333335, "is_reserved": 0, "fusion_lat": 0.0, "rental_uris": {"android": "https://dc.lft.to/lastmile_qr_scan", "ios": "https://dc.lft.to/lastmile_qr_scan"}, "fusion_lon": 0.0, "name": "ec8b3efea6bc144d3769fb6c65d437eb", "lon": -77.0366415, "is_disabled": 0, "type": "electric_scooter"}, {"bike_id": "772cf035d06b9d4dc4a71a8ffd6d9469", "lat": 38.902634666666664, "is_reserved": 0, "fusion_lat": 0.0, "rental_uris": {"android": "https://dc.lft.to/lastmile_qr_scan", "ios": "https://dc.lft.to/lastmile_qr_scan"}, "fusion_lon": 0.0, "name": "772cf035d06b9d4dc4a71a8ffd6d9469", "lon": -77.0167885, "is_disabled": 0, "type": "electric_scooter"}, {"bike_id": "4bac55498a62a89c44606d9d627e2ea5", "lat": 38.899640166666664, "is_reserved": 0, "fusion_lat": 0.0, "rental_uris": {"android": "https://dc.lft.to/lastmile_qr_scan", "ios": "https://dc.lft.to/lastmile_qr_scan"}, "fusion_lon": 0.0, "name": "4bac55498a62a89c44606d9d627e2ea5", "lon": -77.03190966666666, "is_disabled": 0, "type": "electric_scooter"}, {"bike_id": "edd67d1b1ec3c48688d7101353ba1bfb", "lat": 38.94291333333334, "is_reserved": 0, "fusion_lat": 0.0, "rental_uris": {"android": "https://dc.lft.to/lastmile_qr_scan", "ios": "https://dc.lft.to/lastmile_qr_scan"}, "fusion_lon": 0.0, "name": "edd67d1b1ec3c48688d7101353ba1bfb", "lon": -77.02169733333334, "is_disabled": 0, "type": "electric_scooter"}, {"bike_id": "bc731a7ad984c27dc82807ed352a7e05", "lat": 38.92066833333333, "is_reserved": 0, "fusion_lat": 0.0, "rental_uris": {"android": "https://dc.lft.to/lastmile_qr_scan", "ios": "https://dc.lft.to/lastmile_qr_scan"}, "fusion_lon": 0.0, "name": "bc731a7ad984c27dc82807ed352a7e05", "lon": -77.04251816666667, "is_disabled": 0, "type": "electric_scooter"}, {"bike_id": "382118516bef30cb5aae983c5c5a3466", "lat": 38.90030383333333, "is_reserved": 0, "fusion_lat": 0.0, "rental_uris": {"android": "https://dc.lft.to/lastmile_qr_scan", "ios": "https://dc.lft.to/lastmile_qr_scan"}, "fusion_lon": 0.0, "name": "382118516bef30cb5aae983c5c5a3466", "lon": -77.00063733333333, "is_disabled": 0, "type": "electric_scooter"}, {"bike_id": "9f85bb3b6ba31f9063a4b68b736b04f2", "lat": 38.9241435, "is_reserved": 0, "fusion_lat": 0.0, "rental_uris": {"android": "https://dc.lft.to/lastmile_qr_scan", "ios": "https://dc.lft.to/lastmile_qr_scan"}, "fusion_lon": 0.0, "name": "9f85bb3b6ba31f9063a4b68b736b04f2", "lon": -77.0212885, "is_disabled": 0, "type": "electric_scooter"}, {"bike_id": "4abe46d4d3e14654aca00927fc555ab7", "lat": 38.86685633333333, "is_reserved": 0, "fusion_lat": 0.0, "rental_uris": {"android": "https://dc.lft.to/lastmile_qr_scan", "ios": "https://dc.lft.to/lastmile_qr_scan"}, "fusion_lon": 0.0, "name": "4abe46d4d3e14654aca00927fc555ab7", "lon": -76.985708, "is_disabled": 0, "type": "electric_scooter"}, {"bike_id": "92112d1b5ffd6e27d39bb7f1ca5dc1b1", "lat": 38.91682266666667, "is_reserved": 0, "fusion_lat": 0.0, "rental_uris": {"android": "https://dc.lft.to/lastmile_qr_scan", "ios": "https://dc.lft.to/lastmile_qr_scan"}, "fusion_lon": 0.0, "name": "92112d1b5ffd6e27d39bb7f1ca5dc1b1", "lon": -77.02397633333334, "is_disabled": 0, "type": "electric_scooter"}, {"bike_id": "441916cbc99c18cfeb79d61384847a50", "lat": 38.921657833333335, "is_reserved": 0, "fusion_lat": 0.0, "rental_uris": {"android": "https://dc.lft.to/lastmile_qr_scan", "ios": "https://dc.lft.to/lastmile_qr_scan"}, "fusion_lon": 0.0, "name": "441916cbc99c18cfeb79d61384847a50", "lon": -77.03394816666666, "is_disabled": 0, "type": "electric_scooter"}, {"bike_id": "30a4f9ed74bad6b6c03975cc375eb445", "lat": 38.8535365, "is_reserved": 0, "fusion_lat": 0.0, "rental_uris": {"android": "https://dc.lft.to/lastmile_qr_scan", "ios": "https://dc.lft.to/lastmile_qr_scan"}, "fusion_lon": 0.0, "name": "30a4f9ed74bad6b6c03975cc375eb445", "lon": -77.13479366666667, "is_disabled": 0, "type": "electric_bike"}, {"bike_id": "d32d55134ada04696197bf8e9f9eb0cb", "lat": 38.89407216666667, "is_reserved": 0, "fusion_lat": 0.0, "rental_uris": {"android": "https://dc.lft.to/lastmile_qr_scan", "ios": "https://dc.lft.to/lastmile_qr_scan"}, "fusion_lon": 0.0, "name": "d32d55134ada04696197bf8e9f9eb0cb", "lon": -77.0220725, "is_disabled": 0, "type": "electric_scooter"}, {"bike_id": "7cfe03c5c40b02cffa0b514b7215324d", "lat": 38.925801666666665, "is_reserved": 0, "fusion_lat": 0.0, "rental_uris": {"android": "https://dc.lft.to/lastmile_qr_scan", "ios": "https://dc.lft.to/lastmile_qr_scan"}, "fusion_lon": 0.0, "name": "7cfe03c5c40b02cffa0b514b7215324d", "lon": -77.039896, "is_disabled": 0, "type": "electric_scooter"}, {"bike_id": "f00e1444b786ea027406969a02db6da3", "lat": 38.907331166666665, "is_reserved": 0, "fusion_lat": 0.0, "rental_uris": {"android": "https://dc.lft.to/lastmile_qr_scan", "ios": "https://dc.lft.to/lastmile_qr_scan"}, "fusion_lon": 0.0, "name": "f00e1444b786ea027406969a02db6da3", "lon": -77.04024666666666, "is_disabled": 0, "type": "electric_scooter"}, {"bike_id": "ef6e26f6d368b716159ae063de0d6f2d", "lat": 38.924975333333336, "is_reserved": 0, "fusion_lat": 0.0, "rental_uris": {"android": "https://dc.lft.to/lastmile_qr_scan", "ios": "https://dc.lft.to/lastmile_qr_scan"}, "fusion_lon": 0.0, "name": "ef6e26f6d368b716159ae063de0d6f2d", "lon": -77.05113733333333, "is_disabled": 0, "type": "electric_scooter"}, {"bike_id": "f8260fb277e151d93322424e546d2fc2", "lat": 38.91440516666667, "is_reserved": 0, "fusion_lat": 0.0, "rental_uris": {"android": "https://dc.lft.to/lastmile_qr_scan", "ios": "https://dc.lft.to/lastmile_qr_scan"}, "fusion_lon": 0.0, "name": "f8260fb277e151d93322424e546d2fc2", "lon": -77.03182683333333, "is_disabled": 0, "type": "electric_scooter"}, {"bike_id": "59b9e6e63b286b2877e7694b4d167fdc", "lat": 38.90755733333334, "is_reserved": 0, "fusion_lat": 0.0, "rental_uris": {"android": "https://dc.lft.to/lastmile_qr_scan", "ios": "https://dc.lft.to/lastmile_qr_scan"}, "fusion_lon": 0.0, "name": "59b9e6e63b286b2877e7694b4d167fdc", "lon": -77.032116, "is_disabled": 0, "type": "electric_scooter"}, {"bike_id": "cb5ee77c7fe554dceb72878c650e4cce", "lat": 38.91818416666667, "is_reserved": 0, "fusion_lat": 0.0, "rental_uris": {"android": "https://dc.lft.to/lastmile_qr_scan", "ios": "https://dc.lft.to/lastmile_qr_scan"}, "fusion_lon": 0.0, "name": "cb5ee77c7fe554dceb72878c650e4cce", "lon": -77.0400605, "is_disabled": 0, "type": "electric_scooter"}, {"bike_id": "135de5b6d81769c1054b2820263487b1", "lat": 38.897412833333334, "is_reserved": 0, "fusion_lat": 0.0, "rental_uris": {"android": "https://dc.lft.to/lastmile_qr_scan", "ios": "https://dc.lft.to/lastmile_qr_scan"}, "fusion_lon": 0.0, "name": "135de5b6d81769c1054b2820263487b1", "lon": -76.97970166666667, "is_disabled": 0, "type": "electric_scooter"}, {"bike_id": "16b7267756aa7eea4caa4ee63af0df3f", "lat": 38.902794666666665, "is_reserved": 0, "fusion_lat": 0.0, "rental_uris": {"android": "https://dc.lft.to/lastmile_qr_scan", "ios": "https://dc.lft.to/lastmile_qr_scan"}, "fusion_lon": 0.0, "name": "16b7267756aa7eea4caa4ee63af0df3f", "lon": -77.04476166666667, "is_disabled": 0, "type": "electric_scooter"}, {"bike_id": "3ce93cb0e8ba07a7778a66762334c452", "lat": 38.90807183333333, "is_reserved": 0, "fusion_lat": 0.0, "rental_uris": {"android": "https://dc.lft.to/lastmile_qr_scan", "ios": "https://dc.lft.to/lastmile_qr_scan"}, "fusion_lon": 0.0, "name": "3ce93cb0e8ba07a7778a66762334c452", "lon": -77.02594083333334, "is_disabled": 0, "type": "electric_scooter"}, {"bike_id": "ce6009c37a81482e24995aef40c39e70", "lat": 38.914047833333335, "is_reserved": 0, "fusion_lat": 0.0, "rental_uris": {"android": "https://dc.lft.to/lastmile_qr_scan", "ios": "https://dc.lft.to/lastmile_qr_scan"}, "fusion_lon": 0.0, "name": "ce6009c37a81482e24995aef40c39e70", "lon": -77.01646533333333, "is_disabled": 0, "type": "electric_scooter"}, {"bike_id": "96d6fca9471fbabdb0402df4a6b2ca84", "lat": 38.9447105, "is_reserved": 0, "fusion_lat": 0.0, "rental_uris": {"android": "https://dc.lft.to/lastmile_qr_scan", "ios": "https://dc.lft.to/lastmile_qr_scan"}, "fusion_lon": 0.0, "name": "96d6fca9471fbabdb0402df4a6b2ca84", "lon": -77.02341983333334, "is_disabled": 0, "type": "electric_scooter"}, {"bike_id": "cb84bb83a04bbfd943ebe7ce28b5483a", "lat": 38.895126, "is_reserved": 0, "fusion_lat": 0.0, "rental_uris": {"android": "https://dc.lft.to/lastmile_qr_scan", "ios": "https://dc.lft.to/lastmile_qr_scan"}, "fusion_lon": 0.0, "name": "cb84bb83a04bbfd943ebe7ce28b5483a", "lon": -77.02293366666666, "is_disabled": 0, "type": "electric_scooter"}, {"bike_id": "80c09716f94197fe4223bb7a0f30f3b9", "lat": 38.88641616666666, "is_reserved": 0, "fusion_lat": 0.0, "rental_uris": {"android": "https://dc.lft.to/lastmile_qr_scan", "ios": "https://dc.lft.to/lastmile_qr_scan"}, "fusion_lon": 0.0, "name": "80c09716f94197fe4223bb7a0f30f3b9", "lon": -77.01349716666667, "is_disabled": 0, "type": "electric_scooter"}, {"bike_id": "fc6064d754b9e5d2418a9b6d74d2d3ea", "lat": 38.90745883333334, "is_reserved": 0, "fusion_lat": 0.0, "rental_uris": {"android": "https://dc.lft.to/lastmile_qr_scan", "ios": "https://dc.lft.to/lastmile_qr_scan"}, "fusion_lon": 0.0, "name": "fc6064d754b9e5d2418a9b6d74d2d3ea", "lon": -77.04264766666667, "is_disabled": 0, "type": "electric_scooter"}, {"bike_id": "256b1d691d387cbd9a0fc82d3f811cb1", "lat": 38.8651645, "is_reserved": 0, "fusion_lat": 0.0, "rental_uris": {"android": "https://dc.lft.to/lastmile_qr_scan", "ios": "https://dc.lft.to/lastmile_qr_scan"}, "fusion_lon": 0.0, "name": "256b1d691d387cbd9a0fc82d3f811cb1", "lon": -77.129343, "is_disabled": 0, "type": "electric_bike"}, {"bike_id": "e4f54e6b983cc9d9b9e9ddc379247a00", "lat": 38.90128716666667, "is_reserved": 0, "fusion_lat": 0.0, "rental_uris": {"android": "https://dc.lft.to/lastmile_qr_scan", "ios": "https://dc.lft.to/lastmile_qr_scan"}, "fusion_lon": 0.0, "name": "e4f54e6b983cc9d9b9e9ddc379247a00", "lon": -77.04349733333333, "is_disabled": 0, "type": "electric_scooter"}, {"bike_id": "f59b462ac2056813e869f94589302dbe", "lat": 38.803932, "is_reserved": 0, "fusion_lat": 0.0, "rental_uris": {"android": "https://dc.lft.to/lastmile_qr_scan", "ios": "https://dc.lft.to/lastmile_qr_scan"}, "fusion_lon": 0.0, "name": "f59b462ac2056813e869f94589302dbe", "lon": -77.0557125, "is_disabled": 0, "type": "electric_bike"}, {"bike_id": "dad79073df1f65868b6eff4b367304f7", "lat": 38.89949133333333, "is_reserved": 0, "fusion_lat": 0.0, "rental_uris": {"android": "https://dc.lft.to/lastmile_qr_scan", "ios": "https://dc.lft.to/lastmile_qr_scan"}, "fusion_lon": 0.0, "name": "dad79073df1f65868b6eff4b367304f7", "lon": -77.04491733333333, "is_disabled": 0, "type": "electric_scooter"}, {"bike_id": "073af5d9fbe7687516300b9d4735374d", "lat": 38.8788815, "is_reserved": 0, "fusion_lat": 0.0, "rental_uris": {"android": "https://dc.lft.to/lastmile_qr_scan", "ios": "https://dc.lft.to/lastmile_qr_scan"}, "fusion_lon": 0.0, "name": "073af5d9fbe7687516300b9d4735374d", "lon": -76.99166483333333, "is_disabled": 0, "type": "electric_scooter"}, {"bike_id": "c217edf2c987d09f5c87024b684981bc", "lat": 38.91692283333333, "is_reserved": 0, "fusion_lat": 0.0, "rental_uris": {"android": "https://dc.lft.to/lastmile_qr_scan", "ios": "https://dc.lft.to/lastmile_qr_scan"}, "fusion_lon": 0.0, "name": "c217edf2c987d09f5c87024b684981bc", "lon": -77.02897, "is_disabled": 0, "type": "electric_scooter"}, {"bike_id": "2148ed3841d9e5341b24d127b70562b0", "lat": 38.92435733333333, "is_reserved": 0, "fusion_lat": 0.0, "rental_uris": {"android": "https://dc.lft.to/lastmile_qr_scan", "ios": "https://dc.lft.to/lastmile_qr_scan"}, "fusion_lon": 0.0, "name": "2148ed3841d9e5341b24d127b70562b0", "lon": -77.052099, "is_disabled": 0, "type": "electric_scooter"}, {"bike_id": "b133c39c012639557c7bd3d896dd747c", "lat": 38.8970615, "is_reserved": 0, "fusion_lat": 0.0, "rental_uris": {"android": "https://dc.lft.to/lastmile_qr_scan", "ios": "https://dc.lft.to/lastmile_qr_scan"}, "fusion_lon": 0.0, "name": "b133c39c012639557c7bd3d896dd747c", "lon": -76.92997333333334, "is_disabled": 0, "type": "electric_scooter"},