{"data": {"bikes": [{"fusion_lat": 0.0, "name": "9a0ed7374558d5496a07f1d846bf961b", "is_disabled": 0, "rental_uris": {"android": "https://dc.lft.to/lastmile_qr_scan", "ios": "https://dc.lft.to/lastmile_qr_scan"}, "fusion_lon": 0.0, "lat": 38.92645266666667, "bike_id": "9a0ed7374558d5496a07f1d846bf961b", "type": "electric_scooter", "is_reserved": 0, "lon": -77.0331865}, {"fusion_lat": 0.0, "name": "c85a0b0edd1488d291cb86684aa87116", "is_disabled": 0, "rental_uris": {"android": "https://dc.lft.to/lastmile_qr_scan", "ios": "https://dc.lft.to/lastmile_qr_scan"}, "fusion_lon": 0.0, "lat": 38.89736216666667, "bike_id": "c85a0b0edd1488d291cb86684aa87116", "type": "electric_scooter", "is_reserved": 0, "lon": -77.00373316666666}, {"fusion_lat": 0.0, "name": "51deb94783cb60a8aae9417ea58fef25", "is_disabled": 0, "rental_uris": {"android": "https://dc.lft.to/lastmile_qr_scan", "ios": "https://dc.lft.to/lastmile_qr_scan"}, "fusion_lon": 0.0, "lat": 38.95632416666667, "bike_id": "51deb94783cb60a8aae9417ea58fef25", "type": "electric_scooter", "is_reserved": 0, "lon": -76.995311}, {"fusion_lat": 0.0, "name": "0abe04ea3f962ca06177d6021beda551", "is_disabled": 0, "rental_uris": {"android": "https://dc.lft.to/lastmile_qr_scan", "ios": "https://dc.lft.to/lastmile_qr_scan"}, "fusion_lon": 0.0, "lat": 38.91196166666667, "bike_id": "0abe04ea3f962ca06177d6021beda551", "type": "electric_scooter", "is_reserved": 0, "lon": -77.04489483333333}, {"fusion_lat": 0.0, "name": "22c72e4a3b53368f83e36ecb6dd5bb3c", "is_disabled": 0, "rental_uris": {"android": "https://dc.lft.to/lastmile_qr_scan", "ios": "https://dc.lft.to/lastmile_qr_scan"}, "fusion_lon": 0.0, "lat": 38.92451233333333, "bike_id": "22c72e4a3b53368f83e36ecb6dd5bb3c", "type": "electric_scooter", "is_reserved": 0, "lon": -77.03323983333334}, {"fusion_lat": 0.0, "name": "ae806a0793e83f81f66aff743234f975", "is_disabled": 0, "rental_uris": {"android": "https://dc.lft.to/lastmile_qr_scan", "ios": "https://dc.lft.to/lastmile_qr_scan"}, "fusion_lon": 0.0, "lat": 38.918244333333334, "bike_id": "ae806a0793e83f81f66aff743234f975", "type": "electric_scooter", "is_reserved": 0, "lon": -77.01212516666666}, {"fusion_lat": 0.0, "name": "c2a8424196f88394fd087e8fc94ed286", "is_disabled": 0, "rental_uris": {"android": "https://dc.lft.to/lastmile_qr_scan", "ios": "https://dc.lft.to/lastmile_qr_scan"}, "fusion_lon": 0.0, "lat": 38.910078166666665, "bike_id": "c2a8424196f88394fd087e8fc94ed286", "type": "electric_scooter", "is_reserved": 0, "lon": -77.02885816666667}, {"fusion_lat": 0.0, "name": "370c61e365760eb4d07badaba7db12d9", "is_disabled": 0, "rental_uris": {"android": "https://dc.lft.to/lastmile_qr_scan", "ios": "https://dc.lft.to/lastmile_qr_scan"}, "fusion_lon": 0.0, "lat": 38.918673166666665, "bike_id": "370c61e365760eb4d07badaba7db12d9", "type": "electric_scooter", "is_reserved": 0, "lon": -77.040665}, {"fusion_lat": 0.0, "name": "eaf7497f6fc4ec3004b4fc61982f61a0", "is_disabled": 0, "rental_uris": {"android": "https://dc.lft.to/lastmile_qr_scan", "ios": "https://dc.lft.to/lastmile_qr_scan"}, "fusion_lon": 0.0, "lat": 38.957410333333335, "bike_id": "eaf7497f6fc4ec3004b4fc61982f61a0", "type": "electric_scooter", "is_reserved": 0, "lon": -77.00232016666666}, {"fusion_lat": 0.0, "name": "808485d28a96372e335fbf83619e541f", "is_disabled": 0, "rental_uris": {"android": "https://dc.lft.to/lastmile_qr_scan", "ios": "https://dc.lft.to/lastmile_qr_scan"}, "fusion_lon": 0.0, "lat": 38.9070145, "bike_id": "808485d28a96372e335fbf83619e541f", "type": "electric_scooter", "is_reserved": 0, "lon": -77.02714}, {"fusion_lat": 0.0, "name": "d9a05cc8dcf285daadd13443aeaa5639", "is_disabled": 0, "rental_uris": {"android": "https://dc.lft.to/lastmile_qr_scan", "ios": "https://dc.lft.to/lastmile_qr_scan"}, "fusion_lon": 0.0, "lat": 38.89725766666667, "bike_id": "d9a05cc8dcf285daadd13443aeaa5639", "type": "electric_scooter", "is_reserved": 0, "lon": -77.02468366666666}, {"fusion_lat": 0.0, "name": "0e1e7f6cd924891dba8288e9dc299446", "is_disabled": 0, "rental_uris": {"android": "https://dc.lft.to/lastmile_qr_scan", "ios": "https://dc.lft.to/lastmile_qr_scan"}, "fusion_lon": 0.0, "lat": 38.91684633333333, "bike_id": "0e1e7f6cd924891dba8288e9dc299446", "type": "electric_scooter", "is_reserved": 0, "lon": -77.03198816666666}, {"fusion_lat": 0.0, "name": "f52949d10b79b14824baf1609169d04e", "is_disabled": 0, "rental_uris": {"android": "https://dc.lft.to/lastmile_qr_scan", "ios": "https://dc.lft.to/lastmile_qr_scan"}, "fusion_lon": 0.0, "lat": 38.89735266666667, "bike_id": "f52949d10b79b14824baf1609169d04e", "type": "electric_bike", "is_reserved": 0, "lon": -76.92046166666667}, {"fusion_lat": 0.0, "name": "3276079ba8874e46ac7148763232085d", "is_disabled": 0, "rental_uris": {"android": "https://dc.lft.to/lastmile_qr_scan", "ios": "https://dc.lft.to/lastmile_qr_scan"}, "fusion_lon": 0.0, "lat": 38.901971, "bike_id": "3276079ba8874e46ac7148763232085d", "type": "electric_scooter", "is_reserved": 0, "lon": -77.02234966666667}, {"fusion_lat": 0.0, "name": "7cff5026afee312fbf8acbbd9182933c", "is_disabled": 0, "rental_uris": {"android": "https://dc.lft.to/lastmile_qr_scan", "ios": "https://dc.lft.to/lastmile_qr_scan"}, "fusion_lon": 0.0, "lat": 38.909709, "bike_id": "7cff5026afee312fbf8acbbd9182933c", "type": "electric_scooter", "is_reserved": 0, "lon": -77.032529}, {"fusion_lat": 0.0, "name": "84bb66da7b832bb803b170f8990e9798", "is_disabled": 0, "rental_uris": {"android": "https://dc.lft.to/lastmile_qr_scan", "ios": "https://dc.lft.to/lastmile_qr_scan"}, "fusion_lon": 0.0, "lat": 38.9613165, "bike_id": "84bb66da7b832bb803b170f8990e9798", "type": "electric_scooter", "is_reserved": 0, "lon": -77.02783116666667}, {"fusion_lat": 0.0, "name": "6fce3f0c34c4da609c3edf2086c7cd15", "is_disabled": 0, "rental_uris": {"android": "https://dc.lft.to/lastmile_qr_scan", "ios": "https://dc.lft.to/lastmile_qr_scan"}, "fusion_lon": 0.0, "lat": 38.85651583333333, "bike_id": "6fce3f0c34c4da609c3edf2086c7cd15", "type": "electric_scooter", "is_reserved": 0, "lon": -76.99671566666666}, {"fusion_lat": 0.0, "name": "9f52ad6f5289f14d5007f8ed3a088ae5", "is_disabled": 0, "rental_uris": {"android": "https://dc.lft.to/lastmile_qr_scan", "ios": "https://dc.lft.to/lastmile_qr_scan"}, "fusion_lon": 0.0, "lat": 38.89115916666667, "bike_id": "9f52ad6f5289f14d5007f8ed3a088ae5", "type": "electric_scooter", "is_reserved": 0, "lon": -76.93849583333333}, {"fusion_lat": 0.0, "name": "f72f996e08dc3fc7aeec89acfa895eac", "is_disabled": 0, "rental_uris": {"android": "https://dc.lft.to/lastmile_qr_scan", "ios": "https://dc.lft.to/lastmile_qr_scan"}, "fusion_lon": 0.0, "lat": 38.892227, "bike_id": "f72f996e08dc3fc7aeec89acfa895eac", "type": "electric_scooter", "is_reserved": 0, "lon": -77.04306716666666}, {"fusion_lat": 0.0, "name": "0c01ea5067e6218c4c393cb23fbc8661", "is_disabled": 0, "rental_uris": {"android": "https://dc.lft.to/lastmile_qr_scan", "ios": "https://dc.lft.to/lastmile_qr_scan"}, "fusion_lon": 0.0, "lat": 38.911663, "bike_id": "0c01ea5067e6218c4c393cb23fbc8661", "type": "electric_bike", "is_reserved": 0, "lon": -77.00294733333334}, {"fusion_lat": 0.0, "name": "3596850d39c657e1d31e479abdd171e1", "is_disabled": 0, "rental_uris": {"android": "https://dc.lft.to/lastmile_qr_scan", "ios": "https://dc.lft.to/lastmile_qr_scan"}, "fusion_lon": 0.0, "lat": 38.931868, "bike_id": "3596850d39c657e1d31e479abdd171e1", "type": "electric_scooter", "is_reserved": 0, "lon": -77.04298166666666}, {"fusion_lat": 0.0, "name": "d8635de028ec43de038bc507b49ae5e8", "is_disabled": 0, "rental_uris": {"android": "https://dc.lft.to/lastmile_qr_scan", "ios": "https://dc.lft.to/lastmile_qr_scan"}, "fusion_lon": 0.0, "lat": 38.892274666666665, "bike_id": "d8635de028ec43de038bc507b49ae5e8", "type": "electric_scooter", "is_reserved": 0, "lon": -77.04327716666667}, {"fusion_lat": 0.0, "name": "854fd26ad8f471be0ddea42ffefa3d62", "is_disabled": 0, "rental_uris": {"android": "https://dc.lft.to/lastmile_qr_scan", "ios": "https://dc.lft.to/lastmile_qr_scan"}, "fusion_lon": 0.0, "lat": 38.90324866666667, "bike_id": "854fd26ad8f471be0ddea42ffefa3d62", "type": "electric_scooter", "is_reserved": 0, "lon": -77.06528416666667}, {"fusion_lat": 0.0, "name": "98214fcd626d0612b1d57739f1e0f2db", "is_disabled": 0, "rental_uris": {"android": "https://dc.lft.to/lastmile_qr_scan", "ios": "https://dc.lft.to/lastmile_qr_scan"}, "fusion_lon": 0.0, "lat": 38.90564716666667, "bike_id": "98214fcd626d0612b1d57739f1e0f2db", "type": "electric_scooter", "is_reserved": 0, "lon": -77.01308716666666}, {"fusion_lat": 0.0, "name": "dbc30e9f6f008cdff7134ac72e8a7a9c", "is_disabled": 0, "rental_uris": {"android": "https://dc.lft.to/lastmile_qr_scan", "ios": "https://dc.lft.to/lastmile_qr_scan"}, "fusion_lon": 0.0, "lat": 38.8964725, "bike_id": "dbc30e9f6f008cdff7134ac72e8a7a9c", "type": "electric_scooter", "is_reserved": 0, "lon": -77.04642833333334}, {"fusion_lat": 0.0, "name": "89ee4e60f2b203430369e103ede2cba9", "is_disabled": 0, "rental_uris": {"android": "https://dc.lft.to/lastmile_qr_scan", "ios": "https://dc.lft.to/lastmile_qr_scan"}, "fusion_lon": 0.0, "lat": 38.91804533333333, "bike_id": "89ee4e60f2b203430369e103ede2cba9", "type": "electric_scooter", "is_reserved": 0, "lon": -77.03446066666666}, {"fusion_lat": 0.0, "name": "2414ebd4bf4bf962df245fd35aa4ee1e", "is_disabled": 0, "rental_uris": {"android": "https://dc.lft.to/lastmile_qr_scan", "ios": "https://dc.lft.to/lastmile_qr_scan"}, "fusion_lon": 0.0, "lat": 38.930644666666666, "bike_id": "2414ebd4bf4bf962df245fd35aa4ee1e", "type": "electric_scooter", "is_reserved": 0, "lon": -77.02970816666667}, {"fusion_lat": 0.0, "name": "ee02fa35693f9b406aa5de8de47fd662", "is_disabled": 0, "rental_uris": {"android": "https://dc.lft.to/lastmile_qr_scan", "ios": "https://dc.lft.to/lastmile_qr_scan"}, "fusion_lon": 0.0, "lat": 38.918197166666666, "bike_id": "ee02fa35693f9b406aa5de8de47fd662", "type": "electric_scooter", "is_reserved": 0, "lon": -77.03636383333334}, {"fusion_lat": 0.0, "name": "19f20355a66a782217c0c1546af903cf", "is_disabled": 0, "rental_uris": {"android": "https://dc.lft.to/lastmile_qr_scan", "ios": "https://dc.lft.to/lastmile_qr_scan"}, "fusion_lon": 0.0, "lat": 38.91819783333333, "bike_id": "19f20355a66a782217c0c1546af903cf", "type": "electric_scooter", "is_reserved": 0, "lon": -77.02312}, {"fusion_lat": 0.0, "name": "b4b5445266e24c00eb5cde05039958e7", "is_disabled": 0, "rental_uris": {"android": "https://dc.lft.to/lastmile_qr_scan", "ios": "https://dc.lft.to/lastmile_qr_scan"}, "fusion_lon": 0.0, "lat": 38.873766333333336, "bike_id": "b4b5445266e24c00eb5cde05039958e7", "type": "electric_scooter", "is_reserved": 0, "lon": -77.00132666666667}, {"fusion_lat": 0.0, "name": "b997e2a9db304601f62a95da9118f1ae", "is_disabled": 0, "rental_uris": {"android": "https://dc.lft.to/lastmile_qr_scan", "ios": "https://dc.lft.to/lastmile_qr_scan"}, "fusion_lon": 0.0, "lat": 38.913272, "bike_id": "b997e2a9db304601f62a95da9118f1ae", "type": "electric_scooter", "is_reserved": 0, "lon": -77.04534716666667}, {"fusion_lat": 0.0, "name": "2402ce7b216f05a9adfe02b6f78e90af", "is_disabled": 0, "rental_uris": {"android": "https://dc.lft.to/lastmile_qr_scan", "ios": "https://dc.lft.to/lastmile_qr_scan"}, "fusion_lon": 0.0, "lat": 38.94523683333333, "bike_id": "2402ce7b216f05a9adfe02b6f78e90af", "type": "electric_scooter", "is_reserved": 0, "lon": -77.02268816666667}, {"fusion_lat": 0.0, "name": "38b593ffafe2c959c5b5935eb2058e26", "is_disabled": 0, "rental_uris": {"android": "https://dc.lft.to/lastmile_qr_scan", "ios": "https://dc.lft.to/lastmile_qr_scan"}, "fusion_lon": 0.0, "lat": 38.90697616666667, "bike_id": "38b593ffafe2c959c5b5935eb2058e26", "type": "electric_scooter", "is_reserved": 0, "lon": -77.03362083333333}, {"fusion_lat": 0.0, "name": "dfc96bb1cca5b550d8897989086ad6d1", "is_disabled": 0, "rental_uris": {"android": "https://dc.lft.to/lastmile_qr_scan", "ios": "https://dc.lft.to/lastmile_qr_scan"}, "fusion_lon": 0.0, "lat": 38.889404666666664, "bike_id": "dfc96bb1cca5b550d8897989086ad6d1", "type": "electric_bike", "is_reserved": 0, "lon": -77.03341566666667}, {"fusion_lat": 0.0, "name": "37e20fafaba9b72e191a3ba90f1520c3", "is_disabled": 0, "rental_uris": {"android": "https://dc.lft.to/lastmile_qr_scan", "ios": "https://dc.lft.to/lastmile_qr_scan"}, "fusion_lon": 0.0, "lat": 38.90732233333333, "bike_id": "37e20fafaba9b72e191a3ba90f1520c3", "type": "electric_scooter", "is_reserved": 0, "lon": -77.0069445}, {"fusion_lat": 0.0, "name": "80f1388c54d36dcf737c0c8cb133e7b1", "is_disabled": 0, "rental_uris": {"android": "https://dc.lft.to/lastmile_qr_scan", "ios": "https://dc.lft.to/lastmile_qr_scan"}, "fusion_lon": 0.0, "lat": 38.9075585, "bike_id": "80f1388c54d36dcf737c0c8cb133e7b1", "type": "electric_scooter", "is_reserved": 0, "lon": -76.99846666666667}, {"fusion_lat": 0.0, "name": "8712da9caffa15d6a078a762d31e1438", "is_disabled": 0, "rental_uris": {"android": "https://dc.lft.to/lastmile_qr_scan", "ios": "https://dc.lft.to/lastmile_qr_scan"}, "fusion_lon": 0.0, "lat": 38.9132785, "bike_id": "8712da9caffa15d6a078a762d31e1438", "type": "electric_scooter", "is_reserved": 0, "lon": -77.04864633333334}, {"fusion_lat": 0.0, "name": "b43e19a20430f3ea7198ac3be0bf4897", "is_disabled": 0, "rental_uris": {"android": "https://dc.lft.to/lastmile_qr_scan", "ios": "https://dc.lft.to/lastmile_qr_scan"}, "fusion_lon": 0.0, "lat": 38.90025416666667, "bike_id": "b43e19a20430f3ea7198ac3be0bf4897", "type": "electric_scooter", "is_reserved": 0, "lon": -76.97397866666667}, {"fusion_lat": 0.0, "name": "da1cd8ca0c5b88a85cd56b22dc132aae", "is_disabled": 0, "rental_uris": {"android": "https://dc.lft.to/lastmile_qr_scan", "ios": "https://dc.lft.to/lastmile_qr_scan"}, "fusion_lon": 0.0, "lat": 38.90361133333333, "bike_id": "da1cd8ca0c5b88a85cd56b22dc132aae", "type": "electric_scooter", "is_reserved": 0, "lon": -77.050376}, {"fusion_lat": 0.0, "name": "f32345c2959e0604d29c28e11be74211", "is_disabled": 0, "rental_uris": {"android": "https://dc.lft.to/lastmile_qr_scan", "ios": "https://dc.lft.to/lastmile_qr_scan"}, "fusion_lon": 0.0, "lat": 38.92320983333333, "bike_id": "f32345c2959e0604d29c28e11be74211", "type": "electric_scooter", "is_reserved": 0, "lon": -77.029741}, {"fusion_lat": 0.0, "name": "2065eb615c1dbdc16cf17086012c308e", "is_disabled": 0, "rental_uris": {"android": "https://dc.lft.to/lastmile_qr_scan", "ios": "https://dc.lft.to/lastmile_qr_scan"}, "fusion_lon": 0.0, "lat": 38.88490183333333, "bike_id": "2065eb615c1dbdc16cf17086012c308e", "type": "electric_scooter", "is_reserved": 0, "lon": -77.00710683333334}, {"fusion_lat": 0.0, "name": "09485da8f33fd461335d222456acc98e", "is_disabled": 0, "rental_uris": {"android": "https://dc.lft.to/lastmile_qr_scan", "ios": "https://dc.lft.to/lastmile_qr_scan"}, "fusion_lon": 0.0, "lat": 38.8676415, "bike_id": "09485da8f33fd461335d222456acc98e", "type": "electric_scooter", "is_reserved": 0, "lon": -76.98277133333333}, {"fusion_lat": 0.0, "name": "77d51fd565fc2e2b7a7898b08a20a204", "is_disabled": 0, "rental_uris": {"android": "https://dc.lft.to/lastmile_qr_scan", "ios": "https://dc.lft.to/lastmile_qr_scan"}, "fusion_lon": 0.0, "lat": 38.9027415, "bike_id": "77d51fd565fc2e2b7a7898b08a20a204", "type": "electric_scooter", "is_reserved": 0, "lon": -77.01760133333333}, {"fusion_lat": 0.0, "name": "4aed7a8a7d2b46ef4527425d53cdd78a", "is_disabled": 0, "rental_uris": {"android": "https://dc.lft.to/lastmile_qr_scan", "ios": "https://dc.lft.to/lastmile_qr_scan"}, "fusion_lon": 0.0, "lat": 38.88901533333333, "bike_id": "4aed7a8a7d2b46ef4527425d53cdd78a", "type": "electric_scooter", "is_reserved": 0, "lon": -76.977219}, {"fusion_lat": 0.0, "name": "2ca33eac0a47e51fd966d4eb3076ca2f", "is_disabled": 0, "rental_uris": {"android": "https://dc.lft.to/lastmile_qr_scan", "ios": "https://dc.lft.to/lastmile_qr_scan"}, "fusion_lon": 0.0, "lat": 38.900329, "bike_id": "2ca33eac0a47e51fd966d4eb3076ca2f", "type": "electric_scooter", "is_reserved": 0, "lon": -77.01173716666666}, {"fusion_lat": 0.0, "name": "e53df26d879f7f147406e9ce34c3122f", "is_disabled": 0, "rental_uris": {"android": "https://dc.lft.to/lastmile_qr_scan", "ios": "https://dc.lft.to/lastmile_qr_scan"}, "fusion_lon": 0.0, "lat": 38.924386166666665, "bike_id": "e53df26d879f7f147406e9ce34c3122f", "type": "electric_scooter", "is_reserved": 0, "lon": -77.034063}, {"fusion_lat": 0.0, "name": "6775783203437a218ed37e1648b6c566", "is_disabled": 0, "rental_uris": {"android": "https://dc.lft.to/lastmile_qr_scan", "ios": "https://dc.lft.to/lastmile_qr_scan"}, "fusion_lon": 0.0, "lat": 38.9112105, "bike_id": "6775783203437a218ed37e1648b6c566", "type": "electric_scooter", "is_reserved": 0, "lon": -77.038323}, {"fusion_lat": 0.0, "name": "096b36a414676c45a538ce18f0441d0c", "is_disabled": 0, "rental_uris": {"android": "https://dc.lft.to/lastmile_qr_scan", "ios": "https://dc.lft.to/lastmile_qr_scan"}, "fusion_lon": 0.0, "lat": 38.9086645, "bike_id": "096b36a414676c45a538ce18f0441d0c", "type": "electric_scooter", "is_reserved": 0, "lon": -77.03191516666666}, {"fusion_lat": 0.0, "name": "203c7eee670c416a1f1414a056e651b2", "is_disabled": 0, "rental_uris": {"android": "https://dc.lft.to/lastmile_qr_scan", "ios": "https://dc.lft.to/lastmile_qr_scan"}, "fusion_lon": 0.0, "lat": 38.932597, "bike_id": "203c7eee670c416a1f1414a056e651b2", "type": "electric_scooter", "is_reserved": 0, "lon": -77.066258}, {"fusion_lat": 0.0, "name": "a25a75679445f15b88e95f3ff85c640b", "is_disabled": 0, "rental_uris": {"android": "https://dc.lft.to/lastmile_qr_scan", "ios": "https://dc.lft.to/lastmile_qr_scan"}, "fusion_lon": 0.0, "lat": 38.920367, "bike_id": "a25a75679445f15b88e95f3ff85c640b", "type": "electric_scooter", "is_reserved": 0, "lon": -77.025866}, {"fusion_lat": 0.0, "name": "2f708a175a6157c7eec07efc8a2615d1", "is_disabled": 0, "rental_uris": {"android": "https://dc.lft.to/lastmile_qr_scan", "ios": "https://dc.lft.to/lastmile_qr_scan"}, "fusion_lon": 0.0, "lat": 38.887179833333334, "bike_id": "2f708a175a6157c7eec07efc8a2615d1", "type": "electric_scooter", "is_reserved": 0, "lon": -76.99684933333333}, {"fusion_lat": 0.0, "name": "ad2440d8075550abc8125aa5f3d6b331", "is_disabled": 0, "rental_uris": {"android": "https://dc.lft.to/lastmile_qr_scan", "ios": "https://dc.lft.to/lastmile_qr_scan"}, "fusion_lon": 0.0, "lat": 38.93673883333334, "bike_id": "ad2440d8075550abc8125aa5f3d6b331", "type": "electric_scooter", "is_reserved": 0, "lon": -77.0359275}, {"fusion_lat": 0.0, "name": "0b3e77dd3608f02a7c0cdf414e9a92b6", "is_disabled": 0, "rental_uris": {"android": "https://dc.lft.to/lastmile_qr_scan", "ios": "https://dc.lft.to/lastmile_qr_scan"}, "fusion_lon": 0.0, "lat": 38.86554233333333, "bike_id": "0b3e77dd3608f02a7c0cdf414e9a92b6", "type": "electric_scooter", "is_reserved": 0, "lon": -76.97858533333333}, {"fusion_lat": 0.0, "name": "58a58a2a240f5a2fcd7a55eeeebc209c", "is_disabled": 0, "rental_uris": {"android": "https://dc.lft.to/lastmile_qr_scan", "ios": "https://dc.lft.to/lastmile_qr_scan"}, "fusion_lon": 0.0, "lat": 38.89219666666666, "bike_id": "58a58a2a240f5a2fcd7a55eeeebc209c", "type": "electric_scooter", "is_reserved": 0, "lon": -77.03134566666667}, {"fusion_lat": 0.0, "name": "a1ff6a04d217ad44124c222b19485f3e", "is_disabled": 0, "rental_uris": {"android": "https://dc.lft.to/lastmile_qr_scan", "ios": "https://dc.lft.to/lastmile_qr_scan"}, "fusion_lon": 0.0, "lat": 38.8841095, "bike_id": "a1ff6a04d217ad44124c222b19485f3e", "type": "electric_scooter", "is_reserved": 0, "lon": -76.9861015}, {"fusion_lat": 0.0, "name": "3a154f779a1b5f5a12a509d1c1ffa497", "is_disabled": 0, "rental_uris": {"android": "https://dc.lft.to/lastmile_qr_scan", "ios": "https://dc.lft.to/lastmile_qr_scan"}, "fusion_lon": 0.0, "lat": 38.899500833333335, "bike_id": "3a154f779a1b5f5a12a509d1c1ffa497", "type": "electric_scooter", "is_reserved": 0, "lon": -76.98158083333334}, {"fusion_lat": 0.0, "name": "9b224460b9e3f6fbfcf58a79afc7c36e", "is_disabled": 0, "rental_uris": {"android": "https://dc.lft.to/lastmile_qr_scan", "ios": "https://dc.lft.to/lastmile_qr_scan"}, "fusion_lon": 0.0, "lat": 38.905652, "bike_id": "9b224460b9e3f6fbfcf58a79afc7c36e", "type": "electric_scooter", "is_reserved": 0, "lon": -77.00539183333333}, {"fusion_lat": 0.0, "name": "929becb0ab8ea8f91de9ad6cf45e12fb", "is_disabled": 0, "rental_uris": {"android": "https://dc.lft.to/lastmile_qr_scan", "ios": "https://dc.lft.to/lastmile_qr_scan"}, "fusion_lon": 0.0, "lat": 38.92114433333333, "bike_id": "929becb0ab8ea8f91de9ad6cf45e12fb", "type": "electric_scooter", "is_reserved": 0, "lon": -77.04392433333334}, {"fusion_lat": 0.0, "name": "b4e7139f543229d709e06c5ce90470c9", "is_disabled": 0, "rental_uris": {"android": "https://dc.lft.to/lastmile_qr_scan", "ios": "https://dc.lft.to/lastmile_qr_scan"}, "fusion_lon": 0.0, "lat": 38.9013205, "bike_id": "b4e7139f543229d709e06c5ce90470c9", "type": "electric_scooter", "is_reserved": 0, "lon": -77.04887933333333}, {"fusion_lat": 0.0, "name": "499aa86bb7ffc30dca81d170aabb35ff", "is_disabled": 0, "rental_uris": {"android": "https://dc.lft.to/lastmile_qr_scan", "ios": "https://dc.lft.to/lastmile_qr_scan"}, "fusion_lon": 0.0, "lat": 38.915320666666666, "bike_id": "499aa86bb7ffc30dca81d170aabb35ff", "type": "electric_scooter", "is_reserved": 0, "lon": -77.01218683333333}, {"fusion_lat": 0.0, "name": "3b08896aa18720032bd940ebb3e4848b", "is_disabled": 0, "rental_uris": {"android": "https://dc.lft.to/lastmile_qr_scan", "ios": "https://dc.lft.to/lastmile_qr_scan"}, "fusion_lon": 0.0, "lat": 38.917073333333335, "bike_id": "3b08896aa18720032bd940ebb3e4848b", "type": "electric_scooter", "is_reserved": 0, "lon": -77.03475066666667}, {"fusion_lat": 0.0, "name": "941a9c9fea234d12aaa2f276895d84a8", "is_disabled": 0, "rental_uris": {"android": "https://dc.lft.to/lastmile_qr_scan", "ios": "https://dc.lft.to/lastmile_qr_scan"}, "fusion_lon": 0.0, "lat": 38.91927966666667, "bike_id": "941a9c9fea234d12aaa2f276895d84a8", "type": "electric_scooter", "is_reserved": 0, "lon": -77.03173983333333}, {"fusion_lat": 0.0, "name": "fdb17f7abd81caa384f0b7577ce097de", "is_disabled": 0, "rental_uris": {"android": "https://dc.lft.to/lastmile_qr_scan", "ios": "https://dc.lft.to/lastmile_qr_scan"}, "fusion_lon": 0.0, "lat": 38.915154666666666, "bike_id": "fdb17f7abd81caa384f0b7577ce097de", "type": "electric_scooter", "is_reserved": 0, "lon": -77.01982883333334}, {"fusion_lat": 0.0, "name": "6b610bfbff9a0b834eab1b672cbf9bc2", "is_disabled": 0, "rental_uris": {"android": "https://dc.lft.to/lastmile_qr_scan", "ios": "https://dc.lft.to/lastmile_qr_scan"}, "fusion_lon": 0.0, "lat": 38.928287, "bike_id": "6b610bfbff9a0b834eab1b672cbf9bc2", "type": "electric_scooter", "is_reserved": 0, "lon": -77.05439383333334}, {"fusion_lat": 0.0, "name": "8f8349337ad8e62581489e70d76a6b13", "is_disabled": 0, "rental_uris": {"android": "https://dc.lft.to/lastmile_qr_scan", "ios": "https://dc.lft.to/lastmile_qr_scan"}, "fusion_lon": 0.0, "lat": 38.886295833333335, "bike_id": "8f8349337ad8e62581489e70d76a6b13", "type": "electric_scooter", "is_reserved": 0, "lon": -77.01537733333333}, {"fusion_lat": 0.0, "name": "63e808fe8bfb1dfd7e7da1b3a34760bb", "is_disabled": 0, "rental_uris": {"android": "https://dc.lft.to/lastmile_qr_scan", "ios": "https://dc.lft.to/lastmile_qr_scan"}, "fusion_lon": 0.0, "lat": 39.032045833333335, "bike_id": "63e808fe8bfb1dfd7e7da1b3a34760bb", "type": "electric_bike", "is_reserved": 0, "lon": -77.04727433333333}, {"fusion_lat": 0.0, "name": "c8418443c90044483813aa24b2e7c701", "is_disabled": 0, "rental_uris": {"android": "https://dc.lft.to/lastmile_qr_scan", "ios": "https://dc.lft.to/lastmile_qr_scan"}, "fusion_lon": 0.0, "lat": 38.92052916666667, "bike_id": "c8418443c90044483813aa24b2e7c701", "type": "electric_scooter", "is_reserved": 0, "lon": -77.0242455}, {"fusion_lat": 0.0, "name": "e88d86c0a2fd02e9546aff3de0f4b47b", "is_disabled": 0, "rental_uris": {"android": "https://dc.lft.to/lastmile_qr_scan", "ios": "https://dc.lft.to/lastmile_qr_scan"}, "fusion_lon": 0.0, "lat": 38.88770316666667, "bike_id": "e88d86c0a2fd02e9546aff3de0f4b47b", "type": "electric_scooter", "is_reserved": 0, "lon": -76.97749183333333}, {"fusion_lat": 0.0, "name": "3776eae4df7e0e9794a714a5b2f0689d", "is_disabled": 0, "rental_uris": {"android": "https://dc.lft.to/lastmile_qr_scan", "ios": "https://dc.lft.to/lastmile_qr_scan"}, "fusion_lon": 0.0, "lat": 38.906879833333335, "bike_id": "3776eae4df7e0e9794a714a5b2f0689d", "type": "electric_scooter", "is_reserved": 0, "lon": -76.984925}, {"fusion_lat": 0.0, "name": "7d502a9545d5f95e48d0f030b8404d77", "is_disabled": 0, "rental_uris": {"android": "https://dc.lft.to/lastmile_qr_scan", "ios": "https://dc.lft.to/lastmile_qr_scan"}, "fusion_lon": 0.0, "lat": 38.93404183333333, "bike_id": "7d502a9545d5f95e48d0f030b8404d77", "type": "electric_scooter", "is_reserved": 0, "lon": -77.03267116666666}, {"fusion_lat": 0.0, "name": "aa7f258e0b4b8572bae0a898cf511a76", "is_disabled": 0, "rental_uris": {"android": "https://dc.lft.to/lastmile_qr_scan", "ios": "https://dc.lft.to/lastmile_qr_scan"}, "fusion_lon": 0.0, "lat": 38.892353, "bike_id": "aa7f258e0b4b8572bae0a898cf511a76", "type": "electric_scooter", "is_reserved": 0, "lon": -77.01713216666667}, {"fusion_lat": 0.0, "name": "43e3eb08d2bfb6aaf22e1ed0136ee9af", "is_disabled": 0, "rental_uris": {"android": "https://dc.lft.to/lastmile_qr_scan", "ios": "https://dc.lft.to/lastmile_qr_scan"}, "fusion_lon": 0.0, "lat": 38.85460966666667, "bike_id": "43e3eb08d2bfb6aaf22e1ed0136ee9af", "type": "electric_scooter", "is_reserved": 0, "lon": -76.97236366666667}, {"fusion_lat": 0.0, "name": "dc9c08f3f5cb53b50a56d30a600796fd", "is_disabled": 0, "rental_uris": {"android": "https://dc.lft.to/lastmile_qr_scan", "ios": "https://dc.lft.to/lastmile_qr_scan"}, "fusion_lon": 0.0, "lat": 38.91467333333333, "bike_id": "dc9c08f3f5cb53b50a56d30a600796fd", "type": "electric_scooter", "is_reserved": 0, "lon": -76.98408916666666}, {"fusion_lat": 0.0, "name": "136e13c79881549e146ab1faddeba7f6", "is_disabled": 0, "rental_uris": {"android": "https://dc.lft.to/lastmile_qr_scan", "ios": "https://dc.lft.to/lastmile_qr_scan"}, "fusion_lon": 0.0, "lat": 38.896109, "bike_id": "136e13c79881549e146ab1faddeba7f6", "type": "electric_scooter", "is_reserved": 0, "lon": -76.992779}, {"fusion_lat": 0.0, "name": "507f581b812e56b361082120b8d1c7ae", "is_disabled": 0, "rental_uris": {"android": "https://dc.lft.to/lastmile_qr_scan", "ios": "https://dc.lft.to/lastmile_qr_scan"}, "fusion_lon": 0.0, "lat": 38.908380333333334, "bike_id": "507f581b812e56b361082120b8d1c7ae", "type": "electric_scooter", "is_reserved": 0, "lon": -76.99981066666666}, {"fusion_lat": 0.0, "name": "ffc2434b1480f38259e68e1c8b939367", "is_disabled": 0, "rental_uris": {"android": "https://dc.lft.to/lastmile_qr_scan", "ios": "https://dc.lft.to/lastmile_qr_scan"}, "fusion_lon": 0.0, "lat": 38.901515833333335, "bike_id": "ffc2434b1480f38259e68e1c8b939367", "type": "electric_scooter", "is_reserved": 0, "lon": -77.00919366666666}, {"fusion_lat": 0.0, "name": "f67c8970086592387175bd0c2e86daf1", "is_disabled": 0, "rental_uris": {"android": "https://dc.lft.to/lastmile_qr_scan", "ios": "https://dc.lft.to/lastmile_qr_scan"}, "fusion_lon": 0.0, "lat": 38.931027, "bike_id": "f67c8970086592387175bd0c2e86daf1", "type": "electric_scooter", "is_reserved": 0, "lon": -77.02479783333334}, {"fusion_lat": 0.0, "name": "79ddf8358b5d5bb80df50d5c59c2b768", "is_disabled": 0, "rental_uris": {"android": "https://dc.lft.to/lastmile_qr_scan", "ios": "https://dc.lft.to/lastmile_qr_scan"}, "fusion_lon": 0.0, "lat": 38.93254533333333, "bike_id": "79ddf8358b5d5bb80df50d5c59c2b768", "type": "electric_scooter", "is_reserved": 0, "lon": -77.03099366666666}, {"fusion_lat": 0.0, "name": "2b100c486b31575a563c044e5049b967", "is_disabled": 0, "rental_uris": {"android": "https://dc.lft.to/lastmile_qr_scan", "ios": "https://dc.lft.to/lastmile_qr_scan"}, "fusion_lon": 0.0, "lat": 38.90453216666667, "bike_id": "2b100c486b31575a563c044e5049b967", "type": "electric_scooter", "is_reserved": 0, "lon": -76.974243}, {"fusion_lat": 0.0, "name": "f8238fe4adc6f4f5234be28d7fd0624c", "is_disabled": 0, "rental_uris": {"android": "https://dc.lft.to/lastmile_qr_scan", "ios": "https://dc.lft.to/lastmile_qr_scan"}, "fusion_lon": 0.0, "lat": 38.8990265, "bike_id": "f8238fe4adc6f4f5234be28d7fd0624c", "type": "electric_scooter", "is_reserved": 0, "lon": -77.039171}, {"fusion_lat": 0.0, "name": "2eafc2fc3a2dc7dd5a73b6ac2c7c67e9", "is_disabled": 0, "rental_uris": {"android": "https://dc.lft.to/lastmile_qr_scan", "ios": "https://dc.lft.to/lastmile_qr_scan"}, "fusion_lon": 0.0, "lat": 38.928768166666664, "bike_id": "2eafc2fc3a2dc7dd5a73b6ac2c7c67e9", "type": "electric_scooter", "is_reserved": 0, "lon": -77.03213033333333}, {"fusion_lat": 0.0, "name": "71bcbf9707ba2009ba6c7187209922be", "is_disabled": 0, "rental_uris": {"android": "https://dc.lft.to/lastmile_qr_scan", "ios": "https://dc.lft.to/lastmile_qr_scan"}, "fusion_lon": 0.0, "lat": 38.924968, "bike_id": "71bcbf9707ba2009ba6c7187209922be", "type": "electric_scooter", "is_reserved": 0, "lon": -77.0510395}, {"fusion_lat": 0.0, "name": "d18c6150471c20d4737db5549c7c31d9", "is_disabled": 0, "rental_uris": {"android": "https://dc.lft.to/lastmile_qr_scan", "ios": "https://dc.lft.to/lastmile_qr_scan"}, "fusion_lon": 0.0, "lat": 38.9182475, "bike_id": "d18c6150471c20d4737db5549c7c31d9", "type": "electric_scooter", "is_reserved": 0, "lon": -77.041726}, {"fusion_lat": 0.0, "name": "ee521b87cb6208a896b21c729027418d", "is_disabled": 0, "rental_uris": {"android": "https://dc.lft.to/lastmile_qr_scan", "ios": "https://dc.lft.to/lastmile_qr_scan"}, "fusion_lon": 0.0, "lat": 38.88952883333333, "bike_id": "ee521b87cb6208a896b21c729027418d", "type": "electric_bike", "is_reserved": 0, "lon": -77.07645466666666}, {"fusion_lat": 0.0, "name": "b68eb7cdd3c851fe7b74b77ac85885fd", "is_disabled": 0, "rental_uris": {"android": "https://dc.lft.to/lastmile_qr_scan", "ios": "https://dc.lft.to/lastmile_qr_scan"}, "fusion_lon": 0.0, "lat": 38.933974, "bike_id": "b68eb7cdd3c851fe7b74b77ac85885fd", "type": "electric_scooter", "is_reserved": 0, "lon": -77.05769016666666}, {"fusion_lat": 0.0, "name": "42a9dec9ea825363f26bf70e95128098", "is_disabled": 0, "rental_uris": {"android": "https://dc.lft.to/lastmile_qr_scan", "ios": "https://dc.lft.to/lastmile_qr_scan"}, "fusion_lon": 0.0, "lat": 38.92415716666667, "bike_id": "42a9dec9ea825363f26bf70e95128098", "type": "electric_scooter", "is_reserved": 0, "lon": -77.02274483333333}, {"fusion_lat": 0.0, "name": "3f75f5a14ec61fec4dbd398cdd8acaa3", "is_disabled": 0, "rental_uris": {"android": "https://dc.lft.to/lastmile_qr_scan", "ios": "https://dc.lft.to/lastmile_qr_scan"}, "fusion_lon": 0.0, "lat": 38.892212666666666, "bike_id": "3f75f5a14ec61fec4dbd398cdd8acaa3", "type": "electric_scooter", "is_reserved": 0, "lon": -77.04309916666666}, {"fusion_lat": 0.0, "name": "abd0c1be97b3fcc60a139af7dca8fa73", "is_disabled": 0, "rental_uris": {"android": "https://dc.lft.to/lastmile_qr_scan", "ios": "https://dc.lft.to/lastmile_qr_scan"}, "fusion_lon": 0.0, "lat": 38.89663316666667, "bike_id": "abd0c1be97b3fcc60a139af7dca8fa73", "type": "electric_scooter", "is_reserved": 0, "lon": -77.050883}, {"fusion_lat": 0.0, "name": "1c6cd1dbea75768b61c12ae49b3868ee", "is_disabled": 0, "rental_uris": {"android": "https://dc.lft.to/lastmile_qr_scan", "ios": "https://dc.lft.to/lastmile_qr_scan"}, "fusion_lon": 0.0, "lat": 38.97258216666667, "bike_id": "1c6cd1dbea75768b61c12ae49b3868ee", "type": "electric_bike", "is_reserved": 0, "lon": -76.9927455}, {"fusion_lat": 0.0, "name": "53cc01589dbe9c67ef2fb7fb09dc5615", "is_disabled": 0, "rental_uris": {"android": "https://dc.lft.to/lastmile_qr_scan", "ios": "https://dc.lft.to/lastmile_qr_scan"}, "fusion_lon": 0.0, "lat": 38.906794833333336, "bike_id": "53cc01589dbe9c67ef2fb7fb09dc5615", "type": "electric_scooter", "is_reserved": 0, "lon": -77.07512966666667}, {"fusion_lat": 0.0, "name": "2faea9a3f55ea798a0d21943d990eb18", "is_disabled": 0, "rental_uris": {"android": "https://dc.lft.to/lastmile_qr_scan", "ios": "https://dc.lft.to/lastmile_qr_scan"}, "fusion_lon": 0.0, "lat": 38.923236333333335, "bike_id": "2faea9a3f55ea798a0d21943d990eb18", "type": "electric_scooter", "is_reserved": 0, "lon": -77.029709}, {"fusion_lat": 0.0, "name": "50e270cf68affd31d79038f6de9d12a9", "is_disabled": 0, "rental_uris": {"android": "https://dc.lft.to/lastmile_qr_scan", "ios": "https://dc.lft.to/lastmile_qr_scan"}, "fusion_lon": 0.0, "lat": 38.883183, "bike_id": "50e270cf68affd31d79038f6de9d12a9", "type": "electric_scooter", "is_reserved": 0, "lon": -77.01379916666667}, {"fusion_lat": 0.0, "name": "c31449146b373c2a2d8c622b44b35397", "is_disabled": 0, "rental_uris": {"android": "https://dc.lft.to/lastmile_qr_scan", "ios": "https://dc.lft.to/lastmile_qr_scan"}, "fusion_lon": 0.0, "lat": 38.92445683333333, "bike_id": "c31449146b373c2a2d8c622b44b35397", "type": "electric_scooter", "is_reserved": 0, "lon": -77.00877466666667}, {"fusion_lat": 0.0, "name": "0d12013efa40078c142f70cc0263190c", "is_disabled": 0, "rental_uris": {"android": "https://dc.lft.to/lastmile_qr_scan", "ios": "https://dc.lft.to/lastmile_qr_scan"}, "fusion_lon": 0.0, "lat": 39.034236666666665, "bike_id": "0d12013efa40078c142f70cc0263190c", "type": "electric_bike", "is_reserved": 0, "lon": -77.0430465}, {"fusion_lat": 0.0, "name": "d550d65a68a633d5f33da24a435fb5f4", "is_disabled": 0, "rental_uris": {"android": "https://dc.lft.to/lastmile_qr_scan", "ios": "https://dc.lft.to/lastmile_qr_scan"}, "fusion_lon": 0.0, "lat": 38.89472933333333, "bike_id": "d550d65a68a633d5f33da24a435fb5f4", "type": "electric_scooter", "is_reserved": 0, "lon": -77.02694216666667}, {"fusion_lat": 0.0, "name": "559ab48ab24d3729bf97724a7b96dd79", "is_disabled": 0, "rental_uris": {"android": "https://dc.lft.to/lastmile_qr_scan", "ios": "https://dc.lft.to/lastmile_qr_scan"}, "fusion_lon": 0.0, "lat": 38.906931166666666, "bike_id": "559ab48ab24d3729bf97724a7b96dd79", "type": "electric_scooter", "is_reserved": 0, "lon": -77.0238095}, {"fusion_lat": 0.0, "name": "30c25193c806eab4c4191aa9dcc3c73c", "is_disabled": 0, "rental_uris": {"android": "https://dc.lft.to/lastmile_qr_scan", "ios": "https://dc.lft.to/lastmile_qr_scan"}, "fusion_lon": 0.0, "lat": 38.9168625, "bike_id": "30c25193c806eab4c4191aa9dcc3c73c", "type": "electric_scooter", "is_reserved": 0, "lon": -77.02319516666667}, {"fusion_lat": 0.0, "name": "fe2c9c2d4995ea2275ac002a361bd318", "is_disabled": 0, "rental_uris": {"android": "https://dc.lft.to/lastmile_qr_scan", "ios": "https://dc.lft.to/lastmile_qr_scan"}, "fusion_lon": 0.0, "lat": 38.91742633333333, "bike_id": "fe2c9c2d4995ea2275ac002a361bd318", "type": "electric_scooter", "is_reserved": 0, "lon": -77.02112616666666}, {"fusion_lat": 0.0, "name": "4f5ec668c7f7861a4a6ffbae524007d5", "is_disabled": 0, "rental_uris": {"android": "https://dc.lft.to/lastmile_qr_scan", "ios": "https://dc.lft.to/lastmile_qr_scan"}, "fusion_lon": 0.0, "lat": 38.916815666666665, "bike_id": "4f5ec668c7f7861a4a6ffbae524007d5", "type": "electric_scooter", "is_reserved": 0, "lon": -77.02327866666667}, {"fusion_lat": 0.0, "name": "81e5256edb8c7bb007835bc031c8e31d", "is_disabled": 0, "rental_uris": {"android": "https://dc.lft.to/lastmile_qr_scan", "ios": "https://dc.lft.to/lastmile_qr_scan"}, "fusion_lon": 0.0, "lat": 38.865088166666666, "bike_id": "81e5256edb8c7bb007835bc031c8e31d", "type": "electric_scooter", "is_reserved": 0, "lon": -76.99003833333333}, {"fusion_lat": 0.0, "name": "e89e1333b11b3c8fb23ec7b3bac1acea", "is_disabled": 0, "rental_uris": {"android": "https://dc.lft.to/lastmile_qr_scan", "ios": "https://dc.lft.to/lastmile_qr_scan"}, "fusion_lon": 0.0, "lat": 38.9288585, "bike_id": "e89e1333b11b3c8fb23ec7b3bac1acea", "type": "electric_scooter", "is_reserved": 0, "lon": -77.0230785}, {"fusion_lat": 0.0, "name": "8bd57a469dfa8e8e6f27f56fef28a505", "is_disabled": 0, "rental_uris": {"android": "https://dc.lft.to/lastmile_qr_scan", "ios": "https://dc.lft.to/lastmile_qr_scan"}, "fusion_lon": 0.0, "lat": 38.912939333333334, "bike_id": "8bd57a469dfa8e8e6f27f56fef28a505", "type": "electric_scooter", "is_reserved": 0, "lon": -77.03216216666667}, {"fusion_lat": 0.0, "name": "933e233c905409f26433bbe46f7025ae", "is_disabled": 0, "rental_uris": {"android": "https://dc.lft.to/lastmile_qr_scan", "ios": "https://dc.lft.to/lastmile_qr_scan"}, "fusion_lon": 0.0, "lat": 38.897197166666665, "bike_id": "933e233c905409f26433bbe46f7025ae", "type": "electric_scooter", "is_reserved": 0, "lon": -77.00795983333333}, {"fusion_lat": 0.0, "name": "121ed6f67cd4ea6007c888791dbd012a", "is_disabled": 0, "rental_uris": {"android": "https://dc.lft.to/lastmile_qr_scan", "ios": "https://dc.lft.to/lastmile_qr_scan"}, "fusion_lon": 0.0, "lat": 38.881838333333334, "bike_id": "121ed6f67cd4ea6007c888791dbd012a", "type": "electric_scooter", "is_reserved": 0, "lon": -77.02810333333333}, {"fusion_lat": 0.0, "name": "8fa97d74ceb4b1a095f93dabb8b706e2", "is_disabled": 0, "rental_uris": {"android": "https://dc.lft.to/lastmile_qr_scan", "ios": "https://dc.lft.to/lastmile_qr_scan"}, "fusion_lon": 0.0, "lat": 38.90021816666667, "bike_id": "8fa97d74ceb4b1a095f93dabb8b706e2", "type": "electric_scooter", "is_reserved": 0, "lon": -77.00211366666667}, {"fusion_lat": 0.0, "name": "c56848a69a88f0e68a6eb5d1405a0c21", "is_disabled": 0, "rental_uris": {"android": "https://dc.lft.to/lastmile_qr_scan", "ios": "https://dc.lft.to/lastmile_qr_scan"}, "fusion_lon": 0.0, "lat": 38.921045, "bike_id": "c56848a69a88f0e68a6eb5d1405a0c21", "type": "electric_scooter", "is_reserved": 0, "lon": -77.0747275}, {"fusion_lat": 0.0, "name": "41d34a573fd1665143317e5e6b512db9", "is_disabled": 0, "rental_uris": {"android": "https://dc.lft.to/lastmile_qr_scan", "ios": "https://dc.lft.to/lastmile_qr_scan"}, "fusion_lon": 0.0, "lat": 38.9762985, "bike_id": "41d34a573fd1665143317e5e6b512db9", "type": "electric_scooter", "is_reserved": 0, "lon": -77.01566583333333}, {"fusion_lat": 0.0, "name": "d1b2262dab5d0effb900b9103e4d75fd", "is_disabled": 0, "rental_uris": {"android": "https://dc.lft.to/lastmile_qr_scan", "ios": "https://dc.lft.to/lastmile_qr_scan"}, "fusion_lon": 0.0, "lat": 38.93270783333333, "bike_id": "d1b2262dab5d0effb900b9103e4d75fd", "type": "electric_scooter", "is_reserved": 0, "lon": -77.04531683333333}, {"fusion_lat": 0.0, "name": "442c4d47140b1890c599633b287ae357", "is_disabled": 0, "rental_uris": {"android": "https://dc.lft.to/lastmile_qr_scan", "ios": "https://dc.lft.to/lastmile_qr_scan"}, "fusion_lon": 0.0, "lat": 38.92383066666667, "bike_id": "442c4d47140b1890c599633b287ae357", "type": "electric_scooter", "is_reserved": 0, "lon": -77.05152066666666}, {"fusion_lat": 0.0, "name": "0578e291f7b29bd64bda44993224b952", "is_disabled": 0, "rental_uris": {"android": "https://dc.lft.to/lastmile_qr_scan", "ios": "https://dc.lft.to/lastmile_qr_scan"}, "fusion_lon": 0.0, "lat": 38.9001165, "bike_id": "0578e291f7b29bd64bda44993224b952", "type": "electric_scooter", "is_reserved": 0, "lon": -77.0409875}, {"fusion_lat": 0.0, "name": "49a531335bacf2133daeddf12332159b", "is_disabled": 0, "rental_uris": {"android": "https://dc.lft.to/lastmile_qr_scan", "ios": "https://dc.lft.to/lastmile_qr_scan"}, "fusion_lon": 0.0, "lat": 38.97538683333333, "bike_id": "49a531335bacf2133daeddf12332159b", "type": "electric_scooter", "is_reserved": 0, "lon": -77.01445916666667}, {"fusion_lat": 0.0, "name": "efb3e19a11b737237368ca3c07e4eab8", "is_disabled": 0, "rental_uris": {"android": "https://dc.lft.to/lastmile_qr_scan", "ios": "https://dc.lft.to/lastmile_qr_scan"}, "fusion_lon": 0.0, "lat": 38.897144, "bike_id": "efb3e19a11b737237368ca3c07e4eab8", "type": "electric_scooter", "is_reserved": 0, "lon": -77.00807233333333}, {"fusion_lat": 0.0, "name": "ba11d3ea1ce816d266ae6debe470c0c2", "is_disabled": 0, "rental_uris": {"android": "https://dc.lft.to/lastmile_qr_scan", "ios": "https://dc.lft.to/lastmile_qr_scan"}, "fusion_lon": 0.0, "lat": 38.90280833333333, "bike_id": "ba11d3ea1ce816d266ae6debe470c0c2", "type": "electric_scooter", "is_reserved": 0, "lon": -77.023097}, {"fusion_lat": 0.0, "name": "0c874e2a1a0451284599498a9628321d", "is_disabled": 0, "rental_uris": {"android": "https://dc.lft.to/lastmile_qr_scan", "ios": "https://dc.lft.to/lastmile_qr_scan"}, "fusion_lon": 0.0, "lat": 38.94408716666667, "bike_id": "0c874e2a1a0451284599498a9628321d", "type": "electric_scooter", "is_reserved": 0, "lon": -77.03204583333333}, {"fusion_lat": 0.0, "name": "a845750dab8d38469ad0645a2afb0e61", "is_disabled": 0, "rental_uris": {"android": "https://dc.lft.to/lastmile_qr_scan", "ios": "https://dc.lft.to/lastmile_qr_scan"}, "fusion_lon": 0.0, "lat": 38.92970016666666, "bike_id": "a845750dab8d38469ad0645a2afb0e61", "type": "electric_scooter", "is_reserved": 0, "lon": -77.03097133333333}, {"fusion_lat": 0.0, "name": "1dcf4d9977154e87ace8ff87009715cd", "is_disabled": 0, "rental_uris": {"android": "https://dc.lft.to/lastmile_qr_scan", "ios": "https://dc.lft.to/lastmile_qr_scan"}, "fusion_lon": 0.0, "lat": 38.90677433333333, "bike_id": "1dcf4d9977154e87ace8ff87009715cd", "type": "electric_scooter", "is_reserved": 0, "lon": -77.04735033333333}, {"fusion_lat": 0.0, "name": "9364b69d68639043dbd7a0d28389736e", "is_disabled": 0, "rental_uris": {"android": "https://dc.lft.to/lastmile_qr_scan", "ios": "https://dc.lft.to/lastmile_qr_scan"}, "fusion_lon": 0.0, "lat": 38.878990333333334, "bike_id": "9364b69d68639043dbd7a0d28389736e", "type": "electric_scooter", "is_reserved": 0, "lon": -77.013595}, {"fusion_lat": 0.0, "name": "4f1a296535a3030f4176d1975400a6a7", "is_disabled": 0, "rental_uris": {"android": "https://dc.lft.to/lastmile_qr_scan", "ios": "https://dc.lft.to/lastmile_qr_scan"}, "fusion_lon": 0.0, "lat": 38.89498866666667, "bike_id": "4f1a296535a3030f4176d1975400a6a7", "type": "electric_scooter", "is_reserved": 0, "lon": -77.00209483333333}, {"fusion_lat": 0.0, "name": "f33871b6da34e7d9fc36f67cb234c80a", "is_disabled": 0, "rental_uris": {"android": "https://dc.lft.to/lastmile_qr_scan", "ios": "https://dc.lft.to/lastmile_qr_scan"}, "fusion_lon": 0.0, "lat": 38.9170635, "bike_id": "f33871b6da34e7d9fc36f67cb234c80a", "type": "electric_scooter", "is_reserved": 0, "lon": -77.04207916666667}, {"fusion_lat": 0.0, "name": "c186b2dfd7614aff7e81f7d9ee27cbed", "is_disabled": 0, "rental_uris": {"android": "https://dc.lft.to/lastmile_qr_scan", "ios": "https://dc.lft.to/lastmile_qr_scan"}, "fusion_lon": 0.0, "lat": 38.892232, "bike_id": "c186b2dfd7614aff7e81f7d9ee27cbed", "type": "electric_scooter", "is_reserved": 0, "lon": -77.04803}, {"fusion_lat": 0.0, "name": "188b564dd6ef6311945c9f09691aeaf2", "is_disabled": 0, "rental_uris": {"android": "https://dc.lft.to/lastmile_qr_scan", "ios": "https://dc.lft.to/lastmile_qr_scan"}, "fusion_lon": 0.0, "lat": 38.926083, "bike_id": "188b564dd6ef6311945c9f09691aeaf2", "type": "electric_scooter", "is_reserved": 0, "lon": -77.05713433333334}, {"fusion_lat": 0.0, "name": "46419d406619439c90cd25c681b1ce22", "is_disabled": 0, "rental_uris": {"android": "https://dc.lft.to/lastmile_qr_scan", "ios": "https://dc.lft.to/lastmile_qr_scan"}, "fusion_lon": 0.0, "lat": 38.91822483333333, "bike_id": "46419d406619439c90cd25c681b1ce22", "type": "electric_scooter", "is_reserved": 0, "lon": -77.02716033333333}, {"fusion_lat": 0.0, "name": "2f5bd32720fc5fe085635a0e13acfdee", "is_disabled": 0, "rental_uris": {"android": "https://dc.lft.to/lastmile_qr_scan", "ios": "https://dc.lft.to/lastmile_qr_scan"}, "fusion_lon": 0.0, "lat": 38.8766875, "bike_id": "2f5bd32720fc5fe085635a0e13acfdee", "type": "electric_scooter", "is_reserved": 0, "lon": -77.005193}, {"fusion_lat": 0.0, "name": "62d10ee781cfdc3c3737a9161481b799", "is_disabled": 0, "rental_uris": {"android": "https://dc.lft.to/lastmile_qr_scan", "ios": "https://dc.lft.to/lastmile_qr_scan"}, "fusion_lon": 0.0, "lat": 38.93580683333333, "bike_id": "62d10ee781cfdc3c3737a9161481b799", "type": "electric_scooter", "is_reserved": 0, "lon": -77.0335945}, {"fusion_lat": 0.0, "name": "ac5fc0b30719f5726751242e48b6508d", "is_disabled": 0, "rental_uris": {"android": "https://dc.lft.to/lastmile_qr_scan", "ios": "https://dc.lft.to/lastmile_qr_scan"}, "fusion_lon": 0.0, "lat": 38.88637833333333, "bike_id": "ac5fc0b30719f5726751242e48b6508d", "type": "electric_scooter", "is_reserved": 0, "lon": -77.01541683333333}, {"fusion_lat": 0.0, "name": "46edee3784fc8e97305d41a881d5851c", "is_disabled": 0, "rental_uris": {"android": "https://dc.lft.to/lastmile_qr_scan", "ios": "https://dc.lft.to/lastmile_qr_scan"}, "fusion_lon": 0.0, "lat": 38.901352833333334, "bike_id": "46edee3784fc8e97305d41a881d5851c", "type": "electric_scooter", "is_reserved": 0, "lon": -77.03919733333333}, {"fusion_lat": 0.0, "name": "eac92743692f924d2c35c1ce503c7d17", "is_disabled": 0, "rental_uris": {"android": "https://dc.lft.to/lastmile_qr_scan", "ios": "https://dc.lft.to/lastmile_qr_scan"}, "fusion_lon": 0.0, "lat": 38.905746, "bike_id": "eac92743692f924d2c35c1ce503c7d17", "type": "electric_scooter", "is_reserved": 0, "lon": -77.00585383333333}, {"fusion_lat": 0.0, "name": "c51ffdf1241cb1743a8882f36f14b7f5", "is_disabled": 0, "rental_uris": {"android": "https://dc.lft.to/lastmile_qr_scan", "ios": "https://dc.lft.to/lastmile_qr_scan"}, "fusion_lon": 0.0, "lat": 38.89746916666667, "bike_id": "c51ffdf1241cb1743a8882f36f14b7f5", "type": "electric_scooter", "is_reserved": 0, "lon": -77.04527083333333}, {"fusion_lat": 0.0, "name": "f7c31fe1aa74712d4f4e87049e22ff50", "is_disabled": 0, "rental_uris": {"android": "https://dc.lft.to/lastmile_qr_scan", "ios": "https://dc.lft.to/lastmile_qr_scan"}, "fusion_lon": 0.0, "lat": 38.908824, "bike_id": "f7c31fe1aa74712d4f4e87049e22ff50", "type": "electric_scooter", "is_reserved": 0, "lon": -77.06429366666667}, {"fusion_lat": 0.0, "name": "78ca6a2dc5aee65d3711723bc3f7835b", "is_disabled": 0, "rental_uris": {"android": "https://dc.lft.to/lastmile_qr_scan", "ios": "https://dc.lft.to/lastmile_qr_scan"}, "fusion_lon": 0.0, "lat": 38.923186666666666, "bike_id": "78ca6a2dc5aee65d3711723bc3f7835b", "type": "electric_scooter", "is_reserved": 0, "lon": -77.04396916666667}, {"fusion_lat": 0.0, "name": "596442267d1940468a8341d16d7225f8", "is_disabled": 0, "rental_uris": {"android": "https://dc.lft.to/lastmile_qr_scan", "ios": "https://dc.lft.to/lastmile_qr_scan"}, "fusion_lon": 0.0, "lat": 38.91418133333333, "bike_id": "596442267d1940468a8341d16d7225f8", "type": "electric_scooter", "is_reserved": 0, "lon": -77.03172066666667}, {"fusion_lat": 0.0, "name": "767a40efb6055946a0c3a004c3f674bf", "is_disabled": 0, "rental_uris": {"android": "https://dc.lft.to/lastmile_qr_scan", "ios": "https://dc.lft.to/lastmile_qr_scan"}, "fusion_lon": 0.0, "lat": 38.949031166666664, "bike_id": "767a40efb6055946a0c3a004c3f674bf", "type": "electric_bike", "is_reserved": 0, "lon": -76.96364333333334}, {"fusion_lat": 0.0, "name": "9116aa941d5c9eb1596a60f10b56100c", "is_disabled": 0, "rental_uris": {"android": "https://dc.lft.to/lastmile_qr_scan", "ios": "https://dc.lft.to/lastmile_qr_scan"}, "fusion_lon": 0.0, "lat": 38.899730166666664, "bike_id": "9116aa941d5c9eb1596a60f10b56100c", "type": "electric_scooter", "is_reserved": 0, "lon": -77.019091}, {"fusion_lat": 0.0, "name": "083e04059db200a23a865eaed5f89757", "is_disabled": 0, "rental_uris": {"android": "https://dc.lft.to/lastmile_qr_scan", "ios": "https://dc.lft.to/lastmile_qr_scan"}, "fusion_lon": 0.0, "lat": 38.94084683333333, "bike_id": "083e04059db200a23a865eaed5f89757", "type": "electric_scooter", "is_reserved": 0, "lon": -77.06182716666666}, {"fusion_lat": 0.0, "name": "f5a357bee7848a99dc74f77c899538ed", "is_disabled": 0, "rental_uris": {"android": "https://dc.lft.to/lastmile_qr_scan", "ios": "https://dc.lft.to/lastmile_qr_scan"}, "fusion_lon": 0.0, "lat": 38.883920333333336, "bike_id": "f5a357bee7848a99dc74f77c899538ed", "type": "electric_scooter", "is_reserved": 0, "lon": -76.93049166666667}, {"fusion_lat": 0.0, "name": "fe235344cdfb9f28bdf573e8cb47210c", "is_disabled": 0, "rental_uris": {"android": "https://dc.lft.to/lastmile_qr_scan", "ios": "https://dc.lft.to/lastmile_qr_scan"}, "fusion_lon": 0.0, "lat": 38.916912333333336, "bike_id": "fe235344cdfb9f28bdf573e8cb47210c", "type": "electric_scooter", "is_reserved": 0, "lon": -77.0282735}, {"fusion_lat": 0.0, "name": "e60ef06ca42c2c5afceedee10dfc76f1", "is_disabled": 0, "rental_uris": {"android": "https://dc.lft.to/lastmile_qr_scan", "ios": "https://dc.lft.to/lastmile_qr_scan"}, "fusion_lon": 0.0, "lat": 38.93056933333333, "bike_id": "e60ef06ca42c2c5afceedee10dfc76f1", "type": "electric_scooter", "is_reserved": 0, "lon": -77.023228}, {"fusion_lat": 0.0, "name": "6d427e87e190081f24dd8363aa452277", "is_disabled": 0, "rental_uris": {"android": "https://dc.lft.to/lastmile_qr_scan", "ios": "https://dc.lft.to/lastmile_qr_scan"}, "fusion_lon": 0.0, "lat": 38.95634833333333, "bike_id": "6d427e87e190081f24dd8363aa452277", "type": "electric_scooter", "is_reserved": 0, "lon": -77.033064}, {"fusion_lat": 0.0, "name": "646889a9b21b9106b8d61b07636ddf13", "is_disabled": 0, "rental_uris": {"android": "https://dc.lft.to/lastmile_qr_scan", "ios": "https://dc.lft.to/lastmile_qr_scan"}, "fusion_lon": 0.0, "lat": 38.9177885, "bike_id": "646889a9b21b9106b8d61b07636ddf13", "type": "electric_scooter", "is_reserved": 0, "lon": -77.041029}, {"fusion_lat": 0.0, "name": "824bdceb8425da673ce07e0cccda7bae", "is_disabled": 0, "rental_uris": {"android": "https://dc.lft.to/lastmile_qr_scan", "ios": "https://dc.lft.to/lastmile_qr_scan"}, "fusion_lon": 0.0, "lat": 38.930928, "bike_id": "824bdceb8425da673ce07e0cccda7bae", "type": "electric_scooter", "is_reserved": 0, "lon": -77.02548016666667}, {"fusion_lat": 0.0, "name": "7756587f6b3dd108b44f6032c6498c49", "is_disabled": 0, "rental_uris": {"android": "https://dc.lft.to/lastmile_qr_scan", "ios": "https://dc.lft.to/lastmile_qr_scan"}, "fusion_lon": 0.0, "lat": 38.8983175, "bike_id": "7756587f6b3dd108b44f6032c6498c49", "type": "electric_scooter", "is_reserved": 0, "lon": -77.031542}, {"fusion_lat": 0.0, "name": "3d2417903cb02b4839b0160377304c73", "is_disabled": 0, "rental_uris": {"android": "https://dc.lft.to/lastmile_qr_scan", "ios": "https://dc.lft.to/lastmile_qr_scan"}, "fusion_lon": 0.0, "lat": 38.895522666666665, "bike_id": "3d2417903cb02b4839b0160377304c73", "type": "electric_scooter", "is_reserved": 0, "lon": -77.02996833333333}, {"fusion_lat": 0.0, "name": "7b72a6d52d34b8528ba03979c2769b21", "is_disabled": 0, "rental_uris": {"android": "https://dc.lft.to/lastmile_qr_scan", "ios": "https://dc.lft.to/lastmile_qr_scan"}, "fusion_lon": 0.0, "lat": 38.90052716666667, "bike_id": "7b72a6d52d34b8528ba03979c2769b21", "type": "electric_scooter", "is_reserved": 0, "lon": -77.01182666666666}, {"fusion_lat": 0.0, "name": "a1c9815e040dee981e2db5e809da01c5", "is_disabled": 0, "rental_uris": {"android": "https://dc.lft.to/lastmile_qr_scan", "ios": "https://dc.lft.to/lastmile_qr_scan"}, "fusion_lon": 0.0, "lat": 38.887338666666665, "bike_id": "a1c9815e040dee981e2db5e809da01c5", "type": "electric_scooter", "is_reserved": 0, "lon": -77.025851}, {"fusion_lat": 0.0, "name": "6d80c08f05891503ac84af22182a05af", "is_disabled": 0, "rental_uris": {"android": "https://dc.lft.to/lastmile_qr_scan", "ios": "https://dc.lft.to/lastmile_qr_scan"}, "fusion_lon": 0.0, "lat": 38.884798833333335, "bike_id": "6d80c08f05891503ac84af22182a05af", "type": "electric_scooter", "is_reserved": 0, "lon": -77.020785}, {"fusion_lat": 0.0, "name": "aa7df872a666c520d74bddca42837a14", "is_disabled": 0, "rental_uris": {"android": "https://dc.lft.to/lastmile_qr_scan", "ios": "https://dc.lft.to/lastmile_qr_scan"}, "fusion_lon": 0.0, "lat": 38.883322666666665, "bike_id": "aa7df872a666c520d74bddca42837a14", "type": "electric_scooter", "is_reserved": 0, "lon": -77.01774483333334}, {"fusion_lat": 0.0, "name": "9705d2a69589aa0a1018da075181a12a", "is_disabled": 0, "rental_uris": {"android": "https://dc.lft.to/lastmile_qr_scan", "ios": "https://dc.lft.to/lastmile_qr_scan"}, "fusion_lon": 0.0, "lat": 38.91701966666667, "bike_id": "9705d2a69589aa0a1018da075181a12a", "type": "electric_scooter", "is_reserved": 0, "lon": -77.03323416666667}, {"fusion_lat": 0.0, "name": "5b4a9a0bb499243a36952772ab9e1079", "is_disabled": 0, "rental_uris": {"android": "https://dc.lft.to/lastmile_qr_scan", "ios": "https://dc.lft.to/lastmile_qr_scan"}, "fusion_lon": 0.0, "lat": 38.92383016666667, "bike_id": "5b4a9a0bb499243a36952772ab9e1079", "type": "electric_scooter", "is_reserved": 0, "lon": -77.0313235}, {"fusion_lat": 0.0, "name": "6b6682dfee26899c30e5eb2d9e44c0d0", "is_disabled": 0, "rental_uris": {"android": "https://dc.lft.to/lastmile_qr_scan", "ios": "https://dc.lft.to/lastmile_qr_scan"}, "fusion_lon": 0.0, "lat": 38.89874483333333, "bike_id": "6b6682dfee26899c30e5eb2d9e44c0d0", "type": "electric_scooter", "is_reserved": 0, "lon": -77.0393525}, {"fusion_lat": 0.0, "name": "f92e5a11ce604ef772fbcdf423139c0d", "is_disabled": 0, "rental_uris": {"android": "https://dc.lft.to/lastmile_qr_scan", "ios": "https://dc.lft.to/lastmile_qr_scan"}, "fusion_lon": 0.0, "lat": 38.905943666666666, "bike_id": "f92e5a11ce604ef772fbcdf423139c0d", "type": "electric_scooter", "is_reserved": 0, "lon": -77.00581583333333}, {"fusion_lat": 0.0, "name": "255b05c9908f09311fe208e72ae7d906", "is_disabled": 0, "rental_uris": {"android": "https://dc.lft.to/lastmile_qr_scan", "ios": "https://dc.lft.to/lastmile_qr_scan"}, "fusion_lon": 0.0, "lat": 38.91852566666667, "bike_id": "255b05c9908f09311fe208e72ae7d906", "type": "electric_scooter", "is_reserved": 0, "lon": -77.03522966666667}, {"fusion_lat": 0.0, "name": "41fa5679624b1257915cba1883325d38", "is_disabled": 0, "rental_uris": {"android": "https://dc.lft.to/lastmile_qr_scan", "ios": "https://dc.lft.to/lastmile_qr_scan"}, "fusion_lon": 0.0, "lat": 38.913175, "bike_id": "41fa5679624b1257915cba1883325d38", "type": "electric_scooter", "is_reserved": 0, "lon": -77.0151645}, {"fusion_lat": 0.0, "name": "4c51ac4951f5190f104e94ec85426e59", "is_disabled": 0, "rental_uris": {"android": "https://dc.lft.to/lastmile_qr_scan", "ios": "https://dc.lft.to/lastmile_qr_scan"}, "fusion_lon": 0.0, "lat": 38.916998666666665, "bike_id": "4c51ac4951f5190f104e94ec85426e59", "type": "electric_scooter", "is_reserved": 0, "lon": -77.02290266666667}, {"fusion_lat": 0.0, "name": "9aa332e23ce32a35b82262ef328cc36f", "is_disabled": 0, "rental_uris": {"android": "https://dc.lft.to/lastmile_qr_scan", "ios": "https://dc.lft.to/lastmile_qr_scan"}, "fusion_lon": 0.0, "lat": 38.930256, "bike_id": "9aa332e23ce32a35b82262ef328cc36f", "type": "electric_scooter", "is_reserved": 0, "lon": -77.03284666666667}, {"fusion_lat": 0.0, "name": "817490338903d63c894ad99fc4907fef", "is_disabled": 0, "rental_uris": {"android": "https://dc.lft.to/lastmile_qr_scan", "ios": "https://dc.lft.to/lastmile_qr_scan"}, "fusion_lon": 0.0, "lat": 38.9154755, "bike_id": "817490338903d63c894ad99fc4907fef", "type": "electric_scooter", "is_reserved": 0, "lon": -77.0417525}, {"fusion_lat": 0.0, "name": "b4d55e4df84480ae033e1b05c5717658", "is_disabled": 0, "rental_uris": {"android": "https://dc.lft.to/lastmile_qr_scan", "ios": "https://dc.lft.to/lastmile_qr_scan"}, "fusion_lon": 0.0, "lat": 38.89250783333333, "bike_id": "b4d55e4df84480ae033e1b05c5717658", "type": "electric_scooter", "is_reserved": 0, "lon": -77.04655983333333}, {"fusion_lat": 0.0, "name": "bcfbb6b6242b9db942a41d2e9eadb6b0", "is_disabled": 0, "rental_uris": {"android": "https://dc.lft.to/lastmile_qr_scan", "ios": "https://dc.lft.to/lastmile_qr_scan"}, "fusion_lon": 0.0, "lat": 38.904103166666665, "bike_id": "bcfbb6b6242b9db942a41d2e9eadb6b0", "type": "electric_scooter", "is_reserved": 0, "lon": -76.973304}, {"fusion_lat": 0.0, "name": "afc7f789daf5d6ecda262a8a72289523", "is_disabled": 0, "rental_uris": {"android": "https://dc.lft.to/lastmile_qr_scan", "ios": "https://dc.lft.to/lastmile_qr_scan"}, "fusion_lon": 0.0, "lat": 38.9072095, "bike_id": "afc7f789daf5d6ecda262a8a72289523", "type": "electric_scooter", "is_reserved": 0, "lon": -77.03348416666667}, {"fusion_lat": 0.0, "name": "4ab960f8c1719fe74d683dcf92f64154", "is_disabled": 0, "rental_uris": {"android": "https://dc.lft.to/lastmile_qr_scan", "ios": "https://dc.lft.to/lastmile_qr_scan"}, "fusion_lon": 0.0, "lat": 38.90252, "bike_id": "4ab960f8c1719fe74d683dcf92f64154", "type": "electric_scooter", "is_reserved": 0, "lon": -76.97456566666666}, {"fusion_lat": 0.0, "name": "1257b61dd3d50935dcc058d7e4ef0779", "is_disabled": 0, "rental_uris": {"android": "https://dc.lft.to/lastmile_qr_scan", "ios": "https://dc.lft.to/lastmile_qr_scan"}, "fusion_lon": 0.0, "lat": 38.941891166666665, "bike_id": "1257b61dd3d50935dcc058d7e4ef0779", "type": "electric_scooter", "is_reserved": 0, "lon": -77.02405216666666}, {"fusion_lat": 0.0, "name": "02d24b73a9abc8b37930562da5e33a92", "is_disabled": 0, "rental_uris": {"android": "https://dc.lft.to/lastmile_qr_scan", "ios": "https://dc.lft.to/lastmile_qr_scan"}, "fusion_lon": 0.0, "lat": 38.861397, "bike_id": "02d24b73a9abc8b37930562da5e33a92", "type": "electric_bike", "is_reserved": 0, "lon": -76.97168366666666}, {"fusion_lat": 0.0, "name": "f7e3b11be1b5048d8d3b30e214b346f2", "is_disabled": 0, "rental_uris": {"android": "https://dc.lft.to/lastmile_qr_scan", "ios": "https://dc.lft.to/lastmile_qr_scan"}, "fusion_lon": 0.0, "lat": 38.912135166666665, "bike_id": "f7e3b11be1b5048d8d3b30e214b346f2", "type": "electric_scooter", "is_reserved": 0, "lon": -77.03842733333333}, {"fusion_lat": 0.0, "name": "d52c842ba8c013dfff6edd43500b1926", "is_disabled": 0, "rental_uris": {"android": "https://dc.lft.to/lastmile_qr_scan", "ios": "https://dc.lft.to/lastmile_qr_scan"}, "fusion_lon": 0.0, "lat": 38.942936, "bike_id": "d52c842ba8c013dfff6edd43500b1926", "type": "electric_scooter", "is_reserved": 0, "lon": -77.02171766666666}, {"fusion_lat": 0.0, "name": "07001a367296fcdfd5643bf81b92bc32", "is_disabled": 0, "rental_uris": {"android": "https://dc.lft.to/lastmile_qr_scan", "ios": "https://dc.lft.to/lastmile_qr_scan"}, "fusion_lon": 0.0, "lat": 38.91226016666667, "bike_id": "07001a367296fcdfd5643bf81b92bc32", "type": "electric_bike", "is_reserved": 0, "lon": -77.02694416666667}, {"fusion_lat": 0.0, "name": "6facddd992b797480f781262ec7a39b8", "is_disabled": 0, "rental_uris": {"android": "https://dc.lft.to/lastmile_qr_scan", "ios": "https://dc.lft.to/lastmile_qr_scan"}, "fusion_lon": 0.0, "lat": 38.902089333333336, "bike_id": "6facddd992b797480f781262ec7a39b8", "type": "electric_scooter", "is_reserved": 0, "lon": -76.9751125}, {"fusion_lat": 0.0, "name": "1650393d305e62b3957856be7a04d756", "is_disabled": 0, "rental_uris": {"android": "https://dc.lft.to/lastmile_qr_scan", "ios": "https://dc.lft.to/lastmile_qr_scan"}, "fusion_lon": 0.0, "lat": 38.926595166666665, "bike_id": "1650393d305e62b3957856be7a04d756", "type": "electric_scooter", "is_reserved": 0, "lon": -77.02424616666667}, {"fusion_lat": 0.0, "name": "32bd6b1b6478889a5d9973082b8eaad2", "is_disabled": 0, "rental_uris": {"android": "https://dc.lft.to/lastmile_qr_scan", "ios": "https://dc.lft.to/lastmile_qr_scan"}, "fusion_lon": 0.0, "lat": 38.8874015, "bike_id": "32bd6b1b6478889a5d9973082b8eaad2", "type": "electric_scooter", "is_reserved": 0, "lon": -77.015304}, {"fusion_lat": 0.0, "name": "12a9538963e103639938ddd3dc1a2958", "is_disabled": 0, "rental_uris": {"android": "https://dc.lft.to/lastmile_qr_scan", "ios": "https://dc.lft.to/lastmile_qr_scan"}, "fusion_lon": 0.0, "lat": 38.894939, "bike_id": "12a9538963e103639938ddd3dc1a2958", "type": "electric_scooter", "is_reserved": 0, "lon": -77.02676566666666}, {"fusion_lat": 0.0, "name": "1828d6704299173504bbe060c5aac15b", "is_disabled": 0, "rental_uris": {"android": "https://dc.lft.to/lastmile_qr_scan", "ios": "https://dc.lft.to/lastmile_qr_scan"}, "fusion_lon": 0.0, "lat": 38.9195875, "bike_id": "1828d6704299173504bbe060c5aac15b", "type": "electric_scooter", "is_reserved": 0, "lon": -77.04172716666666}, {"fusion_lat": 0.0, "name": "a3c88c5de0568e3bf9a6f2d207f55dba", "is_disabled": 0, "rental_uris": {"android": "https://dc.lft.to/lastmile_qr_scan", "ios": "https://dc.lft.to/lastmile_qr_scan"}, "fusion_lon": 0.0, "lat": 38.912036, "bike_id": "a3c88c5de0568e3bf9a6f2d207f55dba", "type": "electric_scooter", "is_reserved": 0, "lon": -77.038325}, {"fusion_lat": 0.0, "name": "9337db61e1712ad4215ec549bee57604", "is_disabled": 0, "rental_uris": {"android": "https://dc.lft.to/lastmile_qr_scan", "ios": "https://dc.lft.to/lastmile_qr_scan"}, "fusion_lon": 0.0, "lat": 38.900150833333335, "bike_id": "9337db61e1712ad4215ec549bee57604", "type": "electric_scooter", "is_reserved": 0, "lon": -76.99890066666667}, {"fusion_lat": 0.0, "name": "2ceeb0ca90d5c3fed640251fb3d8ae2b", "is_disabled": 0, "rental_uris": {"android": "https://dc.lft.to/lastmile_qr_scan", "ios": "https://dc.lft.to/lastmile_qr_scan"}, "fusion_lon": 0.0, "lat": 38.899773333333336, "bike_id": "2ceeb0ca90d5c3fed640251fb3d8ae2b", "type": "electric_scooter", "is_reserved": 0, "lon": -77.0558685}, {"fusion_lat": 0.0, "name": "9c197cef8ef3ba39aadfaa28ae4d7325", "is_disabled": 0, "rental_uris": {"android": "https://dc.lft.to/lastmile_qr_scan", "ios": "https://dc.lft.to/lastmile_qr_scan"}, "fusion_lon": 0.0, "lat": 38.94293283333333, "bike_id": "9c197cef8ef3ba39aadfaa28ae4d7325", "type": "electric_scooter", "is_reserved": 0, "lon": -77.021707}, {"fusion_lat": 0.0, "name": "743f10a20a656813538dc93d2f505a2c", "is_disabled": 0, "rental_uris": {"android": "https://dc.lft.to/lastmile_qr_scan", "ios": "https://dc.lft.to/lastmile_qr_scan"}, "fusion_lon": 0.0, "lat": 38.952223833333335, "bike_id": "743f10a20a656813538dc93d2f505a2c", "type": "electric_scooter", "is_reserved": 0, "lon": -77.08216133333333}, {"fusion_lat": 0.0, "name": "3b170e3a249f9ccbc4b5e9df0f00e8d1", "is_disabled": 0, "rental_uris": {"android": "https://dc.lft.to/lastmile_qr_scan", "ios": "https://dc.lft.to/lastmile_qr_scan"}, "fusion_lon": 0.0, "lat": 38.93866466666667, "bike_id": "3b170e3a249f9ccbc4b5e9df0f00e8d1", "type": "electric_scooter", "is_reserved": 0, "lon": -77.0248605}, {"fusion_lat": 0.0, "name": "6eaa96ed3c8585a0883dff56b5610c0d", "is_disabled": 0, "rental_uris": {"android": "https://dc.lft.to/lastmile_qr_scan", "ios": "https://dc.lft.to/lastmile_qr_scan"}, "fusion_lon": 0.0, "lat": 38.8542285, "bike_id": "6eaa96ed3c8585a0883dff56b5610c0d", "type": "electric_bike", "is_reserved": 0, "lon": -77.12075416666667}, {"fusion_lat": 0.0, "name": "1087b9630ba73abce623a8d36accaf7c", "is_disabled": 0, "rental_uris": {"android": "https://dc.lft.to/lastmile_qr_scan", "ios": "https://dc.lft.to/lastmile_qr_scan"}, "fusion_lon": 0.0, "lat": 38.87950516666667, "bike_id": "1087b9630ba73abce623a8d36accaf7c", "type": "electric_scooter", "is_reserved": 0, "lon": -77.00896066666667}, {"fusion_lat": 0.0, "name": "72301f7f53cdc0ab62a431dd5c13c7d6", "is_disabled": 0, "rental_uris": {"android": "https://dc.lft.to/lastmile_qr_scan", "ios": "https://dc.lft.to/lastmile_qr_scan"}, "fusion_lon": 0.0, "lat": 38.884291166666664, "bike_id": "72301f7f53cdc0ab62a431dd5c13c7d6", "type": "electric_scooter", "is_reserved": 0, "lon": -76.95751416666667}, {"fusion_lat": 0.0, "name": "72b4f59e4f4dff39b286b1d7c68e938f", "is_disabled": 0, "rental_uris": {"android": "https://dc.lft.to/lastmile_qr_scan", "ios": "https://dc.lft.to/lastmile_qr_scan"}, "fusion_lon": 0.0, "lat": 38.892269, "bike_id": "72b4f59e4f4dff39b286b1d7c68e938f", "type": "electric_scooter", "is_reserved": 0, "lon": -77.03314983333334}, {"fusion_lat": 0.0, "name": "664c7f4e5493295c889e460ae9153367", "is_disabled": 0, "rental_uris": {"android": "https://dc.lft.to/lastmile_qr_scan", "ios": "https://dc.lft.to/lastmile_qr_scan"}, "fusion_lon": 0.0, "lat": 38.924172666666664, "bike_id": "664c7f4e5493295c889e460ae9153367", "type": "electric_scooter", "is_reserved": 0, "lon": -76.99717966666667}, {"fusion_lat": 0.0, "name": "0dea6eab22cb6170c2eaeeb6bab4b7de", "is_disabled": 0, "rental_uris": {"android": "https://dc.lft.to/lastmile_qr_scan", "ios": "https://dc.lft.to/lastmile_qr_scan"}, "fusion_lon": 0.0, "lat": 38.88299716666667, "bike_id": "0dea6eab22cb6170c2eaeeb6bab4b7de", "type": "electric_scooter", "is_reserved": 0, "lon": -76.948548}, {"fusion_lat": 0.0, "name": "af84c683b510b6c67f34bd8dba534803", "is_disabled": 0, "rental_uris": {"android": "https://dc.lft.to/lastmile_qr_scan", "ios": "https://dc.lft.to/lastmile_qr_scan"}, "fusion_lon": 0.0, "lat": 38.91997933333333, "bike_id": "af84c683b510b6c67f34bd8dba534803", "type": "electric_scooter", "is_reserved": 0, "lon": -77.07189266666667}, {"fusion_lat": 0.0, "name": "4b497a0dcc7e1450fbad6fe695f7acfb", "is_disabled": 0, "rental_uris": {"android": "https://dc.lft.to/lastmile_qr_scan", "ios": "https://dc.lft.to/lastmile_qr_scan"}, "fusion_lon": 0.0, "lat": 38.899922333333336, "bike_id": "4b497a0dcc7e1450fbad6fe695f7acfb", "type": "electric_scooter", "is_reserved": 0, "lon": -77.03504183333334}, {"fusion_lat": 0.0, "name": "b8af9d33a471cd20f260cc1f5587489f", "is_disabled": 0, "rental_uris": {"android": "https://dc.lft.to/lastmile_qr_scan", "ios": "https://dc.lft.to/lastmile_qr_scan"}, "fusion_lon": 0.0, "lat": 38.898421666666664, "bike_id": "b8af9d33a471cd20f260cc1f5587489f", "type": "electric_scooter", "is_reserved": 0, "lon": -77.01337716666667}, {"fusion_lat": 0.0, "name": "9616d9bba1feb7fea378260c6c64a8a3", "is_disabled": 0, "rental_uris": {"android": "https://dc.lft.to/lastmile_qr_scan", "ios": "https://dc.lft.to/lastmile_qr_scan"}, "fusion_lon": 0.0, "lat": 38.925154666666664, "bike_id": "9616d9bba1feb7fea378260c6c64a8a3", "type": "electric_scooter", "is_reserved": 0, "lon": -77.02283633333333}, {"fusion_lat": 0.0, "name": "f12917a34503d52d40b64614186ded46", "is_disabled": 0, "rental_uris": {"android": "https://dc.lft.to/lastmile_qr_scan", "ios": "https://dc.lft.to/lastmile_qr_scan"}, "fusion_lon": 0.0, "lat": 38.902409666666664, "bike_id": "f12917a34503d52d40b64614186ded46", "type": "electric_scooter", "is_reserved": 0, "lon": -77.00198633333333}, {"fusion_lat": 0.0, "name": "fe2a627c762aa9250613a13c2a45acbf", "is_disabled": 0, "rental_uris": {"android": "https://dc.lft.to/lastmile_qr_scan", "ios": "https://dc.lft.to/lastmile_qr_scan"}, "fusion_lon": 0.0, "lat": 38.884087666666666, "bike_id": "fe2a627c762aa9250613a13c2a45acbf", "type": "electric_scooter", "is_reserved": 0, "lon": -77.02618366666667}, {"fusion_lat": 0.0, "name": "cc3a2d283017d21362663558b794c3a0", "is_disabled": 0, "rental_uris": {"android": "https://dc.lft.to/lastmile_qr_scan", "ios": "https://dc.lft.to/lastmile_qr_scan"}, "fusion_lon": 0.0, "lat": 38.9157135, "bike_id": "cc3a2d283017d21362663558b794c3a0", "type": "electric_scooter", "is_reserved": 0, "lon": -77.03207066666667}, {"fusion_lat": 0.0, "name": "74d81d623b03b1f47d757f4e4806bad7", "is_disabled": 0, "rental_uris": {"android": "https://dc.lft.to/lastmile_qr_scan", "ios": "https://dc.lft.to/lastmile_qr_scan"}, "fusion_lon": 0.0, "lat": 38.88488516666666, "bike_id": "74d81d623b03b1f47d757f4e4806bad7", "type": "electric_scooter", "is_reserved": 0, "lon": -77.00710483333333}, {"fusion_lat": 0.0, "name": "94a03083537433abbbed3e3e53e61b8f", "is_disabled": 0, "rental_uris": {"android": "https://dc.lft.to/lastmile_qr_scan", "ios": "https://dc.lft.to/lastmile_qr_scan"}, "fusion_lon": 0.0, "lat": 38.922030666666664, "bike_id": "94a03083537433abbbed3e3e53e61b8f", "type": "electric_scooter", "is_reserved": 0, "lon": -77.04119316666667}, {"fusion_lat": 0.0, "name": "8e99911a2e6594f3e1347d33d008b6de", "is_disabled": 0, "rental_uris": {"android": "https://dc.lft.to/lastmile_qr_scan", "ios": "https://dc.lft.to/lastmile_qr_scan"}, "fusion_lon": 0.0, "lat": 38.8874635, "bike_id": "8e99911a2e6594f3e1347d33d008b6de", "type": "electric_scooter", "is_reserved": 0, "lon": -77.01776416666667}, {"fusion_lat": 0.0, "name": "8ca2ab348e70a5443f8c68ae8637425c", "is_disabled": 0, "rental_uris": {"android": "https://dc.lft.to/lastmile_qr_scan", "ios": "https://dc.lft.to/lastmile_qr_scan"}, "fusion_lon": 0.0, "lat": 38.8853055, "bike_id": "8ca2ab348e70a5443f8c68ae8637425c", "type": "electric_scooter", "is_reserved": 0, "lon": -77.015123}, {"fusion_lat": 0.0, "name": "7c3a0a361649107aded4829933a5e90f", "is_disabled": 0, "rental_uris": {"android": "https://dc.lft.to/lastmile_qr_scan", "ios": "https://dc.lft.to/lastmile_qr_scan"}, "fusion_lon": 0.0, "lat": 38.9142665, "bike_id": "7c3a0a361649107aded4829933a5e90f", "type": "electric_scooter", "is_reserved": 0, "lon": -77.06421616666667}, {"fusion_lat": 0.0, "name": "ec45096dc7c9e42fc0af9e6512afc526", "is_disabled": 0, "rental_uris": {"android": "https://dc.lft.to/lastmile_qr_scan", "ios": "https://dc.lft.to/lastmile_qr_scan"}, "fusion_lon": 0.0, "lat": 38.89527116666667, "bike_id": "ec45096dc7c9e42fc0af9e6512afc526", "type": "electric_scooter", "is_reserved": 0, "lon": -77.003363}, {"fusion_lat": 0.0, "name": "aecee17fcd3faddcddc05316ee8ef651", "is_disabled": 0, "rental_uris": {"android": "https://dc.lft.to/lastmile_qr_scan", "ios": "https://dc.lft.to/lastmile_qr_scan"}, "fusion_lon": 0.0, "lat": 38.920779, "bike_id": "aecee17fcd3faddcddc05316ee8ef651", "type": "electric_bike", "is_reserved": 0, "lon": -76.98948866666667}, {"fusion_lat": 0.0, "name": "a8978c8eb077483bb23a10366d941c3d", "is_disabled": 0, "rental_uris": {"android": "https://dc.lft.to/lastmile_qr_scan", "ios": "https://dc.lft.to/lastmile_qr_scan"}, "fusion_lon": 0.0, "lat": 38.87464683333334, "bike_id": "a8978c8eb077483bb23a10366d941c3d", "type": "electric_scooter", "is_reserved": 0, "lon": -77.00962833333334}, {"fusion_lat": 0.0, "name": "8879f4a060f6baf616024f3ad93fa08b", "is_disabled": 0, "rental_uris": {"android": "https://dc.lft.to/lastmile_qr_scan", "ios": "https://dc.lft.to/lastmile_qr_scan"}, "fusion_lon": 0.0, "lat": 38.8955465, "bike_id": "8879f4a060f6baf616024f3ad93fa08b", "type": "electric_scooter", "is_reserved": 0, "lon": -76.9984345}, {"fusion_lat": 0.0, "name": "7f82fa3a202514a385f1cea8892985fd", "is_disabled": 0, "rental_uris": {"android": "https://dc.lft.to/lastmile_qr_scan", "ios": "https://dc.lft.to/lastmile_qr_scan"}, "fusion_lon": 0.0, "lat": 38.9850595, "bike_id": "7f82fa3a202514a385f1cea8892985fd", "type": "electric_bike", "is_reserved": 0, "lon": -76.98208283333334}, {"fusion_lat": 0.0, "name": "4882956cd7a67bd69358245049427949", "is_disabled": 0, "rental_uris": {"android": "https://dc.lft.to/lastmile_qr_scan", "ios": "https://dc.lft.to/lastmile_qr_scan"}, "fusion_lon": 0.0, "lat": 38.884975833333336, "bike_id": "4882956cd7a67bd69358245049427949", "type": "electric_scooter", "is_reserved": 0, "lon": -77.0072495}, {"fusion_lat": 0.0, "name": "0329c86d4cc8440215de9c4374b23d1f", "is_disabled": 0, "rental_uris": {"android": "https://dc.lft.to/lastmile_qr_scan", "ios": "https://dc.lft.to/lastmile_qr_scan"}, "fusion_lon": 0.0, "lat": 38.86062666666667, "bike_id": "0329c86d4cc8440215de9c4374b23d1f", "type": "electric_scooter", "is_reserved": 0, "lon": -76.98501216666666}, {"fusion_lat": 0.0, "name": "d55eab125a49b63e3ad3030d94fe135b", "is_disabled": 0, "rental_uris": {"android": "https://dc.lft.to/lastmile_qr_scan", "ios": "https://dc.lft.to/lastmile_qr_scan"}, "fusion_lon": 0.0, "lat": 38.884034, "bike_id": "d55eab125a49b63e3ad3030d94fe135b", "type": "electric_scooter", "is_reserved": 0, "lon": -76.98590083333333}, {"fusion_lat": 0.0, "name": "878673794d6b3ce3ea9682c582383ccb", "is_disabled": 0, "rental_uris": {"android": "https://dc.lft.to/lastmile_qr_scan", "ios": "https://dc.lft.to/lastmile_qr_scan"}, "fusion_lon": 0.0, "lat": 38.91073866666667, "bike_id": "878673794d6b3ce3ea9682c582383ccb", "type": "electric_scooter", "is_reserved": 0, "lon": -77.0219345}, {"fusion_lat": 0.0, "name": "cfcaa0f1337eb77d49e0f7c6c6958cd3", "is_disabled": 0, "rental_uris": {"android": "https://dc.lft.to/lastmile_qr_scan", "ios": "https://dc.lft.to/lastmile_qr_scan"}, "fusion_lon": 0.0, "lat": 38.89707216666667, "bike_id": "cfcaa0f1337eb77d49e0f7c6c6958cd3", "type": "electric_scooter", "is_reserved": 0, "lon": -77.03189166666667}, {"fusion_lat": 0.0, "name": "775d029dfb30f8b97db80f9c59c77e8c", "is_disabled": 0, "rental_uris": {"android": "https://dc.lft.to/lastmile_qr_scan", "ios": "https://dc.lft.to/lastmile_qr_scan"}, "fusion_lon": 0.0, "lat": 38.92285116666667, "bike_id": "775d029dfb30f8b97db80f9c59c77e8c", "type": "electric_scooter", "is_reserved": 0, "lon": -77.02975733333334}, {"fusion_lat": 0.0, "name": "233bf519c25c94ed9cf52e80a390395f", "is_disabled": 0, "rental_uris": {"android": "https://dc.lft.to/lastmile_qr_scan", "ios": "https://dc.lft.to/lastmile_qr_scan"}, "fusion_lon": 0.0, "lat": 38.94054033333333, "bike_id": "233bf519c25c94ed9cf52e80a390395f", "type": "electric_bike", "is_reserved": 0, "lon": -76.90416566666667}, {"fusion_lat": 0.0, "name": "14bb4d380a7a66a7c8036da21b44063a", "is_disabled": 0, "rental_uris": {"android": "https://dc.lft.to/lastmile_qr_scan", "ios": "https://dc.lft.to/lastmile_qr_scan"}, "fusion_lon": 0.0, "lat": 38.90429966666667, "bike_id": "14bb4d380a7a66a7c8036da21b44063a", "type": "electric_scooter", "is_reserved": 0, "lon": -77.04348833333333}, {"fusion_lat": 0.0, "name": "7b96081697ac47a565be3872ca5d7592", "is_disabled": 0, "rental_uris": {"android": "https://dc.lft.to/lastmile_qr_scan", "ios": "https://dc.lft.to/lastmile_qr_scan"}, "fusion_lon": 0.0, "lat": 38.895155, "bike_id": "7b96081697ac47a565be3872ca5d7592", "type": "electric_scooter", "is_reserved": 0, "lon": -77.0416585}, {"fusion_lat": 0.0, "name": "4e5552b32f57ee9369cf2f6ef009e399", "is_disabled": 0, "rental_uris": {"android": "https://dc.lft.to/lastmile_qr_scan", "ios": "https://dc.lft.to/lastmile_qr_scan"}, "fusion_lon": 0.0, "lat": 38.91574583333333, "bike_id": "4e5552b32f57ee9369cf2f6ef009e399", "type": "electric_scooter", "is_reserved": 0, "lon": -77.012513}, {"fusion_lat": 0.0, "name": "3f17e1a0c9c185eb4aff0af1f6542617", "is_disabled": 0, "rental_uris": {"android": "https://dc.lft.to/lastmile_qr_scan", "ios": "https://dc.lft.to/lastmile_qr_scan"}, "fusion_lon": 0.0, "lat": 38.91529416666667, "bike_id": "3f17e1a0c9c185eb4aff0af1f6542617", "type": "electric_scooter", "is_reserved": 0, "lon": -77.03188383333334}, {"fusion_lat": 0.0, "name": "74b1bfdb7a777a70088ef1218f19b847", "is_disabled": 0, "rental_uris": {"android": "https://dc.lft.to/lastmile_qr_scan", "ios": "https://dc.lft.to/lastmile_qr_scan"}, "fusion_lon": 0.0, "lat": 38.902408333333334, "bike_id": "74b1bfdb7a777a70088ef1218f19b847", "type": "electric_scooter", "is_reserved": 0, "lon": -77.04452716666667}, {"fusion_lat": 0.0, "name": "ab6af1377f06ceb54e86899d6b92f60a", "is_disabled": 0, "rental_uris": {"android": "https://dc.lft.to/lastmile_qr_scan", "ios": "https://dc.lft.to/lastmile_qr_scan"}, "fusion_lon": 0.0, "lat": 38.916653833333335, "bike_id": "ab6af1377f06ceb54e86899d6b92f60a", "type": "electric_scooter", "is_reserved": 0, "lon": -77.034644}, {"fusion_lat": 0.0, "name": "888aaa427782563f7b8be71a9e79aff8", "is_disabled": 0, "rental_uris": {"android": "https://dc.lft.to/lastmile_qr_scan", "ios": "https://dc.lft.to/lastmile_qr_scan"}, "fusion_lon": 0.0, "lat": 38.9068275, "bike_id": "888aaa427782563f7b8be71a9e79aff8", "type": "electric_scooter", "is_reserved": 0, "lon": -77.01092816666667}, {"fusion_lat": 0.0, "name": "128caa4b2516e12b50ddcb6be2b93724", "is_disabled": 0, "rental_uris": {"android": "https://dc.lft.to/lastmile_qr_scan", "ios": "https://dc.lft.to/lastmile_qr_scan"}, "fusion_lon": 0.0, "lat": 38.97521316666667, "bike_id": "128caa4b2516e12b50ddcb6be2b93724", "type": "electric_bike", "is_reserved": 0, "lon": -77.01685283333333}, {"fusion_lat": 0.0, "name": "d0919d69ddcb30871f52dcd7cf697134", "is_disabled": 0, "rental_uris": {"android": "https://dc.lft.to/lastmile_qr_scan", "ios": "https://dc.lft.to/lastmile_qr_scan"}, "fusion_lon": 0.0, "lat": 38.9041485, "bike_id": "d0919d69ddcb30871f52dcd7cf697134", "type": "electric_scooter", "is_reserved": 0, "lon": -77.001423}, {"fusion_lat": 0.0, "name": "a986593d79ec6df1a9009eb7749f88e6", "is_disabled": 0, "rental_uris": {"android": "https://dc.lft.to/lastmile_qr_scan", "ios": "https://dc.lft.to/lastmile_qr_scan"}, "fusion_lon": 0.0, "lat": 38.9944485, "bike_id": "a986593d79ec6df1a9009eb7749f88e6", "type": "electric_bike", "is_reserved": 0, "lon": -76.99588983333334}, {"fusion_lat": 0.0, "name": "1a30ed1a65d533feb5bc9a9f5e3d1cfd", "is_disabled": 0, "rental_uris": {"android": "https://dc.lft.to/lastmile_qr_scan", "ios": "https://dc.lft.to/lastmile_qr_scan"}, "fusion_lon": 0.0, "lat": 38.892522166666666, "bike_id": "1a30ed1a65d533feb5bc9a9f5e3d1cfd", "type": "electric_scooter", "is_reserved": 0, "lon": -77.046601}, {"fusion_lat": 0.0, "name": "16ee31b82989437bbe7920f9b19e1fa9", "is_disabled": 0, "rental_uris": {"android": "https://dc.lft.to/lastmile_qr_scan", "ios": "https://dc.lft.to/lastmile_qr_scan"}, "fusion_lon": 0.0, "lat": 38.918224333333335, "bike_id": "16ee31b82989437bbe7920f9b19e1fa9", "type": "electric_scooter", "is_reserved": 0, "lon": -77.04028583333333}, {"fusion_lat": 0.0, "name": "8206684b57ac84ce05a9b99cc13a495f", "is_disabled": 0, "rental_uris": {"android": "https://dc.lft.to/lastmile_qr_scan", "ios": "https://dc.lft.to/lastmile_qr_scan"}, "fusion_lon": 0.0, "lat": 38.929052, "bike_id": "8206684b57ac84ce05a9b99cc13a495f", "type": "electric_scooter", "is_reserved": 0, "lon": -77.03268233333333}, {"fusion_lat": 0.0, "name": "566843f2c0f90ba650778717a98e0f9a", "is_disabled": 0, "rental_uris": {"android": "https://dc.lft.to/lastmile_qr_scan", "ios": "https://dc.lft.to/lastmile_qr_scan"}, "fusion_lon": 0.0, "lat": 38.88744416666667, "bike_id": "566843f2c0f90ba650778717a98e0f9a", "type": "electric_scooter", "is_reserved": 0, "lon": -77.0284295}, {"fusion_lat": 0.0, "name": "b6a4614587eb701ebaccb3240650cf39", "is_disabled": 0, "rental_uris": {"android": "https://dc.lft.to/lastmile_qr_scan", "ios": "https://dc.lft.to/lastmile_qr_scan"}, "fusion_lon": 0.0, "lat": 38.956345166666665, "bike_id": "b6a4614587eb701ebaccb3240650cf39", "type": "electric_scooter", "is_reserved": 0, "lon": -77.091283}, {"fusion_lat": 0.0, "name": "b9a65d6899ca3ddc347198c88ef54e9b", "is_disabled": 0, "rental_uris": {"android": "https://dc.lft.to/lastmile_qr_scan", "ios": "https://dc.lft.to/lastmile_qr_scan"}, "fusion_lon": 0.0, "lat": 38.87669666666667, "bike_id": "b9a65d6899ca3ddc347198c88ef54e9b", "type": "electric_scooter", "is_reserved": 0, "lon": -77.0157535}, {"fusion_lat": 0.0, "name": "858ad63589f4f1f99712f3f7e110f97c", "is_disabled": 0, "rental_uris": {"android": "https://dc.lft.to/lastmile_qr_scan", "ios": "https://dc.lft.to/lastmile_qr_scan"}, "fusion_lon": 0.0, "lat": 38.86448866666667, "bike_id": "858ad63589f4f1f99712f3f7e110f97c", "type": "electric_bike", "is_reserved": 0, "lon": -77.1068355}, {"fusion_lat": 0.0, "name": "36c066f8b82f041787a2382054ccf6d4", "is_disabled": 0, "rental_uris": {"android": "https://dc.lft.to/lastmile_qr_scan", "ios": "https://dc.lft.to/lastmile_qr_scan"}, "fusion_lon": 0.0, "lat": 38.906327833333336, "bike_id": "36c066f8b82f041787a2382054ccf6d4", "type": "electric_scooter", "is_reserved": 0, "lon": -77.0101355}, {"fusion_lat": 0.0, "name": "bdc68c48d658ecd7bb26d613863a5d73", "is_disabled": 0, "rental_uris": {"android": "https://dc.lft.to/lastmile_qr_scan", "ios": "https://dc.lft.to/lastmile_qr_scan"}, "fusion_lon": 0.0, "lat": 38.8973245, "bike_id": "bdc68c48d658ecd7bb26d613863a5d73", "type": "electric_scooter", "is_reserved": 0, "lon": -77.0499065}, {"fusion_lat": 0.0, "name": "9a4315f5243ca928181c8a5e073981e1", "is_disabled": 0, "rental_uris": {"android": "https://dc.lft.to/lastmile_qr_scan", "ios": "https://dc.lft.to/lastmile_qr_scan"}, "fusion_lon": 0.0, "lat": 38.90381033333333, "bike_id": "9a4315f5243ca928181c8a5e073981e1", "type": "electric_scooter", "is_reserved": 0, "lon": -77.044395}, {"fusion_lat": 0.0, "name": "af8c63a3dd10b1e125b6b50f0578f76d", "is_disabled": 0, "rental_uris": {"android": "https://dc.lft.to/lastmile_qr_scan", "ios": "https://dc.lft.to/lastmile_qr_scan"}, "fusion_lon": 0.0, "lat": 38.8765715, "bike_id": "af8c63a3dd10b1e125b6b50f0578f76d", "type": "electric_scooter", "is_reserved": 0, "lon": -77.01611033333333}, {"fusion_lat": 0.0, "name": "da2bf4a7b0b7265c3680f5af77a971a7", "is_disabled": 0, "rental_uris": {"android": "https://dc.lft.to/lastmile_qr_scan", "ios": "https://dc.lft.to/lastmile_qr_scan"}, "fusion_lon": 0.0, "lat": 38.902494833333336, "bike_id": "da2bf4a7b0b7265c3680f5af77a971a7", "type": "electric_scooter", "is_reserved": 0, "lon": -77.04363116666667}, {"fusion_lat": 0.0, "name": "37c9a378b547ca412f74ffa1c28746af", "is_disabled": 0, "rental_uris": {"android": "https://dc.lft.to/lastmile_qr_scan", "ios": "https://dc.lft.to/lastmile_qr_scan"}, "fusion_lon": 0.0, "lat": 38.91197916666667, "bike_id": "37c9a378b547ca412f74ffa1c28746af", "type": "electric_scooter", "is_reserved": 0, "lon": -77.03860116666667}, {"fusion_lat": 0.0, "name": "188d358dc4ba93d9845145f4410d633d", "is_disabled": 0, "rental_uris": {"android": "https://dc.lft.to/lastmile_qr_scan", "ios": "https://dc.lft.to/lastmile_qr_scan"}, "fusion_lon": 0.0, "lat": 38.8730835, "bike_id": "188d358dc4ba93d9845145f4410d633d", "type": "electric_scooter", "is_reserved": 0, "lon": -77.0003425}, {"fusion_lat": 0.0, "name": "5d8affee7342ebc1d82dfef17caea1c9", "is_disabled": 0, "rental_uris": {"android": "https://dc.lft.to/lastmile_qr_scan", "ios": "https://dc.lft.to/lastmile_qr_scan"}, "fusion_lon": 0.0, "lat": 38.91705116666667, "bike_id": "5d8affee7342ebc1d82dfef17caea1c9", "type": "electric_scooter", "is_reserved": 0, "lon": -77.03595816666666}, {"fusion_lat": 0.0, "name": "e7e4967c05d3624af741fbfa20d02976", "is_disabled": 0, "rental_uris": {"android": "https://dc.lft.to/lastmile_qr_scan", "ios": "https://dc.lft.to/lastmile_qr_scan"}, "fusion_lon": 0.0, "lat": 38.91928133333333, "bike_id": "e7e4967c05d3624af741fbfa20d02976", "type": "electric_scooter", "is_reserved": 0, "lon": -77.00980066666666}, {"fusion_lat": 0.0, "name": "3baa9a3a7b34e31b1dfd2e50545279f2", "is_disabled": 0, "rental_uris": {"android": "https://dc.lft.to/lastmile_qr_scan", "ios": "https://dc.lft.to/lastmile_qr_scan"}, "fusion_lon": 0.0, "lat": 38.904685, "bike_id": "3baa9a3a7b34e31b1dfd2e50545279f2", "type": "electric_scooter", "is_reserved": 0, "lon": -77.04373833333334}, {"fusion_lat": 0.0, "name": "3ce84cad161180c955a6bc67a5f7bc44", "is_disabled": 0, "rental_uris": {"android": "https://dc.lft.to/lastmile_qr_scan", "ios": "https://dc.lft.to/lastmile_qr_scan"}, "fusion_lon": 0.0, "lat": 38.8644565, "bike_id": "3ce84cad161180c955a6bc67a5f7bc44", "type": "electric_scooter", "is_reserved": 0, "lon": -76.97998333333334}, {"fusion_lat": 0.0, "name": "eefb075bbddea162a2bf444c10b39992", "is_disabled": 0, "rental_uris": {"android": "https://dc.lft.to/lastmile_qr_scan", "ios": "https://dc.lft.to/lastmile_qr_scan"}, "fusion_lon": 0.0, "lat": 38.8923, "bike_id": "eefb075bbddea162a2bf444c10b39992", "type": "electric_scooter", "is_reserved": 0, "lon": -77.02666933333333}, {"fusion_lat": 0.0, "name": "96a707a098b792a25da9dde580401f4d", "is_disabled": 0, "rental_uris": {"android": "https://dc.lft.to/lastmile_qr_scan", "ios": "https://dc.lft.to/lastmile_qr_scan"}, "fusion_lon": 0.0, "lat": 38.9026495, "bike_id": "96a707a098b792a25da9dde580401f4d", "type": "electric_scooter", "is_reserved": 0, "lon": -77.03848516666666}, {"fusion_lat": 0.0, "name": "c3d51e841c4d5a6d9d87e12fd720881e", "is_disabled": 0, "rental_uris": {"android": "https://dc.lft.to/lastmile_qr_scan", "ios": "https://dc.lft.to/lastmile_qr_scan"}, "fusion_lon": 0.0, "lat": 38.84728366666667, "bike_id": "c3d51e841c4d5a6d9d87e12fd720881e", "type": "electric_scooter", "is_reserved": 0, "lon": -76.98254533333333}, {"fusion_lat": 0.0, "name": "d4f2ca4c9147187740aca8716df3389b", "is_disabled": 0, "rental_uris": {"android": "https://dc.lft.to/lastmile_qr_scan", "ios": "https://dc.lft.to/lastmile_qr_scan"}, "fusion_lon": 0.0, "lat": 38.915523666666665, "bike_id": "d4f2ca4c9147187740aca8716df3389b", "type": "electric_scooter", "is_reserved": 0, "lon": -77.03159416666666}, {"fusion_lat": 0.0, "name": "a25e147e13170bf874500d6e1b96472f", "is_disabled": 0, "rental_uris": {"android": "https://dc.lft.to/lastmile_qr_scan", "ios": "https://dc.lft.to/lastmile_qr_scan"}, "fusion_lon": 0.0, "lat": 38.878797166666665, "bike_id": "a25e147e13170bf874500d6e1b96472f", "type": "electric_scooter", "is_reserved": 0, "lon": -77.02319183333333}, {"fusion_lat": 0.0, "name": "494dc830d6772371ac004e0716ecf2c9", "is_disabled": 0, "rental_uris": {"android": "https://dc.lft.to/lastmile_qr_scan", "ios": "https://dc.lft.to/lastmile_qr_scan"}, "fusion_lon": 0.0, "lat": 38.920868166666665, "bike_id": "494dc830d6772371ac004e0716ecf2c9", "type": "electric_scooter", "is_reserved": 0, "lon": -77.01821633333333}, {"fusion_lat": 0.0, "name": "ca0d8e8ea8cad26a1b947e0e0af63d8b", "is_disabled": 0, "rental_uris": {"android": "https://dc.lft.to/lastmile_qr_scan", "ios": "https://dc.lft.to/lastmile_qr_scan"}, "fusion_lon": 0.0, "lat": 38.91105183333333, "bike_id": "ca0d8e8ea8cad26a1b947e0e0af63d8b", "type": "electric_scooter", "is_reserved": 0, "lon": -77.044844}, {"fusion_lat": 0.0, "name": "a4c7ac7f3b8125bc5ecf6db4b7ff4be0", "is_disabled": 0, "rental_uris": {"android": "https://dc.lft.to/lastmile_qr_scan", "ios": "https://dc.lft.to/lastmile_qr_scan"}, "fusion_lon": 0.0, "lat": 38.9163075, "bike_id": "a4c7ac7f3b8125bc5ecf6db4b7ff4be0", "type": "electric_scooter", "is_reserved": 0, "lon": -77.03218016666666}, {"fusion_lat": 0.0, "name": "cbf1462cb5c01cef1060edfb999bbeef", "is_disabled": 0, "rental_uris": {"android": "https://dc.lft.to/lastmile_qr_scan", "ios": "https://dc.lft.to/lastmile_qr_scan"}, "fusion_lon": 0.0, "lat": 38.923246666666664, "bike_id": "cbf1462cb5c01cef1060edfb999bbeef", "type": "electric_scooter", "is_reserved": 0, "lon": -77.02978933333333}, {"fusion_lat": 0.0, "name": "f095bb7073ce96d81ac21deea2133af6", "is_disabled": 0, "rental_uris": {"android": "https://dc.lft.to/lastmile_qr_scan", "ios": "https://dc.lft.to/lastmile_qr_scan"}, "fusion_lon": 0.0, "lat": 38.9223475, "bike_id": "f095bb7073ce96d81ac21deea2133af6", "type": "electric_scooter", "is_reserved": 0, "lon": -77.03427233333333}, {"fusion_lat": 0.0, "name": "40c0fff8a32e00ba0bde62391285b1c9", "is_disabled": 0, "rental_uris": {"android": "https://dc.lft.to/lastmile_qr_scan", "ios": "https://dc.lft.to/lastmile_qr_scan"}, "fusion_lon": 0.0, "lat": 38.91551533333333, "bike_id": "40c0fff8a32e00ba0bde62391285b1c9", "type": "electric_scooter", "is_reserved": 0, "lon": -77.03252066666667}, {"fusion_lat": 0.0, "name": "b6efab7aef0372b3a987415fafb69d91", "is_disabled": 0, "rental_uris": {"android": "https://dc.lft.to/lastmile_qr_scan", "ios": "https://dc.lft.to/lastmile_qr_scan"}, "fusion_lon": 0.0, "lat": 38.90777033333333, "bike_id": "b6efab7aef0372b3a987415fafb69d91", "type": "electric_scooter", "is_reserved": 0, "lon": -77.03526166666667}, {"fusion_lat": 0.0, "name": "e0daafd933e15f709505d23c76a2d158", "is_disabled": 0, "rental_uris": {"android": "https://dc.lft.to/lastmile_qr_scan", "ios": "https://dc.lft.to/lastmile_qr_scan"}, "fusion_lon": 0.0, "lat": 38.909752, "bike_id": "e0daafd933e15f709505d23c76a2d158", "type": "electric_scooter", "is_reserved": 0, "lon": -77.032913}, {"fusion_lat": 0.0, "name": "9d62526e4b0cb79a9e1e5d887bec6606", "is_disabled": 0, "rental_uris": {"android": "https://dc.lft.to/lastmile_qr_scan", "ios": "https://dc.lft.to/lastmile_qr_scan"}, "fusion_lon": 0.0, "lat": 38.80018916666667, "bike_id": "9d62526e4b0cb79a9e1e5d887bec6606", "type": "electric_bike", "is_reserved": 0, "lon": -77.0547605}, {"fusion_lat": 0.0, "name": "8d845e689abe22cd462e31c9539c1f25", "is_disabled": 0, "rental_uris": {"android": "https://dc.lft.to/lastmile_qr_scan", "ios": "https://dc.lft.to/lastmile_qr_scan"}, "fusion_lon": 0.0, "lat": 38.91982516666667, "bike_id": "8d845e689abe22cd462e31c9539c1f25", "type": "electric_scooter", "is_reserved": 0, "lon": -77.021796}, {"fusion_lat": 0.0, "name": "4272b89f896448646d47356b4dbb7d82", "is_disabled": 0, "rental_uris": {"android": "https://dc.lft.to/lastmile_qr_scan", "ios": "https://dc.lft.to/lastmile_qr_scan"}, "fusion_lon": 0.0, "lat": 38.896157333333335, "bike_id": "4272b89f896448646d47356b4dbb7d82", "type": "electric_scooter", "is_reserved": 0, "lon": -76.97968883333333}, {"fusion_lat": 0.0, "name": "b84907b7dcfd0a4bb06ae946ef2163cd", "is_disabled": 0, "rental_uris": {"android": "https://dc.lft.to/lastmile_qr_scan", "ios": "https://dc.lft.to/lastmile_qr_scan"}, "fusion_lon": 0.0, "lat": 38.95637133333334, "bike_id": "b84907b7dcfd0a4bb06ae946ef2163cd", "type": "electric_scooter", "is_reserved": 0, "lon": -77.03301566666667}, {"fusion_lat": 0.0, "name": "539f6a0887baa4b56ddd6554aa1fe785", "is_disabled": 0, "rental_uris": {"android": "https://dc.lft.to/lastmile_qr_scan", "ios": "https://dc.lft.to/lastmile_qr_scan"}, "fusion_lon": 0.0, "lat": 38.881236666666666, "bike_id": "539f6a0887baa4b56ddd6554aa1fe785", "type": "electric_scooter", "is_reserved": 0, "lon": -76.992846}, {"fusion_lat": 0.0, "name": "325e4d5e6c51e200a71a80dd8e4851e7", "is_disabled": 0, "rental_uris": {"android": "https://dc.lft.to/lastmile_qr_scan", "ios": "https://dc.lft.to/lastmile_qr_scan"}, "fusion_lon": 0.0, "lat": 38.901358, "bike_id": "325e4d5e6c51e200a71a80dd8e4851e7", "type": "electric_scooter", "is_reserved": 0, "lon": -76.989608}, {"fusion_lat": 0.0, "name": "49d0c4fbb462dc4ffa22d83385dce221", "is_disabled": 0, "rental_uris": {"android": "https://dc.lft.to/lastmile_qr_scan", "ios": "https://dc.lft.to/lastmile_qr_scan"}, "fusion_lon": 0.0, "lat": 38.896261333333335, "bike_id": "49d0c4fbb462dc4ffa22d83385dce221", "type": "electric_scooter", "is_reserved": 0, "lon": -76.99332783333334}, {"fusion_lat": 0.0, "name": "db015f9b299b586bddb69787c1869273", "is_disabled": 0, "rental_uris": {"android": "https://dc.lft.to/lastmile_qr_scan", "ios": "https://dc.lft.to/lastmile_qr_scan"}, "fusion_lon": 0.0, "lat": 38.92025066666667, "bike_id": "db015f9b299b586bddb69787c1869273", "type": "electric_scooter", "is_reserved": 0, "lon": -77.03110583333333}, {"fusion_lat": 0.0, "name": "0347ef4b17b82e1c07446ce2eb6203c6", "is_disabled": 0, "rental_uris": {"android": "https://dc.lft.to/lastmile_qr_scan", "ios": "https://dc.lft.to/lastmile_qr_scan"}, "fusion_lon": 0.0, "lat": 38.887317, "bike_id": "0347ef4b17b82e1c07446ce2eb6203c6", "type": "electric_scooter", "is_reserved": 0, "lon": -77.02582833333334}, {"fusion_lat": 0.0, "name": "bda701d48d76f1e16751aa5c64e91b3a", "is_disabled": 0, "rental_uris": {"android": "https://dc.lft.to/lastmile_qr_scan", "ios": "https://dc.lft.to/lastmile_qr_scan"}, "fusion_lon": 0.0, "lat": 38.913261, "bike_id": "bda701d48d76f1e16751aa5c64e91b3a", "type": "electric_scooter", "is_reserved": 0, "lon": -77.0453745}, {"fusion_lat": 0.0, "name": "01b3105a75050c59c6df86077570d39c", "is_disabled": 0, "rental_uris": {"android": "https://dc.lft.to/lastmile_qr_scan", "ios": "https://dc.lft.to/lastmile_qr_scan"}, "fusion_lon": 0.0, "lat": 38.89160316666667, "bike_id": "01b3105a75050c59c6df86077570d39c", "type": "electric_bike", "is_reserved": 0, "lon": -77.00466783333333}, {"fusion_lat": 0.0, "name": "e26dd637e4f32a052de6f79bb5b5421e", "is_disabled": 0, "rental_uris": {"android": "https://dc.lft.to/lastmile_qr_scan", "ios": "https://dc.lft.to/lastmile_qr_scan"}, "fusion_lon": 0.0, "lat": 38.903854333333335, "bike_id": "e26dd637e4f32a052de6f79bb5b5421e", "type": "electric_scooter", "is_reserved": 0, "lon": -77.04428783333333}, {"fusion_lat": 0.0, "name": "668c7ffc4fd45d8b50e4b20c20c34b9f", "is_disabled": 0, "rental_uris": {"android": "https://dc.lft.to/lastmile_qr_scan", "ios": "https://dc.lft.to/lastmile_qr_scan"}, "fusion_lon": 0.0, "lat": 38.9023485, "bike_id": "668c7ffc4fd45d8b50e4b20c20c34b9f", "type": "electric_scooter", "is_reserved": 0, "lon": -77.0346745}, {"fusion_lat": 0.0, "name": "a5cb9d245d9729517113c59f96694e4b", "is_disabled": 0, "rental_uris": {"android": "https://dc.lft.to/lastmile_qr_scan", "ios": "https://dc.lft.to/lastmile_qr_scan"}, "fusion_lon": 0.0, "lat": 38.90180483333333, "bike_id": "a5cb9d245d9729517113c59f96694e4b", "type": "electric_scooter", "is_reserved": 0, "lon": -76.94145116666667}, {"fusion_lat": 0.0, "name": "17be18875ffd3746a71659808d3e04df", "is_disabled": 0, "rental_uris": {"android": "https://dc.lft.to/lastmile_qr_scan", "ios": "https://dc.lft.to/lastmile_qr_scan"}, "fusion_lon": 0.0, "lat": 38.866378833333336, "bike_id": "17be18875ffd3746a71659808d3e04df", "type": "electric_scooter", "is_reserved": 0, "lon": -76.98299}, {"fusion_lat": 0.0, "name": "f51007cd2512a2e221cbcaa98e8e46b6", "is_disabled": 0, "rental_uris": {"android": "https://dc.lft.to/lastmile_qr_scan", "ios": "https://dc.lft.to/lastmile_qr_scan"}, "fusion_lon": 0.0, "lat": 38.856494833333336, "bike_id": "f51007cd2512a2e221cbcaa98e8e46b6", "type": "electric_bike", "is_reserved": 0, "lon": -77.0852745}, {"fusion_lat": 0.0, "name": "19599fa3c5ff212bbdff77b1cc8c8920", "is_disabled": 0, "rental_uris": {"android": "https://dc.lft.to/lastmile_qr_scan", "ios": "https://dc.lft.to/lastmile_qr_scan"}, "fusion_lon": 0.0, "lat": 38.9126305, "bike_id": "19599fa3c5ff212bbdff77b1cc8c8920", "type": "electric_scooter", "is_reserved": 0, "lon": -77.04436216666667}, {"fusion_lat": 0.0, "name": "68524411441760103cd0e27a42333fec", "is_disabled": 0, "rental_uris": {"android": "https://dc.lft.to/lastmile_qr_scan", "ios": "https://dc.lft.to/lastmile_qr_scan"}, "fusion_lon": 0.0, "lat": 38.893611166666666, "bike_id": "68524411441760103cd0e27a42333fec", "type": "electric_scooter", "is_reserved": 0, "lon": -77.02803466666667}, {"fusion_lat": 0.0, "name": "d7a172c1eb19d8f0da8d368a6fa7bac6", "is_disabled": 0, "rental_uris": {"android": "https://dc.lft.to/lastmile_qr_scan", "ios": "https://dc.lft.to/lastmile_qr_scan"}, "fusion_lon": 0.0, "lat": 38.916017333333336, "bike_id": "d7a172c1eb19d8f0da8d368a6fa7bac6", "type": "electric_scooter", "is_reserved": 0, "lon": -77.02304416666666}, {"fusion_lat": 0.0, "name": "a27e1c1d2caf921a382b5f7feeca2c3f", "is_disabled": 0, "rental_uris": {"android": "https://dc.lft.to/lastmile_qr_scan", "ios": "https://dc.lft.to/lastmile_qr_scan"}, "fusion_lon": 0.0, "lat": 38.909014166666665, "bike_id": "a27e1c1d2caf921a382b5f7feeca2c3f", "type": "electric_scooter", "is_reserved": 0, "lon": -77.04389316666666}, {"fusion_lat": 0.0, "name": "6bec4ebc2a908e2652d2102affcb67bd", "is_disabled": 0, "rental_uris": {"android": "https://dc.lft.to/lastmile_qr_scan", "ios": "https://dc.lft.to/lastmile_qr_scan"}, "fusion_lon": 0.0, "lat": 38.92082033333333, "bike_id": "6bec4ebc2a908e2652d2102affcb67bd", "type": "electric_scooter", "is_reserved": 0, "lon": -77.02397366666666}, {"fusion_lat": 0.0, "name": "c4cfc02aea21d712056142c2107b7846", "is_disabled": 0, "rental_uris": {"android": "https://dc.lft.to/lastmile_qr_scan", "ios": "https://dc.lft.to/lastmile_qr_scan"}, "fusion_lon": 0.0, "lat": 38.930232333333336, "bike_id": "c4cfc02aea21d712056142c2107b7846", "type": "electric_scooter", "is_reserved": 0, "lon": -77.03294683333333}, {"fusion_lat": 0.0, "name": "3707080a0d540da0c8c93f9e761e5d78", "is_disabled": 0, "rental_uris": {"android": "https://dc.lft.to/lastmile_qr_scan", "ios": "https://dc.lft.to/lastmile_qr_scan"}, "fusion_lon": 0.0, "lat": 38.88810633333333, "bike_id": "3707080a0d540da0c8c93f9e761e5d78", "type": "electric_scooter", "is_reserved": 0, "lon": -76.9835825}, {"fusion_lat": 0.0, "name": "d9b4524d88626945c32a2717307533f5", "is_disabled": 0, "rental_uris": {"android": "https://dc.lft.to/lastmile_qr_scan", "ios": "https://dc.lft.to/lastmile_qr_scan"}, "fusion_lon": 0.0, "lat": 38.9207105, "bike_id": "d9b4524d88626945c32a2717307533f5", "type": "electric_scooter", "is_reserved": 0, "lon": -76.99538583333333}, {"fusion_lat": 0.0, "name": "15b0c8b48b77a4deed9026c73c3c77de", "is_disabled": 0, "rental_uris": {"android": "https://dc.lft.to/lastmile_qr_scan", "ios": "https://dc.lft.to/lastmile_qr_scan"}, "fusion_lon": 0.0, "lat": 38.91361633333333, "bike_id": "15b0c8b48b77a4deed9026c73c3c77de", "type": "electric_scooter", "is_reserved": 0, "lon": -77.02056066666667}, {"fusion_lat": 0.0, "name": "a4bd1e8fb36d49be61fb5dececba1231", "is_disabled": 0, "rental_uris": {"android": "https://dc.lft.to/lastmile_qr_scan", "ios": "https://dc.lft.to/lastmile_qr_scan"}, "fusion_lon": 0.0, "lat": 38.903772833333335, "bike_id": "a4bd1e8fb36d49be61fb5dececba1231", "type": "electric_scooter", "is_reserved": 0, "lon": -77.04197}, {"fusion_lat": 0.0, "name": "d8639224d21bc2441611d74845cccf29", "is_disabled": 0, "rental_uris": {"android": "https://dc.lft.to/lastmile_qr_scan", "ios": "https://dc.lft.to/lastmile_qr_scan"}, "fusion_lon": 0.0, "lat": 38.900324166666664, "bike_id": "d8639224d21bc2441611d74845cccf29", "type": "electric_scooter", "is_reserved": 0, "lon": -76.99900966666667}, {"fusion_lat": 0.0, "name": "e8eff985a53746e42510c6bb71b0aac6", "is_disabled": 0, "rental_uris": {"android": "https://dc.lft.to/lastmile_qr_scan", "ios": "https://dc.lft.to/lastmile_qr_scan"}, "fusion_lon": 0.0, "lat": 38.86426816666667, "bike_id": "e8eff985a53746e42510c6bb71b0aac6", "type": "electric_scooter", "is_reserved": 0, "lon": -76.98993383333334}, {"fusion_lat": 0.0, "name": "b3db0a83326993cea7ec1e80b0d5178e", "is_disabled": 0, "rental_uris": {"android": "https://dc.lft.to/lastmile_qr_scan", "ios": "https://dc.lft.to/lastmile_qr_scan"}, "fusion_lon": 0.0, "lat": 38.8740145, "bike_id": "b3db0a83326993cea7ec1e80b0d5178e", "type": "electric_scooter", "is_reserved": 0, "lon": -77.0005415}, {"fusion_lat": 0.0, "name": "c7b72ccb32994010e688f044767d03b6", "is_disabled": 0, "rental_uris": {"android": "https://dc.lft.to/lastmile_qr_scan", "ios": "https://dc.lft.to/lastmile_qr_scan"}, "fusion_lon": 0.0, "lat": 39.07056516666667, "bike_id": "c7b72ccb32994010e688f044767d03b6", "type": "electric_bike", "is_reserved": 0, "lon": -77.11483466666667}, {"fusion_lat": 0.0, "name": "9e76603cbbf2bd533fbba07f81b4ef5e", "is_disabled": 0, "rental_uris": {"android": "https://dc.lft.to/lastmile_qr_scan", "ios": "https://dc.lft.to/lastmile_qr_scan"}, "fusion_lon": 0.0, "lat": 38.93134633333333, "bike_id": "9e76603cbbf2bd533fbba07f81b4ef5e", "type": "electric_scooter", "is_reserved": 0, "lon": -77.03259333333334}, {"fusion_lat": 0.0, "name": "525db9c05550d745912b383075ea8a64", "is_disabled": 0, "rental_uris": {"android": "https://dc.lft.to/lastmile_qr_scan", "ios": "https://dc.lft.to/lastmile_qr_scan"}, "fusion_lon": 0.0, "lat": 38.889086, "bike_id": "525db9c05550d745912b383075ea8a64", "type": "electric_scooter", "is_reserved": 0, "lon": -76.98968233333333}, {"fusion_lat": 0.0, "name": "0952673da7d1c55f5ae8757a23d3b6ee", "is_disabled": 0, "rental_uris": {"android": "https://dc.lft.to/lastmile_qr_scan", "ios": "https://dc.lft.to/lastmile_qr_scan"}, "fusion_lon": 0.0, "lat": 38.89980083333333, "bike_id": "0952673da7d1c55f5ae8757a23d3b6ee", "type": "electric_scooter", "is_reserved": 0, "lon": -77.01616533333333}, {"fusion_lat": 0.0, "name": "f196c7935e0d8af7b0fe55fc366799a2", "is_disabled": 0, "rental_uris": {"android": "https://dc.lft.to/lastmile_qr_scan", "ios": "https://dc.lft.to/lastmile_qr_scan"}, "fusion_lon": 0.0, "lat": 38.8923405, "bike_id": "f196c7935e0d8af7b0fe55fc366799a2", "type": "electric_scooter", "is_reserved": 0, "lon": -77.04162883333333}, {"fusion_lat": 0.0, "name": "3aa27331c106f5a860ad8ae2c766147a", "is_disabled": 0, "rental_uris": {"android": "https://dc.lft.to/lastmile_qr_scan", "ios": "https://dc.lft.to/lastmile_qr_scan"}, "fusion_lon": 0.0, "lat": 38.88301166666667, "bike_id": "3aa27331c106f5a860ad8ae2c766147a", "type": "electric_scooter", "is_reserved": 0, "lon": -76.94853866666666}, {"fusion_lat": 0.0, "name": "138ceb2f10f775f65c9337b8e3118426", "is_disabled": 0, "rental_uris": {"android": "https://dc.lft.to/lastmile_qr_scan", "ios": "https://dc.lft.to/lastmile_qr_scan"}, "fusion_lon": 0.0, "lat": 38.899046, "bike_id": "138ceb2f10f775f65c9337b8e3118426", "type": "electric_scooter", "is_reserved": 0, "lon": -76.9274205},