{"data": {"bikes": [{"fusion_lat": 0.0, "type": "electric_bike", "name": "5f2c2300400b4549ed2264aea57a1e35", "fusion_lon": 0.0, "bike_id": "5f2c2300400b4549ed2264aea57a1e35", "is_reserved": 0, "rental_uris": {"android": "https://dc.lft.to/lastmile_qr_scan", "ios": "https://dc.lft.to/lastmile_qr_scan"}, "lat": 38.9117425, "is_disabled": 0, "lon": -77.08809166666667}, {"fusion_lat": 0.0, "type": "electric_scooter", "name": "fe65da3c9953b8b85b30583c53ee4a9f", "fusion_lon": 0.0, "bike_id": "fe65da3c9953b8b85b30583c53ee4a9f", "is_reserved": 0, "rental_uris": {"android": "https://dc.lft.to/lastmile_qr_scan", "ios": "https://dc.lft.to/lastmile_qr_scan"}, "lat": 38.9004125, "is_disabled": 0, "lon": -77.031981}, {"fusion_lat": 0.0, "type": "electric_bike", "name": "4431b834f5066122a86fab0d38bd75d5", "fusion_lon": 0.0, "bike_id": "4431b834f5066122a86fab0d38bd75d5", "is_reserved": 0, "rental_uris": {"android": "https://dc.lft.to/lastmile_qr_scan", "ios": "https://dc.lft.to/lastmile_qr_scan"}, "lat": 38.97676766666667, "is_disabled": 0, "lon": -77.09305216666667}, {"fusion_lat": 0.0, "type": "electric_scooter", "name": "e4c927cc636afb83eb1c33c343df90b8", "fusion_lon": 0.0, "bike_id": "e4c927cc636afb83eb1c33c343df90b8", "is_reserved": 0, "rental_uris": {"android": "https://dc.lft.to/lastmile_qr_scan", "ios": "https://dc.lft.to/lastmile_qr_scan"}, "lat": 38.834916, "is_disabled": 0, "lon": -77.00679466666666}, {"fusion_lat": 0.0, "type": "electric_scooter", "name": "bb7c5555b8f3a46b38709a7c4efd219b", "fusion_lon": 0.0, "bike_id": "bb7c5555b8f3a46b38709a7c4efd219b", "is_reserved": 0, "rental_uris": {"android": "https://dc.lft.to/lastmile_qr_scan", "ios": "https://dc.lft.to/lastmile_qr_scan"}, "lat": 38.89494416666667, "is_disabled": 0, "lon": -77.01081616666667}, {"fusion_lat": 0.0, "type": "electric_scooter", "name": "6d28b609a58e20450c0790a53f58cf77", "fusion_lon": 0.0, "bike_id": "6d28b609a58e20450c0790a53f58cf77", "is_reserved": 0, "rental_uris": {"android": "https://dc.lft.to/lastmile_qr_scan", "ios": "https://dc.lft.to/lastmile_qr_scan"}, "lat": 38.890153166666664, "is_disabled": 0, "lon": -76.93726533333333}, {"fusion_lat": 0.0, "type": "electric_bike", "name": "d3e8fadd21f0332f0a6715ea0fab079c", "fusion_lon": 0.0, "bike_id": "d3e8fadd21f0332f0a6715ea0fab079c", "is_reserved": 0, "rental_uris": {"android": "https://dc.lft.to/lastmile_qr_scan", "ios": "https://dc.lft.to/lastmile_qr_scan"}, "lat": 38.83786383333333, "is_disabled": 0, "lon": -76.9975365}, {"fusion_lat": 0.0, "type": "electric_scooter", "name": "357101c4895e5db71552a8c209a3a48e", "fusion_lon": 0.0, "bike_id": "357101c4895e5db71552a8c209a3a48e", "is_reserved": 0, "rental_uris": {"android": "https://dc.lft.to/lastmile_qr_scan", "ios": "https://dc.lft.to/lastmile_qr_scan"}, "lat": 38.881431, "is_disabled": 0, "lon": -76.994909}, {"fusion_lat": 0.0, "type": "electric_scooter", "name": "e2992fde0225e8e0ac1a40a3c718e806", "fusion_lon": 0.0, "bike_id": "e2992fde0225e8e0ac1a40a3c718e806", "is_reserved": 0, "rental_uris": {"android": "https://dc.lft.to/lastmile_qr_scan", "ios": "https://dc.lft.to/lastmile_qr_scan"}, "lat": 38.91699233333333, "is_disabled": 0, "lon": -77.041728}, {"fusion_lat": 0.0, "type": "electric_bike", "name": "c5a9923cbf656630fee55ba2c43f092b", "fusion_lon": 0.0, "bike_id": "c5a9923cbf656630fee55ba2c43f092b", "is_reserved": 0, "rental_uris": {"android": "https://dc.lft.to/lastmile_qr_scan", "ios": "https://dc.lft.to/lastmile_qr_scan"}, "lat": 38.936839, "is_disabled": 0, "lon": -77.03328083333334}, {"fusion_lat": 0.0, "type": "electric_bike", "name": "348df04b554684fffced553acc543a48", "fusion_lon": 0.0, "bike_id": "348df04b554684fffced553acc543a48", "is_reserved": 0, "rental_uris": {"android": "https://dc.lft.to/lastmile_qr_scan", "ios": "https://dc.lft.to/lastmile_qr_scan"}, "lat": 38.901215666666666, "is_disabled": 0, "lon": -77.04663283333333}, {"fusion_lat": 0.0, "type": "electric_scooter", "name": "6da8c9e1790b8c0b4c9f63c537a86e30", "fusion_lon": 0.0, "bike_id": "6da8c9e1790b8c0b4c9f63c537a86e30", "is_reserved": 0, "rental_uris": {"android": "https://dc.lft.to/lastmile_qr_scan", "ios": "https://dc.lft.to/lastmile_qr_scan"}, "lat": 38.892159666666664, "is_disabled": 0, "lon": -77.04378683333333}, {"fusion_lat": 0.0, "type": "electric_scooter", "name": "b01a6572e6ce665a83be7c0cd0375df5", "fusion_lon": 0.0, "bike_id": "b01a6572e6ce665a83be7c0cd0375df5", "is_reserved": 0, "rental_uris": {"android": "https://dc.lft.to/lastmile_qr_scan", "ios": "https://dc.lft.to/lastmile_qr_scan"}, "lat": 38.887300333333336, "is_disabled": 0, "lon": -77.02577483333333}, {"fusion_lat": 0.0, "type": "electric_scooter", "name": "ae7f4152d6fc7e1111e88dee39ba965b", "fusion_lon": 0.0, "bike_id": "ae7f4152d6fc7e1111e88dee39ba965b", "is_reserved": 0, "rental_uris": {"android": "https://dc.lft.to/lastmile_qr_scan", "ios": "https://dc.lft.to/lastmile_qr_scan"}, "lat": 38.911928333333336, "is_disabled": 0, "lon": -77.03021566666666}, {"fusion_lat": 0.0, "type": "electric_scooter", "name": "154de4a2147aedad5ac91deecee857c9", "fusion_lon": 0.0, "bike_id": "154de4a2147aedad5ac91deecee857c9", "is_reserved": 0, "rental_uris": {"android": "https://dc.lft.to/lastmile_qr_scan", "ios": "https://dc.lft.to/lastmile_qr_scan"}, "lat": 38.9280505, "is_disabled": 0, "lon": -77.01406283333333}, {"fusion_lat": 0.0, "type": "electric_scooter", "name": "cb8fddfaac88fa9bac6e899f218a8fc3", "fusion_lon": 0.0, "bike_id": "cb8fddfaac88fa9bac6e899f218a8fc3", "is_reserved": 0, "rental_uris": {"android": "https://dc.lft.to/lastmile_qr_scan", "ios": "https://dc.lft.to/lastmile_qr_scan"}, "lat": 38.92438933333333, "is_disabled": 0, "lon": -77.05212366666666}, {"fusion_lat": 0.0, "type": "electric_scooter", "name": "582ad8fee08eb585a989feffa1735e52", "fusion_lon": 0.0, "bike_id": "582ad8fee08eb585a989feffa1735e52", "is_reserved": 0, "rental_uris": {"android": "https://dc.lft.to/lastmile_qr_scan", "ios": "https://dc.lft.to/lastmile_qr_scan"}, "lat": 38.894785666666664, "is_disabled": 0, "lon": -77.021535}, {"fusion_lat": 0.0, "type": "electric_scooter", "name": "410c576b2d068b47341ffb4c9c3a8004", "fusion_lon": 0.0, "bike_id": "410c576b2d068b47341ffb4c9c3a8004", "is_reserved": 0, "rental_uris": {"android": "https://dc.lft.to/lastmile_qr_scan", "ios": "https://dc.lft.to/lastmile_qr_scan"}, "lat": 38.866991166666665, "is_disabled": 0, "lon": -76.98709716666667}, {"fusion_lat": 0.0, "type": "electric_scooter", "name": "b120fb7465f883427f198ba25b2f868e", "fusion_lon": 0.0, "bike_id": "b120fb7465f883427f198ba25b2f868e", "is_reserved": 0, "rental_uris": {"android": "https://dc.lft.to/lastmile_qr_scan", "ios": "https://dc.lft.to/lastmile_qr_scan"}, "lat": 38.930816, "is_disabled": 0, "lon": -77.0041315}, {"fusion_lat": 0.0, "type": "electric_bike", "name": "ab7e3830b41de1f4e6e67f7b474a8926", "fusion_lon": 0.0, "bike_id": "ab7e3830b41de1f4e6e67f7b474a8926", "is_reserved": 0, "rental_uris": {"android": "https://dc.lft.to/lastmile_qr_scan", "ios": "https://dc.lft.to/lastmile_qr_scan"}, "lat": 38.959269666666664, "is_disabled": 0, "lon": -76.925329}, {"fusion_lat": 0.0, "type": "electric_scooter", "name": "e52b22ab14dec2b118c724688a9885a4", "fusion_lon": 0.0, "bike_id": "e52b22ab14dec2b118c724688a9885a4", "is_reserved": 0, "rental_uris": {"android": "https://dc.lft.to/lastmile_qr_scan", "ios": "https://dc.lft.to/lastmile_qr_scan"}, "lat": 38.893693, "is_disabled": 0, "lon": -76.949945}, {"fusion_lat": 0.0, "type": "electric_scooter", "name": "1da3292424173d6f9ef5e6cb71994ef1", "fusion_lon": 0.0, "bike_id": "1da3292424173d6f9ef5e6cb71994ef1", "is_reserved": 0, "rental_uris": {"android": "https://dc.lft.to/lastmile_qr_scan", "ios": "https://dc.lft.to/lastmile_qr_scan"}, "lat": 38.9533855, "is_disabled": 0, "lon": -77.00958383333334}, {"fusion_lat": 0.0, "type": "electric_scooter", "name": "89b4590d626568b49748e53f99d78d92", "fusion_lon": 0.0, "bike_id": "89b4590d626568b49748e53f99d78d92", "is_reserved": 0, "rental_uris": {"android": "https://dc.lft.to/lastmile_qr_scan", "ios": "https://dc.lft.to/lastmile_qr_scan"}, "lat": 38.89215566666667, "is_disabled": 0, "lon": -77.04375966666667}, {"fusion_lat": 0.0, "type": "electric_scooter", "name": "4a8d715ef44f074f322a189088c37be0", "fusion_lon": 0.0, "bike_id": "4a8d715ef44f074f322a189088c37be0", "is_reserved": 0, "rental_uris": {"android": "https://dc.lft.to/lastmile_qr_scan", "ios": "https://dc.lft.to/lastmile_qr_scan"}, "lat": 38.8934285, "is_disabled": 0, "lon": -77.04191716666666}, {"fusion_lat": 0.0, "type": "electric_scooter", "name": "5316b69b5506247b92040781c5cea2b2", "fusion_lon": 0.0, "bike_id": "5316b69b5506247b92040781c5cea2b2", "is_reserved": 0, "rental_uris": {"android": "https://dc.lft.to/lastmile_qr_scan", "ios": "https://dc.lft.to/lastmile_qr_scan"}, "lat": 38.904644, "is_disabled": 0, "lon": -77.02815416666667}, {"fusion_lat": 0.0, "type": "electric_scooter", "name": "360b237fc24508cba62f649fbac2fce7", "fusion_lon": 0.0, "bike_id": "360b237fc24508cba62f649fbac2fce7", "is_reserved": 0, "rental_uris": {"android": "https://dc.lft.to/lastmile_qr_scan", "ios": "https://dc.lft.to/lastmile_qr_scan"}, "lat": 38.9206195, "is_disabled": 0, "lon": -77.04221533333333}, {"fusion_lat": 0.0, "type": "electric_scooter", "name": "6bff9d3b444b1853d8858e0b4a0ea436", "fusion_lon": 0.0, "bike_id": "6bff9d3b444b1853d8858e0b4a0ea436", "is_reserved": 0, "rental_uris": {"android": "https://dc.lft.to/lastmile_qr_scan", "ios": "https://dc.lft.to/lastmile_qr_scan"}, "lat": 38.935515333333335, "is_disabled": 0, "lon": -77.02226366666666}, {"fusion_lat": 0.0, "type": "electric_scooter", "name": "16d3ff4035d2eb3210b925bd524dcda3", "fusion_lon": 0.0, "bike_id": "16d3ff4035d2eb3210b925bd524dcda3", "is_reserved": 0, "rental_uris": {"android": "https://dc.lft.to/lastmile_qr_scan", "ios": "https://dc.lft.to/lastmile_qr_scan"}, "lat": 38.868947166666665, "is_disabled": 0, "lon": -76.98224766666667}, {"fusion_lat": 0.0, "type": "electric_scooter", "name": "98726386042d254df95d87d9204638dc", "fusion_lon": 0.0, "bike_id": "98726386042d254df95d87d9204638dc", "is_reserved": 0, "rental_uris": {"android": "https://dc.lft.to/lastmile_qr_scan", "ios": "https://dc.lft.to/lastmile_qr_scan"}, "lat": 38.903856833333336, "is_disabled": 0, "lon": -77.03849083333333}, {"fusion_lat": 0.0, "type": "electric_scooter", "name": "b08fcebfc598f66ebbe25a1d813be72c", "fusion_lon": 0.0, "bike_id": "b08fcebfc598f66ebbe25a1d813be72c", "is_reserved": 0, "rental_uris": {"android": "https://dc.lft.to/lastmile_qr_scan", "ios": "https://dc.lft.to/lastmile_qr_scan"}, "lat": 38.91101583333333, "is_disabled": 0, "lon": -77.02097683333334}, {"fusion_lat": 0.0, "type": "electric_scooter", "name": "e92207bdab952f4852c8d2ba95f11fc3", "fusion_lon": 0.0, "bike_id": "e92207bdab952f4852c8d2ba95f11fc3", "is_reserved": 0, "rental_uris": {"android": "https://dc.lft.to/lastmile_qr_scan", "ios": "https://dc.lft.to/lastmile_qr_scan"}, "lat": 38.898567666666665, "is_disabled": 0, "lon": -77.0270645}, {"fusion_lat": 0.0, "type": "electric_bike", "name": "abff380d35851ef732e189a601276bb4", "fusion_lon": 0.0, "bike_id": "abff380d35851ef732e189a601276bb4", "is_reserved": 0, "rental_uris": {"android": "https://dc.lft.to/lastmile_qr_scan", "ios": "https://dc.lft.to/lastmile_qr_scan"}, "lat": 38.956397833333334, "is_disabled": 0, "lon": -77.02252416666667}, {"fusion_lat": 0.0, "type": "electric_scooter", "name": "6b84e43126dcf19ac7a789dddb6c23d4", "fusion_lon": 0.0, "bike_id": "6b84e43126dcf19ac7a789dddb6c23d4", "is_reserved": 0, "rental_uris": {"android": "https://dc.lft.to/lastmile_qr_scan", "ios": "https://dc.lft.to/lastmile_qr_scan"}, "lat": 38.935808, "is_disabled": 0, "lon": -77.0244325}, {"fusion_lat": 0.0, "type": "electric_scooter", "name": "67d01b5e8c8e65d32ce5c85c9f7391b3", "fusion_lon": 0.0, "bike_id": "67d01b5e8c8e65d32ce5c85c9f7391b3", "is_reserved": 0, "rental_uris": {"android": "https://dc.lft.to/lastmile_qr_scan", "ios": "https://dc.lft.to/lastmile_qr_scan"}, "lat": 38.90372966666666, "is_disabled": 0, "lon": -77.04197116666667}, {"fusion_lat": 0.0, "type": "electric_scooter", "name": "75b943f50003b1f831f9a3fb715e3383", "fusion_lon": 0.0, "bike_id": "75b943f50003b1f831f9a3fb715e3383", "is_reserved": 0, "rental_uris": {"android": "https://dc.lft.to/lastmile_qr_scan", "ios": "https://dc.lft.to/lastmile_qr_scan"}, "lat": 38.89319116666667, "is_disabled": 0, "lon": -77.01793133333334}, {"fusion_lat": 0.0, "type": "electric_scooter", "name": "bb5bd656e5cfdde3bfd322a59a468539", "fusion_lon": 0.0, "bike_id": "bb5bd656e5cfdde3bfd322a59a468539", "is_reserved": 0, "rental_uris": {"android": "https://dc.lft.to/lastmile_qr_scan", "ios": "https://dc.lft.to/lastmile_qr_scan"}, "lat": 38.892251333333334, "is_disabled": 0, "lon": -77.02776133333333}, {"fusion_lat": 0.0, "type": "electric_scooter", "name": "869c6cb64fa3c0366a946dc0f097ac5f", "fusion_lon": 0.0, "bike_id": "869c6cb64fa3c0366a946dc0f097ac5f", "is_reserved": 0, "rental_uris": {"android": "https://dc.lft.to/lastmile_qr_scan", "ios": "https://dc.lft.to/lastmile_qr_scan"}, "lat": 38.9010715, "is_disabled": 0, "lon": -77.04485733333334}, {"fusion_lat": 0.0, "type": "electric_scooter", "name": "733e334e16a750959f4e5c803f4fb521", "fusion_lon": 0.0, "bike_id": "733e334e16a750959f4e5c803f4fb521", "is_reserved": 0, "rental_uris": {"android": "https://dc.lft.to/lastmile_qr_scan", "ios": "https://dc.lft.to/lastmile_qr_scan"}, "lat": 38.942036, "is_disabled": 0, "lon": -77.02508133333333}, {"fusion_lat": 0.0, "type": "electric_scooter", "name": "14b1672785c44d8f78931c0e978c2550", "fusion_lon": 0.0, "bike_id": "14b1672785c44d8f78931c0e978c2550", "is_reserved": 0, "rental_uris": {"android": "https://dc.lft.to/lastmile_qr_scan", "ios": "https://dc.lft.to/lastmile_qr_scan"}, "lat": 38.9030495, "is_disabled": 0, "lon": -77.04178916666666}, {"fusion_lat": 0.0, "type": "electric_scooter", "name": "7c0f7d7b1b1cd5d35872c6714a8d536f", "fusion_lon": 0.0, "bike_id": "7c0f7d7b1b1cd5d35872c6714a8d536f", "is_reserved": 0, "rental_uris": {"android": "https://dc.lft.to/lastmile_qr_scan", "ios": "https://dc.lft.to/lastmile_qr_scan"}, "lat": 38.8923155, "is_disabled": 0, "lon": -77.03181966666666}, {"fusion_lat": 0.0, "type": "electric_scooter", "name": "476a80ed173944a8759f689316f42f0b", "fusion_lon": 0.0, "bike_id": "476a80ed173944a8759f689316f42f0b", "is_reserved": 0, "rental_uris": {"android": "https://dc.lft.to/lastmile_qr_scan", "ios": "https://dc.lft.to/lastmile_qr_scan"}, "lat": 38.891648, "is_disabled": 0, "lon": -76.951821}, {"fusion_lat": 0.0, "type": "electric_bike", "name": "9b84408a2fa956e341de58c869322afe", "fusion_lon": 0.0, "bike_id": "9b84408a2fa956e341de58c869322afe", "is_reserved": 0, "rental_uris": {"android": "https://dc.lft.to/lastmile_qr_scan", "ios": "https://dc.lft.to/lastmile_qr_scan"}, "lat": 38.795120833333335, "is_disabled": 0, "lon": -77.00700733333333}, {"fusion_lat": 0.0, "type": "electric_scooter", "name": "84c7c3cc2b90bea20bb9bea4d0703647", "fusion_lon": 0.0, "bike_id": "84c7c3cc2b90bea20bb9bea4d0703647", "is_reserved": 0, "rental_uris": {"android": "https://dc.lft.to/lastmile_qr_scan", "ios": "https://dc.lft.to/lastmile_qr_scan"}, "lat": 38.8874645, "is_disabled": 0, "lon": -77.03162766666667}, {"fusion_lat": 0.0, "type": "electric_scooter", "name": "ecbf84ddd095c94a2bb84dc28b70d157", "fusion_lon": 0.0, "bike_id": "ecbf84ddd095c94a2bb84dc28b70d157", "is_reserved": 0, "rental_uris": {"android": "https://dc.lft.to/lastmile_qr_scan", "ios": "https://dc.lft.to/lastmile_qr_scan"}, "lat": 38.917260166666665, "is_disabled": 0, "lon": -77.03200716666667}, {"fusion_lat": 0.0, "type": "electric_scooter", "name": "f0d94af4e67eb54b420039a3b51388e4", "fusion_lon": 0.0, "bike_id": "f0d94af4e67eb54b420039a3b51388e4", "is_reserved": 0, "rental_uris": {"android": "https://dc.lft.to/lastmile_qr_scan", "ios": "https://dc.lft.to/lastmile_qr_scan"}, "lat": 38.897184333333335, "is_disabled": 0, "lon": -77.02698783333334}, {"fusion_lat": 0.0, "type": "electric_scooter", "name": "6612f37a6c8e85b15978b2e12b80ffba", "fusion_lon": 0.0, "bike_id": "6612f37a6c8e85b15978b2e12b80ffba", "is_reserved": 0, "rental_uris": {"android": "https://dc.lft.to/lastmile_qr_scan", "ios": "https://dc.lft.to/lastmile_qr_scan"}, "lat": 38.8810235, "is_disabled": 0, "lon": -77.01658483333334}, {"fusion_lat": 0.0, "type": "electric_bike", "name": "5cf5a2ce88fb83afae0b9e4040587bca", "fusion_lon": 0.0, "bike_id": "5cf5a2ce88fb83afae0b9e4040587bca", "is_reserved": 0, "rental_uris": {"android": "https://dc.lft.to/lastmile_qr_scan", "ios": "https://dc.lft.to/lastmile_qr_scan"}, "lat": 38.962098833333336, "is_disabled": 0, "lon": -76.99379616666667}, {"fusion_lat": 0.0, "type": "electric_scooter", "name": "390cdc0bae873211d3791c71216ebbda", "fusion_lon": 0.0, "bike_id": "390cdc0bae873211d3791c71216ebbda", "is_reserved": 0, "rental_uris": {"android": "https://dc.lft.to/lastmile_qr_scan", "ios": "https://dc.lft.to/lastmile_qr_scan"}, "lat": 38.91212866666667, "is_disabled": 0, "lon": -77.03847483333334}, {"fusion_lat": 0.0, "type": "electric_scooter", "name": "b34ddad29e9d1d6135cc875e1f2cf789", "fusion_lon": 0.0, "bike_id": "b34ddad29e9d1d6135cc875e1f2cf789", "is_reserved": 0, "rental_uris": {"android": "https://dc.lft.to/lastmile_qr_scan", "ios": "https://dc.lft.to/lastmile_qr_scan"}, "lat": 38.89546083333333, "is_disabled": 0, "lon": -77.05658916666667}, {"fusion_lat": 0.0, "type": "electric_scooter", "name": "dbbcd87799829b65ca57ff5195ec3085", "fusion_lon": 0.0, "bike_id": "dbbcd87799829b65ca57ff5195ec3085", "is_reserved": 0, "rental_uris": {"android": "https://dc.lft.to/lastmile_qr_scan", "ios": "https://dc.lft.to/lastmile_qr_scan"}, "lat": 38.927024, "is_disabled": 0, "lon": -77.036354}, {"fusion_lat": 0.0, "type": "electric_scooter", "name": "ebc6149d993cab16337538251d2f9bb8", "fusion_lon": 0.0, "bike_id": "ebc6149d993cab16337538251d2f9bb8", "is_reserved": 0, "rental_uris": {"android": "https://dc.lft.to/lastmile_qr_scan", "ios": "https://dc.lft.to/lastmile_qr_scan"}, "lat": 38.905686333333335, "is_disabled": 0, "lon": -77.02991366666667}, {"fusion_lat": 0.0, "type": "electric_scooter", "name": "1a8373a5cd6d0c206cba19d93fd96d2c", "fusion_lon": 0.0, "bike_id": "1a8373a5cd6d0c206cba19d93fd96d2c", "is_reserved": 0, "rental_uris": {"android": "https://dc.lft.to/lastmile_qr_scan", "ios": "https://dc.lft.to/lastmile_qr_scan"}, "lat": 38.901080666666665, "is_disabled": 0, "lon": -77.04340583333334}, {"fusion_lat": 0.0, "type": "electric_scooter", "name": "2ee34bedb27e0248c04d6a6370570689", "fusion_lon": 0.0, "bike_id": "2ee34bedb27e0248c04d6a6370570689", "is_reserved": 0, "rental_uris": {"android": "https://dc.lft.to/lastmile_qr_scan", "ios": "https://dc.lft.to/lastmile_qr_scan"}, "lat": 38.9237995, "is_disabled": 0, "lon": -77.03086483333334}, {"fusion_lat": 0.0, "type": "electric_scooter", "name": "d5576f588aabe5443cbca4d04a6d8ff5", "fusion_lon": 0.0, "bike_id": "d5576f588aabe5443cbca4d04a6d8ff5", "is_reserved": 0, "rental_uris": {"android": "https://dc.lft.to/lastmile_qr_scan", "ios": "https://dc.lft.to/lastmile_qr_scan"}, "lat": 38.950671166666666, "is_disabled": 0, "lon": -76.995658}, {"fusion_lat": 0.0, "type": "electric_bike", "name": "218cc2d27003c2f7c425f6e654707d7c", "fusion_lon": 0.0, "bike_id": "218cc2d27003c2f7c425f6e654707d7c", "is_reserved": 0, "rental_uris": {"android": "https://dc.lft.to/lastmile_qr_scan", "ios": "https://dc.lft.to/lastmile_qr_scan"}, "lat": 38.82375583333334, "is_disabled": 0, "lon": -77.00229533333334}, {"fusion_lat": 0.0, "type": "electric_scooter", "name": "9bc0ec7cfd7fbedf4337a992efccf026", "fusion_lon": 0.0, "bike_id": "9bc0ec7cfd7fbedf4337a992efccf026", "is_reserved": 0, "rental_uris": {"android": "https://dc.lft.to/lastmile_qr_scan", "ios": "https://dc.lft.to/lastmile_qr_scan"}, "lat": 38.89349683333333, "is_disabled": 0, "lon": -77.003313}, {"fusion_lat": 0.0, "type": "electric_bike", "name": "3661d83281282969afb897f5267e3727", "fusion_lon": 0.0, "bike_id": "3661d83281282969afb897f5267e3727", "is_reserved": 0, "rental_uris": {"android": "https://dc.lft.to/lastmile_qr_scan", "ios": "https://dc.lft.to/lastmile_qr_scan"}, "lat": 38.854161833333336, "is_disabled": 0, "lon": -77.12076916666666}, {"fusion_lat": 0.0, "type": "electric_scooter", "name": "5169f8e061df45cf08fb6bdaba14017b", "fusion_lon": 0.0, "bike_id": "5169f8e061df45cf08fb6bdaba14017b", "is_reserved": 0, "rental_uris": {"android": "https://dc.lft.to/lastmile_qr_scan", "ios": "https://dc.lft.to/lastmile_qr_scan"}, "lat": 38.905971666666666, "is_disabled": 0, "lon": -77.04685616666667}, {"fusion_lat": 0.0, "type": "electric_scooter", "name": "5bc28a3dac5f32ef7761d3756f3a3916", "fusion_lon": 0.0, "bike_id": "5bc28a3dac5f32ef7761d3756f3a3916", "is_reserved": 0, "rental_uris": {"android": "https://dc.lft.to/lastmile_qr_scan", "ios": "https://dc.lft.to/lastmile_qr_scan"}, "lat": 38.897265166666664, "is_disabled": 0, "lon": -77.00336783333333}, {"fusion_lat": 0.0, "type": "electric_scooter", "name": "4c7d5173eeb3cd1139bedf165ae5bea5", "fusion_lon": 0.0, "bike_id": "4c7d5173eeb3cd1139bedf165ae5bea5", "is_reserved": 0, "rental_uris": {"android": "https://dc.lft.to/lastmile_qr_scan", "ios": "https://dc.lft.to/lastmile_qr_scan"}, "lat": 38.92057633333334, "is_disabled": 0, "lon": -77.0334425}, {"fusion_lat": 0.0, "type": "electric_scooter", "name": "ebcb0d0b9e60d9e3f8aee71cf1d56667", "fusion_lon": 0.0, "bike_id": "ebcb0d0b9e60d9e3f8aee71cf1d56667", "is_reserved": 0, "rental_uris": {"android": "https://dc.lft.to/lastmile_qr_scan", "ios": "https://dc.lft.to/lastmile_qr_scan"}, "lat": 38.90240683333333, "is_disabled": 0, "lon": -77.02656166666667}, {"fusion_lat": 0.0, "type": "electric_scooter", "name": "d745d662bbedb29892c1dba77b14ac08", "fusion_lon": 0.0, "bike_id": "d745d662bbedb29892c1dba77b14ac08", "is_reserved": 0, "rental_uris": {"android": "https://dc.lft.to/lastmile_qr_scan", "ios": "https://dc.lft.to/lastmile_qr_scan"}, "lat": 38.89915883333333, "is_disabled": 0, "lon": -76.93377766666667}, {"fusion_lat": 0.0, "type": "electric_bike", "name": "899c41dddc05ac7c3b8f972c92679735", "fusion_lon": 0.0, "bike_id": "899c41dddc05ac7c3b8f972c92679735", "is_reserved": 0, "rental_uris": {"android": "https://dc.lft.to/lastmile_qr_scan", "ios": "https://dc.lft.to/lastmile_qr_scan"}, "lat": 38.89348566666666, "is_disabled": 0, "lon": -77.1874075}, {"fusion_lat": 0.0, "type": "electric_scooter", "name": "4b87a8e38c62e7fbafc7cc4e8d4075c0", "fusion_lon": 0.0, "bike_id": "4b87a8e38c62e7fbafc7cc4e8d4075c0", "is_reserved": 0, "rental_uris": {"android": "https://dc.lft.to/lastmile_qr_scan", "ios": "https://dc.lft.to/lastmile_qr_scan"}, "lat": 38.896020166666666, "is_disabled": 0, "lon": -77.05438933333333}, {"fusion_lat": 0.0, "type": "electric_scooter", "name": "e7607ad74e429da3fe512ce22cdeda82", "fusion_lon": 0.0, "bike_id": "e7607ad74e429da3fe512ce22cdeda82", "is_reserved": 0, "rental_uris": {"android": "https://dc.lft.to/lastmile_qr_scan", "ios": "https://dc.lft.to/lastmile_qr_scan"}, "lat": 38.912286, "is_disabled": 0, "lon": -77.02275316666666}, {"fusion_lat": 0.0, "type": "electric_scooter", "name": "df563c359756ac0df7cf92fcbbe810ba", "fusion_lon": 0.0, "bike_id": "df563c359756ac0df7cf92fcbbe810ba", "is_reserved": 0, "rental_uris": {"android": "https://dc.lft.to/lastmile_qr_scan", "ios": "https://dc.lft.to/lastmile_qr_scan"}, "lat": 38.9235935, "is_disabled": 0, "lon": -77.05047183333333}, {"fusion_lat": 0.0, "type": "electric_scooter", "name": "118a2cf1bb9204ab3ecdf9a3988e3246", "fusion_lon": 0.0, "bike_id": "118a2cf1bb9204ab3ecdf9a3988e3246", "is_reserved": 0, "rental_uris": {"android": "https://dc.lft.to/lastmile_qr_scan", "ios": "https://dc.lft.to/lastmile_qr_scan"}, "lat": 38.91168316666667, "is_disabled": 0, "lon": -77.04917516666667}, {"fusion_lat": 0.0, "type": "electric_scooter", "name": "fe3468ce10187bca7526d436b74205ef", "fusion_lon": 0.0, "bike_id": "fe3468ce10187bca7526d436b74205ef", "is_reserved": 0, "rental_uris": {"android": "https://dc.lft.to/lastmile_qr_scan", "ios": "https://dc.lft.to/lastmile_qr_scan"}, "lat": 38.893218, "is_disabled": 0, "lon": -76.9438125}, {"fusion_lat": 0.0, "type": "electric_scooter", "name": "7b754d1dde3833a2a4601234328ca216", "fusion_lon": 0.0, "bike_id": "7b754d1dde3833a2a4601234328ca216", "is_reserved": 0, "rental_uris": {"android": "https://dc.lft.to/lastmile_qr_scan", "ios": "https://dc.lft.to/lastmile_qr_scan"}, "lat": 38.905384833333336, "is_disabled": 0, "lon": -77.005627}, {"fusion_lat": 0.0, "type": "electric_scooter", "name": "07cbc4ed34366abef3bdf221e81d2d16", "fusion_lon": 0.0, "bike_id": "07cbc4ed34366abef3bdf221e81d2d16", "is_reserved": 0, "rental_uris": {"android": "https://dc.lft.to/lastmile_qr_scan", "ios": "https://dc.lft.to/lastmile_qr_scan"}, "lat": 38.90508166666667, "is_disabled": 0, "lon": -76.97924133333333}, {"fusion_lat": 0.0, "type": "electric_scooter", "name": "7b21975536a632655fe0c74b392ba1f0", "fusion_lon": 0.0, "bike_id": "7b21975536a632655fe0c74b392ba1f0", "is_reserved": 0, "rental_uris": {"android": "https://dc.lft.to/lastmile_qr_scan", "ios": "https://dc.lft.to/lastmile_qr_scan"}, "lat": 38.8875495, "is_disabled": 0, "lon": -77.00876383333333}, {"fusion_lat": 0.0, "type": "electric_scooter", "name": "cf0adbb60b448b793d35cd0c219594dc", "fusion_lon": 0.0, "bike_id": "cf0adbb60b448b793d35cd0c219594dc", "is_reserved": 0, "rental_uris": {"android": "https://dc.lft.to/lastmile_qr_scan", "ios": "https://dc.lft.to/lastmile_qr_scan"}, "lat": 38.905547, "is_disabled": 0, "lon": -76.97392316666667}, {"fusion_lat": 0.0, "type": "electric_scooter", "name": "97fa068962356918651defba10b75fd6", "fusion_lon": 0.0, "bike_id": "97fa068962356918651defba10b75fd6", "is_reserved": 0, "rental_uris": {"android": "https://dc.lft.to/lastmile_qr_scan", "ios": "https://dc.lft.to/lastmile_qr_scan"}, "lat": 38.8622105, "is_disabled": 0, "lon": -76.99497066666666}, {"fusion_lat": 0.0, "type": "electric_scooter", "name": "98dfea10b1b018d33dc359be44e2648f", "fusion_lon": 0.0, "bike_id": "98dfea10b1b018d33dc359be44e2648f", "is_reserved": 0, "rental_uris": {"android": "https://dc.lft.to/lastmile_qr_scan", "ios": "https://dc.lft.to/lastmile_qr_scan"}, "lat": 38.92412916666667, "is_disabled": 0, "lon": -77.035458}, {"fusion_lat": 0.0, "type": "electric_bike", "name": "e719d78db1268ce8b75d6cba87100e34", "fusion_lon": 0.0, "bike_id": "e719d78db1268ce8b75d6cba87100e34", "is_reserved": 0, "rental_uris": {"android": "https://dc.lft.to/lastmile_qr_scan", "ios": "https://dc.lft.to/lastmile_qr_scan"}, "lat": 39.02433583333333, "is_disabled": 0, "lon": -77.13099033333333}, {"fusion_lat": 0.0, "type": "electric_scooter", "name": "aa4d8e1d10e472d56c94c38f41b3828e", "fusion_lon": 0.0, "bike_id": "aa4d8e1d10e472d56c94c38f41b3828e", "is_reserved": 0, "rental_uris": {"android": "https://dc.lft.to/lastmile_qr_scan", "ios": "https://dc.lft.to/lastmile_qr_scan"}, "lat": 38.91742333333333, "is_disabled": 0, "lon": -77.01085466666666}, {"fusion_lat": 0.0, "type": "electric_scooter", "name": "7aa4e252ce18c1377b593773afb72be0", "fusion_lon": 0.0, "bike_id": "7aa4e252ce18c1377b593773afb72be0", "is_reserved": 0, "rental_uris": {"android": "https://dc.lft.to/lastmile_qr_scan", "ios": "https://dc.lft.to/lastmile_qr_scan"}, "lat": 38.8859425, "is_disabled": 0, "lon": -76.99148233333334}, {"fusion_lat": 0.0, "type": "electric_scooter", "name": "2e87bbf404907257a1b22793079652c5", "fusion_lon": 0.0, "bike_id": "2e87bbf404907257a1b22793079652c5", "is_reserved": 0, "rental_uris": {"android": "https://dc.lft.to/lastmile_qr_scan", "ios": "https://dc.lft.to/lastmile_qr_scan"}, "lat": 38.92088066666667, "is_disabled": 0, "lon": -77.03288166666667}, {"fusion_lat": 0.0, "type": "electric_scooter", "name": "20fe6cd29114bc2b30c87ed38f361790", "fusion_lon": 0.0, "bike_id": "20fe6cd29114bc2b30c87ed38f361790", "is_reserved": 0, "rental_uris": {"android": "https://dc.lft.to/lastmile_qr_scan", "ios": "https://dc.lft.to/lastmile_qr_scan"}, "lat": 38.887060166666664, "is_disabled": 0, "lon": -77.0136555}, {"fusion_lat": 0.0, "type": "electric_scooter", "name": "f8016a58670a055d92312a5c7665e4db", "fusion_lon": 0.0, "bike_id": "f8016a58670a055d92312a5c7665e4db", "is_reserved": 0, "rental_uris": {"android": "https://dc.lft.to/lastmile_qr_scan", "ios": "https://dc.lft.to/lastmile_qr_scan"}, "lat": 38.945946166666666, "is_disabled": 0, "lon": -77.02666533333333}, {"fusion_lat": 0.0, "type": "electric_scooter", "name": "11970969303857a3bdd5eb4ecd67757a", "fusion_lon": 0.0, "bike_id": "11970969303857a3bdd5eb4ecd67757a", "is_reserved": 0, "rental_uris": {"android": "https://dc.lft.to/lastmile_qr_scan", "ios": "https://dc.lft.to/lastmile_qr_scan"}, "lat": 38.86236733333333, "is_disabled": 0, "lon": -76.9948705}, {"fusion_lat": 0.0, "type": "electric_scooter", "name": "45770a653537425d3dae9a3672d6b6eb", "fusion_lon": 0.0, "bike_id": "45770a653537425d3dae9a3672d6b6eb", "is_reserved": 0, "rental_uris": {"android": "https://dc.lft.to/lastmile_qr_scan", "ios": "https://dc.lft.to/lastmile_qr_scan"}, "lat": 38.905325, "is_disabled": 0, "lon": -77.04180233333334}, {"fusion_lat": 0.0, "type": "electric_scooter", "name": "92b0b592c7fd943d7665447558d2ce2f", "fusion_lon": 0.0, "bike_id": "92b0b592c7fd943d7665447558d2ce2f", "is_reserved": 0, "rental_uris": {"android": "https://dc.lft.to/lastmile_qr_scan", "ios": "https://dc.lft.to/lastmile_qr_scan"}, "lat": 38.90935483333333, "is_disabled": 0, "lon": -77.0442775}, {"fusion_lat": 0.0, "type": "electric_bike", "name": "d8db31024008b03462a5e7088d981f49", "fusion_lon": 0.0, "bike_id": "d8db31024008b03462a5e7088d981f49", "is_reserved": 0, "rental_uris": {"android": "https://dc.lft.to/lastmile_qr_scan", "ios": "https://dc.lft.to/lastmile_qr_scan"}, "lat": 38.94780333333333, "is_disabled": 0, "lon": -76.97212316666666}, {"fusion_lat": 0.0, "type": "electric_scooter", "name": "96ff9829b025231bb74008add5bc0b05", "fusion_lon": 0.0, "bike_id": "96ff9829b025231bb74008add5bc0b05", "is_reserved": 0, "rental_uris": {"android": "https://dc.lft.to/lastmile_qr_scan", "ios": "https://dc.lft.to/lastmile_qr_scan"}, "lat": 38.939902000000004, "is_disabled": 0, "lon": -77.02888183333333}, {"fusion_lat": 0.0, "type": "electric_scooter", "name": "04ecfce56c78ddae5a09596e20f85d65", "fusion_lon": 0.0, "bike_id": "04ecfce56c78ddae5a09596e20f85d65", "is_reserved": 0, "rental_uris": {"android": "https://dc.lft.to/lastmile_qr_scan", "ios": "https://dc.lft.to/lastmile_qr_scan"}, "lat": 38.90502816666667, "is_disabled": 0, "lon": -77.05038116666667}, {"fusion_lat": 0.0, "type": "electric_scooter", "name": "02d228fd8616075cad2de8289e939f29", "fusion_lon": 0.0, "bike_id": "02d228fd8616075cad2de8289e939f29", "is_reserved": 0, "rental_uris": {"android": "https://dc.lft.to/lastmile_qr_scan", "ios": "https://dc.lft.to/lastmile_qr_scan"}, "lat": 38.931833833333336, "is_disabled": 0, "lon": -77.038408}, {"fusion_lat": 0.0, "type": "electric_scooter", "name": "11e248c9eaaa09fe0854117358c0dd91", "fusion_lon": 0.0, "bike_id": "11e248c9eaaa09fe0854117358c0dd91", "is_reserved": 0, "rental_uris": {"android": "https://dc.lft.to/lastmile_qr_scan", "ios": "https://dc.lft.to/lastmile_qr_scan"}, "lat": 38.866998333333335, "is_disabled": 0, "lon": -76.98710633333333}, {"fusion_lat": 0.0, "type": "electric_scooter", "name": "6c2fdeb52ee90373c9bb1cfe558b8a44", "fusion_lon": 0.0, "bike_id": "6c2fdeb52ee90373c9bb1cfe558b8a44", "is_reserved": 0, "rental_uris": {"android": "https://dc.lft.to/lastmile_qr_scan", "ios": "https://dc.lft.to/lastmile_qr_scan"}, "lat": 38.9045845, "is_disabled": 0, "lon": -77.0390245}, {"fusion_lat": 0.0, "type": "electric_scooter", "name": "3c25bd91a756c635cf6e0c8d05f7ff3f", "fusion_lon": 0.0, "bike_id": "3c25bd91a756c635cf6e0c8d05f7ff3f", "is_reserved": 0, "rental_uris": {"android": "https://dc.lft.to/lastmile_qr_scan", "ios": "https://dc.lft.to/lastmile_qr_scan"}, "lat": 38.892208333333336, "is_disabled": 0, "lon": -77.03188733333333}, {"fusion_lat": 0.0, "type": "electric_bike", "name": "a5c1cfe4179de9b96ada7c201b6b05ea", "fusion_lon": 0.0, "bike_id": "a5c1cfe4179de9b96ada7c201b6b05ea", "is_reserved": 0, "rental_uris": {"android": "https://dc.lft.to/lastmile_qr_scan", "ios": "https://dc.lft.to/lastmile_qr_scan"}, "lat": 38.880455166666664, "is_disabled": 0, "lon": -77.0112835}, {"fusion_lat": 0.0, "type": "electric_scooter", "name": "0450fcf391ca81ecc010dc1a356f93b9", "fusion_lon": 0.0, "bike_id": "0450fcf391ca81ecc010dc1a356f93b9", "is_reserved": 0, "rental_uris": {"android": "https://dc.lft.to/lastmile_qr_scan", "ios": "https://dc.lft.to/lastmile_qr_scan"}, "lat": 38.867281166666665, "is_disabled": 0, "lon": -76.98782816666667}, {"fusion_lat": 0.0, "type": "electric_scooter", "name": "edffe3ea02c8f8de21c0b16f8c5593d1", "fusion_lon": 0.0, "bike_id": "edffe3ea02c8f8de21c0b16f8c5593d1", "is_reserved": 0, "rental_uris": {"android": "https://dc.lft.to/lastmile_qr_scan", "ios": "https://dc.lft.to/lastmile_qr_scan"}, "lat": 38.9110765, "is_disabled": 0, "lon": -77.04499733333333}, {"fusion_lat": 0.0, "type": "electric_scooter", "name": "9ad35686d714712bf6dfa9c5a8638f31", "fusion_lon": 0.0, "bike_id": "9ad35686d714712bf6dfa9c5a8638f31", "is_reserved": 0, "rental_uris": {"android": "https://dc.lft.to/lastmile_qr_scan", "ios": "https://dc.lft.to/lastmile_qr_scan"}, "lat": 38.92199016666667, "is_disabled": 0, "lon": -77.0297435}, {"fusion_lat": 0.0, "type": "electric_scooter", "name": "7c36fcc03b36f3332ac11cf1f5e02984", "fusion_lon": 0.0, "bike_id": "7c36fcc03b36f3332ac11cf1f5e02984", "is_reserved": 0, "rental_uris": {"android": "https://dc.lft.to/lastmile_qr_scan", "ios": "https://dc.lft.to/lastmile_qr_scan"}, "lat": 38.913421, "is_disabled": 0, "lon": -77.00927516666667}, {"fusion_lat": 0.0, "type": "electric_scooter", "name": "2c927cb4aa1e54a6d26f6a6a12ab389a", "fusion_lon": 0.0, "bike_id": "2c927cb4aa1e54a6d26f6a6a12ab389a", "is_reserved": 0, "rental_uris": {"android": "https://dc.lft.to/lastmile_qr_scan", "ios": "https://dc.lft.to/lastmile_qr_scan"}, "lat": 38.892186, "is_disabled": 0, "lon": -77.02620766666666}, {"fusion_lat": 0.0, "type": "electric_scooter", "name": "69dc34bbdae83b69b86fbf96da4719c1", "fusion_lon": 0.0, "bike_id": "69dc34bbdae83b69b86fbf96da4719c1", "is_reserved": 0, "rental_uris": {"android": "https://dc.lft.to/lastmile_qr_scan", "ios": "https://dc.lft.to/lastmile_qr_scan"}, "lat": 38.937592333333335, "is_disabled": 0, "lon": -77.021999}, {"fusion_lat": 0.0, "type": "electric_scooter", "name": "d71d36faa31fb9625de5fa5d2de55c37", "fusion_lon": 0.0, "bike_id": "d71d36faa31fb9625de5fa5d2de55c37", "is_reserved": 0, "rental_uris": {"android": "https://dc.lft.to/lastmile_qr_scan", "ios": "https://dc.lft.to/lastmile_qr_scan"}, "lat": 38.880176166666665, "is_disabled": 0, "lon": -77.02662066666667}, {"fusion_lat": 0.0, "type": "electric_scooter", "name": "6af2d3c3425118bdeb4ff4dd3b15d2ab", "fusion_lon": 0.0, "bike_id": "6af2d3c3425118bdeb4ff4dd3b15d2ab", "is_reserved": 0, "rental_uris": {"android": "https://dc.lft.to/lastmile_qr_scan", "ios": "https://dc.lft.to/lastmile_qr_scan"}, "lat": 38.915871, "is_disabled": 0, "lon": -77.041635}, {"fusion_lat": 0.0, "type": "electric_scooter", "name": "65b1a1b70ade39dba501a73a532bbbcc", "fusion_lon": 0.0, "bike_id": "65b1a1b70ade39dba501a73a532bbbcc", "is_reserved": 0, "rental_uris": {"android": "https://dc.lft.to/lastmile_qr_scan", "ios": "https://dc.lft.to/lastmile_qr_scan"}, "lat": 38.92902433333333, "is_disabled": 0, "lon": -77.037478}, {"fusion_lat": 0.0, "type": "electric_scooter", "name": "ea85d3d150a81b87788929f7271f2b3a", "fusion_lon": 0.0, "bike_id": "ea85d3d150a81b87788929f7271f2b3a", "is_reserved": 0, "rental_uris": {"android": "https://dc.lft.to/lastmile_qr_scan", "ios": "https://dc.lft.to/lastmile_qr_scan"}, "lat": 38.922486166666665, "is_disabled": 0, "lon": -77.072335}, {"fusion_lat": 0.0, "type": "electric_bike", "name": "296f87095cbd8e47ecf682d49d6ba111", "fusion_lon": 0.0, "bike_id": "296f87095cbd8e47ecf682d49d6ba111", "is_reserved": 0, "rental_uris": {"android": "https://dc.lft.to/lastmile_qr_scan", "ios": "https://dc.lft.to/lastmile_qr_scan"}, "lat": 38.8871155, "is_disabled": 0, "lon": -77.13304783333334}, {"fusion_lat": 0.0, "type": "electric_scooter", "name": "50c126ba45d67a1f6ebaf7f71e8e8ced", "fusion_lon": 0.0, "bike_id": "50c126ba45d67a1f6ebaf7f71e8e8ced", "is_reserved": 0, "rental_uris": {"android": "https://dc.lft.to/lastmile_qr_scan", "ios": "https://dc.lft.to/lastmile_qr_scan"}, "lat": 38.923350666666664, "is_disabled": 0, "lon": -77.0214655}, {"fusion_lat": 0.0, "type": "electric_scooter", "name": "4708572e46fa0de1495a8cf925556eef", "fusion_lon": 0.0, "bike_id": "4708572e46fa0de1495a8cf925556eef", "is_reserved": 0, "rental_uris": {"android": "https://dc.lft.to/lastmile_qr_scan", "ios": "https://dc.lft.to/lastmile_qr_scan"}, "lat": 38.910361333333334, "is_disabled": 0, "lon": -77.03679616666666}, {"fusion_lat": 0.0, "type": "electric_scooter", "name": "37259a25d068728a3969e9d290b552d7", "fusion_lon": 0.0, "bike_id": "37259a25d068728a3969e9d290b552d7", "is_reserved": 0, "rental_uris": {"android": "https://dc.lft.to/lastmile_qr_scan", "ios": "https://dc.lft.to/lastmile_qr_scan"}, "lat": 38.923173166666665, "is_disabled": 0, "lon": -77.0339785}, {"fusion_lat": 0.0, "type": "electric_scooter", "name": "06093df60c28d8134fcc8ce86aa8b929", "fusion_lon": 0.0, "bike_id": "06093df60c28d8134fcc8ce86aa8b929", "is_reserved": 0, "rental_uris": {"android": "https://dc.lft.to/lastmile_qr_scan", "ios": "https://dc.lft.to/lastmile_qr_scan"}, "lat": 38.91431566666667, "is_disabled": 0, "lon": -77.01709483333333}, {"fusion_lat": 0.0, "type": "electric_scooter", "name": "78c759eb89681fbf2d003beaf1968628", "fusion_lon": 0.0, "bike_id": "78c759eb89681fbf2d003beaf1968628", "is_reserved": 0, "rental_uris": {"android": "https://dc.lft.to/lastmile_qr_scan", "ios": "https://dc.lft.to/lastmile_qr_scan"}, "lat": 38.90711183333333, "is_disabled": 0, "lon": -77.043578}, {"fusion_lat": 0.0, "type": "electric_scooter", "name": "f1beb58ba62a7f5bf7d08b1e4d6b0d98", "fusion_lon": 0.0, "bike_id": "f1beb58ba62a7f5bf7d08b1e4d6b0d98", "is_reserved": 0, "rental_uris": {"android": "https://dc.lft.to/lastmile_qr_scan", "ios": "https://dc.lft.to/lastmile_qr_scan"}, "lat": 38.93041733333333, "is_disabled": 0, "lon": -77.03797816666666}, {"fusion_lat": 0.0, "type": "electric_scooter", "name": "d51b57bd6bf18d9e147fe13c09f9b168", "fusion_lon": 0.0, "bike_id": "d51b57bd6bf18d9e147fe13c09f9b168", "is_reserved": 0, "rental_uris": {"android": "https://dc.lft.to/lastmile_qr_scan", "ios": "https://dc.lft.to/lastmile_qr_scan"}, "lat": 38.88013083333333, "is_disabled": 0, "lon": -77.02481033333333}, {"fusion_lat": 0.0, "type": "electric_scooter", "name": "6f97d7756fa4b0a8671ee5f262315fe2", "fusion_lon": 0.0, "bike_id": "6f97d7756fa4b0a8671ee5f262315fe2", "is_reserved": 0, "rental_uris": {"android": "https://dc.lft.to/lastmile_qr_scan", "ios": "https://dc.lft.to/lastmile_qr_scan"}, "lat": 38.923393, "is_disabled": 0, "lon": -77.018998}, {"fusion_lat": 0.0, "type": "electric_scooter", "name": "11385f20a00df35d05b1bd6d565ca8be", "fusion_lon": 0.0, "bike_id": "11385f20a00df35d05b1bd6d565ca8be", "is_reserved": 0, "rental_uris": {"android": "https://dc.lft.to/lastmile_qr_scan", "ios": "https://dc.lft.to/lastmile_qr_scan"}, "lat": 38.910633, "is_disabled": 0, "lon": -77.054707}, {"fusion_lat": 0.0, "type": "electric_scooter", "name": "a8d6c2ba962473bd508a88e00cd9a694", "fusion_lon": 0.0, "bike_id": "a8d6c2ba962473bd508a88e00cd9a694", "is_reserved": 0, "rental_uris": {"android": "https://dc.lft.to/lastmile_qr_scan", "ios": "https://dc.lft.to/lastmile_qr_scan"}, "lat": 38.90967666666667, "is_disabled": 0, "lon": -77.0324015}, {"fusion_lat": 0.0, "type": "electric_scooter", "name": "7b92194fdbd1947ceb3c5ce748cfef09", "fusion_lon": 0.0, "bike_id": "7b92194fdbd1947ceb3c5ce748cfef09", "is_reserved": 0, "rental_uris": {"android": "https://dc.lft.to/lastmile_qr_scan", "ios": "https://dc.lft.to/lastmile_qr_scan"}, "lat": 38.927504166666665, "is_disabled": 0, "lon": -77.0215225}, {"fusion_lat": 0.0, "type": "electric_scooter", "name": "632cb7df003470b7d703bfe127eb227f", "fusion_lon": 0.0, "bike_id": "632cb7df003470b7d703bfe127eb227f", "is_reserved": 0, "rental_uris": {"android": "https://dc.lft.to/lastmile_qr_scan", "ios": "https://dc.lft.to/lastmile_qr_scan"}, "lat": 38.91060433333333, "is_disabled": 0, "lon": -77.053107}, {"fusion_lat": 0.0, "type": "electric_scooter", "name": "d90076ee71f1c72ec845e9750449837e", "fusion_lon": 0.0, "bike_id": "d90076ee71f1c72ec845e9750449837e", "is_reserved": 0, "rental_uris": {"android": "https://dc.lft.to/lastmile_qr_scan", "ios": "https://dc.lft.to/lastmile_qr_scan"}, "lat": 38.909753333333335, "is_disabled": 0, "lon": -77.03448233333333}, {"fusion_lat": 0.0, "type": "electric_scooter", "name": "aeb013392baf5283402d0a7f47f3e3d5", "fusion_lon": 0.0, "bike_id": "aeb013392baf5283402d0a7f47f3e3d5", "is_reserved": 0, "rental_uris": {"android": "https://dc.lft.to/lastmile_qr_scan", "ios": "https://dc.lft.to/lastmile_qr_scan"}, "lat": 38.925425, "is_disabled": 0, "lon": -76.99853116666667}, {"fusion_lat": 0.0, "type": "electric_bike", "name": "5b7f33be1a2da5e3696499a94d32f435", "fusion_lon": 0.0, "bike_id": "5b7f33be1a2da5e3696499a94d32f435", "is_reserved": 0, "rental_uris": {"android": "https://dc.lft.to/lastmile_qr_scan", "ios": "https://dc.lft.to/lastmile_qr_scan"}, "lat": 38.908632, "is_disabled": 0, "lon": -76.9995875}, {"fusion_lat": 0.0, "type": "electric_bike", "name": "216d3c53c2f4b87cedf97e41ea4d3d9a", "fusion_lon": 0.0, "bike_id": "216d3c53c2f4b87cedf97e41ea4d3d9a", "is_reserved": 0, "rental_uris": {"android": "https://dc.lft.to/lastmile_qr_scan", "ios": "https://dc.lft.to/lastmile_qr_scan"}, "lat": 38.82950833333334, "is_disabled": 0, "lon": -77.1235735}, {"fusion_lat": 0.0, "type": "electric_scooter", "name": "b0bbcaaddb50255058f8d1a2298cca04", "fusion_lon": 0.0, "bike_id": "b0bbcaaddb50255058f8d1a2298cca04", "is_reserved": 0, "rental_uris": {"android": "https://dc.lft.to/lastmile_qr_scan", "ios": "https://dc.lft.to/lastmile_qr_scan"}, "lat": 38.92041116666667, "is_disabled": 0, "lon": -77.016626}, {"fusion_lat": 0.0, "type": "electric_scooter", "name": "c3a8faef08269c93efad1f83d3cda7aa", "fusion_lon": 0.0, "bike_id": "c3a8faef08269c93efad1f83d3cda7aa", "is_reserved": 0, "rental_uris": {"android": "https://dc.lft.to/lastmile_qr_scan", "ios": "https://dc.lft.to/lastmile_qr_scan"}, "lat": 38.9173125, "is_disabled": 0, "lon": -77.023118}, {"fusion_lat": 0.0, "type": "electric_scooter", "name": "85b4c5e13352ed6bbf454117ed546c74", "fusion_lon": 0.0, "bike_id": "85b4c5e13352ed6bbf454117ed546c74", "is_reserved": 0, "rental_uris": {"android": "https://dc.lft.to/lastmile_qr_scan", "ios": "https://dc.lft.to/lastmile_qr_scan"}, "lat": 38.92684216666667, "is_disabled": 0, "lon": -77.01487216666666}, {"fusion_lat": 0.0, "type": "electric_scooter", "name": "fe8a4d4d0dcc35e3b13e7aa97d62c08d", "fusion_lon": 0.0, "bike_id": "fe8a4d4d0dcc35e3b13e7aa97d62c08d", "is_reserved": 0, "rental_uris": {"android": "https://dc.lft.to/lastmile_qr_scan", "ios": "https://dc.lft.to/lastmile_qr_scan"}, "lat": 38.88117716666667, "is_disabled": 0, "lon": -76.99007616666667}, {"fusion_lat": 0.0, "type": "electric_scooter", "name": "da102cc0cfd139133ea602dada172659", "fusion_lon": 0.0, "bike_id": "da102cc0cfd139133ea602dada172659", "is_reserved": 0, "rental_uris": {"android": "https://dc.lft.to/lastmile_qr_scan", "ios": "https://dc.lft.to/lastmile_qr_scan"}, "lat": 38.90031283333333, "is_disabled": 0, "lon": -77.03969183333334}, {"fusion_lat": 0.0, "type": "electric_scooter", "name": "7c086ac3530fc9ad9f1976a194cb0234", "fusion_lon": 0.0, "bike_id": "7c086ac3530fc9ad9f1976a194cb0234", "is_reserved": 0, "rental_uris": {"android": "https://dc.lft.to/lastmile_qr_scan", "ios": "https://dc.lft.to/lastmile_qr_scan"}, "lat": 38.92239816666667, "is_disabled": 0, "lon": -77.01946916666667}, {"fusion_lat": 0.0, "type": "electric_bike", "name": "2ebafde7c6b9e0d2111054d20c760488", "fusion_lon": 0.0, "bike_id": "2ebafde7c6b9e0d2111054d20c760488", "is_reserved": 0, "rental_uris": {"android": "https://dc.lft.to/lastmile_qr_scan", "ios": "https://dc.lft.to/lastmile_qr_scan"}, "lat": 38.999452833333336, "is_disabled": 0, "lon": -77.07429033333334}, {"fusion_lat": 0.0, "type": "electric_scooter", "name": "afb80e52f382dd48424d7223f4ab1adf", "fusion_lon": 0.0, "bike_id": "afb80e52f382dd48424d7223f4ab1adf", "is_reserved": 0, "rental_uris": {"android": "https://dc.lft.to/lastmile_qr_scan", "ios": "https://dc.lft.to/lastmile_qr_scan"}, "lat": 38.90372033333333, "is_disabled": 0, "lon": -77.03478783333334}, {"fusion_lat": 0.0, "type": "electric_scooter", "name": "0877fe997b06acdfc2651b84bc369128", "fusion_lon": 0.0, "bike_id": "0877fe997b06acdfc2651b84bc369128", "is_reserved": 0, "rental_uris": {"android": "https://dc.lft.to/lastmile_qr_scan", "ios": "https://dc.lft.to/lastmile_qr_scan"}, "lat": 38.9187695, "is_disabled": 0, "lon": -77.02602083333333}, {"fusion_lat": 0.0, "type": "electric_scooter", "name": "50444e227569e37f98df85f9466f19e6", "fusion_lon": 0.0, "bike_id": "50444e227569e37f98df85f9466f19e6", "is_reserved": 0, "rental_uris": {"android": "https://dc.lft.to/lastmile_qr_scan", "ios": "https://dc.lft.to/lastmile_qr_scan"}, "lat": 38.892216166666664, "is_disabled": 0, "lon": -77.04503883333334}, {"fusion_lat": 0.0, "type": "electric_scooter", "name": "325cb6fa9fdc47d7ad5cc479edaaf652", "fusion_lon": 0.0, "bike_id": "325cb6fa9fdc47d7ad5cc479edaaf652", "is_reserved": 0, "rental_uris": {"android": "https://dc.lft.to/lastmile_qr_scan", "ios": "https://dc.lft.to/lastmile_qr_scan"}, "lat": 38.91739833333333, "is_disabled": 0, "lon": -77.0319}, {"fusion_lat": 0.0, "type": "electric_scooter", "name": "441fa3c949f48e8e8d4464b63b4cdcc6", "fusion_lon": 0.0, "bike_id": "441fa3c949f48e8e8d4464b63b4cdcc6", "is_reserved": 0, "rental_uris": {"android": "https://dc.lft.to/lastmile_qr_scan", "ios": "https://dc.lft.to/lastmile_qr_scan"}, "lat": 38.931663666666665, "is_disabled": 0, "lon": -77.034136}, {"fusion_lat": 0.0, "type": "electric_scooter", "name": "5a652702c5f2d92e1c4fb99603f68d93", "fusion_lon": 0.0, "bike_id": "5a652702c5f2d92e1c4fb99603f68d93", "is_reserved": 0, "rental_uris": {"android": "https://dc.lft.to/lastmile_qr_scan", "ios": "https://dc.lft.to/lastmile_qr_scan"}, "lat": 38.920331833333336, "is_disabled": 0, "lon": -77.0418045}, {"fusion_lat": 0.0, "type": "electric_scooter", "name": "23c16c8c218a433a6ac76f93f945cea0", "fusion_lon": 0.0, "bike_id": "23c16c8c218a433a6ac76f93f945cea0", "is_reserved": 0, "rental_uris": {"android": "https://dc.lft.to/lastmile_qr_scan", "ios": "https://dc.lft.to/lastmile_qr_scan"}, "lat": 38.900737666666664, "is_disabled": 0, "lon": -77.0269075}, {"fusion_lat": 0.0, "type": "electric_scooter", "name": "2c085374e52e1d3501a81d0bde36935c", "fusion_lon": 0.0, "bike_id": "2c085374e52e1d3501a81d0bde36935c", "is_reserved": 0, "rental_uris": {"android": "https://dc.lft.to/lastmile_qr_scan", "ios": "https://dc.lft.to/lastmile_qr_scan"}, "lat": 38.923314, "is_disabled": 0, "lon": -77.04428183333333}, {"fusion_lat": 0.0, "type": "electric_bike", "name": "1af55b38a4e46659f6c8f2ac15aee1eb", "fusion_lon": 0.0, "bike_id": "1af55b38a4e46659f6c8f2ac15aee1eb", "is_reserved": 0, "rental_uris": {"android": "https://dc.lft.to/lastmile_qr_scan", "ios": "https://dc.lft.to/lastmile_qr_scan"}, "lat": 38.80709616666667, "is_disabled": 0, "lon": -77.06170133333333}, {"fusion_lat": 0.0, "type": "electric_scooter", "name": "987ced876a012eb8bd1839b4c8b3c886", "fusion_lon": 0.0, "bike_id": "987ced876a012eb8bd1839b4c8b3c886", "is_reserved": 0, "rental_uris": {"android": "https://dc.lft.to/lastmile_qr_scan", "ios": "https://dc.lft.to/lastmile_qr_scan"}, "lat": 38.93700183333333, "is_disabled": 0, "lon": -77.06102983333334}, {"fusion_lat": 0.0, "type": "electric_scooter", "name": "f498df18bae1cd4dca2252a5bf188837", "fusion_lon": 0.0, "bike_id": "f498df18bae1cd4dca2252a5bf188837", "is_reserved": 0, "rental_uris": {"android": "https://dc.lft.to/lastmile_qr_scan", "ios": "https://dc.lft.to/lastmile_qr_scan"}, "lat": 38.902473, "is_disabled": 0, "lon": -77.033371}, {"fusion_lat": 0.0, "type": "electric_bike", "name": "f533b9e4eb0c16a571b17d634a733900", "fusion_lon": 0.0, "bike_id": "f533b9e4eb0c16a571b17d634a733900", "is_reserved": 0, "rental_uris": {"android": "https://dc.lft.to/lastmile_qr_scan", "ios": "https://dc.lft.to/lastmile_qr_scan"}, "lat": 38.9622015, "is_disabled": 0, "lon": -77.02634816666666}, {"fusion_lat": 0.0, "type": "electric_scooter", "name": "2964a8a79485df17858c62bb0c35c426", "fusion_lon": 0.0, "bike_id": "2964a8a79485df17858c62bb0c35c426", "is_reserved": 0, "rental_uris": {"android": "https://dc.lft.to/lastmile_qr_scan", "ios": "https://dc.lft.to/lastmile_qr_scan"}, "lat": 38.897362666666666, "is_disabled": 0, "lon": -77.01309683333334}, {"fusion_lat": 0.0, "type": "electric_scooter", "name": "9613c06fe7576d83769a4f3c4918b357", "fusion_lon": 0.0, "bike_id": "9613c06fe7576d83769a4f3c4918b357", "is_reserved": 0, "rental_uris": {"android": "https://dc.lft.to/lastmile_qr_scan", "ios": "https://dc.lft.to/lastmile_qr_scan"}, "lat": 38.88825416666667, "is_disabled": 0, "lon": -76.99368883333334}, {"fusion_lat": 0.0, "type": "electric_scooter", "name": "e9cecd5bff0a7818c79c1d2584941b48", "fusion_lon": 0.0, "bike_id": "e9cecd5bff0a7818c79c1d2584941b48", "is_reserved": 0, "rental_uris": {"android": "https://dc.lft.to/lastmile_qr_scan", "ios": "https://dc.lft.to/lastmile_qr_scan"}, "lat": 38.908634666666664, "is_disabled": 0, "lon": -77.042665}, {"fusion_lat": 0.0, "type": "electric_scooter", "name": "60ae2b67c16a8e708321deceb22f846d", "fusion_lon": 0.0, "bike_id": "60ae2b67c16a8e708321deceb22f846d", "is_reserved": 0, "rental_uris": {"android": "https://dc.lft.to/lastmile_qr_scan", "ios": "https://dc.lft.to/lastmile_qr_scan"}, "lat": 38.92746616666667, "is_disabled": 0, "lon": -77.02533866666667}, {"fusion_lat": 0.0, "type": "electric_scooter", "name": "6031535310af54726c4eb708820d0b13", "fusion_lon": 0.0, "bike_id": "6031535310af54726c4eb708820d0b13", "is_reserved": 0, "rental_uris": {"android": "https://dc.lft.to/lastmile_qr_scan", "ios": "https://dc.lft.to/lastmile_qr_scan"}, "lat": 38.86685416666667, "is_disabled": 0, "lon": -76.98593683333333}, {"fusion_lat": 0.0, "type": "electric_scooter", "name": "39b6171c4c51971f90f7a8e72dda973e", "fusion_lon": 0.0, "bike_id": "39b6171c4c51971f90f7a8e72dda973e", "is_reserved": 0, "rental_uris": {"android": "https://dc.lft.to/lastmile_qr_scan", "ios": "https://dc.lft.to/lastmile_qr_scan"}, "lat": 38.899956333333336, "is_disabled": 0, "lon": -76.9930355}, {"fusion_lat": 0.0, "type": "electric_scooter", "name": "7ef694f293edb3dd0cbc605c5e9d3e1a", "fusion_lon": 0.0, "bike_id": "7ef694f293edb3dd0cbc605c5e9d3e1a", "is_reserved": 0, "rental_uris": {"android": "https://dc.lft.to/lastmile_qr_scan", "ios": "https://dc.lft.to/lastmile_qr_scan"}, "lat": 38.92365066666667, "is_disabled": 0, "lon": -77.02803033333333}, {"fusion_lat": 0.0, "type": "electric_scooter", "name": "e9bfcd269985611dcf3934addee35267", "fusion_lon": 0.0, "bike_id": "e9bfcd269985611dcf3934addee35267", "is_reserved": 0, "rental_uris": {"android": "https://dc.lft.to/lastmile_qr_scan", "ios": "https://dc.lft.to/lastmile_qr_scan"}, "lat": 38.90229133333333, "is_disabled": 0, "lon": -77.04596683333334}, {"fusion_lat": 0.0, "type": "electric_scooter", "name": "0252c6914be4257684f5e4446d13473f", "fusion_lon": 0.0, "bike_id": "0252c6914be4257684f5e4446d13473f", "is_reserved": 0, "rental_uris": {"android": "https://dc.lft.to/lastmile_qr_scan", "ios": "https://dc.lft.to/lastmile_qr_scan"}, "lat": 38.8991165, "is_disabled": 0, "lon": -76.933649}, {"fusion_lat": 0.0, "type": "electric_bike", "name": "52e912a4f89e593575ef171547e42499", "fusion_lon": 0.0, "bike_id": "52e912a4f89e593575ef171547e42499", "is_reserved": 0, "rental_uris": {"android": "https://dc.lft.to/lastmile_qr_scan", "ios": "https://dc.lft.to/lastmile_qr_scan"}, "lat": 38.85207916666667, "is_disabled": 0, "lon": -77.10131616666666}, {"fusion_lat": 0.0, "type": "electric_scooter", "name": "9a76823b57caa8c625dc457614609354", "fusion_lon": 0.0, "bike_id": "9a76823b57caa8c625dc457614609354", "is_reserved": 0, "rental_uris": {"android": "https://dc.lft.to/lastmile_qr_scan", "ios": "https://dc.lft.to/lastmile_qr_scan"}, "lat": 38.929388, "is_disabled": 0, "lon": -77.03263866666667}, {"fusion_lat": 0.0, "type": "electric_scooter", "name": "5a6a6a0da185d755a8d912765b255842", "fusion_lon": 0.0, "bike_id": "5a6a6a0da185d755a8d912765b255842", "is_reserved": 0, "rental_uris": {"android": "https://dc.lft.to/lastmile_qr_scan", "ios": "https://dc.lft.to/lastmile_qr_scan"}, "lat": 38.93568283333333, "is_disabled": 0, "lon": -77.0211835}, {"fusion_lat": 0.0, "type": "electric_scooter", "name": "b28110a5cfa3415c990d2fcdb3c42e37", "fusion_lon": 0.0, "bike_id": "b28110a5cfa3415c990d2fcdb3c42e37", "is_reserved": 0, "rental_uris": {"android": "https://dc.lft.to/lastmile_qr_scan", "ios": "https://dc.lft.to/lastmile_qr_scan"}, "lat": 38.89365333333333, "is_disabled": 0, "lon": -76.94988783333334}, {"fusion_lat": 0.0, "type": "electric_scooter", "name": "6aa2487ac7eb95f7373f38011779f2f2", "fusion_lon": 0.0, "bike_id": "6aa2487ac7eb95f7373f38011779f2f2", "is_reserved": 0, "rental_uris": {"android": "https://dc.lft.to/lastmile_qr_scan", "ios": "https://dc.lft.to/lastmile_qr_scan"}, "lat": 38.88715066666666, "is_disabled": 0, "lon": -77.02202116666666}, {"fusion_lat": 0.0, "type": "electric_scooter", "name": "5d3aa22a66f91591df21f525e0892c14", "fusion_lon": 0.0, "bike_id": "5d3aa22a66f91591df21f525e0892c14", "is_reserved": 0, "rental_uris": {"android": "https://dc.lft.to/lastmile_qr_scan", "ios": "https://dc.lft.to/lastmile_qr_scan"}, "lat": 38.9214095, "is_disabled": 0, "lon": -77.03506283333333}, {"fusion_lat": 0.0, "type": "electric_scooter", "name": "352b0d7e33e040ef2de80fa10e088807", "fusion_lon": 0.0, "bike_id": "352b0d7e33e040ef2de80fa10e088807", "is_reserved": 0, "rental_uris": {"android": "https://dc.lft.to/lastmile_qr_scan", "ios": "https://dc.lft.to/lastmile_qr_scan"}, "lat": 38.895539166666666, "is_disabled": 0, "lon": -77.0466975}, {"fusion_lat": 0.0, "type": "electric_scooter", "name": "b606f1e9fd45046aece87edec1dd9c86", "fusion_lon": 0.0, "bike_id": "b606f1e9fd45046aece87edec1dd9c86", "is_reserved": 0, "rental_uris": {"android": "https://dc.lft.to/lastmile_qr_scan", "ios": "https://dc.lft.to/lastmile_qr_scan"}, "lat": 38.9562155, "is_disabled": 0, "lon": -77.02459}, {"fusion_lat": 0.0, "type": "electric_bike", "name": "0b66b6883558ef8f4990983ad2208500", "fusion_lon": 0.0, "bike_id": "0b66b6883558ef8f4990983ad2208500", "is_reserved": 0, "rental_uris": {"android": "https://dc.lft.to/lastmile_qr_scan", "ios": "https://dc.lft.to/lastmile_qr_scan"}, "lat": 38.94666683333333, "is_disabled": 0, "lon": -76.98300933333333}, {"fusion_lat": 0.0, "type": "electric_scooter", "name": "c1bbdb1983a6ed153ab3cf5b32758bdf", "fusion_lon": 0.0, "bike_id": "c1bbdb1983a6ed153ab3cf5b32758bdf", "is_reserved": 0, "rental_uris": {"android": "https://dc.lft.to/lastmile_qr_scan", "ios": "https://dc.lft.to/lastmile_qr_scan"}, "lat": 38.94071, "is_disabled": 0, "lon": -77.02722883333334}, {"fusion_lat": 0.0, "type": "electric_scooter", "name": "106f78498042d64c22e0852240c37755", "fusion_lon": 0.0, "bike_id": "106f78498042d64c22e0852240c37755", "is_reserved": 0, "rental_uris": {"android": "https://dc.lft.to/lastmile_qr_scan", "ios": "https://dc.lft.to/lastmile_qr_scan"}, "lat": 38.89169733333333, "is_disabled": 0, "lon": -77.01549016666667}, {"fusion_lat": 0.0, "type": "electric_scooter", "name": "f675ce46f90e8d3a1462c789472fbd72", "fusion_lon": 0.0, "bike_id": "f675ce46f90e8d3a1462c789472fbd72", "is_reserved": 0, "rental_uris": {"android": "https://dc.lft.to/lastmile_qr_scan", "ios": "https://dc.lft.to/lastmile_qr_scan"}, "lat": 38.89349133333333, "is_disabled": 0, "lon": -77.00333866666666}, {"fusion_lat": 0.0, "type": "electric_scooter", "name": "5cfc1624d7bc932c30915a5c85c82568", "fusion_lon": 0.0, "bike_id": "5cfc1624d7bc932c30915a5c85c82568", "is_reserved": 0, "rental_uris": {"android": "https://dc.lft.to/lastmile_qr_scan", "ios": "https://dc.lft.to/lastmile_qr_scan"}, "lat": 38.90630383333333, "is_disabled": 0, "lon": -77.04804966666667}, {"fusion_lat": 0.0, "type": "electric_scooter", "name": "04ec34fe31a2a099f07e625982363278", "fusion_lon": 0.0, "bike_id": "04ec34fe31a2a099f07e625982363278", "is_reserved": 0, "rental_uris": {"android": "https://dc.lft.to/lastmile_qr_scan", "ios": "https://dc.lft.to/lastmile_qr_scan"}, "lat": 38.91118766666666, "is_disabled": 0, "lon": -77.00605033333333}, {"fusion_lat": 0.0, "type": "electric_scooter", "name": "c27231f5ec2169b229e28538585d9814", "fusion_lon": 0.0, "bike_id": "c27231f5ec2169b229e28538585d9814", "is_reserved": 0, "rental_uris": {"android": "https://dc.lft.to/lastmile_qr_scan", "ios": "https://dc.lft.to/lastmile_qr_scan"}, "lat": 38.941871166666665, "is_disabled": 0, "lon": -77.0274945}, {"fusion_lat": 0.0, "type": "electric_scooter", "name": "149205f7d532351f6532ff54a4e62894", "fusion_lon": 0.0, "bike_id": "149205f7d532351f6532ff54a4e62894", "is_reserved": 0, "rental_uris": {"android": "https://dc.lft.to/lastmile_qr_scan", "ios": "https://dc.lft.to/lastmile_qr_scan"}, "lat": 38.9082755, "is_disabled": 0, "lon": -77.00215616666667}, {"fusion_lat": 0.0, "type": "electric_scooter", "name": "b4513e87d84277195d5c5aa643db1c4c", "fusion_lon": 0.0, "bike_id": "b4513e87d84277195d5c5aa643db1c4c", "is_reserved": 0, "rental_uris": {"android": "https://dc.lft.to/lastmile_qr_scan", "ios": "https://dc.lft.to/lastmile_qr_scan"}, "lat": 38.90512833333333, "is_disabled": 0, "lon": -77.04495116666666}, {"fusion_lat": 0.0, "type": "electric_scooter", "name": "e6e12900229375b6ce32bad46e0b00f1", "fusion_lon": 0.0, "bike_id": "e6e12900229375b6ce32bad46e0b00f1", "is_reserved": 0, "rental_uris": {"android": "https://dc.lft.to/lastmile_qr_scan", "ios": "https://dc.lft.to/lastmile_qr_scan"}, "lat": 38.87171283333333, "is_disabled": 0, "lon": -77.0062445}, {"fusion_lat": 0.0, "type": "electric_scooter", "name": "687392fd768640455c1a7c250849781b", "fusion_lon": 0.0, "bike_id": "687392fd768640455c1a7c250849781b", "is_reserved": 0, "rental_uris": {"android": "https://dc.lft.to/lastmile_qr_scan", "ios": "https://dc.lft.to/lastmile_qr_scan"}, "lat": 38.90369883333334, "is_disabled": 0, "lon": -77.042017}, {"fusion_lat": 0.0, "type": "electric_scooter", "name": "431d20f61e7092f3c535d19190225b1c", "fusion_lon": 0.0, "bike_id": "431d20f61e7092f3c535d19190225b1c", "is_reserved": 0, "rental_uris": {"android": "https://dc.lft.to/lastmile_qr_scan", "ios": "https://dc.lft.to/lastmile_qr_scan"}, "lat": 38.92343916666667, "is_disabled": 0, "lon": -77.03513116666667}, {"fusion_lat": 0.0, "type": "electric_scooter", "name": "fe052934bb08878b71c3926307bb9bad", "fusion_lon": 0.0, "bike_id": "fe052934bb08878b71c3926307bb9bad", "is_reserved": 0, "rental_uris": {"android": "https://dc.lft.to/lastmile_qr_scan", "ios": "https://dc.lft.to/lastmile_qr_scan"}, "lat": 38.89304516666667, "is_disabled": 0, "lon": -76.92920433333333}, {"fusion_lat": 0.0, "type": "electric_scooter", "name": "009ce7ef10f30ed62e8124ec0da01746", "fusion_lon": 0.0, "bike_id": "009ce7ef10f30ed62e8124ec0da01746", "is_reserved": 0, "rental_uris": {"android": "https://dc.lft.to/lastmile_qr_scan", "ios": "https://dc.lft.to/lastmile_qr_scan"}, "lat": 38.86505583333334, "is_disabled": 0, "lon": -76.9900495}, {"fusion_lat": 0.0, "type": "electric_scooter", "name": "9b060cbb1afa1a7af8549782e338b762", "fusion_lon": 0.0, "bike_id": "9b060cbb1afa1a7af8549782e338b762", "is_reserved": 0, "rental_uris": {"android": "https://dc.lft.to/lastmile_qr_scan", "ios": "https://dc.lft.to/lastmile_qr_scan"}, "lat": 38.90722366666667, "is_disabled": 0, "lon": -77.00103166666666}, {"fusion_lat": 0.0, "type": "electric_scooter", "name": "40fc7612c6774e1176487b793e2b7fc4", "fusion_lon": 0.0, "bike_id": "40fc7612c6774e1176487b793e2b7fc4", "is_reserved": 0, "rental_uris": {"android": "https://dc.lft.to/lastmile_qr_scan", "ios": "https://dc.lft.to/lastmile_qr_scan"}, "lat": 38.92737133333333, "is_disabled": 0, "lon": -77.02265583333333}, {"fusion_lat": 0.0, "type": "electric_scooter", "name": "04697eb73d5b54f7977daa6f252418bb", "fusion_lon": 0.0, "bike_id": "04697eb73d5b54f7977daa6f252418bb", "is_reserved": 0, "rental_uris": {"android": "https://dc.lft.to/lastmile_qr_scan", "ios": "https://dc.lft.to/lastmile_qr_scan"}, "lat": 38.92660566666667, "is_disabled": 0, "lon": -77.0229845}, {"fusion_lat": 0.0, "type": "electric_scooter", "name": "f6559aa0cfa13394f6d0aab57bcb46df", "fusion_lon": 0.0, "bike_id": "f6559aa0cfa13394f6d0aab57bcb46df", "is_reserved": 0, "rental_uris": {"android": "https://dc.lft.to/lastmile_qr_scan", "ios": "https://dc.lft.to/lastmile_qr_scan"}, "lat": 38.9275105, "is_disabled": 0, "lon": -77.032767}, {"fusion_lat": 0.0, "type": "electric_bike", "name": "22fd52153f073fcea5e9506eaef45459", "fusion_lon": 0.0, "bike_id": "22fd52153f073fcea5e9506eaef45459", "is_reserved": 0, "rental_uris": {"android": "https://dc.lft.to/lastmile_qr_scan", "ios": "https://dc.lft.to/lastmile_qr_scan"}, "lat": 38.81198416666667, "is_disabled": 0, "lon": -77.10839533333333}, {"fusion_lat": 0.0, "type": "electric_scooter", "name": "51e108bccf7fe3676155e237ad7722c2", "fusion_lon": 0.0, "bike_id": "51e108bccf7fe3676155e237ad7722c2", "is_reserved": 0, "rental_uris": {"android": "https://dc.lft.to/lastmile_qr_scan", "ios": "https://dc.lft.to/lastmile_qr_scan"}, "lat": 38.89549066666667, "is_disabled": 0, "lon": -77.00909633333333}, {"fusion_lat": 0.0, "type": "electric_scooter", "name": "69cb515f4d2dd53795f80d907399c80e", "fusion_lon": 0.0, "bike_id": "69cb515f4d2dd53795f80d907399c80e", "is_reserved": 0, "rental_uris": {"android": "https://dc.lft.to/lastmile_qr_scan", "ios": "https://dc.lft.to/lastmile_qr_scan"}, "lat": 38.8981855, "is_disabled": 0, "lon": -77.03313283333334}, {"fusion_lat": 0.0, "type": "electric_scooter", "name": "235724db721d8386f020fcdc396059f6", "fusion_lon": 0.0, "bike_id": "235724db721d8386f020fcdc396059f6", "is_reserved": 0, "rental_uris": {"android": "https://dc.lft.to/lastmile_qr_scan", "ios": "https://dc.lft.to/lastmile_qr_scan"}, "lat": 38.90199583333333, "is_disabled": 0, "lon": -77.0235905}, {"fusion_lat": 0.0, "type": "electric_scooter", "name": "2e50331e2bdcb83e43abe5b0bc9e59b7", "fusion_lon": 0.0, "bike_id": "2e50331e2bdcb83e43abe5b0bc9e59b7", "is_reserved": 0, "rental_uris": {"android": "https://dc.lft.to/lastmile_qr_scan", "ios": "https://dc.lft.to/lastmile_qr_scan"}, "lat": 38.893538666666664, "is_disabled": 0, "lon": -77.02221316666666}, {"fusion_lat": 0.0, "type": "electric_scooter", "name": "819829d47a28497084cdc662f89a29df", "fusion_lon": 0.0, "bike_id": "819829d47a28497084cdc662f89a29df", "is_reserved": 0, "rental_uris": {"android": "https://dc.lft.to/lastmile_qr_scan", "ios": "https://dc.lft.to/lastmile_qr_scan"}, "lat": 38.939663833333334, "is_disabled": 0, "lon": -77.02495583333334}, {"fusion_lat": 0.0, "type": "electric_scooter", "name": "313f58aa63cf9c2d748fe658e0977f72", "fusion_lon": 0.0, "bike_id": "313f58aa63cf9c2d748fe658e0977f72", "is_reserved": 0, "rental_uris": {"android": "https://dc.lft.to/lastmile_qr_scan", "ios": "https://dc.lft.to/lastmile_qr_scan"}, "lat": 38.996003, "is_disabled": 0, "lon": -77.03206716666666}, {"fusion_lat": 0.0, "type": "electric_scooter", "name": "7593319dc73d058353802ac86a07be02", "fusion_lon": 0.0, "bike_id": "7593319dc73d058353802ac86a07be02", "is_reserved": 0, "rental_uris": {"android": "https://dc.lft.to/lastmile_qr_scan", "ios": "https://dc.lft.to/lastmile_qr_scan"}, "lat": 38.928242833333336, "is_disabled": 0, "lon": -77.02152483333333}, {"fusion_lat": 0.0, "type": "electric_scooter", "name": "ad6fe852561b972e1a6550f592bb65b5", "fusion_lon": 0.0, "bike_id": "ad6fe852561b972e1a6550f592bb65b5", "is_reserved": 0, "rental_uris": {"android": "https://dc.lft.to/lastmile_qr_scan", "ios": "https://dc.lft.to/lastmile_qr_scan"}, "lat": 38.903825499999996, "is_disabled": 0, "lon": -77.03833566666667}, {"fusion_lat": 0.0, "type": "electric_scooter", "name": "db88ef957bf018be99736449e229da28", "fusion_lon": 0.0, "bike_id": "db88ef957bf018be99736449e229da28", "is_reserved": 0, "rental_uris": {"android": "https://dc.lft.to/lastmile_qr_scan", "ios": "https://dc.lft.to/lastmile_qr_scan"}, "lat": 38.899058833333335, "is_disabled": 0, "lon": -76.933512}, {"fusion_lat": 0.0, "type": "electric_scooter", "name": "f501ace3cf6ee4fdb440642bf82e5fbe", "fusion_lon": 0.0, "bike_id": "f501ace3cf6ee4fdb440642bf82e5fbe", "is_reserved": 0, "rental_uris": {"android": "https://dc.lft.to/lastmile_qr_scan", "ios": "https://dc.lft.to/lastmile_qr_scan"}, "lat": 38.904677166666666, "is_disabled": 0, "lon": -76.98050816666667}, {"fusion_lat": 0.0, "type": "electric_scooter", "name": "7f048abfb09c875882772696e1731124", "fusion_lon": 0.0, "bike_id": "7f048abfb09c875882772696e1731124", "is_reserved": 0, "rental_uris": {"android": "https://dc.lft.to/lastmile_qr_scan", "ios": "https://dc.lft.to/lastmile_qr_scan"}, "lat": 38.90582933333334, "is_disabled": 0, "lon": -77.025896}, {"fusion_lat": 0.0, "type": "electric_scooter", "name": "84f8712b26071f9ee3b7eb2182aa4729", "fusion_lon": 0.0, "bike_id": "84f8712b26071f9ee3b7eb2182aa4729", "is_reserved": 0, "rental_uris": {"android": "https://dc.lft.to/lastmile_qr_scan", "ios": "https://dc.lft.to/lastmile_qr_scan"}, "lat": 38.86236516666666, "is_disabled": 0, "lon": -76.99491116666667}, {"fusion_lat": 0.0, "type": "electric_scooter", "name": "83d1aaf3fe90ad61fe66e2689ba8b6cd", "fusion_lon": 0.0, "bike_id": "83d1aaf3fe90ad61fe66e2689ba8b6cd", "is_reserved": 0, "rental_uris": {"android": "https://dc.lft.to/lastmile_qr_scan", "ios": "https://dc.lft.to/lastmile_qr_scan"}, "lat": 38.89230833333333, "is_disabled": 0, "lon": -77.02383516666667}, {"fusion_lat": 0.0, "type": "electric_scooter", "name": "1c9c1bb2805a1693b9804ce10706688a", "fusion_lon": 0.0, "bike_id": "1c9c1bb2805a1693b9804ce10706688a", "is_reserved": 0, "rental_uris": {"android": "https://dc.lft.to/lastmile_qr_scan", "ios": "https://dc.lft.to/lastmile_qr_scan"}, "lat": 38.911028333333334, "is_disabled": 0, "lon": -77.0448975}, {"fusion_lat": 0.0, "type": "electric_scooter", "name": "668300ccf2eb96db3388dcf79b8ba796", "fusion_lon": 0.0, "bike_id": "668300ccf2eb96db3388dcf79b8ba796", "is_reserved": 0, "rental_uris": {"android": "https://dc.lft.to/lastmile_qr_scan", "ios": "https://dc.lft.to/lastmile_qr_scan"}, "lat": 38.900242, "is_disabled": 0, "lon": -77.04376316666666}, {"fusion_lat": 0.0, "type": "electric_scooter", "name": "936d475323e82ad7af71162ebc09abee", "fusion_lon": 0.0, "bike_id": "936d475323e82ad7af71162ebc09abee", "is_reserved": 0, "rental_uris": {"android": "https://dc.lft.to/lastmile_qr_scan", "ios": "https://dc.lft.to/lastmile_qr_scan"}, "lat": 38.90361583333333, "is_disabled": 0, "lon": -77.03166166666666}, {"fusion_lat": 0.0, "type": "electric_scooter", "name": "9e9fdc2ebf71d4184b344941e2e6768c", "fusion_lon": 0.0, "bike_id": "9e9fdc2ebf71d4184b344941e2e6768c", "is_reserved": 0, "rental_uris": {"android": "https://dc.lft.to/lastmile_qr_scan", "ios": "https://dc.lft.to/lastmile_qr_scan"}, "lat": 38.8999545, "is_disabled": 0, "lon": -77.00128183333334}, {"fusion_lat": 0.0, "type": "electric_scooter", "name": "0124639c13af4d1d04ef78a7e391f4d7", "fusion_lon": 0.0, "bike_id": "0124639c13af4d1d04ef78a7e391f4d7", "is_reserved": 0, "rental_uris": {"android": "https://dc.lft.to/lastmile_qr_scan", "ios": "https://dc.lft.to/lastmile_qr_scan"}, "lat": 38.893254666666664, "is_disabled": 0, "lon": -77.04676183333333}, {"fusion_lat": 0.0, "type": "electric_scooter", "name": "9fbe57feec9105c0b79cc494ddce5476", "fusion_lon": 0.0, "bike_id": "9fbe57feec9105c0b79cc494ddce5476", "is_reserved": 0, "rental_uris": {"android": "https://dc.lft.to/lastmile_qr_scan", "ios": "https://dc.lft.to/lastmile_qr_scan"}, "lat": 38.9060655, "is_disabled": 0, "lon": -77.04331216666667}, {"fusion_lat": 0.0, "type": "electric_scooter", "name": "d8c023db48c0b8bb00e2721179f3bd22", "fusion_lon": 0.0, "bike_id": "d8c023db48c0b8bb00e2721179f3bd22", "is_reserved": 0, "rental_uris": {"android": "https://dc.lft.to/lastmile_qr_scan", "ios": "https://dc.lft.to/lastmile_qr_scan"}, "lat": 38.90197466666667, "is_disabled": 0, "lon": -76.97857316666666}, {"fusion_lat": 0.0, "type": "electric_scooter", "name": "222e8b9bc0f251f61a778dd58df726be", "fusion_lon": 0.0, "bike_id": "222e8b9bc0f251f61a778dd58df726be", "is_reserved": 0, "rental_uris": {"android": "https://dc.lft.to/lastmile_qr_scan", "ios": "https://dc.lft.to/lastmile_qr_scan"}, "lat": 38.921048166666665, "is_disabled": 0, "lon": -77.07189666666666}, {"fusion_lat": 0.0, "type": "electric_scooter", "name": "66f1b35f900faec774772caf04d95456", "fusion_lon": 0.0, "bike_id": "66f1b35f900faec774772caf04d95456", "is_reserved": 0, "rental_uris": {"android": "https://dc.lft.to/lastmile_qr_scan", "ios": "https://dc.lft.to/lastmile_qr_scan"}, "lat": 38.911174333333335, "is_disabled": 0, "lon": -77.04368683333334}, {"fusion_lat": 0.0, "type": "electric_scooter", "name": "b9a46e19a32f36d782339cbc9d2a3fdc", "fusion_lon": 0.0, "bike_id": "b9a46e19a32f36d782339cbc9d2a3fdc", "is_reserved": 0, "rental_uris": {"android": "https://dc.lft.to/lastmile_qr_scan", "ios": "https://dc.lft.to/lastmile_qr_scan"}, "lat": 38.9342015, "is_disabled": 0, "lon": -77.04409483333333}, {"fusion_lat": 0.0, "type": "electric_scooter", "name": "d32748f4e3e4f6a8924f2baa178db241", "fusion_lon": 0.0, "bike_id": "d32748f4e3e4f6a8924f2baa178db241", "is_reserved": 0, "rental_uris": {"android": "https://dc.lft.to/lastmile_qr_scan", "ios": "https://dc.lft.to/lastmile_qr_scan"}, "lat": 38.89364616666667, "is_disabled": 0, "lon": -76.94999766666666}, {"fusion_lat": 0.0, "type": "electric_scooter", "name": "fc2889276ad18ddd56f40b493a45b8a4", "fusion_lon": 0.0, "bike_id": "fc2889276ad18ddd56f40b493a45b8a4", "is_reserved": 0, "rental_uris": {"android": "https://dc.lft.to/lastmile_qr_scan", "ios": "https://dc.lft.to/lastmile_qr_scan"}, "lat": 38.917835833333335, "is_disabled": 0, "lon": -77.03212833333333}, {"fusion_lat": 0.0, "type": "electric_scooter", "name": "b4c83873906cc5ecf7f5030877ab2f09", "fusion_lon": 0.0, "bike_id": "b4c83873906cc5ecf7f5030877ab2f09", "is_reserved": 0, "rental_uris": {"android": "https://dc.lft.to/lastmile_qr_scan", "ios": "https://dc.lft.to/lastmile_qr_scan"}, "lat": 38.90069283333333, "is_disabled": 0, "lon": -77.04684016666667}, {"fusion_lat": 0.0, "type": "electric_scooter", "name": "16c7fca758ada03bcf72f2e3c60f5ecd", "fusion_lon": 0.0, "bike_id": "16c7fca758ada03bcf72f2e3c60f5ecd", "is_reserved": 0, "rental_uris": {"android": "https://dc.lft.to/lastmile_qr_scan", "ios": "https://dc.lft.to/lastmile_qr_scan"}, "lat": 38.92105016666667, "is_disabled": 0, "lon": -77.02053066666667}, {"fusion_lat": 0.0, "type": "electric_scooter", "name": "f89e71540ee2788e169058c742844c91", "fusion_lon": 0.0, "bike_id": "f89e71540ee2788e169058c742844c91", "is_reserved": 0, "rental_uris": {"android": "https://dc.lft.to/lastmile_qr_scan", "ios": "https://dc.lft.to/lastmile_qr_scan"}, "lat": 38.902546666666666, "is_disabled": 0, "lon": -77.03434366666667}, {"fusion_lat": 0.0, "type": "electric_scooter", "name": "baa3bcea314e5ac613073ac14b942972", "fusion_lon": 0.0, "bike_id": "baa3bcea314e5ac613073ac14b942972", "is_reserved": 0, "rental_uris": {"android": "https://dc.lft.to/lastmile_qr_scan", "ios": "https://dc.lft.to/lastmile_qr_scan"}, "lat": 38.90028183333333, "is_disabled": 0, "lon": -77.01198966666666}, {"fusion_lat": 0.0, "type": "electric_bike", "name": "e635a90fbffec225314c849b1f940aab", "fusion_lon": 0.0, "bike_id": "e635a90fbffec225314c849b1f940aab", "is_reserved": 0, "rental_uris": {"android": "https://dc.lft.to/lastmile_qr_scan", "ios": "https://dc.lft.to/lastmile_qr_scan"}, "lat": 38.8290735, "is_disabled": 0, "lon": -76.997785}, {"fusion_lat": 0.0, "type": "electric_scooter", "name": "21884bc20fc2a044740856b6981652b4", "fusion_lon": 0.0, "bike_id": "21884bc20fc2a044740856b6981652b4", "is_reserved": 0, "rental_uris": {"android": "https://dc.lft.to/lastmile_qr_scan", "ios": "https://dc.lft.to/lastmile_qr_scan"}, "lat": 38.898871666666665, "is_disabled": 0, "lon": -77.03934866666667}, {"fusion_lat": 0.0, "type": "electric_scooter", "name": "e8afe44b191965fe9e79566c1646958e", "fusion_lon": 0.0, "bike_id": "e8afe44b191965fe9e79566c1646958e", "is_reserved": 0, "rental_uris": {"android": "https://dc.lft.to/lastmile_qr_scan", "ios": "https://dc.lft.to/lastmile_qr_scan"}, "lat": 38.938804833333336, "is_disabled": 0, "lon": -77.02482}, {"fusion_lat": 0.0, "type": "electric_scooter", "name": "e7a06f50a29784f943f27a5eb52f5fb5", "fusion_lon": 0.0, "bike_id": "e7a06f50a29784f943f27a5eb52f5fb5", "is_reserved": 0, "rental_uris": {"android": "https://dc.lft.to/lastmile_qr_scan", "ios": "https://dc.lft.to/lastmile_qr_scan"}, "lat": 38.907824166666664, "is_disabled": 0, "lon": -77.038068}, {"fusion_lat": 0.0, "type": "electric_scooter", "name": "113b975de9f0842457735083433da994", "fusion_lon": 0.0, "bike_id": "113b975de9f0842457735083433da994", "is_reserved": 0, "rental_uris": {"android": "https://dc.lft.to/lastmile_qr_scan", "ios": "https://dc.lft.to/lastmile_qr_scan"}, "lat": 38.90312016666667, "is_disabled": 0, "lon": -77.03174783333333}, {"fusion_lat": 0.0, "type": "electric_bike", "name": "5db74b14e723522fc8616d94b2ffaa2b", "fusion_lon": 0.0, "bike_id": "5db74b14e723522fc8616d94b2ffaa2b", "is_reserved": 0, "rental_uris": {"android": "https://dc.lft.to/lastmile_qr_scan", "ios": "https://dc.lft.to/lastmile_qr_scan"}, "lat": 38.8674475, "is_disabled": 0, "lon": -77.11707966666667}, {"fusion_lat": 0.0, "type": "electric_scooter", "name": "8d30937ac8e8127f6dbbcb8ed99b39a1", "fusion_lon": 0.0, "bike_id": "8d30937ac8e8127f6dbbcb8ed99b39a1", "is_reserved": 0, "rental_uris": {"android": "https://dc.lft.to/lastmile_qr_scan", "ios": "https://dc.lft.to/lastmile_qr_scan"}, "lat": 38.91288816666667, "is_disabled": 0, "lon": -77.04550733333333}, {"fusion_lat": 0.0, "type": "electric_scooter", "name": "802c83f17e757d3df0ae79b9e11f5db4", "fusion_lon": 0.0, "bike_id": "802c83f17e757d3df0ae79b9e11f5db4", "is_reserved": 0, "rental_uris": {"android": "https://dc.lft.to/lastmile_qr_scan", "ios": "https://dc.lft.to/lastmile_qr_scan"}, "lat": 38.95324983333333, "is_disabled": 0, "lon": -76.9997105}, {"fusion_lat": 0.0, "type": "electric_scooter", "name": "ac0d39ba76b03629096d03d610fed69e", "fusion_lon": 0.0, "bike_id": "ac0d39ba76b03629096d03d610fed69e", "is_reserved": 0, "rental_uris": {"android": "https://dc.lft.to/lastmile_qr_scan", "ios": "https://dc.lft.to/lastmile_qr_scan"}, "lat": 38.907765833333336, "is_disabled": 0, "lon": -77.03858216666667}, {"fusion_lat": 0.0, "type": "electric_scooter", "name": "0194232ed91a024f6ac19ccf8212e117", "fusion_lon": 0.0, "bike_id": "0194232ed91a024f6ac19ccf8212e117", "is_reserved": 0, "rental_uris": {"android": "https://dc.lft.to/lastmile_qr_scan", "ios": "https://dc.lft.to/lastmile_qr_scan"}, "lat": 38.9023555, "is_disabled": 0, "lon": -77.02684483333333}, {"fusion_lat": 0.0, "type": "electric_scooter", "name": "4bb45271687dc829ebf8a59b39b5ca54", "fusion_lon": 0.0, "bike_id": "4bb45271687dc829ebf8a59b39b5ca54", "is_reserved": 0, "rental_uris": {"android": "https://dc.lft.to/lastmile_qr_scan", "ios": "https://dc.lft.to/lastmile_qr_scan"}, "lat": 38.90263316666667, "is_disabled": 0, "lon": -77.01217266666667}, {"fusion_lat": 0.0, "type": "electric_scooter", "name": "7fd7cb1a1c39f63f8800cbc834cfc428", "fusion_lon": 0.0, "bike_id": "7fd7cb1a1c39f63f8800cbc834cfc428", "is_reserved": 0, "rental_uris": {"android": "https://dc.lft.to/lastmile_qr_scan", "ios": "https://dc.lft.to/lastmile_qr_scan"}, "lat": 38.93365033333333, "is_disabled": 0, "lon": -77.05731133333333}, {"fusion_lat": 0.0, "type": "electric_scooter", "name": "428ccab2dfb0974822b57952a3f549f4", "fusion_lon": 0.0, "bike_id": "428ccab2dfb0974822b57952a3f549f4", "is_reserved": 0, "rental_uris": {"android": "https://dc.lft.to/lastmile_qr_scan", "ios": "https://dc.lft.to/lastmile_qr_scan"}, "lat": 38.87698916666667, "is_disabled": 0, "lon": -77.00421633333333}, {"fusion_lat": 0.0, "type": "electric_scooter", "name": "02e38d9092d9fe31581e2ab0091c3a6f", "fusion_lon": 0.0, "bike_id": "02e38d9092d9fe31581e2ab0091c3a6f", "is_reserved": 0, "rental_uris": {"android": "https://dc.lft.to/lastmile_qr_scan", "ios": "https://dc.lft.to/lastmile_qr_scan"}, "lat": 38.91621, "is_disabled": 0, "lon": -77.03193233333333}, {"fusion_lat": 0.0, "type": "electric_bike", "name": "0d077705787f9544cefb0c41fdafbf16", "fusion_lon": 0.0, "bike_id": "0d077705787f9544cefb0c41fdafbf16", "is_reserved": 0, "rental_uris": {"android": "https://dc.lft.to/lastmile_qr_scan", "ios": "https://dc.lft.to/lastmile_qr_scan"}, "lat": 38.888708, "is_disabled": 0, "lon": -77.081733}, {"fusion_lat": 0.0, "type": "electric_scooter", "name": "dd251fa755eb12d9b1a17226efb1da43", "fusion_lon": 0.0, "bike_id": "dd251fa755eb12d9b1a17226efb1da43", "is_reserved": 0, "rental_uris": {"android": "https://dc.lft.to/lastmile_qr_scan", "ios": "https://dc.lft.to/lastmile_qr_scan"}, "lat": 38.903510833333335, "is_disabled": 0, "lon": -77.03926383333334}, {"fusion_lat": 0.0, "type": "electric_scooter", "name": "1ca587c7f63a4a54d9e592e16489da3f", "fusion_lon": 0.0, "bike_id": "1ca587c7f63a4a54d9e592e16489da3f", "is_reserved": 0, "rental_uris": {"android": "https://dc.lft.to/lastmile_qr_scan", "ios": "https://dc.lft.to/lastmile_qr_scan"}, "lat": 38.9021865, "is_disabled": 0, "lon": -77.0440745}, {"fusion_lat": 0.0, "type": "electric_scooter", "name": "589633d2e63bf98394bc75608f81a14a", "fusion_lon": 0.0, "bike_id": "589633d2e63bf98394bc75608f81a14a", "is_reserved": 0, "rental_uris": {"android": "https://dc.lft.to/lastmile_qr_scan", "ios": "https://dc.lft.to/lastmile_qr_scan"}, "lat": 38.89225733333333, "is_disabled": 0, "lon": -77.03188033333333}, {"fusion_lat": 0.0, "type": "electric_scooter", "name": "d4fc188f942a5533416bddb8053baccb", "fusion_lon": 0.0, "bike_id": "d4fc188f942a5533416bddb8053baccb", "is_reserved": 0, "rental_uris": {"android": "https://dc.lft.to/lastmile_qr_scan", "ios": "https://dc.lft.to/lastmile_qr_scan"}, "lat": 38.88526733333333, "is_disabled": 0, "lon": -77.00580033333334}, {"fusion_lat": 0.0, "type": "electric_scooter", "name": "5b3ac69af1a6c13d5869f59c23badb37", "fusion_lon": 0.0, "bike_id": "5b3ac69af1a6c13d5869f59c23badb37", "is_reserved": 0, "rental_uris": {"android": "https://dc.lft.to/lastmile_qr_scan", "ios": "https://dc.lft.to/lastmile_qr_scan"}, "lat": 38.907189833333334, "is_disabled": 0, "lon": -77.074272}, {"fusion_lat": 0.0, "type": "electric_scooter", "name": "0859d08aeebaafdcc1d70c62dcf3d36d", "fusion_lon": 0.0, "bike_id": "0859d08aeebaafdcc1d70c62dcf3d36d", "is_reserved": 0, "rental_uris": {"android": "https://dc.lft.to/lastmile_qr_scan", "ios": "https://dc.lft.to/lastmile_qr_scan"}, "lat": 38.9111715, "is_disabled": 0, "lon": -77.020787}, {"fusion_lat": 0.0, "type": "electric_scooter", "name": "72e93022416cf4ade0474b1ab49be308", "fusion_lon": 0.0, "bike_id": "72e93022416cf4ade0474b1ab49be308", "is_reserved": 0, "rental_uris": {"android": "https://dc.lft.to/lastmile_qr_scan", "ios": "https://dc.lft.to/lastmile_qr_scan"}, "lat": 38.9058065, "is_disabled": 0, "lon": -77.0026685}, {"fusion_lat": 0.0, "type": "electric_scooter", "name": "e17ecc3ccb94d4e26298ba3280ed342f", "fusion_lon": 0.0, "bike_id": "e17ecc3ccb94d4e26298ba3280ed342f", "is_reserved": 0, "rental_uris": {"android": "https://dc.lft.to/lastmile_qr_scan", "ios": "https://dc.lft.to/lastmile_qr_scan"}, "lat": 38.89947883333333, "is_disabled": 0, "lon": -77.045229}, {"fusion_lat": 0.0, "type": "electric_scooter", "name": "6ab512d67dde06ad0ab9573dd2f62a1c", "fusion_lon": 0.0, "bike_id": "6ab512d67dde06ad0ab9573dd2f62a1c", "is_reserved": 0, "rental_uris": {"android": "https://dc.lft.to/lastmile_qr_scan", "ios": "https://dc.lft.to/lastmile_qr_scan"}, "lat": 38.9261285, "is_disabled": 0, "lon": -77.04319966666667}, {"fusion_lat": 0.0, "type": "electric_scooter", "name": "de90c055d3f035f13e0f6d1a8db944eb", "fusion_lon": 0.0, "bike_id": "de90c055d3f035f13e0f6d1a8db944eb", "is_reserved": 0, "rental_uris": {"android": "https://dc.lft.to/lastmile_qr_scan", "ios": "https://dc.lft.to/lastmile_qr_scan"}, "lat": 38.903459, "is_disabled": 0, "lon": -76.982778}, {"fusion_lat": 0.0, "type": "electric_scooter", "name": "e18276e9930eaeaea42cbf7eab0d86a1", "fusion_lon": 0.0, "bike_id": "e18276e9930eaeaea42cbf7eab0d86a1", "is_reserved": 0, "rental_uris": {"android": "https://dc.lft.to/lastmile_qr_scan", "ios": "https://dc.lft.to/lastmile_qr_scan"}, "lat": 38.901922, "is_disabled": 0, "lon": -77.0317415}, {"fusion_lat": 0.0, "type": "electric_scooter", "name": "15c083a0dcd64c24b0a6ce3eb95f236a", "fusion_lon": 0.0, "bike_id": "15c083a0dcd64c24b0a6ce3eb95f236a", "is_reserved": 0, "rental_uris": {"android": "https://dc.lft.to/lastmile_qr_scan", "ios": "https://dc.lft.to/lastmile_qr_scan"}, "lat": 38.9155395, "is_disabled": 0, "lon": -77.02423783333333}, {"fusion_lat": 0.0, "type": "electric_scooter", "name": "208576a58c9410d59f5764594bb4f286", "fusion_lon": 0.0, "bike_id": "208576a58c9410d59f5764594bb4f286", "is_reserved": 0, "rental_uris": {"android": "https://dc.lft.to/lastmile_qr_scan", "ios": "https://dc.lft.to/lastmile_qr_scan"}, "lat": 38.95728033333333, "is_disabled": 0, "lon": -77.0241065}, {"fusion_lat": 0.0, "type": "electric_scooter", "name": "94d49c6de5a784d4cafdc612121aaf87", "fusion_lon": 0.0, "bike_id": "94d49c6de5a784d4cafdc612121aaf87", "is_reserved": 0, "rental_uris": {"android": "https://dc.lft.to/lastmile_qr_scan", "ios": "https://dc.lft.to/lastmile_qr_scan"}, "lat": 38.90031466666667, "is_disabled": 0, "lon": -77.04842633333334}, {"fusion_lat": 0.0, "type": "electric_scooter", "name": "c62fe171166a1e313d7a1a599e9b0434", "fusion_lon": 0.0, "bike_id": "c62fe171166a1e313d7a1a599e9b0434", "is_reserved": 0, "rental_uris": {"android": "https://dc.lft.to/lastmile_qr_scan", "ios": "https://dc.lft.to/lastmile_qr_scan"}, "lat": 38.918462, "is_disabled": 0, "lon": -77.0449495}, {"fusion_lat": 0.0, "type": "electric_scooter", "name": "a3d852c8a1409ee66df84f378ddcd3a0", "fusion_lon": 0.0, "bike_id": "a3d852c8a1409ee66df84f378ddcd3a0", "is_reserved": 0, "rental_uris": {"android": "https://dc.lft.to/lastmile_qr_scan", "ios": "https://dc.lft.to/lastmile_qr_scan"}, "lat": 38.894228, "is_disabled": 0, "lon": -76.91117183333333}, {"fusion_lat": 0.0, "type": "electric_scooter", "name": "10118cfdb24c8af254487d982302ad6a", "fusion_lon": 0.0, "bike_id": "10118cfdb24c8af254487d982302ad6a", "is_reserved": 0, "rental_uris": {"android": "https://dc.lft.to/lastmile_qr_scan", "ios": "https://dc.lft.to/lastmile_qr_scan"}, "lat": 38.916195, "is_disabled": 0, "lon": -77.03145916666666}, {"fusion_lat": 0.0, "type": "electric_scooter", "name": "5361e42d4d2e1446cb4deec67dd95d99", "fusion_lon": 0.0, "bike_id": "5361e42d4d2e1446cb4deec67dd95d99", "is_reserved": 0, "rental_uris": {"android": "https://dc.lft.to/lastmile_qr_scan", "ios": "https://dc.lft.to/lastmile_qr_scan"}, "lat": 38.9418175, "is_disabled": 0, "lon": -77.02533583333333}, {"fusion_lat": 0.0, "type": "electric_scooter", "name": "e7587dad46dd6a0d1b267a439baede6a", "fusion_lon": 0.0, "bike_id": "e7587dad46dd6a0d1b267a439baede6a", "is_reserved": 0, "rental_uris": {"android": "https://dc.lft.to/lastmile_qr_scan", "ios": "https://dc.lft.to/lastmile_qr_scan"}, "lat": 38.9095755, "is_disabled": 0, "lon": -77.05482933333333}, {"fusion_lat": 0.0, "type": "electric_bike", "name": "535713ff22e960432c3fb5c131c2f263", "fusion_lon": 0.0, "bike_id": "535713ff22e960432c3fb5c131c2f263", "is_reserved": 0, "rental_uris": {"android": "https://dc.lft.to/lastmile_qr_scan", "ios": "https://dc.lft.to/lastmile_qr_scan"}, "lat": 38.902698666666666, "is_disabled": 0, "lon": -76.92925633333333}, {"fusion_lat": 0.0, "type": "electric_scooter", "name": "cd8d348df3a9599e2ab2c9261a69c5ca", "fusion_lon": 0.0, "bike_id": "cd8d348df3a9599e2ab2c9261a69c5ca", "is_reserved": 0, "rental_uris": {"android": "https://dc.lft.to/lastmile_qr_scan", "ios": "https://dc.lft.to/lastmile_qr_scan"}, "lat": 38.916768166666664, "is_disabled": 0, "lon": -77.02714216666666}, {"fusion_lat": 0.0, "type": "electric_scooter", "name": "18420f8ad7f0350947deafa84e648b39", "fusion_lon": 0.0, "bike_id": "18420f8ad7f0350947deafa84e648b39", "is_reserved": 0, "rental_uris": {"android": "https://dc.lft.to/lastmile_qr_scan", "ios": "https://dc.lft.to/lastmile_qr_scan"}, "lat": 38.909491833333334, "is_disabled": 0, "lon": -77.00807483333334}, {"fusion_lat": 0.0, "type": "electric_scooter", "name": "5da22097d4e290ce2fa1f91be61928ae", "fusion_lon": 0.0, "bike_id": "5da22097d4e290ce2fa1f91be61928ae", "is_reserved": 0, "rental_uris": {"android": "https://dc.lft.to/lastmile_qr_scan", "ios": "https://dc.lft.to/lastmile_qr_scan"}, "lat": 38.8922005, "is_disabled": 0, "lon": -77.04373833333334}, {"fusion_lat": 0.0, "type": "electric_scooter", "name": "3e7e999bda5cf5755acdd8e842958047", "fusion_lon": 0.0, "bike_id": "3e7e999bda5cf5755acdd8e842958047", "is_reserved": 0, "rental_uris": {"android": "https://dc.lft.to/lastmile_qr_scan", "ios": "https://dc.lft.to/lastmile_qr_scan"}, "lat": 38.904250833333336, "is_disabled": 0, "lon": -77.0325215}, {"fusion_lat": 0.0, "type": "electric_scooter", "name": "4d327d7e85837d6b3248368dd2e452aa", "fusion_lon": 0.0, "bike_id": "4d327d7e85837d6b3248368dd2e452aa", "is_reserved": 0, "rental_uris": {"android": "https://dc.lft.to/lastmile_qr_scan", "ios": "https://dc.lft.to/lastmile_qr_scan"}, "lat": 38.900281666666665, "is_disabled": 0, "lon": -77.02961483333333}, {"fusion_lat": 0.0, "type": "electric_scooter", "name": "a8ef94aad8d0d999f8a48a6439bbf9d9", "fusion_lon": 0.0, "bike_id": "a8ef94aad8d0d999f8a48a6439bbf9d9", "is_reserved": 0, "rental_uris": {"android": "https://dc.lft.to/lastmile_qr_scan", "ios": "https://dc.lft.to/lastmile_qr_scan"}, "lat": 38.876789, "is_disabled": 0, "lon": -76.99828133333334}, {"fusion_lat": 0.0, "type": "electric_scooter", "name": "643640ba633a8056cd5631b432272b67", "fusion_lon": 0.0, "bike_id": "643640ba633a8056cd5631b432272b67", "is_reserved": 0, "rental_uris": {"android": "https://dc.lft.to/lastmile_qr_scan", "ios": "https://dc.lft.to/lastmile_qr_scan"}, "lat": 38.9081205, "is_disabled": 0, "lon": -77.03855716666666}, {"fusion_lat": 0.0, "type": "electric_scooter", "name": "6a726959c20de16dfb585dcef05d7306", "fusion_lon": 0.0, "bike_id": "6a726959c20de16dfb585dcef05d7306", "is_reserved": 0, "rental_uris": {"android": "https://dc.lft.to/lastmile_qr_scan", "ios": "https://dc.lft.to/lastmile_qr_scan"}, "lat": 38.922723, "is_disabled": 0, "lon": -77.03669266666667}, {"fusion_lat": 0.0, "type": "electric_scooter", "name": "04c70504ebc33e68155d0bb689ef2fb7", "fusion_lon": 0.0, "bike_id": "04c70504ebc33e68155d0bb689ef2fb7", "is_reserved": 0, "rental_uris": {"android": "https://dc.lft.to/lastmile_qr_scan", "ios": "https://dc.lft.to/lastmile_qr_scan"}, "lat": 38.92370416666667, "is_disabled": 0, "lon": -77.01925816666666}, {"fusion_lat": 0.0, "type": "electric_scooter", "name": "231947f5c215ef1e39e03d9cd112ec39", "fusion_lon": 0.0, "bike_id": "231947f5c215ef1e39e03d9cd112ec39", "is_reserved": 0, "rental_uris": {"android": "https://dc.lft.to/lastmile_qr_scan", "ios": "https://dc.lft.to/lastmile_qr_scan"}, "lat": 38.90563916666667, "is_disabled": 0, "lon": -77.04279783333334}, {"fusion_lat": 0.0, "type": "electric_scooter", "name": "96938b6f292c19351b42b1a522d96502", "fusion_lon": 0.0, "bike_id": "96938b6f292c19351b42b1a522d96502", "is_reserved": 0, "rental_uris": {"android": "https://dc.lft.to/lastmile_qr_scan", "ios": "https://dc.lft.to/lastmile_qr_scan"}, "lat": 38.9418075, "is_disabled": 0, "lon": -77.0253155}, {"fusion_lat": 0.0, "type": "electric_scooter", "name": "6e12a615aded99972311533e87c4bfb8", "fusion_lon": 0.0, "bike_id": "6e12a615aded99972311533e87c4bfb8", "is_reserved": 0, "rental_uris": {"android": "https://dc.lft.to/lastmile_qr_scan", "ios": "https://dc.lft.to/lastmile_qr_scan"}, "lat": 38.8876665, "is_disabled": 0, "lon": -76.95576083333333}, {"fusion_lat": 0.0, "type": "electric_scooter", "name": "fe26b76ae0e9fc2fefb412d48bbf975c", "fusion_lon": 0.0, "bike_id": "fe26b76ae0e9fc2fefb412d48bbf975c", "is_reserved": 0, "rental_uris": {"android": "https://dc.lft.to/lastmile_qr_scan", "ios": "https://dc.lft.to/lastmile_qr_scan"}, "lat": 38.93534016666667, "is_disabled": 0, "lon": -77.05828766666667}, {"fusion_lat": 0.0, "type": "electric_scooter", "name": "1cbbd868b03a5a8ef1dae5659ca2ca85", "fusion_lon": 0.0, "bike_id": "1cbbd868b03a5a8ef1dae5659ca2ca85", "is_reserved": 0, "rental_uris": {"android": "https://dc.lft.to/lastmile_qr_scan", "ios": "https://dc.lft.to/lastmile_qr_scan"}, "lat": 38.900797833333336, "is_disabled": 0, "lon": -76.9936725}, {"fusion_lat": 0.0, "type": "electric_scooter", "name": "f2030d4b47bac8053090748f28a7c121", "fusion_lon": 0.0, "bike_id": "f2030d4b47bac8053090748f28a7c121", "is_reserved": 0, "rental_uris": {"android": "https://dc.lft.to/lastmile_qr_scan", "ios": "https://dc.lft.to/lastmile_qr_scan"}, "lat": 38.9285345, "is_disabled": 0, "lon": -77.029469}, {"fusion_lat": 0.0, "type": "electric_scooter", "name": "17ec16768c197fb481a1ef63f3b5eb6b", "fusion_lon": 0.0, "bike_id": "17ec16768c197fb481a1ef63f3b5eb6b", "is_reserved": 0, "rental_uris": {"android": "https://dc.lft.to/lastmile_qr_scan", "ios": "https://dc.lft.to/lastmile_qr_scan"}, "lat": 38.92566266666667, "is_disabled": 0, "lon": -77.0284375}, {"fusion_lat": 0.0, "type": "electric_scooter", "name": "7be925002a76e5245a8af3b38b9856b2", "fusion_lon": 0.0, "bike_id": "7be925002a76e5245a8af3b38b9856b2", "is_reserved": 0, "rental_uris": {"android": "https://dc.lft.to/lastmile_qr_scan", "ios": "https://dc.lft.to/lastmile_qr_scan"}, "lat": 38.89495683333333, "is_disabled": 0, "lon": -77.0095}, {"fusion_lat": 0.0, "type": "electric_scooter", "name": "70a36360f1e39d540b22f46959f4f49b", "fusion_lon": 0.0, "bike_id": "70a36360f1e39d540b22f46959f4f49b", "is_reserved": 0, "rental_uris": {"android": "https://dc.lft.to/lastmile_qr_scan", "ios": "https://dc.lft.to/lastmile_qr_scan"}, "lat": 38.91723016666667, "is_disabled": 0, "lon": -77.02963116666666}, {"fusion_lat": 0.0, "type": "electric_bike", "name": "e9bfc5a8206f025bd8d9a0efb0678003", "fusion_lon": 0.0, "bike_id": "e9bfc5a8206f025bd8d9a0efb0678003", "is_reserved": 0, "rental_uris": {"android": "https://dc.lft.to/lastmile_qr_scan", "ios": "https://dc.lft.to/lastmile_qr_scan"}, "lat": 38.889085, "is_disabled": 0, "lon": -76.94797366666667}, {"fusion_lat": 0.0, "type": "electric_scooter", "name": "c306aa2d51b0aaba7b8ad0f8ab8ac5ae", "fusion_lon": 0.0, "bike_id": "c306aa2d51b0aaba7b8ad0f8ab8ac5ae", "is_reserved": 0, "rental_uris": {"android": "https://dc.lft.to/lastmile_qr_scan", "ios": "https://dc.lft.to/lastmile_qr_scan"}, "lat": 38.836972, "is_disabled": 0, "lon": -77.00569716666666}, {"fusion_lat": 0.0, "type": "electric_scooter", "name": "e7e51b9cff966aa0b4089f57221aabdf", "fusion_lon": 0.0, "bike_id": "e7e51b9cff966aa0b4089f57221aabdf", "is_reserved": 0, "rental_uris": {"android": "https://dc.lft.to/lastmile_qr_scan", "ios": "https://dc.lft.to/lastmile_qr_scan"}, "lat": 38.84424083333333, "is_disabled": 0, "lon": -76.99777483333334}, {"fusion_lat": 0.0, "type": "electric_scooter", "name": "640cb7509614afb970575f194e5fd162", "fusion_lon": 0.0, "bike_id": "640cb7509614afb970575f194e5fd162", "is_reserved": 0, "rental_uris": {"android": "https://dc.lft.to/lastmile_qr_scan", "ios": "https://dc.lft.to/lastmile_qr_scan"}, "lat": 38.905665666666664, "is_disabled": 0, "lon": -77.034473}, {"fusion_lat": 0.0, "type": "electric_scooter", "name": "e7a143fba5bd5baad56aa32145c1b548", "fusion_lon": 0.0, "bike_id": "e7a143fba5bd5baad56aa32145c1b548", "is_reserved": 0, "rental_uris": {"android": "https://dc.lft.to/lastmile_qr_scan", "ios": "https://dc.lft.to/lastmile_qr_scan"}, "lat": 38.9236365, "is_disabled": 0, "lon": -77.02058083333333}, {"fusion_lat": 0.0, "type": "electric_scooter", "name": "723f6c66e80639d3c027debc70639e47", "fusion_lon": 0.0, "bike_id": "723f6c66e80639d3c027debc70639e47", "is_reserved": 0, "rental_uris": {"android": "https://dc.lft.to/lastmile_qr_scan", "ios": "https://dc.lft.to/lastmile_qr_scan"}, "lat": 38.926414333333334, "is_disabled": 0, "lon": -77.041371}, {"fusion_lat": 0.0, "type": "electric_scooter", "name": "2f8853d6817b97c6b9463be4d6efa9f5", "fusion_lon": 0.0, "bike_id": "2f8853d6817b97c6b9463be4d6efa9f5", "is_reserved": 0, "rental_uris": {"android": "https://dc.lft.to/lastmile_qr_scan", "ios": "https://dc.lft.to/lastmile_qr_scan"}, "lat": 38.92239516666667, "is_disabled": 0, "lon": -77.07310583333333}, {"fusion_lat": 0.0, "type": "electric_scooter", "name": "00fbf45e93843742cc267fdd3b561e67", "fusion_lon": 0.0, "bike_id": "00fbf45e93843742cc267fdd3b561e67", "is_reserved": 0, "rental_uris": {"android": "https://dc.lft.to/lastmile_qr_scan", "ios": "https://dc.lft.to/lastmile_qr_scan"}, "lat": 38.903367833333334, "is_disabled": 0, "lon": -77.06121033333334}, {"fusion_lat": 0.0, "type": "electric_scooter", "name": "30ae88d1a4303a3a1b4fcefc491c62ad", "fusion_lon": 0.0, "bike_id": "30ae88d1a4303a3a1b4fcefc491c62ad", "is_reserved": 0, "rental_uris": {"android": "https://dc.lft.to/lastmile_qr_scan", "ios": "https://dc.lft.to/lastmile_qr_scan"}, "lat": 38.93603733333333, "is_disabled": 0, "lon": -77.02919683333333}, {"fusion_lat": 0.0, "type": "electric_scooter", "name": "2eedafeae60a595c4f3f8f9b1661de8d", "fusion_lon": 0.0, "bike_id": "2eedafeae60a595c4f3f8f9b1661de8d", "is_reserved": 0, "rental_uris": {"android": "https://dc.lft.to/lastmile_qr_scan", "ios": "https://dc.lft.to/lastmile_qr_scan"}, "lat": 38.90287816666667, "is_disabled": 0, "lon": -77.0334445}, {"fusion_lat": 0.0, "type": "electric_scooter", "name": "9e2e4e21a1f03db9d857001c8922c29a", "fusion_lon": 0.0, "bike_id": "9e2e4e21a1f03db9d857001c8922c29a", "is_reserved": 0, "rental_uris": {"android": "https://dc.lft.to/lastmile_qr_scan", "ios": "https://dc.lft.to/lastmile_qr_scan"}, "lat": 38.90175, "is_disabled": 0, "lon": -77.02302633333333}, {"fusion_lat": 0.0, "type": "electric_scooter", "name": "79652b6f91d872760ce5c4b53f2eb6ca", "fusion_lon": 0.0, "bike_id": "79652b6f91d872760ce5c4b53f2eb6ca", "is_reserved": 0, "rental_uris": {"android": "https://dc.lft.to/lastmile_qr_scan", "ios": "https://dc.lft.to/lastmile_qr_scan"}, "lat": 38.9179895, "is_disabled": 0, "lon": -77.03019766666667}, {"fusion_lat": 0.0, "type": "electric_scooter", "name": "21b80c8c0f3b163b685554a9ba82c531", "fusion_lon": 0.0, "bike_id": "21b80c8c0f3b163b685554a9ba82c531", "is_reserved": 0, "rental_uris": {"android": "https://dc.lft.to/lastmile_qr_scan", "ios": "https://dc.lft.to/lastmile_qr_scan"}, "lat": 38.94111933333333, "is_disabled": 0, "lon": -77.01541833333333}, {"fusion_lat": 0.0, "type": "electric_scooter", "name": "0065db6a8bd3f40675e668e8ea1529b9", "fusion_lon": 0.0, "bike_id": "0065db6a8bd3f40675e668e8ea1529b9", "is_reserved": 0, "rental_uris": {"android": "https://dc.lft.to/lastmile_qr_scan", "ios": "https://dc.lft.to/lastmile_qr_scan"}, "lat": 38.90039733333333, "is_disabled": 0, "lon": -77.03200133333333}, {"fusion_lat": 0.0, "type": "electric_scooter", "name": "e55a898f83b55b23242b01fa0f35740e", "fusion_lon": 0.0, "bike_id": "e55a898f83b55b23242b01fa0f35740e", "is_reserved": 0, "rental_uris": {"android": "https://dc.lft.to/lastmile_qr_scan", "ios": "https://dc.lft.to/lastmile_qr_scan"}, "lat": 38.902101, "is_disabled": 0, "lon": -77.02359183333333}, {"fusion_lat": 0.0, "type": "electric_scooter", "name": "75ea5ab078e0568b9cea595e91615e21", "fusion_lon": 0.0, "bike_id": "75ea5ab078e0568b9cea595e91615e21", "is_reserved": 0, "rental_uris": {"android": "https://dc.lft.to/lastmile_qr_scan", "ios": "https://dc.lft.to/lastmile_qr_scan"}, "lat": 38.922514666666665, "is_disabled": 0, "lon": -77.02979783333333}, {"fusion_lat": 0.0, "type": "electric_scooter", "name": "98ecba2d21dfd3dcfafe9d4af5adf64c", "fusion_lon": 0.0, "bike_id": "98ecba2d21dfd3dcfafe9d4af5adf64c", "is_reserved": 0, "rental_uris": {"android": "https://dc.lft.to/lastmile_qr_scan", "ios": "https://dc.lft.to/lastmile_qr_scan"}, "lat": 38.90844233333333, "is_disabled": 0, "lon": -77.03553016666666}, {"fusion_lat": 0.0, "type": "electric_scooter", "name": "f8e13588db1ab41feb24b65bdeae5c6d", "fusion_lon": 0.0, "bike_id": "f8e13588db1ab41feb24b65bdeae5c6d", "is_reserved": 0, "rental_uris": {"android": "https://dc.lft.to/lastmile_qr_scan", "ios": "https://dc.lft.to/lastmile_qr_scan"}, "lat": 38.90729, "is_disabled": 0, "lon": -76.9869515}, {"fusion_lat": 0.0, "type": "electric_bike", "name": "f66cbc6a364076762b102fc5d48b8e35", "fusion_lon": 0.0, "bike_id": "f66cbc6a364076762b102fc5d48b8e35", "is_reserved": 0, "rental_uris": {"android": "https://dc.lft.to/lastmile_qr_scan", "ios": "https://dc.lft.to/lastmile_qr_scan"}, "lat": 39.04303083333333, "is_disabled": 0, "lon": -77.05159183333333}, {"fusion_lat": 0.0, "type": "electric_scooter", "name": "4cceb7c3d45912175dd969d3a20dbba4", "fusion_lon": 0.0, "bike_id": "4cceb7c3d45912175dd969d3a20dbba4", "is_reserved": 0, "rental_uris": {"android": "https://dc.lft.to/lastmile_qr_scan", "ios": "https://dc.lft.to/lastmile_qr_scan"}, "lat": 38.892413833333336, "is_disabled": 0, "lon": -77.02206433333333}, {"fusion_lat": 0.0, "type": "electric_scooter", "name": "16c0ed34a5b4d8aed42491a261b74a56", "fusion_lon": 0.0, "bike_id": "16c0ed34a5b4d8aed42491a261b74a56", "is_reserved": 0, "rental_uris": {"android": "https://dc.lft.to/lastmile_qr_scan", "ios": "https://dc.lft.to/lastmile_qr_scan"}, "lat": 38.923622, "is_disabled": 0, "lon": -77.01923833333333}, {"fusion_lat": 0.0, "type": "electric_scooter", "name": "9b2aef17cc6afc6f2f821eb13e435ca4", "fusion_lon": 0.0, "bike_id": "9b2aef17cc6afc6f2f821eb13e435ca4", "is_reserved": 0, "rental_uris": {"android": "https://dc.lft.to/lastmile_qr_scan", "ios": "https://dc.lft.to/lastmile_qr_scan"}, "lat": 38.89902166666667, "is_disabled": 0, "lon": -77.03263916666667}, {"fusion_lat": 0.0, "type": "electric_scooter", "name": "40e54b4bb13d53d5c4a52f2e0db1fa94", "fusion_lon": 0.0, "bike_id": "40e54b4bb13d53d5c4a52f2e0db1fa94", "is_reserved": 0, "rental_uris": {"android": "https://dc.lft.to/lastmile_qr_scan", "ios": "https://dc.lft.to/lastmile_qr_scan"}, "lat": 38.89889483333333, "is_disabled": 0, "lon": -77.0393465}, {"fusion_lat": 0.0, "type": "electric_scooter", "name": "2999ad9d2a73c23035bb46caf9a0424b", "fusion_lon": 0.0, "bike_id": "2999ad9d2a73c23035bb46caf9a0424b", "is_reserved": 0, "rental_uris": {"android": "https://dc.lft.to/lastmile_qr_scan", "ios": "https://dc.lft.to/lastmile_qr_scan"}, "lat": 38.92474083333333, "is_disabled": 0, "lon": -77.03909366666667}, {"fusion_lat": 0.0, "type": "electric_scooter", "name": "adf06744a22e0f35756dc39033601b9e", "fusion_lon": 0.0, "bike_id": "adf06744a22e0f35756dc39033601b9e", "is_reserved": 0, "rental_uris": {"android": "https://dc.lft.to/lastmile_qr_scan", "ios": "https://dc.lft.to/lastmile_qr_scan"}, "lat": 38.9309775, "is_disabled": 0, "lon": -77.02534333333334}, {"fusion_lat": 0.0, "type": "electric_scooter", "name": "3074b37a9b7c1c6a7063308d9c837528", "fusion_lon": 0.0, "bike_id": "3074b37a9b7c1c6a7063308d9c837528", "is_reserved": 0, "rental_uris": {"android": "https://dc.lft.to/lastmile_qr_scan", "ios": "https://dc.lft.to/lastmile_qr_scan"}, "lat": 38.90505666666667, "is_disabled": 0, "lon": -76.99609516666666}, {"fusion_lat": 0.0, "type": "electric_scooter", "name": "6f3a99a396679b200508ede70b438462", "fusion_lon": 0.0, "bike_id": "6f3a99a396679b200508ede70b438462", "is_reserved": 0, "rental_uris": {"android": "https://dc.lft.to/lastmile_qr_scan", "ios": "https://dc.lft.to/lastmile_qr_scan"}, "lat": 38.9024635, "is_disabled": 0, "lon": -77.02689683333334},