{"data": {"bikes": [{"is_reserved": 0, "lat": 38.89174083333333, "is_disabled": 0, "type": "electric_scooter", "fusion_lat": 0.0, "bike_id": "759f9c9b7774feae2642b4d7d70ee950", "rental_uris": {"ios": "https://dc.lft.to/lastmile_qr_scan", "android": "https://dc.lft.to/lastmile_qr_scan"}, "fusion_lon": 0.0, "name": "759f9c9b7774feae2642b4d7d70ee950", "lon": -77.01582266666666}, {"is_reserved": 0, "lat": 38.899293666666665, "is_disabled": 0, "type": "electric_scooter", "fusion_lat": 0.0, "bike_id": "931cb7d4a3a4fd3256b88410afd5e0c9", "rental_uris": {"ios": "https://dc.lft.to/lastmile_qr_scan", "android": "https://dc.lft.to/lastmile_qr_scan"}, "fusion_lon": 0.0, "name": "931cb7d4a3a4fd3256b88410afd5e0c9", "lon": -77.02785366666667}, {"is_reserved": 0, "lat": 38.86657666666667, "is_disabled": 0, "type": "electric_scooter", "fusion_lat": 0.0, "bike_id": "d81fe2d72a00a1f6c5a4bc0911230eba", "rental_uris": {"ios": "https://dc.lft.to/lastmile_qr_scan", "android": "https://dc.lft.to/lastmile_qr_scan"}, "fusion_lon": 0.0, "name": "d81fe2d72a00a1f6c5a4bc0911230eba", "lon": -76.9849285}, {"is_reserved": 0, "lat": 38.902939833333335, "is_disabled": 0, "type": "electric_scooter", "fusion_lat": 0.0, "bike_id": "3ebef76b9ec4b279f1d582ab6cf2c8f2", "rental_uris": {"ios": "https://dc.lft.to/lastmile_qr_scan", "android": "https://dc.lft.to/lastmile_qr_scan"}, "fusion_lon": 0.0, "name": "3ebef76b9ec4b279f1d582ab6cf2c8f2", "lon": -76.99477}, {"is_reserved": 0, "lat": 38.95551616666667, "is_disabled": 0, "type": "electric_bike", "fusion_lat": 0.0, "bike_id": "374b5d27f16a05ed1b7098348631bf4a", "rental_uris": {"ios": "https://dc.lft.to/lastmile_qr_scan", "android": "https://dc.lft.to/lastmile_qr_scan"}, "fusion_lon": 0.0, "name": "374b5d27f16a05ed1b7098348631bf4a", "lon": -76.93549683333333}, {"is_reserved": 0, "lat": 38.888545666666666, "is_disabled": 0, "type": "electric_bike", "fusion_lat": 0.0, "bike_id": "50ab99fdbddfb56dddfc896971459048", "rental_uris": {"ios": "https://dc.lft.to/lastmile_qr_scan", "android": "https://dc.lft.to/lastmile_qr_scan"}, "fusion_lon": 0.0, "name": "50ab99fdbddfb56dddfc896971459048", "lon": -77.032487}, {"is_reserved": 0, "lat": 38.90005466666667, "is_disabled": 0, "type": "electric_scooter", "fusion_lat": 0.0, "bike_id": "f37206930271b74f8e8a824a416e9bf7", "rental_uris": {"ios": "https://dc.lft.to/lastmile_qr_scan", "android": "https://dc.lft.to/lastmile_qr_scan"}, "fusion_lon": 0.0, "name": "f37206930271b74f8e8a824a416e9bf7", "lon": -77.04497933333333}, {"is_reserved": 0, "lat": 38.90523, "is_disabled": 0, "type": "electric_scooter", "fusion_lat": 0.0, "bike_id": "5b33f8eadb0e9fad4978553e045fc1a3", "rental_uris": {"ios": "https://dc.lft.to/lastmile_qr_scan", "android": "https://dc.lft.to/lastmile_qr_scan"}, "fusion_lon": 0.0, "name": "5b33f8eadb0e9fad4978553e045fc1a3", "lon": -77.05142116666667}, {"is_reserved": 0, "lat": 38.90813766666667, "is_disabled": 0, "type": "electric_scooter", "fusion_lat": 0.0, "bike_id": "a85fab5bd5a30c01b78f01edd9d5b552", "rental_uris": {"ios": "https://dc.lft.to/lastmile_qr_scan", "android": "https://dc.lft.to/lastmile_qr_scan"}, "fusion_lon": 0.0, "name": "a85fab5bd5a30c01b78f01edd9d5b552", "lon": -77.04332933333333}, {"is_reserved": 0, "lat": 38.898772, "is_disabled": 0, "type": "electric_scooter", "fusion_lat": 0.0, "bike_id": "cc1bf1ee37bad6e354e661f5e4088ce0", "rental_uris": {"ios": "https://dc.lft.to/lastmile_qr_scan", "android": "https://dc.lft.to/lastmile_qr_scan"}, "fusion_lon": 0.0, "name": "cc1bf1ee37bad6e354e661f5e4088ce0", "lon": -76.93193616666667}, {"is_reserved": 0, "lat": 38.895796833333335, "is_disabled": 0, "type": "electric_bike", "fusion_lat": 0.0, "bike_id": "97f00ad31f9fd36a4d47159e945fd75f", "rental_uris": {"ios": "https://dc.lft.to/lastmile_qr_scan", "android": "https://dc.lft.to/lastmile_qr_scan"}, "fusion_lon": 0.0, "name": "97f00ad31f9fd36a4d47159e945fd75f", "lon": -77.02570083333333}, {"is_reserved": 0, "lat": 38.89988233333333, "is_disabled": 0, "type": "electric_scooter", "fusion_lat": 0.0, "bike_id": "5109f0ee080ad8885ab35151a4257877", "rental_uris": {"ios": "https://dc.lft.to/lastmile_qr_scan", "android": "https://dc.lft.to/lastmile_qr_scan"}, "fusion_lon": 0.0, "name": "5109f0ee080ad8885ab35151a4257877", "lon": -77.0419155}, {"is_reserved": 0, "lat": 38.92239416666666, "is_disabled": 0, "type": "electric_scooter", "fusion_lat": 0.0, "bike_id": "dc73cf8c9fe58b3bd1f4cd79419378e6", "rental_uris": {"ios": "https://dc.lft.to/lastmile_qr_scan", "android": "https://dc.lft.to/lastmile_qr_scan"}, "fusion_lon": 0.0, "name": "dc73cf8c9fe58b3bd1f4cd79419378e6", "lon": -77.0448415}, {"is_reserved": 0, "lat": 38.9178515, "is_disabled": 0, "type": "electric_scooter", "fusion_lat": 0.0, "bike_id": "18029782ef8b202be255d6154eb93ade", "rental_uris": {"ios": "https://dc.lft.to/lastmile_qr_scan", "android": "https://dc.lft.to/lastmile_qr_scan"}, "fusion_lon": 0.0, "name": "18029782ef8b202be255d6154eb93ade", "lon": -77.02323216666667}, {"is_reserved": 0, "lat": 38.913170666666666, "is_disabled": 0, "type": "electric_scooter", "fusion_lat": 0.0, "bike_id": "c8ee51523b079aba2b3c1e90039ec99d", "rental_uris": {"ios": "https://dc.lft.to/lastmile_qr_scan", "android": "https://dc.lft.to/lastmile_qr_scan"}, "fusion_lon": 0.0, "name": "c8ee51523b079aba2b3c1e90039ec99d", "lon": -77.03328633333334}, {"is_reserved": 0, "lat": 38.9461255, "is_disabled": 0, "type": "electric_scooter", "fusion_lat": 0.0, "bike_id": "83ec0c340340b14837a0a8209ab66056", "rental_uris": {"ios": "https://dc.lft.to/lastmile_qr_scan", "android": "https://dc.lft.to/lastmile_qr_scan"}, "fusion_lon": 0.0, "name": "83ec0c340340b14837a0a8209ab66056", "lon": -77.02351666666667}, {"is_reserved": 0, "lat": 38.921508333333335, "is_disabled": 0, "type": "electric_scooter", "fusion_lat": 0.0, "bike_id": "a61d9010256cd8a7e692f2fea2591ac1", "rental_uris": {"ios": "https://dc.lft.to/lastmile_qr_scan", "android": "https://dc.lft.to/lastmile_qr_scan"}, "fusion_lon": 0.0, "name": "a61d9010256cd8a7e692f2fea2591ac1", "lon": -77.024319}, {"is_reserved": 0, "lat": 38.90665633333333, "is_disabled": 0, "type": "electric_scooter", "fusion_lat": 0.0, "bike_id": "1cd6b4fc6c87d29ea88bd2bd28936ff7", "rental_uris": {"ios": "https://dc.lft.to/lastmile_qr_scan", "android": "https://dc.lft.to/lastmile_qr_scan"}, "fusion_lon": 0.0, "name": "1cd6b4fc6c87d29ea88bd2bd28936ff7", "lon": -77.0271435}, {"is_reserved": 0, "lat": 38.94685033333333, "is_disabled": 0, "type": "electric_scooter", "fusion_lat": 0.0, "bike_id": "0b29dea82e100e211f08f23c84870dec", "rental_uris": {"ios": "https://dc.lft.to/lastmile_qr_scan", "android": "https://dc.lft.to/lastmile_qr_scan"}, "fusion_lon": 0.0, "name": "0b29dea82e100e211f08f23c84870dec", "lon": -76.9991005}, {"is_reserved": 0, "lat": 38.926815833333336, "is_disabled": 0, "type": "electric_scooter", "fusion_lat": 0.0, "bike_id": "cdd1d0da973281678b41f542afbabadd", "rental_uris": {"ios": "https://dc.lft.to/lastmile_qr_scan", "android": "https://dc.lft.to/lastmile_qr_scan"}, "fusion_lon": 0.0, "name": "cdd1d0da973281678b41f542afbabadd", "lon": -77.01574666666667}, {"is_reserved": 0, "lat": 38.89633216666667, "is_disabled": 0, "type": "electric_scooter", "fusion_lat": 0.0, "bike_id": "c9a9b07b5fe83340b231f0124bbbf7d8", "rental_uris": {"ios": "https://dc.lft.to/lastmile_qr_scan", "android": "https://dc.lft.to/lastmile_qr_scan"}, "fusion_lon": 0.0, "name": "c9a9b07b5fe83340b231f0124bbbf7d8", "lon": -77.02203183333333}, {"is_reserved": 0, "lat": 38.86696116666667, "is_disabled": 0, "type": "electric_scooter", "fusion_lat": 0.0, "bike_id": "d07b96f8c952a6be5d1e0bee9e94b2e1", "rental_uris": {"ios": "https://dc.lft.to/lastmile_qr_scan", "android": "https://dc.lft.to/lastmile_qr_scan"}, "fusion_lon": 0.0, "name": "d07b96f8c952a6be5d1e0bee9e94b2e1", "lon": -76.98712066666667}, {"is_reserved": 0, "lat": 38.87515616666666, "is_disabled": 0, "type": "electric_scooter", "fusion_lat": 0.0, "bike_id": "583aeb1cee22981e3b5009e234133aa8", "rental_uris": {"ios": "https://dc.lft.to/lastmile_qr_scan", "android": "https://dc.lft.to/lastmile_qr_scan"}, "fusion_lon": 0.0, "name": "583aeb1cee22981e3b5009e234133aa8", "lon": -77.00055916666666}, {"is_reserved": 0, "lat": 38.9044095, "is_disabled": 0, "type": "electric_scooter", "fusion_lat": 0.0, "bike_id": "a8f9e7bb3804c19fde9dddb60ea2e3ee", "rental_uris": {"ios": "https://dc.lft.to/lastmile_qr_scan", "android": "https://dc.lft.to/lastmile_qr_scan"}, "fusion_lon": 0.0, "name": "a8f9e7bb3804c19fde9dddb60ea2e3ee", "lon": -76.979135}, {"is_reserved": 0, "lat": 38.93083433333334, "is_disabled": 0, "type": "electric_scooter", "fusion_lat": 0.0, "bike_id": "5ab13de25aba488af548d38a1a8486b9", "rental_uris": {"ios": "https://dc.lft.to/lastmile_qr_scan", "android": "https://dc.lft.to/lastmile_qr_scan"}, "fusion_lon": 0.0, "name": "5ab13de25aba488af548d38a1a8486b9", "lon": -77.028096}, {"is_reserved": 0, "lat": 38.892214, "is_disabled": 0, "type": "electric_scooter", "fusion_lat": 0.0, "bike_id": "2f7a8cf1888b2a968eae5d2a9dbf8272", "rental_uris": {"ios": "https://dc.lft.to/lastmile_qr_scan", "android": "https://dc.lft.to/lastmile_qr_scan"}, "fusion_lon": 0.0, "name": "2f7a8cf1888b2a968eae5d2a9dbf8272", "lon": -77.0031125}, {"is_reserved": 0, "lat": 38.89324916666666, "is_disabled": 0, "type": "electric_scooter", "fusion_lat": 0.0, "bike_id": "348258c74ccfd302024d29f17e2e8cf5", "rental_uris": {"ios": "https://dc.lft.to/lastmile_qr_scan", "android": "https://dc.lft.to/lastmile_qr_scan"}, "fusion_lon": 0.0, "name": "348258c74ccfd302024d29f17e2e8cf5", "lon": -77.05586133333334}, {"is_reserved": 0, "lat": 38.909771166666665, "is_disabled": 0, "type": "electric_scooter", "fusion_lat": 0.0, "bike_id": "14222f74188d18df9e9776e38a465431", "rental_uris": {"ios": "https://dc.lft.to/lastmile_qr_scan", "android": "https://dc.lft.to/lastmile_qr_scan"}, "fusion_lon": 0.0, "name": "14222f74188d18df9e9776e38a465431", "lon": -77.04624983333333}, {"is_reserved": 0, "lat": 38.86652983333333, "is_disabled": 0, "type": "electric_scooter", "fusion_lat": 0.0, "bike_id": "30904249d053ec67edc8e25d9db88c8d", "rental_uris": {"ios": "https://dc.lft.to/lastmile_qr_scan", "android": "https://dc.lft.to/lastmile_qr_scan"}, "fusion_lon": 0.0, "name": "30904249d053ec67edc8e25d9db88c8d", "lon": -76.9889415}, {"is_reserved": 0, "lat": 38.879951166666665, "is_disabled": 0, "type": "electric_scooter", "fusion_lat": 0.0, "bike_id": "337d9a7a307101480df6394d43ec03e9", "rental_uris": {"ios": "https://dc.lft.to/lastmile_qr_scan", "android": "https://dc.lft.to/lastmile_qr_scan"}, "fusion_lon": 0.0, "name": "337d9a7a307101480df6394d43ec03e9", "lon": -76.98540166666666}, {"is_reserved": 0, "lat": 38.90517883333333, "is_disabled": 0, "type": "electric_scooter", "fusion_lat": 0.0, "bike_id": "f25cd5c3e791f1dba8d0491d6478791c", "rental_uris": {"ios": "https://dc.lft.to/lastmile_qr_scan", "android": "https://dc.lft.to/lastmile_qr_scan"}, "fusion_lon": 0.0, "name": "f25cd5c3e791f1dba8d0491d6478791c", "lon": -77.05134733333334}, {"is_reserved": 0, "lat": 38.8763345, "is_disabled": 0, "type": "electric_scooter", "fusion_lat": 0.0, "bike_id": "417d3c6324f1295d80cc9a79e1a27103", "rental_uris": {"ios": "https://dc.lft.to/lastmile_qr_scan", "android": "https://dc.lft.to/lastmile_qr_scan"}, "fusion_lon": 0.0, "name": "417d3c6324f1295d80cc9a79e1a27103", "lon": -77.00463166666667}, {"is_reserved": 0, "lat": 38.882687, "is_disabled": 0, "type": "electric_scooter", "fusion_lat": 0.0, "bike_id": "2d89b808b0783585320f69a7dfc60e23", "rental_uris": {"ios": "https://dc.lft.to/lastmile_qr_scan", "android": "https://dc.lft.to/lastmile_qr_scan"}, "fusion_lon": 0.0, "name": "2d89b808b0783585320f69a7dfc60e23", "lon": -76.99015516666667}, {"is_reserved": 0, "lat": 38.915952, "is_disabled": 0, "type": "electric_scooter", "fusion_lat": 0.0, "bike_id": "3c3910a9057dfd3d4c3cfe023e34621a", "rental_uris": {"ios": "https://dc.lft.to/lastmile_qr_scan", "android": "https://dc.lft.to/lastmile_qr_scan"}, "fusion_lon": 0.0, "name": "3c3910a9057dfd3d4c3cfe023e34621a", "lon": -77.04157166666667}, {"is_reserved": 0, "lat": 38.92346833333333, "is_disabled": 0, "type": "electric_scooter", "fusion_lat": 0.0, "bike_id": "ca918ad607fe954deeb5a1ab9ff02333", "rental_uris": {"ios": "https://dc.lft.to/lastmile_qr_scan", "android": "https://dc.lft.to/lastmile_qr_scan"}, "fusion_lon": 0.0, "name": "ca918ad607fe954deeb5a1ab9ff02333", "lon": -77.05124333333333}, {"is_reserved": 0, "lat": 38.871664833333334, "is_disabled": 0, "type": "electric_bike", "fusion_lat": 0.0, "bike_id": "d9196d2f3d03f354d6bc1477004f1005", "rental_uris": {"ios": "https://dc.lft.to/lastmile_qr_scan", "android": "https://dc.lft.to/lastmile_qr_scan"}, "fusion_lon": 0.0, "name": "d9196d2f3d03f354d6bc1477004f1005", "lon": -77.0128505}, {"is_reserved": 0, "lat": 38.91362633333333, "is_disabled": 0, "type": "electric_scooter", "fusion_lat": 0.0, "bike_id": "e84b4a7a6322a6a249b913695fcbec6e", "rental_uris": {"ios": "https://dc.lft.to/lastmile_qr_scan", "android": "https://dc.lft.to/lastmile_qr_scan"}, "fusion_lon": 0.0, "name": "e84b4a7a6322a6a249b913695fcbec6e", "lon": -77.044972}, {"is_reserved": 0, "lat": 38.8762805, "is_disabled": 0, "type": "electric_scooter", "fusion_lat": 0.0, "bike_id": "d8cc7746cf17abf43df35f63a388f159", "rental_uris": {"ios": "https://dc.lft.to/lastmile_qr_scan", "android": "https://dc.lft.to/lastmile_qr_scan"}, "fusion_lon": 0.0, "name": "d8cc7746cf17abf43df35f63a388f159", "lon": -76.96528666666667}, {"is_reserved": 0, "lat": 38.9202045, "is_disabled": 0, "type": "electric_scooter", "fusion_lat": 0.0, "bike_id": "a84964bab891a888d507e2ea281c0478", "rental_uris": {"ios": "https://dc.lft.to/lastmile_qr_scan", "android": "https://dc.lft.to/lastmile_qr_scan"}, "fusion_lon": 0.0, "name": "a84964bab891a888d507e2ea281c0478", "lon": -76.9956485}, {"is_reserved": 0, "lat": 38.917948333333335, "is_disabled": 0, "type": "electric_scooter", "fusion_lat": 0.0, "bike_id": "3d8ccfafeb27a4a99024a57fcdeec184", "rental_uris": {"ios": "https://dc.lft.to/lastmile_qr_scan", "android": "https://dc.lft.to/lastmile_qr_scan"}, "fusion_lon": 0.0, "name": "3d8ccfafeb27a4a99024a57fcdeec184", "lon": -77.02321516666666}, {"is_reserved": 0, "lat": 38.881182833333334, "is_disabled": 0, "type": "electric_scooter", "fusion_lat": 0.0, "bike_id": "e07e1624dc2149cb62104de4d482b641", "rental_uris": {"ios": "https://dc.lft.to/lastmile_qr_scan", "android": "https://dc.lft.to/lastmile_qr_scan"}, "fusion_lon": 0.0, "name": "e07e1624dc2149cb62104de4d482b641", "lon": -77.026599}, {"is_reserved": 0, "lat": 38.854300333333335, "is_disabled": 0, "type": "electric_bike", "fusion_lat": 0.0, "bike_id": "20ccec7b125733dc68ab58849f0a5893", "rental_uris": {"ios": "https://dc.lft.to/lastmile_qr_scan", "android": "https://dc.lft.to/lastmile_qr_scan"}, "fusion_lon": 0.0, "name": "20ccec7b125733dc68ab58849f0a5893", "lon": -76.909733}, {"is_reserved": 0, "lat": 38.89679866666667, "is_disabled": 0, "type": "electric_scooter", "fusion_lat": 0.0, "bike_id": "7abe1902c194dcfe4f0a4632cf4d82e1", "rental_uris": {"ios": "https://dc.lft.to/lastmile_qr_scan", "android": "https://dc.lft.to/lastmile_qr_scan"}, "fusion_lon": 0.0, "name": "7abe1902c194dcfe4f0a4632cf4d82e1", "lon": -77.05166616666666}, {"is_reserved": 0, "lat": 38.903831, "is_disabled": 0, "type": "electric_scooter", "fusion_lat": 0.0, "bike_id": "d164e495bcb85af32d2d397291ebd1ae", "rental_uris": {"ios": "https://dc.lft.to/lastmile_qr_scan", "android": "https://dc.lft.to/lastmile_qr_scan"}, "fusion_lon": 0.0, "name": "d164e495bcb85af32d2d397291ebd1ae", "lon": -77.03993616666666}, {"is_reserved": 0, "lat": 38.874621166666664, "is_disabled": 0, "type": "electric_scooter", "fusion_lat": 0.0, "bike_id": "d6768b2e63e954d70e45199b6526bf15", "rental_uris": {"ios": "https://dc.lft.to/lastmile_qr_scan", "android": "https://dc.lft.to/lastmile_qr_scan"}, "fusion_lon": 0.0, "name": "d6768b2e63e954d70e45199b6526bf15", "lon": -77.00532166666666}, {"is_reserved": 0, "lat": 38.928924, "is_disabled": 0, "type": "electric_scooter", "fusion_lat": 0.0, "bike_id": "3c79b6e3040c45eba1dc976f55c55aa8", "rental_uris": {"ios": "https://dc.lft.to/lastmile_qr_scan", "android": "https://dc.lft.to/lastmile_qr_scan"}, "fusion_lon": 0.0, "name": "3c79b6e3040c45eba1dc976f55c55aa8", "lon": -77.03334616666666}, {"is_reserved": 0, "lat": 38.917732666666666, "is_disabled": 0, "type": "electric_scooter", "fusion_lat": 0.0, "bike_id": "3eee4214d664c09fc10cb2d29a918548", "rental_uris": {"ios": "https://dc.lft.to/lastmile_qr_scan", "android": "https://dc.lft.to/lastmile_qr_scan"}, "fusion_lon": 0.0, "name": "3eee4214d664c09fc10cb2d29a918548", "lon": -77.041011}, {"is_reserved": 0, "lat": 38.916841833333336, "is_disabled": 0, "type": "electric_scooter", "fusion_lat": 0.0, "bike_id": "65747d82fec86733daf15c0119d03101", "rental_uris": {"ios": "https://dc.lft.to/lastmile_qr_scan", "android": "https://dc.lft.to/lastmile_qr_scan"}, "fusion_lon": 0.0, "name": "65747d82fec86733daf15c0119d03101", "lon": -77.028163}, {"is_reserved": 0, "lat": 38.9270825, "is_disabled": 0, "type": "electric_scooter", "fusion_lat": 0.0, "bike_id": "12b992866089b0c4a70cf5628d7cd841", "rental_uris": {"ios": "https://dc.lft.to/lastmile_qr_scan", "android": "https://dc.lft.to/lastmile_qr_scan"}, "fusion_lon": 0.0, "name": "12b992866089b0c4a70cf5628d7cd841", "lon": -77.02710716666667}, {"is_reserved": 0, "lat": 38.892192, "is_disabled": 0, "type": "electric_scooter", "fusion_lat": 0.0, "bike_id": "24819587db30d6c7e523eed17973018b", "rental_uris": {"ios": "https://dc.lft.to/lastmile_qr_scan", "android": "https://dc.lft.to/lastmile_qr_scan"}, "fusion_lon": 0.0, "name": "24819587db30d6c7e523eed17973018b", "lon": -77.04329316666667}, {"is_reserved": 0, "lat": 38.901324333333335, "is_disabled": 0, "type": "electric_scooter", "fusion_lat": 0.0, "bike_id": "6351d4e218b2cd373354405c6195c4f0", "rental_uris": {"ios": "https://dc.lft.to/lastmile_qr_scan", "android": "https://dc.lft.to/lastmile_qr_scan"}, "fusion_lon": 0.0, "name": "6351d4e218b2cd373354405c6195c4f0", "lon": -77.04182783333333}, {"is_reserved": 0, "lat": 38.912070166666666, "is_disabled": 0, "type": "electric_scooter", "fusion_lat": 0.0, "bike_id": "b945c5d8f04b0754def3a3a7ede93139", "rental_uris": {"ios": "https://dc.lft.to/lastmile_qr_scan", "android": "https://dc.lft.to/lastmile_qr_scan"}, "fusion_lon": 0.0, "name": "b945c5d8f04b0754def3a3a7ede93139", "lon": -77.07601966666667}, {"is_reserved": 0, "lat": 38.905923666666666, "is_disabled": 0, "type": "electric_scooter", "fusion_lat": 0.0, "bike_id": "f9ea1cb2d84ddb01cd11e3c2daa25800", "rental_uris": {"ios": "https://dc.lft.to/lastmile_qr_scan", "android": "https://dc.lft.to/lastmile_qr_scan"}, "fusion_lon": 0.0, "name": "f9ea1cb2d84ddb01cd11e3c2daa25800", "lon": -77.03829216666666}, {"is_reserved": 0, "lat": 38.904031833333335, "is_disabled": 0, "type": "electric_scooter", "fusion_lat": 0.0, "bike_id": "1253d4e5f8c788c29629dce437bde200", "rental_uris": {"ios": "https://dc.lft.to/lastmile_qr_scan", "android": "https://dc.lft.to/lastmile_qr_scan"}, "fusion_lon": 0.0, "name": "1253d4e5f8c788c29629dce437bde200", "lon": -77.046561}, {"is_reserved": 0, "lat": 38.89886333333333, "is_disabled": 0, "type": "electric_scooter", "fusion_lat": 0.0, "bike_id": "a44b4a2a592f30941640725bdae7cae2", "rental_uris": {"ios": "https://dc.lft.to/lastmile_qr_scan", "android": "https://dc.lft.to/lastmile_qr_scan"}, "fusion_lon": 0.0, "name": "a44b4a2a592f30941640725bdae7cae2", "lon": -76.93229666666667}, {"is_reserved": 0, "lat": 38.90472616666667, "is_disabled": 0, "type": "electric_scooter", "fusion_lat": 0.0, "bike_id": "24058ce8303accb61666087ff4c2ef66", "rental_uris": {"ios": "https://dc.lft.to/lastmile_qr_scan", "android": "https://dc.lft.to/lastmile_qr_scan"}, "fusion_lon": 0.0, "name": "24058ce8303accb61666087ff4c2ef66", "lon": -77.04174783333333}, {"is_reserved": 0, "lat": 38.908931833333334, "is_disabled": 0, "type": "electric_scooter", "fusion_lat": 0.0, "bike_id": "f58515b9af4653d2257e6e54731e27d3", "rental_uris": {"ios": "https://dc.lft.to/lastmile_qr_scan", "android": "https://dc.lft.to/lastmile_qr_scan"}, "fusion_lon": 0.0, "name": "f58515b9af4653d2257e6e54731e27d3", "lon": -77.0345135}, {"is_reserved": 0, "lat": 38.9027675, "is_disabled": 0, "type": "electric_scooter", "fusion_lat": 0.0, "bike_id": "f93fcf177bdda7bccd76d98354a26094", "rental_uris": {"ios": "https://dc.lft.to/lastmile_qr_scan", "android": "https://dc.lft.to/lastmile_qr_scan"}, "fusion_lon": 0.0, "name": "f93fcf177bdda7bccd76d98354a26094", "lon": -77.04608916666666}, {"is_reserved": 0, "lat": 38.89991233333333, "is_disabled": 0, "type": "electric_bike", "fusion_lat": 0.0, "bike_id": "b7df5fc2ab16b93a7042c272c44d649a", "rental_uris": {"ios": "https://dc.lft.to/lastmile_qr_scan", "android": "https://dc.lft.to/lastmile_qr_scan"}, "fusion_lon": 0.0, "name": "b7df5fc2ab16b93a7042c272c44d649a", "lon": -77.0293735}, {"is_reserved": 0, "lat": 38.9242845, "is_disabled": 0, "type": "electric_scooter", "fusion_lat": 0.0, "bike_id": "d2555f4a0d5afab332f032be063216c0", "rental_uris": {"ios": "https://dc.lft.to/lastmile_qr_scan", "android": "https://dc.lft.to/lastmile_qr_scan"}, "fusion_lon": 0.0, "name": "d2555f4a0d5afab332f032be063216c0", "lon": -77.0574815}, {"is_reserved": 0, "lat": 38.895871666666665, "is_disabled": 0, "type": "electric_scooter", "fusion_lat": 0.0, "bike_id": "638386274710e045c421235c3da53742", "rental_uris": {"ios": "https://dc.lft.to/lastmile_qr_scan", "android": "https://dc.lft.to/lastmile_qr_scan"}, "fusion_lon": 0.0, "name": "638386274710e045c421235c3da53742", "lon": -77.03208233333334}, {"is_reserved": 0, "lat": 38.90947766666667, "is_disabled": 0, "type": "electric_scooter", "fusion_lat": 0.0, "bike_id": "2f27533fb15f20143f27e5b5cc2b8ad7", "rental_uris": {"ios": "https://dc.lft.to/lastmile_qr_scan", "android": "https://dc.lft.to/lastmile_qr_scan"}, "fusion_lon": 0.0, "name": "2f27533fb15f20143f27e5b5cc2b8ad7", "lon": -77.02192716666667}, {"is_reserved": 0, "lat": 38.90587033333333, "is_disabled": 0, "type": "electric_scooter", "fusion_lat": 0.0, "bike_id": "2fab7f558fcb94ecb117005ff9c710b6", "rental_uris": {"ios": "https://dc.lft.to/lastmile_qr_scan", "android": "https://dc.lft.to/lastmile_qr_scan"}, "fusion_lon": 0.0, "name": "2fab7f558fcb94ecb117005ff9c710b6", "lon": -77.04457683333334}, {"is_reserved": 0, "lat": 38.89220733333333, "is_disabled": 0, "type": "electric_scooter", "fusion_lat": 0.0, "bike_id": "0cd264287d99be1582cfac25e82ef763", "rental_uris": {"ios": "https://dc.lft.to/lastmile_qr_scan", "android": "https://dc.lft.to/lastmile_qr_scan"}, "fusion_lon": 0.0, "name": "0cd264287d99be1582cfac25e82ef763", "lon": -77.04329666666666}, {"is_reserved": 0, "lat": 38.9359005, "is_disabled": 0, "type": "electric_scooter", "fusion_lat": 0.0, "bike_id": "403b5f35785d919e7116e1c62e7c9db5", "rental_uris": {"ios": "https://dc.lft.to/lastmile_qr_scan", "android": "https://dc.lft.to/lastmile_qr_scan"}, "fusion_lon": 0.0, "name": "403b5f35785d919e7116e1c62e7c9db5", "lon": -77.0351145}, {"is_reserved": 0, "lat": 38.897374666666664, "is_disabled": 0, "type": "electric_scooter", "fusion_lat": 0.0, "bike_id": "d1e6d2038d6a3878ca5f48379113e1a9", "rental_uris": {"ios": "https://dc.lft.to/lastmile_qr_scan", "android": "https://dc.lft.to/lastmile_qr_scan"}, "fusion_lon": 0.0, "name": "d1e6d2038d6a3878ca5f48379113e1a9", "lon": -77.02704916666667}, {"is_reserved": 0, "lat": 38.892233, "is_disabled": 0, "type": "electric_scooter", "fusion_lat": 0.0, "bike_id": "95dee0037045c95c0819458575a72415", "rental_uris": {"ios": "https://dc.lft.to/lastmile_qr_scan", "android": "https://dc.lft.to/lastmile_qr_scan"}, "fusion_lon": 0.0, "name": "95dee0037045c95c0819458575a72415", "lon": -77.02586616666666}, {"is_reserved": 0, "lat": 38.9052235, "is_disabled": 0, "type": "electric_scooter", "fusion_lat": 0.0, "bike_id": "0e582d8c3142eab31317369e9eb7bc87", "rental_uris": {"ios": "https://dc.lft.to/lastmile_qr_scan", "android": "https://dc.lft.to/lastmile_qr_scan"}, "fusion_lon": 0.0, "name": "0e582d8c3142eab31317369e9eb7bc87", "lon": -77.04172}, {"is_reserved": 0, "lat": 38.9110535, "is_disabled": 0, "type": "electric_scooter", "fusion_lat": 0.0, "bike_id": "f472d05dcc1e2f5c67b04ed1d23dec8a", "rental_uris": {"ios": "https://dc.lft.to/lastmile_qr_scan", "android": "https://dc.lft.to/lastmile_qr_scan"}, "fusion_lon": 0.0, "name": "f472d05dcc1e2f5c67b04ed1d23dec8a", "lon": -77.017485}, {"is_reserved": 0, "lat": 38.9008255, "is_disabled": 0, "type": "electric_scooter", "fusion_lat": 0.0, "bike_id": "b782a7dc27763876c0adc71a99d5e242", "rental_uris": {"ios": "https://dc.lft.to/lastmile_qr_scan", "android": "https://dc.lft.to/lastmile_qr_scan"}, "fusion_lon": 0.0, "name": "b782a7dc27763876c0adc71a99d5e242", "lon": -77.049247}, {"is_reserved": 0, "lat": 38.906623333333336, "is_disabled": 0, "type": "electric_scooter", "fusion_lat": 0.0, "bike_id": "c3655039e11bbea8b0e7e527dc32a88b", "rental_uris": {"ios": "https://dc.lft.to/lastmile_qr_scan", "android": "https://dc.lft.to/lastmile_qr_scan"}, "fusion_lon": 0.0, "name": "c3655039e11bbea8b0e7e527dc32a88b", "lon": -77.048777}, {"is_reserved": 0, "lat": 38.840777333333335, "is_disabled": 0, "type": "electric_scooter", "fusion_lat": 0.0, "bike_id": "6bb2979e896b8f5a01a34f30b344ea3c", "rental_uris": {"ios": "https://dc.lft.to/lastmile_qr_scan", "android": "https://dc.lft.to/lastmile_qr_scan"}, "fusion_lon": 0.0, "name": "6bb2979e896b8f5a01a34f30b344ea3c", "lon": -76.98929816666667}, {"is_reserved": 0, "lat": 38.93220733333333, "is_disabled": 0, "type": "electric_scooter", "fusion_lat": 0.0, "bike_id": "d0733cd8e2cc41cf5915fd5808f0fb00", "rental_uris": {"ios": "https://dc.lft.to/lastmile_qr_scan", "android": "https://dc.lft.to/lastmile_qr_scan"}, "fusion_lon": 0.0, "name": "d0733cd8e2cc41cf5915fd5808f0fb00", "lon": -77.033836}, {"is_reserved": 0, "lat": 38.866512666666665, "is_disabled": 0, "type": "electric_scooter", "fusion_lat": 0.0, "bike_id": "507bb9c4bd90520a8e5acff441e5f659", "rental_uris": {"ios": "https://dc.lft.to/lastmile_qr_scan", "android": "https://dc.lft.to/lastmile_qr_scan"}, "fusion_lon": 0.0, "name": "507bb9c4bd90520a8e5acff441e5f659", "lon": -76.98540483333333}, {"is_reserved": 0, "lat": 38.937809, "is_disabled": 0, "type": "electric_scooter", "fusion_lat": 0.0, "bike_id": "fb6808ccfdc918b70fb4eb4f39fc9216", "rental_uris": {"ios": "https://dc.lft.to/lastmile_qr_scan", "android": "https://dc.lft.to/lastmile_qr_scan"}, "fusion_lon": 0.0, "name": "fb6808ccfdc918b70fb4eb4f39fc9216", "lon": -77.02314016666666}, {"is_reserved": 0, "lat": 38.899571, "is_disabled": 0, "type": "electric_scooter", "fusion_lat": 0.0, "bike_id": "dcf58bfc9fb3dc3b50b5ddc5a4bff1eb", "rental_uris": {"ios": "https://dc.lft.to/lastmile_qr_scan", "android": "https://dc.lft.to/lastmile_qr_scan"}, "fusion_lon": 0.0, "name": "dcf58bfc9fb3dc3b50b5ddc5a4bff1eb", "lon": -77.021506}, {"is_reserved": 0, "lat": 38.949584333333334, "is_disabled": 0, "type": "electric_scooter", "fusion_lat": 0.0, "bike_id": "94e1f82d7a5e8797f82d559a371bc3d9", "rental_uris": {"ios": "https://dc.lft.to/lastmile_qr_scan", "android": "https://dc.lft.to/lastmile_qr_scan"}, "fusion_lon": 0.0, "name": "94e1f82d7a5e8797f82d559a371bc3d9", "lon": -77.0272825}, {"is_reserved": 0, "lat": 38.917726333333334, "is_disabled": 0, "type": "electric_scooter", "fusion_lat": 0.0, "bike_id": "136067a7fa7e583344362b152ba282c9", "rental_uris": {"ios": "https://dc.lft.to/lastmile_qr_scan", "android": "https://dc.lft.to/lastmile_qr_scan"}, "fusion_lon": 0.0, "name": "136067a7fa7e583344362b152ba282c9", "lon": -77.03858916666667}, {"is_reserved": 0, "lat": 38.91841433333333, "is_disabled": 0, "type": "electric_scooter", "fusion_lat": 0.0, "bike_id": "fadd56a053cd5b97d1e511cbb0bb3a0f", "rental_uris": {"ios": "https://dc.lft.to/lastmile_qr_scan", "android": "https://dc.lft.to/lastmile_qr_scan"}, "fusion_lon": 0.0, "name": "fadd56a053cd5b97d1e511cbb0bb3a0f", "lon": -77.03451666666666}, {"is_reserved": 0, "lat": 38.905912, "is_disabled": 0, "type": "electric_scooter", "fusion_lat": 0.0, "bike_id": "fe79a211b70dd9683dad6fcfc5f6a9b9", "rental_uris": {"ios": "https://dc.lft.to/lastmile_qr_scan", "android": "https://dc.lft.to/lastmile_qr_scan"}, "fusion_lon": 0.0, "name": "fe79a211b70dd9683dad6fcfc5f6a9b9", "lon": -77.0431355}, {"is_reserved": 0, "lat": 38.923571833333334, "is_disabled": 0, "type": "electric_scooter", "fusion_lat": 0.0, "bike_id": "eb527161ff58faebb911a39d6af06dd1", "rental_uris": {"ios": "https://dc.lft.to/lastmile_qr_scan", "android": "https://dc.lft.to/lastmile_qr_scan"}, "fusion_lon": 0.0, "name": "eb527161ff58faebb911a39d6af06dd1", "lon": -77.05434183333334}, {"is_reserved": 0, "lat": 38.928596, "is_disabled": 0, "type": "electric_scooter", "fusion_lat": 0.0, "bike_id": "df8956999676d35301b180006474c34d", "rental_uris": {"ios": "https://dc.lft.to/lastmile_qr_scan", "android": "https://dc.lft.to/lastmile_qr_scan"}, "fusion_lon": 0.0, "name": "df8956999676d35301b180006474c34d", "lon": -77.032427}, {"is_reserved": 0, "lat": 38.915636166666665, "is_disabled": 0, "type": "electric_scooter", "fusion_lat": 0.0, "bike_id": "0f05a7170a094d45a82083655191c8b4", "rental_uris": {"ios": "https://dc.lft.to/lastmile_qr_scan", "android": "https://dc.lft.to/lastmile_qr_scan"}, "fusion_lon": 0.0, "name": "0f05a7170a094d45a82083655191c8b4", "lon": -77.022937}, {"is_reserved": 0, "lat": 38.9326425, "is_disabled": 0, "type": "electric_scooter", "fusion_lat": 0.0, "bike_id": "16386f54c97460c805d990f367a12f8d", "rental_uris": {"ios": "https://dc.lft.to/lastmile_qr_scan", "android": "https://dc.lft.to/lastmile_qr_scan"}, "fusion_lon": 0.0, "name": "16386f54c97460c805d990f367a12f8d", "lon": -77.034915}, {"is_reserved": 0, "lat": 38.899571333333334, "is_disabled": 0, "type": "electric_scooter", "fusion_lat": 0.0, "bike_id": "f8a7dc03a1b3f16604abbe96f96ced78", "rental_uris": {"ios": "https://dc.lft.to/lastmile_qr_scan", "android": "https://dc.lft.to/lastmile_qr_scan"}, "fusion_lon": 0.0, "name": "f8a7dc03a1b3f16604abbe96f96ced78", "lon": -77.03338133333334}, {"is_reserved": 0, "lat": 38.91558666666667, "is_disabled": 0, "type": "electric_scooter", "fusion_lat": 0.0, "bike_id": "a28ff92a7ed0bf2e61f291766a5f6b35", "rental_uris": {"ios": "https://dc.lft.to/lastmile_qr_scan", "android": "https://dc.lft.to/lastmile_qr_scan"}, "fusion_lon": 0.0, "name": "a28ff92a7ed0bf2e61f291766a5f6b35", "lon": -77.00979666666667}, {"is_reserved": 0, "lat": 38.90606233333333, "is_disabled": 0, "type": "electric_scooter", "fusion_lat": 0.0, "bike_id": "ed2e656daa9d109c5062038cb9d4ea1d", "rental_uris": {"ios": "https://dc.lft.to/lastmile_qr_scan", "android": "https://dc.lft.to/lastmile_qr_scan"}, "fusion_lon": 0.0, "name": "ed2e656daa9d109c5062038cb9d4ea1d", "lon": -77.040566}, {"is_reserved": 0, "lat": 38.92259116666666, "is_disabled": 0, "type": "electric_scooter", "fusion_lat": 0.0, "bike_id": "f39baecc426c56c2e83bd26beb5fbada", "rental_uris": {"ios": "https://dc.lft.to/lastmile_qr_scan", "android": "https://dc.lft.to/lastmile_qr_scan"}, "fusion_lon": 0.0, "name": "f39baecc426c56c2e83bd26beb5fbada", "lon": -77.04200216666666}, {"is_reserved": 0, "lat": 38.89610416666667, "is_disabled": 0, "type": "electric_scooter", "fusion_lat": 0.0, "bike_id": "da09450d755d9a3fcf07fcfcda6b81c6", "rental_uris": {"ios": "https://dc.lft.to/lastmile_qr_scan", "android": "https://dc.lft.to/lastmile_qr_scan"}, "fusion_lon": 0.0, "name": "da09450d755d9a3fcf07fcfcda6b81c6", "lon": -77.04597283333334}, {"is_reserved": 0, "lat": 38.91145783333333, "is_disabled": 0, "type": "electric_scooter", "fusion_lat": 0.0, "bike_id": "f3b5590cdd64096a74a5f852a35cf905", "rental_uris": {"ios": "https://dc.lft.to/lastmile_qr_scan", "android": "https://dc.lft.to/lastmile_qr_scan"}, "fusion_lon": 0.0, "name": "f3b5590cdd64096a74a5f852a35cf905", "lon": -77.00461633333333}, {"is_reserved": 0, "lat": 38.8385585, "is_disabled": 0, "type": "electric_bike", "fusion_lat": 0.0, "bike_id": "d0123c4c669cc4e00f1ebf0bb07db65f", "rental_uris": {"ios": "https://dc.lft.to/lastmile_qr_scan", "android": "https://dc.lft.to/lastmile_qr_scan"}, "fusion_lon": 0.0, "name": "d0123c4c669cc4e00f1ebf0bb07db65f", "lon": -76.99704733333333}, {"is_reserved": 0, "lat": 38.90069066666667, "is_disabled": 0, "type": "electric_scooter", "fusion_lat": 0.0, "bike_id": "87e095fe7b788047c1df1cc98bbcb8b4", "rental_uris": {"ios": "https://dc.lft.to/lastmile_qr_scan", "android": "https://dc.lft.to/lastmile_qr_scan"}, "fusion_lon": 0.0, "name": "87e095fe7b788047c1df1cc98bbcb8b4", "lon": -77.02713866666667}, {"is_reserved": 0, "lat": 38.90275116666667, "is_disabled": 0, "type": "electric_scooter", "fusion_lat": 0.0, "bike_id": "d21ccaf08a7a5e3163fec77d411f2feb", "rental_uris": {"ios": "https://dc.lft.to/lastmile_qr_scan", "android": "https://dc.lft.to/lastmile_qr_scan"}, "fusion_lon": 0.0, "name": "d21ccaf08a7a5e3163fec77d411f2feb", "lon": -77.0455145}, {"is_reserved": 0, "lat": 38.92564766666667, "is_disabled": 0, "type": "electric_scooter", "fusion_lat": 0.0, "bike_id": "3a1538f3f7a4210707e1ed42f5a113ce", "rental_uris": {"ios": "https://dc.lft.to/lastmile_qr_scan", "android": "https://dc.lft.to/lastmile_qr_scan"}, "fusion_lon": 0.0, "name": "3a1538f3f7a4210707e1ed42f5a113ce", "lon": -77.0228245}, {"is_reserved": 0, "lat": 38.91622683333333, "is_disabled": 0, "type": "electric_scooter", "fusion_lat": 0.0, "bike_id": "03ac9c281e739085aafb07a1540c036a", "rental_uris": {"ios": "https://dc.lft.to/lastmile_qr_scan", "android": "https://dc.lft.to/lastmile_qr_scan"}, "fusion_lon": 0.0, "name": "03ac9c281e739085aafb07a1540c036a", "lon": -77.04259733333333}, {"is_reserved": 0, "lat": 38.90152916666667, "is_disabled": 0, "type": "electric_scooter", "fusion_lat": 0.0, "bike_id": "6223201121f8a66dec7ee58930ab7743", "rental_uris": {"ios": "https://dc.lft.to/lastmile_qr_scan", "android": "https://dc.lft.to/lastmile_qr_scan"}, "fusion_lon": 0.0, "name": "6223201121f8a66dec7ee58930ab7743", "lon": -77.04154266666667}, {"is_reserved": 0, "lat": 38.91952833333333, "is_disabled": 0, "type": "electric_scooter", "fusion_lat": 0.0, "bike_id": "0cf1055aedf0ad28d1eaa047ca149f1c", "rental_uris": {"ios": "https://dc.lft.to/lastmile_qr_scan", "android": "https://dc.lft.to/lastmile_qr_scan"}, "fusion_lon": 0.0, "name": "0cf1055aedf0ad28d1eaa047ca149f1c", "lon": -77.0236525}, {"is_reserved": 0, "lat": 38.90564783333333, "is_disabled": 0, "type": "electric_scooter", "fusion_lat": 0.0, "bike_id": "bb78a79cf3687f0dad8fcef1c8f73aea", "rental_uris": {"ios": "https://dc.lft.to/lastmile_qr_scan", "android": "https://dc.lft.to/lastmile_qr_scan"}, "fusion_lon": 0.0, "name": "bb78a79cf3687f0dad8fcef1c8f73aea", "lon": -77.03417883333333}, {"is_reserved": 0, "lat": 38.90561833333334, "is_disabled": 0, "type": "electric_scooter", "fusion_lat": 0.0, "bike_id": "65438b1fba35c7ca4e222c549655966f", "rental_uris": {"ios": "https://dc.lft.to/lastmile_qr_scan", "android": "https://dc.lft.to/lastmile_qr_scan"}, "fusion_lon": 0.0, "name": "65438b1fba35c7ca4e222c549655966f", "lon": -77.03467866666666}, {"is_reserved": 0, "lat": 38.93935916666667, "is_disabled": 0, "type": "electric_scooter", "fusion_lat": 0.0, "bike_id": "b125088b4b3fa195d554d98d4eeb8cbd", "rental_uris": {"ios": "https://dc.lft.to/lastmile_qr_scan", "android": "https://dc.lft.to/lastmile_qr_scan"}, "fusion_lon": 0.0, "name": "b125088b4b3fa195d554d98d4eeb8cbd", "lon": -77.052684}, {"is_reserved": 0, "lat": 38.894139, "is_disabled": 0, "type": "electric_scooter", "fusion_lat": 0.0, "bike_id": "69bcd195feada5f49e5008b8d0066852", "rental_uris": {"ios": "https://dc.lft.to/lastmile_qr_scan", "android": "https://dc.lft.to/lastmile_qr_scan"}, "fusion_lon": 0.0, "name": "69bcd195feada5f49e5008b8d0066852", "lon": -77.02588033333333}, {"is_reserved": 0, "lat": 38.9168985, "is_disabled": 0, "type": "electric_scooter", "fusion_lat": 0.0, "bike_id": "ce387fb8438db0797e651989ad9395ba", "rental_uris": {"ios": "https://dc.lft.to/lastmile_qr_scan", "android": "https://dc.lft.to/lastmile_qr_scan"}, "fusion_lon": 0.0, "name": "ce387fb8438db0797e651989ad9395ba", "lon": -77.046036}, {"is_reserved": 0, "lat": 38.921973, "is_disabled": 0, "type": "electric_scooter", "fusion_lat": 0.0, "bike_id": "219926155f5b011efa53b9863bc597b3", "rental_uris": {"ios": "https://dc.lft.to/lastmile_qr_scan", "android": "https://dc.lft.to/lastmile_qr_scan"}, "fusion_lon": 0.0, "name": "219926155f5b011efa53b9863bc597b3", "lon": -77.0388875}, {"is_reserved": 0, "lat": 38.89003116666667, "is_disabled": 0, "type": "electric_scooter", "fusion_lat": 0.0, "bike_id": "6c93bb35ffa11fb647d440f7ae6e390f", "rental_uris": {"ios": "https://dc.lft.to/lastmile_qr_scan", "android": "https://dc.lft.to/lastmile_qr_scan"}, "fusion_lon": 0.0, "name": "6c93bb35ffa11fb647d440f7ae6e390f", "lon": -76.95945316666666}, {"is_reserved": 0, "lat": 38.900733333333335, "is_disabled": 0, "type": "electric_scooter", "fusion_lat": 0.0, "bike_id": "4659a19c1982392bafc614c88304b49f", "rental_uris": {"ios": "https://dc.lft.to/lastmile_qr_scan", "android": "https://dc.lft.to/lastmile_qr_scan"}, "fusion_lon": 0.0, "name": "4659a19c1982392bafc614c88304b49f", "lon": -77.04891416666666}, {"is_reserved": 0, "lat": 38.911455, "is_disabled": 0, "type": "electric_scooter", "fusion_lat": 0.0, "bike_id": "2c154e84b398016bb486509ac6d1b03b", "rental_uris": {"ios": "https://dc.lft.to/lastmile_qr_scan", "android": "https://dc.lft.to/lastmile_qr_scan"}, "fusion_lon": 0.0, "name": "2c154e84b398016bb486509ac6d1b03b", "lon": -77.01687033333333}, {"is_reserved": 0, "lat": 38.842805166666665, "is_disabled": 0, "type": "electric_bike", "fusion_lat": 0.0, "bike_id": "194b33f1cc4911bf6f77406363ae1a17", "rental_uris": {"ios": "https://dc.lft.to/lastmile_qr_scan", "android": "https://dc.lft.to/lastmile_qr_scan"}, "fusion_lon": 0.0, "name": "194b33f1cc4911bf6f77406363ae1a17", "lon": -76.98843833333333}, {"is_reserved": 0, "lat": 38.8961295, "is_disabled": 0, "type": "electric_scooter", "fusion_lat": 0.0, "bike_id": "c015b12b91bbcbc37e6fa6795860d038", "rental_uris": {"ios": "https://dc.lft.to/lastmile_qr_scan", "android": "https://dc.lft.to/lastmile_qr_scan"}, "fusion_lon": 0.0, "name": "c015b12b91bbcbc37e6fa6795860d038", "lon": -77.02256066666666}, {"is_reserved": 0, "lat": 38.89727166666667, "is_disabled": 0, "type": "electric_scooter", "fusion_lat": 0.0, "bike_id": "0edc364c47eb96d06ef24003c8844b18", "rental_uris": {"ios": "https://dc.lft.to/lastmile_qr_scan", "android": "https://dc.lft.to/lastmile_qr_scan"}, "fusion_lon": 0.0, "name": "0edc364c47eb96d06ef24003c8844b18", "lon": -77.02693616666667}, {"is_reserved": 0, "lat": 38.90684566666667, "is_disabled": 0, "type": "electric_scooter", "fusion_lat": 0.0, "bike_id": "299e63db8b76cf548d01851a0a11bc83", "rental_uris": {"ios": "https://dc.lft.to/lastmile_qr_scan", "android": "https://dc.lft.to/lastmile_qr_scan"}, "fusion_lon": 0.0, "name": "299e63db8b76cf548d01851a0a11bc83", "lon": -77.02715716666667}, {"is_reserved": 0, "lat": 38.907353, "is_disabled": 0, "type": "electric_scooter", "fusion_lat": 0.0, "bike_id": "339ff0ea5fee2c290c6218488872402c", "rental_uris": {"ios": "https://dc.lft.to/lastmile_qr_scan", "android": "https://dc.lft.to/lastmile_qr_scan"}, "fusion_lon": 0.0, "name": "339ff0ea5fee2c290c6218488872402c", "lon": -77.029835}, {"is_reserved": 0, "lat": 38.961372, "is_disabled": 0, "type": "electric_bike", "fusion_lat": 0.0, "bike_id": "37d53e9a3f9c2ba6bc2cb072ad678373", "rental_uris": {"ios": "https://dc.lft.to/lastmile_qr_scan", "android": "https://dc.lft.to/lastmile_qr_scan"}, "fusion_lon": 0.0, "name": "37d53e9a3f9c2ba6bc2cb072ad678373", "lon": -77.00981616666667}, {"is_reserved": 0, "lat": 38.91364633333333, "is_disabled": 0, "type": "electric_scooter", "fusion_lat": 0.0, "bike_id": "1978482280fd467aadaec4147adf2d7e", "rental_uris": {"ios": "https://dc.lft.to/lastmile_qr_scan", "android": "https://dc.lft.to/lastmile_qr_scan"}, "fusion_lon": 0.0, "name": "1978482280fd467aadaec4147adf2d7e", "lon": -77.044969}, {"is_reserved": 0, "lat": 38.89018733333333, "is_disabled": 0, "type": "electric_scooter", "fusion_lat": 0.0, "bike_id": "64779fd897ec2fb99957744f77ec59dc", "rental_uris": {"ios": "https://dc.lft.to/lastmile_qr_scan", "android": "https://dc.lft.to/lastmile_qr_scan"}, "fusion_lon": 0.0, "name": "64779fd897ec2fb99957744f77ec59dc", "lon": -76.93737316666666}, {"is_reserved": 0, "lat": 38.889864, "is_disabled": 0, "type": "electric_scooter", "fusion_lat": 0.0, "bike_id": "694acad772e730032a65fa9c5c563bcd", "rental_uris": {"ios": "https://dc.lft.to/lastmile_qr_scan", "android": "https://dc.lft.to/lastmile_qr_scan"}, "fusion_lon": 0.0, "name": "694acad772e730032a65fa9c5c563bcd", "lon": -77.00333583333334}, {"is_reserved": 0, "lat": 38.88742716666667, "is_disabled": 0, "type": "electric_scooter", "fusion_lat": 0.0, "bike_id": "f591c8b563a49ccc15142ba1ce1674e1", "rental_uris": {"ios": "https://dc.lft.to/lastmile_qr_scan", "android": "https://dc.lft.to/lastmile_qr_scan"}, "fusion_lon": 0.0, "name": "f591c8b563a49ccc15142ba1ce1674e1", "lon": -77.014075}, {"is_reserved": 0, "lat": 38.887445666666665, "is_disabled": 0, "type": "electric_scooter", "fusion_lat": 0.0, "bike_id": "82f003ab4caf472fd1c61645e3b8405a", "rental_uris": {"ios": "https://dc.lft.to/lastmile_qr_scan", "android": "https://dc.lft.to/lastmile_qr_scan"}, "fusion_lon": 0.0, "name": "82f003ab4caf472fd1c61645e3b8405a", "lon": -77.02845266666667}, {"is_reserved": 0, "lat": 38.92157516666666, "is_disabled": 0, "type": "electric_scooter", "fusion_lat": 0.0, "bike_id": "5c53bbd510aac6a68640a5bddc59f567", "rental_uris": {"ios": "https://dc.lft.to/lastmile_qr_scan", "android": "https://dc.lft.to/lastmile_qr_scan"}, "fusion_lon": 0.0, "name": "5c53bbd510aac6a68640a5bddc59f567", "lon": -77.04127866666667}, {"is_reserved": 0, "lat": 38.899460833333336, "is_disabled": 0, "type": "electric_scooter", "fusion_lat": 0.0, "bike_id": "0e2bbddb384579a317b1b5783b118a3b", "rental_uris": {"ios": "https://dc.lft.to/lastmile_qr_scan", "android": "https://dc.lft.to/lastmile_qr_scan"}, "fusion_lon": 0.0, "name": "0e2bbddb384579a317b1b5783b118a3b", "lon": -77.04671466666667}, {"is_reserved": 0, "lat": 38.900253166666666, "is_disabled": 0, "type": "electric_scooter", "fusion_lat": 0.0, "bike_id": "c7b3fde1c4e18d672a31d71b9a1878ac", "rental_uris": {"ios": "https://dc.lft.to/lastmile_qr_scan", "android": "https://dc.lft.to/lastmile_qr_scan"}, "fusion_lon": 0.0, "name": "c7b3fde1c4e18d672a31d71b9a1878ac", "lon": -76.98831016666666}, {"is_reserved": 0, "lat": 38.899995, "is_disabled": 0, "type": "electric_scooter", "fusion_lat": 0.0, "bike_id": "e6698d2f5939fe95955f5842bc1eeed9", "rental_uris": {"ios": "https://dc.lft.to/lastmile_qr_scan", "android": "https://dc.lft.to/lastmile_qr_scan"}, "fusion_lon": 0.0, "name": "e6698d2f5939fe95955f5842bc1eeed9", "lon": -76.993124}, {"is_reserved": 0, "lat": 38.93080533333333, "is_disabled": 0, "type": "electric_scooter", "fusion_lat": 0.0, "bike_id": "00013a75d2011c3249587180a758290a", "rental_uris": {"ios": "https://dc.lft.to/lastmile_qr_scan", "android": "https://dc.lft.to/lastmile_qr_scan"}, "fusion_lon": 0.0, "name": "00013a75d2011c3249587180a758290a", "lon": -77.02807216666666}, {"is_reserved": 0, "lat": 38.92424416666667, "is_disabled": 0, "type": "electric_scooter", "fusion_lat": 0.0, "bike_id": "3ceec5dad72a22b23c54a825c91c8c58", "rental_uris": {"ios": "https://dc.lft.to/lastmile_qr_scan", "android": "https://dc.lft.to/lastmile_qr_scan"}, "fusion_lon": 0.0, "name": "3ceec5dad72a22b23c54a825c91c8c58", "lon": -77.04006916666667}, {"is_reserved": 0, "lat": 38.90889883333333, "is_disabled": 0, "type": "electric_scooter", "fusion_lat": 0.0, "bike_id": "85b0b1b42a1f6776545cb2a1abba5f3b", "rental_uris": {"ios": "https://dc.lft.to/lastmile_qr_scan", "android": "https://dc.lft.to/lastmile_qr_scan"}, "fusion_lon": 0.0, "name": "85b0b1b42a1f6776545cb2a1abba5f3b", "lon": -77.03835483333333}, {"is_reserved": 0, "lat": 38.89223233333333, "is_disabled": 0, "type": "electric_scooter", "fusion_lat": 0.0, "bike_id": "1adf111ab95bde49ef74ae367935cabf", "rental_uris": {"ios": "https://dc.lft.to/lastmile_qr_scan", "android": "https://dc.lft.to/lastmile_qr_scan"}, "fusion_lon": 0.0, "name": "1adf111ab95bde49ef74ae367935cabf", "lon": -77.04183183333333}, {"is_reserved": 0, "lat": 38.9266755, "is_disabled": 0, "type": "electric_scooter", "fusion_lat": 0.0, "bike_id": "2b83f5f43854151bb80b590958ba89db", "rental_uris": {"ios": "https://dc.lft.to/lastmile_qr_scan", "android": "https://dc.lft.to/lastmile_qr_scan"}, "fusion_lon": 0.0, "name": "2b83f5f43854151bb80b590958ba89db", "lon": -77.01476433333333}, {"is_reserved": 0, "lat": 38.924634, "is_disabled": 0, "type": "electric_bike", "fusion_lat": 0.0, "bike_id": "68eb5b9067023849c4109b3c05d81c7e", "rental_uris": {"ios": "https://dc.lft.to/lastmile_qr_scan", "android": "https://dc.lft.to/lastmile_qr_scan"}, "fusion_lon": 0.0, "name": "68eb5b9067023849c4109b3c05d81c7e", "lon": -77.05203433333334}, {"is_reserved": 0, "lat": 38.878715, "is_disabled": 0, "type": "electric_scooter", "fusion_lat": 0.0, "bike_id": "057802a7b896efd96fc43a6d03919647", "rental_uris": {"ios": "https://dc.lft.to/lastmile_qr_scan", "android": "https://dc.lft.to/lastmile_qr_scan"}, "fusion_lon": 0.0, "name": "057802a7b896efd96fc43a6d03919647", "lon": -77.02231283333333}, {"is_reserved": 0, "lat": 38.90570966666667, "is_disabled": 0, "type": "electric_scooter", "fusion_lat": 0.0, "bike_id": "f2b7255b917a1dec29c4f6f9a6cdacc4", "rental_uris": {"ios": "https://dc.lft.to/lastmile_qr_scan", "android": "https://dc.lft.to/lastmile_qr_scan"}, "fusion_lon": 0.0, "name": "f2b7255b917a1dec29c4f6f9a6cdacc4", "lon": -77.0240515}, {"is_reserved": 0, "lat": 38.87573883333334, "is_disabled": 0, "type": "electric_bike", "fusion_lat": 0.0, "bike_id": "755f21fa5212fe7213921584a5730b3d", "rental_uris": {"ios": "https://dc.lft.to/lastmile_qr_scan", "android": "https://dc.lft.to/lastmile_qr_scan"}, "fusion_lon": 0.0, "name": "755f21fa5212fe7213921584a5730b3d", "lon": -77.00784066666667}, {"is_reserved": 0, "lat": 38.84503816666667, "is_disabled": 0, "type": "electric_bike", "fusion_lat": 0.0, "bike_id": "29f940e1deb955c1a69293348ef3f72a", "rental_uris": {"ios": "https://dc.lft.to/lastmile_qr_scan", "android": "https://dc.lft.to/lastmile_qr_scan"}, "fusion_lon": 0.0, "name": "29f940e1deb955c1a69293348ef3f72a", "lon": -76.9935715}, {"is_reserved": 0, "lat": 38.920488, "is_disabled": 0, "type": "electric_scooter", "fusion_lat": 0.0, "bike_id": "f90ecd1eadf79f30ed2ef3b8f526d16e", "rental_uris": {"ios": "https://dc.lft.to/lastmile_qr_scan", "android": "https://dc.lft.to/lastmile_qr_scan"}, "fusion_lon": 0.0, "name": "f90ecd1eadf79f30ed2ef3b8f526d16e", "lon": -77.03375716666666}, {"is_reserved": 0, "lat": 38.92977166666667, "is_disabled": 0, "type": "electric_scooter", "fusion_lat": 0.0, "bike_id": "9019e1a0db24fde8982365b57b28fa91", "rental_uris": {"ios": "https://dc.lft.to/lastmile_qr_scan", "android": "https://dc.lft.to/lastmile_qr_scan"}, "fusion_lon": 0.0, "name": "9019e1a0db24fde8982365b57b28fa91", "lon": -77.05540116666667}, {"is_reserved": 0, "lat": 38.88489933333334, "is_disabled": 0, "type": "electric_scooter", "fusion_lat": 0.0, "bike_id": "94d31b0d275860acf121b822e1d8b921", "rental_uris": {"ios": "https://dc.lft.to/lastmile_qr_scan", "android": "https://dc.lft.to/lastmile_qr_scan"}, "fusion_lon": 0.0, "name": "94d31b0d275860acf121b822e1d8b921", "lon": -77.007247}, {"is_reserved": 0, "lat": 38.906614, "is_disabled": 0, "type": "electric_scooter", "fusion_lat": 0.0, "bike_id": "61660ac4abb978fb4e24d6b67ff12834", "rental_uris": {"ios": "https://dc.lft.to/lastmile_qr_scan", "android": "https://dc.lft.to/lastmile_qr_scan"}, "fusion_lon": 0.0, "name": "61660ac4abb978fb4e24d6b67ff12834", "lon": -77.02696016666667}, {"is_reserved": 0, "lat": 38.92323716666667, "is_disabled": 0, "type": "electric_scooter", "fusion_lat": 0.0, "bike_id": "dbf10c775ecd4e23504d316a4c24e7a0", "rental_uris": {"ios": "https://dc.lft.to/lastmile_qr_scan", "android": "https://dc.lft.to/lastmile_qr_scan"}, "fusion_lon": 0.0, "name": "dbf10c775ecd4e23504d316a4c24e7a0", "lon": -77.03589766666667}, {"is_reserved": 0, "lat": 38.907838166666664, "is_disabled": 0, "type": "electric_scooter", "fusion_lat": 0.0, "bike_id": "dde049eb068eb3611d063038753d6809", "rental_uris": {"ios": "https://dc.lft.to/lastmile_qr_scan", "android": "https://dc.lft.to/lastmile_qr_scan"}, "fusion_lon": 0.0, "name": "dde049eb068eb3611d063038753d6809", "lon": -77.03206866666666}, {"is_reserved": 0, "lat": 38.92815183333333, "is_disabled": 0, "type": "electric_scooter", "fusion_lat": 0.0, "bike_id": "6ac08b02ca2fe6a5bd873405895a47a6", "rental_uris": {"ios": "https://dc.lft.to/lastmile_qr_scan", "android": "https://dc.lft.to/lastmile_qr_scan"}, "fusion_lon": 0.0, "name": "6ac08b02ca2fe6a5bd873405895a47a6", "lon": -77.0290665}, {"is_reserved": 0, "lat": 38.91589883333333, "is_disabled": 0, "type": "electric_scooter", "fusion_lat": 0.0, "bike_id": "728ab30f890be4dd3ab6934ef35a9b51", "rental_uris": {"ios": "https://dc.lft.to/lastmile_qr_scan", "android": "https://dc.lft.to/lastmile_qr_scan"}, "fusion_lon": 0.0, "name": "728ab30f890be4dd3ab6934ef35a9b51", "lon": -77.03172866666667}, {"is_reserved": 0, "lat": 38.92484016666667, "is_disabled": 0, "type": "electric_scooter", "fusion_lat": 0.0, "bike_id": "9e22a8665b3ae0f0c92faf569d09cba3", "rental_uris": {"ios": "https://dc.lft.to/lastmile_qr_scan", "android": "https://dc.lft.to/lastmile_qr_scan"}, "fusion_lon": 0.0, "name": "9e22a8665b3ae0f0c92faf569d09cba3", "lon": -77.0318985}, {"is_reserved": 0, "lat": 38.89159083333333, "is_disabled": 0, "type": "electric_scooter", "fusion_lat": 0.0, "bike_id": "aa02b99d755896cc9810130a7e05e56e", "rental_uris": {"ios": "https://dc.lft.to/lastmile_qr_scan", "android": "https://dc.lft.to/lastmile_qr_scan"}, "fusion_lon": 0.0, "name": "aa02b99d755896cc9810130a7e05e56e", "lon": -76.99493583333333}, {"is_reserved": 0, "lat": 38.871951, "is_disabled": 0, "type": "electric_scooter", "fusion_lat": 0.0, "bike_id": "44ada78eaeffc6473042f49fbf2aa30f", "rental_uris": {"ios": "https://dc.lft.to/lastmile_qr_scan", "android": "https://dc.lft.to/lastmile_qr_scan"}, "fusion_lon": 0.0, "name": "44ada78eaeffc6473042f49fbf2aa30f", "lon": -77.00622083333333}, {"is_reserved": 0, "lat": 38.92484366666667, "is_disabled": 0, "type": "electric_scooter", "fusion_lat": 0.0, "bike_id": "b0894b606196990f21d9bbbbf1548c64", "rental_uris": {"ios": "https://dc.lft.to/lastmile_qr_scan", "android": "https://dc.lft.to/lastmile_qr_scan"}, "fusion_lon": 0.0, "name": "b0894b606196990f21d9bbbbf1548c64", "lon": -77.05212283333333}, {"is_reserved": 0, "lat": 38.8278265, "is_disabled": 0, "type": "electric_scooter", "fusion_lat": 0.0, "bike_id": "6966896f3af2f12659edb3ac34017e74", "rental_uris": {"ios": "https://dc.lft.to/lastmile_qr_scan", "android": "https://dc.lft.to/lastmile_qr_scan"}, "fusion_lon": 0.0, "name": "6966896f3af2f12659edb3ac34017e74", "lon": -77.00921666666666}, {"is_reserved": 0, "lat": 38.90775133333333, "is_disabled": 0, "type": "electric_scooter", "fusion_lat": 0.0, "bike_id": "f2bc9529b0e1494a9b681f44a81ea98f", "rental_uris": {"ios": "https://dc.lft.to/lastmile_qr_scan", "android": "https://dc.lft.to/lastmile_qr_scan"}, "fusion_lon": 0.0, "name": "f2bc9529b0e1494a9b681f44a81ea98f", "lon": -77.042175}, {"is_reserved": 0, "lat": 38.906258666666666, "is_disabled": 0, "type": "electric_scooter", "fusion_lat": 0.0, "bike_id": "9f8f881f258aa9c1bc9a00ec5617ffe2", "rental_uris": {"ios": "https://dc.lft.to/lastmile_qr_scan", "android": "https://dc.lft.to/lastmile_qr_scan"}, "fusion_lon": 0.0, "name": "9f8f881f258aa9c1bc9a00ec5617ffe2", "lon": -77.00597733333333}, {"is_reserved": 0, "lat": 38.913105333333334, "is_disabled": 0, "type": "electric_scooter", "fusion_lat": 0.0, "bike_id": "ae9578fbb38fcf5f5321eebdd052d25b", "rental_uris": {"ios": "https://dc.lft.to/lastmile_qr_scan", "android": "https://dc.lft.to/lastmile_qr_scan"}, "fusion_lon": 0.0, "name": "ae9578fbb38fcf5f5321eebdd052d25b", "lon": -77.02008433333333}, {"is_reserved": 0, "lat": 38.89419933333333, "is_disabled": 0, "type": "electric_scooter", "fusion_lat": 0.0, "bike_id": "015db39d540a8418f7d8514ee5df7fca", "rental_uris": {"ios": "https://dc.lft.to/lastmile_qr_scan", "android": "https://dc.lft.to/lastmile_qr_scan"}, "fusion_lon": 0.0, "name": "015db39d540a8418f7d8514ee5df7fca", "lon": -76.91171933333334}, {"is_reserved": 0, "lat": 38.8986955, "is_disabled": 0, "type": "electric_scooter", "fusion_lat": 0.0, "bike_id": "1d4b01a33f505d82c5161d04fce12cb0", "rental_uris": {"ios": "https://dc.lft.to/lastmile_qr_scan", "android": "https://dc.lft.to/lastmile_qr_scan"}, "fusion_lon": 0.0, "name": "1d4b01a33f505d82c5161d04fce12cb0", "lon": -77.02934166666667}, {"is_reserved": 0, "lat": 38.9261925, "is_disabled": 0, "type": "electric_scooter", "fusion_lat": 0.0, "bike_id": "4af19a95da9bb5d161ede4e66d4e7f60", "rental_uris": {"ios": "https://dc.lft.to/lastmile_qr_scan", "android": "https://dc.lft.to/lastmile_qr_scan"}, "fusion_lon": 0.0, "name": "4af19a95da9bb5d161ede4e66d4e7f60", "lon": -77.04203966666667}, {"is_reserved": 0, "lat": 38.916523166666664, "is_disabled": 0, "type": "electric_scooter", "fusion_lat": 0.0, "bike_id": "52af3a45edb391200f29a8d050944e4f", "rental_uris": {"ios": "https://dc.lft.to/lastmile_qr_scan", "android": "https://dc.lft.to/lastmile_qr_scan"}, "fusion_lon": 0.0, "name": "52af3a45edb391200f29a8d050944e4f", "lon": -77.02399616666666}, {"is_reserved": 0, "lat": 38.90773516666667, "is_disabled": 0, "type": "electric_scooter", "fusion_lat": 0.0, "bike_id": "ae33c738ad8ed3b3853184a27631e16b", "rental_uris": {"ios": "https://dc.lft.to/lastmile_qr_scan", "android": "https://dc.lft.to/lastmile_qr_scan"}, "fusion_lon": 0.0, "name": "ae33c738ad8ed3b3853184a27631e16b", "lon": -77.04191816666666}, {"is_reserved": 0, "lat": 38.9088785, "is_disabled": 0, "type": "electric_scooter", "fusion_lat": 0.0, "bike_id": "24d92c3d4de5153d4559a5af5d54c2fe", "rental_uris": {"ios": "https://dc.lft.to/lastmile_qr_scan", "android": "https://dc.lft.to/lastmile_qr_scan"}, "fusion_lon": 0.0, "name": "24d92c3d4de5153d4559a5af5d54c2fe", "lon": -76.98236283333334}, {"is_reserved": 0, "lat": 38.92743166666666, "is_disabled": 0, "type": "electric_scooter", "fusion_lat": 0.0, "bike_id": "42c26fa7e1a9dbb4579107949c1dcb84", "rental_uris": {"ios": "https://dc.lft.to/lastmile_qr_scan", "android": "https://dc.lft.to/lastmile_qr_scan"}, "fusion_lon": 0.0, "name": "42c26fa7e1a9dbb4579107949c1dcb84", "lon": -77.02434266666667}, {"is_reserved": 0, "lat": 38.90250866666667, "is_disabled": 0, "type": "electric_scooter", "fusion_lat": 0.0, "bike_id": "3e790413848738225cb89fbf20fcbf28", "rental_uris": {"ios": "https://dc.lft.to/lastmile_qr_scan", "android": "https://dc.lft.to/lastmile_qr_scan"}, "fusion_lon": 0.0, "name": "3e790413848738225cb89fbf20fcbf28", "lon": -77.054222}, {"is_reserved": 0, "lat": 38.887398, "is_disabled": 0, "type": "electric_scooter", "fusion_lat": 0.0, "bike_id": "a855a179e8e638063c232731026119af", "rental_uris": {"ios": "https://dc.lft.to/lastmile_qr_scan", "android": "https://dc.lft.to/lastmile_qr_scan"}, "fusion_lon": 0.0, "name": "a855a179e8e638063c232731026119af", "lon": -76.99847766666667}, {"is_reserved": 0, "lat": 38.84292816666667, "is_disabled": 0, "type": "electric_scooter", "fusion_lat": 0.0, "bike_id": "167b8d8d65004ce162003af37f164b81", "rental_uris": {"ios": "https://dc.lft.to/lastmile_qr_scan", "android": "https://dc.lft.to/lastmile_qr_scan"}, "fusion_lon": 0.0, "name": "167b8d8d65004ce162003af37f164b81", "lon": -76.99946766666666}, {"is_reserved": 0, "lat": 38.89718416666667, "is_disabled": 0, "type": "electric_scooter", "fusion_lat": 0.0, "bike_id": "7e018b06b058bc49551f2c98ac43aead", "rental_uris": {"ios": "https://dc.lft.to/lastmile_qr_scan", "android": "https://dc.lft.to/lastmile_qr_scan"}, "fusion_lon": 0.0, "name": "7e018b06b058bc49551f2c98ac43aead", "lon": -77.02392966666666}, {"is_reserved": 0, "lat": 38.887367833333336, "is_disabled": 0, "type": "electric_scooter", "fusion_lat": 0.0, "bike_id": "5cd56161b7889cf57ac6e78535cc1252", "rental_uris": {"ios": "https://dc.lft.to/lastmile_qr_scan", "android": "https://dc.lft.to/lastmile_qr_scan"}, "fusion_lon": 0.0, "name": "5cd56161b7889cf57ac6e78535cc1252", "lon": -77.01537366666666}, {"is_reserved": 0, "lat": 38.88362516666667, "is_disabled": 0, "type": "electric_scooter", "fusion_lat": 0.0, "bike_id": "53bb1e4349059a0d99939d7b28ec45d2", "rental_uris": {"ios": "https://dc.lft.to/lastmile_qr_scan", "android": "https://dc.lft.to/lastmile_qr_scan"}, "fusion_lon": 0.0, "name": "53bb1e4349059a0d99939d7b28ec45d2", "lon": -77.0261765}, {"is_reserved": 0, "lat": 38.913987, "is_disabled": 0, "type": "electric_scooter", "fusion_lat": 0.0, "bike_id": "86a5dc6c06bde50728298f73b28dca7f", "rental_uris": {"ios": "https://dc.lft.to/lastmile_qr_scan", "android": "https://dc.lft.to/lastmile_qr_scan"}, "fusion_lon": 0.0, "name": "86a5dc6c06bde50728298f73b28dca7f", "lon": -77.03271266666667}, {"is_reserved": 0, "lat": 38.8851495, "is_disabled": 0, "type": "electric_scooter", "fusion_lat": 0.0, "bike_id": "bbc756d2a8c57b1534d2aa70ce22fe57", "rental_uris": {"ios": "https://dc.lft.to/lastmile_qr_scan", "android": "https://dc.lft.to/lastmile_qr_scan"}, "fusion_lon": 0.0, "name": "bbc756d2a8c57b1534d2aa70ce22fe57", "lon": -77.00245683333333}, {"is_reserved": 0, "lat": 38.8551625, "is_disabled": 0, "type": "electric_bike", "fusion_lat": 0.0, "bike_id": "0c016e9ce6cdfff41a07a6a38cac4632", "rental_uris": {"ios": "https://dc.lft.to/lastmile_qr_scan", "android": "https://dc.lft.to/lastmile_qr_scan"}, "fusion_lon": 0.0, "name": "0c016e9ce6cdfff41a07a6a38cac4632", "lon": -76.984285}, {"is_reserved": 0, "lat": 38.90266, "is_disabled": 0, "type": "electric_scooter", "fusion_lat": 0.0, "bike_id": "2352eb332d85484379c1fd5867cfa839", "rental_uris": {"ios": "https://dc.lft.to/lastmile_qr_scan", "android": "https://dc.lft.to/lastmile_qr_scan"}, "fusion_lon": 0.0, "name": "2352eb332d85484379c1fd5867cfa839", "lon": -77.03964983333333}, {"is_reserved": 0, "lat": 38.916317666666664, "is_disabled": 0, "type": "electric_scooter", "fusion_lat": 0.0, "bike_id": "4133a4a9a403b835c05769ebc60578df", "rental_uris": {"ios": "https://dc.lft.to/lastmile_qr_scan", "android": "https://dc.lft.to/lastmile_qr_scan"}, "fusion_lon": 0.0, "name": "4133a4a9a403b835c05769ebc60578df", "lon": -77.02563283333333}, {"is_reserved": 0, "lat": 38.857699, "is_disabled": 0, "type": "electric_bike", "fusion_lat": 0.0, "bike_id": "229843af17f37742b084b70f2bf648f2", "rental_uris": {"ios": "https://dc.lft.to/lastmile_qr_scan", "android": "https://dc.lft.to/lastmile_qr_scan"}, "fusion_lon": 0.0, "name": "229843af17f37742b084b70f2bf648f2", "lon": -76.98769216666666}, {"is_reserved": 0, "lat": 39.06289016666667, "is_disabled": 0, "type": "electric_bike", "fusion_lat": 0.0, "bike_id": "d530e8db52f4e57fd5d70abe3ee229b0", "rental_uris": {"ios": "https://dc.lft.to/lastmile_qr_scan", "android": "https://dc.lft.to/lastmile_qr_scan"}, "fusion_lon": 0.0, "name": "d530e8db52f4e57fd5d70abe3ee229b0", "lon": -77.04981483333333}, {"is_reserved": 0, "lat": 38.892233833333336, "is_disabled": 0, "type": "electric_scooter", "fusion_lat": 0.0, "bike_id": "ac46313db3cdea6c891cf5be57b35f5b", "rental_uris": {"ios": "https://dc.lft.to/lastmile_qr_scan", "android": "https://dc.lft.to/lastmile_qr_scan"}, "fusion_lon": 0.0, "name": "ac46313db3cdea6c891cf5be57b35f5b", "lon": -77.04330566666667}, {"is_reserved": 0, "lat": 38.95630666666667, "is_disabled": 0, "type": "electric_scooter", "fusion_lat": 0.0, "bike_id": "80d21f2cd31218b38f43636d487ce556", "rental_uris": {"ios": "https://dc.lft.to/lastmile_qr_scan", "android": "https://dc.lft.to/lastmile_qr_scan"}, "fusion_lon": 0.0, "name": "80d21f2cd31218b38f43636d487ce556", "lon": -77.03289916666667}, {"is_reserved": 0, "lat": 38.92491283333333, "is_disabled": 0, "type": "electric_scooter", "fusion_lat": 0.0, "bike_id": "0b99b1375d276e5895ab1a83b19ba959", "rental_uris": {"ios": "https://dc.lft.to/lastmile_qr_scan", "android": "https://dc.lft.to/lastmile_qr_scan"}, "fusion_lon": 0.0, "name": "0b99b1375d276e5895ab1a83b19ba959", "lon": -77.05764933333333}, {"is_reserved": 0, "lat": 38.895273333333336, "is_disabled": 0, "type": "electric_scooter", "fusion_lat": 0.0, "bike_id": "3f01022cfa81921e984d3232bfb2f1b7", "rental_uris": {"ios": "https://dc.lft.to/lastmile_qr_scan", "android": "https://dc.lft.to/lastmile_qr_scan"}, "fusion_lon": 0.0, "name": "3f01022cfa81921e984d3232bfb2f1b7", "lon": -77.03212933333333}, {"is_reserved": 0, "lat": 38.924854333333336, "is_disabled": 0, "type": "electric_scooter", "fusion_lat": 0.0, "bike_id": "2192f8f035684be90f9701dd0304e81c", "rental_uris": {"ios": "https://dc.lft.to/lastmile_qr_scan", "android": "https://dc.lft.to/lastmile_qr_scan"}, "fusion_lon": 0.0, "name": "2192f8f035684be90f9701dd0304e81c", "lon": -77.0089235}, {"is_reserved": 0, "lat": 38.876006, "is_disabled": 0, "type": "electric_scooter", "fusion_lat": 0.0, "bike_id": "d4b540bd9d9a3e7847b8782ff4177627", "rental_uris": {"ios": "https://dc.lft.to/lastmile_qr_scan", "android": "https://dc.lft.to/lastmile_qr_scan"}, "fusion_lon": 0.0, "name": "d4b540bd9d9a3e7847b8782ff4177627", "lon": -77.0093345}, {"is_reserved": 0, "lat": 38.908088, "is_disabled": 0, "type": "electric_scooter", "fusion_lat": 0.0, "bike_id": "b3a56247b2669c07a4a7d0d2bea193b4", "rental_uris": {"ios": "https://dc.lft.to/lastmile_qr_scan", "android": "https://dc.lft.to/lastmile_qr_scan"}, "fusion_lon": 0.0, "name": "b3a56247b2669c07a4a7d0d2bea193b4", "lon": -77.05478816666667}, {"is_reserved": 0, "lat": 38.89616266666667, "is_disabled": 0, "type": "electric_scooter", "fusion_lat": 0.0, "bike_id": "7c56d781bf86a4309493450b685fa4b0", "rental_uris": {"ios": "https://dc.lft.to/lastmile_qr_scan", "android": "https://dc.lft.to/lastmile_qr_scan"}, "fusion_lon": 0.0, "name": "7c56d781bf86a4309493450b685fa4b0", "lon": -77.03019216666667}, {"is_reserved": 0, "lat": 38.928949333333335, "is_disabled": 0, "type": "electric_scooter", "fusion_lat": 0.0, "bike_id": "8f861314ebf7b63b53734c63a02bbd83", "rental_uris": {"ios": "https://dc.lft.to/lastmile_qr_scan", "android": "https://dc.lft.to/lastmile_qr_scan"}, "fusion_lon": 0.0, "name": "8f861314ebf7b63b53734c63a02bbd83", "lon": -77.03312883333334}, {"is_reserved": 0, "lat": 38.91974733333333, "is_disabled": 0, "type": "electric_scooter", "fusion_lat": 0.0, "bike_id": "2f3a8f42a511cf0f28e2d133eaf256d8", "rental_uris": {"ios": "https://dc.lft.to/lastmile_qr_scan", "android": "https://dc.lft.to/lastmile_qr_scan"}, "fusion_lon": 0.0, "name": "2f3a8f42a511cf0f28e2d133eaf256d8", "lon": -77.02506016666666}, {"is_reserved": 0, "lat": 38.832139833333336, "is_disabled": 0, "type": "electric_bike", "fusion_lat": 0.0, "bike_id": "f281b34cd853c9017c64a1b0ca1806cd", "rental_uris": {"ios": "https://dc.lft.to/lastmile_qr_scan", "android": "https://dc.lft.to/lastmile_qr_scan"}, "fusion_lon": 0.0, "name": "f281b34cd853c9017c64a1b0ca1806cd", "lon": -77.04987866666667}, {"is_reserved": 0, "lat": 38.9325535, "is_disabled": 0, "type": "electric_scooter", "fusion_lat": 0.0, "bike_id": "2a88567c65aeccaf510e3d17888d1033", "rental_uris": {"ios": "https://dc.lft.to/lastmile_qr_scan", "android": "https://dc.lft.to/lastmile_qr_scan"}, "fusion_lon": 0.0, "name": "2a88567c65aeccaf510e3d17888d1033", "lon": -77.03862516666666}, {"is_reserved": 0, "lat": 38.89221766666667, "is_disabled": 0, "type": "electric_scooter", "fusion_lat": 0.0, "bike_id": "687183ec39b064cc42c293c21f8057e1", "rental_uris": {"ios": "https://dc.lft.to/lastmile_qr_scan", "android": "https://dc.lft.to/lastmile_qr_scan"}, "fusion_lon": 0.0, "name": "687183ec39b064cc42c293c21f8057e1", "lon": -77.01545466666667}, {"is_reserved": 0, "lat": 38.86252666666667, "is_disabled": 0, "type": "electric_scooter", "fusion_lat": 0.0, "bike_id": "cb5af4bd88ee24520bcd52d09aa05425", "rental_uris": {"ios": "https://dc.lft.to/lastmile_qr_scan", "android": "https://dc.lft.to/lastmile_qr_scan"}, "fusion_lon": 0.0, "name": "cb5af4bd88ee24520bcd52d09aa05425", "lon": -76.99517183333333}, {"is_reserved": 0, "lat": 38.914956, "is_disabled": 0, "type": "electric_scooter", "fusion_lat": 0.0, "bike_id": "c427492912e704d4127099faae8b740c", "rental_uris": {"ios": "https://dc.lft.to/lastmile_qr_scan", "android": "https://dc.lft.to/lastmile_qr_scan"}, "fusion_lon": 0.0, "name": "c427492912e704d4127099faae8b740c", "lon": -77.018621}, {"is_reserved": 0, "lat": 38.915450666666665, "is_disabled": 0, "type": "electric_scooter", "fusion_lat": 0.0, "bike_id": "64152ee0b763d2fc19e7c3fd7c7dae0f", "rental_uris": {"ios": "https://dc.lft.to/lastmile_qr_scan", "android": "https://dc.lft.to/lastmile_qr_scan"}, "fusion_lon": 0.0, "name": "64152ee0b763d2fc19e7c3fd7c7dae0f", "lon": -77.034674}, {"is_reserved": 0, "lat": 38.92028166666667, "is_disabled": 0, "type": "electric_scooter", "fusion_lat": 0.0, "bike_id": "e14e719d304c7d7919388d8bb5f060c1", "rental_uris": {"ios": "https://dc.lft.to/lastmile_qr_scan", "android": "https://dc.lft.to/lastmile_qr_scan"}, "fusion_lon": 0.0, "name": "e14e719d304c7d7919388d8bb5f060c1", "lon": -77.00097266666667}, {"is_reserved": 0, "lat": 38.915199, "is_disabled": 0, "type": "electric_scooter", "fusion_lat": 0.0, "bike_id": "212230c595a1da363974829a0a826756", "rental_uris": {"ios": "https://dc.lft.to/lastmile_qr_scan", "android": "https://dc.lft.to/lastmile_qr_scan"}, "fusion_lon": 0.0, "name": "212230c595a1da363974829a0a826756", "lon": -77.01844016666666}, {"is_reserved": 0, "lat": 38.9287465, "is_disabled": 0, "type": "electric_scooter", "fusion_lat": 0.0, "bike_id": "7e6b686a380551ecc16d3b89ac437b02", "rental_uris": {"ios": "https://dc.lft.to/lastmile_qr_scan", "android": "https://dc.lft.to/lastmile_qr_scan"}, "fusion_lon": 0.0, "name": "7e6b686a380551ecc16d3b89ac437b02", "lon": -77.03176566666667}, {"is_reserved": 0, "lat": 38.892230166666664, "is_disabled": 0, "type": "electric_scooter", "fusion_lat": 0.0, "bike_id": "0bf1905d46c3d10550cb7a87992aea31", "rental_uris": {"ios": "https://dc.lft.to/lastmile_qr_scan", "android": "https://dc.lft.to/lastmile_qr_scan"}, "fusion_lon": 0.0, "name": "0bf1905d46c3d10550cb7a87992aea31", "lon": -77.0480505}, {"is_reserved": 0, "lat": 38.90899616666667, "is_disabled": 0, "type": "electric_scooter", "fusion_lat": 0.0, "bike_id": "9325ed66dfe0c6e6a6b777bdfe969130", "rental_uris": {"ios": "https://dc.lft.to/lastmile_qr_scan", "android": "https://dc.lft.to/lastmile_qr_scan"}, "fusion_lon": 0.0, "name": "9325ed66dfe0c6e6a6b777bdfe969130", "lon": -76.99789966666667}, {"is_reserved": 0, "lat": 38.929839333333334, "is_disabled": 0, "type": "electric_scooter", "fusion_lat": 0.0, "bike_id": "97cc5d016d642a958883b6bbb3162e9f", "rental_uris": {"ios": "https://dc.lft.to/lastmile_qr_scan", "android": "https://dc.lft.to/lastmile_qr_scan"}, "fusion_lon": 0.0, "name": "97cc5d016d642a958883b6bbb3162e9f", "lon": -77.03236833333334}, {"is_reserved": 0, "lat": 38.88671766666667, "is_disabled": 0, "type": "electric_scooter", "fusion_lat": 0.0, "bike_id": "ce5856bf408da0b8ed5a195d63c3038d", "rental_uris": {"ios": "https://dc.lft.to/lastmile_qr_scan", "android": "https://dc.lft.to/lastmile_qr_scan"}, "fusion_lon": 0.0, "name": "ce5856bf408da0b8ed5a195d63c3038d", "lon": -76.93616216666666}, {"is_reserved": 0, "lat": 38.915671, "is_disabled": 0, "type": "electric_scooter", "fusion_lat": 0.0, "bike_id": "a40184f7ddc5fef49808ca90a2dc9fd4", "rental_uris": {"ios": "https://dc.lft.to/lastmile_qr_scan", "android": "https://dc.lft.to/lastmile_qr_scan"}, "fusion_lon": 0.0, "name": "a40184f7ddc5fef49808ca90a2dc9fd4", "lon": -77.025129}, {"is_reserved": 0, "lat": 38.94955566666667, "is_disabled": 0, "type": "electric_scooter", "fusion_lat": 0.0, "bike_id": "6ef988d2b4a5263746f4f22632aff47c", "rental_uris": {"ios": "https://dc.lft.to/lastmile_qr_scan", "android": "https://dc.lft.to/lastmile_qr_scan"}, "fusion_lon": 0.0, "name": "6ef988d2b4a5263746f4f22632aff47c", "lon": -77.02725133333334}, {"is_reserved": 0, "lat": 38.92874366666667, "is_disabled": 0, "type": "electric_scooter", "fusion_lat": 0.0, "bike_id": "404b440dd657bb086e8d5cbb353688c8", "rental_uris": {"ios": "https://dc.lft.to/lastmile_qr_scan", "android": "https://dc.lft.to/lastmile_qr_scan"}, "fusion_lon": 0.0, "name": "404b440dd657bb086e8d5cbb353688c8", "lon": -77.0296375}, {"is_reserved": 0, "lat": 38.912175, "is_disabled": 0, "type": "electric_scooter", "fusion_lat": 0.0, "bike_id": "fe6606d346f0debd33b503c935dbb526", "rental_uris": {"ios": "https://dc.lft.to/lastmile_qr_scan", "android": "https://dc.lft.to/lastmile_qr_scan"}, "fusion_lon": 0.0, "name": "fe6606d346f0debd33b503c935dbb526", "lon": -77.03198766666667}, {"is_reserved": 0, "lat": 38.89736633333333, "is_disabled": 0, "type": "electric_scooter", "fusion_lat": 0.0, "bike_id": "50898a55485ec77cda4451a1ffed9314", "rental_uris": {"ios": "https://dc.lft.to/lastmile_qr_scan", "android": "https://dc.lft.to/lastmile_qr_scan"}, "fusion_lon": 0.0, "name": "50898a55485ec77cda4451a1ffed9314", "lon": -77.0270315}, {"is_reserved": 0, "lat": 38.930229, "is_disabled": 0, "type": "electric_scooter", "fusion_lat": 0.0, "bike_id": "5829194732b4be34c8f0a19044d07439", "rental_uris": {"ios": "https://dc.lft.to/lastmile_qr_scan", "android": "https://dc.lft.to/lastmile_qr_scan"}, "fusion_lon": 0.0, "name": "5829194732b4be34c8f0a19044d07439", "lon": -77.02017316666667}, {"is_reserved": 0, "lat": 38.925095166666665, "is_disabled": 0, "type": "electric_scooter", "fusion_lat": 0.0, "bike_id": "0ae13aeab13d0f8dc449cfa92482a444", "rental_uris": {"ios": "https://dc.lft.to/lastmile_qr_scan", "android": "https://dc.lft.to/lastmile_qr_scan"}, "fusion_lon": 0.0, "name": "0ae13aeab13d0f8dc449cfa92482a444", "lon": -77.03815433333334}, {"is_reserved": 0, "lat": 38.906641, "is_disabled": 0, "type": "electric_scooter", "fusion_lat": 0.0, "bike_id": "88167041fcad847384ae89f870343cde", "rental_uris": {"ios": "https://dc.lft.to/lastmile_qr_scan", "android": "https://dc.lft.to/lastmile_qr_scan"}, "fusion_lon": 0.0, "name": "88167041fcad847384ae89f870343cde", "lon": -77.02687183333333}, {"is_reserved": 0, "lat": 38.93826, "is_disabled": 0, "type": "electric_scooter", "fusion_lat": 0.0, "bike_id": "a8f3daa27025fc013b4e75c95102162c", "rental_uris": {"ios": "https://dc.lft.to/lastmile_qr_scan", "android": "https://dc.lft.to/lastmile_qr_scan"}, "fusion_lon": 0.0, "name": "a8f3daa27025fc013b4e75c95102162c", "lon": -76.98617666666667}, {"is_reserved": 0, "lat": 38.90362583333334, "is_disabled": 0, "type": "electric_scooter", "fusion_lat": 0.0, "bike_id": "0097ddbd5043e88d37a42b77ca152a87", "rental_uris": {"ios": "https://dc.lft.to/lastmile_qr_scan", "android": "https://dc.lft.to/lastmile_qr_scan"}, "fusion_lon": 0.0, "name": "0097ddbd5043e88d37a42b77ca152a87", "lon": -76.996132}, {"is_reserved": 0, "lat": 38.91478566666667, "is_disabled": 0, "type": "electric_scooter", "fusion_lat": 0.0, "bike_id": "f13bf866cbc3fb1b04d73ea5446117ad", "rental_uris": {"ios": "https://dc.lft.to/lastmile_qr_scan", "android": "https://dc.lft.to/lastmile_qr_scan"}, "fusion_lon": 0.0, "name": "f13bf866cbc3fb1b04d73ea5446117ad", "lon": -77.03217816666667}, {"is_reserved": 0, "lat": 38.927216, "is_disabled": 0, "type": "electric_scooter", "fusion_lat": 0.0, "bike_id": "4e6cb37369fec71bef99587c84a705ac", "rental_uris": {"ios": "https://dc.lft.to/lastmile_qr_scan", "android": "https://dc.lft.to/lastmile_qr_scan"}, "fusion_lon": 0.0, "name": "4e6cb37369fec71bef99587c84a705ac", "lon": -77.0366925}, {"is_reserved": 0, "lat": 38.9141065, "is_disabled": 0, "type": "electric_scooter", "fusion_lat": 0.0, "bike_id": "97999c48a7e4bf1f7ddaf25a31ca28ad", "rental_uris": {"ios": "https://dc.lft.to/lastmile_qr_scan", "android": "https://dc.lft.to/lastmile_qr_scan"}, "fusion_lon": 0.0, "name": "97999c48a7e4bf1f7ddaf25a31ca28ad", "lon": -77.04396116666666}, {"is_reserved": 0, "lat": 38.8936005, "is_disabled": 0, "type": "electric_scooter", "fusion_lat": 0.0, "bike_id": "189e67ce96ab1407585827e349849bcd", "rental_uris": {"ios": "https://dc.lft.to/lastmile_qr_scan", "android": "https://dc.lft.to/lastmile_qr_scan"}, "fusion_lon": 0.0, "name": "189e67ce96ab1407585827e349849bcd", "lon": -77.0478375}, {"is_reserved": 0, "lat": 38.89546, "is_disabled": 0, "type": "electric_scooter", "fusion_lat": 0.0, "bike_id": "17b8f6239521f3010363a861acbdae7a", "rental_uris": {"ios": "https://dc.lft.to/lastmile_qr_scan", "android": "https://dc.lft.to/lastmile_qr_scan"}, "fusion_lon": 0.0, "name": "17b8f6239521f3010363a861acbdae7a", "lon": -77.01998283333333}, {"is_reserved": 0, "lat": 38.9084135, "is_disabled": 0, "type": "electric_scooter", "fusion_lat": 0.0, "bike_id": "940cbeafe04f0be083e785c7192ee261", "rental_uris": {"ios": "https://dc.lft.to/lastmile_qr_scan", "android": "https://dc.lft.to/lastmile_qr_scan"}, "fusion_lon": 0.0, "name": "940cbeafe04f0be083e785c7192ee261", "lon": -77.04258083333333}, {"is_reserved": 0, "lat": 38.89333933333333, "is_disabled": 0, "type": "electric_scooter", "fusion_lat": 0.0, "bike_id": "d9996d32cd35433396f248963de8eb0d", "rental_uris": {"ios": "https://dc.lft.to/lastmile_qr_scan", "android": "https://dc.lft.to/lastmile_qr_scan"}, "fusion_lon": 0.0, "name": "d9996d32cd35433396f248963de8eb0d", "lon": -76.93128333333334}, {"is_reserved": 0, "lat": 38.95354183333333, "is_disabled": 0, "type": "electric_bike", "fusion_lat": 0.0, "bike_id": "87d2a9fdd009601d1ef97c5ae415419c", "rental_uris": {"ios": "https://dc.lft.to/lastmile_qr_scan", "android": "https://dc.lft.to/lastmile_qr_scan"}, "fusion_lon": 0.0, "name": "87d2a9fdd009601d1ef97c5ae415419c", "lon": -76.980943}, {"is_reserved": 0, "lat": 38.892275, "is_disabled": 0, "type": "electric_scooter", "fusion_lat": 0.0, "bike_id": "c8a688ef49d989c54bf1dac30e5d88c6", "rental_uris": {"ios": "https://dc.lft.to/lastmile_qr_scan", "android": "https://dc.lft.to/lastmile_qr_scan"}, "fusion_lon": 0.0, "name": "c8a688ef49d989c54bf1dac30e5d88c6", "lon": -77.05003016666667}, {"is_reserved": 0, "lat": 38.94287816666667, "is_disabled": 0, "type": "electric_scooter", "fusion_lat": 0.0, "bike_id": "4b653b3ab095676ebb5ad5aeb1433721", "rental_uris": {"ios": "https://dc.lft.to/lastmile_qr_scan", "android": "https://dc.lft.to/lastmile_qr_scan"}, "fusion_lon": 0.0, "name": "4b653b3ab095676ebb5ad5aeb1433721", "lon": -77.02178133333334}, {"is_reserved": 0, "lat": 38.854429833333334, "is_disabled": 0, "type": "electric_scooter", "fusion_lat": 0.0, "bike_id": "234d0265df2c62b013e1cce9d95f1878", "rental_uris": {"ios": "https://dc.lft.to/lastmile_qr_scan", "android": "https://dc.lft.to/lastmile_qr_scan"}, "fusion_lon": 0.0, "name": "234d0265df2c62b013e1cce9d95f1878", "lon": -76.9858145}, {"is_reserved": 0, "lat": 38.8762625, "is_disabled": 0, "type": "electric_scooter", "fusion_lat": 0.0, "bike_id": "727bbd76f95c440d0ba43ddc49305011", "rental_uris": {"ios": "https://dc.lft.to/lastmile_qr_scan", "android": "https://dc.lft.to/lastmile_qr_scan"}, "fusion_lon": 0.0, "name": "727bbd76f95c440d0ba43ddc49305011", "lon": -76.96530166666666}, {"is_reserved": 0, "lat": 38.954195666666664, "is_disabled": 0, "type": "electric_scooter", "fusion_lat": 0.0, "bike_id": "2b78e1950c57af3c7a4029a2b7d97063", "rental_uris": {"ios": "https://dc.lft.to/lastmile_qr_scan", "android": "https://dc.lft.to/lastmile_qr_scan"}, "fusion_lon": 0.0, "name": "2b78e1950c57af3c7a4029a2b7d97063", "lon": -77.02772516666667}, {"is_reserved": 0, "lat": 38.916490333333336, "is_disabled": 0, "type": "electric_scooter", "fusion_lat": 0.0, "bike_id": "76ff5d8d2b81a9ed836eb524fef481a9", "rental_uris": {"ios": "https://dc.lft.to/lastmile_qr_scan", "android": "https://dc.lft.to/lastmile_qr_scan"}, "fusion_lon": 0.0, "name": "76ff5d8d2b81a9ed836eb524fef481a9", "lon": -77.02182566666667}, {"is_reserved": 0, "lat": 38.96226633333333, "is_disabled": 0, "type": "electric_bike", "fusion_lat": 0.0, "bike_id": "e27de60b3696461652a8922d9c63cc30", "rental_uris": {"ios": "https://dc.lft.to/lastmile_qr_scan", "android": "https://dc.lft.to/lastmile_qr_scan"}, "fusion_lon": 0.0, "name": "e27de60b3696461652a8922d9c63cc30", "lon": -77.02636433333333}, {"is_reserved": 0, "lat": 38.94483366666667, "is_disabled": 0, "type": "electric_scooter", "fusion_lat": 0.0, "bike_id": "6b99174733b5a3d055542ec75539f767", "rental_uris": {"ios": "https://dc.lft.to/lastmile_qr_scan", "android": "https://dc.lft.to/lastmile_qr_scan"}, "fusion_lon": 0.0, "name": "6b99174733b5a3d055542ec75539f767", "lon": -77.064051}, {"is_reserved": 0, "lat": 38.919802, "is_disabled": 0, "type": "electric_scooter", "fusion_lat": 0.0, "bike_id": "502ba0a86a1b0929794f37c8d5b9272c", "rental_uris": {"ios": "https://dc.lft.to/lastmile_qr_scan", "android": "https://dc.lft.to/lastmile_qr_scan"}, "fusion_lon": 0.0, "name": "502ba0a86a1b0929794f37c8d5b9272c", "lon": -77.0218695}, {"is_reserved": 0, "lat": 38.898305, "is_disabled": 0, "type": "electric_scooter", "fusion_lat": 0.0, "bike_id": "c7830b61b402e4eb8a0962c7ffc9ecb3", "rental_uris": {"ios": "https://dc.lft.to/lastmile_qr_scan", "android": "https://dc.lft.to/lastmile_qr_scan"}, "fusion_lon": 0.0, "name": "c7830b61b402e4eb8a0962c7ffc9ecb3", "lon": -77.02967916666667}, {"is_reserved": 0, "lat": 38.887360666666666, "is_disabled": 0, "type": "electric_scooter", "fusion_lat": 0.0, "bike_id": "630f9893b4162257a4e4e5a09b27fd28", "rental_uris": {"ios": "https://dc.lft.to/lastmile_qr_scan", "android": "https://dc.lft.to/lastmile_qr_scan"}, "fusion_lon": 0.0, "name": "630f9893b4162257a4e4e5a09b27fd28", "lon": -77.01535933333334}, {"is_reserved": 0, "lat": 38.934075, "is_disabled": 0, "type": "electric_scooter", "fusion_lat": 0.0, "bike_id": "feeb64b9af8fc5e86a2445d5b6b4d289", "rental_uris": {"ios": "https://dc.lft.to/lastmile_qr_scan", "android": "https://dc.lft.to/lastmile_qr_scan"}, "fusion_lon": 0.0, "name": "feeb64b9af8fc5e86a2445d5b6b4d289", "lon": -77.04552533333333}, {"is_reserved": 0, "lat": 38.962042333333336, "is_disabled": 0, "type": "electric_bike", "fusion_lat": 0.0, "bike_id": "1b0eb97efc70959a19a91ab98d6566b2", "rental_uris": {"ios": "https://dc.lft.to/lastmile_qr_scan", "android": "https://dc.lft.to/lastmile_qr_scan"}, "fusion_lon": 0.0, "name": "1b0eb97efc70959a19a91ab98d6566b2", "lon": -77.03515966666667}, {"is_reserved": 0, "lat": 38.917377, "is_disabled": 0, "type": "electric_scooter", "fusion_lat": 0.0, "bike_id": "8ad01894b43c9f9e26e2d42c7a2e0e46", "rental_uris": {"ios": "https://dc.lft.to/lastmile_qr_scan", "android": "https://dc.lft.to/lastmile_qr_scan"}, "fusion_lon": 0.0, "name": "8ad01894b43c9f9e26e2d42c7a2e0e46", "lon": -77.023806}, {"is_reserved": 0, "lat": 38.9140555, "is_disabled": 0, "type": "electric_scooter", "fusion_lat": 0.0, "bike_id": "5ed6cb6e892328019948ed2a099dc462", "rental_uris": {"ios": "https://dc.lft.to/lastmile_qr_scan", "android": "https://dc.lft.to/lastmile_qr_scan"}, "fusion_lon": 0.0, "name": "5ed6cb6e892328019948ed2a099dc462", "lon": -77.045687}, {"is_reserved": 0, "lat": 38.905615166666664, "is_disabled": 0, "type": "electric_scooter", "fusion_lat": 0.0, "bike_id": "dc5484135de625afe7902b676a3b59a6", "rental_uris": {"ios": "https://dc.lft.to/lastmile_qr_scan", "android": "https://dc.lft.to/lastmile_qr_scan"}, "fusion_lon": 0.0, "name": "dc5484135de625afe7902b676a3b59a6", "lon": -77.04187966666667}, {"is_reserved": 0, "lat": 38.93607, "is_disabled": 0, "type": "electric_scooter", "fusion_lat": 0.0, "bike_id": "13a29e9882020ae7841508c80959778f", "rental_uris": {"ios": "https://dc.lft.to/lastmile_qr_scan", "android": "https://dc.lft.to/lastmile_qr_scan"}, "fusion_lon": 0.0, "name": "13a29e9882020ae7841508c80959778f", "lon": -77.058679}, {"is_reserved": 0, "lat": 38.89831933333333, "is_disabled": 0, "type": "electric_scooter", "fusion_lat": 0.0, "bike_id": "2cbb37c17236388d38d1facfe5c2bcd5", "rental_uris": {"ios": "https://dc.lft.to/lastmile_qr_scan", "android": "https://dc.lft.to/lastmile_qr_scan"}, "fusion_lon": 0.0, "name": "2cbb37c17236388d38d1facfe5c2bcd5", "lon": -77.02686966666667}, {"is_reserved": 0, "lat": 38.91401183333333, "is_disabled": 0, "type": "electric_scooter", "fusion_lat": 0.0, "bike_id": "61115f9f0404f523f04564b5dd43f79c", "rental_uris": {"ios": "https://dc.lft.to/lastmile_qr_scan", "android": "https://dc.lft.to/lastmile_qr_scan"}, "fusion_lon": 0.0, "name": "61115f9f0404f523f04564b5dd43f79c", "lon": -77.01298116666666}, {"is_reserved": 0, "lat": 38.91193583333333, "is_disabled": 0, "type": "electric_scooter", "fusion_lat": 0.0, "bike_id": "6a0872c525d53032604d9f3d29baecdd", "rental_uris": {"ios": "https://dc.lft.to/lastmile_qr_scan", "android": "https://dc.lft.to/lastmile_qr_scan"}, "fusion_lon": 0.0, "name": "6a0872c525d53032604d9f3d29baecdd", "lon": -77.00714166666667}, {"is_reserved": 0, "lat": 38.91814566666667, "is_disabled": 0, "type": "electric_scooter", "fusion_lat": 0.0, "bike_id": "97fe60352fed3ec4d563fc74151299d0", "rental_uris": {"ios": "https://dc.lft.to/lastmile_qr_scan", "android": "https://dc.lft.to/lastmile_qr_scan"}, "fusion_lon": 0.0, "name": "97fe60352fed3ec4d563fc74151299d0", "lon": -77.03867083333333}, {"is_reserved": 0, "lat": 38.92346516666667, "is_disabled": 0, "type": "electric_scooter", "fusion_lat": 0.0, "bike_id": "0289d40d992eda3d1ad761a4c4cb4868", "rental_uris": {"ios": "https://dc.lft.to/lastmile_qr_scan", "android": "https://dc.lft.to/lastmile_qr_scan"}, "fusion_lon": 0.0, "name": "0289d40d992eda3d1ad761a4c4cb4868", "lon": -77.05100983333334}, {"is_reserved": 0, "lat": 38.91054616666667, "is_disabled": 0, "type": "electric_scooter", "fusion_lat": 0.0, "bike_id": "83863356794098fd656ee36657685149", "rental_uris": {"ios": "https://dc.lft.to/lastmile_qr_scan", "android": "https://dc.lft.to/lastmile_qr_scan"}, "fusion_lon": 0.0, "name": "83863356794098fd656ee36657685149", "lon": -77.021833}, {"is_reserved": 0, "lat": 38.90056666666667, "is_disabled": 0, "type": "electric_scooter", "fusion_lat": 0.0, "bike_id": "6d2feae9d86c3123a6f47a003fd6501a", "rental_uris": {"ios": "https://dc.lft.to/lastmile_qr_scan", "android": "https://dc.lft.to/lastmile_qr_scan"}, "fusion_lon": 0.0, "name": "6d2feae9d86c3123a6f47a003fd6501a", "lon": -77.03499016666666}, {"is_reserved": 0, "lat": 38.923658333333336, "is_disabled": 0, "type": "electric_scooter", "fusion_lat": 0.0, "bike_id": "f2889792f47da9a14fe83819ee88616c", "rental_uris": {"ios": "https://dc.lft.to/lastmile_qr_scan", "android": "https://dc.lft.to/lastmile_qr_scan"}, "fusion_lon": 0.0, "name": "f2889792f47da9a14fe83819ee88616c", "lon": -77.0181875}, {"is_reserved": 0, "lat": 38.900074000000004, "is_disabled": 0, "type": "electric_scooter", "fusion_lat": 0.0, "bike_id": "1c14d6d3174123a35637604dd7b240f7", "rental_uris": {"ios": "https://dc.lft.to/lastmile_qr_scan", "android": "https://dc.lft.to/lastmile_qr_scan"}, "fusion_lon": 0.0, "name": "1c14d6d3174123a35637604dd7b240f7", "lon": -77.006837}, {"is_reserved": 0, "lat": 38.916861, "is_disabled": 0, "type": "electric_scooter", "fusion_lat": 0.0, "bike_id": "d4760f99077a3d14ea63e3d171637804", "rental_uris": {"ios": "https://dc.lft.to/lastmile_qr_scan", "android": "https://dc.lft.to/lastmile_qr_scan"}, "fusion_lon": 0.0, "name": "d4760f99077a3d14ea63e3d171637804", "lon": -77.028189}, {"is_reserved": 0, "lat": 38.90445733333333, "is_disabled": 0, "type": "electric_scooter", "fusion_lat": 0.0, "bike_id": "98fe78f77818b2c11b262da0517ea33a", "rental_uris": {"ios": "https://dc.lft.to/lastmile_qr_scan", "android": "https://dc.lft.to/lastmile_qr_scan"}, "fusion_lon": 0.0, "name": "98fe78f77818b2c11b262da0517ea33a", "lon": -77.0416905}, {"is_reserved": 0, "lat": 38.953883, "is_disabled": 0, "type": "electric_scooter", "fusion_lat": 0.0, "bike_id": "d1cf02cc2e86c9f2e524b2f813705ecf", "rental_uris": {"ios": "https://dc.lft.to/lastmile_qr_scan", "android": "https://dc.lft.to/lastmile_qr_scan"}, "fusion_lon": 0.0, "name": "d1cf02cc2e86c9f2e524b2f813705ecf", "lon": -77.02796983333333}, {"is_reserved": 0, "lat": 38.92342133333333, "is_disabled": 0, "type": "electric_scooter", "fusion_lat": 0.0, "bike_id": "5cc47e277ca3e20052e80bbb15411dbc", "rental_uris": {"ios": "https://dc.lft.to/lastmile_qr_scan", "android": "https://dc.lft.to/lastmile_qr_scan"}, "fusion_lon": 0.0, "name": "5cc47e277ca3e20052e80bbb15411dbc", "lon": -77.051246}, {"is_reserved": 0, "lat": 38.92249866666667, "is_disabled": 0, "type": "electric_scooter", "fusion_lat": 0.0, "bike_id": "e3797b00a7c83fd5de729adeeaf4849e", "rental_uris": {"ios": "https://dc.lft.to/lastmile_qr_scan", "android": "https://dc.lft.to/lastmile_qr_scan"}, "fusion_lon": 0.0, "name": "e3797b00a7c83fd5de729adeeaf4849e", "lon": -77.019531}, {"is_reserved": 0, "lat": 38.893265, "is_disabled": 0, "type": "electric_scooter", "fusion_lat": 0.0, "bike_id": "cb3ee0b0053a7fa5e4b499267e9dbf2f", "rental_uris": {"ios": "https://dc.lft.to/lastmile_qr_scan", "android": "https://dc.lft.to/lastmile_qr_scan"}, "fusion_lon": 0.0, "name": "cb3ee0b0053a7fa5e4b499267e9dbf2f", "lon": -77.03843516666667}, {"is_reserved": 0, "lat": 38.92302983333333, "is_disabled": 0, "type": "electric_scooter", "fusion_lat": 0.0, "bike_id": "e3c1065ea90cc41d286b56a2edacd8f7", "rental_uris": {"ios": "https://dc.lft.to/lastmile_qr_scan", "android": "https://dc.lft.to/lastmile_qr_scan"}, "fusion_lon": 0.0, "name": "e3c1065ea90cc41d286b56a2edacd8f7", "lon": -77.04225783333334}, {"is_reserved": 0, "lat": 38.9025985, "is_disabled": 0, "type": "electric_scooter", "fusion_lat": 0.0, "bike_id": "a59dba2fb0fc26868bcede7d035a7300", "rental_uris": {"ios": "https://dc.lft.to/lastmile_qr_scan", "android": "https://dc.lft.to/lastmile_qr_scan"}, "fusion_lon": 0.0, "name": "a59dba2fb0fc26868bcede7d035a7300", "lon": -77.03235066666667}, {"is_reserved": 0, "lat": 38.91926266666667, "is_disabled": 0, "type": "electric_scooter", "fusion_lat": 0.0, "bike_id": "edbbde8ad6a3419d6863438ded8396be", "rental_uris": {"ios": "https://dc.lft.to/lastmile_qr_scan", "android": "https://dc.lft.to/lastmile_qr_scan"}, "fusion_lon": 0.0, "name": "edbbde8ad6a3419d6863438ded8396be", "lon": -77.03198933333333}, {"is_reserved": 0, "lat": 38.91833716666667, "is_disabled": 0, "type": "electric_scooter", "fusion_lat": 0.0, "bike_id": "0619509598b7d00097e9fb145634d8eb", "rental_uris": {"ios": "https://dc.lft.to/lastmile_qr_scan", "android": "https://dc.lft.to/lastmile_qr_scan"}, "fusion_lon": 0.0, "name": "0619509598b7d00097e9fb145634d8eb", "lon": -77.041632}, {"is_reserved": 0, "lat": 38.911172666666666, "is_disabled": 0, "type": "electric_scooter", "fusion_lat": 0.0, "bike_id": "cbf138684eab9bfdf1fbf64ad6708330", "rental_uris": {"ios": "https://dc.lft.to/lastmile_qr_scan", "android": "https://dc.lft.to/lastmile_qr_scan"}, "fusion_lon": 0.0, "name": "cbf138684eab9bfdf1fbf64ad6708330", "lon": -77.03843966666666}, {"is_reserved": 0, "lat": 38.920553, "is_disabled": 0, "type": "electric_scooter", "fusion_lat": 0.0, "bike_id": "94edb25f5c3c2848976659b3a3283412", "rental_uris": {"ios": "https://dc.lft.to/lastmile_qr_scan", "android": "https://dc.lft.to/lastmile_qr_scan"}, "fusion_lon": 0.0, "name": "94edb25f5c3c2848976659b3a3283412", "lon": -77.0330045}, {"is_reserved": 0, "lat": 38.90234433333333, "is_disabled": 0, "type": "electric_scooter", "fusion_lat": 0.0, "bike_id": "0867b10a3e8a2cdf7b9fc16af5a887cc", "rental_uris": {"ios": "https://dc.lft.to/lastmile_qr_scan", "android": "https://dc.lft.to/lastmile_qr_scan"}, "fusion_lon": 0.0, "name": "0867b10a3e8a2cdf7b9fc16af5a887cc", "lon": -77.00354833333333}, {"is_reserved": 0, "lat": 38.9326845, "is_disabled": 0, "type": "electric_scooter", "fusion_lat": 0.0, "bike_id": "305b571f4772332b08a1341829eea986", "rental_uris": {"ios": "https://dc.lft.to/lastmile_qr_scan", "android": "https://dc.lft.to/lastmile_qr_scan"}, "fusion_lon": 0.0, "name": "305b571f4772332b08a1341829eea986", "lon": -77.03641683333333}, {"is_reserved": 0, "lat": 38.999429666666664, "is_disabled": 0, "type": "electric_bike", "fusion_lat": 0.0, "bike_id": "4b35dd371e310e4fbdd567917fbb00c6", "rental_uris": {"ios": "https://dc.lft.to/lastmile_qr_scan", "android": "https://dc.lft.to/lastmile_qr_scan"}, "fusion_lon": 0.0, "name": "4b35dd371e310e4fbdd567917fbb00c6", "lon": -77.03163383333333}, {"is_reserved": 0, "lat": 38.91829383333334, "is_disabled": 0, "type": "electric_scooter", "fusion_lat": 0.0, "bike_id": "4c0301a7d9d1a5965f61f2bbca139f3c", "rental_uris": {"ios": "https://dc.lft.to/lastmile_qr_scan", "android": "https://dc.lft.to/lastmile_qr_scan"}, "fusion_lon": 0.0, "name": "4c0301a7d9d1a5965f61f2bbca139f3c", "lon": -77.04159083333333}, {"is_reserved": 0, "lat": 38.88585233333333, "is_disabled": 0, "type": "electric_scooter", "fusion_lat": 0.0, "bike_id": "5516ca4b84141c6a27dac16649786851", "rental_uris": {"ios": "https://dc.lft.to/lastmile_qr_scan", "android": "https://dc.lft.to/lastmile_qr_scan"}, "fusion_lon": 0.0, "name": "5516ca4b84141c6a27dac16649786851", "lon": -76.98370766666666}, {"is_reserved": 0, "lat": 38.905928333333335, "is_disabled": 0, "type": "electric_scooter", "fusion_lat": 0.0, "bike_id": "44d60f2adf59288c94861faee17a1242", "rental_uris": {"ios": "https://dc.lft.to/lastmile_qr_scan", "android": "https://dc.lft.to/lastmile_qr_scan"}, "fusion_lon": 0.0, "name": "44d60f2adf59288c94861faee17a1242", "lon": -77.04685433333333}, {"is_reserved": 0, "lat": 38.89519, "is_disabled": 0, "type": "electric_scooter", "fusion_lat": 0.0, "bike_id": "eb20a1ae0e5bd0412c462a988a391f51", "rental_uris": {"ios": "https://dc.lft.to/lastmile_qr_scan", "android": "https://dc.lft.to/lastmile_qr_scan"}, "fusion_lon": 0.0, "name": "eb20a1ae0e5bd0412c462a988a391f51", "lon": -77.0446885}, {"is_reserved": 0, "lat": 38.86649583333333, "is_disabled": 0, "type": "electric_scooter", "fusion_lat": 0.0, "bike_id": "811c6a3bbefb3420a2adf980ce81c511", "rental_uris": {"ios": "https://dc.lft.to/lastmile_qr_scan", "android": "https://dc.lft.to/lastmile_qr_scan"}, "fusion_lon": 0.0, "name": "811c6a3bbefb3420a2adf980ce81c511", "lon": -76.9850705}, {"is_reserved": 0, "lat": 38.90756666666667, "is_disabled": 0, "type": "electric_scooter", "fusion_lat": 0.0, "bike_id": "5ea4da3ef266f468e312fcc5b569b364", "rental_uris": {"ios": "https://dc.lft.to/lastmile_qr_scan", "android": "https://dc.lft.to/lastmile_qr_scan"}, "fusion_lon": 0.0, "name": "5ea4da3ef266f468e312fcc5b569b364", "lon": -77.04334266666666}, {"is_reserved": 0, "lat": 38.9035525, "is_disabled": 0, "type": "electric_scooter", "fusion_lat": 0.0, "bike_id": "7419e3201395d6c211b21d1ce476173e", "rental_uris": {"ios": "https://dc.lft.to/lastmile_qr_scan", "android": "https://dc.lft.to/lastmile_qr_scan"}, "fusion_lon": 0.0, "name": "7419e3201395d6c211b21d1ce476173e", "lon": -77.03829616666667}, {"is_reserved": 0, "lat": 38.86518066666667, "is_disabled": 0, "type": "electric_bike", "fusion_lat": 0.0, "bike_id": "2008994d43ee20e2b262d936849d28a4", "rental_uris": {"ios": "https://dc.lft.to/lastmile_qr_scan", "android": "https://dc.lft.to/lastmile_qr_scan"}, "fusion_lon": 0.0, "name": "2008994d43ee20e2b262d936849d28a4", "lon": -76.9733675}, {"is_reserved": 0, "lat": 38.896152, "is_disabled": 0, "type": "electric_scooter", "fusion_lat": 0.0, "bike_id": "030bdb9b55d37c5258af192d6be3eba7", "rental_uris": {"ios": "https://dc.lft.to/lastmile_qr_scan", "android": "https://dc.lft.to/lastmile_qr_scan"}, "fusion_lon": 0.0, "name": "030bdb9b55d37c5258af192d6be3eba7", "lon": -77.03025266666667}, {"is_reserved": 0, "lat": 38.89286383333334, "is_disabled": 0, "type": "electric_scooter", "fusion_lat": 0.0, "bike_id": "c72d286c46e47cbac1c163c69b38dd43", "rental_uris": {"ios": "https://dc.lft.to/lastmile_qr_scan", "android": "https://dc.lft.to/lastmile_qr_scan"}, "fusion_lon": 0.0, "name": "c72d286c46e47cbac1c163c69b38dd43", "lon": -77.015025}, {"is_reserved": 0, "lat": 38.89636816666667, "is_disabled": 0, "type": "electric_scooter", "fusion_lat": 0.0, "bike_id": "d8838eb2bfab5e7a0a21ac916bd2e58f", "rental_uris": {"ios": "https://dc.lft.to/lastmile_qr_scan", "android": "https://dc.lft.to/lastmile_qr_scan"}, "fusion_lon": 0.0, "name": "d8838eb2bfab5e7a0a21ac916bd2e58f", "lon": -77.02410883333333}, {"is_reserved": 0, "lat": 38.92784866666667, "is_disabled": 0, "type": "electric_scooter", "fusion_lat": 0.0, "bike_id": "078bd1135b608843aea22be1f5ea9b28", "rental_uris": {"ios": "https://dc.lft.to/lastmile_qr_scan", "android": "https://dc.lft.to/lastmile_qr_scan"}, "fusion_lon": 0.0, "name": "078bd1135b608843aea22be1f5ea9b28", "lon": -77.05332266666667}, {"is_reserved": 0, "lat": 38.90083933333333, "is_disabled": 0, "type": "electric_scooter", "fusion_lat": 0.0, "bike_id": "fa7c48f979ba13e93a2cf7fdfbacded7", "rental_uris": {"ios": "https://dc.lft.to/lastmile_qr_scan", "android": "https://dc.lft.to/lastmile_qr_scan"}, "fusion_lon": 0.0, "name": "fa7c48f979ba13e93a2cf7fdfbacded7", "lon": -77.04913633333334}, {"is_reserved": 0, "lat": 38.91815366666667, "is_disabled": 0, "type": "electric_scooter", "fusion_lat": 0.0, "bike_id": "8e553a63ac48db531e3b67a6f72706a5", "rental_uris": {"ios": "https://dc.lft.to/lastmile_qr_scan", "android": "https://dc.lft.to/lastmile_qr_scan"}, "fusion_lon": 0.0, "name": "8e553a63ac48db531e3b67a6f72706a5", "lon": -77.024774}, {"is_reserved": 0, "lat": 38.900274, "is_disabled": 0, "type": "electric_scooter", "fusion_lat": 0.0, "bike_id": "a963b7182f05579b4389731b06405110", "rental_uris": {"ios": "https://dc.lft.to/lastmile_qr_scan", "android": "https://dc.lft.to/lastmile_qr_scan"}, "fusion_lon": 0.0, "name": "a963b7182f05579b4389731b06405110", "lon": -76.98830883333333}, {"is_reserved": 0, "lat": 38.90338833333333, "is_disabled": 0, "type": "electric_scooter", "fusion_lat": 0.0, "bike_id": "e800e2f23968019ca02f3606aab26a0c", "rental_uris": {"ios": "https://dc.lft.to/lastmile_qr_scan", "android": "https://dc.lft.to/lastmile_qr_scan"}, "fusion_lon": 0.0, "name": "e800e2f23968019ca02f3606aab26a0c", "lon": -77.010926}, {"is_reserved": 0, "lat": 38.9039625, "is_disabled": 0, "type": "electric_scooter", "fusion_lat": 0.0, "bike_id": "aa85af624c80a2e16e150176642056f4", "rental_uris": {"ios": "https://dc.lft.to/lastmile_qr_scan", "android": "https://dc.lft.to/lastmile_qr_scan"}, "fusion_lon": 0.0, "name": "aa85af624c80a2e16e150176642056f4", "lon": -77.04471883333333}, {"is_reserved": 0, "lat": 38.84029483333333, "is_disabled": 0, "type": "electric_bike", "fusion_lat": 0.0, "bike_id": "ce5a201c73c5eef59f89b9d78abaa2d7", "rental_uris": {"ios": "https://dc.lft.to/lastmile_qr_scan", "android": "https://dc.lft.to/lastmile_qr_scan"}, "fusion_lon": 0.0, "name": "ce5a201c73c5eef59f89b9d78abaa2d7", "lon": -76.9757565}, {"is_reserved": 0, "lat": 38.916182, "is_disabled": 0, "type": "electric_scooter", "fusion_lat": 0.0, "bike_id": "2556bbf5b9f664b7fbb87cbe03388742", "rental_uris": {"ios": "https://dc.lft.to/lastmile_qr_scan", "android": "https://dc.lft.to/lastmile_qr_scan"}, "fusion_lon": 0.0, "name": "2556bbf5b9f664b7fbb87cbe03388742", "lon": -77.03273466666667}, {"is_reserved": 0, "lat": 38.9414985, "is_disabled": 0, "type": "electric_scooter", "fusion_lat": 0.0, "bike_id": "a596c89b5730576fc1b1676039396d01", "rental_uris": {"ios": "https://dc.lft.to/lastmile_qr_scan", "android": "https://dc.lft.to/lastmile_qr_scan"}, "fusion_lon": 0.0, "name": "a596c89b5730576fc1b1676039396d01", "lon": -77.09252333333333}, {"is_reserved": 0, "lat": 38.915608666666664, "is_disabled": 0, "type": "electric_scooter", "fusion_lat": 0.0, "bike_id": "391b89b05e2197f8c518e1bd11bd5e5b", "rental_uris": {"ios": "https://dc.lft.to/lastmile_qr_scan", "android": "https://dc.lft.to/lastmile_qr_scan"}, "fusion_lon": 0.0, "name": "391b89b05e2197f8c518e1bd11bd5e5b", "lon": -77.03127616666667}, {"is_reserved": 0, "lat": 38.89194416666667, "is_disabled": 0, "type": "electric_scooter", "fusion_lat": 0.0, "bike_id": "3a94c8d76ebedd626e2775cd923ef892", "rental_uris": {"ios": "https://dc.lft.to/lastmile_qr_scan", "android": "https://dc.lft.to/lastmile_qr_scan"}, "fusion_lon": 0.0, "name": "3a94c8d76ebedd626e2775cd923ef892", "lon": -77.00295733333333}, {"is_reserved": 0, "lat": 38.93573166666667, "is_disabled": 0, "type": "electric_scooter", "fusion_lat": 0.0, "bike_id": "761bae582118dd98f6a521cf9849b739", "rental_uris": {"ios": "https://dc.lft.to/lastmile_qr_scan", "android": "https://dc.lft.to/lastmile_qr_scan"}, "fusion_lon": 0.0, "name": "761bae582118dd98f6a521cf9849b739", "lon": -77.037379}, {"is_reserved": 0, "lat": 38.924027833333334, "is_disabled": 0, "type": "electric_scooter", "fusion_lat": 0.0, "bike_id": "ad74b5553b705c31403be4b08250c14d", "rental_uris": {"ios": "https://dc.lft.to/lastmile_qr_scan", "android": "https://dc.lft.to/lastmile_qr_scan"}, "fusion_lon": 0.0, "name": "ad74b5553b705c31403be4b08250c14d", "lon": -77.04035716666667}, {"is_reserved": 0, "lat": 38.93188966666666, "is_disabled": 0, "type": "electric_scooter", "fusion_lat": 0.0, "bike_id": "14e1df261e500135ad74efabb510dc39", "rental_uris": {"ios": "https://dc.lft.to/lastmile_qr_scan", "android": "https://dc.lft.to/lastmile_qr_scan"}, "fusion_lon": 0.0, "name": "14e1df261e500135ad74efabb510dc39", "lon": -77.03837733333333}, {"is_reserved": 0, "lat": 38.88590166666667, "is_disabled": 0, "type": "electric_scooter", "fusion_lat": 0.0, "bike_id": "dbc4582f06dcb71c18e7899a6b72ba24", "rental_uris": {"ios": "https://dc.lft.to/lastmile_qr_scan", "android": "https://dc.lft.to/lastmile_qr_scan"}, "fusion_lon": 0.0, "name": "dbc4582f06dcb71c18e7899a6b72ba24", "lon": -77.03086616666667}, {"is_reserved": 0, "lat": 38.898423, "is_disabled": 0, "type": "electric_scooter", "fusion_lat": 0.0, "bike_id": "224bb8b0969366c2204370f3e3c1aa76", "rental_uris": {"ios": "https://dc.lft.to/lastmile_qr_scan", "android": "https://dc.lft.to/lastmile_qr_scan"}, "fusion_lon": 0.0, "name": "224bb8b0969366c2204370f3e3c1aa76", "lon": -77.026794}, {"is_reserved": 0, "lat": 38.891695666666664, "is_disabled": 0, "type": "electric_scooter", "fusion_lat": 0.0, "bike_id": "b5851a731f87cf71ad4c90e20c9502ea", "rental_uris": {"ios": "https://dc.lft.to/lastmile_qr_scan", "android": "https://dc.lft.to/lastmile_qr_scan"}, "fusion_lon": 0.0, "name": "b5851a731f87cf71ad4c90e20c9502ea", "lon": -77.01563733333333}, {"is_reserved": 0, "lat": 38.91614933333334, "is_disabled": 0, "type": "electric_scooter", "fusion_lat": 0.0, "bike_id": "74090c27653cc9ca2c787f6a5a2a53d6", "rental_uris": {"ios": "https://dc.lft.to/lastmile_qr_scan", "android": "https://dc.lft.to/lastmile_qr_scan"}, "fusion_lon": 0.0, "name": "74090c27653cc9ca2c787f6a5a2a53d6", "lon": -77.02395283333334}, {"is_reserved": 0, "lat": 38.902883333333335, "is_disabled": 0, "type": "electric_scooter", "fusion_lat": 0.0, "bike_id": "7f7b79e868dbc2835c717b8e2a23286d", "rental_uris": {"ios": "https://dc.lft.to/lastmile_qr_scan", "android": "https://dc.lft.to/lastmile_qr_scan"}, "fusion_lon": 0.0, "name": "7f7b79e868dbc2835c717b8e2a23286d", "lon": -77.0452315}, {"is_reserved": 0, "lat": 38.905561666666664, "is_disabled": 0, "type": "electric_scooter", "fusion_lat": 0.0, "bike_id": "18c52aecb10fbbaeb2709e28ae232232", "rental_uris": {"ios": "https://dc.lft.to/lastmile_qr_scan", "android": "https://dc.lft.to/lastmile_qr_scan"}, "fusion_lon": 0.0, "name": "18c52aecb10fbbaeb2709e28ae232232", "lon": -77.0448765}, {"is_reserved": 0, "lat": 38.944481833333334, "is_disabled": 0, "type": "electric_scooter", "fusion_lat": 0.0, "bike_id": "b881f835d8f5599729a018644aa5ef4e", "rental_uris": {"ios": "https://dc.lft.to/lastmile_qr_scan", "android": "https://dc.lft.to/lastmile_qr_scan"}, "fusion_lon": 0.0, "name": "b881f835d8f5599729a018644aa5ef4e", "lon": -77.06358233333333}, {"is_reserved": 0, "lat": 38.9409085, "is_disabled": 0, "type": "electric_scooter", "fusion_lat": 0.0, "bike_id": "e2253bcf52067fe146f996321130588c", "rental_uris": {"ios": "https://dc.lft.to/lastmile_qr_scan", "android": "https://dc.lft.to/lastmile_qr_scan"}, "fusion_lon": 0.0, "name": "e2253bcf52067fe146f996321130588c", "lon": -77.02733966666666},