{"data": {"bikes": [{"lat": 38.91699883333333, "is_disabled": 0, "type": "electric_scooter", "lon": -77.03055233333333, "bike_id": "0548532d4f33549406f3faa136f59217", "fusion_lat": 0.0, "name": "0548532d4f33549406f3faa136f59217", "is_reserved": 0, "rental_uris": {"android": "https://dc.lft.to/lastmile_qr_scan", "ios": "https://dc.lft.to/lastmile_qr_scan"}, "fusion_lon": 0.0}, {"lat": 38.906901833333336, "is_disabled": 0, "type": "electric_scooter", "lon": -77.06279316666667, "bike_id": "fd8d9287e023f7340755ffc6904442bc", "fusion_lat": 0.0, "name": "fd8d9287e023f7340755ffc6904442bc", "is_reserved": 0, "rental_uris": {"android": "https://dc.lft.to/lastmile_qr_scan", "ios": "https://dc.lft.to/lastmile_qr_scan"}, "fusion_lon": 0.0}, {"lat": 38.92835866666667, "is_disabled": 0, "type": "electric_scooter", "lon": -77.05423533333334, "bike_id": "594bdaaf233db48033dad3515625ad65", "fusion_lat": 0.0, "name": "594bdaaf233db48033dad3515625ad65", "is_reserved": 0, "rental_uris": {"android": "https://dc.lft.to/lastmile_qr_scan", "ios": "https://dc.lft.to/lastmile_qr_scan"}, "fusion_lon": 0.0}, {"lat": 38.88127333333333, "is_disabled": 0, "type": "electric_scooter", "lon": -76.98727966666667, "bike_id": "d9644027e5cd00600cb275b874eecd8a", "fusion_lat": 0.0, "name": "d9644027e5cd00600cb275b874eecd8a", "is_reserved": 0, "rental_uris": {"android": "https://dc.lft.to/lastmile_qr_scan", "ios": "https://dc.lft.to/lastmile_qr_scan"}, "fusion_lon": 0.0}, {"lat": 38.9099135, "is_disabled": 0, "type": "electric_scooter", "lon": -76.99740033333333, "bike_id": "288c8615a6e0464ad6b5d9067a1e14c0", "fusion_lat": 0.0, "name": "288c8615a6e0464ad6b5d9067a1e14c0", "is_reserved": 0, "rental_uris": {"android": "https://dc.lft.to/lastmile_qr_scan", "ios": "https://dc.lft.to/lastmile_qr_scan"}, "fusion_lon": 0.0}, {"lat": 38.93137083333333, "is_disabled": 0, "type": "electric_scooter", "lon": -77.02137483333334, "bike_id": "d2dd9423fa8d0d1e43a41dfb982daf31", "fusion_lat": 0.0, "name": "d2dd9423fa8d0d1e43a41dfb982daf31", "is_reserved": 0, "rental_uris": {"android": "https://dc.lft.to/lastmile_qr_scan", "ios": "https://dc.lft.to/lastmile_qr_scan"}, "fusion_lon": 0.0}, {"lat": 38.93067466666667, "is_disabled": 0, "type": "electric_scooter", "lon": -77.03682816666667, "bike_id": "0481e5651c8c7721922fca6d3adc7030", "fusion_lat": 0.0, "name": "0481e5651c8c7721922fca6d3adc7030", "is_reserved": 0, "rental_uris": {"android": "https://dc.lft.to/lastmile_qr_scan", "ios": "https://dc.lft.to/lastmile_qr_scan"}, "fusion_lon": 0.0}, {"lat": 38.91012766666667, "is_disabled": 0, "type": "electric_scooter", "lon": -77.03017583333333, "bike_id": "79d491307dd2f82f0d5e208521edf41a", "fusion_lat": 0.0, "name": "79d491307dd2f82f0d5e208521edf41a", "is_reserved": 0, "rental_uris": {"android": "https://dc.lft.to/lastmile_qr_scan", "ios": "https://dc.lft.to/lastmile_qr_scan"}, "fusion_lon": 0.0}, {"lat": 38.91703783333333, "is_disabled": 0, "type": "electric_scooter", "lon": -77.02891933333333, "bike_id": "4c9de58077099cad12860e50357d8ced", "fusion_lat": 0.0, "name": "4c9de58077099cad12860e50357d8ced", "is_reserved": 0, "rental_uris": {"android": "https://dc.lft.to/lastmile_qr_scan", "ios": "https://dc.lft.to/lastmile_qr_scan"}, "fusion_lon": 0.0}, {"lat": 38.86661316666667, "is_disabled": 0, "type": "electric_scooter", "lon": -76.98902533333333, "bike_id": "8d20dd2e4628cbb15904a5d05792b17e", "fusion_lat": 0.0, "name": "8d20dd2e4628cbb15904a5d05792b17e", "is_reserved": 0, "rental_uris": {"android": "https://dc.lft.to/lastmile_qr_scan", "ios": "https://dc.lft.to/lastmile_qr_scan"}, "fusion_lon": 0.0}, {"lat": 38.896376833333335, "is_disabled": 0, "type": "electric_scooter", "lon": -77.046689, "bike_id": "989d21464cf4189e0c422244d2c11bed", "fusion_lat": 0.0, "name": "989d21464cf4189e0c422244d2c11bed", "is_reserved": 0, "rental_uris": {"android": "https://dc.lft.to/lastmile_qr_scan", "ios": "https://dc.lft.to/lastmile_qr_scan"}, "fusion_lon": 0.0}, {"lat": 38.93852416666667, "is_disabled": 0, "type": "electric_scooter", "lon": -77.03393833333334, "bike_id": "b3db345861f7cc398529a553cac0d298", "fusion_lat": 0.0, "name": "b3db345861f7cc398529a553cac0d298", "is_reserved": 0, "rental_uris": {"android": "https://dc.lft.to/lastmile_qr_scan", "ios": "https://dc.lft.to/lastmile_qr_scan"}, "fusion_lon": 0.0}, {"lat": 38.972285166666666, "is_disabled": 0, "type": "electric_bike", "lon": -76.99348183333333, "bike_id": "74b2033f072ce4b6ade28ee21f00cbf8", "fusion_lat": 0.0, "name": "74b2033f072ce4b6ade28ee21f00cbf8", "is_reserved": 0, "rental_uris": {"android": "https://dc.lft.to/lastmile_qr_scan", "ios": "https://dc.lft.to/lastmile_qr_scan"}, "fusion_lon": 0.0}, {"lat": 38.86051466666667, "is_disabled": 0, "type": "electric_scooter", "lon": -77.05737466666666, "bike_id": "da1ff1c155a464bb50013c68fa83caf4", "fusion_lat": 0.0, "name": "da1ff1c155a464bb50013c68fa83caf4", "is_reserved": 0, "rental_uris": {"android": "https://dc.lft.to/lastmile_qr_scan", "ios": "https://dc.lft.to/lastmile_qr_scan"}, "fusion_lon": 0.0}, {"lat": 38.89239333333333, "is_disabled": 0, "type": "electric_scooter", "lon": -77.032133, "bike_id": "58458d302945dc61c69c37d3ac813f9e", "fusion_lat": 0.0, "name": "58458d302945dc61c69c37d3ac813f9e", "is_reserved": 0, "rental_uris": {"android": "https://dc.lft.to/lastmile_qr_scan", "ios": "https://dc.lft.to/lastmile_qr_scan"}, "fusion_lon": 0.0}, {"lat": 38.92235866666667, "is_disabled": 0, "type": "electric_scooter", "lon": -77.04571433333334, "bike_id": "9f2f33555a8850bc53ddc246ec45c0da", "fusion_lat": 0.0, "name": "9f2f33555a8850bc53ddc246ec45c0da", "is_reserved": 0, "rental_uris": {"android": "https://dc.lft.to/lastmile_qr_scan", "ios": "https://dc.lft.to/lastmile_qr_scan"}, "fusion_lon": 0.0}, {"lat": 38.918767833333334, "is_disabled": 0, "type": "electric_scooter", "lon": -77.03505733333333, "bike_id": "853fb942ea5c1583e17b771125a3c4e5", "fusion_lat": 0.0, "name": "853fb942ea5c1583e17b771125a3c4e5", "is_reserved": 0, "rental_uris": {"android": "https://dc.lft.to/lastmile_qr_scan", "ios": "https://dc.lft.to/lastmile_qr_scan"}, "fusion_lon": 0.0}, {"lat": 38.91850383333333, "is_disabled": 0, "type": "electric_scooter", "lon": -77.045953, "bike_id": "aefdab03436c05031551d691bff01ce6", "fusion_lat": 0.0, "name": "aefdab03436c05031551d691bff01ce6", "is_reserved": 0, "rental_uris": {"android": "https://dc.lft.to/lastmile_qr_scan", "ios": "https://dc.lft.to/lastmile_qr_scan"}, "fusion_lon": 0.0}, {"lat": 38.919485, "is_disabled": 0, "type": "electric_scooter", "lon": -76.98082216666667, "bike_id": "1465c8d3de8f39adadfde80c434f8c16", "fusion_lat": 0.0, "name": "1465c8d3de8f39adadfde80c434f8c16", "is_reserved": 0, "rental_uris": {"android": "https://dc.lft.to/lastmile_qr_scan", "ios": "https://dc.lft.to/lastmile_qr_scan"}, "fusion_lon": 0.0}, {"lat": 38.903223, "is_disabled": 0, "type": "electric_scooter", "lon": -77.037736, "bike_id": "4d4dcd851b11bc2853f66bd158fedc28", "fusion_lat": 0.0, "name": "4d4dcd851b11bc2853f66bd158fedc28", "is_reserved": 0, "rental_uris": {"android": "https://dc.lft.to/lastmile_qr_scan", "ios": "https://dc.lft.to/lastmile_qr_scan"}, "fusion_lon": 0.0}, {"lat": 38.86394133333334, "is_disabled": 0, "type": "electric_scooter", "lon": -76.9904965, "bike_id": "d021ded7389a642cf055cfc20d34dfa5", "fusion_lat": 0.0, "name": "d021ded7389a642cf055cfc20d34dfa5", "is_reserved": 0, "rental_uris": {"android": "https://dc.lft.to/lastmile_qr_scan", "ios": "https://dc.lft.to/lastmile_qr_scan"}, "fusion_lon": 0.0}, {"lat": 38.9135405, "is_disabled": 0, "type": "electric_scooter", "lon": -77.03192666666666, "bike_id": "fb53595eed7359ff9cbdd2c9b9534001", "fusion_lat": 0.0, "name": "fb53595eed7359ff9cbdd2c9b9534001", "is_reserved": 0, "rental_uris": {"android": "https://dc.lft.to/lastmile_qr_scan", "ios": "https://dc.lft.to/lastmile_qr_scan"}, "fusion_lon": 0.0}, {"lat": 38.892242333333336, "is_disabled": 0, "type": "electric_scooter", "lon": -77.02161583333333, "bike_id": "cf80c482d1fb5681c2ca5cf1ab3a89e7", "fusion_lat": 0.0, "name": "cf80c482d1fb5681c2ca5cf1ab3a89e7", "is_reserved": 0, "rental_uris": {"android": "https://dc.lft.to/lastmile_qr_scan", "ios": "https://dc.lft.to/lastmile_qr_scan"}, "fusion_lon": 0.0}, {"lat": 38.951882, "is_disabled": 0, "type": "electric_bike", "lon": -76.93544, "bike_id": "f74a3b6078c8d832557897a8b9101d83", "fusion_lat": 0.0, "name": "f74a3b6078c8d832557897a8b9101d83", "is_reserved": 0, "rental_uris": {"android": "https://dc.lft.to/lastmile_qr_scan", "ios": "https://dc.lft.to/lastmile_qr_scan"}, "fusion_lon": 0.0}, {"lat": 38.87083716666667, "is_disabled": 0, "type": "electric_scooter", "lon": -77.01192383333333, "bike_id": "7e2a3757528ae7c83962d2d1bc831e3d", "fusion_lat": 0.0, "name": "7e2a3757528ae7c83962d2d1bc831e3d", "is_reserved": 0, "rental_uris": {"android": "https://dc.lft.to/lastmile_qr_scan", "ios": "https://dc.lft.to/lastmile_qr_scan"}, "fusion_lon": 0.0}, {"lat": 38.907675166666664, "is_disabled": 0, "type": "electric_scooter", "lon": -77.043453, "bike_id": "5210dec2ea66ff9fdce9528297e387ac", "fusion_lat": 0.0, "name": "5210dec2ea66ff9fdce9528297e387ac", "is_reserved": 0, "rental_uris": {"android": "https://dc.lft.to/lastmile_qr_scan", "ios": "https://dc.lft.to/lastmile_qr_scan"}, "fusion_lon": 0.0}, {"lat": 38.877328166666665, "is_disabled": 0, "type": "electric_bike", "lon": -77.1185075, "bike_id": "d925fca7c84c5fecae17cc5e190a2940", "fusion_lat": 0.0, "name": "d925fca7c84c5fecae17cc5e190a2940", "is_reserved": 0, "rental_uris": {"android": "https://dc.lft.to/lastmile_qr_scan", "ios": "https://dc.lft.to/lastmile_qr_scan"}, "fusion_lon": 0.0}, {"lat": 38.90552266666667, "is_disabled": 0, "type": "electric_scooter", "lon": -77.01990933333333, "bike_id": "a4ff53e02bf21b22f8e43530803df858", "fusion_lat": 0.0, "name": "a4ff53e02bf21b22f8e43530803df858", "is_reserved": 0, "rental_uris": {"android": "https://dc.lft.to/lastmile_qr_scan", "ios": "https://dc.lft.to/lastmile_qr_scan"}, "fusion_lon": 0.0}, {"lat": 38.903699, "is_disabled": 0, "type": "electric_scooter", "lon": -77.01868183333333, "bike_id": "613d1408ce82eeaeea30b84e5348af38", "fusion_lat": 0.0, "name": "613d1408ce82eeaeea30b84e5348af38", "is_reserved": 0, "rental_uris": {"android": "https://dc.lft.to/lastmile_qr_scan", "ios": "https://dc.lft.to/lastmile_qr_scan"}, "fusion_lon": 0.0}, {"lat": 38.92496633333333, "is_disabled": 0, "type": "electric_scooter", "lon": -77.05226233333333, "bike_id": "1ad7f572aeb54e43735ad35c7883f3c6", "fusion_lat": 0.0, "name": "1ad7f572aeb54e43735ad35c7883f3c6", "is_reserved": 0, "rental_uris": {"android": "https://dc.lft.to/lastmile_qr_scan", "ios": "https://dc.lft.to/lastmile_qr_scan"}, "fusion_lon": 0.0}, {"lat": 38.924733833333335, "is_disabled": 0, "type": "electric_scooter", "lon": -77.03977733333333, "bike_id": "4647ae5d7a95b3759d64d8b54a16cf7d", "fusion_lat": 0.0, "name": "4647ae5d7a95b3759d64d8b54a16cf7d", "is_reserved": 0, "rental_uris": {"android": "https://dc.lft.to/lastmile_qr_scan", "ios": "https://dc.lft.to/lastmile_qr_scan"}, "fusion_lon": 0.0}, {"lat": 38.903635333333334, "is_disabled": 0, "type": "electric_scooter", "lon": -76.97656366666666, "bike_id": "e0d2918995a4e8327d33ba43c611ff27", "fusion_lat": 0.0, "name": "e0d2918995a4e8327d33ba43c611ff27", "is_reserved": 0, "rental_uris": {"android": "https://dc.lft.to/lastmile_qr_scan", "ios": "https://dc.lft.to/lastmile_qr_scan"}, "fusion_lon": 0.0}, {"lat": 38.89586533333333, "is_disabled": 0, "type": "electric_scooter", "lon": -77.0436375, "bike_id": "02393af6b45ee9a8a462f5e38b818752", "fusion_lat": 0.0, "name": "02393af6b45ee9a8a462f5e38b818752", "is_reserved": 0, "rental_uris": {"android": "https://dc.lft.to/lastmile_qr_scan", "ios": "https://dc.lft.to/lastmile_qr_scan"}, "fusion_lon": 0.0}, {"lat": 38.90209816666667, "is_disabled": 0, "type": "electric_scooter", "lon": -76.98845316666667, "bike_id": "10569c61e04722f5649bd6b4b3a4dba6", "fusion_lat": 0.0, "name": "10569c61e04722f5649bd6b4b3a4dba6", "is_reserved": 0, "rental_uris": {"android": "https://dc.lft.to/lastmile_qr_scan", "ios": "https://dc.lft.to/lastmile_qr_scan"}, "fusion_lon": 0.0}, {"lat": 38.90267683333333, "is_disabled": 0, "type": "electric_scooter", "lon": -77.03444133333333, "bike_id": "40a80f178d9958ec3568ea7349f3f140", "fusion_lat": 0.0, "name": "40a80f178d9958ec3568ea7349f3f140", "is_reserved": 0, "rental_uris": {"android": "https://dc.lft.to/lastmile_qr_scan", "ios": "https://dc.lft.to/lastmile_qr_scan"}, "fusion_lon": 0.0}, {"lat": 38.9205055, "is_disabled": 0, "type": "electric_scooter", "lon": -77.03337633333334, "bike_id": "6d5eb8d475a924baccf12228e7d2dfcd", "fusion_lat": 0.0, "name": "6d5eb8d475a924baccf12228e7d2dfcd", "is_reserved": 0, "rental_uris": {"android": "https://dc.lft.to/lastmile_qr_scan", "ios": "https://dc.lft.to/lastmile_qr_scan"}, "fusion_lon": 0.0}, {"lat": 38.89664633333334, "is_disabled": 0, "type": "electric_scooter", "lon": -77.00914266666666, "bike_id": "52080d8a20a5dbc14d98a64f4fbd8d04", "fusion_lat": 0.0, "name": "52080d8a20a5dbc14d98a64f4fbd8d04", "is_reserved": 0, "rental_uris": {"android": "https://dc.lft.to/lastmile_qr_scan", "ios": "https://dc.lft.to/lastmile_qr_scan"}, "fusion_lon": 0.0}, {"lat": 38.793042666666665, "is_disabled": 0, "type": "electric_bike", "lon": -77.04924783333334, "bike_id": "e96f7e2b1658da9d0bfbd4aa2121308b", "fusion_lat": 0.0, "name": "e96f7e2b1658da9d0bfbd4aa2121308b", "is_reserved": 0, "rental_uris": {"android": "https://dc.lft.to/lastmile_qr_scan", "ios": "https://dc.lft.to/lastmile_qr_scan"}, "fusion_lon": 0.0}, {"lat": 38.946544833333334, "is_disabled": 0, "type": "electric_scooter", "lon": -77.0648475, "bike_id": "f57ff6ccf77ea598e03d32aeb6e8a54d", "fusion_lat": 0.0, "name": "f57ff6ccf77ea598e03d32aeb6e8a54d", "is_reserved": 0, "rental_uris": {"android": "https://dc.lft.to/lastmile_qr_scan", "ios": "https://dc.lft.to/lastmile_qr_scan"}, "fusion_lon": 0.0}, {"lat": 38.92660766666667, "is_disabled": 0, "type": "electric_scooter", "lon": -77.0560045, "bike_id": "e8cd317948cb741f478a54f9a333bf86", "fusion_lat": 0.0, "name": "e8cd317948cb741f478a54f9a333bf86", "is_reserved": 0, "rental_uris": {"android": "https://dc.lft.to/lastmile_qr_scan", "ios": "https://dc.lft.to/lastmile_qr_scan"}, "fusion_lon": 0.0}, {"lat": 38.917175, "is_disabled": 0, "type": "electric_scooter", "lon": -77.0386095, "bike_id": "cb536a1049d7884cb02310e52f35ed41", "fusion_lat": 0.0, "name": "cb536a1049d7884cb02310e52f35ed41", "is_reserved": 0, "rental_uris": {"android": "https://dc.lft.to/lastmile_qr_scan", "ios": "https://dc.lft.to/lastmile_qr_scan"}, "fusion_lon": 0.0}, {"lat": 38.913556, "is_disabled": 0, "type": "electric_scooter", "lon": -77.03194333333333, "bike_id": "6cf756e988d1f3170daff8474550876e", "fusion_lat": 0.0, "name": "6cf756e988d1f3170daff8474550876e", "is_reserved": 0, "rental_uris": {"android": "https://dc.lft.to/lastmile_qr_scan", "ios": "https://dc.lft.to/lastmile_qr_scan"}, "fusion_lon": 0.0}, {"lat": 38.895488666666665, "is_disabled": 0, "type": "electric_scooter", "lon": -76.93373, "bike_id": "5521720b49c3744f9755e01b507685ba", "fusion_lat": 0.0, "name": "5521720b49c3744f9755e01b507685ba", "is_reserved": 0, "rental_uris": {"android": "https://dc.lft.to/lastmile_qr_scan", "ios": "https://dc.lft.to/lastmile_qr_scan"}, "fusion_lon": 0.0}, {"lat": 38.905686, "is_disabled": 0, "type": "electric_scooter", "lon": -77.043565, "bike_id": "01d8c5284a513e536ee35007372b60a0", "fusion_lat": 0.0, "name": "01d8c5284a513e536ee35007372b60a0", "is_reserved": 0, "rental_uris": {"android": "https://dc.lft.to/lastmile_qr_scan", "ios": "https://dc.lft.to/lastmile_qr_scan"}, "fusion_lon": 0.0}, {"lat": 38.90524283333333, "is_disabled": 0, "type": "electric_scooter", "lon": -77.0660065, "bike_id": "15ea2fbaeaf848b6810e57f2b61ef12a", "fusion_lat": 0.0, "name": "15ea2fbaeaf848b6810e57f2b61ef12a", "is_reserved": 0, "rental_uris": {"android": "https://dc.lft.to/lastmile_qr_scan", "ios": "https://dc.lft.to/lastmile_qr_scan"}, "fusion_lon": 0.0}, {"lat": 38.90378716666667, "is_disabled": 0, "type": "electric_scooter", "lon": -77.00271383333333, "bike_id": "40a554dbfa2f026d86ed8926141b4042", "fusion_lat": 0.0, "name": "40a554dbfa2f026d86ed8926141b4042", "is_reserved": 0, "rental_uris": {"android": "https://dc.lft.to/lastmile_qr_scan", "ios": "https://dc.lft.to/lastmile_qr_scan"}, "fusion_lon": 0.0}, {"lat": 38.917123833333335, "is_disabled": 0, "type": "electric_scooter", "lon": -77.03234466666666, "bike_id": "53f0f8c693179ada811d97618a561a22", "fusion_lat": 0.0, "name": "53f0f8c693179ada811d97618a561a22", "is_reserved": 0, "rental_uris": {"android": "https://dc.lft.to/lastmile_qr_scan", "ios": "https://dc.lft.to/lastmile_qr_scan"}, "fusion_lon": 0.0}, {"lat": 38.90019133333333, "is_disabled": 0, "type": "electric_scooter", "lon": -77.00212283333333, "bike_id": "d9f4f8132af22d74a50fd7f4e948f74d", "fusion_lat": 0.0, "name": "d9f4f8132af22d74a50fd7f4e948f74d", "is_reserved": 0, "rental_uris": {"android": "https://dc.lft.to/lastmile_qr_scan", "ios": "https://dc.lft.to/lastmile_qr_scan"}, "fusion_lon": 0.0}, {"lat": 38.9202595, "is_disabled": 0, "type": "electric_scooter", "lon": -77.03859783333333, "bike_id": "7d3059f8189fa61c84576c8e0f71ab2f", "fusion_lat": 0.0, "name": "7d3059f8189fa61c84576c8e0f71ab2f", "is_reserved": 0, "rental_uris": {"android": "https://dc.lft.to/lastmile_qr_scan", "ios": "https://dc.lft.to/lastmile_qr_scan"}, "fusion_lon": 0.0}, {"lat": 38.93239466666667, "is_disabled": 0, "type": "electric_scooter", "lon": -77.0326775, "bike_id": "4759bc07d7829c7f12af3a9349c780ea", "fusion_lat": 0.0, "name": "4759bc07d7829c7f12af3a9349c780ea", "is_reserved": 0, "rental_uris": {"android": "https://dc.lft.to/lastmile_qr_scan", "ios": "https://dc.lft.to/lastmile_qr_scan"}, "fusion_lon": 0.0}, {"lat": 38.89756166666667, "is_disabled": 0, "type": "electric_scooter", "lon": -77.018595, "bike_id": "e35a1e6c3272ec4b7236c2f5504195c2", "fusion_lat": 0.0, "name": "e35a1e6c3272ec4b7236c2f5504195c2", "is_reserved": 0, "rental_uris": {"android": "https://dc.lft.to/lastmile_qr_scan", "ios": "https://dc.lft.to/lastmile_qr_scan"}, "fusion_lon": 0.0}, {"lat": 38.912201, "is_disabled": 0, "type": "electric_scooter", "lon": -77.027186, "bike_id": "29c9717154528292d25e35c87f37b02d", "fusion_lat": 0.0, "name": "29c9717154528292d25e35c87f37b02d", "is_reserved": 0, "rental_uris": {"android": "https://dc.lft.to/lastmile_qr_scan", "ios": "https://dc.lft.to/lastmile_qr_scan"}, "fusion_lon": 0.0}, {"lat": 38.92270116666667, "is_disabled": 0, "type": "electric_scooter", "lon": -77.03681116666667, "bike_id": "bf3f8d521a2a586fe28dcb57eec8dfb7", "fusion_lat": 0.0, "name": "bf3f8d521a2a586fe28dcb57eec8dfb7", "is_reserved": 0, "rental_uris": {"android": "https://dc.lft.to/lastmile_qr_scan", "ios": "https://dc.lft.to/lastmile_qr_scan"}, "fusion_lon": 0.0}, {"lat": 38.915770333333334, "is_disabled": 0, "type": "electric_scooter", "lon": -77.03201216666666, "bike_id": "2433ab3e6ecbccecc6aa7b969f411b99", "fusion_lat": 0.0, "name": "2433ab3e6ecbccecc6aa7b969f411b99", "is_reserved": 0, "rental_uris": {"android": "https://dc.lft.to/lastmile_qr_scan", "ios": "https://dc.lft.to/lastmile_qr_scan"}, "fusion_lon": 0.0}, {"lat": 38.9053005, "is_disabled": 0, "type": "electric_scooter", "lon": -76.98628533333333, "bike_id": "08be068fb07ec02bd6647189d1b0d54f", "fusion_lat": 0.0, "name": "08be068fb07ec02bd6647189d1b0d54f", "is_reserved": 0, "rental_uris": {"android": "https://dc.lft.to/lastmile_qr_scan", "ios": "https://dc.lft.to/lastmile_qr_scan"}, "fusion_lon": 0.0}, {"lat": 38.921858, "is_disabled": 0, "type": "electric_scooter", "lon": -77.04717233333334, "bike_id": "3cb557fd3f984acd48c3832aa6340a09", "fusion_lat": 0.0, "name": "3cb557fd3f984acd48c3832aa6340a09", "is_reserved": 0, "rental_uris": {"android": "https://dc.lft.to/lastmile_qr_scan", "ios": "https://dc.lft.to/lastmile_qr_scan"}, "fusion_lon": 0.0}, {"lat": 38.954079666666665, "is_disabled": 0, "type": "electric_scooter", "lon": -77.02752333333333, "bike_id": "714817638ad90f10c63e9c639deb6559", "fusion_lat": 0.0, "name": "714817638ad90f10c63e9c639deb6559", "is_reserved": 0, "rental_uris": {"android": "https://dc.lft.to/lastmile_qr_scan", "ios": "https://dc.lft.to/lastmile_qr_scan"}, "fusion_lon": 0.0}, {"lat": 38.86212316666666, "is_disabled": 0, "type": "electric_bike", "lon": -76.99782833333333, "bike_id": "edb5f0aa78fef88b0956094edabeeffa", "fusion_lat": 0.0, "name": "edb5f0aa78fef88b0956094edabeeffa", "is_reserved": 0, "rental_uris": {"android": "https://dc.lft.to/lastmile_qr_scan", "ios": "https://dc.lft.to/lastmile_qr_scan"}, "fusion_lon": 0.0}, {"lat": 38.90393433333333, "is_disabled": 0, "type": "electric_scooter", "lon": -77.0281145, "bike_id": "aa31373560a36718f15bed1d353baa0f", "fusion_lat": 0.0, "name": "aa31373560a36718f15bed1d353baa0f", "is_reserved": 0, "rental_uris": {"android": "https://dc.lft.to/lastmile_qr_scan", "ios": "https://dc.lft.to/lastmile_qr_scan"}, "fusion_lon": 0.0}, {"lat": 38.91545266666667, "is_disabled": 0, "type": "electric_scooter", "lon": -77.02204366666666, "bike_id": "2d672c70707dce23abdc9765bf3b00fc", "fusion_lat": 0.0, "name": "2d672c70707dce23abdc9765bf3b00fc", "is_reserved": 0, "rental_uris": {"android": "https://dc.lft.to/lastmile_qr_scan", "ios": "https://dc.lft.to/lastmile_qr_scan"}, "fusion_lon": 0.0}, {"lat": 38.8706675, "is_disabled": 0, "type": "electric_scooter", "lon": -77.00842433333334, "bike_id": "6a2f114af279ffa26ded1dcc7e27fa92", "fusion_lat": 0.0, "name": "6a2f114af279ffa26ded1dcc7e27fa92", "is_reserved": 0, "rental_uris": {"android": "https://dc.lft.to/lastmile_qr_scan", "ios": "https://dc.lft.to/lastmile_qr_scan"}, "fusion_lon": 0.0}, {"lat": 38.901724333333334, "is_disabled": 0, "type": "electric_scooter", "lon": -77.04837066666667, "bike_id": "2726f5c6db27a3f03f3dcc1917a2a9c6", "fusion_lat": 0.0, "name": "2726f5c6db27a3f03f3dcc1917a2a9c6", "is_reserved": 0, "rental_uris": {"android": "https://dc.lft.to/lastmile_qr_scan", "ios": "https://dc.lft.to/lastmile_qr_scan"}, "fusion_lon": 0.0}, {"lat": 38.931052333333334, "is_disabled": 0, "type": "electric_scooter", "lon": -77.024403, "bike_id": "d1b290eb33e41e34932ab684191f0b46", "fusion_lat": 0.0, "name": "d1b290eb33e41e34932ab684191f0b46", "is_reserved": 0, "rental_uris": {"android": "https://dc.lft.to/lastmile_qr_scan", "ios": "https://dc.lft.to/lastmile_qr_scan"}, "fusion_lon": 0.0}, {"lat": 38.91824583333333, "is_disabled": 0, "type": "electric_scooter", "lon": -77.03175533333334, "bike_id": "5dbd5b1ed65ad1d012960db37be4630b", "fusion_lat": 0.0, "name": "5dbd5b1ed65ad1d012960db37be4630b", "is_reserved": 0, "rental_uris": {"android": "https://dc.lft.to/lastmile_qr_scan", "ios": "https://dc.lft.to/lastmile_qr_scan"}, "fusion_lon": 0.0}, {"lat": 38.927531, "is_disabled": 0, "type": "electric_scooter", "lon": -76.99626, "bike_id": "fe94c9167cb457c2d54c6aeb692961fa", "fusion_lat": 0.0, "name": "fe94c9167cb457c2d54c6aeb692961fa", "is_reserved": 0, "rental_uris": {"android": "https://dc.lft.to/lastmile_qr_scan", "ios": "https://dc.lft.to/lastmile_qr_scan"}, "fusion_lon": 0.0}, {"lat": 38.87399766666667, "is_disabled": 0, "type": "electric_scooter", "lon": -77.014524, "bike_id": "eca7665fcbe98657fb57596c1afb4e3a", "fusion_lat": 0.0, "name": "eca7665fcbe98657fb57596c1afb4e3a", "is_reserved": 0, "rental_uris": {"android": "https://dc.lft.to/lastmile_qr_scan", "ios": "https://dc.lft.to/lastmile_qr_scan"}, "fusion_lon": 0.0}, {"lat": 38.96204866666667, "is_disabled": 0, "type": "electric_bike", "lon": -77.03514766666666, "bike_id": "c55a5015eb137d2c2b489991638894da", "fusion_lat": 0.0, "name": "c55a5015eb137d2c2b489991638894da", "is_reserved": 0, "rental_uris": {"android": "https://dc.lft.to/lastmile_qr_scan", "ios": "https://dc.lft.to/lastmile_qr_scan"}, "fusion_lon": 0.0}, {"lat": 38.872426, "is_disabled": 0, "type": "electric_scooter", "lon": -77.01200533333333, "bike_id": "eeb0face6a3f80c014d864f7587b9546", "fusion_lat": 0.0, "name": "eeb0face6a3f80c014d864f7587b9546", "is_reserved": 0, "rental_uris": {"android": "https://dc.lft.to/lastmile_qr_scan", "ios": "https://dc.lft.to/lastmile_qr_scan"}, "fusion_lon": 0.0}, {"lat": 38.926170166666665, "is_disabled": 0, "type": "electric_scooter", "lon": -77.0440855, "bike_id": "ef772446005aa9756aa6b739132f2599", "fusion_lat": 0.0, "name": "ef772446005aa9756aa6b739132f2599", "is_reserved": 0, "rental_uris": {"android": "https://dc.lft.to/lastmile_qr_scan", "ios": "https://dc.lft.to/lastmile_qr_scan"}, "fusion_lon": 0.0}, {"lat": 38.93741833333333, "is_disabled": 0, "type": "electric_scooter", "lon": -77.03499616666667, "bike_id": "36008754a48b91324b1442c6d4a7fee2", "fusion_lat": 0.0, "name": "36008754a48b91324b1442c6d4a7fee2", "is_reserved": 0, "rental_uris": {"android": "https://dc.lft.to/lastmile_qr_scan", "ios": "https://dc.lft.to/lastmile_qr_scan"}, "fusion_lon": 0.0}, {"lat": 38.90016466666667, "is_disabled": 0, "type": "electric_scooter", "lon": -77.0332995, "bike_id": "66ece9559dbc1a40737f96f14fa4d52c", "fusion_lat": 0.0, "name": "66ece9559dbc1a40737f96f14fa4d52c", "is_reserved": 0, "rental_uris": {"android": "https://dc.lft.to/lastmile_qr_scan", "ios": "https://dc.lft.to/lastmile_qr_scan"}, "fusion_lon": 0.0}, {"lat": 38.913741333333334, "is_disabled": 0, "type": "electric_scooter", "lon": -77.03209583333333, "bike_id": "c6f7e59997e09f151c4b198bc9c6ef6d", "fusion_lat": 0.0, "name": "c6f7e59997e09f151c4b198bc9c6ef6d", "is_reserved": 0, "rental_uris": {"android": "https://dc.lft.to/lastmile_qr_scan", "ios": "https://dc.lft.to/lastmile_qr_scan"}, "fusion_lon": 0.0}, {"lat": 38.9012985, "is_disabled": 0, "type": "electric_scooter", "lon": -77.00338116666667, "bike_id": "d5ad3a6f7ec684b35d0fe0528222bfa3", "fusion_lat": 0.0, "name": "d5ad3a6f7ec684b35d0fe0528222bfa3", "is_reserved": 0, "rental_uris": {"android": "https://dc.lft.to/lastmile_qr_scan", "ios": "https://dc.lft.to/lastmile_qr_scan"}, "fusion_lon": 0.0}, {"lat": 38.896073666666666, "is_disabled": 0, "type": "electric_scooter", "lon": -76.9565495, "bike_id": "b72dd590658a14770521bf29819593a5", "fusion_lat": 0.0, "name": "b72dd590658a14770521bf29819593a5", "is_reserved": 0, "rental_uris": {"android": "https://dc.lft.to/lastmile_qr_scan", "ios": "https://dc.lft.to/lastmile_qr_scan"}, "fusion_lon": 0.0}, {"lat": 38.949091333333335, "is_disabled": 0, "type": "electric_scooter", "lon": -77.06627433333334, "bike_id": "73636f87bec46d9c5d78289413cef346", "fusion_lat": 0.0, "name": "73636f87bec46d9c5d78289413cef346", "is_reserved": 0, "rental_uris": {"android": "https://dc.lft.to/lastmile_qr_scan", "ios": "https://dc.lft.to/lastmile_qr_scan"}, "fusion_lon": 0.0}, {"lat": 38.88636266666666, "is_disabled": 0, "type": "electric_scooter", "lon": -77.0228665, "bike_id": "f8ccc019be65e7ef279b8b86978d25fe", "fusion_lat": 0.0, "name": "f8ccc019be65e7ef279b8b86978d25fe", "is_reserved": 0, "rental_uris": {"android": "https://dc.lft.to/lastmile_qr_scan", "ios": "https://dc.lft.to/lastmile_qr_scan"}, "fusion_lon": 0.0}, {"lat": 38.91111883333333, "is_disabled": 0, "type": "electric_scooter", "lon": -77.0217705, "bike_id": "5b9d0dc650c8b683b98bba679195f931", "fusion_lat": 0.0, "name": "5b9d0dc650c8b683b98bba679195f931", "is_reserved": 0, "rental_uris": {"android": "https://dc.lft.to/lastmile_qr_scan", "ios": "https://dc.lft.to/lastmile_qr_scan"}, "fusion_lon": 0.0}, {"lat": 38.8838145, "is_disabled": 0, "type": "electric_scooter", "lon": -77.04611516666667, "bike_id": "45aa8514fb3cd3670472765cb57ca596", "fusion_lat": 0.0, "name": "45aa8514fb3cd3670472765cb57ca596", "is_reserved": 0, "rental_uris": {"android": "https://dc.lft.to/lastmile_qr_scan", "ios": "https://dc.lft.to/lastmile_qr_scan"}, "fusion_lon": 0.0}, {"lat": 38.92886433333334, "is_disabled": 0, "type": "electric_scooter", "lon": -77.038792, "bike_id": "a90f693502488672b48884063d07b86c", "fusion_lat": 0.0, "name": "a90f693502488672b48884063d07b86c", "is_reserved": 0, "rental_uris": {"android": "https://dc.lft.to/lastmile_qr_scan", "ios": "https://dc.lft.to/lastmile_qr_scan"}, "fusion_lon": 0.0}, {"lat": 38.85318133333333, "is_disabled": 0, "type": "electric_scooter", "lon": -76.98022466666667, "bike_id": "71787601245836f27fe7a6a9a67b2fbb", "fusion_lat": 0.0, "name": "71787601245836f27fe7a6a9a67b2fbb", "is_reserved": 0, "rental_uris": {"android": "https://dc.lft.to/lastmile_qr_scan", "ios": "https://dc.lft.to/lastmile_qr_scan"}, "fusion_lon": 0.0}, {"lat": 38.91788183333333, "is_disabled": 0, "type": "electric_bike", "lon": -76.971854, "bike_id": "4df159ff08d02ebe43a84bcf8d85f7bc", "fusion_lat": 0.0, "name": "4df159ff08d02ebe43a84bcf8d85f7bc", "is_reserved": 0, "rental_uris": {"android": "https://dc.lft.to/lastmile_qr_scan", "ios": "https://dc.lft.to/lastmile_qr_scan"}, "fusion_lon": 0.0}, {"lat": 38.872340333333334, "is_disabled": 0, "type": "electric_bike", "lon": -77.011773, "bike_id": "4991558f7c07fe3bafa63ca432658fa0", "fusion_lat": 0.0, "name": "4991558f7c07fe3bafa63ca432658fa0", "is_reserved": 0, "rental_uris": {"android": "https://dc.lft.to/lastmile_qr_scan", "ios": "https://dc.lft.to/lastmile_qr_scan"}, "fusion_lon": 0.0}, {"lat": 38.86167233333333, "is_disabled": 0, "type": "electric_bike", "lon": -77.13143133333334, "bike_id": "8bf62a1b6cd33d2c23bf6e170db48755", "fusion_lat": 0.0, "name": "8bf62a1b6cd33d2c23bf6e170db48755", "is_reserved": 0, "rental_uris": {"android": "https://dc.lft.to/lastmile_qr_scan", "ios": "https://dc.lft.to/lastmile_qr_scan"}, "fusion_lon": 0.0}, {"lat": 38.90722983333333, "is_disabled": 0, "type": "electric_scooter", "lon": -76.99817633333333, "bike_id": "64180bb57c33e0e55f8dba06f0167529", "fusion_lat": 0.0, "name": "64180bb57c33e0e55f8dba06f0167529", "is_reserved": 0, "rental_uris": {"android": "https://dc.lft.to/lastmile_qr_scan", "ios": "https://dc.lft.to/lastmile_qr_scan"}, "fusion_lon": 0.0}, {"lat": 38.902368333333335, "is_disabled": 0, "type": "electric_scooter", "lon": -77.02693383333333, "bike_id": "70663b7ebcde13fa6e5e6638c42cef75", "fusion_lat": 0.0, "name": "70663b7ebcde13fa6e5e6638c42cef75", "is_reserved": 0, "rental_uris": {"android": "https://dc.lft.to/lastmile_qr_scan", "ios": "https://dc.lft.to/lastmile_qr_scan"}, "fusion_lon": 0.0}, {"lat": 38.937029, "is_disabled": 0, "type": "electric_bike", "lon": -77.02984333333333, "bike_id": "4f6e3946d11dfd77c87464011d5d7201", "fusion_lat": 0.0, "name": "4f6e3946d11dfd77c87464011d5d7201", "is_reserved": 0, "rental_uris": {"android": "https://dc.lft.to/lastmile_qr_scan", "ios": "https://dc.lft.to/lastmile_qr_scan"}, "fusion_lon": 0.0}, {"lat": 38.950956, "is_disabled": 0, "type": "electric_scooter", "lon": -77.02336466666667, "bike_id": "400b05c0201dc29a9d918abbe0007da9", "fusion_lat": 0.0, "name": "400b05c0201dc29a9d918abbe0007da9", "is_reserved": 0, "rental_uris": {"android": "https://dc.lft.to/lastmile_qr_scan", "ios": "https://dc.lft.to/lastmile_qr_scan"}, "fusion_lon": 0.0}, {"lat": 38.910117666666665, "is_disabled": 0, "type": "electric_scooter", "lon": -77.0889825, "bike_id": "377bac2cf6f91398a56a3d6cd446ec65", "fusion_lat": 0.0, "name": "377bac2cf6f91398a56a3d6cd446ec65", "is_reserved": 0, "rental_uris": {"android": "https://dc.lft.to/lastmile_qr_scan", "ios": "https://dc.lft.to/lastmile_qr_scan"}, "fusion_lon": 0.0}, {"lat": 38.921626333333336, "is_disabled": 0, "type": "electric_scooter", "lon": -77.03393816666667, "bike_id": "352eec09b8de35c00a255d5dae100562", "fusion_lat": 0.0, "name": "352eec09b8de35c00a255d5dae100562", "is_reserved": 0, "rental_uris": {"android": "https://dc.lft.to/lastmile_qr_scan", "ios": "https://dc.lft.to/lastmile_qr_scan"}, "fusion_lon": 0.0}, {"lat": 38.9009655, "is_disabled": 0, "type": "electric_scooter", "lon": -77.003666, "bike_id": "4047c8320b91c7576d1a95787e866cff", "fusion_lat": 0.0, "name": "4047c8320b91c7576d1a95787e866cff", "is_reserved": 0, "rental_uris": {"android": "https://dc.lft.to/lastmile_qr_scan", "ios": "https://dc.lft.to/lastmile_qr_scan"}, "fusion_lon": 0.0}, {"lat": 38.88213183333333, "is_disabled": 0, "type": "electric_scooter", "lon": -76.99043366666666, "bike_id": "4d2dc809849e642d6ccfd1ffc94e0f75", "fusion_lat": 0.0, "name": "4d2dc809849e642d6ccfd1ffc94e0f75", "is_reserved": 0, "rental_uris": {"android": "https://dc.lft.to/lastmile_qr_scan", "ios": "https://dc.lft.to/lastmile_qr_scan"}, "fusion_lon": 0.0}, {"lat": 38.89675366666667, "is_disabled": 0, "type": "electric_scooter", "lon": -77.00517333333333, "bike_id": "db89c62faa29b3bdc5b330affc74df2f", "fusion_lat": 0.0, "name": "db89c62faa29b3bdc5b330affc74df2f", "is_reserved": 0, "rental_uris": {"android": "https://dc.lft.to/lastmile_qr_scan", "ios": "https://dc.lft.to/lastmile_qr_scan"}, "fusion_lon": 0.0}, {"lat": 38.892292166666664, "is_disabled": 0, "type": "electric_scooter", "lon": -77.02784416666667, "bike_id": "79f8917f6aa11a6fd1117faa53d062ab", "fusion_lat": 0.0, "name": "79f8917f6aa11a6fd1117faa53d062ab", "is_reserved": 0, "rental_uris": {"android": "https://dc.lft.to/lastmile_qr_scan", "ios": "https://dc.lft.to/lastmile_qr_scan"}, "fusion_lon": 0.0}, {"lat": 38.92915383333333, "is_disabled": 0, "type": "electric_scooter", "lon": -77.031894, "bike_id": "5c00ee982255b25c787b7a3825e55c2d", "fusion_lat": 0.0, "name": "5c00ee982255b25c787b7a3825e55c2d", "is_reserved": 0, "rental_uris": {"android": "https://dc.lft.to/lastmile_qr_scan", "ios": "https://dc.lft.to/lastmile_qr_scan"}, "fusion_lon": 0.0}, {"lat": 38.909461666666665, "is_disabled": 0, "type": "electric_scooter", "lon": -77.04294583333333, "bike_id": "b2686bee85c8a969a1eea3f3926cece8", "fusion_lat": 0.0, "name": "b2686bee85c8a969a1eea3f3926cece8", "is_reserved": 0, "rental_uris": {"android": "https://dc.lft.to/lastmile_qr_scan", "ios": "https://dc.lft.to/lastmile_qr_scan"}, "fusion_lon": 0.0}, {"lat": 38.86959983333333, "is_disabled": 0, "type": "electric_bike", "lon": -77.01082916666667, "bike_id": "c923a1734f9036fc117a2b731dd47f8e", "fusion_lat": 0.0, "name": "c923a1734f9036fc117a2b731dd47f8e", "is_reserved": 0, "rental_uris": {"android": "https://dc.lft.to/lastmile_qr_scan", "ios": "https://dc.lft.to/lastmile_qr_scan"}, "fusion_lon": 0.0}, {"lat": 38.923136166666666, "is_disabled": 0, "type": "electric_scooter", "lon": -77.02261483333334, "bike_id": "7d6144851a430894c7dfa4b038529140", "fusion_lat": 0.0, "name": "7d6144851a430894c7dfa4b038529140", "is_reserved": 0, "rental_uris": {"android": "https://dc.lft.to/lastmile_qr_scan", "ios": "https://dc.lft.to/lastmile_qr_scan"}, "fusion_lon": 0.0}, {"lat": 38.90405633333334, "is_disabled": 0, "type": "electric_scooter", "lon": -76.99295766666667, "bike_id": "0b2f4a72d39242d2612e4f22285c8e44", "fusion_lat": 0.0, "name": "0b2f4a72d39242d2612e4f22285c8e44", "is_reserved": 0, "rental_uris": {"android": "https://dc.lft.to/lastmile_qr_scan", "ios": "https://dc.lft.to/lastmile_qr_scan"}, "fusion_lon": 0.0}, {"lat": 38.920569, "is_disabled": 0, "type": "electric_scooter", "lon": -77.03398333333334, "bike_id": "2d5eecf674d9b4b6cbb471d1d0a2bee0", "fusion_lat": 0.0, "name": "2d5eecf674d9b4b6cbb471d1d0a2bee0", "is_reserved": 0, "rental_uris": {"android": "https://dc.lft.to/lastmile_qr_scan", "ios": "https://dc.lft.to/lastmile_qr_scan"}, "fusion_lon": 0.0}, {"lat": 38.89898866666667, "is_disabled": 0, "type": "electric_scooter", "lon": -76.9842625, "bike_id": "9750b0fcd75f928e3ced8087ea2660ec", "fusion_lat": 0.0, "name": "9750b0fcd75f928e3ced8087ea2660ec", "is_reserved": 0, "rental_uris": {"android": "https://dc.lft.to/lastmile_qr_scan", "ios": "https://dc.lft.to/lastmile_qr_scan"}, "fusion_lon": 0.0}, {"lat": 38.903749833333336, "is_disabled": 0, "type": "electric_scooter", "lon": -77.0579825, "bike_id": "c917e65cc0d9fdc60ba10f07ec77c215", "fusion_lat": 0.0, "name": "c917e65cc0d9fdc60ba10f07ec77c215", "is_reserved": 0, "rental_uris": {"android": "https://dc.lft.to/lastmile_qr_scan", "ios": "https://dc.lft.to/lastmile_qr_scan"}, "fusion_lon": 0.0}, {"lat": 38.95872966666667, "is_disabled": 0, "type": "electric_bike", "lon": -77.0014055, "bike_id": "98d93c51a21d0eae772b9138ae4ea8a0", "fusion_lat": 0.0, "name": "98d93c51a21d0eae772b9138ae4ea8a0", "is_reserved": 0, "rental_uris": {"android": "https://dc.lft.to/lastmile_qr_scan", "ios": "https://dc.lft.to/lastmile_qr_scan"}, "fusion_lon": 0.0}, {"lat": 38.8974315, "is_disabled": 0, "type": "electric_scooter", "lon": -76.9472775, "bike_id": "fe2edc74c1c2bdc42f992f8c807c6f73", "fusion_lat": 0.0, "name": "fe2edc74c1c2bdc42f992f8c807c6f73", "is_reserved": 0, "rental_uris": {"android": "https://dc.lft.to/lastmile_qr_scan", "ios": "https://dc.lft.to/lastmile_qr_scan"}, "fusion_lon": 0.0}, {"lat": 38.902145833333336, "is_disabled": 0, "type": "electric_scooter", "lon": -77.02320316666666, "bike_id": "909b060094c9c5177aa8fa40a747d18b", "fusion_lat": 0.0, "name": "909b060094c9c5177aa8fa40a747d18b", "is_reserved": 0, "rental_uris": {"android": "https://dc.lft.to/lastmile_qr_scan", "ios": "https://dc.lft.to/lastmile_qr_scan"}, "fusion_lon": 0.0}, {"lat": 38.91412716666667, "is_disabled": 0, "type": "electric_scooter", "lon": -77.035267, "bike_id": "1db4bb04b27871e03bc20c4483d904fb", "fusion_lat": 0.0, "name": "1db4bb04b27871e03bc20c4483d904fb", "is_reserved": 0, "rental_uris": {"android": "https://dc.lft.to/lastmile_qr_scan", "ios": "https://dc.lft.to/lastmile_qr_scan"}, "fusion_lon": 0.0}, {"lat": 38.91693933333333, "is_disabled": 0, "type": "electric_scooter", "lon": -77.030892, "bike_id": "d34c46c7bd8f2539f11bc9db387d7176", "fusion_lat": 0.0, "name": "d34c46c7bd8f2539f11bc9db387d7176", "is_reserved": 0, "rental_uris": {"android": "https://dc.lft.to/lastmile_qr_scan", "ios": "https://dc.lft.to/lastmile_qr_scan"}, "fusion_lon": 0.0}, {"lat": 38.83673666666667, "is_disabled": 0, "type": "electric_scooter", "lon": -77.0056875, "bike_id": "67f59f589d4e2d0d0eb6a335b75b222f", "fusion_lat": 0.0, "name": "67f59f589d4e2d0d0eb6a335b75b222f", "is_reserved": 0, "rental_uris": {"android": "https://dc.lft.to/lastmile_qr_scan", "ios": "https://dc.lft.to/lastmile_qr_scan"}, "fusion_lon": 0.0}, {"lat": 38.91921266666667, "is_disabled": 0, "type": "electric_scooter", "lon": -77.01345366666666, "bike_id": "ffedd58b44b5f015f52566ad82ea2119", "fusion_lat": 0.0, "name": "ffedd58b44b5f015f52566ad82ea2119", "is_reserved": 0, "rental_uris": {"android": "https://dc.lft.to/lastmile_qr_scan", "ios": "https://dc.lft.to/lastmile_qr_scan"}, "fusion_lon": 0.0}, {"lat": 38.90597783333333, "is_disabled": 0, "type": "electric_scooter", "lon": -77.062992, "bike_id": "237a76aca6722f4a284705ea255144e2", "fusion_lat": 0.0, "name": "237a76aca6722f4a284705ea255144e2", "is_reserved": 0, "rental_uris": {"android": "https://dc.lft.to/lastmile_qr_scan", "ios": "https://dc.lft.to/lastmile_qr_scan"}, "fusion_lon": 0.0}, {"lat": 38.934982833333336, "is_disabled": 0, "type": "electric_scooter", "lon": -77.05803333333333, "bike_id": "aaead29a0d20c739f2239653053ce14b", "fusion_lat": 0.0, "name": "aaead29a0d20c739f2239653053ce14b", "is_reserved": 0, "rental_uris": {"android": "https://dc.lft.to/lastmile_qr_scan", "ios": "https://dc.lft.to/lastmile_qr_scan"}, "fusion_lon": 0.0}, {"lat": 38.8701275, "is_disabled": 0, "type": "electric_bike", "lon": -76.96027050000001, "bike_id": "d716b009eb333cd48fb60aa97e557d25", "fusion_lat": 0.0, "name": "d716b009eb333cd48fb60aa97e557d25", "is_reserved": 0, "rental_uris": {"android": "https://dc.lft.to/lastmile_qr_scan", "ios": "https://dc.lft.to/lastmile_qr_scan"}, "fusion_lon": 0.0}, {"lat": 38.9304135, "is_disabled": 0, "type": "electric_scooter", "lon": -77.0363855, "bike_id": "9af4b3f7f4a442cbaf53666c27b9b21f", "fusion_lat": 0.0, "name": "9af4b3f7f4a442cbaf53666c27b9b21f", "is_reserved": 0, "rental_uris": {"android": "https://dc.lft.to/lastmile_qr_scan", "ios": "https://dc.lft.to/lastmile_qr_scan"}, "fusion_lon": 0.0}, {"lat": 38.933158, "is_disabled": 0, "type": "electric_bike", "lon": -76.97188916666667, "bike_id": "8c5a51a982dba13993c46e51c1307244", "fusion_lat": 0.0, "name": "8c5a51a982dba13993c46e51c1307244", "is_reserved": 0, "rental_uris": {"android": "https://dc.lft.to/lastmile_qr_scan", "ios": "https://dc.lft.to/lastmile_qr_scan"}, "fusion_lon": 0.0}, {"lat": 38.908638, "is_disabled": 0, "type": "electric_scooter", "lon": -77.045852, "bike_id": "946a85c271b0f63014b263ed42687aad", "fusion_lat": 0.0, "name": "946a85c271b0f63014b263ed42687aad", "is_reserved": 0, "rental_uris": {"android": "https://dc.lft.to/lastmile_qr_scan", "ios": "https://dc.lft.to/lastmile_qr_scan"}, "fusion_lon": 0.0}, {"lat": 38.933453666666665, "is_disabled": 0, "type": "electric_scooter", "lon": -77.05707216666667, "bike_id": "6ff089cdd32da7bab900aaf23234454e", "fusion_lat": 0.0, "name": "6ff089cdd32da7bab900aaf23234454e", "is_reserved": 0, "rental_uris": {"android": "https://dc.lft.to/lastmile_qr_scan", "ios": "https://dc.lft.to/lastmile_qr_scan"}, "fusion_lon": 0.0}, {"lat": 38.8638695, "is_disabled": 0, "type": "electric_bike", "lon": -76.989931, "bike_id": "31ff8aed7340bb7c154890e32d33e12b", "fusion_lat": 0.0, "name": "31ff8aed7340bb7c154890e32d33e12b", "is_reserved": 0, "rental_uris": {"android": "https://dc.lft.to/lastmile_qr_scan", "ios": "https://dc.lft.to/lastmile_qr_scan"}, "fusion_lon": 0.0}, {"lat": 38.92288166666667, "is_disabled": 0, "type": "electric_scooter", "lon": -77.02429883333333, "bike_id": "a86e26b7afc534c6eb6d0630574d195c", "fusion_lat": 0.0, "name": "a86e26b7afc534c6eb6d0630574d195c", "is_reserved": 0, "rental_uris": {"android": "https://dc.lft.to/lastmile_qr_scan", "ios": "https://dc.lft.to/lastmile_qr_scan"}, "fusion_lon": 0.0}, {"lat": 38.90144733333333, "is_disabled": 0, "type": "electric_scooter", "lon": -77.04162316666667, "bike_id": "688acb033dff1b3db33b873a73adbc0d", "fusion_lat": 0.0, "name": "688acb033dff1b3db33b873a73adbc0d", "is_reserved": 0, "rental_uris": {"android": "https://dc.lft.to/lastmile_qr_scan", "ios": "https://dc.lft.to/lastmile_qr_scan"}, "fusion_lon": 0.0}, {"lat": 38.951884166666666, "is_disabled": 0, "type": "electric_bike", "lon": -76.9672385, "bike_id": "de6d8570a450a6ad26a43a1e8935d967", "fusion_lat": 0.0, "name": "de6d8570a450a6ad26a43a1e8935d967", "is_reserved": 0, "rental_uris": {"android": "https://dc.lft.to/lastmile_qr_scan", "ios": "https://dc.lft.to/lastmile_qr_scan"}, "fusion_lon": 0.0}, {"lat": 38.90351233333333, "is_disabled": 0, "type": "electric_scooter", "lon": -77.01094816666667, "bike_id": "719402f75ac98ccda2bd20b6814ca3f9", "fusion_lat": 0.0, "name": "719402f75ac98ccda2bd20b6814ca3f9", "is_reserved": 0, "rental_uris": {"android": "https://dc.lft.to/lastmile_qr_scan", "ios": "https://dc.lft.to/lastmile_qr_scan"}, "fusion_lon": 0.0}, {"lat": 38.8622925, "is_disabled": 0, "type": "electric_scooter", "lon": -76.99553883333333, "bike_id": "4db7d4102b0cf30c9587c66997091547", "fusion_lat": 0.0, "name": "4db7d4102b0cf30c9587c66997091547", "is_reserved": 0, "rental_uris": {"android": "https://dc.lft.to/lastmile_qr_scan", "ios": "https://dc.lft.to/lastmile_qr_scan"}, "fusion_lon": 0.0}, {"lat": 38.906896333333336, "is_disabled": 0, "type": "electric_scooter", "lon": -77.06354566666667, "bike_id": "379e88d9ac65c492b64a230fa5498c33", "fusion_lat": 0.0, "name": "379e88d9ac65c492b64a230fa5498c33", "is_reserved": 0, "rental_uris": {"android": "https://dc.lft.to/lastmile_qr_scan", "ios": "https://dc.lft.to/lastmile_qr_scan"}, "fusion_lon": 0.0}, {"lat": 38.9279795, "is_disabled": 0, "type": "electric_scooter", "lon": -77.05531283333333, "bike_id": "8f7714bd1cf6223f6670e2e8148732ed", "fusion_lat": 0.0, "name": "8f7714bd1cf6223f6670e2e8148732ed", "is_reserved": 0, "rental_uris": {"android": "https://dc.lft.to/lastmile_qr_scan", "ios": "https://dc.lft.to/lastmile_qr_scan"}, "fusion_lon": 0.0}, {"lat": 38.8923255, "is_disabled": 0, "type": "electric_scooter", "lon": -77.05007166666667, "bike_id": "6cac5385a8dbb8d20097becc541d0b1d", "fusion_lat": 0.0, "name": "6cac5385a8dbb8d20097becc541d0b1d", "is_reserved": 0, "rental_uris": {"android": "https://dc.lft.to/lastmile_qr_scan", "ios": "https://dc.lft.to/lastmile_qr_scan"}, "fusion_lon": 0.0}, {"lat": 38.89227183333333, "is_disabled": 0, "type": "electric_bike", "lon": -77.03328716666667, "bike_id": "829d4b570665c050b1c0c707e6111f4c", "fusion_lat": 0.0, "name": "829d4b570665c050b1c0c707e6111f4c", "is_reserved": 0, "rental_uris": {"android": "https://dc.lft.to/lastmile_qr_scan", "ios": "https://dc.lft.to/lastmile_qr_scan"}, "fusion_lon": 0.0}, {"lat": 38.853209, "is_disabled": 0, "type": "electric_bike", "lon": -76.98009516666667, "bike_id": "815ec6d6616989d0e26bda4c85e497af", "fusion_lat": 0.0, "name": "815ec6d6616989d0e26bda4c85e497af", "is_reserved": 0, "rental_uris": {"android": "https://dc.lft.to/lastmile_qr_scan", "ios": "https://dc.lft.to/lastmile_qr_scan"}, "fusion_lon": 0.0}, {"lat": 39.00005216666667, "is_disabled": 0, "type": "electric_bike", "lon": -76.91078366666666, "bike_id": "b2e43b4eb2f62bee78d3166720c0dd82", "fusion_lat": 0.0, "name": "b2e43b4eb2f62bee78d3166720c0dd82", "is_reserved": 0, "rental_uris": {"android": "https://dc.lft.to/lastmile_qr_scan", "ios": "https://dc.lft.to/lastmile_qr_scan"}, "fusion_lon": 0.0}, {"lat": 38.9398475, "is_disabled": 0, "type": "electric_scooter", "lon": -77.02962116666667, "bike_id": "fd3efaff8fbf4fbd6e15089f5c92c5c2", "fusion_lat": 0.0, "name": "fd3efaff8fbf4fbd6e15089f5c92c5c2", "is_reserved": 0, "rental_uris": {"android": "https://dc.lft.to/lastmile_qr_scan", "ios": "https://dc.lft.to/lastmile_qr_scan"}, "fusion_lon": 0.0}, {"lat": 38.885165, "is_disabled": 0, "type": "electric_scooter", "lon": -77.01070216666666, "bike_id": "26bcbaf847442adaf7a74a0fde082eda", "fusion_lat": 0.0, "name": "26bcbaf847442adaf7a74a0fde082eda", "is_reserved": 0, "rental_uris": {"android": "https://dc.lft.to/lastmile_qr_scan", "ios": "https://dc.lft.to/lastmile_qr_scan"}, "fusion_lon": 0.0}, {"lat": 38.86627083333333, "is_disabled": 0, "type": "electric_scooter", "lon": -76.9866145, "bike_id": "b8725038c0e730d4d2164db5a5291ddc", "fusion_lat": 0.0, "name": "b8725038c0e730d4d2164db5a5291ddc", "is_reserved": 0, "rental_uris": {"android": "https://dc.lft.to/lastmile_qr_scan", "ios": "https://dc.lft.to/lastmile_qr_scan"}, "fusion_lon": 0.0}, {"lat": 38.909561333333336, "is_disabled": 0, "type": "electric_scooter", "lon": -77.04826233333333, "bike_id": "4e2d352cdba5967b9f3d023259f0ee35", "fusion_lat": 0.0, "name": "4e2d352cdba5967b9f3d023259f0ee35", "is_reserved": 0, "rental_uris": {"android": "https://dc.lft.to/lastmile_qr_scan", "ios": "https://dc.lft.to/lastmile_qr_scan"}, "fusion_lon": 0.0}, {"lat": 38.84594533333333, "is_disabled": 0, "type": "electric_bike", "lon": -77.07684366666666, "bike_id": "a213e5173bd0ac173961e4c59464410c", "fusion_lat": 0.0, "name": "a213e5173bd0ac173961e4c59464410c", "is_reserved": 0, "rental_uris": {"android": "https://dc.lft.to/lastmile_qr_scan", "ios": "https://dc.lft.to/lastmile_qr_scan"}, "fusion_lon": 0.0}, {"lat": 38.906361833333335, "is_disabled": 0, "type": "electric_scooter", "lon": -77.01376783333333, "bike_id": "0b39242f9f2d50fff6acb601c354eb24", "fusion_lat": 0.0, "name": "0b39242f9f2d50fff6acb601c354eb24", "is_reserved": 0, "rental_uris": {"android": "https://dc.lft.to/lastmile_qr_scan", "ios": "https://dc.lft.to/lastmile_qr_scan"}, "fusion_lon": 0.0}, {"lat": 38.90581566666667, "is_disabled": 0, "type": "electric_scooter", "lon": -77.04693433333334, "bike_id": "2d2f63c00ff0e7d552810a5ec8f62e9d", "fusion_lat": 0.0, "name": "2d2f63c00ff0e7d552810a5ec8f62e9d", "is_reserved": 0, "rental_uris": {"android": "https://dc.lft.to/lastmile_qr_scan", "ios": "https://dc.lft.to/lastmile_qr_scan"}, "fusion_lon": 0.0}, {"lat": 38.892539, "is_disabled": 0, "type": "electric_scooter", "lon": -77.0220815, "bike_id": "de97fb27bf25e0912c91870546e7ee4a", "fusion_lat": 0.0, "name": "de97fb27bf25e0912c91870546e7ee4a", "is_reserved": 0, "rental_uris": {"android": "https://dc.lft.to/lastmile_qr_scan", "ios": "https://dc.lft.to/lastmile_qr_scan"}, "fusion_lon": 0.0}, {"lat": 38.884883, "is_disabled": 0, "type": "electric_scooter", "lon": -77.0071455, "bike_id": "56fcc97ee490899ffb1d4a1be7f5730a", "fusion_lat": 0.0, "name": "56fcc97ee490899ffb1d4a1be7f5730a", "is_reserved": 0, "rental_uris": {"android": "https://dc.lft.to/lastmile_qr_scan", "ios": "https://dc.lft.to/lastmile_qr_scan"}, "fusion_lon": 0.0}, {"lat": 38.814329666666666, "is_disabled": 0, "type": "electric_bike", "lon": -77.1189565, "bike_id": "81bc5df73a9d6674da8bc35f3f037ad3", "fusion_lat": 0.0, "name": "81bc5df73a9d6674da8bc35f3f037ad3", "is_reserved": 0, "rental_uris": {"android": "https://dc.lft.to/lastmile_qr_scan", "ios": "https://dc.lft.to/lastmile_qr_scan"}, "fusion_lon": 0.0}, {"lat": 38.8429275, "is_disabled": 0, "type": "electric_scooter", "lon": -76.99949733333334, "bike_id": "f90e83244025b5e402152319bd592acf", "fusion_lat": 0.0, "name": "f90e83244025b5e402152319bd592acf", "is_reserved": 0, "rental_uris": {"android": "https://dc.lft.to/lastmile_qr_scan", "ios": "https://dc.lft.to/lastmile_qr_scan"}, "fusion_lon": 0.0}, {"lat": 38.921552, "is_disabled": 0, "type": "electric_scooter", "lon": -77.035121, "bike_id": "6f8e3c0a7a954cadcd0ecc566ca81707", "fusion_lat": 0.0, "name": "6f8e3c0a7a954cadcd0ecc566ca81707", "is_reserved": 0, "rental_uris": {"android": "https://dc.lft.to/lastmile_qr_scan", "ios": "https://dc.lft.to/lastmile_qr_scan"}, "fusion_lon": 0.0}, {"lat": 38.920935, "is_disabled": 0, "type": "electric_scooter", "lon": -77.02180766666666, "bike_id": "85975f6d3324007d46305fadf339f569", "fusion_lat": 0.0, "name": "85975f6d3324007d46305fadf339f569", "is_reserved": 0, "rental_uris": {"android": "https://dc.lft.to/lastmile_qr_scan", "ios": "https://dc.lft.to/lastmile_qr_scan"}, "fusion_lon": 0.0}, {"lat": 38.9252945, "is_disabled": 0, "type": "electric_scooter", "lon": -77.007549, "bike_id": "aedac3e102d065877cd4115423f20899", "fusion_lat": 0.0, "name": "aedac3e102d065877cd4115423f20899", "is_reserved": 0, "rental_uris": {"android": "https://dc.lft.to/lastmile_qr_scan", "ios": "https://dc.lft.to/lastmile_qr_scan"}, "fusion_lon": 0.0}, {"lat": 38.99398683333333, "is_disabled": 0, "type": "electric_bike", "lon": -77.03169383333334, "bike_id": "2c45f2b846a8ce3de9c7fcb8ab25874a", "fusion_lat": 0.0, "name": "2c45f2b846a8ce3de9c7fcb8ab25874a", "is_reserved": 0, "rental_uris": {"android": "https://dc.lft.to/lastmile_qr_scan", "ios": "https://dc.lft.to/lastmile_qr_scan"}, "fusion_lon": 0.0}, {"lat": 38.92575083333333, "is_disabled": 0, "type": "electric_scooter", "lon": -76.98614883333333, "bike_id": "e19b6946c8246c3ef7c0b19ffca12c04", "fusion_lat": 0.0, "name": "e19b6946c8246c3ef7c0b19ffca12c04", "is_reserved": 0, "rental_uris": {"android": "https://dc.lft.to/lastmile_qr_scan", "ios": "https://dc.lft.to/lastmile_qr_scan"}, "fusion_lon": 0.0}, {"lat": 38.900654833333334, "is_disabled": 0, "type": "electric_scooter", "lon": -77.02208983333334, "bike_id": "ff4ed7674c4e26cc44022954b950bc8b", "fusion_lat": 0.0, "name": "ff4ed7674c4e26cc44022954b950bc8b", "is_reserved": 0, "rental_uris": {"android": "https://dc.lft.to/lastmile_qr_scan", "ios": "https://dc.lft.to/lastmile_qr_scan"}, "fusion_lon": 0.0}, {"lat": 38.88490083333333, "is_disabled": 0, "type": "electric_scooter", "lon": -77.0071205, "bike_id": "d6aa30287fc2f1c65fced92cf30cbc54", "fusion_lat": 0.0, "name": "d6aa30287fc2f1c65fced92cf30cbc54", "is_reserved": 0, "rental_uris": {"android": "https://dc.lft.to/lastmile_qr_scan", "ios": "https://dc.lft.to/lastmile_qr_scan"}, "fusion_lon": 0.0}, {"lat": 38.91776766666667, "is_disabled": 0, "type": "electric_scooter", "lon": -77.02311066666667, "bike_id": "f37e010c43a0848954fb20825e4c13e5", "fusion_lat": 0.0, "name": "f37e010c43a0848954fb20825e4c13e5", "is_reserved": 0, "rental_uris": {"android": "https://dc.lft.to/lastmile_qr_scan", "ios": "https://dc.lft.to/lastmile_qr_scan"}, "fusion_lon": 0.0}, {"lat": 38.906401, "is_disabled": 0, "type": "electric_scooter", "lon": -77.0465905, "bike_id": "78a36259c07333b2f60d9902ceb7a85f", "fusion_lat": 0.0, "name": "78a36259c07333b2f60d9902ceb7a85f", "is_reserved": 0, "rental_uris": {"android": "https://dc.lft.to/lastmile_qr_scan", "ios": "https://dc.lft.to/lastmile_qr_scan"}, "fusion_lon": 0.0}, {"lat": 38.90156533333333, "is_disabled": 0, "type": "electric_scooter", "lon": -76.98043183333333, "bike_id": "108072fd710c5d821d68983c87beac83", "fusion_lat": 0.0, "name": "108072fd710c5d821d68983c87beac83", "is_reserved": 0, "rental_uris": {"android": "https://dc.lft.to/lastmile_qr_scan", "ios": "https://dc.lft.to/lastmile_qr_scan"}, "fusion_lon": 0.0}, {"lat": 38.916691166666666, "is_disabled": 0, "type": "electric_scooter", "lon": -77.00664483333334, "bike_id": "d71172f991367a99c2cb80fff30bfc57", "fusion_lat": 0.0, "name": "d71172f991367a99c2cb80fff30bfc57", "is_reserved": 0, "rental_uris": {"android": "https://dc.lft.to/lastmile_qr_scan", "ios": "https://dc.lft.to/lastmile_qr_scan"}, "fusion_lon": 0.0}, {"lat": 38.945178166666665, "is_disabled": 0, "type": "electric_bike", "lon": -77.00684016666666, "bike_id": "b710854274e64c1ad32825546fdce6ff", "fusion_lat": 0.0, "name": "b710854274e64c1ad32825546fdce6ff", "is_reserved": 0, "rental_uris": {"android": "https://dc.lft.to/lastmile_qr_scan", "ios": "https://dc.lft.to/lastmile_qr_scan"}, "fusion_lon": 0.0}, {"lat": 38.92840116666667, "is_disabled": 0, "type": "electric_scooter", "lon": -76.99853966666667, "bike_id": "069ccd5fd08f452b90c9880cfc944666", "fusion_lat": 0.0, "name": "069ccd5fd08f452b90c9880cfc944666", "is_reserved": 0, "rental_uris": {"android": "https://dc.lft.to/lastmile_qr_scan", "ios": "https://dc.lft.to/lastmile_qr_scan"}, "fusion_lon": 0.0}, {"lat": 38.936154333333334, "is_disabled": 0, "type": "electric_scooter", "lon": -77.057565, "bike_id": "c932ba51a75594fcff0277b87433d6a7", "fusion_lat": 0.0, "name": "c932ba51a75594fcff0277b87433d6a7", "is_reserved": 0, "rental_uris": {"android": "https://dc.lft.to/lastmile_qr_scan", "ios": "https://dc.lft.to/lastmile_qr_scan"}, "fusion_lon": 0.0}, {"lat": 38.8997935, "is_disabled": 0, "type": "electric_scooter", "lon": -77.05242983333333, "bike_id": "03c28ba08e2ed9836e64f0150d332b3d", "fusion_lat": 0.0, "name": "03c28ba08e2ed9836e64f0150d332b3d", "is_reserved": 0, "rental_uris": {"android": "https://dc.lft.to/lastmile_qr_scan", "ios": "https://dc.lft.to/lastmile_qr_scan"}, "fusion_lon": 0.0}, {"lat": 38.925809666666666, "is_disabled": 0, "type": "electric_scooter", "lon": -77.0374505, "bike_id": "7550ef5cae77ee8857e8fb9122fa5db6", "fusion_lat": 0.0, "name": "7550ef5cae77ee8857e8fb9122fa5db6", "is_reserved": 0, "rental_uris": {"android": "https://dc.lft.to/lastmile_qr_scan", "ios": "https://dc.lft.to/lastmile_qr_scan"}, "fusion_lon": 0.0}, {"lat": 38.892223, "is_disabled": 0, "type": "electric_scooter", "lon": -77.0216535, "bike_id": "cfef934de8bfbacc39620f224ca33e5a", "fusion_lat": 0.0, "name": "cfef934de8bfbacc39620f224ca33e5a", "is_reserved": 0, "rental_uris": {"android": "https://dc.lft.to/lastmile_qr_scan", "ios": "https://dc.lft.to/lastmile_qr_scan"}, "fusion_lon": 0.0}, {"lat": 38.922938, "is_disabled": 0, "type": "electric_scooter", "lon": -77.02245483333333, "bike_id": "9d62766ecba5a716352b5880a7c98669", "fusion_lat": 0.0, "name": "9d62766ecba5a716352b5880a7c98669", "is_reserved": 0, "rental_uris": {"android": "https://dc.lft.to/lastmile_qr_scan", "ios": "https://dc.lft.to/lastmile_qr_scan"}, "fusion_lon": 0.0}, {"lat": 38.917781833333336, "is_disabled": 0, "type": "electric_scooter", "lon": -77.014636, "bike_id": "76dd59f9fcf8b369aa37a732ac42b9e5", "fusion_lat": 0.0, "name": "76dd59f9fcf8b369aa37a732ac42b9e5", "is_reserved": 0, "rental_uris": {"android": "https://dc.lft.to/lastmile_qr_scan", "ios": "https://dc.lft.to/lastmile_qr_scan"}, "fusion_lon": 0.0}, {"lat": 38.900211, "is_disabled": 0, "type": "electric_scooter", "lon": -77.0289015, "bike_id": "6a10c668c5550536a17a53c64a9030f2", "fusion_lat": 0.0, "name": "6a10c668c5550536a17a53c64a9030f2", "is_reserved": 0, "rental_uris": {"android": "https://dc.lft.to/lastmile_qr_scan", "ios": "https://dc.lft.to/lastmile_qr_scan"}, "fusion_lon": 0.0}, {"lat": 38.9129, "is_disabled": 0, "type": "electric_scooter", "lon": -77.04513666666666, "bike_id": "c90def4c990a76b35c80f6db9dd5e719", "fusion_lat": 0.0, "name": "c90def4c990a76b35c80f6db9dd5e719", "is_reserved": 0, "rental_uris": {"android": "https://dc.lft.to/lastmile_qr_scan", "ios": "https://dc.lft.to/lastmile_qr_scan"}, "fusion_lon": 0.0}, {"lat": 38.95496933333333, "is_disabled": 0, "type": "electric_scooter", "lon": -77.06564316666666, "bike_id": "09ffc326ab066c00c7aac60809dce0f6", "fusion_lat": 0.0, "name": "09ffc326ab066c00c7aac60809dce0f6", "is_reserved": 0, "rental_uris": {"android": "https://dc.lft.to/lastmile_qr_scan", "ios": "https://dc.lft.to/lastmile_qr_scan"}, "fusion_lon": 0.0}, {"lat": 38.91112716666667, "is_disabled": 0, "type": "electric_scooter", "lon": -77.02179433333333, "bike_id": "42b7d00388fdbd81574d8f5d72427430", "fusion_lat": 0.0, "name": "42b7d00388fdbd81574d8f5d72427430", "is_reserved": 0, "rental_uris": {"android": "https://dc.lft.to/lastmile_qr_scan", "ios": "https://dc.lft.to/lastmile_qr_scan"}, "fusion_lon": 0.0}, {"lat": 38.92889133333333, "is_disabled": 0, "type": "electric_scooter", "lon": -77.032491, "bike_id": "3cdc0c82c3303db64fdc662dbbf5b472", "fusion_lat": 0.0, "name": "3cdc0c82c3303db64fdc662dbbf5b472", "is_reserved": 0, "rental_uris": {"android": "https://dc.lft.to/lastmile_qr_scan", "ios": "https://dc.lft.to/lastmile_qr_scan"}, "fusion_lon": 0.0}, {"lat": 38.909678166666666, "is_disabled": 0, "type": "electric_scooter", "lon": -77.04517733333333, "bike_id": "efaae67f7a33c090ff6908d659b202f5", "fusion_lat": 0.0, "name": "efaae67f7a33c090ff6908d659b202f5", "is_reserved": 0, "rental_uris": {"android": "https://dc.lft.to/lastmile_qr_scan", "ios": "https://dc.lft.to/lastmile_qr_scan"}, "fusion_lon": 0.0}, {"lat": 39.0304995, "is_disabled": 0, "type": "electric_bike", "lon": -77.09484683333334, "bike_id": "7a68a69840648a99f77c1e5801c5395c", "fusion_lat": 0.0, "name": "7a68a69840648a99f77c1e5801c5395c", "is_reserved": 0, "rental_uris": {"android": "https://dc.lft.to/lastmile_qr_scan", "ios": "https://dc.lft.to/lastmile_qr_scan"}, "fusion_lon": 0.0}, {"lat": 38.936798, "is_disabled": 0, "type": "electric_scooter", "lon": -77.03574283333333, "bike_id": "531c3931a96ae03747070debd63976ad", "fusion_lat": 0.0, "name": "531c3931a96ae03747070debd63976ad", "is_reserved": 0, "rental_uris": {"android": "https://dc.lft.to/lastmile_qr_scan", "ios": "https://dc.lft.to/lastmile_qr_scan"}, "fusion_lon": 0.0}, {"lat": 38.89515266666667, "is_disabled": 0, "type": "electric_scooter", "lon": -77.04361716666666, "bike_id": "ba61bea7fcde6cb948dab1294d97a23b", "fusion_lat": 0.0, "name": "ba61bea7fcde6cb948dab1294d97a23b", "is_reserved": 0, "rental_uris": {"android": "https://dc.lft.to/lastmile_qr_scan", "ios": "https://dc.lft.to/lastmile_qr_scan"}, "fusion_lon": 0.0}, {"lat": 38.9232145, "is_disabled": 0, "type": "electric_scooter", "lon": -77.0390575, "bike_id": "46d1bf0caba7dc1f36c740edf4108d80", "fusion_lat": 0.0, "name": "46d1bf0caba7dc1f36c740edf4108d80", "is_reserved": 0, "rental_uris": {"android": "https://dc.lft.to/lastmile_qr_scan", "ios": "https://dc.lft.to/lastmile_qr_scan"}, "fusion_lon": 0.0}, {"lat": 38.91708166666667, "is_disabled": 0, "type": "electric_scooter", "lon": -77.03557716666667, "bike_id": "87afd070d85363b083816999a11aea3a", "fusion_lat": 0.0, "name": "87afd070d85363b083816999a11aea3a", "is_reserved": 0, "rental_uris": {"android": "https://dc.lft.to/lastmile_qr_scan", "ios": "https://dc.lft.to/lastmile_qr_scan"}, "fusion_lon": 0.0}, {"lat": 38.92199, "is_disabled": 0, "type": "electric_scooter", "lon": -77.04261183333334, "bike_id": "f6e6106d09d837d23c787e5d561ec79f", "fusion_lat": 0.0, "name": "f6e6106d09d837d23c787e5d561ec79f", "is_reserved": 0, "rental_uris": {"android": "https://dc.lft.to/lastmile_qr_scan", "ios": "https://dc.lft.to/lastmile_qr_scan"}, "fusion_lon": 0.0}, {"lat": 38.92874066666667, "is_disabled": 0, "type": "electric_bike", "lon": -77.03370816666667, "bike_id": "c7d1a319faebf97e9eb2ee43e33ba2c3", "fusion_lat": 0.0, "name": "c7d1a319faebf97e9eb2ee43e33ba2c3", "is_reserved": 0, "rental_uris": {"android": "https://dc.lft.to/lastmile_qr_scan", "ios": "https://dc.lft.to/lastmile_qr_scan"}, "fusion_lon": 0.0}, {"lat": 38.885145333333334, "is_disabled": 0, "type": "electric_scooter", "lon": -77.00570216666667, "bike_id": "c8235848db81a984ae9f74fc8f851055", "fusion_lat": 0.0, "name": "c8235848db81a984ae9f74fc8f851055", "is_reserved": 0, "rental_uris": {"android": "https://dc.lft.to/lastmile_qr_scan", "ios": "https://dc.lft.to/lastmile_qr_scan"}, "fusion_lon": 0.0}, {"lat": 38.911891, "is_disabled": 0, "type": "electric_scooter", "lon": -77.0384455, "bike_id": "a28936d1f8e0efabee7b50aacfa4c3c4", "fusion_lat": 0.0, "name": "a28936d1f8e0efabee7b50aacfa4c3c4", "is_reserved": 0, "rental_uris": {"android": "https://dc.lft.to/lastmile_qr_scan", "ios": "https://dc.lft.to/lastmile_qr_scan"}, "fusion_lon": 0.0}, {"lat": 38.89920766666667, "is_disabled": 0, "type": "electric_scooter", "lon": -77.0217405, "bike_id": "a2869d0fe0d0357a570e76ecbdb6ad24", "fusion_lat": 0.0, "name": "a2869d0fe0d0357a570e76ecbdb6ad24", "is_reserved": 0, "rental_uris": {"android": "https://dc.lft.to/lastmile_qr_scan", "ios": "https://dc.lft.to/lastmile_qr_scan"}, "fusion_lon": 0.0}, {"lat": 38.90728816666667, "is_disabled": 0, "type": "electric_scooter", "lon": -77.04829716666667, "bike_id": "39823bdf2e563775b873cd5f3ebc9439", "fusion_lat": 0.0, "name": "39823bdf2e563775b873cd5f3ebc9439", "is_reserved": 0, "rental_uris": {"android": "https://dc.lft.to/lastmile_qr_scan", "ios": "https://dc.lft.to/lastmile_qr_scan"}, "fusion_lon": 0.0}, {"lat": 38.91943166666667, "is_disabled": 0, "type": "electric_scooter", "lon": -77.02492583333333, "bike_id": "64bde5be5d04a0559b6d55e3ffddc851", "fusion_lat": 0.0, "name": "64bde5be5d04a0559b6d55e3ffddc851", "is_reserved": 0, "rental_uris": {"android": "https://dc.lft.to/lastmile_qr_scan", "ios": "https://dc.lft.to/lastmile_qr_scan"}, "fusion_lon": 0.0}, {"lat": 38.92185583333333, "is_disabled": 0, "type": "electric_scooter", "lon": -77.04233383333333, "bike_id": "6ec95e748533b03d98c0c83a15f91059", "fusion_lat": 0.0, "name": "6ec95e748533b03d98c0c83a15f91059", "is_reserved": 0, "rental_uris": {"android": "https://dc.lft.to/lastmile_qr_scan", "ios": "https://dc.lft.to/lastmile_qr_scan"}, "fusion_lon": 0.0}, {"lat": 38.8763885, "is_disabled": 0, "type": "electric_scooter", "lon": -76.99322016666666, "bike_id": "72f21126249cfb6cb1a58bd24e1a030c", "fusion_lat": 0.0, "name": "72f21126249cfb6cb1a58bd24e1a030c", "is_reserved": 0, "rental_uris": {"android": "https://dc.lft.to/lastmile_qr_scan", "ios": "https://dc.lft.to/lastmile_qr_scan"}, "fusion_lon": 0.0}, {"lat": 38.91768783333333, "is_disabled": 0, "type": "electric_scooter", "lon": -77.029079, "bike_id": "ad38d26e760a319cfb52a7eb5ee31b32", "fusion_lat": 0.0, "name": "ad38d26e760a319cfb52a7eb5ee31b32", "is_reserved": 0, "rental_uris": {"android": "https://dc.lft.to/lastmile_qr_scan", "ios": "https://dc.lft.to/lastmile_qr_scan"}, "fusion_lon": 0.0}, {"lat": 38.925953, "is_disabled": 0, "type": "electric_scooter", "lon": -77.02436, "bike_id": "d1fab5ba52823e469865a263a21f828f", "fusion_lat": 0.0, "name": "d1fab5ba52823e469865a263a21f828f", "is_reserved": 0, "rental_uris": {"android": "https://dc.lft.to/lastmile_qr_scan", "ios": "https://dc.lft.to/lastmile_qr_scan"}, "fusion_lon": 0.0}, {"lat": 38.90867766666667, "is_disabled": 0, "type": "electric_scooter", "lon": -77.02415516666667, "bike_id": "e9db65af43bc384f01011ab80bad797d", "fusion_lat": 0.0, "name": "e9db65af43bc384f01011ab80bad797d", "is_reserved": 0, "rental_uris": {"android": "https://dc.lft.to/lastmile_qr_scan", "ios": "https://dc.lft.to/lastmile_qr_scan"}, "fusion_lon": 0.0}, {"lat": 38.8819695, "is_disabled": 0, "type": "electric_scooter", "lon": -76.99509916666666, "bike_id": "8d66a9d46e73f2a1331dcf921283f963", "fusion_lat": 0.0, "name": "8d66a9d46e73f2a1331dcf921283f963", "is_reserved": 0, "rental_uris": {"android": "https://dc.lft.to/lastmile_qr_scan", "ios": "https://dc.lft.to/lastmile_qr_scan"}, "fusion_lon": 0.0}, {"lat": 38.916396, "is_disabled": 0, "type": "electric_scooter", "lon": -77.04631016666667, "bike_id": "de457481bff32b0a37d761b4db79e2e7", "fusion_lat": 0.0, "name": "de457481bff32b0a37d761b4db79e2e7", "is_reserved": 0, "rental_uris": {"android": "https://dc.lft.to/lastmile_qr_scan", "ios": "https://dc.lft.to/lastmile_qr_scan"}, "fusion_lon": 0.0}, {"lat": 38.9022415, "is_disabled": 0, "type": "electric_scooter", "lon": -77.04324783333334, "bike_id": "d1484f731ef2e5140eff18987f9ab322", "fusion_lat": 0.0, "name": "d1484f731ef2e5140eff18987f9ab322", "is_reserved": 0, "rental_uris": {"android": "https://dc.lft.to/lastmile_qr_scan", "ios": "https://dc.lft.to/lastmile_qr_scan"}, "fusion_lon": 0.0}, {"lat": 38.923022, "is_disabled": 0, "type": "electric_bike", "lon": -77.02355, "bike_id": "90671483226bb7a95dcc9e9d70ca075b", "fusion_lat": 0.0, "name": "90671483226bb7a95dcc9e9d70ca075b", "is_reserved": 0, "rental_uris": {"android": "https://dc.lft.to/lastmile_qr_scan", "ios": "https://dc.lft.to/lastmile_qr_scan"}, "fusion_lon": 0.0}, {"lat": 38.92854483333333, "is_disabled": 0, "type": "electric_bike", "lon": -77.22223533333333, "bike_id": "9bdaac1a0bd109a98f63e70165464ae9", "fusion_lat": 0.0, "name": "9bdaac1a0bd109a98f63e70165464ae9", "is_reserved": 0, "rental_uris": {"android": "https://dc.lft.to/lastmile_qr_scan", "ios": "https://dc.lft.to/lastmile_qr_scan"}, "fusion_lon": 0.0}, {"lat": 39.08855283333333, "is_disabled": 0, "type": "electric_bike", "lon": -77.17847216666667, "bike_id": "8c505b5c0c92d9eb81f88fbcd1a8ae3c", "fusion_lat": 0.0, "name": "8c505b5c0c92d9eb81f88fbcd1a8ae3c", "is_reserved": 0, "rental_uris": {"android": "https://dc.lft.to/lastmile_qr_scan", "ios": "https://dc.lft.to/lastmile_qr_scan"}, "fusion_lon": 0.0}, {"lat": 38.90320283333333, "is_disabled": 0, "type": "electric_scooter", "lon": -77.0289405, "bike_id": "6097c30123fd1998a33750a145bb0f75", "fusion_lat": 0.0, "name": "6097c30123fd1998a33750a145bb0f75", "is_reserved": 0, "rental_uris": {"android": "https://dc.lft.to/lastmile_qr_scan", "ios": "https://dc.lft.to/lastmile_qr_scan"}, "fusion_lon": 0.0}, {"lat": 38.896074, "is_disabled": 0, "type": "electric_scooter", "lon": -77.02927266666667, "bike_id": "8ee092fa6ab6246a7b9242b606fc38a7", "fusion_lat": 0.0, "name": "8ee092fa6ab6246a7b9242b606fc38a7", "is_reserved": 0, "rental_uris": {"android": "https://dc.lft.to/lastmile_qr_scan", "ios": "https://dc.lft.to/lastmile_qr_scan"}, "fusion_lon": 0.0}, {"lat": 38.93027983333333, "is_disabled": 0, "type": "electric_scooter", "lon": -77.0328245, "bike_id": "6eeebba67f14de8dba84142cadfaab69", "fusion_lat": 0.0, "name": "6eeebba67f14de8dba84142cadfaab69", "is_reserved": 0, "rental_uris": {"android": "https://dc.lft.to/lastmile_qr_scan", "ios": "https://dc.lft.to/lastmile_qr_scan"}, "fusion_lon": 0.0}, {"lat": 38.8923545, "is_disabled": 0, "type": "electric_scooter", "lon": -77.0337795, "bike_id": "dd44ebefdee7300d41aef499177e2fc9", "fusion_lat": 0.0, "name": "dd44ebefdee7300d41aef499177e2fc9", "is_reserved": 0, "rental_uris": {"android": "https://dc.lft.to/lastmile_qr_scan", "ios": "https://dc.lft.to/lastmile_qr_scan"}, "fusion_lon": 0.0}, {"lat": 38.886070833333335, "is_disabled": 0, "type": "electric_scooter", "lon": -77.0451345, "bike_id": "138b749064c5e8b9fe500809cec87aac", "fusion_lat": 0.0, "name": "138b749064c5e8b9fe500809cec87aac", "is_reserved": 0, "rental_uris": {"android": "https://dc.lft.to/lastmile_qr_scan", "ios": "https://dc.lft.to/lastmile_qr_scan"}, "fusion_lon": 0.0}, {"lat": 38.921067, "is_disabled": 0, "type": "electric_scooter", "lon": -77.04183733333333, "bike_id": "ca06a18c05a0918810b6ff077d3a36b4", "fusion_lat": 0.0, "name": "ca06a18c05a0918810b6ff077d3a36b4", "is_reserved": 0, "rental_uris": {"android": "https://dc.lft.to/lastmile_qr_scan", "ios": "https://dc.lft.to/lastmile_qr_scan"}, "fusion_lon": 0.0}, {"lat": 38.8863755, "is_disabled": 0, "type": "electric_scooter", "lon": -76.954965, "bike_id": "213208cfd3d091d3a2db733cfdc9915f", "fusion_lat": 0.0, "name": "213208cfd3d091d3a2db733cfdc9915f", "is_reserved": 0, "rental_uris": {"android": "https://dc.lft.to/lastmile_qr_scan", "ios": "https://dc.lft.to/lastmile_qr_scan"}, "fusion_lon": 0.0}, {"lat": 38.90638516666667, "is_disabled": 0, "type": "electric_scooter", "lon": -77.01420633333333, "bike_id": "5fae0ad060f5f58bb3c8d6f4b0ce09d3", "fusion_lat": 0.0, "name": "5fae0ad060f5f58bb3c8d6f4b0ce09d3", "is_reserved": 0, "rental_uris": {"android": "https://dc.lft.to/lastmile_qr_scan", "ios": "https://dc.lft.to/lastmile_qr_scan"}, "fusion_lon": 0.0}, {"lat": 38.91569966666667, "is_disabled": 0, "type": "electric_scooter", "lon": -77.05049066666666, "bike_id": "79fe0c658d4680ac7606f23e79007863", "fusion_lat": 0.0, "name": "79fe0c658d4680ac7606f23e79007863", "is_reserved": 0, "rental_uris": {"android": "https://dc.lft.to/lastmile_qr_scan", "ios": "https://dc.lft.to/lastmile_qr_scan"}, "fusion_lon": 0.0}, {"lat": 38.928425, "is_disabled": 0, "type": "electric_scooter", "lon": -77.0542455, "bike_id": "5beaf6d226113631a18be0ae4bb78449", "fusion_lat": 0.0, "name": "5beaf6d226113631a18be0ae4bb78449", "is_reserved": 0, "rental_uris": {"android": "https://dc.lft.to/lastmile_qr_scan", "ios": "https://dc.lft.to/lastmile_qr_scan"}, "fusion_lon": 0.0}, {"lat": 38.9266435, "is_disabled": 0, "type": "electric_scooter", "lon": -77.0147235, "bike_id": "0d840716d6e20d58d8d7f33f033c219d", "fusion_lat": 0.0, "name": "0d840716d6e20d58d8d7f33f033c219d", "is_reserved": 0, "rental_uris": {"android": "https://dc.lft.to/lastmile_qr_scan", "ios": "https://dc.lft.to/lastmile_qr_scan"}, "fusion_lon": 0.0}, {"lat": 38.91155583333333, "is_disabled": 0, "type": "electric_scooter", "lon": -77.0383885, "bike_id": "8e83bb0ec76644561ffe601c23cf35ef", "fusion_lat": 0.0, "name": "8e83bb0ec76644561ffe601c23cf35ef", "is_reserved": 0, "rental_uris": {"android": "https://dc.lft.to/lastmile_qr_scan", "ios": "https://dc.lft.to/lastmile_qr_scan"}, "fusion_lon": 0.0}, {"lat": 38.90481233333333, "is_disabled": 0, "type": "electric_scooter", "lon": -76.97327666666666, "bike_id": "33676bc329785fc5edc715e829f7ce24", "fusion_lat": 0.0, "name": "33676bc329785fc5edc715e829f7ce24", "is_reserved": 0, "rental_uris": {"android": "https://dc.lft.to/lastmile_qr_scan", "ios": "https://dc.lft.to/lastmile_qr_scan"}, "fusion_lon": 0.0}, {"lat": 38.922453, "is_disabled": 0, "type": "electric_scooter", "lon": -77.019349, "bike_id": "0588fe2aa93bd50113d0f521add55327", "fusion_lat": 0.0, "name": "0588fe2aa93bd50113d0f521add55327", "is_reserved": 0, "rental_uris": {"android": "https://dc.lft.to/lastmile_qr_scan", "ios": "https://dc.lft.to/lastmile_qr_scan"}, "fusion_lon": 0.0}, {"lat": 38.870767666666666, "is_disabled": 0, "type": "electric_scooter", "lon": -76.97972666666666, "bike_id": "390101c1cc5208418bd697b7c3970710", "fusion_lat": 0.0, "name": "390101c1cc5208418bd697b7c3970710", "is_reserved": 0, "rental_uris": {"android": "https://dc.lft.to/lastmile_qr_scan", "ios": "https://dc.lft.to/lastmile_qr_scan"}, "fusion_lon": 0.0}, {"lat": 38.943046333333335, "is_disabled": 0, "type": "electric_scooter", "lon": -77.06132866666667, "bike_id": "a4ab76abae9f75865478d3956677caad", "fusion_lat": 0.0, "name": "a4ab76abae9f75865478d3956677caad", "is_reserved": 0, "rental_uris": {"android": "https://dc.lft.to/lastmile_qr_scan", "ios": "https://dc.lft.to/lastmile_qr_scan"}, "fusion_lon": 0.0}, {"lat": 38.887650666666666, "is_disabled": 0, "type": "electric_scooter", "lon": -76.9960365, "bike_id": "4c93c9ff945ffea71c12da0e671e4cab", "fusion_lat": 0.0, "name": "4c93c9ff945ffea71c12da0e671e4cab", "is_reserved": 0, "rental_uris": {"android": "https://dc.lft.to/lastmile_qr_scan", "ios": "https://dc.lft.to/lastmile_qr_scan"}, "fusion_lon": 0.0}, {"lat": 38.894900166666666, "is_disabled": 0, "type": "electric_scooter", "lon": -77.00253866666667, "bike_id": "3918a41fac9434a41d8ee52397b7c0e5", "fusion_lat": 0.0, "name": "3918a41fac9434a41d8ee52397b7c0e5", "is_reserved": 0, "rental_uris": {"android": "https://dc.lft.to/lastmile_qr_scan", "ios": "https://dc.lft.to/lastmile_qr_scan"}, "fusion_lon": 0.0}, {"lat": 38.917115833333334, "is_disabled": 0, "type": "electric_scooter", "lon": -77.03472566666667, "bike_id": "e86f33c3c48ade740dffc1b1c733520f", "fusion_lat": 0.0, "name": "e86f33c3c48ade740dffc1b1c733520f", "is_reserved": 0, "rental_uris": {"android": "https://dc.lft.to/lastmile_qr_scan", "ios": "https://dc.lft.to/lastmile_qr_scan"}, "fusion_lon": 0.0}, {"lat": 38.9128265, "is_disabled": 0, "type": "electric_scooter", "lon": -77.0451235, "bike_id": "2f6e6e73c4d0259f811f819d4a8e433a", "fusion_lat": 0.0, "name": "2f6e6e73c4d0259f811f819d4a8e433a", "is_reserved": 0, "rental_uris": {"android": "https://dc.lft.to/lastmile_qr_scan", "ios": "https://dc.lft.to/lastmile_qr_scan"}, "fusion_lon": 0.0}, {"lat": 38.933499, "is_disabled": 0, "type": "electric_scooter", "lon": -77.05870066666667, "bike_id": "3612b371683abb40244b22b324f77bd8", "fusion_lat": 0.0, "name": "3612b371683abb40244b22b324f77bd8", "is_reserved": 0, "rental_uris": {"android": "https://dc.lft.to/lastmile_qr_scan", "ios": "https://dc.lft.to/lastmile_qr_scan"}, "fusion_lon": 0.0}, {"lat": 38.8665455, "is_disabled": 0, "type": "electric_scooter", "lon": -76.98889166666666, "bike_id": "449dd619619f5b053039b5efb074e239", "fusion_lat": 0.0, "name": "449dd619619f5b053039b5efb074e239", "is_reserved": 0, "rental_uris": {"android": "https://dc.lft.to/lastmile_qr_scan", "ios": "https://dc.lft.to/lastmile_qr_scan"}, "fusion_lon": 0.0}, {"lat": 38.89708433333333, "is_disabled": 0, "type": "electric_scooter", "lon": -77.007257, "bike_id": "fed336959820461a2181f9f56b0228e0", "fusion_lat": 0.0, "name": "fed336959820461a2181f9f56b0228e0", "is_reserved": 0, "rental_uris": {"android": "https://dc.lft.to/lastmile_qr_scan", "ios": "https://dc.lft.to/lastmile_qr_scan"}, "fusion_lon": 0.0}, {"lat": 38.923118833333334, "is_disabled": 0, "type": "electric_scooter", "lon": -77.0396585, "bike_id": "bb4786431e60ef0e6cc8950e5574ea34", "fusion_lat": 0.0, "name": "bb4786431e60ef0e6cc8950e5574ea34", "is_reserved": 0, "rental_uris": {"android": "https://dc.lft.to/lastmile_qr_scan", "ios": "https://dc.lft.to/lastmile_qr_scan"}, "fusion_lon": 0.0}, {"lat": 38.90569983333334, "is_disabled": 0, "type": "electric_scooter", "lon": -76.98874633333334, "bike_id": "78c624352539b29ef3a583f9df7da9a5", "fusion_lat": 0.0, "name": "78c624352539b29ef3a583f9df7da9a5", "is_reserved": 0, "rental_uris": {"android": "https://dc.lft.to/lastmile_qr_scan", "ios": "https://dc.lft.to/lastmile_qr_scan"}, "fusion_lon": 0.0}, {"lat": 38.924874, "is_disabled": 0, "type": "electric_scooter", "lon": -77.05215333333334, "bike_id": "80e6d87dc1d2c543a6a338783664c796", "fusion_lat": 0.0, "name": "80e6d87dc1d2c543a6a338783664c796", "is_reserved": 0, "rental_uris": {"android": "https://dc.lft.to/lastmile_qr_scan", "ios": "https://dc.lft.to/lastmile_qr_scan"}, "fusion_lon": 0.0}, {"lat": 38.907817, "is_disabled": 0, "type": "electric_scooter", "lon": -77.06927416666667, "bike_id": "5612a063cc2fc0bc2dceead28739b963", "fusion_lat": 0.0, "name": "5612a063cc2fc0bc2dceead28739b963", "is_reserved": 0, "rental_uris": {"android": "https://dc.lft.to/lastmile_qr_scan", "ios": "https://dc.lft.to/lastmile_qr_scan"}, "fusion_lon": 0.0}, {"lat": 38.91174616666667, "is_disabled": 0, "type": "electric_scooter", "lon": -77.0386665, "bike_id": "952bc318dc859a9978afd8ab131b0856", "fusion_lat": 0.0, "name": "952bc318dc859a9978afd8ab131b0856", "is_reserved": 0, "rental_uris": {"android": "https://dc.lft.to/lastmile_qr_scan", "ios": "https://dc.lft.to/lastmile_qr_scan"}, "fusion_lon": 0.0}, {"lat": 38.919494666666665, "is_disabled": 0, "type": "electric_scooter", "lon": -77.02496966666666, "bike_id": "5c4b3deac70c1a5a70779fe484096db9", "fusion_lat": 0.0, "name": "5c4b3deac70c1a5a70779fe484096db9", "is_reserved": 0, "rental_uris": {"android": "https://dc.lft.to/lastmile_qr_scan", "ios": "https://dc.lft.to/lastmile_qr_scan"}, "fusion_lon": 0.0}, {"lat": 38.892190666666664, "is_disabled": 0, "type": "electric_scooter", "lon": -77.02648266666667, "bike_id": "5e4c6e3698c9845bdc7b340dd224550c", "fusion_lat": 0.0, "name": "5e4c6e3698c9845bdc7b340dd224550c", "is_reserved": 0, "rental_uris": {"android": "https://dc.lft.to/lastmile_qr_scan", "ios": "https://dc.lft.to/lastmile_qr_scan"}, "fusion_lon": 0.0}, {"lat": 38.90869983333333, "is_disabled": 0, "type": "electric_scooter", "lon": -77.02407833333334, "bike_id": "60e2623eaad1f9c7bcba1c4974d9b196", "fusion_lat": 0.0, "name": "60e2623eaad1f9c7bcba1c4974d9b196", "is_reserved": 0, "rental_uris": {"android": "https://dc.lft.to/lastmile_qr_scan", "ios": "https://dc.lft.to/lastmile_qr_scan"}, "fusion_lon": 0.0}, {"lat": 38.903759, "is_disabled": 0, "type": "electric_scooter", "lon": -77.04838216666667, "bike_id": "35e70107eca38fd4062bdd0c5b7e54c7", "fusion_lat": 0.0, "name": "35e70107eca38fd4062bdd0c5b7e54c7", "is_reserved": 0, "rental_uris": {"android": "https://dc.lft.to/lastmile_qr_scan", "ios": "https://dc.lft.to/lastmile_qr_scan"}, "fusion_lon": 0.0}, {"lat": 38.910513, "is_disabled": 0, "type": "electric_scooter", "lon": -77.01527783333333, "bike_id": "78469ae6b8a2e12efbc9237f88de6202", "fusion_lat": 0.0, "name": "78469ae6b8a2e12efbc9237f88de6202", "is_reserved": 0, "rental_uris": {"android": "https://dc.lft.to/lastmile_qr_scan", "ios": "https://dc.lft.to/lastmile_qr_scan"}, "fusion_lon": 0.0}, {"lat": 38.90786333333333, "is_disabled": 0, "type": "electric_scooter", "lon": -77.00388466666666, "bike_id": "32c2fbb9320db9a98af155a69a81728a", "fusion_lat": 0.0, "name": "32c2fbb9320db9a98af155a69a81728a", "is_reserved": 0, "rental_uris": {"android": "https://dc.lft.to/lastmile_qr_scan", "ios": "https://dc.lft.to/lastmile_qr_scan"}, "fusion_lon": 0.0}, {"lat": 38.92623866666667, "is_disabled": 0, "type": "electric_scooter", "lon": -77.03781183333334, "bike_id": "3d270fdad10c416c052489fc7b307825", "fusion_lat": 0.0, "name": "3d270fdad10c416c052489fc7b307825", "is_reserved": 0, "rental_uris": {"android": "https://dc.lft.to/lastmile_qr_scan", "ios": "https://dc.lft.to/lastmile_qr_scan"}, "fusion_lon": 0.0}, {"lat": 38.87729616666667, "is_disabled": 0, "type": "electric_bike", "lon": -76.9810815, "bike_id": "96e73771fa91da618f4c33ad7fe2dc2b", "fusion_lat": 0.0, "name": "96e73771fa91da618f4c33ad7fe2dc2b", "is_reserved": 0, "rental_uris": {"android": "https://dc.lft.to/lastmile_qr_scan", "ios": "https://dc.lft.to/lastmile_qr_scan"}, "fusion_lon": 0.0}, {"lat": 38.87478083333333, "is_disabled": 0, "type": "electric_scooter", "lon": -77.01072916666666, "bike_id": "14def27cc89e8d90ce8c38f44a02f816", "fusion_lat": 0.0, "name": "14def27cc89e8d90ce8c38f44a02f816", "is_reserved": 0, "rental_uris": {"android": "https://dc.lft.to/lastmile_qr_scan", "ios": "https://dc.lft.to/lastmile_qr_scan"}, "fusion_lon": 0.0}, {"lat": 38.89945316666667, "is_disabled": 0, "type": "electric_scooter", "lon": -77.05169233333334, "bike_id": "e19852cb9eb7d1c9441381db5f781095", "fusion_lat": 0.0, "name": "e19852cb9eb7d1c9441381db5f781095", "is_reserved": 0, "rental_uris": {"android": "https://dc.lft.to/lastmile_qr_scan", "ios": "https://dc.lft.to/lastmile_qr_scan"}, "fusion_lon": 0.0}, {"lat": 38.91568016666667, "is_disabled": 0, "type": "electric_scooter", "lon": -77.033257, "bike_id": "f5e5567127000ef364205a97662fe5d1", "fusion_lat": 0.0, "name": "f5e5567127000ef364205a97662fe5d1", "is_reserved": 0, "rental_uris": {"android": "https://dc.lft.to/lastmile_qr_scan", "ios": "https://dc.lft.to/lastmile_qr_scan"}, "fusion_lon": 0.0}, {"lat": 38.92437533333333, "is_disabled": 0, "type": "electric_scooter", "lon": -77.04208216666666, "bike_id": "6c26a3ae7125fe2aad5c8f07a283546b", "fusion_lat": 0.0, "name": "6c26a3ae7125fe2aad5c8f07a283546b", "is_reserved": 0, "rental_uris": {"android": "https://dc.lft.to/lastmile_qr_scan", "ios": "https://dc.lft.to/lastmile_qr_scan"}, "fusion_lon": 0.0}, {"lat": 38.89233616666667, "is_disabled": 0, "type": "electric_scooter", "lon": -77.01768916666667, "bike_id": "346a165a2692d4ca8808a21ebedb7c3e", "fusion_lat": 0.0, "name": "346a165a2692d4ca8808a21ebedb7c3e", "is_reserved": 0, "rental_uris": {"android": "https://dc.lft.to/lastmile_qr_scan", "ios": "https://dc.lft.to/lastmile_qr_scan"}, "fusion_lon": 0.0}, {"lat": 38.90248966666667, "is_disabled": 0, "type": "electric_scooter", "lon": -77.02834433333334, "bike_id": "1ce6072058c5fe8566c0e9eb27ce4677", "fusion_lat": 0.0, "name": "1ce6072058c5fe8566c0e9eb27ce4677", "is_reserved": 0, "rental_uris": {"android": "https://dc.lft.to/lastmile_qr_scan", "ios": "https://dc.lft.to/lastmile_qr_scan"}, "fusion_lon": 0.0}, {"lat": 38.928362166666666, "is_disabled": 0, "type": "electric_scooter", "lon": -77.0372715, "bike_id": "a3b05bd79ac2411156738b5128e0eb5f", "fusion_lat": 0.0, "name": "a3b05bd79ac2411156738b5128e0eb5f", "is_reserved": 0, "rental_uris": {"android": "https://dc.lft.to/lastmile_qr_scan", "ios": "https://dc.lft.to/lastmile_qr_scan"}, "fusion_lon": 0.0}, {"lat": 38.961538166666664, "is_disabled": 0, "type": "electric_scooter", "lon": -77.02810533333333, "bike_id": "c638b3f5ebc28d5318c2f266b80234bc", "fusion_lat": 0.0, "name": "c638b3f5ebc28d5318c2f266b80234bc", "is_reserved": 0, "rental_uris": {"android": "https://dc.lft.to/lastmile_qr_scan", "ios": "https://dc.lft.to/lastmile_qr_scan"}, "fusion_lon": 0.0}, {"lat": 38.94181433333333, "is_disabled": 0, "type": "electric_bike", "lon": -77.02492116666667, "bike_id": "c224ab328b9c5bb17a0beb4b6226071c", "fusion_lat": 0.0, "name": "c224ab328b9c5bb17a0beb4b6226071c", "is_reserved": 0, "rental_uris": {"android": "https://dc.lft.to/lastmile_qr_scan", "ios": "https://dc.lft.to/lastmile_qr_scan"}, "fusion_lon": 0.0}, {"lat": 38.86619616666667, "is_disabled": 0, "type": "electric_scooter", "lon": -76.9866455, "bike_id": "71ae093de624505bd2f2709178df9739", "fusion_lat": 0.0, "name": "71ae093de624505bd2f2709178df9739", "is_reserved": 0, "rental_uris": {"android": "https://dc.lft.to/lastmile_qr_scan", "ios": "https://dc.lft.to/lastmile_qr_scan"}, "fusion_lon": 0.0}, {"lat": 38.91726533333333, "is_disabled": 0, "type": "electric_scooter", "lon": -77.02715533333334, "bike_id": "93940f2ea08c9c497528fe48dadef115", "fusion_lat": 0.0, "name": "93940f2ea08c9c497528fe48dadef115", "is_reserved": 0, "rental_uris": {"android": "https://dc.lft.to/lastmile_qr_scan", "ios": "https://dc.lft.to/lastmile_qr_scan"}, "fusion_lon": 0.0}, {"lat": 38.86223583333334, "is_disabled": 0, "type": "electric_scooter", "lon": -76.98370633333333, "bike_id": "2053253f63cd0d9b5e569fcd4f78cfcd", "fusion_lat": 0.0, "name": "2053253f63cd0d9b5e569fcd4f78cfcd", "is_reserved": 0, "rental_uris": {"android": "https://dc.lft.to/lastmile_qr_scan", "ios": "https://dc.lft.to/lastmile_qr_scan"}, "fusion_lon": 0.0}, {"lat": 38.90562216666667, "is_disabled": 0, "type": "electric_scooter", "lon": -77.05702083333334, "bike_id": "ee176f63d409e3996fdcc323be439871", "fusion_lat": 0.0, "name": "ee176f63d409e3996fdcc323be439871", "is_reserved": 0, "rental_uris": {"android": "https://dc.lft.to/lastmile_qr_scan", "ios": "https://dc.lft.to/lastmile_qr_scan"}, "fusion_lon": 0.0}, {"lat": 38.89091466666667, "is_disabled": 0, "type": "electric_scooter", "lon": -76.98682983333333, "bike_id": "e70f218562c838316f0781ce8d39488a", "fusion_lat": 0.0, "name": "e70f218562c838316f0781ce8d39488a", "is_reserved": 0, "rental_uris": {"android": "https://dc.lft.to/lastmile_qr_scan", "ios": "https://dc.lft.to/lastmile_qr_scan"}, "fusion_lon": 0.0}, {"lat": 38.921142, "is_disabled": 0, "type": "electric_scooter", "lon": -77.01803633333333, "bike_id": "2e580069f6031938af51905d1dfad2aa", "fusion_lat": 0.0, "name": "2e580069f6031938af51905d1dfad2aa", "is_reserved": 0, "rental_uris": {"android": "https://dc.lft.to/lastmile_qr_scan", "ios": "https://dc.lft.to/lastmile_qr_scan"}, "fusion_lon": 0.0}, {"lat": 38.88279633333333, "is_disabled": 0, "type": "electric_bike", "lon": -76.93240366666667, "bike_id": "ec74a6d3b1e32e53b8557df7cb7b5690", "fusion_lat": 0.0, "name": "ec74a6d3b1e32e53b8557df7cb7b5690", "is_reserved": 0, "rental_uris": {"android": "https://dc.lft.to/lastmile_qr_scan", "ios": "https://dc.lft.to/lastmile_qr_scan"}, "fusion_lon": 0.0}, {"lat": 38.91835233333333, "is_disabled": 0, "type": "electric_scooter", "lon": -77.023104, "bike_id": "0c8b02ee97479546f1e2d9ddda9ca0b3", "fusion_lat": 0.0, "name": "0c8b02ee97479546f1e2d9ddda9ca0b3", "is_reserved": 0, "rental_uris": {"android": "https://dc.lft.to/lastmile_qr_scan", "ios": "https://dc.lft.to/lastmile_qr_scan"}, "fusion_lon": 0.0}, {"lat": 38.924497, "is_disabled": 0, "type": "electric_scooter", "lon": -77.04032733333334, "bike_id": "542fe889a5b1f740baa1869c237b130e", "fusion_lat": 0.0, "name": "542fe889a5b1f740baa1869c237b130e", "is_reserved": 0, "rental_uris": {"android": "https://dc.lft.to/lastmile_qr_scan", "ios": "https://dc.lft.to/lastmile_qr_scan"}, "fusion_lon": 0.0}, {"lat": 38.95082016666667, "is_disabled": 0, "type": "electric_bike", "lon": -77.01203233333334, "bike_id": "81f4956b5cb7decf6d5c81bb1c309447", "fusion_lat": 0.0, "name": "81f4956b5cb7decf6d5c81bb1c309447", "is_reserved": 0, "rental_uris": {"android": "https://dc.lft.to/lastmile_qr_scan", "ios": "https://dc.lft.to/lastmile_qr_scan"}, "fusion_lon": 0.0}, {"lat": 38.90879983333333, "is_disabled": 0, "type": "electric_scooter", "lon": -77.036557, "bike_id": "c5001f728127f9199eb16606d4fd52dd", "fusion_lat": 0.0, "name": "c5001f728127f9199eb16606d4fd52dd", "is_reserved": 0, "rental_uris": {"android": "https://dc.lft.to/lastmile_qr_scan", "ios": "https://dc.lft.to/lastmile_qr_scan"}, "fusion_lon": 0.0}, {"lat": 38.892243666666666, "is_disabled": 0, "type": "electric_scooter", "lon": -77.04873016666667, "bike_id": "2d93e5fad9ed165dfe445775193a65c6", "fusion_lat": 0.0, "name": "2d93e5fad9ed165dfe445775193a65c6", "is_reserved": 0, "rental_uris": {"android": "https://dc.lft.to/lastmile_qr_scan", "ios": "https://dc.lft.to/lastmile_qr_scan"}, "fusion_lon": 0.0}, {"lat": 38.9034135, "is_disabled": 0, "type": "electric_scooter", "lon": -76.97057483333333, "bike_id": "a244bad17d397c79fbf67f3f28521b97", "fusion_lat": 0.0, "name": "a244bad17d397c79fbf67f3f28521b97", "is_reserved": 0, "rental_uris": {"android": "https://dc.lft.to/lastmile_qr_scan", "ios": "https://dc.lft.to/lastmile_qr_scan"}, "fusion_lon": 0.0}, {"lat": 38.898868, "is_disabled": 0, "type": "electric_scooter", "lon": -77.029531, "bike_id": "68a4dd45785b1fe6d7322b73baeb3e53", "fusion_lat": 0.0, "name": "68a4dd45785b1fe6d7322b73baeb3e53", "is_reserved": 0, "rental_uris": {"android": "https://dc.lft.to/lastmile_qr_scan", "ios": "https://dc.lft.to/lastmile_qr_scan"}, "fusion_lon": 0.0}, {"lat": 38.916869, "is_disabled": 0, "type": "electric_scooter", "lon": -77.0296325, "bike_id": "348b8b10419a352406243b38fb979b9e", "fusion_lat": 0.0, "name": "348b8b10419a352406243b38fb979b9e", "is_reserved": 0, "rental_uris": {"android": "https://dc.lft.to/lastmile_qr_scan", "ios": "https://dc.lft.to/lastmile_qr_scan"}, "fusion_lon": 0.0}, {"lat": 38.89809983333333, "is_disabled": 0, "type": "electric_bike", "lon": -76.99061266666666, "bike_id": "c2f53dbbce72620b0246230f35feeb15", "fusion_lat": 0.0, "name": "c2f53dbbce72620b0246230f35feeb15", "is_reserved": 0, "rental_uris": {"android": "https://dc.lft.to/lastmile_qr_scan", "ios": "https://dc.lft.to/lastmile_qr_scan"}, "fusion_lon": 0.0}, {"lat": 38.915618, "is_disabled": 0, "type": "electric_scooter", "lon": -77.00976516666667, "bike_id": "0242a3e3b07d2fb417221bb92d2b2e77", "fusion_lat": 0.0, "name": "0242a3e3b07d2fb417221bb92d2b2e77", "is_reserved": 0, "rental_uris": {"android": "https://dc.lft.to/lastmile_qr_scan", "ios": "https://dc.lft.to/lastmile_qr_scan"}, "fusion_lon": 0.0}, {"lat": 38.93571583333333, "is_disabled": 0, "type": "electric_scooter", "lon": -77.03737416666667, "bike_id": "21e0f11ae1669cab6244f4ae2757ccde", "fusion_lat": 0.0, "name": "21e0f11ae1669cab6244f4ae2757ccde", "is_reserved": 0, "rental_uris": {"android": "https://dc.lft.to/lastmile_qr_scan", "ios": "https://dc.lft.to/lastmile_qr_scan"}, "fusion_lon": 0.0}, {"lat": 38.92239583333333, "is_disabled": 0, "type": "electric_scooter", "lon": -77.02910683333333, "bike_id": "d6ece0e15698798f0bfda9eb64e36fd4", "fusion_lat": 0.0, "name": "d6ece0e15698798f0bfda9eb64e36fd4", "is_reserved": 0, "rental_uris": {"android": "https://dc.lft.to/lastmile_qr_scan", "ios": "https://dc.lft.to/lastmile_qr_scan"}, "fusion_lon": 0.0}, {"lat": 38.91453883333333, "is_disabled": 0, "type": "electric_scooter", "lon": -77.02163333333333, "bike_id": "5528a23fc341ebc41369b6f15c62705f", "fusion_lat": 0.0, "name": "5528a23fc341ebc41369b6f15c62705f", "is_reserved": 0, "rental_uris": {"android": "https://dc.lft.to/lastmile_qr_scan", "ios": "https://dc.lft.to/lastmile_qr_scan"}, "fusion_lon": 0.0}, {"lat": 38.906467666666664, "is_disabled": 0, "type": "electric_scooter", "lon": -77.03209333333334, "bike_id": "115af2eba50a7028ca3faf6a361e27a7", "fusion_lat": 0.0, "name": "115af2eba50a7028ca3faf6a361e27a7", "is_reserved": 0, "rental_uris": {"android": "https://dc.lft.to/lastmile_qr_scan", "ios": "https://dc.lft.to/lastmile_qr_scan"}, "fusion_lon": 0.0}, {"lat": 38.91695633333333, "is_disabled": 0, "type": "electric_scooter", "lon": -77.03734966666667, "bike_id": "cf5dd07ff2036635c0c5c4d5d4b40f9a", "fusion_lat": 0.0, "name": "cf5dd07ff2036635c0c5c4d5d4b40f9a", "is_reserved": 0, "rental_uris": {"android": "https://dc.lft.to/lastmile_qr_scan", "ios": "https://dc.lft.to/lastmile_qr_scan"}, "fusion_lon": 0.0}, {"lat": 38.927971, "is_disabled": 0, "type": "electric_scooter", "lon": -77.04319916666667, "bike_id": "e71aa1bfad63b7cc28e18c79569f09a2", "fusion_lat": 0.0, "name": "e71aa1bfad63b7cc28e18c79569f09a2", "is_reserved": 0, "rental_uris": {"android": "https://dc.lft.to/lastmile_qr_scan", "ios": "https://dc.lft.to/lastmile_qr_scan"}, "fusion_lon": 0.0}, {"lat": 38.91722883333333, "is_disabled": 0, "type": "electric_scooter", "lon": -77.02714983333334, "bike_id": "2fe32de557b3a404a0dcdc1a190ad25b", "fusion_lat": 0.0, "name": "2fe32de557b3a404a0dcdc1a190ad25b", "is_reserved": 0, "rental_uris": {"android": "https://dc.lft.to/lastmile_qr_scan", "ios": "https://dc.lft.to/lastmile_qr_scan"}, "fusion_lon": 0.0}, {"lat": 38.855173, "is_disabled": 0, "type": "electric_bike", "lon": -77.12023016666667, "bike_id": "0228a159fb9f9eac219666a3f9cf6c0a", "fusion_lat": 0.0, "name": "0228a159fb9f9eac219666a3f9cf6c0a", "is_reserved": 0, "rental_uris": {"android": "https://dc.lft.to/lastmile_qr_scan", "ios": "https://dc.lft.to/lastmile_qr_scan"}, "fusion_lon": 0.0}, {"lat": 38.850753833333336, "is_disabled": 0, "type": "electric_bike", "lon": -76.95680766666666, "bike_id": "751e5ad3676a92512d9ef59d35b2f243", "fusion_lat": 0.0, "name": "751e5ad3676a92512d9ef59d35b2f243", "is_reserved": 0, "rental_uris": {"android": "https://dc.lft.to/lastmile_qr_scan", "ios": "https://dc.lft.to/lastmile_qr_scan"}, "fusion_lon": 0.0}, {"lat": 38.9087255, "is_disabled": 0, "type": "electric_scooter", "lon": -77.066797, "bike_id": "a93711f43f6f0f7b9fa84ee51854a31b", "fusion_lat": 0.0, "name": "a93711f43f6f0f7b9fa84ee51854a31b", "is_reserved": 0, "rental_uris": {"android": "https://dc.lft.to/lastmile_qr_scan", "ios": "https://dc.lft.to/lastmile_qr_scan"}, "fusion_lon": 0.0}, {"lat": 38.925877, "is_disabled": 0, "type": "electric_scooter", "lon": -77.02497033333333, "bike_id": "5580eaa3b7b739f1b695b39c2b22d9e6", "fusion_lat": 0.0, "name": "5580eaa3b7b739f1b695b39c2b22d9e6", "is_reserved": 0, "rental_uris": {"android": "https://dc.lft.to/lastmile_qr_scan", "ios": "https://dc.lft.to/lastmile_qr_scan"}, "fusion_lon": 0.0}, {"lat": 39.00012233333333, "is_disabled": 0, "type": "electric_bike", "lon": -76.91081466666667, "bike_id": "35c29976f49d6f589b22aedfe7a73fe5", "fusion_lat": 0.0, "name": "35c29976f49d6f589b22aedfe7a73fe5", "is_reserved": 0, "rental_uris": {"android": "https://dc.lft.to/lastmile_qr_scan", "ios": "https://dc.lft.to/lastmile_qr_scan"}, "fusion_lon": 0.0}, {"lat": 38.90991566666667, "is_disabled": 0, "type": "electric_scooter", "lon": -76.99738666666667, "bike_id": "072ed186cd0ac5c8bd6af974343b72cb", "fusion_lat": 0.0, "name": "072ed186cd0ac5c8bd6af974343b72cb", "is_reserved": 0, "rental_uris": {"android": "https://dc.lft.to/lastmile_qr_scan", "ios": "https://dc.lft.to/lastmile_qr_scan"}, "fusion_lon": 0.0}, {"lat": 38.92962816666667, "is_disabled": 0, "type": "electric_scooter", "lon": -77.03173866666667, "bike_id": "1eb80a2da6a2afd09b37d01d726e22db", "fusion_lat": 0.0, "name": "1eb80a2da6a2afd09b37d01d726e22db", "is_reserved": 0, "rental_uris": {"android": "https://dc.lft.to/lastmile_qr_scan", "ios": "https://dc.lft.to/lastmile_qr_scan"}, "fusion_lon": 0.0}, {"lat": 38.903795333333335, "is_disabled": 0, "type": "electric_scooter", "lon": -77.02171416666667, "bike_id": "515765f9e5c51bcfb8d63d38c613b703", "fusion_lat": 0.0, "name": "515765f9e5c51bcfb8d63d38c613b703", "is_reserved": 0, "rental_uris": {"android": "https://dc.lft.to/lastmile_qr_scan", "ios": "https://dc.lft.to/lastmile_qr_scan"}, "fusion_lon": 0.0}, {"lat": 38.911822666666666, "is_disabled": 0, "type": "electric_scooter", "lon": -77.0383415, "bike_id": "ff0ed929d2e5eb02b9e61f50f4e3029e", "fusion_lat": 0.0, "name": "ff0ed929d2e5eb02b9e61f50f4e3029e", "is_reserved": 0, "rental_uris": {"android": "https://dc.lft.to/lastmile_qr_scan", "ios": "https://dc.lft.to/lastmile_qr_scan"}, "fusion_lon": 0.0}, {"lat": 38.90257066666667, "is_disabled": 0, "type": "electric_scooter", "lon": -77.03869283333333, "bike_id": "2f192b76a8307bfcfa67251f3c6fe617", "fusion_lat": 0.0, "name": "2f192b76a8307bfcfa67251f3c6fe617", "is_reserved": 0, "rental_uris": {"android": "https://dc.lft.to/lastmile_qr_scan", "ios": "https://dc.lft.to/lastmile_qr_scan"}, "fusion_lon": 0.0}, {"lat": 38.897183166666665, "is_disabled": 0, "type": "electric_scooter", "lon": -77.00801733333333, "bike_id": "b4e88764c9aa3041e731330e6769981b", "fusion_lat": 0.0, "name": "b4e88764c9aa3041e731330e6769981b", "is_reserved": 0, "rental_uris": {"android": "https://dc.lft.to/lastmile_qr_scan", "ios": "https://dc.lft.to/lastmile_qr_scan"}, "fusion_lon": 0.0}, {"lat": 38.931956166666666, "is_disabled": 0, "type": "electric_scooter", "lon": -77.02972016666666, "bike_id": "07cb8dc384e16890e4434b0c2d6c3bb1", "fusion_lat": 0.0, "name": "07cb8dc384e16890e4434b0c2d6c3bb1", "is_reserved": 0, "rental_uris": {"android": "https://dc.lft.to/lastmile_qr_scan", "ios": "https://dc.lft.to/lastmile_qr_scan"}, "fusion_lon": 0.0}, {"lat": 38.956121333333336, "is_disabled": 0, "type": "electric_scooter", "lon": -77.02782166666667, "bike_id": "768d6025a70e4ae6ebbd4d6f4613fa6f", "fusion_lat": 0.0, "name": "768d6025a70e4ae6ebbd4d6f4613fa6f", "is_reserved": 0, "rental_uris": {"android": "https://dc.lft.to/lastmile_qr_scan", "ios": "https://dc.lft.to/lastmile_qr_scan"}, "fusion_lon": 0.0}, {"lat": 38.828718333333335, "is_disabled": 0, "type": "electric_bike", "lon": -77.11227683333334, "bike_id": "a597312a083fbdbbb9b41a9fc075e483", "fusion_lat": 0.0, "name": "a597312a083fbdbbb9b41a9fc075e483", "is_reserved": 0, "rental_uris": {"android": "https://dc.lft.to/lastmile_qr_scan", "ios": "https://dc.lft.to/lastmile_qr_scan"}, "fusion_lon": 0.0}, {"lat": 38.90951533333333, "is_disabled": 0, "type": "electric_scooter", "lon": -77.04798633333333, "bike_id": "8d6bcc955f122cec9bf12d559714787b", "fusion_lat": 0.0, "name": "8d6bcc955f122cec9bf12d559714787b", "is_reserved": 0, "rental_uris": {"android": "https://dc.lft.to/lastmile_qr_scan", "ios": "https://dc.lft.to/lastmile_qr_scan"}, "fusion_lon": 0.0}, {"lat": 38.921505833333335, "is_disabled": 0, "type": "electric_scooter", "lon": -77.03512383333333, "bike_id": "851b8dafeddf8b0f9ca3a0c510278a68", "fusion_lat": 0.0, "name": "851b8dafeddf8b0f9ca3a0c510278a68", "is_reserved": 0, "rental_uris": {"android": "https://dc.lft.to/lastmile_qr_scan", "ios": "https://dc.lft.to/lastmile_qr_scan"}, "fusion_lon": 0.0}, {"lat": 38.922785833333336, "is_disabled": 0, "type": "electric_scooter", "lon": -77.02247583333333, "bike_id": "ade71cefa367e0448bb3aab147627cc4", "fusion_lat": 0.0, "name": "ade71cefa367e0448bb3aab147627cc4", "is_reserved": 0, "rental_uris": {"android": "https://dc.lft.to/lastmile_qr_scan", "ios": "https://dc.lft.to/lastmile_qr_scan"}, "fusion_lon": 0.0}, {"lat": 38.919704333333335, "is_disabled": 0, "type": "electric_scooter", "lon": -77.0135415, "bike_id": "78f38e33e0784e8387e3dadc3e614aea", "fusion_lat": 0.0, "name": "78f38e33e0784e8387e3dadc3e614aea", "is_reserved": 0, "rental_uris": {"android": "https://dc.lft.to/lastmile_qr_scan", "ios": "https://dc.lft.to/lastmile_qr_scan"}, "fusion_lon": 0.0}, {"lat": 39.051982333333335, "is_disabled": 0, "type": "electric_bike", "lon": -77.1092225, "bike_id": "67ec5a4ca62485e33f0b8be36b71ac78", "fusion_lat": 0.0, "name": "67ec5a4ca62485e33f0b8be36b71ac78", "is_reserved": 0, "rental_uris": {"android": "https://dc.lft.to/lastmile_qr_scan", "ios": "https://dc.lft.to/lastmile_qr_scan"}, "fusion_lon": 0.0}, {"lat": 38.89966916666667, "is_disabled": 0, "type": "electric_scooter", "lon": -76.92648716666666, "bike_id": "fd2baebb4f3b68cf7859c9037633f757", "fusion_lat": 0.0, "name": "fd2baebb4f3b68cf7859c9037633f757", "is_reserved": 0, "rental_uris": {"android": "https://dc.lft.to/lastmile_qr_scan", "ios": "https://dc.lft.to/lastmile_qr_scan"}, "fusion_lon": 0.0}, {"lat": 38.90829766666667, "is_disabled": 0, "type": "electric_scooter", "lon": -77.044793, "bike_id": "3b4f4a1f0ea923e98605f5c3a335c33f", "fusion_lat": 0.0, "name": "3b4f4a1f0ea923e98605f5c3a335c33f", "is_reserved": 0, "rental_uris": {"android": "https://dc.lft.to/lastmile_qr_scan", "ios": "https://dc.lft.to/lastmile_qr_scan"}, "fusion_lon": 0.0}, {"lat": 38.9039935, "is_disabled": 0, "type": "electric_scooter", "lon": -77.05379, "bike_id": "0323d3285db2843e08f79ec4ca2ca9ca", "fusion_lat": 0.0, "name": "0323d3285db2843e08f79ec4ca2ca9ca", "is_reserved": 0, "rental_uris": {"android": "https://dc.lft.to/lastmile_qr_scan", "ios": "https://dc.lft.to/lastmile_qr_scan"}, "fusion_lon": 0.0}, {"lat": 38.91753216666667, "is_disabled": 0, "type": "electric_scooter", "lon": -77.0366575, "bike_id": "6ed7fc3f4518042c40cdf62c99749c95", "fusion_lat": 0.0, "name": "6ed7fc3f4518042c40cdf62c99749c95", "is_reserved": 0, "rental_uris": {"android": "https://dc.lft.to/lastmile_qr_scan", "ios": "https://dc.lft.to/lastmile_qr_scan"}, "fusion_lon": 0.0}, {"lat": 38.900771, "is_disabled": 0, "type": "electric_scooter", "lon": -77.0259975, "bike_id": "b49a2ab715ac5f89e94649eb0f44b472", "fusion_lat": 0.0, "name": "b49a2ab715ac5f89e94649eb0f44b472", "is_reserved": 0, "rental_uris": {"android": "https://dc.lft.to/lastmile_qr_scan", "ios": "https://dc.lft.to/lastmile_qr_scan"}, "fusion_lon": 0.0}, {"lat": 38.900229, "is_disabled": 0, "type": "electric_scooter", "lon": -77.04509966666667, "bike_id": "b19f6b7dbcb14abb5747b9d6fb8a8381", "fusion_lat": 0.0, "name": "b19f6b7dbcb14abb5747b9d6fb8a8381", "is_reserved": 0, "rental_uris": {"android": "https://dc.lft.to/lastmile_qr_scan", "ios": "https://dc.lft.to/lastmile_qr_scan"}, "fusion_lon": 0.0}, {"lat": 38.91428966666667, "is_disabled": 0, "type": "electric_scooter", "lon": -77.03204766666667, "bike_id": "686a03fa687bb35dfb4c0df5f5308180", "fusion_lat": 0.0, "name": "686a03fa687bb35dfb4c0df5f5308180", "is_reserved": 0, "rental_uris": {"android": "https://dc.lft.to/lastmile_qr_scan", "ios": "https://dc.lft.to/lastmile_qr_scan"}, "fusion_lon": 0.0}, {"lat": 38.91554716666667, "is_disabled": 0, "type": "electric_scooter", "lon": -77.032466, "bike_id": "04ed43a8cc1713beaa982df99eb0b348", "fusion_lat": 0.0, "name": "04ed43a8cc1713beaa982df99eb0b348", "is_reserved": 0, "rental_uris": {"android": "https://dc.lft.to/lastmile_qr_scan", "ios": "https://dc.lft.to/lastmile_qr_scan"}, "fusion_lon": 0.0},