{"data": {"bikes": [{"fusion_lat": 0.0, "type": "electric_scooter", "name": "2dc11b9b72c98f1d61c944413179c5a6", "fusion_lon": 0.0, "bike_id": "2dc11b9b72c98f1d61c944413179c5a6", "is_reserved": 0, "rental_uris": {"android": "https://dc.lft.to/lastmile_qr_scan", "ios": "https://dc.lft.to/lastmile_qr_scan"}, "lat": 38.930105166666664, "is_disabled": 0, "lon": -77.05516666666666}, {"fusion_lat": 0.0, "type": "electric_scooter", "name": "1702cfaf2a8df8023db90c391e5685a6", "fusion_lon": 0.0, "bike_id": "1702cfaf2a8df8023db90c391e5685a6", "is_reserved": 0, "rental_uris": {"android": "https://dc.lft.to/lastmile_qr_scan", "ios": "https://dc.lft.to/lastmile_qr_scan"}, "lat": 38.89200533333333, "is_disabled": 0, "lon": -77.0437235}, {"fusion_lat": 0.0, "type": "electric_scooter", "name": "59e7b2a8581a462705ffa886462961f1", "fusion_lon": 0.0, "bike_id": "59e7b2a8581a462705ffa886462961f1", "is_reserved": 0, "rental_uris": {"android": "https://dc.lft.to/lastmile_qr_scan", "ios": "https://dc.lft.to/lastmile_qr_scan"}, "lat": 38.924639166666665, "is_disabled": 0, "lon": -77.0395155}, {"fusion_lat": 0.0, "type": "electric_scooter", "name": "67830118dac06982bbd91fa4116394b5", "fusion_lon": 0.0, "bike_id": "67830118dac06982bbd91fa4116394b5", "is_reserved": 0, "rental_uris": {"android": "https://dc.lft.to/lastmile_qr_scan", "ios": "https://dc.lft.to/lastmile_qr_scan"}, "lat": 38.92702633333333, "is_disabled": 0, "lon": -77.04110633333333}, {"fusion_lat": 0.0, "type": "electric_scooter", "name": "e5b29ae18a7b1bcfca926af43a765d5e", "fusion_lon": 0.0, "bike_id": "e5b29ae18a7b1bcfca926af43a765d5e", "is_reserved": 0, "rental_uris": {"android": "https://dc.lft.to/lastmile_qr_scan", "ios": "https://dc.lft.to/lastmile_qr_scan"}, "lat": 38.9222685, "is_disabled": 0, "lon": -77.0424445}, {"fusion_lat": 0.0, "type": "electric_scooter", "name": "6113a00f39a4b806ab24da42bcb476b8", "fusion_lon": 0.0, "bike_id": "6113a00f39a4b806ab24da42bcb476b8", "is_reserved": 0, "rental_uris": {"android": "https://dc.lft.to/lastmile_qr_scan", "ios": "https://dc.lft.to/lastmile_qr_scan"}, "lat": 38.89234533333333, "is_disabled": 0, "lon": -77.019753}, {"fusion_lat": 0.0, "type": "electric_bike", "name": "c5f5148a408d255bc312045b7dbe8dc9", "fusion_lon": 0.0, "bike_id": "c5f5148a408d255bc312045b7dbe8dc9", "is_reserved": 0, "rental_uris": {"android": "https://dc.lft.to/lastmile_qr_scan", "ios": "https://dc.lft.to/lastmile_qr_scan"}, "lat": 38.993491666666664, "is_disabled": 0, "lon": -77.1157505}, {"fusion_lat": 0.0, "type": "electric_scooter", "name": "0e60618ce3e8bc2de00c8d07e92f4022", "fusion_lon": 0.0, "bike_id": "0e60618ce3e8bc2de00c8d07e92f4022", "is_reserved": 0, "rental_uris": {"android": "https://dc.lft.to/lastmile_qr_scan", "ios": "https://dc.lft.to/lastmile_qr_scan"}, "lat": 38.866522833333335, "is_disabled": 0, "lon": -76.98512916666667}, {"fusion_lat": 0.0, "type": "electric_scooter", "name": "a860e98a226bd500137f49ed77014f59", "fusion_lon": 0.0, "bike_id": "a860e98a226bd500137f49ed77014f59", "is_reserved": 0, "rental_uris": {"android": "https://dc.lft.to/lastmile_qr_scan", "ios": "https://dc.lft.to/lastmile_qr_scan"}, "lat": 38.901563, "is_disabled": 0, "lon": -77.04384016666667}, {"fusion_lat": 0.0, "type": "electric_scooter", "name": "65f817eeace0d98c2c762ef093d21a1d", "fusion_lon": 0.0, "bike_id": "65f817eeace0d98c2c762ef093d21a1d", "is_reserved": 0, "rental_uris": {"android": "https://dc.lft.to/lastmile_qr_scan", "ios": "https://dc.lft.to/lastmile_qr_scan"}, "lat": 38.866598333333336, "is_disabled": 0, "lon": -76.98881883333334}, {"fusion_lat": 0.0, "type": "electric_scooter", "name": "a8870bbcf0e10050405f42bf2f5cee30", "fusion_lon": 0.0, "bike_id": "a8870bbcf0e10050405f42bf2f5cee30", "is_reserved": 0, "rental_uris": {"android": "https://dc.lft.to/lastmile_qr_scan", "ios": "https://dc.lft.to/lastmile_qr_scan"}, "lat": 38.898864333333336, "is_disabled": 0, "lon": -77.03284266666667}, {"fusion_lat": 0.0, "type": "electric_scooter", "name": "7bbbab656b7d12ef73b8b4296d1a1bce", "fusion_lon": 0.0, "bike_id": "7bbbab656b7d12ef73b8b4296d1a1bce", "is_reserved": 0, "rental_uris": {"android": "https://dc.lft.to/lastmile_qr_scan", "ios": "https://dc.lft.to/lastmile_qr_scan"}, "lat": 38.910961666666665, "is_disabled": 0, "lon": -77.03176033333334}, {"fusion_lat": 0.0, "type": "electric_scooter", "name": "87179169f22061ef13a290fe45907634", "fusion_lon": 0.0, "bike_id": "87179169f22061ef13a290fe45907634", "is_reserved": 0, "rental_uris": {"android": "https://dc.lft.to/lastmile_qr_scan", "ios": "https://dc.lft.to/lastmile_qr_scan"}, "lat": 38.89298616666667, "is_disabled": 0, "lon": -77.01230683333333}, {"fusion_lat": 0.0, "type": "electric_scooter", "name": "9a560d92e0ab97cb47b4317b3eb2ad30", "fusion_lon": 0.0, "bike_id": "9a560d92e0ab97cb47b4317b3eb2ad30", "is_reserved": 0, "rental_uris": {"android": "https://dc.lft.to/lastmile_qr_scan", "ios": "https://dc.lft.to/lastmile_qr_scan"}, "lat": 38.902424, "is_disabled": 0, "lon": -77.04607666666666}, {"fusion_lat": 0.0, "type": "electric_bike", "name": "a3ace9e9afdd9b39516580fa10f04c9e", "fusion_lon": 0.0, "bike_id": "a3ace9e9afdd9b39516580fa10f04c9e", "is_reserved": 0, "rental_uris": {"android": "https://dc.lft.to/lastmile_qr_scan", "ios": "https://dc.lft.to/lastmile_qr_scan"}, "lat": 38.846063, "is_disabled": 0, "lon": -77.08965916666666}, {"fusion_lat": 0.0, "type": "electric_scooter", "name": "475dd574dcf35902565be8ed17ffb701", "fusion_lon": 0.0, "bike_id": "475dd574dcf35902565be8ed17ffb701", "is_reserved": 0, "rental_uris": {"android": "https://dc.lft.to/lastmile_qr_scan", "ios": "https://dc.lft.to/lastmile_qr_scan"}, "lat": 38.9243165, "is_disabled": 0, "lon": -77.04247133333334}, {"fusion_lat": 0.0, "type": "electric_scooter", "name": "1d0b28104d786b9ccb9d18bca21a3f34", "fusion_lon": 0.0, "bike_id": "1d0b28104d786b9ccb9d18bca21a3f34", "is_reserved": 0, "rental_uris": {"android": "https://dc.lft.to/lastmile_qr_scan", "ios": "https://dc.lft.to/lastmile_qr_scan"}, "lat": 38.914382333333336, "is_disabled": 0, "lon": -77.00457633333333}, {"fusion_lat": 0.0, "type": "electric_scooter", "name": "2fa2a14a4a66c2def7c248141711e569", "fusion_lon": 0.0, "bike_id": "2fa2a14a4a66c2def7c248141711e569", "is_reserved": 0, "rental_uris": {"android": "https://dc.lft.to/lastmile_qr_scan", "ios": "https://dc.lft.to/lastmile_qr_scan"}, "lat": 38.900951, "is_disabled": 0, "lon": -77.04876033333333}, {"fusion_lat": 0.0, "type": "electric_scooter", "name": "9120503fae6b2ea22b8a8540ca628cdd", "fusion_lon": 0.0, "bike_id": "9120503fae6b2ea22b8a8540ca628cdd", "is_reserved": 0, "rental_uris": {"android": "https://dc.lft.to/lastmile_qr_scan", "ios": "https://dc.lft.to/lastmile_qr_scan"}, "lat": 38.907286166666665, "is_disabled": 0, "lon": -77.0505145}, {"fusion_lat": 0.0, "type": "electric_scooter", "name": "7ec30597d604d1d7d8feb6daff8782a4", "fusion_lon": 0.0, "bike_id": "7ec30597d604d1d7d8feb6daff8782a4", "is_reserved": 0, "rental_uris": {"android": "https://dc.lft.to/lastmile_qr_scan", "ios": "https://dc.lft.to/lastmile_qr_scan"}, "lat": 38.92640033333333, "is_disabled": 0, "lon": -77.03843433333333}, {"fusion_lat": 0.0, "type": "electric_scooter", "name": "ee5e44cc910ef0062a33f62a257747ee", "fusion_lon": 0.0, "bike_id": "ee5e44cc910ef0062a33f62a257747ee", "is_reserved": 0, "rental_uris": {"android": "https://dc.lft.to/lastmile_qr_scan", "ios": "https://dc.lft.to/lastmile_qr_scan"}, "lat": 38.914569, "is_disabled": 0, "lon": -77.01519616666667}, {"fusion_lat": 0.0, "type": "electric_scooter", "name": "a89845f01176b2bd52bfa23097952e41", "fusion_lon": 0.0, "bike_id": "a89845f01176b2bd52bfa23097952e41", "is_reserved": 0, "rental_uris": {"android": "https://dc.lft.to/lastmile_qr_scan", "ios": "https://dc.lft.to/lastmile_qr_scan"}, "lat": 38.893914333333335, "is_disabled": 0, "lon": -77.02249966666666}, {"fusion_lat": 0.0, "type": "electric_scooter", "name": "310ff6fd81dd3f372b8aecc20ccf4f09", "fusion_lon": 0.0, "bike_id": "310ff6fd81dd3f372b8aecc20ccf4f09", "is_reserved": 0, "rental_uris": {"android": "https://dc.lft.to/lastmile_qr_scan", "ios": "https://dc.lft.to/lastmile_qr_scan"}, "lat": 38.88365916666667, "is_disabled": 0, "lon": -76.94154633333333}, {"fusion_lat": 0.0, "type": "electric_scooter", "name": "0006b3aa36bd80216d865f254f5ea35a", "fusion_lon": 0.0, "bike_id": "0006b3aa36bd80216d865f254f5ea35a", "is_reserved": 0, "rental_uris": {"android": "https://dc.lft.to/lastmile_qr_scan", "ios": "https://dc.lft.to/lastmile_qr_scan"}, "lat": 38.89098533333333, "is_disabled": 0, "lon": -77.00340133333333}, {"fusion_lat": 0.0, "type": "electric_scooter", "name": "c2736b19c65766acb4a1c0cf105e8766", "fusion_lon": 0.0, "bike_id": "c2736b19c65766acb4a1c0cf105e8766", "is_reserved": 0, "rental_uris": {"android": "https://dc.lft.to/lastmile_qr_scan", "ios": "https://dc.lft.to/lastmile_qr_scan"}, "lat": 38.902752166666666, "is_disabled": 0, "lon": -77.0449905}, {"fusion_lat": 0.0, "type": "electric_scooter", "name": "025a1b87e1c614404b47f33d9062a6c9", "fusion_lon": 0.0, "bike_id": "025a1b87e1c614404b47f33d9062a6c9", "is_reserved": 0, "rental_uris": {"android": "https://dc.lft.to/lastmile_qr_scan", "ios": "https://dc.lft.to/lastmile_qr_scan"}, "lat": 38.907832666666664, "is_disabled": 0, "lon": -77.03806}, {"fusion_lat": 0.0, "type": "electric_scooter", "name": "2acd89fdab2f59a56df09add017243dc", "fusion_lon": 0.0, "bike_id": "2acd89fdab2f59a56df09add017243dc", "is_reserved": 0, "rental_uris": {"android": "https://dc.lft.to/lastmile_qr_scan", "ios": "https://dc.lft.to/lastmile_qr_scan"}, "lat": 38.919294, "is_disabled": 0, "lon": -77.04155316666667}, {"fusion_lat": 0.0, "type": "electric_scooter", "name": "771f292f968a7e7d1939cada38872558", "fusion_lon": 0.0, "bike_id": "771f292f968a7e7d1939cada38872558", "is_reserved": 0, "rental_uris": {"android": "https://dc.lft.to/lastmile_qr_scan", "ios": "https://dc.lft.to/lastmile_qr_scan"}, "lat": 38.903226833333335, "is_disabled": 0, "lon": -77.031715}, {"fusion_lat": 0.0, "type": "electric_scooter", "name": "16dafea9fb84f2f1e6c3b195957da1b8", "fusion_lon": 0.0, "bike_id": "16dafea9fb84f2f1e6c3b195957da1b8", "is_reserved": 0, "rental_uris": {"android": "https://dc.lft.to/lastmile_qr_scan", "ios": "https://dc.lft.to/lastmile_qr_scan"}, "lat": 38.9020315, "is_disabled": 0, "lon": -76.97849616666667}, {"fusion_lat": 0.0, "type": "electric_scooter", "name": "f8b55e55f86132397f91874f7d2c73bd", "fusion_lon": 0.0, "bike_id": "f8b55e55f86132397f91874f7d2c73bd", "is_reserved": 0, "rental_uris": {"android": "https://dc.lft.to/lastmile_qr_scan", "ios": "https://dc.lft.to/lastmile_qr_scan"}, "lat": 38.885364333333335, "is_disabled": 0, "lon": -77.02179466666666}, {"fusion_lat": 0.0, "type": "electric_scooter", "name": "98776fb0d6ab9fc90565a49279eec477", "fusion_lon": 0.0, "bike_id": "98776fb0d6ab9fc90565a49279eec477", "is_reserved": 0, "rental_uris": {"android": "https://dc.lft.to/lastmile_qr_scan", "ios": "https://dc.lft.to/lastmile_qr_scan"}, "lat": 38.91115883333333, "is_disabled": 0, "lon": -77.043661}, {"fusion_lat": 0.0, "type": "electric_scooter", "name": "2ede2974bb4b2ec24474a4a76a9aeec6", "fusion_lon": 0.0, "bike_id": "2ede2974bb4b2ec24474a4a76a9aeec6", "is_reserved": 0, "rental_uris": {"android": "https://dc.lft.to/lastmile_qr_scan", "ios": "https://dc.lft.to/lastmile_qr_scan"}, "lat": 38.93419866666667, "is_disabled": 0, "lon": -77.044103}, {"fusion_lat": 0.0, "type": "electric_scooter", "name": "fe4b4472a66e37d714ade40ded16bc30", "fusion_lon": 0.0, "bike_id": "fe4b4472a66e37d714ade40ded16bc30", "is_reserved": 0, "rental_uris": {"android": "https://dc.lft.to/lastmile_qr_scan", "ios": "https://dc.lft.to/lastmile_qr_scan"}, "lat": 38.89369266666667, "is_disabled": 0, "lon": -76.94993166666667}, {"fusion_lat": 0.0, "type": "electric_scooter", "name": "94f8e6ab20680706569c5f19adf3bfbc", "fusion_lon": 0.0, "bike_id": "94f8e6ab20680706569c5f19adf3bfbc", "is_reserved": 0, "rental_uris": {"android": "https://dc.lft.to/lastmile_qr_scan", "ios": "https://dc.lft.to/lastmile_qr_scan"}, "lat": 38.899847666666666, "is_disabled": 0, "lon": -77.04501116666667}, {"fusion_lat": 0.0, "type": "electric_scooter", "name": "d9acd7205420673c0c61f757d111d225", "fusion_lon": 0.0, "bike_id": "d9acd7205420673c0c61f757d111d225", "is_reserved": 0, "rental_uris": {"android": "https://dc.lft.to/lastmile_qr_scan", "ios": "https://dc.lft.to/lastmile_qr_scan"}, "lat": 38.9006885, "is_disabled": 0, "lon": -77.04673}, {"fusion_lat": 0.0, "type": "electric_scooter", "name": "3d42e272fd90e84c2e311b4bf13e0033", "fusion_lon": 0.0, "bike_id": "3d42e272fd90e84c2e311b4bf13e0033", "is_reserved": 0, "rental_uris": {"android": "https://dc.lft.to/lastmile_qr_scan", "ios": "https://dc.lft.to/lastmile_qr_scan"}, "lat": 38.92111666666667, "is_disabled": 0, "lon": -77.02053}, {"fusion_lat": 0.0, "type": "electric_bike", "name": "4a5c47ffbcb446be1506c1c3b25c5c6d", "fusion_lon": 0.0, "bike_id": "4a5c47ffbcb446be1506c1c3b25c5c6d", "is_reserved": 0, "rental_uris": {"android": "https://dc.lft.to/lastmile_qr_scan", "ios": "https://dc.lft.to/lastmile_qr_scan"}, "lat": 38.829157, "is_disabled": 0, "lon": -76.99776816666666}, {"fusion_lat": 0.0, "type": "electric_scooter", "name": "40e33e7be1fd80fc1f420aa3d054c469", "fusion_lon": 0.0, "bike_id": "40e33e7be1fd80fc1f420aa3d054c469", "is_reserved": 0, "rental_uris": {"android": "https://dc.lft.to/lastmile_qr_scan", "ios": "https://dc.lft.to/lastmile_qr_scan"}, "lat": 38.90035916666667, "is_disabled": 0, "lon": -77.01193533333333}, {"fusion_lat": 0.0, "type": "electric_scooter", "name": "921c61d12d02756292490f92e8a7dfdd", "fusion_lon": 0.0, "bike_id": "921c61d12d02756292490f92e8a7dfdd", "is_reserved": 0, "rental_uris": {"android": "https://dc.lft.to/lastmile_qr_scan", "ios": "https://dc.lft.to/lastmile_qr_scan"}, "lat": 38.904322666666665, "is_disabled": 0, "lon": -77.053132}, {"fusion_lat": 0.0, "type": "electric_scooter", "name": "68a7dd08a9f03cee64ac492e19c83dd6", "fusion_lon": 0.0, "bike_id": "68a7dd08a9f03cee64ac492e19c83dd6", "is_reserved": 0, "rental_uris": {"android": "https://dc.lft.to/lastmile_qr_scan", "ios": "https://dc.lft.to/lastmile_qr_scan"}, "lat": 38.92106366666667, "is_disabled": 0, "lon": -77.071896}, {"fusion_lat": 0.0, "type": "electric_scooter", "name": "a9fbdac358e69ad3bbbb00a2af7d2dc4", "fusion_lon": 0.0, "bike_id": "a9fbdac358e69ad3bbbb00a2af7d2dc4", "is_reserved": 0, "rental_uris": {"android": "https://dc.lft.to/lastmile_qr_scan", "ios": "https://dc.lft.to/lastmile_qr_scan"}, "lat": 38.938814666666666, "is_disabled": 0, "lon": -77.02481666666667}, {"fusion_lat": 0.0, "type": "electric_scooter", "name": "56060e560a8adc75ab419b2b97d260b4", "fusion_lon": 0.0, "bike_id": "56060e560a8adc75ab419b2b97d260b4", "is_reserved": 0, "rental_uris": {"android": "https://dc.lft.to/lastmile_qr_scan", "ios": "https://dc.lft.to/lastmile_qr_scan"}, "lat": 38.91841216666667, "is_disabled": 0, "lon": -77.05950833333333}, {"fusion_lat": 0.0, "type": "electric_scooter", "name": "f1648a86fcc19ed6d41f85e91434a5c4", "fusion_lon": 0.0, "bike_id": "f1648a86fcc19ed6d41f85e91434a5c4", "is_reserved": 0, "rental_uris": {"android": "https://dc.lft.to/lastmile_qr_scan", "ios": "https://dc.lft.to/lastmile_qr_scan"}, "lat": 38.95201216666667, "is_disabled": 0, "lon": -77.02733316666666}, {"fusion_lat": 0.0, "type": "electric_scooter", "name": "45fa6295c5bad660292ed64b674b07e1", "fusion_lon": 0.0, "bike_id": "45fa6295c5bad660292ed64b674b07e1", "is_reserved": 0, "rental_uris": {"android": "https://dc.lft.to/lastmile_qr_scan", "ios": "https://dc.lft.to/lastmile_qr_scan"}, "lat": 38.887342333333336, "is_disabled": 0, "lon": -77.025749}, {"fusion_lat": 0.0, "type": "electric_bike", "name": "8147e549dda7b1105c01b9a6ba1d12cb", "fusion_lon": 0.0, "bike_id": "8147e549dda7b1105c01b9a6ba1d12cb", "is_reserved": 0, "rental_uris": {"android": "https://dc.lft.to/lastmile_qr_scan", "ios": "https://dc.lft.to/lastmile_qr_scan"}, "lat": 38.9557875, "is_disabled": 0, "lon": -77.06925316666667}, {"fusion_lat": 0.0, "type": "electric_scooter", "name": "001a2daeca8533b5ce69de84429dd89f", "fusion_lon": 0.0, "bike_id": "001a2daeca8533b5ce69de84429dd89f", "is_reserved": 0, "rental_uris": {"android": "https://dc.lft.to/lastmile_qr_scan", "ios": "https://dc.lft.to/lastmile_qr_scan"}, "lat": 38.9288655, "is_disabled": 0, "lon": -77.03310016666667}, {"fusion_lat": 0.0, "type": "electric_scooter", "name": "917fcbf5b8fd54508beefd79569b7de0", "fusion_lon": 0.0, "bike_id": "917fcbf5b8fd54508beefd79569b7de0", "is_reserved": 0, "rental_uris": {"android": "https://dc.lft.to/lastmile_qr_scan", "ios": "https://dc.lft.to/lastmile_qr_scan"}, "lat": 38.91292416666667, "is_disabled": 0, "lon": -77.03185916666666}, {"fusion_lat": 0.0, "type": "electric_scooter", "name": "d1e1c3f3910e2ac6e08137a1bb165c70", "fusion_lon": 0.0, "bike_id": "d1e1c3f3910e2ac6e08137a1bb165c70", "is_reserved": 0, "rental_uris": {"android": "https://dc.lft.to/lastmile_qr_scan", "ios": "https://dc.lft.to/lastmile_qr_scan"}, "lat": 38.864156666666666, "is_disabled": 0, "lon": -76.99131566666667}, {"fusion_lat": 0.0, "type": "electric_scooter", "name": "428e2e6a2e074a7294ba04185874ce31", "fusion_lon": 0.0, "bike_id": "428e2e6a2e074a7294ba04185874ce31", "is_reserved": 0, "rental_uris": {"android": "https://dc.lft.to/lastmile_qr_scan", "ios": "https://dc.lft.to/lastmile_qr_scan"}, "lat": 38.8921935, "is_disabled": 0, "lon": -77.03164066666666}, {"fusion_lat": 0.0, "type": "electric_scooter", "name": "4dc80bb53f7bfebea70c13193f760ca3", "fusion_lon": 0.0, "bike_id": "4dc80bb53f7bfebea70c13193f760ca3", "is_reserved": 0, "rental_uris": {"android": "https://dc.lft.to/lastmile_qr_scan", "ios": "https://dc.lft.to/lastmile_qr_scan"}, "lat": 38.9241905, "is_disabled": 0, "lon": -77.02302666666667}, {"fusion_lat": 0.0, "type": "electric_scooter", "name": "61d64512cfee49e7b08d3f8731da0188", "fusion_lon": 0.0, "bike_id": "61d64512cfee49e7b08d3f8731da0188", "is_reserved": 0, "rental_uris": {"android": "https://dc.lft.to/lastmile_qr_scan", "ios": "https://dc.lft.to/lastmile_qr_scan"}, "lat": 38.92150133333333, "is_disabled": 0, "lon": -77.03505466666667}, {"fusion_lat": 0.0, "type": "electric_scooter", "name": "894b80d56e69bfbc7cbdf04202dcdb4b", "fusion_lon": 0.0, "bike_id": "894b80d56e69bfbc7cbdf04202dcdb4b", "is_reserved": 0, "rental_uris": {"android": "https://dc.lft.to/lastmile_qr_scan", "ios": "https://dc.lft.to/lastmile_qr_scan"}, "lat": 38.937752333333336, "is_disabled": 0, "lon": -77.032587}, {"fusion_lat": 0.0, "type": "electric_scooter", "name": "a30d4777b338e411517b25eb1f53aa59", "fusion_lon": 0.0, "bike_id": "a30d4777b338e411517b25eb1f53aa59", "is_reserved": 0, "rental_uris": {"android": "https://dc.lft.to/lastmile_qr_scan", "ios": "https://dc.lft.to/lastmile_qr_scan"}, "lat": 38.918036, "is_disabled": 0, "lon": -77.02706316666666}, {"fusion_lat": 0.0, "type": "electric_scooter", "name": "5c408219ac52a371c1292c0778f2eb9a", "fusion_lon": 0.0, "bike_id": "5c408219ac52a371c1292c0778f2eb9a", "is_reserved": 0, "rental_uris": {"android": "https://dc.lft.to/lastmile_qr_scan", "ios": "https://dc.lft.to/lastmile_qr_scan"}, "lat": 38.938619, "is_disabled": 0, "lon": -77.02652683333334}, {"fusion_lat": 0.0, "type": "electric_scooter", "name": "cb8b04078199ded192fa0e9e87ccb5ea", "fusion_lon": 0.0, "bike_id": "cb8b04078199ded192fa0e9e87ccb5ea", "is_reserved": 0, "rental_uris": {"android": "https://dc.lft.to/lastmile_qr_scan", "ios": "https://dc.lft.to/lastmile_qr_scan"}, "lat": 38.886775666666665, "is_disabled": 0, "lon": -76.990078}, {"fusion_lat": 0.0, "type": "electric_bike", "name": "d3664b5b487f5ca7e91fa456493b3f2e", "fusion_lon": 0.0, "bike_id": "d3664b5b487f5ca7e91fa456493b3f2e", "is_reserved": 0, "rental_uris": {"android": "https://dc.lft.to/lastmile_qr_scan", "ios": "https://dc.lft.to/lastmile_qr_scan"}, "lat": 38.845051166666664, "is_disabled": 0, "lon": -76.9935205}, {"fusion_lat": 0.0, "type": "electric_scooter", "name": "ed90c92c79c9f18289f9d00cea8ee857", "fusion_lon": 0.0, "bike_id": "ed90c92c79c9f18289f9d00cea8ee857", "is_reserved": 0, "rental_uris": {"android": "https://dc.lft.to/lastmile_qr_scan", "ios": "https://dc.lft.to/lastmile_qr_scan"}, "lat": 38.86658533333333, "is_disabled": 0, "lon": -76.9888125}, {"fusion_lat": 0.0, "type": "electric_bike", "name": "1dd1d5984beaf2d112e5560c88a385fb", "fusion_lon": 0.0, "bike_id": "1dd1d5984beaf2d112e5560c88a385fb", "is_reserved": 0, "rental_uris": {"android": "https://dc.lft.to/lastmile_qr_scan", "ios": "https://dc.lft.to/lastmile_qr_scan"}, "lat": 38.93691583333333, "is_disabled": 0, "lon": -76.9905915}, {"fusion_lat": 0.0, "type": "electric_scooter", "name": "2af66a16715c1b360ddd72ed075db5af", "fusion_lon": 0.0, "bike_id": "2af66a16715c1b360ddd72ed075db5af", "is_reserved": 0, "rental_uris": {"android": "https://dc.lft.to/lastmile_qr_scan", "ios": "https://dc.lft.to/lastmile_qr_scan"}, "lat": 38.9046165, "is_disabled": 0, "lon": -77.03795883333333}, {"fusion_lat": 0.0, "type": "electric_scooter", "name": "5aa781491ee0327e892f6a57701f6189", "fusion_lon": 0.0, "bike_id": "5aa781491ee0327e892f6a57701f6189", "is_reserved": 0, "rental_uris": {"android": "https://dc.lft.to/lastmile_qr_scan", "ios": "https://dc.lft.to/lastmile_qr_scan"}, "lat": 38.92415616666667, "is_disabled": 0, "lon": -77.0194175}, {"fusion_lat": 0.0, "type": "electric_scooter", "name": "5c4cda9c0c76ca35d2c7659eb22ef7df", "fusion_lon": 0.0, "bike_id": "5c4cda9c0c76ca35d2c7659eb22ef7df", "is_reserved": 0, "rental_uris": {"android": "https://dc.lft.to/lastmile_qr_scan", "ios": "https://dc.lft.to/lastmile_qr_scan"}, "lat": 38.8969545, "is_disabled": 0, "lon": -77.02391083333333}, {"fusion_lat": 0.0, "type": "electric_scooter", "name": "8c0ae47a6fbca4e98378eef2260f3f30", "fusion_lon": 0.0, "bike_id": "8c0ae47a6fbca4e98378eef2260f3f30", "is_reserved": 0, "rental_uris": {"android": "https://dc.lft.to/lastmile_qr_scan", "ios": "https://dc.lft.to/lastmile_qr_scan"}, "lat": 38.911178666666665, "is_disabled": 0, "lon": -77.01084083333333}, {"fusion_lat": 0.0, "type": "electric_scooter", "name": "2b741039333a91b23e100c79975e43f9", "fusion_lon": 0.0, "bike_id": "2b741039333a91b23e100c79975e43f9", "is_reserved": 0, "rental_uris": {"android": "https://dc.lft.to/lastmile_qr_scan", "ios": "https://dc.lft.to/lastmile_qr_scan"}, "lat": 38.908129833333334, "is_disabled": 0, "lon": -77.038565}, {"fusion_lat": 0.0, "type": "electric_scooter", "name": "b432a3f2c1d2de55c6ed7b7a42462445", "fusion_lon": 0.0, "bike_id": "b432a3f2c1d2de55c6ed7b7a42462445", "is_reserved": 0, "rental_uris": {"android": "https://dc.lft.to/lastmile_qr_scan", "ios": "https://dc.lft.to/lastmile_qr_scan"}, "lat": 38.919117166666666, "is_disabled": 0, "lon": -77.03440566666667}, {"fusion_lat": 0.0, "type": "electric_scooter", "name": "7de4503345b4cdcccaa1830890f15433", "fusion_lon": 0.0, "bike_id": "7de4503345b4cdcccaa1830890f15433", "is_reserved": 0, "rental_uris": {"android": "https://dc.lft.to/lastmile_qr_scan", "ios": "https://dc.lft.to/lastmile_qr_scan"}, "lat": 38.89294616666667, "is_disabled": 0, "lon": -77.01237216666667}, {"fusion_lat": 0.0, "type": "electric_scooter", "name": "6bcbf12fd4b78b68de7d86d9bcf41448", "fusion_lon": 0.0, "bike_id": "6bcbf12fd4b78b68de7d86d9bcf41448", "is_reserved": 0, "rental_uris": {"android": "https://dc.lft.to/lastmile_qr_scan", "ios": "https://dc.lft.to/lastmile_qr_scan"}, "lat": 38.924888333333335, "is_disabled": 0, "lon": -77.05757266666667}, {"fusion_lat": 0.0, "type": "electric_scooter", "name": "7a152ce1ce6e57cabcf6ebf131cae637", "fusion_lon": 0.0, "bike_id": "7a152ce1ce6e57cabcf6ebf131cae637", "is_reserved": 0, "rental_uris": {"android": "https://dc.lft.to/lastmile_qr_scan", "ios": "https://dc.lft.to/lastmile_qr_scan"}, "lat": 38.86377683333333, "is_disabled": 0, "lon": -76.9905985}, {"fusion_lat": 0.0, "type": "electric_scooter", "name": "d0413db0c9ecd929034a067c52c4c005", "fusion_lon": 0.0, "bike_id": "d0413db0c9ecd929034a067c52c4c005", "is_reserved": 0, "rental_uris": {"android": "https://dc.lft.to/lastmile_qr_scan", "ios": "https://dc.lft.to/lastmile_qr_scan"}, "lat": 38.921093666666664, "is_disabled": 0, "lon": -77.03323033333334}, {"fusion_lat": 0.0, "type": "electric_scooter", "name": "914536481cffcb2e8f14be4f34c08279", "fusion_lon": 0.0, "bike_id": "914536481cffcb2e8f14be4f34c08279", "is_reserved": 0, "rental_uris": {"android": "https://dc.lft.to/lastmile_qr_scan", "ios": "https://dc.lft.to/lastmile_qr_scan"}, "lat": 38.89221916666666, "is_disabled": 0, "lon": -77.043801}, {"fusion_lat": 0.0, "type": "electric_scooter", "name": "e838f40f96c9e9d5daacea158b654622", "fusion_lon": 0.0, "bike_id": "e838f40f96c9e9d5daacea158b654622", "is_reserved": 0, "rental_uris": {"android": "https://dc.lft.to/lastmile_qr_scan", "ios": "https://dc.lft.to/lastmile_qr_scan"}, "lat": 38.86651883333333, "is_disabled": 0, "lon": -76.98520316666666}, {"fusion_lat": 0.0, "type": "electric_scooter", "name": "a8a1e47b09f8ad6cb1a0909e369a53c7", "fusion_lon": 0.0, "bike_id": "a8a1e47b09f8ad6cb1a0909e369a53c7", "is_reserved": 0, "rental_uris": {"android": "https://dc.lft.to/lastmile_qr_scan", "ios": "https://dc.lft.to/lastmile_qr_scan"}, "lat": 38.92999066666667, "is_disabled": 0, "lon": -77.01300983333333}, {"fusion_lat": 0.0, "type": "electric_scooter", "name": "2d0c25906f4636517d5236ed37550411", "fusion_lon": 0.0, "bike_id": "2d0c25906f4636517d5236ed37550411", "is_reserved": 0, "rental_uris": {"android": "https://dc.lft.to/lastmile_qr_scan", "ios": "https://dc.lft.to/lastmile_qr_scan"}, "lat": 38.933994, "is_disabled": 0, "lon": -77.02210066666666}, {"fusion_lat": 0.0, "type": "electric_scooter", "name": "be93320eaaae490ca22aebf1f736c7ae", "fusion_lon": 0.0, "bike_id": "be93320eaaae490ca22aebf1f736c7ae", "is_reserved": 0, "rental_uris": {"android": "https://dc.lft.to/lastmile_qr_scan", "ios": "https://dc.lft.to/lastmile_qr_scan"}, "lat": 38.87458633333333, "is_disabled": 0, "lon": -77.00541883333334}, {"fusion_lat": 0.0, "type": "electric_scooter", "name": "7191bd198a1d3d4fa26ce557241176c3", "fusion_lon": 0.0, "bike_id": "7191bd198a1d3d4fa26ce557241176c3", "is_reserved": 0, "rental_uris": {"android": "https://dc.lft.to/lastmile_qr_scan", "ios": "https://dc.lft.to/lastmile_qr_scan"}, "lat": 38.903284666666664, "is_disabled": 0, "lon": -77.04662766666667}, {"fusion_lat": 0.0, "type": "electric_scooter", "name": "879901660447521cb433d39db0a47281", "fusion_lon": 0.0, "bike_id": "879901660447521cb433d39db0a47281", "is_reserved": 0, "rental_uris": {"android": "https://dc.lft.to/lastmile_qr_scan", "ios": "https://dc.lft.to/lastmile_qr_scan"}, "lat": 38.920198, "is_disabled": 0, "lon": -77.01934133333333}, {"fusion_lat": 0.0, "type": "electric_scooter", "name": "ae3f0090f9e44001e0e6e59cb2207cc4", "fusion_lon": 0.0, "bike_id": "ae3f0090f9e44001e0e6e59cb2207cc4", "is_reserved": 0, "rental_uris": {"android": "https://dc.lft.to/lastmile_qr_scan", "ios": "https://dc.lft.to/lastmile_qr_scan"}, "lat": 38.907348666666664, "is_disabled": 0, "lon": -77.03443083333333}, {"fusion_lat": 0.0, "type": "electric_scooter", "name": "4d3182dd579d1015a940a0e0006cffc1", "fusion_lon": 0.0, "bike_id": "4d3182dd579d1015a940a0e0006cffc1", "is_reserved": 0, "rental_uris": {"android": "https://dc.lft.to/lastmile_qr_scan", "ios": "https://dc.lft.to/lastmile_qr_scan"}, "lat": 38.896521, "is_disabled": 0, "lon": -77.050155}, {"fusion_lat": 0.0, "type": "electric_scooter", "name": "f33afc2c39336d9a148412c9abcc5096", "fusion_lon": 0.0, "bike_id": "f33afc2c39336d9a148412c9abcc5096", "is_reserved": 0, "rental_uris": {"android": "https://dc.lft.to/lastmile_qr_scan", "ios": "https://dc.lft.to/lastmile_qr_scan"}, "lat": 38.94465566666667, "is_disabled": 0, "lon": -77.06023833333333}, {"fusion_lat": 0.0, "type": "electric_scooter", "name": "6dfa8b6f84edd22c401c6c022dee7960", "fusion_lon": 0.0, "bike_id": "6dfa8b6f84edd22c401c6c022dee7960", "is_reserved": 0, "rental_uris": {"android": "https://dc.lft.to/lastmile_qr_scan", "ios": "https://dc.lft.to/lastmile_qr_scan"}, "lat": 38.900354, "is_disabled": 0, "lon": -77.002057}, {"fusion_lat": 0.0, "type": "electric_scooter", "name": "0d0a21e277b54304fc325a5cc2cba4cf", "fusion_lon": 0.0, "bike_id": "0d0a21e277b54304fc325a5cc2cba4cf", "is_reserved": 0, "rental_uris": {"android": "https://dc.lft.to/lastmile_qr_scan", "ios": "https://dc.lft.to/lastmile_qr_scan"}, "lat": 38.892188833333336, "is_disabled": 0, "lon": -77.0322505}, {"fusion_lat": 0.0, "type": "electric_scooter", "name": "e982fbfdaec610a4e7d8f37546da92e2", "fusion_lon": 0.0, "bike_id": "e982fbfdaec610a4e7d8f37546da92e2", "is_reserved": 0, "rental_uris": {"android": "https://dc.lft.to/lastmile_qr_scan", "ios": "https://dc.lft.to/lastmile_qr_scan"}, "lat": 38.90676333333333, "is_disabled": 0, "lon": -77.03467183333333}, {"fusion_lat": 0.0, "type": "electric_scooter", "name": "6dff91af90387f6dff6a0ee0dd0853d3", "fusion_lon": 0.0, "bike_id": "6dff91af90387f6dff6a0ee0dd0853d3", "is_reserved": 0, "rental_uris": {"android": "https://dc.lft.to/lastmile_qr_scan", "ios": "https://dc.lft.to/lastmile_qr_scan"}, "lat": 38.89365433333333, "is_disabled": 0, "lon": -77.05491966666666}, {"fusion_lat": 0.0, "type": "electric_scooter", "name": "24ced7f2a17d8b8bfa64ceb2a8136710", "fusion_lon": 0.0, "bike_id": "24ced7f2a17d8b8bfa64ceb2a8136710", "is_reserved": 0, "rental_uris": {"android": "https://dc.lft.to/lastmile_qr_scan", "ios": "https://dc.lft.to/lastmile_qr_scan"}, "lat": 38.904773666666664, "is_disabled": 0, "lon": -77.04341133333334}, {"fusion_lat": 0.0, "type": "electric_scooter", "name": "65dacdd961dd5b2556bf0a3a43c23896", "fusion_lon": 0.0, "bike_id": "65dacdd961dd5b2556bf0a3a43c23896", "is_reserved": 0, "rental_uris": {"android": "https://dc.lft.to/lastmile_qr_scan", "ios": "https://dc.lft.to/lastmile_qr_scan"}, "lat": 38.927084, "is_disabled": 0, "lon": -77.02391866666666}, {"fusion_lat": 0.0, "type": "electric_scooter", "name": "c5c3ea58fea95f1d8cf05f77ac2e257b", "fusion_lon": 0.0, "bike_id": "c5c3ea58fea95f1d8cf05f77ac2e257b", "is_reserved": 0, "rental_uris": {"android": "https://dc.lft.to/lastmile_qr_scan", "ios": "https://dc.lft.to/lastmile_qr_scan"}, "lat": 38.89296216666666, "is_disabled": 0, "lon": -76.99824116666667}, {"fusion_lat": 0.0, "type": "electric_scooter", "name": "38e6e8bdd5b2b21829e0dd2fe2636205", "fusion_lon": 0.0, "bike_id": "38e6e8bdd5b2b21829e0dd2fe2636205", "is_reserved": 0, "rental_uris": {"android": "https://dc.lft.to/lastmile_qr_scan", "ios": "https://dc.lft.to/lastmile_qr_scan"}, "lat": 38.902375666666664, "is_disabled": 0, "lon": -77.02687416666667}, {"fusion_lat": 0.0, "type": "electric_scooter", "name": "9291c14447c30df0aee43d16899c2494", "fusion_lon": 0.0, "bike_id": "9291c14447c30df0aee43d16899c2494", "is_reserved": 0, "rental_uris": {"android": "https://dc.lft.to/lastmile_qr_scan", "ios": "https://dc.lft.to/lastmile_qr_scan"}, "lat": 38.894255333333334, "is_disabled": 0, "lon": -76.948789}, {"fusion_lat": 0.0, "type": "electric_scooter", "name": "614dc28a107c2d7884bdedcd1de4a92d", "fusion_lon": 0.0, "bike_id": "614dc28a107c2d7884bdedcd1de4a92d", "is_reserved": 0, "rental_uris": {"android": "https://dc.lft.to/lastmile_qr_scan", "ios": "https://dc.lft.to/lastmile_qr_scan"}, "lat": 38.934120166666666, "is_disabled": 0, "lon": -77.03260166666666}, {"fusion_lat": 0.0, "type": "electric_scooter", "name": "eea928cd40b52bab56a4b20373d7d659", "fusion_lon": 0.0, "bike_id": "eea928cd40b52bab56a4b20373d7d659", "is_reserved": 0, "rental_uris": {"android": "https://dc.lft.to/lastmile_qr_scan", "ios": "https://dc.lft.to/lastmile_qr_scan"}, "lat": 38.920124333333334, "is_disabled": 0, "lon": -77.02179466666666}, {"fusion_lat": 0.0, "type": "electric_scooter", "name": "8c52a3746890a4f6578c17ae089d1c74", "fusion_lon": 0.0, "bike_id": "8c52a3746890a4f6578c17ae089d1c74", "is_reserved": 0, "rental_uris": {"android": "https://dc.lft.to/lastmile_qr_scan", "ios": "https://dc.lft.to/lastmile_qr_scan"}, "lat": 38.952628, "is_disabled": 0, "lon": -77.02567116666667}, {"fusion_lat": 0.0, "type": "electric_scooter", "name": "650a4557660d4c3dc92ebda39b3162a6", "fusion_lon": 0.0, "bike_id": "650a4557660d4c3dc92ebda39b3162a6", "is_reserved": 0, "rental_uris": {"android": "https://dc.lft.to/lastmile_qr_scan", "ios": "https://dc.lft.to/lastmile_qr_scan"}, "lat": 38.886100666666664, "is_disabled": 0, "lon": -76.955827}, {"fusion_lat": 0.0, "type": "electric_scooter", "name": "3fbdb9ffcdbe5abea9e231e0465ce434", "fusion_lon": 0.0, "bike_id": "3fbdb9ffcdbe5abea9e231e0465ce434", "is_reserved": 0, "rental_uris": {"android": "https://dc.lft.to/lastmile_qr_scan", "ios": "https://dc.lft.to/lastmile_qr_scan"}, "lat": 38.89802133333333, "is_disabled": 0, "lon": -77.02479716666667}, {"fusion_lat": 0.0, "type": "electric_bike", "name": "ba9d899750d56d0b5bf3380954a33f5b", "fusion_lon": 0.0, "bike_id": "ba9d899750d56d0b5bf3380954a33f5b", "is_reserved": 0, "rental_uris": {"android": "https://dc.lft.to/lastmile_qr_scan", "ios": "https://dc.lft.to/lastmile_qr_scan"}, "lat": 38.9696175, "is_disabled": 0, "lon": -76.95750933333333}, {"fusion_lat": 0.0, "type": "electric_scooter", "name": "905b2e5fbed5e4419c2b48f1f1a30cb9", "fusion_lon": 0.0, "bike_id": "905b2e5fbed5e4419c2b48f1f1a30cb9", "is_reserved": 0, "rental_uris": {"android": "https://dc.lft.to/lastmile_qr_scan", "ios": "https://dc.lft.to/lastmile_qr_scan"}, "lat": 38.90709483333333, "is_disabled": 0, "lon": -77.02385883333334}, {"fusion_lat": 0.0, "type": "electric_scooter", "name": "e978c99815ff9bdff624bd41e3200f4e", "fusion_lon": 0.0, "bike_id": "e978c99815ff9bdff624bd41e3200f4e", "is_reserved": 0, "rental_uris": {"android": "https://dc.lft.to/lastmile_qr_scan", "ios": "https://dc.lft.to/lastmile_qr_scan"}, "lat": 38.9000645, "is_disabled": 0, "lon": -77.00692616666667}, {"fusion_lat": 0.0, "type": "electric_scooter", "name": "d1c17aecb4dfccea15562127fcd72a21", "fusion_lon": 0.0, "bike_id": "d1c17aecb4dfccea15562127fcd72a21", "is_reserved": 0, "rental_uris": {"android": "https://dc.lft.to/lastmile_qr_scan", "ios": "https://dc.lft.to/lastmile_qr_scan"}, "lat": 38.904993833333336, "is_disabled": 0, "lon": -77.0465985}, {"fusion_lat": 0.0, "type": "electric_scooter", "name": "25f575cba43e686bbd155e89bb09a72c", "fusion_lon": 0.0, "bike_id": "25f575cba43e686bbd155e89bb09a72c", "is_reserved": 0, "rental_uris": {"android": "https://dc.lft.to/lastmile_qr_scan", "ios": "https://dc.lft.to/lastmile_qr_scan"}, "lat": 38.90510333333334, "is_disabled": 0, "lon": -77.04813066666667}, {"fusion_lat": 0.0, "type": "electric_scooter", "name": "432a0626c8da10f74ecf58c5968f54b4", "fusion_lon": 0.0, "bike_id": "432a0626c8da10f74ecf58c5968f54b4", "is_reserved": 0, "rental_uris": {"android": "https://dc.lft.to/lastmile_qr_scan", "ios": "https://dc.lft.to/lastmile_qr_scan"}, "lat": 38.90152633333334, "is_disabled": 0, "lon": -77.02925466666667}, {"fusion_lat": 0.0, "type": "electric_scooter", "name": "ee84ae43ea8056ca5999283f96b5c5ae", "fusion_lon": 0.0, "bike_id": "ee84ae43ea8056ca5999283f96b5c5ae", "is_reserved": 0, "rental_uris": {"android": "https://dc.lft.to/lastmile_qr_scan", "ios": "https://dc.lft.to/lastmile_qr_scan"}, "lat": 38.88413466666667, "is_disabled": 0, "lon": -77.01755766666666}, {"fusion_lat": 0.0, "type": "electric_scooter", "name": "5f67f8fcacbd00e97d7f0062db55f1f8", "fusion_lon": 0.0, "bike_id": "5f67f8fcacbd00e97d7f0062db55f1f8", "is_reserved": 0, "rental_uris": {"android": "https://dc.lft.to/lastmile_qr_scan", "ios": "https://dc.lft.to/lastmile_qr_scan"}, "lat": 38.938811666666666, "is_disabled": 0, "lon": -77.0246065}, {"fusion_lat": 0.0, "type": "electric_scooter", "name": "2cf0fd6de785fae140e41d7aa71df7fb", "fusion_lon": 0.0, "bike_id": "2cf0fd6de785fae140e41d7aa71df7fb", "is_reserved": 0, "rental_uris": {"android": "https://dc.lft.to/lastmile_qr_scan", "ios": "https://dc.lft.to/lastmile_qr_scan"}, "lat": 38.8984295, "is_disabled": 0, "lon": -77.03352883333334}, {"fusion_lat": 0.0, "type": "electric_scooter", "name": "cdbdd8630fb8a0621f4ab7bb4f9a52ec", "fusion_lon": 0.0, "bike_id": "cdbdd8630fb8a0621f4ab7bb4f9a52ec", "is_reserved": 0, "rental_uris": {"android": "https://dc.lft.to/lastmile_qr_scan", "ios": "https://dc.lft.to/lastmile_qr_scan"}, "lat": 38.860127166666665, "is_disabled": 0, "lon": -76.9851015}, {"fusion_lat": 0.0, "type": "electric_scooter", "name": "d26d8a160b00778d65acd2d4bc554bef", "fusion_lon": 0.0, "bike_id": "d26d8a160b00778d65acd2d4bc554bef", "is_reserved": 0, "rental_uris": {"android": "https://dc.lft.to/lastmile_qr_scan", "ios": "https://dc.lft.to/lastmile_qr_scan"}, "lat": 38.90018966666667, "is_disabled": 0, "lon": -77.03216083333334}, {"fusion_lat": 0.0, "type": "electric_scooter", "name": "74ef27027d2970277f521504ffe8ee96", "fusion_lon": 0.0, "bike_id": "74ef27027d2970277f521504ffe8ee96", "is_reserved": 0, "rental_uris": {"android": "https://dc.lft.to/lastmile_qr_scan", "ios": "https://dc.lft.to/lastmile_qr_scan"}, "lat": 38.905626833333336, "is_disabled": 0, "lon": -77.0470215}, {"fusion_lat": 0.0, "type": "electric_scooter", "name": "ae95386930d5c57b3a080a82e0832467", "fusion_lon": 0.0, "bike_id": "ae95386930d5c57b3a080a82e0832467", "is_reserved": 0, "rental_uris": {"android": "https://dc.lft.to/lastmile_qr_scan", "ios": "https://dc.lft.to/lastmile_qr_scan"}, "lat": 38.93163116666667, "is_disabled": 0, "lon": -77.0326925}, {"fusion_lat": 0.0, "type": "electric_scooter", "name": "9d19d98055763c8d8cdc6bc3b79aa097", "fusion_lon": 0.0, "bike_id": "9d19d98055763c8d8cdc6bc3b79aa097", "is_reserved": 0, "rental_uris": {"android": "https://dc.lft.to/lastmile_qr_scan", "ios": "https://dc.lft.to/lastmile_qr_scan"}, "lat": 38.91194316666667, "is_disabled": 0, "lon": -77.035193}, {"fusion_lat": 0.0, "type": "electric_scooter", "name": "f51032db8abda83f09792491fab22b5e", "fusion_lon": 0.0, "bike_id": "f51032db8abda83f09792491fab22b5e", "is_reserved": 0, "rental_uris": {"android": "https://dc.lft.to/lastmile_qr_scan", "ios": "https://dc.lft.to/lastmile_qr_scan"}, "lat": 38.877225333333335, "is_disabled": 0, "lon": -77.017585}, {"fusion_lat": 0.0, "type": "electric_scooter", "name": "926a0a8e8028a571abaaa01dd272b17e", "fusion_lon": 0.0, "bike_id": "926a0a8e8028a571abaaa01dd272b17e", "is_reserved": 0, "rental_uris": {"android": "https://dc.lft.to/lastmile_qr_scan", "ios": "https://dc.lft.to/lastmile_qr_scan"}, "lat": 38.92482366666667, "is_disabled": 0, "lon": -77.02135683333333}, {"fusion_lat": 0.0, "type": "electric_scooter", "name": "74370c8aee986d7264155c407401636a", "fusion_lon": 0.0, "bike_id": "74370c8aee986d7264155c407401636a", "is_reserved": 0, "rental_uris": {"android": "https://dc.lft.to/lastmile_qr_scan", "ios": "https://dc.lft.to/lastmile_qr_scan"}, "lat": 38.84996183333333, "is_disabled": 0, "lon": -76.98344033333333}, {"fusion_lat": 0.0, "type": "electric_scooter", "name": "e8c81094a95eed64bc1c61faf8701901", "fusion_lon": 0.0, "bike_id": "e8c81094a95eed64bc1c61faf8701901", "is_reserved": 0, "rental_uris": {"android": "https://dc.lft.to/lastmile_qr_scan", "ios": "https://dc.lft.to/lastmile_qr_scan"}, "lat": 38.916481833333336, "is_disabled": 0, "lon": -77.02179666666666}, {"fusion_lat": 0.0, "type": "electric_scooter", "name": "1d9fcc5b08a400e57c1f32830666c7f6", "fusion_lon": 0.0, "bike_id": "1d9fcc5b08a400e57c1f32830666c7f6", "is_reserved": 0, "rental_uris": {"android": "https://dc.lft.to/lastmile_qr_scan", "ios": "https://dc.lft.to/lastmile_qr_scan"}, "lat": 38.909723166666666, "is_disabled": 0, "lon": -77.04700866666667}, {"fusion_lat": 0.0, "type": "electric_scooter", "name": "2de98b36d925bb4014e4519369a31e5c", "fusion_lon": 0.0, "bike_id": "2de98b36d925bb4014e4519369a31e5c", "is_reserved": 0, "rental_uris": {"android": "https://dc.lft.to/lastmile_qr_scan", "ios": "https://dc.lft.to/lastmile_qr_scan"}, "lat": 38.89228416666667, "is_disabled": 0, "lon": -77.048941}, {"fusion_lat": 0.0, "type": "electric_scooter", "name": "85426cf2f33c0d45b2eed3a138611292", "fusion_lon": 0.0, "bike_id": "85426cf2f33c0d45b2eed3a138611292", "is_reserved": 0, "rental_uris": {"android": "https://dc.lft.to/lastmile_qr_scan", "ios": "https://dc.lft.to/lastmile_qr_scan"}, "lat": 38.913052, "is_disabled": 0, "lon": -77.038511}, {"fusion_lat": 0.0, "type": "electric_scooter", "name": "8dd74cab234f1c70f443b1f8ddd34799", "fusion_lon": 0.0, "bike_id": "8dd74cab234f1c70f443b1f8ddd34799", "is_reserved": 0, "rental_uris": {"android": "https://dc.lft.to/lastmile_qr_scan", "ios": "https://dc.lft.to/lastmile_qr_scan"}, "lat": 38.908934, "is_disabled": 0, "lon": -76.99845833333333}, {"fusion_lat": 0.0, "type": "electric_scooter", "name": "96a38163ec6e96476fcebf9c0e616b01", "fusion_lon": 0.0, "bike_id": "96a38163ec6e96476fcebf9c0e616b01", "is_reserved": 0, "rental_uris": {"android": "https://dc.lft.to/lastmile_qr_scan", "ios": "https://dc.lft.to/lastmile_qr_scan"}, "lat": 38.901812, "is_disabled": 0, "lon": -76.92864433333334}, {"fusion_lat": 0.0, "type": "electric_scooter", "name": "40518643565ffc32c45fc48ab4577088", "fusion_lon": 0.0, "bike_id": "40518643565ffc32c45fc48ab4577088", "is_reserved": 0, "rental_uris": {"android": "https://dc.lft.to/lastmile_qr_scan", "ios": "https://dc.lft.to/lastmile_qr_scan"}, "lat": 38.8668505, "is_disabled": 0, "lon": -76.98598333333334}, {"fusion_lat": 0.0, "type": "electric_scooter", "name": "6b0884d2338b43c950539f2fa91d6122", "fusion_lon": 0.0, "bike_id": "6b0884d2338b43c950539f2fa91d6122", "is_reserved": 0, "rental_uris": {"android": "https://dc.lft.to/lastmile_qr_scan", "ios": "https://dc.lft.to/lastmile_qr_scan"}, "lat": 38.90969716666667, "is_disabled": 0, "lon": -77.03219216666666}, {"fusion_lat": 0.0, "type": "electric_scooter", "name": "ef14888c771ee9ac6074eb991b59dd49", "fusion_lon": 0.0, "bike_id": "ef14888c771ee9ac6074eb991b59dd49", "is_reserved": 0, "rental_uris": {"android": "https://dc.lft.to/lastmile_qr_scan", "ios": "https://dc.lft.to/lastmile_qr_scan"}, "lat": 38.907303, "is_disabled": 0, "lon": -77.03445733333334}, {"fusion_lat": 0.0, "type": "electric_scooter", "name": "fe72ae967200405589d00854d3cd6786", "fusion_lon": 0.0, "bike_id": "fe72ae967200405589d00854d3cd6786", "is_reserved": 0, "rental_uris": {"android": "https://dc.lft.to/lastmile_qr_scan", "ios": "https://dc.lft.to/lastmile_qr_scan"}, "lat": 38.902709, "is_disabled": 0, "lon": -77.03963666666667}, {"fusion_lat": 0.0, "type": "electric_scooter", "name": "573a6eff0ab1e8cc30799d62db0d82c3", "fusion_lon": 0.0, "bike_id": "573a6eff0ab1e8cc30799d62db0d82c3", "is_reserved": 0, "rental_uris": {"android": "https://dc.lft.to/lastmile_qr_scan", "ios": "https://dc.lft.to/lastmile_qr_scan"}, "lat": 38.90387466666667, "is_disabled": 0, "lon": -77.03859316666667}, {"fusion_lat": 0.0, "type": "electric_scooter", "name": "8ea46f8b20998482ecf6fe9c93fcd30e", "fusion_lon": 0.0, "bike_id": "8ea46f8b20998482ecf6fe9c93fcd30e", "is_reserved": 0, "rental_uris": {"android": "https://dc.lft.to/lastmile_qr_scan", "ios": "https://dc.lft.to/lastmile_qr_scan"}, "lat": 38.9015305, "is_disabled": 0, "lon": -77.0279675}, {"fusion_lat": 0.0, "type": "electric_scooter", "name": "4006f83f7d19b6a12fafe975a1102a4f", "fusion_lon": 0.0, "bike_id": "4006f83f7d19b6a12fafe975a1102a4f", "is_reserved": 0, "rental_uris": {"android": "https://dc.lft.to/lastmile_qr_scan", "ios": "https://dc.lft.to/lastmile_qr_scan"}, "lat": 38.89220866666667, "is_disabled": 0, "lon": -77.04375383333333}, {"fusion_lat": 0.0, "type": "electric_scooter", "name": "f4f275c78f23615210a2892c47a402c6", "fusion_lon": 0.0, "bike_id": "f4f275c78f23615210a2892c47a402c6", "is_reserved": 0, "rental_uris": {"android": "https://dc.lft.to/lastmile_qr_scan", "ios": "https://dc.lft.to/lastmile_qr_scan"}, "lat": 38.887331833333334, "is_disabled": 0, "lon": -77.02581666666667}, {"fusion_lat": 0.0, "type": "electric_scooter", "name": "3d270f98eab6a7544d9037c75328770a", "fusion_lon": 0.0, "bike_id": "3d270f98eab6a7544d9037c75328770a", "is_reserved": 0, "rental_uris": {"android": "https://dc.lft.to/lastmile_qr_scan", "ios": "https://dc.lft.to/lastmile_qr_scan"}, "lat": 38.89348783333333, "is_disabled": 0, "lon": -77.04189766666667}, {"fusion_lat": 0.0, "type": "electric_scooter", "name": "0e3049334415a0070bca2dc012f60f96", "fusion_lon": 0.0, "bike_id": "0e3049334415a0070bca2dc012f60f96", "is_reserved": 0, "rental_uris": {"android": "https://dc.lft.to/lastmile_qr_scan", "ios": "https://dc.lft.to/lastmile_qr_scan"}, "lat": 38.911949, "is_disabled": 0, "lon": -77.030183}, {"fusion_lat": 0.0, "type": "electric_scooter", "name": "93c71806b5f7f4b17e02e7fb61f4e3e0", "fusion_lon": 0.0, "bike_id": "93c71806b5f7f4b17e02e7fb61f4e3e0", "is_reserved": 0, "rental_uris": {"android": "https://dc.lft.to/lastmile_qr_scan", "ios": "https://dc.lft.to/lastmile_qr_scan"}, "lat": 38.92874716666667, "is_disabled": 0, "lon": -77.01391433333333}, {"fusion_lat": 0.0, "type": "electric_scooter", "name": "d178b7060a694e75a528ffe80a425f95", "fusion_lon": 0.0, "bike_id": "d178b7060a694e75a528ffe80a425f95", "is_reserved": 0, "rental_uris": {"android": "https://dc.lft.to/lastmile_qr_scan", "ios": "https://dc.lft.to/lastmile_qr_scan"}, "lat": 38.9243685, "is_disabled": 0, "lon": -77.0520195}, {"fusion_lat": 0.0, "type": "electric_scooter", "name": "da6270ab2b2370b5063fc65d106ba477", "fusion_lon": 0.0, "bike_id": "da6270ab2b2370b5063fc65d106ba477", "is_reserved": 0, "rental_uris": {"android": "https://dc.lft.to/lastmile_qr_scan", "ios": "https://dc.lft.to/lastmile_qr_scan"}, "lat": 38.89493616666667, "is_disabled": 0, "lon": -77.021434}, {"fusion_lat": 0.0, "type": "electric_scooter", "name": "9163a105ecd9b79e8ec8bb09ed8c196f", "fusion_lon": 0.0, "bike_id": "9163a105ecd9b79e8ec8bb09ed8c196f", "is_reserved": 0, "rental_uris": {"android": "https://dc.lft.to/lastmile_qr_scan", "ios": "https://dc.lft.to/lastmile_qr_scan"}, "lat": 38.8669975, "is_disabled": 0, "lon": -76.98710116666666}, {"fusion_lat": 0.0, "type": "electric_scooter", "name": "c84901df5f560d9f215859c383a66407", "fusion_lon": 0.0, "bike_id": "c84901df5f560d9f215859c383a66407", "is_reserved": 0, "rental_uris": {"android": "https://dc.lft.to/lastmile_qr_scan", "ios": "https://dc.lft.to/lastmile_qr_scan"}, "lat": 38.893676166666665, "is_disabled": 0, "lon": -76.9499875}, {"fusion_lat": 0.0, "type": "electric_bike", "name": "22ec93357d960b292984ac9b7d836754", "fusion_lon": 0.0, "bike_id": "22ec93357d960b292984ac9b7d836754", "is_reserved": 0, "rental_uris": {"android": "https://dc.lft.to/lastmile_qr_scan", "ios": "https://dc.lft.to/lastmile_qr_scan"}, "lat": 38.911082, "is_disabled": 0, "lon": -77.00253316666667}, {"fusion_lat": 0.0, "type": "electric_scooter", "name": "5d52230300f1701f9778e056b500218f", "fusion_lon": 0.0, "bike_id": "5d52230300f1701f9778e056b500218f", "is_reserved": 0, "rental_uris": {"android": "https://dc.lft.to/lastmile_qr_scan", "ios": "https://dc.lft.to/lastmile_qr_scan"}, "lat": 38.877226, "is_disabled": 0, "lon": -77.01763333333334}, {"fusion_lat": 0.0, "type": "electric_scooter", "name": "278d7ba60f532bcd6506ad5a38144330", "fusion_lon": 0.0, "bike_id": "278d7ba60f532bcd6506ad5a38144330", "is_reserved": 0, "rental_uris": {"android": "https://dc.lft.to/lastmile_qr_scan", "ios": "https://dc.lft.to/lastmile_qr_scan"}, "lat": 38.930837, "is_disabled": 0, "lon": -77.00413116666667}, {"fusion_lat": 0.0, "type": "electric_bike", "name": "3257dc9ef6dae77fa768d593ea1fe6f1", "fusion_lon": 0.0, "bike_id": "3257dc9ef6dae77fa768d593ea1fe6f1", "is_reserved": 0, "rental_uris": {"android": "https://dc.lft.to/lastmile_qr_scan", "ios": "https://dc.lft.to/lastmile_qr_scan"}, "lat": 38.95927733333333, "is_disabled": 0, "lon": -76.92537066666667}, {"fusion_lat": 0.0, "type": "electric_scooter", "name": "d275eb4325467c83046f278112092809", "fusion_lon": 0.0, "bike_id": "d275eb4325467c83046f278112092809", "is_reserved": 0, "rental_uris": {"android": "https://dc.lft.to/lastmile_qr_scan", "ios": "https://dc.lft.to/lastmile_qr_scan"}, "lat": 38.90474416666667, "is_disabled": 0, "lon": -77.02809}, {"fusion_lat": 0.0, "type": "electric_scooter", "name": "7e99c2fbbc24e22b95e57f0b852dbfff", "fusion_lon": 0.0, "bike_id": "7e99c2fbbc24e22b95e57f0b852dbfff", "is_reserved": 0, "rental_uris": {"android": "https://dc.lft.to/lastmile_qr_scan", "ios": "https://dc.lft.to/lastmile_qr_scan"}, "lat": 38.90527266666667, "is_disabled": 0, "lon": -77.06285383333334}, {"fusion_lat": 0.0, "type": "electric_scooter", "name": "0907842e7d1cff9ea3771cde15783918", "fusion_lon": 0.0, "bike_id": "0907842e7d1cff9ea3771cde15783918", "is_reserved": 0, "rental_uris": {"android": "https://dc.lft.to/lastmile_qr_scan", "ios": "https://dc.lft.to/lastmile_qr_scan"}, "lat": 38.9015365, "is_disabled": 0, "lon": -77.02316883333333}, {"fusion_lat": 0.0, "type": "electric_scooter", "name": "2fed0e71ea5d07eec5d9817a26bd66ce", "fusion_lon": 0.0, "bike_id": "2fed0e71ea5d07eec5d9817a26bd66ce", "is_reserved": 0, "rental_uris": {"android": "https://dc.lft.to/lastmile_qr_scan", "ios": "https://dc.lft.to/lastmile_qr_scan"}, "lat": 38.868985333333335, "is_disabled": 0, "lon": -76.98223066666667}, {"fusion_lat": 0.0, "type": "electric_scooter", "name": "61fb96fd80750387a96b2dff0f5228da", "fusion_lon": 0.0, "bike_id": "61fb96fd80750387a96b2dff0f5228da", "is_reserved": 0, "rental_uris": {"android": "https://dc.lft.to/lastmile_qr_scan", "ios": "https://dc.lft.to/lastmile_qr_scan"}, "lat": 38.933255333333335, "is_disabled": 0, "lon": -77.04402866666666}, {"fusion_lat": 0.0, "type": "electric_scooter", "name": "e82497c65a83a52614bc05c6fa42da01", "fusion_lon": 0.0, "bike_id": "e82497c65a83a52614bc05c6fa42da01", "is_reserved": 0, "rental_uris": {"android": "https://dc.lft.to/lastmile_qr_scan", "ios": "https://dc.lft.to/lastmile_qr_scan"}, "lat": 38.9367815, "is_disabled": 0, "lon": -77.0341025}, {"fusion_lat": 0.0, "type": "electric_scooter", "name": "54ce542b7440df44a6190b351f4c3aab", "fusion_lon": 0.0, "bike_id": "54ce542b7440df44a6190b351f4c3aab", "is_reserved": 0, "rental_uris": {"android": "https://dc.lft.to/lastmile_qr_scan", "ios": "https://dc.lft.to/lastmile_qr_scan"}, "lat": 38.899949, "is_disabled": 0, "lon": -77.031774}, {"fusion_lat": 0.0, "type": "electric_scooter", "name": "cb0b82002e603a18fcc4e73de4ad8139", "fusion_lon": 0.0, "bike_id": "cb0b82002e603a18fcc4e73de4ad8139", "is_reserved": 0, "rental_uris": {"android": "https://dc.lft.to/lastmile_qr_scan", "ios": "https://dc.lft.to/lastmile_qr_scan"}, "lat": 38.871583666666666, "is_disabled": 0, "lon": -76.97744883333333}, {"fusion_lat": 0.0, "type": "electric_scooter", "name": "2e02f9f3e449670711600cb464a7fd0f", "fusion_lon": 0.0, "bike_id": "2e02f9f3e449670711600cb464a7fd0f", "is_reserved": 0, "rental_uris": {"android": "https://dc.lft.to/lastmile_qr_scan", "ios": "https://dc.lft.to/lastmile_qr_scan"}, "lat": 38.91638366666667, "is_disabled": 0, "lon": -77.01077933333333}, {"fusion_lat": 0.0, "type": "electric_scooter", "name": "6594e85428b056c79fc983afbd2d94f7", "fusion_lon": 0.0, "bike_id": "6594e85428b056c79fc983afbd2d94f7", "is_reserved": 0, "rental_uris": {"android": "https://dc.lft.to/lastmile_qr_scan", "ios": "https://dc.lft.to/lastmile_qr_scan"}, "lat": 38.95559566666667, "is_disabled": 0, "lon": -77.0700005}, {"fusion_lat": 0.0, "type": "electric_scooter", "name": "27e36436dc924287ffe4b1d5aeff51b4", "fusion_lon": 0.0, "bike_id": "27e36436dc924287ffe4b1d5aeff51b4", "is_reserved": 0, "rental_uris": {"android": "https://dc.lft.to/lastmile_qr_scan", "ios": "https://dc.lft.to/lastmile_qr_scan"}, "lat": 38.9170935, "is_disabled": 0, "lon": -77.03363483333334}, {"fusion_lat": 0.0, "type": "electric_scooter", "name": "daae59ab4d7b6cdd7dbfadd491c9e001", "fusion_lon": 0.0, "bike_id": "daae59ab4d7b6cdd7dbfadd491c9e001", "is_reserved": 0, "rental_uris": {"android": "https://dc.lft.to/lastmile_qr_scan", "ios": "https://dc.lft.to/lastmile_qr_scan"}, "lat": 38.90035866666667, "is_disabled": 0, "lon": -77.01199}, {"fusion_lat": 0.0, "type": "electric_scooter", "name": "c56da07574588b5b8ac495a4205fc81b", "fusion_lon": 0.0, "bike_id": "c56da07574588b5b8ac495a4205fc81b", "is_reserved": 0, "rental_uris": {"android": "https://dc.lft.to/lastmile_qr_scan", "ios": "https://dc.lft.to/lastmile_qr_scan"}, "lat": 38.906455333333334, "is_disabled": 0, "lon": -77.00574133333333}, {"fusion_lat": 0.0, "type": "electric_scooter", "name": "40259ca0f0134b91c7bffbc995d886fe", "fusion_lon": 0.0, "bike_id": "40259ca0f0134b91c7bffbc995d886fe", "is_reserved": 0, "rental_uris": {"android": "https://dc.lft.to/lastmile_qr_scan", "ios": "https://dc.lft.to/lastmile_qr_scan"}, "lat": 38.91391, "is_disabled": 0, "lon": -77.03319166666667}, {"fusion_lat": 0.0, "type": "electric_bike", "name": "5db6dcadc0c6e3fd992a98ae6b585b75", "fusion_lon": 0.0, "bike_id": "5db6dcadc0c6e3fd992a98ae6b585b75", "is_reserved": 0, "rental_uris": {"android": "https://dc.lft.to/lastmile_qr_scan", "ios": "https://dc.lft.to/lastmile_qr_scan"}, "lat": 38.94924116666667, "is_disabled": 0, "lon": -77.00803766666667}, {"fusion_lat": 0.0, "type": "electric_scooter", "name": "7631eaed28965633f92d9b6e9e18552f", "fusion_lon": 0.0, "bike_id": "7631eaed28965633f92d9b6e9e18552f", "is_reserved": 0, "rental_uris": {"android": "https://dc.lft.to/lastmile_qr_scan", "ios": "https://dc.lft.to/lastmile_qr_scan"}, "lat": 38.9077965, "is_disabled": 0, "lon": -77.03859383333334}, {"fusion_lat": 0.0, "type": "electric_scooter", "name": "465795badb48cfee05db45a5e32188c1", "fusion_lon": 0.0, "bike_id": "465795badb48cfee05db45a5e32188c1", "is_reserved": 0, "rental_uris": {"android": "https://dc.lft.to/lastmile_qr_scan", "ios": "https://dc.lft.to/lastmile_qr_scan"}, "lat": 38.90691483333333, "is_disabled": 0, "lon": -77.03592366666666}, {"fusion_lat": 0.0, "type": "electric_bike", "name": "9a97ec23fafacfc399ae9e818290f4a2", "fusion_lon": 0.0, "bike_id": "9a97ec23fafacfc399ae9e818290f4a2", "is_reserved": 0, "rental_uris": {"android": "https://dc.lft.to/lastmile_qr_scan", "ios": "https://dc.lft.to/lastmile_qr_scan"}, "lat": 38.918539, "is_disabled": 0, "lon": -76.960911}, {"fusion_lat": 0.0, "type": "electric_scooter", "name": "32c311b0fa8f4278947e0b8d1c4934d1", "fusion_lon": 0.0, "bike_id": "32c311b0fa8f4278947e0b8d1c4934d1", "is_reserved": 0, "rental_uris": {"android": "https://dc.lft.to/lastmile_qr_scan", "ios": "https://dc.lft.to/lastmile_qr_scan"}, "lat": 38.9225355, "is_disabled": 0, "lon": -77.03520716666667}, {"fusion_lat": 0.0, "type": "electric_scooter", "name": "be54e28bb13b8675de74f8356cf5e9f4", "fusion_lon": 0.0, "bike_id": "be54e28bb13b8675de74f8356cf5e9f4", "is_reserved": 0, "rental_uris": {"android": "https://dc.lft.to/lastmile_qr_scan", "ios": "https://dc.lft.to/lastmile_qr_scan"}, "lat": 38.94913616666667, "is_disabled": 0, "lon": -77.07882383333333}, {"fusion_lat": 0.0, "type": "electric_scooter", "name": "e93f0873d9d4615ca3232d6281abcd27", "fusion_lon": 0.0, "bike_id": "e93f0873d9d4615ca3232d6281abcd27", "is_reserved": 0, "rental_uris": {"android": "https://dc.lft.to/lastmile_qr_scan", "ios": "https://dc.lft.to/lastmile_qr_scan"}, "lat": 38.922238666666665, "is_disabled": 0, "lon": -77.04240433333334}, {"fusion_lat": 0.0, "type": "electric_scooter", "name": "787d8fb196ba2a3bb5b045640fdc7b7c", "fusion_lon": 0.0, "bike_id": "787d8fb196ba2a3bb5b045640fdc7b7c", "is_reserved": 0, "rental_uris": {"android": "https://dc.lft.to/lastmile_qr_scan", "ios": "https://dc.lft.to/lastmile_qr_scan"}, "lat": 38.896072333333336, "is_disabled": 0, "lon": -77.05037183333333}, {"fusion_lat": 0.0, "type": "electric_scooter", "name": "ebff73ba96395de4285f420fd66ac433", "fusion_lon": 0.0, "bike_id": "ebff73ba96395de4285f420fd66ac433", "is_reserved": 0, "rental_uris": {"android": "https://dc.lft.to/lastmile_qr_scan", "ios": "https://dc.lft.to/lastmile_qr_scan"}, "lat": 38.917154833333335, "is_disabled": 0, "lon": -77.04150783333333}, {"fusion_lat": 0.0, "type": "electric_bike", "name": "4bdf52745cb5fb2d1b1e887186996be9", "fusion_lon": 0.0, "bike_id": "4bdf52745cb5fb2d1b1e887186996be9", "is_reserved": 0, "rental_uris": {"android": "https://dc.lft.to/lastmile_qr_scan", "ios": "https://dc.lft.to/lastmile_qr_scan"}, "lat": 38.968149833333335, "is_disabled": 0, "lon": -77.07220883333333}, {"fusion_lat": 0.0, "type": "electric_scooter", "name": "e44a3d438f479c5700de4876465670ad", "fusion_lon": 0.0, "bike_id": "e44a3d438f479c5700de4876465670ad", "is_reserved": 0, "rental_uris": {"android": "https://dc.lft.to/lastmile_qr_scan", "ios": "https://dc.lft.to/lastmile_qr_scan"}, "lat": 38.91457966666667, "is_disabled": 0, "lon": -77.01884266666667}, {"fusion_lat": 0.0, "type": "electric_scooter", "name": "a19438c1aabf526550a5d39b8c9526c4", "fusion_lon": 0.0, "bike_id": "a19438c1aabf526550a5d39b8c9526c4", "is_reserved": 0, "rental_uris": {"android": "https://dc.lft.to/lastmile_qr_scan", "ios": "https://dc.lft.to/lastmile_qr_scan"}, "lat": 38.91608166666666, "is_disabled": 0, "lon": -77.02387583333334}, {"fusion_lat": 0.0, "type": "electric_scooter", "name": "823c5015219e58781f6ae7e96c0c2b79", "fusion_lon": 0.0, "bike_id": "823c5015219e58781f6ae7e96c0c2b79", "is_reserved": 0, "rental_uris": {"android": "https://dc.lft.to/lastmile_qr_scan", "ios": "https://dc.lft.to/lastmile_qr_scan"}, "lat": 38.90436366666667, "is_disabled": 0, "lon": -76.98487716666666}, {"fusion_lat": 0.0, "type": "electric_scooter", "name": "bcb922550ba273557989b7d746554e62", "fusion_lon": 0.0, "bike_id": "bcb922550ba273557989b7d746554e62", "is_reserved": 0, "rental_uris": {"android": "https://dc.lft.to/lastmile_qr_scan", "ios": "https://dc.lft.to/lastmile_qr_scan"}, "lat": 38.90310133333333, "is_disabled": 0, "lon": -77.02367466666666}, {"fusion_lat": 0.0, "type": "electric_scooter", "name": "0c888980eb8c8ebbc657d96e56115df2", "fusion_lon": 0.0, "bike_id": "0c888980eb8c8ebbc657d96e56115df2", "is_reserved": 0, "rental_uris": {"android": "https://dc.lft.to/lastmile_qr_scan", "ios": "https://dc.lft.to/lastmile_qr_scan"}, "lat": 38.91724, "is_disabled": 0, "lon": -77.029669}, {"fusion_lat": 0.0, "type": "electric_scooter", "name": "2a5bfcfdeaf163b4ecd22e72c9f8aa07", "fusion_lon": 0.0, "bike_id": "2a5bfcfdeaf163b4ecd22e72c9f8aa07", "is_reserved": 0, "rental_uris": {"android": "https://dc.lft.to/lastmile_qr_scan", "ios": "https://dc.lft.to/lastmile_qr_scan"}, "lat": 38.941821166666664, "is_disabled": 0, "lon": -77.02532683333334}, {"fusion_lat": 0.0, "type": "electric_scooter", "name": "efe923c91c558b00250d6a9d4b4350ca", "fusion_lon": 0.0, "bike_id": "efe923c91c558b00250d6a9d4b4350ca", "is_reserved": 0, "rental_uris": {"android": "https://dc.lft.to/lastmile_qr_scan", "ios": "https://dc.lft.to/lastmile_qr_scan"}, "lat": 38.908114, "is_disabled": 0, "lon": -77.03856133333333}, {"fusion_lat": 0.0, "type": "electric_scooter", "name": "5e943da83660d424852c894d9a35401e", "fusion_lon": 0.0, "bike_id": "5e943da83660d424852c894d9a35401e", "is_reserved": 0, "rental_uris": {"android": "https://dc.lft.to/lastmile_qr_scan", "ios": "https://dc.lft.to/lastmile_qr_scan"}, "lat": 38.89193133333333, "is_disabled": 0, "lon": -77.02625133333333}, {"fusion_lat": 0.0, "type": "electric_scooter", "name": "ecdca64d575e46cae43d5b27389105c9", "fusion_lon": 0.0, "bike_id": "ecdca64d575e46cae43d5b27389105c9", "is_reserved": 0, "rental_uris": {"android": "https://dc.lft.to/lastmile_qr_scan", "ios": "https://dc.lft.to/lastmile_qr_scan"}, "lat": 38.92324416666666, "is_disabled": 0, "lon": -77.03681683333333}, {"fusion_lat": 0.0, "type": "electric_scooter", "name": "48d35306b852ddffdd686bbd548176e5", "fusion_lon": 0.0, "bike_id": "48d35306b852ddffdd686bbd548176e5", "is_reserved": 0, "rental_uris": {"android": "https://dc.lft.to/lastmile_qr_scan", "ios": "https://dc.lft.to/lastmile_qr_scan"}, "lat": 38.923741666666665, "is_disabled": 0, "lon": -77.01917433333334}, {"fusion_lat": 0.0, "type": "electric_scooter", "name": "05e991600eed2fd913ee5c2167e14748", "fusion_lon": 0.0, "bike_id": "05e991600eed2fd913ee5c2167e14748", "is_reserved": 0, "rental_uris": {"android": "https://dc.lft.to/lastmile_qr_scan", "ios": "https://dc.lft.to/lastmile_qr_scan"}, "lat": 38.905543333333334, "is_disabled": 0, "lon": -77.0427955}, {"fusion_lat": 0.0, "type": "electric_bike", "name": "1bb156cb251e130f77f323e0aa84688b", "fusion_lon": 0.0, "bike_id": "1bb156cb251e130f77f323e0aa84688b", "is_reserved": 0, "rental_uris": {"android": "https://dc.lft.to/lastmile_qr_scan", "ios": "https://dc.lft.to/lastmile_qr_scan"}, "lat": 38.889107833333334, "is_disabled": 0, "lon": -76.94796883333333}, {"fusion_lat": 0.0, "type": "electric_scooter", "name": "b3127af9968a13302c5aaffd187ed6b2", "fusion_lon": 0.0, "bike_id": "b3127af9968a13302c5aaffd187ed6b2", "is_reserved": 0, "rental_uris": {"android": "https://dc.lft.to/lastmile_qr_scan", "ios": "https://dc.lft.to/lastmile_qr_scan"}, "lat": 38.887694333333336, "is_disabled": 0, "lon": -76.95572583333333}, {"fusion_lat": 0.0, "type": "electric_scooter", "name": "280d2b5a8b4e4935ff41ff4c41ac2999", "fusion_lon": 0.0, "bike_id": "280d2b5a8b4e4935ff41ff4c41ac2999", "is_reserved": 0, "rental_uris": {"android": "https://dc.lft.to/lastmile_qr_scan", "ios": "https://dc.lft.to/lastmile_qr_scan"}, "lat": 38.92330116666667, "is_disabled": 0, "lon": -77.019512}, {"fusion_lat": 0.0, "type": "electric_scooter", "name": "5be716990937f2c23567b64b3b55b967", "fusion_lon": 0.0, "bike_id": "5be716990937f2c23567b64b3b55b967", "is_reserved": 0, "rental_uris": {"android": "https://dc.lft.to/lastmile_qr_scan", "ios": "https://dc.lft.to/lastmile_qr_scan"}, "lat": 38.9353825, "is_disabled": 0, "lon": -77.05815883333334}, {"fusion_lat": 0.0, "type": "electric_scooter", "name": "0e4fe49ee3515770a49a8597e86f3e95", "fusion_lon": 0.0, "bike_id": "0e4fe49ee3515770a49a8597e86f3e95", "is_reserved": 0, "rental_uris": {"android": "https://dc.lft.to/lastmile_qr_scan", "ios": "https://dc.lft.to/lastmile_qr_scan"}, "lat": 38.92569433333333, "is_disabled": 0, "lon": -77.028404}, {"fusion_lat": 0.0, "type": "electric_scooter", "name": "c2da05715da8ae19cabda93fe154a129", "fusion_lon": 0.0, "bike_id": "c2da05715da8ae19cabda93fe154a129", "is_reserved": 0, "rental_uris": {"android": "https://dc.lft.to/lastmile_qr_scan", "ios": "https://dc.lft.to/lastmile_qr_scan"}, "lat": 38.90083583333333, "is_disabled": 0, "lon": -76.99366016666667}, {"fusion_lat": 0.0, "type": "electric_scooter", "name": "cb5c06ff298312a2b5fef819c9504b0f", "fusion_lon": 0.0, "bike_id": "cb5c06ff298312a2b5fef819c9504b0f", "is_reserved": 0, "rental_uris": {"android": "https://dc.lft.to/lastmile_qr_scan", "ios": "https://dc.lft.to/lastmile_qr_scan"}, "lat": 38.89497816666667, "is_disabled": 0, "lon": -77.00949083333333}, {"fusion_lat": 0.0, "type": "electric_scooter", "name": "afeb5486ab693102f7ceff482c578707", "fusion_lon": 0.0, "bike_id": "afeb5486ab693102f7ceff482c578707", "is_reserved": 0, "rental_uris": {"android": "https://dc.lft.to/lastmile_qr_scan", "ios": "https://dc.lft.to/lastmile_qr_scan"}, "lat": 38.91890633333333, "is_disabled": 0, "lon": -77.02972266666667}, {"fusion_lat": 0.0, "type": "electric_scooter", "name": "92ae1aa1a8a8ca9ddb602defd63a7631", "fusion_lon": 0.0, "bike_id": "92ae1aa1a8a8ca9ddb602defd63a7631", "is_reserved": 0, "rental_uris": {"android": "https://dc.lft.to/lastmile_qr_scan", "ios": "https://dc.lft.to/lastmile_qr_scan"}, "lat": 38.901254, "is_disabled": 0, "lon": -77.04994033333334}, {"fusion_lat": 0.0, "type": "electric_scooter", "name": "cf1e1726221dd234cb98ac63afba3169", "fusion_lon": 0.0, "bike_id": "cf1e1726221dd234cb98ac63afba3169", "is_reserved": 0, "rental_uris": {"android": "https://dc.lft.to/lastmile_qr_scan", "ios": "https://dc.lft.to/lastmile_qr_scan"}, "lat": 38.94509633333333, "is_disabled": 0, "lon": -77.07455733333333}, {"fusion_lat": 0.0, "type": "electric_scooter", "name": "9796f5b2af9afaee1e4f177e987668a4", "fusion_lon": 0.0, "bike_id": "9796f5b2af9afaee1e4f177e987668a4", "is_reserved": 0, "rental_uris": {"android": "https://dc.lft.to/lastmile_qr_scan", "ios": "https://dc.lft.to/lastmile_qr_scan"}, "lat": 38.9032895, "is_disabled": 0, "lon": -77.03334833333334}, {"fusion_lat": 0.0, "type": "electric_scooter", "name": "0ffb3178a3f4bb1f728133f59e25276c", "fusion_lon": 0.0, "bike_id": "0ffb3178a3f4bb1f728133f59e25276c", "is_reserved": 0, "rental_uris": {"android": "https://dc.lft.to/lastmile_qr_scan", "ios": "https://dc.lft.to/lastmile_qr_scan"}, "lat": 38.843166333333336, "is_disabled": 0, "lon": -76.99927966666667}, {"fusion_lat": 0.0, "type": "electric_scooter", "name": "f6373c0799e4a64c1916614a0f922ecd", "fusion_lon": 0.0, "bike_id": "f6373c0799e4a64c1916614a0f922ecd", "is_reserved": 0, "rental_uris": {"android": "https://dc.lft.to/lastmile_qr_scan", "ios": "https://dc.lft.to/lastmile_qr_scan"}, "lat": 38.9051045, "is_disabled": 0, "lon": -77.03858116666666}, {"fusion_lat": 0.0, "type": "electric_scooter", "name": "7cf6b8c969ac2ffcac24552e7caa0d5e", "fusion_lon": 0.0, "bike_id": "7cf6b8c969ac2ffcac24552e7caa0d5e", "is_reserved": 0, "rental_uris": {"android": "https://dc.lft.to/lastmile_qr_scan", "ios": "https://dc.lft.to/lastmile_qr_scan"}, "lat": 38.88259683333333, "is_disabled": 0, "lon": -76.99024666666666}, {"fusion_lat": 0.0, "type": "electric_scooter", "name": "b68a381cb8f4785033ab1c9e037f7512", "fusion_lon": 0.0, "bike_id": "b68a381cb8f4785033ab1c9e037f7512", "is_reserved": 0, "rental_uris": {"android": "https://dc.lft.to/lastmile_qr_scan", "ios": "https://dc.lft.to/lastmile_qr_scan"}, "lat": 38.89176233333333, "is_disabled": 0, "lon": -77.0156235}, {"fusion_lat": 0.0, "type": "electric_scooter", "name": "d71acc3b965e27e704a3fb118bdbf04a", "fusion_lon": 0.0, "bike_id": "d71acc3b965e27e704a3fb118bdbf04a", "is_reserved": 0, "rental_uris": {"android": "https://dc.lft.to/lastmile_qr_scan", "ios": "https://dc.lft.to/lastmile_qr_scan"}, "lat": 38.928459833333335, "is_disabled": 0, "lon": -77.0325315}, {"fusion_lat": 0.0, "type": "electric_bike", "name": "d5ee411cd7920f18053d3e7ef73db698", "fusion_lon": 0.0, "bike_id": "d5ee411cd7920f18053d3e7ef73db698", "is_reserved": 0, "rental_uris": {"android": "https://dc.lft.to/lastmile_qr_scan", "ios": "https://dc.lft.to/lastmile_qr_scan"}, "lat": 39.056354, "is_disabled": 0, "lon": -77.12521283333334}, {"fusion_lat": 0.0, "type": "electric_scooter", "name": "34bdba97c961b70c85304917ee30b5ef", "fusion_lon": 0.0, "bike_id": "34bdba97c961b70c85304917ee30b5ef", "is_reserved": 0, "rental_uris": {"android": "https://dc.lft.to/lastmile_qr_scan", "ios": "https://dc.lft.to/lastmile_qr_scan"}, "lat": 38.895, "is_disabled": 0, "lon": -76.93474516666667}, {"fusion_lat": 0.0, "type": "electric_scooter", "name": "938376661df48023341039db508b09ca", "fusion_lon": 0.0, "bike_id": "938376661df48023341039db508b09ca", "is_reserved": 0, "rental_uris": {"android": "https://dc.lft.to/lastmile_qr_scan", "ios": "https://dc.lft.to/lastmile_qr_scan"}, "lat": 38.92826816666667, "is_disabled": 0, "lon": -77.02254766666667}, {"fusion_lat": 0.0, "type": "electric_scooter", "name": "e44dcb71ea211757d67ee32c4401edd2", "fusion_lon": 0.0, "bike_id": "e44dcb71ea211757d67ee32c4401edd2", "is_reserved": 0, "rental_uris": {"android": "https://dc.lft.to/lastmile_qr_scan", "ios": "https://dc.lft.to/lastmile_qr_scan"}, "lat": 38.89613333333333, "is_disabled": 0, "lon": -77.0460175}, {"fusion_lat": 0.0, "type": "electric_scooter", "name": "3349b6898a0139f090099e8ff46492b5", "fusion_lon": 0.0, "bike_id": "3349b6898a0139f090099e8ff46492b5", "is_reserved": 0, "rental_uris": {"android": "https://dc.lft.to/lastmile_qr_scan", "ios": "https://dc.lft.to/lastmile_qr_scan"}, "lat": 38.903864666666664, "is_disabled": 0, "lon": -77.02988266666667}, {"fusion_lat": 0.0, "type": "electric_scooter", "name": "baafbc4940fa6d3edbfbdbefec6d9258", "fusion_lon": 0.0, "bike_id": "baafbc4940fa6d3edbfbdbefec6d9258", "is_reserved": 0, "rental_uris": {"android": "https://dc.lft.to/lastmile_qr_scan", "ios": "https://dc.lft.to/lastmile_qr_scan"}, "lat": 38.866711, "is_disabled": 0, "lon": -76.98508683333333}, {"fusion_lat": 0.0, "type": "electric_scooter", "name": "f624ee97d5975614f2667e41d748763b", "fusion_lon": 0.0, "bike_id": "f624ee97d5975614f2667e41d748763b", "is_reserved": 0, "rental_uris": {"android": "https://dc.lft.to/lastmile_qr_scan", "ios": "https://dc.lft.to/lastmile_qr_scan"}, "lat": 38.9217815, "is_disabled": 0, "lon": -77.02664283333333}, {"fusion_lat": 0.0, "type": "electric_scooter", "name": "b0732bc97066a4b86370b4e0e47d4551", "fusion_lon": 0.0, "bike_id": "b0732bc97066a4b86370b4e0e47d4551", "is_reserved": 0, "rental_uris": {"android": "https://dc.lft.to/lastmile_qr_scan", "ios": "https://dc.lft.to/lastmile_qr_scan"}, "lat": 38.87466466666667, "is_disabled": 0, "lon": -77.01589283333334}, {"fusion_lat": 0.0, "type": "electric_scooter", "name": "42298b23d3fbb27e5a71aea8b2e92cc3", "fusion_lon": 0.0, "bike_id": "42298b23d3fbb27e5a71aea8b2e92cc3", "is_reserved": 0, "rental_uris": {"android": "https://dc.lft.to/lastmile_qr_scan", "ios": "https://dc.lft.to/lastmile_qr_scan"}, "lat": 38.896327166666666, "is_disabled": 0, "lon": -77.02408516666667}, {"fusion_lat": 0.0, "type": "electric_scooter", "name": "e45a7cc4f2ee65c7e64384e11d243983", "fusion_lon": 0.0, "bike_id": "e45a7cc4f2ee65c7e64384e11d243983", "is_reserved": 0, "rental_uris": {"android": "https://dc.lft.to/lastmile_qr_scan", "ios": "https://dc.lft.to/lastmile_qr_scan"}, "lat": 38.9123865, "is_disabled": 0, "lon": -77.00915683333334}, {"fusion_lat": 0.0, "type": "electric_scooter", "name": "e0be93b70d0d0ea170f0ee2a42b57063", "fusion_lon": 0.0, "bike_id": "e0be93b70d0d0ea170f0ee2a42b57063", "is_reserved": 0, "rental_uris": {"android": "https://dc.lft.to/lastmile_qr_scan", "ios": "https://dc.lft.to/lastmile_qr_scan"}, "lat": 38.896745833333334, "is_disabled": 0, "lon": -76.94771016666667}, {"fusion_lat": 0.0, "type": "electric_bike", "name": "0b74e544f36e4e48f40b150dcdf746f7", "fusion_lon": 0.0, "bike_id": "0b74e544f36e4e48f40b150dcdf746f7", "is_reserved": 0, "rental_uris": {"android": "https://dc.lft.to/lastmile_qr_scan", "ios": "https://dc.lft.to/lastmile_qr_scan"}, "lat": 38.8961625, "is_disabled": 0, "lon": -76.90740866666667}, {"fusion_lat": 0.0, "type": "electric_scooter", "name": "4ef54f1acd993261b918ebbb2901079a", "fusion_lon": 0.0, "bike_id": "4ef54f1acd993261b918ebbb2901079a", "is_reserved": 0, "rental_uris": {"android": "https://dc.lft.to/lastmile_qr_scan", "ios": "https://dc.lft.to/lastmile_qr_scan"}, "lat": 38.94398116666667, "is_disabled": 0, "lon": -77.02676666666666}, {"fusion_lat": 0.0, "type": "electric_scooter", "name": "f890ebf03225e07b03e9205dbf5af0a8", "fusion_lon": 0.0, "bike_id": "f890ebf03225e07b03e9205dbf5af0a8", "is_reserved": 0, "rental_uris": {"android": "https://dc.lft.to/lastmile_qr_scan", "ios": "https://dc.lft.to/lastmile_qr_scan"}, "lat": 38.91258083333334, "is_disabled": 0, "lon": -77.0268285}, {"fusion_lat": 0.0, "type": "electric_scooter", "name": "6afed3abddc0c5c40c25c8d9ef81e72c", "fusion_lon": 0.0, "bike_id": "6afed3abddc0c5c40c25c8d9ef81e72c", "is_reserved": 0, "rental_uris": {"android": "https://dc.lft.to/lastmile_qr_scan", "ios": "https://dc.lft.to/lastmile_qr_scan"}, "lat": 38.90277533333333, "is_disabled": 0, "lon": -77.05341516666667}, {"fusion_lat": 0.0, "type": "electric_scooter", "name": "1b93ab1ddb5606bf2bf7a5aaf3bee664", "fusion_lon": 0.0, "bike_id": "1b93ab1ddb5606bf2bf7a5aaf3bee664", "is_reserved": 0, "rental_uris": {"android": "https://dc.lft.to/lastmile_qr_scan", "ios": "https://dc.lft.to/lastmile_qr_scan"}, "lat": 38.8623705, "is_disabled": 0, "lon": -76.9948615}, {"fusion_lat": 0.0, "type": "electric_scooter", "name": "565cb637e0ce6ae917622e31c67999e6", "fusion_lon": 0.0, "bike_id": "565cb637e0ce6ae917622e31c67999e6", "is_reserved": 0, "rental_uris": {"android": "https://dc.lft.to/lastmile_qr_scan", "ios": "https://dc.lft.to/lastmile_qr_scan"}, "lat": 38.921022, "is_disabled": 0, "lon": -77.043886}, {"fusion_lat": 0.0, "type": "electric_scooter", "name": "66bcfd96633315ed87d617b86f318886", "fusion_lon": 0.0, "bike_id": "66bcfd96633315ed87d617b86f318886", "is_reserved": 0, "rental_uris": {"android": "https://dc.lft.to/lastmile_qr_scan", "ios": "https://dc.lft.to/lastmile_qr_scan"}, "lat": 38.93438166666667, "is_disabled": 0, "lon": -76.99879916666667}, {"fusion_lat": 0.0, "type": "electric_scooter", "name": "668fd6f5da0e241898480032de20e2f7", "fusion_lon": 0.0, "bike_id": "668fd6f5da0e241898480032de20e2f7", "is_reserved": 0, "rental_uris": {"android": "https://dc.lft.to/lastmile_qr_scan", "ios": "https://dc.lft.to/lastmile_qr_scan"}, "lat": 38.92470466666666, "is_disabled": 0, "lon": -77.03531716666667}, {"fusion_lat": 0.0, "type": "electric_scooter", "name": "ea890a595721175e07e15349cb4fecbe", "fusion_lon": 0.0, "bike_id": "ea890a595721175e07e15349cb4fecbe", "is_reserved": 0, "rental_uris": {"android": "https://dc.lft.to/lastmile_qr_scan", "ios": "https://dc.lft.to/lastmile_qr_scan"}, "lat": 38.911356166666664, "is_disabled": 0, "lon": -77.036559}, {"fusion_lat": 0.0, "type": "electric_scooter", "name": "9a1340fa93b2c39da88743103df86add", "fusion_lon": 0.0, "bike_id": "9a1340fa93b2c39da88743103df86add", "is_reserved": 0, "rental_uris": {"android": "https://dc.lft.to/lastmile_qr_scan", "ios": "https://dc.lft.to/lastmile_qr_scan"}, "lat": 38.89217466666667, "is_disabled": 0, "lon": -77.026237}, {"fusion_lat": 0.0, "type": "electric_scooter", "name": "7d8bded902204cbd698e38e3d781120b", "fusion_lon": 0.0, "bike_id": "7d8bded902204cbd698e38e3d781120b", "is_reserved": 0, "rental_uris": {"android": "https://dc.lft.to/lastmile_qr_scan", "ios": "https://dc.lft.to/lastmile_qr_scan"}, "lat": 38.9444975, "is_disabled": 0, "lon": -77.02799016666667}, {"fusion_lat": 0.0, "type": "electric_scooter", "name": "dfcc9916b4dcf89efc6dfd5a2be04757", "fusion_lon": 0.0, "bike_id": "dfcc9916b4dcf89efc6dfd5a2be04757", "is_reserved": 0, "rental_uris": {"android": "https://dc.lft.to/lastmile_qr_scan", "ios": "https://dc.lft.to/lastmile_qr_scan"}, "lat": 38.914716, "is_disabled": 0, "lon": -77.06939916666667}, {"fusion_lat": 0.0, "type": "electric_scooter", "name": "b6fee4e4b406fb1da9b8e22c47e409be", "fusion_lon": 0.0, "bike_id": "b6fee4e4b406fb1da9b8e22c47e409be", "is_reserved": 0, "rental_uris": {"android": "https://dc.lft.to/lastmile_qr_scan", "ios": "https://dc.lft.to/lastmile_qr_scan"}, "lat": 38.9092585, "is_disabled": 0, "lon": -77.038697}, {"fusion_lat": 0.0, "type": "electric_scooter", "name": "1cb888d03b93f9530213a5ad9b783f1a", "fusion_lon": 0.0, "bike_id": "1cb888d03b93f9530213a5ad9b783f1a", "is_reserved": 0, "rental_uris": {"android": "https://dc.lft.to/lastmile_qr_scan", "ios": "https://dc.lft.to/lastmile_qr_scan"}, "lat": 38.89998383333333, "is_disabled": 0, "lon": -77.02189016666667}, {"fusion_lat": 0.0, "type": "electric_scooter", "name": "7d3649b49cecf57a14f42dda1be281b6", "fusion_lon": 0.0, "bike_id": "7d3649b49cecf57a14f42dda1be281b6", "is_reserved": 0, "rental_uris": {"android": "https://dc.lft.to/lastmile_qr_scan", "ios": "https://dc.lft.to/lastmile_qr_scan"}, "lat": 38.89195466666666, "is_disabled": 0, "lon": -77.03166633333333}, {"fusion_lat": 0.0, "type": "electric_scooter", "name": "059721fbab57523eb6dd380a88348172", "fusion_lon": 0.0, "bike_id": "059721fbab57523eb6dd380a88348172", "is_reserved": 0, "rental_uris": {"android": "https://dc.lft.to/lastmile_qr_scan", "ios": "https://dc.lft.to/lastmile_qr_scan"}, "lat": 38.887321166666666, "is_disabled": 0, "lon": -77.02580033333334}, {"fusion_lat": 0.0, "type": "electric_bike", "name": "2f7c25439ce37b5905cf136702280fde", "fusion_lon": 0.0, "bike_id": "2f7c25439ce37b5905cf136702280fde", "is_reserved": 0, "rental_uris": {"android": "https://dc.lft.to/lastmile_qr_scan", "ios": "https://dc.lft.to/lastmile_qr_scan"}, "lat": 38.96779866666667, "is_disabled": 0, "lon": -77.000375}, {"fusion_lat": 0.0, "type": "electric_scooter", "name": "4305c5519a87e5025acb2cd35f239723", "fusion_lon": 0.0, "bike_id": "4305c5519a87e5025acb2cd35f239723", "is_reserved": 0, "rental_uris": {"android": "https://dc.lft.to/lastmile_qr_scan", "ios": "https://dc.lft.to/lastmile_qr_scan"}, "lat": 38.909573, "is_disabled": 0, "lon": -77.0320755}, {"fusion_lat": 0.0, "type": "electric_scooter", "name": "452f5bbe5cc410681ce365f38f0ae878", "fusion_lon": 0.0, "bike_id": "452f5bbe5cc410681ce365f38f0ae878", "is_reserved": 0, "rental_uris": {"android": "https://dc.lft.to/lastmile_qr_scan", "ios": "https://dc.lft.to/lastmile_qr_scan"}, "lat": 38.90045583333333, "is_disabled": 0, "lon": -76.9841695}, {"fusion_lat": 0.0, "type": "electric_scooter", "name": "1cb3f2fd384dbe110010beeeb9063abb", "fusion_lon": 0.0, "bike_id": "1cb3f2fd384dbe110010beeeb9063abb", "is_reserved": 0, "rental_uris": {"android": "https://dc.lft.to/lastmile_qr_scan", "ios": "https://dc.lft.to/lastmile_qr_scan"}, "lat": 38.903945, "is_disabled": 0, "lon": -77.0627105}, {"fusion_lat": 0.0, "type": "electric_scooter", "name": "baf114219a0b521f039f589eaadb562e", "fusion_lon": 0.0, "bike_id": "baf114219a0b521f039f589eaadb562e", "is_reserved": 0, "rental_uris": {"android": "https://dc.lft.to/lastmile_qr_scan", "ios": "https://dc.lft.to/lastmile_qr_scan"}, "lat": 38.877195, "is_disabled": 0, "lon": -77.01768383333334}, {"fusion_lat": 0.0, "type": "electric_scooter", "name": "bc50ce83f41fc5739dc5ba32ffc2188e", "fusion_lon": 0.0, "bike_id": "bc50ce83f41fc5739dc5ba32ffc2188e", "is_reserved": 0, "rental_uris": {"android": "https://dc.lft.to/lastmile_qr_scan", "ios": "https://dc.lft.to/lastmile_qr_scan"}, "lat": 38.91081166666667, "is_disabled": 0, "lon": -77.03716666666666}, {"fusion_lat": 0.0, "type": "electric_scooter", "name": "ba724959d4c9849cbe433c20a41fd42d", "fusion_lon": 0.0, "bike_id": "ba724959d4c9849cbe433c20a41fd42d", "is_reserved": 0, "rental_uris": {"android": "https://dc.lft.to/lastmile_qr_scan", "ios": "https://dc.lft.to/lastmile_qr_scan"}, "lat": 38.892369333333335, "is_disabled": 0, "lon": -77.03213483333333}, {"fusion_lat": 0.0, "type": "electric_scooter", "name": "3c6f715dca579558d5191ba48b7dfb2f", "fusion_lon": 0.0, "bike_id": "3c6f715dca579558d5191ba48b7dfb2f", "is_reserved": 0, "rental_uris": {"android": "https://dc.lft.to/lastmile_qr_scan", "ios": "https://dc.lft.to/lastmile_qr_scan"}, "lat": 38.908359833333336, "is_disabled": 0, "lon": -76.99698033333334}, {"fusion_lat": 0.0, "type": "electric_scooter", "name": "94af4248d1f814c69dab61c3c4025e7a", "fusion_lon": 0.0, "bike_id": "94af4248d1f814c69dab61c3c4025e7a", "is_reserved": 0, "rental_uris": {"android": "https://dc.lft.to/lastmile_qr_scan", "ios": "https://dc.lft.to/lastmile_qr_scan"}, "lat": 38.942645666666664, "is_disabled": 0, "lon": -77.02845266666667}, {"fusion_lat": 0.0, "type": "electric_scooter", "name": "e82e4709cfe33e1cb090b86ef661c30b", "fusion_lon": 0.0, "bike_id": "e82e4709cfe33e1cb090b86ef661c30b", "is_reserved": 0, "rental_uris": {"android": "https://dc.lft.to/lastmile_qr_scan", "ios": "https://dc.lft.to/lastmile_qr_scan"}, "lat": 38.925139, "is_disabled": 0, "lon": -77.02280916666666}, {"fusion_lat": 0.0, "type": "electric_bike", "name": "ebc7ad8d17816ebed6a88315fb21a693", "fusion_lon": 0.0, "bike_id": "ebc7ad8d17816ebed6a88315fb21a693", "is_reserved": 0, "rental_uris": {"android": "https://dc.lft.to/lastmile_qr_scan", "ios": "https://dc.lft.to/lastmile_qr_scan"}, "lat": 38.94972416666667, "is_disabled": 0, "lon": -77.07383466666667}, {"fusion_lat": 0.0, "type": "electric_scooter", "name": "71a997b0fa6040b0be3226d5cd926288", "fusion_lon": 0.0, "bike_id": "71a997b0fa6040b0be3226d5cd926288", "is_reserved": 0, "rental_uris": {"android": "https://dc.lft.to/lastmile_qr_scan", "ios": "https://dc.lft.to/lastmile_qr_scan"}, "lat": 38.909636, "is_disabled": 0, "lon": -77.04109183333334}, {"fusion_lat": 0.0, "type": "electric_scooter", "name": "b7e4b29f02752270871d60352ac00d22", "fusion_lon": 0.0, "bike_id": "b7e4b29f02752270871d60352ac00d22", "is_reserved": 0, "rental_uris": {"android": "https://dc.lft.to/lastmile_qr_scan", "ios": "https://dc.lft.to/lastmile_qr_scan"}, "lat": 38.899635, "is_disabled": 0, "lon": -77.015976}, {"fusion_lat": 0.0, "type": "electric_scooter", "name": "0f607208cd16e31c292fa7bcec3da4d0", "fusion_lon": 0.0, "bike_id": "0f607208cd16e31c292fa7bcec3da4d0", "is_reserved": 0, "rental_uris": {"android": "https://dc.lft.to/lastmile_qr_scan", "ios": "https://dc.lft.to/lastmile_qr_scan"}, "lat": 38.90660283333333, "is_disabled": 0, "lon": -77.031467}, {"fusion_lat": 0.0, "type": "electric_scooter", "name": "042797cb0cad4d5486e12306a077107d", "fusion_lon": 0.0, "bike_id": "042797cb0cad4d5486e12306a077107d", "is_reserved": 0, "rental_uris": {"android": "https://dc.lft.to/lastmile_qr_scan", "ios": "https://dc.lft.to/lastmile_qr_scan"}, "lat": 38.916940333333336, "is_disabled": 0, "lon": -77.04253216666666}, {"fusion_lat": 0.0, "type": "electric_scooter", "name": "9c1542a63f791eb092bc36fdc08898d9", "fusion_lon": 0.0, "bike_id": "9c1542a63f791eb092bc36fdc08898d9", "is_reserved": 0, "rental_uris": {"android": "https://dc.lft.to/lastmile_qr_scan", "ios": "https://dc.lft.to/lastmile_qr_scan"}, "lat": 38.897616, "is_disabled": 0, "lon": -77.03950466666667}, {"fusion_lat": 0.0, "type": "electric_scooter", "name": "ab878ec0274e508f5b6d2e49a2c338ef", "fusion_lon": 0.0, "bike_id": "ab878ec0274e508f5b6d2e49a2c338ef", "is_reserved": 0, "rental_uris": {"android": "https://dc.lft.to/lastmile_qr_scan", "ios": "https://dc.lft.to/lastmile_qr_scan"}, "lat": 38.929322, "is_disabled": 0, "lon": -77.03755}, {"fusion_lat": 0.0, "type": "electric_scooter", "name": "c8a12fdba124ff3e87a1af0e83ab79fd", "fusion_lon": 0.0, "bike_id": "c8a12fdba124ff3e87a1af0e83ab79fd", "is_reserved": 0, "rental_uris": {"android": "https://dc.lft.to/lastmile_qr_scan", "ios": "https://dc.lft.to/lastmile_qr_scan"}, "lat": 38.89982916666666, "is_disabled": 0, "lon": -77.0156345}, {"fusion_lat": 0.0, "type": "electric_scooter", "name": "facc3c4bb1d513d360e65b37083aa7e5", "fusion_lon": 0.0, "bike_id": "facc3c4bb1d513d360e65b37083aa7e5", "is_reserved": 0, "rental_uris": {"android": "https://dc.lft.to/lastmile_qr_scan", "ios": "https://dc.lft.to/lastmile_qr_scan"}, "lat": 38.886148166666665, "is_disabled": 0, "lon": -76.99656483333334}, {"fusion_lat": 0.0, "type": "electric_bike", "name": "3b6582dc510874081274f95e4f4374b9", "fusion_lon": 0.0, "bike_id": "3b6582dc510874081274f95e4f4374b9", "is_reserved": 0, "rental_uris": {"android": "https://dc.lft.to/lastmile_qr_scan", "ios": "https://dc.lft.to/lastmile_qr_scan"}, "lat": 38.94551366666666, "is_disabled": 0, "lon": -76.89538166666667}, {"fusion_lat": 0.0, "type": "electric_scooter", "name": "be072f997d4746d6734352783f67c096", "fusion_lon": 0.0, "bike_id": "be072f997d4746d6734352783f67c096", "is_reserved": 0, "rental_uris": {"android": "https://dc.lft.to/lastmile_qr_scan", "ios": "https://dc.lft.to/lastmile_qr_scan"}, "lat": 38.90344, "is_disabled": 0, "lon": -77.02065566666667}, {"fusion_lat": 0.0, "type": "electric_scooter", "name": "9e654f8b870568fbca1dfb0b61b027eb", "fusion_lon": 0.0, "bike_id": "9e654f8b870568fbca1dfb0b61b027eb", "is_reserved": 0, "rental_uris": {"android": "https://dc.lft.to/lastmile_qr_scan", "ios": "https://dc.lft.to/lastmile_qr_scan"}, "lat": 38.9215715, "is_disabled": 0, "lon": -77.02060883333333}, {"fusion_lat": 0.0, "type": "electric_scooter", "name": "d9595ccae3864aa45e4a542829e9043b", "fusion_lon": 0.0, "bike_id": "d9595ccae3864aa45e4a542829e9043b", "is_reserved": 0, "rental_uris": {"android": "https://dc.lft.to/lastmile_qr_scan", "ios": "https://dc.lft.to/lastmile_qr_scan"}, "lat": 38.906198333333336, "is_disabled": 0, "lon": -77.04347783333333}, {"fusion_lat": 0.0, "type": "electric_scooter", "name": "365fff87e914434e1c6242f4213efaaa", "fusion_lon": 0.0, "bike_id": "365fff87e914434e1c6242f4213efaaa", "is_reserved": 0, "rental_uris": {"android": "https://dc.lft.to/lastmile_qr_scan", "ios": "https://dc.lft.to/lastmile_qr_scan"}, "lat": 38.91483483333333, "is_disabled": 0, "lon": -77.02566133333333}, {"fusion_lat": 0.0, "type": "electric_bike", "name": "f01a205a7e45dda91e2cae5c6303f5ea", "fusion_lon": 0.0, "bike_id": "f01a205a7e45dda91e2cae5c6303f5ea", "is_reserved": 0, "rental_uris": {"android": "https://dc.lft.to/lastmile_qr_scan", "ios": "https://dc.lft.to/lastmile_qr_scan"}, "lat": 38.94510233333333, "is_disabled": 0, "lon": -77.006754}, {"fusion_lat": 0.0, "type": "electric_scooter", "name": "d8b60301a99893651c7563074611f156", "fusion_lon": 0.0, "bike_id": "d8b60301a99893651c7563074611f156", "is_reserved": 0, "rental_uris": {"android": "https://dc.lft.to/lastmile_qr_scan", "ios": "https://dc.lft.to/lastmile_qr_scan"}, "lat": 38.929728833333336, "is_disabled": 0, "lon": -77.0550465}, {"fusion_lat": 0.0, "type": "electric_scooter", "name": "a8fc97b745dd19a42503d25714894fc9", "fusion_lon": 0.0, "bike_id": "a8fc97b745dd19a42503d25714894fc9", "is_reserved": 0, "rental_uris": {"android": "https://dc.lft.to/lastmile_qr_scan", "ios": "https://dc.lft.to/lastmile_qr_scan"}, "lat": 38.885055666666666, "is_disabled": 0, "lon": -77.0157985}, {"fusion_lat": 0.0, "type": "electric_scooter", "name": "08fa57abac2a0a893b39ba3cd59c6b3c", "fusion_lon": 0.0, "bike_id": "08fa57abac2a0a893b39ba3cd59c6b3c", "is_reserved": 0, "rental_uris": {"android": "https://dc.lft.to/lastmile_qr_scan", "ios": "https://dc.lft.to/lastmile_qr_scan"}, "lat": 38.909431166666664, "is_disabled": 0, "lon": -77.03452316666667}, {"fusion_lat": 0.0, "type": "electric_scooter", "name": "017c70654ee0fbf3f9fd60d73715d9a1", "fusion_lon": 0.0, "bike_id": "017c70654ee0fbf3f9fd60d73715d9a1", "is_reserved": 0, "rental_uris": {"android": "https://dc.lft.to/lastmile_qr_scan", "ios": "https://dc.lft.to/lastmile_qr_scan"}, "lat": 38.923630833333334, "is_disabled": 0, "lon": -77.0504625}, {"fusion_lat": 0.0, "type": "electric_scooter", "name": "17a6c3dd74fa9d5db1b21b211437fb78", "fusion_lon": 0.0, "bike_id": "17a6c3dd74fa9d5db1b21b211437fb78", "is_reserved": 0, "rental_uris": {"android": "https://dc.lft.to/lastmile_qr_scan", "ios": "https://dc.lft.to/lastmile_qr_scan"}, "lat": 38.90386, "is_disabled": 0, "lon": -77.0446745}, {"fusion_lat": 0.0, "type": "electric_scooter", "name": "d7413d9b771a31d829205f6d271c1459", "fusion_lon": 0.0, "bike_id": "d7413d9b771a31d829205f6d271c1459", "is_reserved": 0, "rental_uris": {"android": "https://dc.lft.to/lastmile_qr_scan", "ios": "https://dc.lft.to/lastmile_qr_scan"}, "lat": 38.899118, "is_disabled": 0, "lon": -77.03980316666667}, {"fusion_lat": 0.0, "type": "electric_scooter", "name": "417a63a032994c508ad7c3bbf652e1bd", "fusion_lon": 0.0, "bike_id": "417a63a032994c508ad7c3bbf652e1bd", "is_reserved": 0, "rental_uris": {"android": "https://dc.lft.to/lastmile_qr_scan", "ios": "https://dc.lft.to/lastmile_qr_scan"}, "lat": 38.91357516666667, "is_disabled": 0, "lon": -77.03840316666667}, {"fusion_lat": 0.0, "type": "electric_bike", "name": "60609038914daa277b016b56ab9adcc0", "fusion_lon": 0.0, "bike_id": "60609038914daa277b016b56ab9adcc0", "is_reserved": 0, "rental_uris": {"android": "https://dc.lft.to/lastmile_qr_scan", "ios": "https://dc.lft.to/lastmile_qr_scan"}, "lat": 38.827855166666666, "is_disabled": 0, "lon": -77.0091505}, {"fusion_lat": 0.0, "type": "electric_scooter", "name": "f4fa0b3f657ee2f12b7dfb7cb21d6d62", "fusion_lon": 0.0, "bike_id": "f4fa0b3f657ee2f12b7dfb7cb21d6d62", "is_reserved": 0, "rental_uris": {"android": "https://dc.lft.to/lastmile_qr_scan", "ios": "https://dc.lft.to/lastmile_qr_scan"}, "lat": 38.927949166666664, "is_disabled": 0, "lon": -77.0435545}, {"fusion_lat": 0.0, "type": "electric_scooter", "name": "ce82153ba141b44ffc7c5155be5ab4e6", "fusion_lon": 0.0, "bike_id": "ce82153ba141b44ffc7c5155be5ab4e6", "is_reserved": 0, "rental_uris": {"android": "https://dc.lft.to/lastmile_qr_scan", "ios": "https://dc.lft.to/lastmile_qr_scan"}, "lat": 38.9055715, "is_disabled": 0, "lon": -76.98378716666667}, {"fusion_lat": 0.0, "type": "electric_scooter", "name": "7c4dda0a4e09e808197543bad24444b1", "fusion_lon": 0.0, "bike_id": "7c4dda0a4e09e808197543bad24444b1", "is_reserved": 0, "rental_uris": {"android": "https://dc.lft.to/lastmile_qr_scan", "ios": "https://dc.lft.to/lastmile_qr_scan"}, "lat": 38.865049, "is_disabled": 0, "lon": -76.99000383333333}, {"fusion_lat": 0.0, "type": "electric_scooter", "name": "55b6fe3666546629ea5cff75515f7af8", "fusion_lon": 0.0, "bike_id": "55b6fe3666546629ea5cff75515f7af8", "is_reserved": 0, "rental_uris": {"android": "https://dc.lft.to/lastmile_qr_scan", "ios": "https://dc.lft.to/lastmile_qr_scan"}, "lat": 38.89879333333333, "is_disabled": 0, "lon": -76.93185366666667}, {"fusion_lat": 0.0, "type": "electric_scooter", "name": "7c4e4ea4e0e40cd71018a27d0f65f4bf", "fusion_lon": 0.0, "bike_id": "7c4e4ea4e0e40cd71018a27d0f65f4bf", "is_reserved": 0, "rental_uris": {"android": "https://dc.lft.to/lastmile_qr_scan", "ios": "https://dc.lft.to/lastmile_qr_scan"}, "lat": 38.936061, "is_disabled": 0, "lon": -77.05895016666666}, {"fusion_lat": 0.0, "type": "electric_scooter", "name": "db186ae9f8b4c6bbe6dd48d44564589a", "fusion_lon": 0.0, "bike_id": "db186ae9f8b4c6bbe6dd48d44564589a", "is_reserved": 0, "rental_uris": {"android": "https://dc.lft.to/lastmile_qr_scan", "ios": "https://dc.lft.to/lastmile_qr_scan"}, "lat": 38.925110833333335, "is_disabled": 0, "lon": -77.00223583333333}, {"fusion_lat": 0.0, "type": "electric_scooter", "name": "9e09d154d3beaea25535e9ab27ecb7fc", "fusion_lon": 0.0, "bike_id": "9e09d154d3beaea25535e9ab27ecb7fc", "is_reserved": 0, "rental_uris": {"android": "https://dc.lft.to/lastmile_qr_scan", "ios": "https://dc.lft.to/lastmile_qr_scan"}, "lat": 38.87190783333333, "is_disabled": 0, "lon": -77.005857}, {"fusion_lat": 0.0, "type": "electric_scooter", "name": "aa89aa9bc347d9a03354887eab31082d", "fusion_lon": 0.0, "bike_id": "aa89aa9bc347d9a03354887eab31082d", "is_reserved": 0, "rental_uris": {"android": "https://dc.lft.to/lastmile_qr_scan", "ios": "https://dc.lft.to/lastmile_qr_scan"}, "lat": 38.9420385, "is_disabled": 0, "lon": -77.02498716666666}, {"fusion_lat": 0.0, "type": "electric_scooter", "name": "bf27b14b9926dc7b09c77a51b58bdc61", "fusion_lon": 0.0, "bike_id": "bf27b14b9926dc7b09c77a51b58bdc61", "is_reserved": 0, "rental_uris": {"android": "https://dc.lft.to/lastmile_qr_scan", "ios": "https://dc.lft.to/lastmile_qr_scan"}, "lat": 38.949883666666665, "is_disabled": 0, "lon": -77.02707216666667}, {"fusion_lat": 0.0, "type": "electric_scooter", "name": "7a2a50e16e2c119dcc763ff541dbdf0b", "fusion_lon": 0.0, "bike_id": "7a2a50e16e2c119dcc763ff541dbdf0b", "is_reserved": 0, "rental_uris": {"android": "https://dc.lft.to/lastmile_qr_scan", "ios": "https://dc.lft.to/lastmile_qr_scan"}, "lat": 38.9113295, "is_disabled": 0, "lon": -77.0441495}, {"fusion_lat": 0.0, "type": "electric_scooter", "name": "e5cda34395ae97b14332670c24af7e04", "fusion_lon": 0.0, "bike_id": "e5cda34395ae97b14332670c24af7e04", "is_reserved": 0, "rental_uris": {"android": "https://dc.lft.to/lastmile_qr_scan", "ios": "https://dc.lft.to/lastmile_qr_scan"}, "lat": 38.886246666666665, "is_disabled": 0, "lon": -77.01974766666666}, {"fusion_lat": 0.0, "type": "electric_scooter", "name": "a2fc0899b9af1102173eadd9ea9fd259", "fusion_lon": 0.0, "bike_id": "a2fc0899b9af1102173eadd9ea9fd259", "is_reserved": 0, "rental_uris": {"android": "https://dc.lft.to/lastmile_qr_scan", "ios": "https://dc.lft.to/lastmile_qr_scan"}, "lat": 38.89893433333334, "is_disabled": 0, "lon": -77.032914}, {"fusion_lat": 0.0, "type": "electric_scooter", "name": "e28ae40177301f47c638609e5408b8ca", "fusion_lon": 0.0, "bike_id": "e28ae40177301f47c638609e5408b8ca", "is_reserved": 0, "rental_uris": {"android": "https://dc.lft.to/lastmile_qr_scan", "ios": "https://dc.lft.to/lastmile_qr_scan"}, "lat": 38.90535883333333, "is_disabled": 0, "lon": -77.04992883333334}, {"fusion_lat": 0.0, "type": "electric_bike", "name": "2ff13289999555cbebab55ee965121d0", "fusion_lon": 0.0, "bike_id": "2ff13289999555cbebab55ee965121d0", "is_reserved": 0, "rental_uris": {"android": "https://dc.lft.to/lastmile_qr_scan", "ios": "https://dc.lft.to/lastmile_qr_scan"}, "lat": 38.957597166666666, "is_disabled": 0, "lon": -77.00711566666666}, {"fusion_lat": 0.0, "type": "electric_scooter", "name": "97e69d01262f4d09299c1877b5ed0deb", "fusion_lon": 0.0, "bike_id": "97e69d01262f4d09299c1877b5ed0deb", "is_reserved": 0, "rental_uris": {"android": "https://dc.lft.to/lastmile_qr_scan", "ios": "https://dc.lft.to/lastmile_qr_scan"}, "lat": 38.8900105, "is_disabled": 0, "lon": -76.9594415}, {"fusion_lat": 0.0, "type": "electric_scooter", "name": "a669d1b1946a5f5075a9e5cd5a0c22cb", "fusion_lon": 0.0, "bike_id": "a669d1b1946a5f5075a9e5cd5a0c22cb", "is_reserved": 0, "rental_uris": {"android": "https://dc.lft.to/lastmile_qr_scan", "ios": "https://dc.lft.to/lastmile_qr_scan"}, "lat": 38.91683833333333, "is_disabled": 0, "lon": -77.0317395}, {"fusion_lat": 0.0, "type": "electric_scooter", "name": "3a3d8b0441ddcd46da8d5104ea975504", "fusion_lon": 0.0, "bike_id": "3a3d8b0441ddcd46da8d5104ea975504", "is_reserved": 0, "rental_uris": {"android": "https://dc.lft.to/lastmile_qr_scan", "ios": "https://dc.lft.to/lastmile_qr_scan"}, "lat": 38.92800666666667, "is_disabled": 0, "lon": -77.02475916666667}, {"fusion_lat": 0.0, "type": "electric_scooter", "name": "f196cf8ec76a0c929c6deee7b08fc27a", "fusion_lon": 0.0, "bike_id": "f196cf8ec76a0c929c6deee7b08fc27a", "is_reserved": 0, "rental_uris": {"android": "https://dc.lft.to/lastmile_qr_scan", "ios": "https://dc.lft.to/lastmile_qr_scan"}, "lat": 38.97372766666667, "is_disabled": 0, "lon": -77.01863666666667}, {"fusion_lat": 0.0, "type": "electric_scooter", "name": "78897cc6d1f4160bb8a3f196318bbfc5", "fusion_lon": 0.0, "bike_id": "78897cc6d1f4160bb8a3f196318bbfc5", "is_reserved": 0, "rental_uris": {"android": "https://dc.lft.to/lastmile_qr_scan", "ios": "https://dc.lft.to/lastmile_qr_scan"}, "lat": 38.91480383333333, "is_disabled": 0, "lon": -77.02575283333333}, {"fusion_lat": 0.0, "type": "electric_scooter", "name": "f5720e9350021c527da855f98e55ffd1", "fusion_lon": 0.0, "bike_id": "f5720e9350021c527da855f98e55ffd1", "is_reserved": 0, "rental_uris": {"android": "https://dc.lft.to/lastmile_qr_scan", "ios": "https://dc.lft.to/lastmile_qr_scan"}, "lat": 38.93587683333333, "is_disabled": 0, "lon": -77.05852216666666}, {"fusion_lat": 0.0, "type": "electric_scooter", "name": "0f04fc40bd02fc870f5152561543553c", "fusion_lon": 0.0, "bike_id": "0f04fc40bd02fc870f5152561543553c", "is_reserved": 0, "rental_uris": {"android": "https://dc.lft.to/lastmile_qr_scan", "ios": "https://dc.lft.to/lastmile_qr_scan"}, "lat": 38.908128, "is_disabled": 0, "lon": -77.038532}, {"fusion_lat": 0.0, "type": "electric_scooter", "name": "dd4688128db1409da963d1a0792f732b", "fusion_lon": 0.0, "bike_id": "dd4688128db1409da963d1a0792f732b", "is_reserved": 0, "rental_uris": {"android": "https://dc.lft.to/lastmile_qr_scan", "ios": "https://dc.lft.to/lastmile_qr_scan"}, "lat": 38.89874966666667, "is_disabled": 0, "lon": -77.01395183333334}, {"fusion_lat": 0.0, "type": "electric_scooter", "name": "b8e47bac459a03bae9330232d2d81635", "fusion_lon": 0.0, "bike_id": "b8e47bac459a03bae9330232d2d81635", "is_reserved": 0, "rental_uris": {"android": "https://dc.lft.to/lastmile_qr_scan", "ios": "https://dc.lft.to/lastmile_qr_scan"}, "lat": 38.903630166666666, "is_disabled": 0, "lon": -77.00657216666667}, {"fusion_lat": 0.0, "type": "electric_scooter", "name": "353fb7601566282e3380597a73c0a7cd", "fusion_lon": 0.0, "bike_id": "353fb7601566282e3380597a73c0a7cd", "is_reserved": 0, "rental_uris": {"android": "https://dc.lft.to/lastmile_qr_scan", "ios": "https://dc.lft.to/lastmile_qr_scan"}, "lat": 38.90971183333333, "is_disabled": 0, "lon": -77.032976}, {"fusion_lat": 0.0, "type": "electric_scooter", "name": "4ca8eea97e13fd1b7ef4c2b43297057e", "fusion_lon": 0.0, "bike_id": "4ca8eea97e13fd1b7ef4c2b43297057e", "is_reserved": 0, "rental_uris": {"android": "https://dc.lft.to/lastmile_qr_scan", "ios": "https://dc.lft.to/lastmile_qr_scan"}, "lat": 38.870791, "is_disabled": 0, "lon": -76.98894783333333}, {"fusion_lat": 0.0, "type": "electric_scooter", "name": "eda332ad4d9eb2a001e4463668d9cb5d", "fusion_lon": 0.0, "bike_id": "eda332ad4d9eb2a001e4463668d9cb5d", "is_reserved": 0, "rental_uris": {"android": "https://dc.lft.to/lastmile_qr_scan", "ios": "https://dc.lft.to/lastmile_qr_scan"}, "lat": 38.920307666666666, "is_disabled": 0, "lon": -77.0111745}, {"fusion_lat": 0.0, "type": "electric_scooter", "name": "f7fca9dd2740fa76829b469e1c21ce30", "fusion_lon": 0.0, "bike_id": "f7fca9dd2740fa76829b469e1c21ce30", "is_reserved": 0, "rental_uris": {"android": "https://dc.lft.to/lastmile_qr_scan", "ios": "https://dc.lft.to/lastmile_qr_scan"}, "lat": 38.9084095, "is_disabled": 0, "lon": -77.04351116666666}, {"fusion_lat": 0.0, "type": "electric_scooter", "name": "b480b230d27c4e4dae0573e56e9d89db", "fusion_lon": 0.0, "bike_id": "b480b230d27c4e4dae0573e56e9d89db", "is_reserved": 0, "rental_uris": {"android": "https://dc.lft.to/lastmile_qr_scan", "ios": "https://dc.lft.to/lastmile_qr_scan"}, "lat": 38.92907433333333, "is_disabled": 0, "lon": -77.06260716666667}, {"fusion_lat": 0.0, "type": "electric_bike", "name": "1fada3dd6283780ce0d234dc881685d8", "fusion_lon": 0.0, "bike_id": "1fada3dd6283780ce0d234dc881685d8", "is_reserved": 0, "rental_uris": {"android": "https://dc.lft.to/lastmile_qr_scan", "ios": "https://dc.lft.to/lastmile_qr_scan"}, "lat": 38.936412833333335, "is_disabled": 0, "lon": -77.05780483333334}, {"fusion_lat": 0.0, "type": "electric_scooter", "name": "b18d6976008d40d9b499330dc989504c", "fusion_lon": 0.0, "bike_id": "b18d6976008d40d9b499330dc989504c", "is_reserved": 0, "rental_uris": {"android": "https://dc.lft.to/lastmile_qr_scan", "ios": "https://dc.lft.to/lastmile_qr_scan"}, "lat": 38.892280666666665, "is_disabled": 0, "lon": -77.02801766666667}, {"fusion_lat": 0.0, "type": "electric_scooter", "name": "16be45b53735b6114659257c82649ca8", "fusion_lon": 0.0, "bike_id": "16be45b53735b6114659257c82649ca8", "is_reserved": 0, "rental_uris": {"android": "https://dc.lft.to/lastmile_qr_scan", "ios": "https://dc.lft.to/lastmile_qr_scan"}, "lat": 38.9041555, "is_disabled": 0, "lon": -77.04351583333333}, {"fusion_lat": 0.0, "type": "electric_scooter", "name": "0fdf66f3abe15d40cd6a593827dc1b9a", "fusion_lon": 0.0, "bike_id": "0fdf66f3abe15d40cd6a593827dc1b9a", "is_reserved": 0, "rental_uris": {"android": "https://dc.lft.to/lastmile_qr_scan", "ios": "https://dc.lft.to/lastmile_qr_scan"}, "lat": 38.906135666666664, "is_disabled": 0, "lon": -77.04143033333334}, {"fusion_lat": 0.0, "type": "electric_scooter", "name": "01dbd39a3896a6d27af260c1abaf071a", "fusion_lon": 0.0, "bike_id": "01dbd39a3896a6d27af260c1abaf071a", "is_reserved": 0, "rental_uris": {"android": "https://dc.lft.to/lastmile_qr_scan", "ios": "https://dc.lft.to/lastmile_qr_scan"}, "lat": 38.918847, "is_disabled": 0, "lon": -77.04826583333333}, {"fusion_lat": 0.0, "type": "electric_scooter", "name": "020f8300972fbac063086dc4ebb2590a", "fusion_lon": 0.0, "bike_id": "020f8300972fbac063086dc4ebb2590a", "is_reserved": 0, "rental_uris": {"android": "https://dc.lft.to/lastmile_qr_scan", "ios": "https://dc.lft.to/lastmile_qr_scan"}, "lat": 38.95793466666667, "is_disabled": 0, "lon": -77.019987}, {"fusion_lat": 0.0, "type": "electric_scooter", "name": "ad36fd8bec6460924070c023023e718d", "fusion_lon": 0.0, "bike_id": "ad36fd8bec6460924070c023023e718d", "is_reserved": 0, "rental_uris": {"android": "https://dc.lft.to/lastmile_qr_scan", "ios": "https://dc.lft.to/lastmile_qr_scan"}, "lat": 38.88618566666667, "is_disabled": 0, "lon": -77.0006395}, {"fusion_lat": 0.0, "type": "electric_scooter", "name": "c6e0b2c3fea5800b1b3cdadfc1fba489", "fusion_lon": 0.0, "bike_id": "c6e0b2c3fea5800b1b3cdadfc1fba489", "is_reserved": 0, "rental_uris": {"android": "https://dc.lft.to/lastmile_qr_scan", "ios": "https://dc.lft.to/lastmile_qr_scan"}, "lat": 38.90500866666667, "is_disabled": 0, "lon": -77.06857233333334}, {"fusion_lat": 0.0, "type": "electric_scooter", "name": "191c205546023b7075d750343904d7c9", "fusion_lon": 0.0, "bike_id": "191c205546023b7075d750343904d7c9", "is_reserved": 0, "rental_uris": {"android": "https://dc.lft.to/lastmile_qr_scan", "ios": "https://dc.lft.to/lastmile_qr_scan"}, "lat": 38.90370883333333, "is_disabled": 0, "lon": -77.0451415},