{"data": {"bikes": [{"lon": -77.0271235, "name": "5ba0aa8d93eed50d45cbc2866a0d3f7b", "is_disabled": 0, "type": "electric_scooter", "is_reserved": 0, "fusion_lon": 0.0, "lat": 38.927738166666664, "rental_uris": {"ios": "https://dc.lft.to/lastmile_qr_scan", "android": "https://dc.lft.to/lastmile_qr_scan"}, "bike_id": "5ba0aa8d93eed50d45cbc2866a0d3f7b", "fusion_lat": 0.0}, {"lon": -76.98358466666667, "name": "4a5249cd75eae29eea7ce81cdfba3f5f", "is_disabled": 0, "type": "electric_scooter", "is_reserved": 0, "fusion_lon": 0.0, "lat": 38.891596166666666, "rental_uris": {"ios": "https://dc.lft.to/lastmile_qr_scan", "android": "https://dc.lft.to/lastmile_qr_scan"}, "bike_id": "4a5249cd75eae29eea7ce81cdfba3f5f", "fusion_lat": 0.0}, {"lon": -76.92965016666666, "name": "1da6487fdd9a8fbafa1b642b89f74eac", "is_disabled": 0, "type": "electric_scooter", "is_reserved": 0, "fusion_lon": 0.0, "lat": 38.88456766666667, "rental_uris": {"ios": "https://dc.lft.to/lastmile_qr_scan", "android": "https://dc.lft.to/lastmile_qr_scan"}, "bike_id": "1da6487fdd9a8fbafa1b642b89f74eac", "fusion_lat": 0.0}, {"lon": -77.04072666666667, "name": "193bf0c13fbab7ef0f76d07720a2c681", "is_disabled": 0, "type": "electric_scooter", "is_reserved": 0, "fusion_lon": 0.0, "lat": 38.905225, "rental_uris": {"ios": "https://dc.lft.to/lastmile_qr_scan", "android": "https://dc.lft.to/lastmile_qr_scan"}, "bike_id": "193bf0c13fbab7ef0f76d07720a2c681", "fusion_lat": 0.0}, {"lon": -77.02299283333333, "name": "dd4080487c818cbaa398cda7649c2264", "is_disabled": 0, "type": "electric_scooter", "is_reserved": 0, "fusion_lon": 0.0, "lat": 38.890616, "rental_uris": {"ios": "https://dc.lft.to/lastmile_qr_scan", "android": "https://dc.lft.to/lastmile_qr_scan"}, "bike_id": "dd4080487c818cbaa398cda7649c2264", "fusion_lat": 0.0}, {"lon": -77.00577916666667, "name": "ce31459e5cb34eeeaee4cba37efcf503", "is_disabled": 0, "type": "electric_scooter", "is_reserved": 0, "fusion_lon": 0.0, "lat": 38.8717635, "rental_uris": {"ios": "https://dc.lft.to/lastmile_qr_scan", "android": "https://dc.lft.to/lastmile_qr_scan"}, "bike_id": "ce31459e5cb34eeeaee4cba37efcf503", "fusion_lat": 0.0}, {"lon": -77.04323683333334, "name": "9931485f1d3bdc7391f6002cdbac4dd0", "is_disabled": 0, "type": "electric_scooter", "is_reserved": 0, "fusion_lon": 0.0, "lat": 38.926156666666664, "rental_uris": {"ios": "https://dc.lft.to/lastmile_qr_scan", "android": "https://dc.lft.to/lastmile_qr_scan"}, "bike_id": "9931485f1d3bdc7391f6002cdbac4dd0", "fusion_lat": 0.0}, {"lon": -77.01853816666667, "name": "e44a3b172baca866ae80d234731a4fd2", "is_disabled": 0, "type": "electric_scooter", "is_reserved": 0, "fusion_lon": 0.0, "lat": 38.949238333333334, "rental_uris": {"ios": "https://dc.lft.to/lastmile_qr_scan", "android": "https://dc.lft.to/lastmile_qr_scan"}, "bike_id": "e44a3b172baca866ae80d234731a4fd2", "fusion_lat": 0.0}, {"lon": -77.03684733333333, "name": "cd63f774a1da5ed53965aead6c862791", "is_disabled": 0, "type": "electric_scooter", "is_reserved": 0, "fusion_lon": 0.0, "lat": 38.926393166666664, "rental_uris": {"ios": "https://dc.lft.to/lastmile_qr_scan", "android": "https://dc.lft.to/lastmile_qr_scan"}, "bike_id": "cd63f774a1da5ed53965aead6c862791", "fusion_lat": 0.0}, {"lon": -76.98579733333334, "name": "c3a9613c04c03d1f7c4d67184b93a725", "is_disabled": 0, "type": "electric_scooter", "is_reserved": 0, "fusion_lon": 0.0, "lat": 38.896333, "rental_uris": {"ios": "https://dc.lft.to/lastmile_qr_scan", "android": "https://dc.lft.to/lastmile_qr_scan"}, "bike_id": "c3a9613c04c03d1f7c4d67184b93a725", "fusion_lat": 0.0}, {"lon": -77.01553016666666, "name": "52e565149790401929b8b002c21156ea", "is_disabled": 0, "type": "electric_scooter", "is_reserved": 0, "fusion_lon": 0.0, "lat": 38.89224216666667, "rental_uris": {"ios": "https://dc.lft.to/lastmile_qr_scan", "android": "https://dc.lft.to/lastmile_qr_scan"}, "bike_id": "52e565149790401929b8b002c21156ea", "fusion_lat": 0.0}, {"lon": -77.05696416666666, "name": "77552216d65f062205d0ae0b125f4786", "is_disabled": 0, "type": "electric_scooter", "is_reserved": 0, "fusion_lon": 0.0, "lat": 38.9167045, "rental_uris": {"ios": "https://dc.lft.to/lastmile_qr_scan", "android": "https://dc.lft.to/lastmile_qr_scan"}, "bike_id": "77552216d65f062205d0ae0b125f4786", "fusion_lat": 0.0}, {"lon": -76.977457, "name": "2122fa47b476f9c19b4d627db9923164", "is_disabled": 0, "type": "electric_scooter", "is_reserved": 0, "fusion_lon": 0.0, "lat": 38.90010483333333, "rental_uris": {"ios": "https://dc.lft.to/lastmile_qr_scan", "android": "https://dc.lft.to/lastmile_qr_scan"}, "bike_id": "2122fa47b476f9c19b4d627db9923164", "fusion_lat": 0.0}, {"lon": -77.00054666666666, "name": "f95a36c01475fd9263e1e3bd7cbbe308", "is_disabled": 0, "type": "electric_scooter", "is_reserved": 0, "fusion_lon": 0.0, "lat": 38.876751666666664, "rental_uris": {"ios": "https://dc.lft.to/lastmile_qr_scan", "android": "https://dc.lft.to/lastmile_qr_scan"}, "bike_id": "f95a36c01475fd9263e1e3bd7cbbe308", "fusion_lat": 0.0}, {"lon": -77.03393516666667, "name": "fdb64ca8652f4881a0ede2c4645675c6", "is_disabled": 0, "type": "electric_scooter", "is_reserved": 0, "fusion_lon": 0.0, "lat": 38.901771, "rental_uris": {"ios": "https://dc.lft.to/lastmile_qr_scan", "android": "https://dc.lft.to/lastmile_qr_scan"}, "bike_id": "fdb64ca8652f4881a0ede2c4645675c6", "fusion_lat": 0.0}, {"lon": -76.92505266666667, "name": "419821357c44e944ef2a1ed9c2fdce31", "is_disabled": 0, "type": "electric_scooter", "is_reserved": 0, "fusion_lon": 0.0, "lat": 38.88607433333333, "rental_uris": {"ios": "https://dc.lft.to/lastmile_qr_scan", "android": "https://dc.lft.to/lastmile_qr_scan"}, "bike_id": "419821357c44e944ef2a1ed9c2fdce31", "fusion_lat": 0.0}, {"lon": -76.99856966666667, "name": "e145e237610e89fd372666be804f88c7", "is_disabled": 0, "type": "electric_scooter", "is_reserved": 0, "fusion_lon": 0.0, "lat": 38.902643166666664, "rental_uris": {"ios": "https://dc.lft.to/lastmile_qr_scan", "android": "https://dc.lft.to/lastmile_qr_scan"}, "bike_id": "e145e237610e89fd372666be804f88c7", "fusion_lat": 0.0}, {"lon": -77.0547345, "name": "d071cf4fadcc11c6e300847678e61a37", "is_disabled": 0, "type": "electric_scooter", "is_reserved": 0, "fusion_lon": 0.0, "lat": 38.893926666666665, "rental_uris": {"ios": "https://dc.lft.to/lastmile_qr_scan", "android": "https://dc.lft.to/lastmile_qr_scan"}, "bike_id": "d071cf4fadcc11c6e300847678e61a37", "fusion_lat": 0.0}, {"lon": -77.01010016666666, "name": "7f550217995483e272a4b90c829ed9a1", "is_disabled": 0, "type": "electric_scooter", "is_reserved": 0, "fusion_lon": 0.0, "lat": 38.9142055, "rental_uris": {"ios": "https://dc.lft.to/lastmile_qr_scan", "android": "https://dc.lft.to/lastmile_qr_scan"}, "bike_id": "7f550217995483e272a4b90c829ed9a1", "fusion_lat": 0.0}, {"lon": -77.057534, "name": "49285c39ad3c984a8f195d50ed3d806f", "is_disabled": 0, "type": "electric_scooter", "is_reserved": 0, "fusion_lon": 0.0, "lat": 38.92492716666667, "rental_uris": {"ios": "https://dc.lft.to/lastmile_qr_scan", "android": "https://dc.lft.to/lastmile_qr_scan"}, "bike_id": "49285c39ad3c984a8f195d50ed3d806f", "fusion_lat": 0.0}, {"lon": -77.01771083333334, "name": "d7182e8d1127d6f1fcfa995c5beb70fa", "is_disabled": 0, "type": "electric_scooter", "is_reserved": 0, "fusion_lon": 0.0, "lat": 38.88146783333333, "rental_uris": {"ios": "https://dc.lft.to/lastmile_qr_scan", "android": "https://dc.lft.to/lastmile_qr_scan"}, "bike_id": "d7182e8d1127d6f1fcfa995c5beb70fa", "fusion_lat": 0.0}, {"lon": -77.03635233333334, "name": "a7e584aac8e7810e0c14980ae8d0f25c", "is_disabled": 0, "type": "electric_scooter", "is_reserved": 0, "fusion_lon": 0.0, "lat": 38.91873733333333, "rental_uris": {"ios": "https://dc.lft.to/lastmile_qr_scan", "android": "https://dc.lft.to/lastmile_qr_scan"}, "bike_id": "a7e584aac8e7810e0c14980ae8d0f25c", "fusion_lat": 0.0}, {"lon": -77.02266316666666, "name": "9839a727252edf5fade4ec2c39d0c7ae", "is_disabled": 0, "type": "electric_scooter", "is_reserved": 0, "fusion_lon": 0.0, "lat": 38.89719733333333, "rental_uris": {"ios": "https://dc.lft.to/lastmile_qr_scan", "android": "https://dc.lft.to/lastmile_qr_scan"}, "bike_id": "9839a727252edf5fade4ec2c39d0c7ae", "fusion_lat": 0.0}, {"lon": -77.05749516666667, "name": "fb3a6220f7b477bf7a6ef3b3979432ec", "is_disabled": 0, "type": "electric_scooter", "is_reserved": 0, "fusion_lon": 0.0, "lat": 38.9287635, "rental_uris": {"ios": "https://dc.lft.to/lastmile_qr_scan", "android": "https://dc.lft.to/lastmile_qr_scan"}, "bike_id": "fb3a6220f7b477bf7a6ef3b3979432ec", "fusion_lat": 0.0}, {"lon": -77.0230125, "name": "85fd8def3d855a2fe603a06fba64a001", "is_disabled": 0, "type": "electric_scooter", "is_reserved": 0, "fusion_lon": 0.0, "lat": 38.90784933333333, "rental_uris": {"ios": "https://dc.lft.to/lastmile_qr_scan", "android": "https://dc.lft.to/lastmile_qr_scan"}, "bike_id": "85fd8def3d855a2fe603a06fba64a001", "fusion_lat": 0.0}, {"lon": -76.93389966666666, "name": "cf532e823ee119422ea076c0ca117a3f", "is_disabled": 0, "type": "electric_scooter", "is_reserved": 0, "fusion_lon": 0.0, "lat": 38.899142166666664, "rental_uris": {"ios": "https://dc.lft.to/lastmile_qr_scan", "android": "https://dc.lft.to/lastmile_qr_scan"}, "bike_id": "cf532e823ee119422ea076c0ca117a3f", "fusion_lat": 0.0}, {"lon": -77.0348425, "name": "ec31e7af14f705c37f387974857aa3fe", "is_disabled": 0, "type": "electric_scooter", "is_reserved": 0, "fusion_lon": 0.0, "lat": 38.908029666666664, "rental_uris": {"ios": "https://dc.lft.to/lastmile_qr_scan", "android": "https://dc.lft.to/lastmile_qr_scan"}, "bike_id": "ec31e7af14f705c37f387974857aa3fe", "fusion_lat": 0.0}, {"lon": -77.065894, "name": "6189d98a408e65fa766bcdd41f412012", "is_disabled": 0, "type": "electric_scooter", "is_reserved": 0, "fusion_lon": 0.0, "lat": 38.912217166666665, "rental_uris": {"ios": "https://dc.lft.to/lastmile_qr_scan", "android": "https://dc.lft.to/lastmile_qr_scan"}, "bike_id": "6189d98a408e65fa766bcdd41f412012", "fusion_lat": 0.0}, {"lon": -76.998335, "name": "ae9055e73d872b15a9f2151fc8944921", "is_disabled": 0, "type": "electric_scooter", "is_reserved": 0, "fusion_lon": 0.0, "lat": 38.90066816666667, "rental_uris": {"ios": "https://dc.lft.to/lastmile_qr_scan", "android": "https://dc.lft.to/lastmile_qr_scan"}, "bike_id": "ae9055e73d872b15a9f2151fc8944921", "fusion_lat": 0.0}, {"lon": -77.04077183333334, "name": "cde5cb3fe4d5a47df4cf0fba98b6d886", "is_disabled": 0, "type": "electric_scooter", "is_reserved": 0, "fusion_lon": 0.0, "lat": 38.897428, "rental_uris": {"ios": "https://dc.lft.to/lastmile_qr_scan", "android": "https://dc.lft.to/lastmile_qr_scan"}, "bike_id": "cde5cb3fe4d5a47df4cf0fba98b6d886", "fusion_lat": 0.0}, {"lon": -77.04122816666667, "name": "5ab89aee2c6d51e4b97f46fb05139d52", "is_disabled": 0, "type": "electric_scooter", "is_reserved": 0, "fusion_lon": 0.0, "lat": 38.92185766666667, "rental_uris": {"ios": "https://dc.lft.to/lastmile_qr_scan", "android": "https://dc.lft.to/lastmile_qr_scan"}, "bike_id": "5ab89aee2c6d51e4b97f46fb05139d52", "fusion_lat": 0.0}, {"lon": -77.02977216666666, "name": "3e8b0b9a3d6138d59e0594151f700a6b", "is_disabled": 0, "type": "electric_scooter", "is_reserved": 0, "fusion_lon": 0.0, "lat": 38.904733666666665, "rental_uris": {"ios": "https://dc.lft.to/lastmile_qr_scan", "android": "https://dc.lft.to/lastmile_qr_scan"}, "bike_id": "3e8b0b9a3d6138d59e0594151f700a6b", "fusion_lat": 0.0}, {"lon": -77.06786616666666, "name": "144698b4d1ea7733fd4a8d72fca7460a", "is_disabled": 0, "type": "electric_scooter", "is_reserved": 0, "fusion_lon": 0.0, "lat": 38.90839416666667, "rental_uris": {"ios": "https://dc.lft.to/lastmile_qr_scan", "android": "https://dc.lft.to/lastmile_qr_scan"}, "bike_id": "144698b4d1ea7733fd4a8d72fca7460a", "fusion_lat": 0.0}, {"lon": -77.03478583333333, "name": "ff9e91963637a3a4534418492d92c8fc", "is_disabled": 0, "type": "electric_scooter", "is_reserved": 0, "fusion_lon": 0.0, "lat": 38.928791333333336, "rental_uris": {"ios": "https://dc.lft.to/lastmile_qr_scan", "android": "https://dc.lft.to/lastmile_qr_scan"}, "bike_id": "ff9e91963637a3a4534418492d92c8fc", "fusion_lat": 0.0}, {"lon": -76.91720416666666, "name": "0d67e23c221d16ee0be9d9946048dbba", "is_disabled": 0, "type": "electric_bike", "is_reserved": 0, "fusion_lon": 0.0, "lat": 38.88029383333333, "rental_uris": {"ios": "https://dc.lft.to/lastmile_qr_scan", "android": "https://dc.lft.to/lastmile_qr_scan"}, "bike_id": "0d67e23c221d16ee0be9d9946048dbba", "fusion_lat": 0.0}, {"lon": -77.02784283333334, "name": "2fd5e352e2dc5304b37b1130ed834edd", "is_disabled": 0, "type": "electric_scooter", "is_reserved": 0, "fusion_lon": 0.0, "lat": 38.9554445, "rental_uris": {"ios": "https://dc.lft.to/lastmile_qr_scan", "android": "https://dc.lft.to/lastmile_qr_scan"}, "bike_id": "2fd5e352e2dc5304b37b1130ed834edd", "fusion_lat": 0.0}, {"lon": -77.00492433333334, "name": "5502ce4c45a02255ad54a3aa1d28f8db", "is_disabled": 0, "type": "electric_scooter", "is_reserved": 0, "fusion_lon": 0.0, "lat": 38.91699916666666, "rental_uris": {"ios": "https://dc.lft.to/lastmile_qr_scan", "android": "https://dc.lft.to/lastmile_qr_scan"}, "bike_id": "5502ce4c45a02255ad54a3aa1d28f8db", "fusion_lat": 0.0}, {"lon": -77.02045433333333, "name": "ca33a29758396768b3054f5265c7af97", "is_disabled": 0, "type": "electric_scooter", "is_reserved": 0, "fusion_lon": 0.0, "lat": 38.923815, "rental_uris": {"ios": "https://dc.lft.to/lastmile_qr_scan", "android": "https://dc.lft.to/lastmile_qr_scan"}, "bike_id": "ca33a29758396768b3054f5265c7af97", "fusion_lat": 0.0}, {"lon": -76.9985265, "name": "7561d899043d316efc7c1b56d7fd6212", "is_disabled": 0, "type": "electric_scooter", "is_reserved": 0, "fusion_lon": 0.0, "lat": 38.9012175, "rental_uris": {"ios": "https://dc.lft.to/lastmile_qr_scan", "android": "https://dc.lft.to/lastmile_qr_scan"}, "bike_id": "7561d899043d316efc7c1b56d7fd6212", "fusion_lat": 0.0}, {"lon": -76.9956525, "name": "0978ffbabd4fe3dfc8f8ce43214eec10", "is_disabled": 0, "type": "electric_scooter", "is_reserved": 0, "fusion_lon": 0.0, "lat": 38.9507545, "rental_uris": {"ios": "https://dc.lft.to/lastmile_qr_scan", "android": "https://dc.lft.to/lastmile_qr_scan"}, "bike_id": "0978ffbabd4fe3dfc8f8ce43214eec10", "fusion_lat": 0.0}, {"lon": -77.031811, "name": "5252ee7d3e463f913b07a95076b7c6b1", "is_disabled": 0, "type": "electric_scooter", "is_reserved": 0, "fusion_lon": 0.0, "lat": 38.88387916666667, "rental_uris": {"ios": "https://dc.lft.to/lastmile_qr_scan", "android": "https://dc.lft.to/lastmile_qr_scan"}, "bike_id": "5252ee7d3e463f913b07a95076b7c6b1", "fusion_lat": 0.0}, {"lon": -77.03251316666666, "name": "bcb17600ba159795edcae3a12a2b3097", "is_disabled": 0, "type": "electric_scooter", "is_reserved": 0, "fusion_lon": 0.0, "lat": 38.9028845, "rental_uris": {"ios": "https://dc.lft.to/lastmile_qr_scan", "android": "https://dc.lft.to/lastmile_qr_scan"}, "bike_id": "bcb17600ba159795edcae3a12a2b3097", "fusion_lat": 0.0}, {"lon": -76.93741466666667, "name": "38b1bae69fa7082c43b0164de982a186", "is_disabled": 0, "type": "electric_scooter", "is_reserved": 0, "fusion_lon": 0.0, "lat": 38.89018883333333, "rental_uris": {"ios": "https://dc.lft.to/lastmile_qr_scan", "android": "https://dc.lft.to/lastmile_qr_scan"}, "bike_id": "38b1bae69fa7082c43b0164de982a186", "fusion_lat": 0.0}, {"lon": -76.98669083333333, "name": "bc0a3189f26b850269e1a9b43a5cbbf8", "is_disabled": 0, "type": "electric_scooter", "is_reserved": 0, "fusion_lon": 0.0, "lat": 38.91240833333333, "rental_uris": {"ios": "https://dc.lft.to/lastmile_qr_scan", "android": "https://dc.lft.to/lastmile_qr_scan"}, "bike_id": "bc0a3189f26b850269e1a9b43a5cbbf8", "fusion_lat": 0.0}, {"lon": -77.01803133333334, "name": "d3460d980a01b0697e300d65eef31616", "is_disabled": 0, "type": "electric_scooter", "is_reserved": 0, "fusion_lon": 0.0, "lat": 38.91405266666666, "rental_uris": {"ios": "https://dc.lft.to/lastmile_qr_scan", "android": "https://dc.lft.to/lastmile_qr_scan"}, "bike_id": "d3460d980a01b0697e300d65eef31616", "fusion_lat": 0.0}, {"lon": -77.02506, "name": "8559b9ce5098c3e09e1b51a2e245fce4", "is_disabled": 0, "type": "electric_scooter", "is_reserved": 0, "fusion_lon": 0.0, "lat": 38.917125666666664, "rental_uris": {"ios": "https://dc.lft.to/lastmile_qr_scan", "android": "https://dc.lft.to/lastmile_qr_scan"}, "bike_id": "8559b9ce5098c3e09e1b51a2e245fce4", "fusion_lat": 0.0}, {"lon": -77.02175416666667, "name": "7253c1f6ad426f0275a682658468f984", "is_disabled": 0, "type": "electric_scooter", "is_reserved": 0, "fusion_lon": 0.0, "lat": 38.9057375, "rental_uris": {"ios": "https://dc.lft.to/lastmile_qr_scan", "android": "https://dc.lft.to/lastmile_qr_scan"}, "bike_id": "7253c1f6ad426f0275a682658468f984", "fusion_lat": 0.0}, {"lon": -77.05098816666667, "name": "4b0b451415c4b42d27c92e76acc52196", "is_disabled": 0, "type": "electric_scooter", "is_reserved": 0, "fusion_lon": 0.0, "lat": 38.900647666666664, "rental_uris": {"ios": "https://dc.lft.to/lastmile_qr_scan", "android": "https://dc.lft.to/lastmile_qr_scan"}, "bike_id": "4b0b451415c4b42d27c92e76acc52196", "fusion_lat": 0.0}, {"lon": -77.02316183333333, "name": "248c281e06d85449532a64d28b73563b", "is_disabled": 0, "type": "electric_scooter", "is_reserved": 0, "fusion_lon": 0.0, "lat": 38.93993316666667, "rental_uris": {"ios": "https://dc.lft.to/lastmile_qr_scan", "android": "https://dc.lft.to/lastmile_qr_scan"}, "bike_id": "248c281e06d85449532a64d28b73563b", "fusion_lat": 0.0}, {"lon": -77.0415465, "name": "250809a2db3b2057750c06a7aa4a2443", "is_disabled": 0, "type": "electric_scooter", "is_reserved": 0, "fusion_lon": 0.0, "lat": 38.918162, "rental_uris": {"ios": "https://dc.lft.to/lastmile_qr_scan", "android": "https://dc.lft.to/lastmile_qr_scan"}, "bike_id": "250809a2db3b2057750c06a7aa4a2443", "fusion_lat": 0.0}, {"lon": -77.009138, "name": "fb37fc038e6da8738042354b1e07c72e", "is_disabled": 0, "type": "electric_scooter", "is_reserved": 0, "fusion_lon": 0.0, "lat": 38.90982966666667, "rental_uris": {"ios": "https://dc.lft.to/lastmile_qr_scan", "android": "https://dc.lft.to/lastmile_qr_scan"}, "bike_id": "fb37fc038e6da8738042354b1e07c72e", "fusion_lat": 0.0}, {"lon": -77.07364766666667, "name": "b3b5954036a3abec56f3788982ef3a7b", "is_disabled": 0, "type": "electric_scooter", "is_reserved": 0, "fusion_lon": 0.0, "lat": 38.933623833333336, "rental_uris": {"ios": "https://dc.lft.to/lastmile_qr_scan", "android": "https://dc.lft.to/lastmile_qr_scan"}, "bike_id": "b3b5954036a3abec56f3788982ef3a7b", "fusion_lat": 0.0}, {"lon": -77.024156, "name": "faabcb563cac36d531caf365031746eb", "is_disabled": 0, "type": "electric_scooter", "is_reserved": 0, "fusion_lon": 0.0, "lat": 38.91640916666667, "rental_uris": {"ios": "https://dc.lft.to/lastmile_qr_scan", "android": "https://dc.lft.to/lastmile_qr_scan"}, "bike_id": "faabcb563cac36d531caf365031746eb", "fusion_lat": 0.0}, {"lon": -77.05992533333334, "name": "946ef677d05853d3b7d1ac475460d616", "is_disabled": 0, "type": "electric_scooter", "is_reserved": 0, "fusion_lon": 0.0, "lat": 38.92719116666667, "rental_uris": {"ios": "https://dc.lft.to/lastmile_qr_scan", "android": "https://dc.lft.to/lastmile_qr_scan"}, "bike_id": "946ef677d05853d3b7d1ac475460d616", "fusion_lat": 0.0}, {"lon": -77.02348583333334, "name": "44ffbf99f129626efae790ca4e746352", "is_disabled": 0, "type": "electric_scooter", "is_reserved": 0, "fusion_lon": 0.0, "lat": 38.9431195, "rental_uris": {"ios": "https://dc.lft.to/lastmile_qr_scan", "android": "https://dc.lft.to/lastmile_qr_scan"}, "bike_id": "44ffbf99f129626efae790ca4e746352", "fusion_lat": 0.0}, {"lon": -77.03792933333334, "name": "93a5dbaf48c36edcbb1b6489f946a972", "is_disabled": 0, "type": "electric_bike", "is_reserved": 0, "fusion_lon": 0.0, "lat": 38.9968255, "rental_uris": {"ios": "https://dc.lft.to/lastmile_qr_scan", "android": "https://dc.lft.to/lastmile_qr_scan"}, "bike_id": "93a5dbaf48c36edcbb1b6489f946a972", "fusion_lat": 0.0}, {"lon": -77.019536, "name": "66f5009de7560011e8ce65e5caa9f335", "is_disabled": 0, "type": "electric_scooter", "is_reserved": 0, "fusion_lon": 0.0, "lat": 38.923720333333335, "rental_uris": {"ios": "https://dc.lft.to/lastmile_qr_scan", "android": "https://dc.lft.to/lastmile_qr_scan"}, "bike_id": "66f5009de7560011e8ce65e5caa9f335", "fusion_lat": 0.0}, {"lon": -77.03096733333334, "name": "8e38cea26ed410ed318fb51b9504159e", "is_disabled": 0, "type": "electric_scooter", "is_reserved": 0, "fusion_lon": 0.0, "lat": 38.909654833333335, "rental_uris": {"ios": "https://dc.lft.to/lastmile_qr_scan", "android": "https://dc.lft.to/lastmile_qr_scan"}, "bike_id": "8e38cea26ed410ed318fb51b9504159e", "fusion_lat": 0.0}, {"lon": -77.05338183333333, "name": "c01ae297e8a2de6eb59a097a74dd8603", "is_disabled": 0, "type": "electric_scooter", "is_reserved": 0, "fusion_lon": 0.0, "lat": 38.904198666666666, "rental_uris": {"ios": "https://dc.lft.to/lastmile_qr_scan", "android": "https://dc.lft.to/lastmile_qr_scan"}, "bike_id": "c01ae297e8a2de6eb59a097a74dd8603", "fusion_lat": 0.0}, {"lon": -77.06227083333333, "name": "94edf202d904a57f51b2fa90637c6a25", "is_disabled": 0, "type": "electric_scooter", "is_reserved": 0, "fusion_lon": 0.0, "lat": 38.91319566666667, "rental_uris": {"ios": "https://dc.lft.to/lastmile_qr_scan", "android": "https://dc.lft.to/lastmile_qr_scan"}, "bike_id": "94edf202d904a57f51b2fa90637c6a25", "fusion_lat": 0.0}, {"lon": -77.03083066666666, "name": "b10e70490a2bc0a795298ff1d91999da", "is_disabled": 0, "type": "electric_scooter", "is_reserved": 0, "fusion_lon": 0.0, "lat": 38.935394, "rental_uris": {"ios": "https://dc.lft.to/lastmile_qr_scan", "android": "https://dc.lft.to/lastmile_qr_scan"}, "bike_id": "b10e70490a2bc0a795298ff1d91999da", "fusion_lat": 0.0}, {"lon": -77.03260116666667, "name": "acf09f50bb1de27f2fa5007f72392fbc", "is_disabled": 0, "type": "electric_scooter", "is_reserved": 0, "fusion_lon": 0.0, "lat": 38.9427365, "rental_uris": {"ios": "https://dc.lft.to/lastmile_qr_scan", "android": "https://dc.lft.to/lastmile_qr_scan"}, "bike_id": "acf09f50bb1de27f2fa5007f72392fbc", "fusion_lat": 0.0}, {"lon": -76.932194, "name": "a3ee88e6d4f3d11c1e4d86f1facb7729", "is_disabled": 0, "type": "electric_scooter", "is_reserved": 0, "fusion_lon": 0.0, "lat": 38.8806815, "rental_uris": {"ios": "https://dc.lft.to/lastmile_qr_scan", "android": "https://dc.lft.to/lastmile_qr_scan"}, "bike_id": "a3ee88e6d4f3d11c1e4d86f1facb7729", "fusion_lat": 0.0}, {"lon": -77.0391545, "name": "322853ef4272c30d5442b6a93075195a", "is_disabled": 0, "type": "electric_scooter", "is_reserved": 0, "fusion_lon": 0.0, "lat": 38.924817166666664, "rental_uris": {"ios": "https://dc.lft.to/lastmile_qr_scan", "android": "https://dc.lft.to/lastmile_qr_scan"}, "bike_id": "322853ef4272c30d5442b6a93075195a", "fusion_lat": 0.0}, {"lon": -77.03661783333334, "name": "4b70ab2c210a48510bb820c2103d9832", "is_disabled": 0, "type": "electric_scooter", "is_reserved": 0, "fusion_lon": 0.0, "lat": 38.9172765, "rental_uris": {"ios": "https://dc.lft.to/lastmile_qr_scan", "android": "https://dc.lft.to/lastmile_qr_scan"}, "bike_id": "4b70ab2c210a48510bb820c2103d9832", "fusion_lat": 0.0}, {"lon": -77.02130516666666, "name": "5c6cc1d2cfa143a185efa7b1602be696", "is_disabled": 0, "type": "electric_scooter", "is_reserved": 0, "fusion_lon": 0.0, "lat": 38.924246333333336, "rental_uris": {"ios": "https://dc.lft.to/lastmile_qr_scan", "android": "https://dc.lft.to/lastmile_qr_scan"}, "bike_id": "5c6cc1d2cfa143a185efa7b1602be696", "fusion_lat": 0.0}, {"lon": -77.01981716666667, "name": "538f77e2bb52d7c650328ec4d2bd6e51", "is_disabled": 0, "type": "electric_scooter", "is_reserved": 0, "fusion_lon": 0.0, "lat": 38.967548, "rental_uris": {"ios": "https://dc.lft.to/lastmile_qr_scan", "android": "https://dc.lft.to/lastmile_qr_scan"}, "bike_id": "538f77e2bb52d7c650328ec4d2bd6e51", "fusion_lat": 0.0}, {"lon": -77.02579283333333, "name": "9b1883e96a9cd6c625964152672cd9bb", "is_disabled": 0, "type": "electric_scooter", "is_reserved": 0, "fusion_lon": 0.0, "lat": 38.900209333333336, "rental_uris": {"ios": "https://dc.lft.to/lastmile_qr_scan", "android": "https://dc.lft.to/lastmile_qr_scan"}, "bike_id": "9b1883e96a9cd6c625964152672cd9bb", "fusion_lat": 0.0}, {"lon": -76.9823945, "name": "9bba506970901ebceb542728078c9e64", "is_disabled": 0, "type": "electric_scooter", "is_reserved": 0, "fusion_lon": 0.0, "lat": 38.90888666666667, "rental_uris": {"ios": "https://dc.lft.to/lastmile_qr_scan", "android": "https://dc.lft.to/lastmile_qr_scan"}, "bike_id": "9bba506970901ebceb542728078c9e64", "fusion_lat": 0.0}, {"lon": -77.02416916666667, "name": "50f34ad302b29847af110f30e0a37886", "is_disabled": 0, "type": "electric_scooter", "is_reserved": 0, "fusion_lon": 0.0, "lat": 38.921408, "rental_uris": {"ios": "https://dc.lft.to/lastmile_qr_scan", "android": "https://dc.lft.to/lastmile_qr_scan"}, "bike_id": "50f34ad302b29847af110f30e0a37886", "fusion_lat": 0.0}, {"lon": -77.02195466666667, "name": "5f901d084a8ba1136aa852454a73b943", "is_disabled": 0, "type": "electric_scooter", "is_reserved": 0, "fusion_lon": 0.0, "lat": 38.89482916666667, "rental_uris": {"ios": "https://dc.lft.to/lastmile_qr_scan", "android": "https://dc.lft.to/lastmile_qr_scan"}, "bike_id": "5f901d084a8ba1136aa852454a73b943", "fusion_lat": 0.0}, {"lon": -77.0433835, "name": "32abf350e6b1148522cab16318d75e4f", "is_disabled": 0, "type": "electric_scooter", "is_reserved": 0, "fusion_lon": 0.0, "lat": 38.9054715, "rental_uris": {"ios": "https://dc.lft.to/lastmile_qr_scan", "android": "https://dc.lft.to/lastmile_qr_scan"}, "bike_id": "32abf350e6b1148522cab16318d75e4f", "fusion_lat": 0.0}, {"lon": -77.0600025, "name": "45abc2a84ba928236ec92c95d7df600b", "is_disabled": 0, "type": "electric_scooter", "is_reserved": 0, "fusion_lon": 0.0, "lat": 38.92717916666667, "rental_uris": {"ios": "https://dc.lft.to/lastmile_qr_scan", "android": "https://dc.lft.to/lastmile_qr_scan"}, "bike_id": "45abc2a84ba928236ec92c95d7df600b", "fusion_lat": 0.0}, {"lon": -77.04143083333334, "name": "fb0393bf03d9dcac3808b51183c28a3d", "is_disabled": 0, "type": "electric_scooter", "is_reserved": 0, "fusion_lon": 0.0, "lat": 38.923035666666664, "rental_uris": {"ios": "https://dc.lft.to/lastmile_qr_scan", "android": "https://dc.lft.to/lastmile_qr_scan"}, "bike_id": "fb0393bf03d9dcac3808b51183c28a3d", "fusion_lat": 0.0}, {"lon": -77.0050615, "name": "de0958f04f7449f7644a25f51ec37a04", "is_disabled": 0, "type": "electric_scooter", "is_reserved": 0, "fusion_lon": 0.0, "lat": 38.87535416666667, "rental_uris": {"ios": "https://dc.lft.to/lastmile_qr_scan", "android": "https://dc.lft.to/lastmile_qr_scan"}, "bike_id": "de0958f04f7449f7644a25f51ec37a04", "fusion_lat": 0.0}, {"lon": -77.0176585, "name": "863a3f686804cdff261b41eda13ba23c", "is_disabled": 0, "type": "electric_scooter", "is_reserved": 0, "fusion_lon": 0.0, "lat": 38.9211185, "rental_uris": {"ios": "https://dc.lft.to/lastmile_qr_scan", "android": "https://dc.lft.to/lastmile_qr_scan"}, "bike_id": "863a3f686804cdff261b41eda13ba23c", "fusion_lat": 0.0}, {"lon": -76.99558683333333, "name": "9359c90e8de019168ecbd4d2068d9adb", "is_disabled": 0, "type": "electric_scooter", "is_reserved": 0, "fusion_lon": 0.0, "lat": 38.900232, "rental_uris": {"ios": "https://dc.lft.to/lastmile_qr_scan", "android": "https://dc.lft.to/lastmile_qr_scan"}, "bike_id": "9359c90e8de019168ecbd4d2068d9adb", "fusion_lat": 0.0}, {"lon": -77.0393595, "name": "33c42469ea6453b1b15a38ae37a90224", "is_disabled": 0, "type": "electric_scooter", "is_reserved": 0, "fusion_lon": 0.0, "lat": 38.924646333333335, "rental_uris": {"ios": "https://dc.lft.to/lastmile_qr_scan", "android": "https://dc.lft.to/lastmile_qr_scan"}, "bike_id": "33c42469ea6453b1b15a38ae37a90224", "fusion_lat": 0.0}, {"lon": -77.02794966666667, "name": "8e6c752ddc6ffc75f81581d979b93f0d", "is_disabled": 0, "type": "electric_scooter", "is_reserved": 0, "fusion_lon": 0.0, "lat": 38.9346605, "rental_uris": {"ios": "https://dc.lft.to/lastmile_qr_scan", "android": "https://dc.lft.to/lastmile_qr_scan"}, "bike_id": "8e6c752ddc6ffc75f81581d979b93f0d", "fusion_lat": 0.0}, {"lon": -76.97327766666666, "name": "f0b1396127582e54311cc742b4496e6c", "is_disabled": 0, "type": "electric_scooter", "is_reserved": 0, "fusion_lon": 0.0, "lat": 38.904151, "rental_uris": {"ios": "https://dc.lft.to/lastmile_qr_scan", "android": "https://dc.lft.to/lastmile_qr_scan"}, "bike_id": "f0b1396127582e54311cc742b4496e6c", "fusion_lat": 0.0}, {"lon": -77.03172033333334, "name": "29b920aecc3d1bff2ae78e7acc125f97", "is_disabled": 0, "type": "electric_scooter", "is_reserved": 0, "fusion_lon": 0.0, "lat": 38.909749833333336, "rental_uris": {"ios": "https://dc.lft.to/lastmile_qr_scan", "android": "https://dc.lft.to/lastmile_qr_scan"}, "bike_id": "29b920aecc3d1bff2ae78e7acc125f97", "fusion_lat": 0.0}, {"lon": -77.06983966666667, "name": "181c4524d3f15a69183b2dd4e310bd36", "is_disabled": 0, "type": "electric_scooter", "is_reserved": 0, "fusion_lon": 0.0, "lat": 38.952992, "rental_uris": {"ios": "https://dc.lft.to/lastmile_qr_scan", "android": "https://dc.lft.to/lastmile_qr_scan"}, "bike_id": "181c4524d3f15a69183b2dd4e310bd36", "fusion_lat": 0.0}, {"lon": -77.00295666666666, "name": "64f6879458e39f1c38de96a037863e83", "is_disabled": 0, "type": "electric_scooter", "is_reserved": 0, "fusion_lon": 0.0, "lat": 38.91109383333333, "rental_uris": {"ios": "https://dc.lft.to/lastmile_qr_scan", "android": "https://dc.lft.to/lastmile_qr_scan"}, "bike_id": "64f6879458e39f1c38de96a037863e83", "fusion_lat": 0.0}, {"lon": -76.99827066666667, "name": "b1dc6e6d8ed745c7e9af037aaa2d6157", "is_disabled": 0, "type": "electric_scooter", "is_reserved": 0, "fusion_lon": 0.0, "lat": 38.907227666666664, "rental_uris": {"ios": "https://dc.lft.to/lastmile_qr_scan", "android": "https://dc.lft.to/lastmile_qr_scan"}, "bike_id": "b1dc6e6d8ed745c7e9af037aaa2d6157", "fusion_lat": 0.0}, {"lon": -76.9862355, "name": "faf292bbb452fb226d4e3fd8a724a55e", "is_disabled": 0, "type": "electric_scooter", "is_reserved": 0, "fusion_lon": 0.0, "lat": 38.90592066666667, "rental_uris": {"ios": "https://dc.lft.to/lastmile_qr_scan", "android": "https://dc.lft.to/lastmile_qr_scan"}, "bike_id": "faf292bbb452fb226d4e3fd8a724a55e", "fusion_lat": 0.0}, {"lon": -77.05421883333334, "name": "d773369ed53bd454805e36e6ba3ea77c", "is_disabled": 0, "type": "electric_scooter", "is_reserved": 0, "fusion_lon": 0.0, "lat": 38.98528783333333, "rental_uris": {"ios": "https://dc.lft.to/lastmile_qr_scan", "android": "https://dc.lft.to/lastmile_qr_scan"}, "bike_id": "d773369ed53bd454805e36e6ba3ea77c", "fusion_lat": 0.0}, {"lon": -77.03175983333334, "name": "0e93cdddab217cbb71fa48b49d26f653", "is_disabled": 0, "type": "electric_scooter", "is_reserved": 0, "fusion_lon": 0.0, "lat": 38.91197833333333, "rental_uris": {"ios": "https://dc.lft.to/lastmile_qr_scan", "android": "https://dc.lft.to/lastmile_qr_scan"}, "bike_id": "0e93cdddab217cbb71fa48b49d26f653", "fusion_lat": 0.0}, {"lon": -77.06829283333333, "name": "42ae9eed099c8c19d06e7db5e96584ff", "is_disabled": 0, "type": "electric_scooter", "is_reserved": 0, "fusion_lon": 0.0, "lat": 38.91811416666667, "rental_uris": {"ios": "https://dc.lft.to/lastmile_qr_scan", "android": "https://dc.lft.to/lastmile_qr_scan"}, "bike_id": "42ae9eed099c8c19d06e7db5e96584ff", "fusion_lat": 0.0}, {"lon": -76.99032516666666, "name": "fc19b3cabe3dd52388c549b85d686585", "is_disabled": 0, "type": "electric_scooter", "is_reserved": 0, "fusion_lon": 0.0, "lat": 38.86520466666666, "rental_uris": {"ios": "https://dc.lft.to/lastmile_qr_scan", "android": "https://dc.lft.to/lastmile_qr_scan"}, "bike_id": "fc19b3cabe3dd52388c549b85d686585", "fusion_lat": 0.0}, {"lon": -77.05927733333333, "name": "be4a1b2e72325fa16e2e5e7c0f323ac2", "is_disabled": 0, "type": "electric_scooter", "is_reserved": 0, "fusion_lon": 0.0, "lat": 38.94305033333333, "rental_uris": {"ios": "https://dc.lft.to/lastmile_qr_scan", "android": "https://dc.lft.to/lastmile_qr_scan"}, "bike_id": "be4a1b2e72325fa16e2e5e7c0f323ac2", "fusion_lat": 0.0}, {"lon": -77.04123016666667, "name": "8f12e5e820c79df31243d005020b999b", "is_disabled": 0, "type": "electric_scooter", "is_reserved": 0, "fusion_lon": 0.0, "lat": 38.932245, "rental_uris": {"ios": "https://dc.lft.to/lastmile_qr_scan", "android": "https://dc.lft.to/lastmile_qr_scan"}, "bike_id": "8f12e5e820c79df31243d005020b999b", "fusion_lat": 0.0}, {"lon": -76.93133683333333, "name": "55ad111318cc56efb828972026387fa8", "is_disabled": 0, "type": "electric_scooter", "is_reserved": 0, "fusion_lon": 0.0, "lat": 38.8833415, "rental_uris": {"ios": "https://dc.lft.to/lastmile_qr_scan", "android": "https://dc.lft.to/lastmile_qr_scan"}, "bike_id": "55ad111318cc56efb828972026387fa8", "fusion_lat": 0.0}, {"lon": -77.03000633333333, "name": "388fb95d2428ec5959283008fde72f0a", "is_disabled": 0, "type": "electric_scooter", "is_reserved": 0, "fusion_lon": 0.0, "lat": 38.899394666666666, "rental_uris": {"ios": "https://dc.lft.to/lastmile_qr_scan", "android": "https://dc.lft.to/lastmile_qr_scan"}, "bike_id": "388fb95d2428ec5959283008fde72f0a", "fusion_lat": 0.0}, {"lon": -77.01504816666667, "name": "a5b72c845bbc153661c3bc627b5dbd3c", "is_disabled": 0, "type": "electric_scooter", "is_reserved": 0, "fusion_lon": 0.0, "lat": 38.891873833333335, "rental_uris": {"ios": "https://dc.lft.to/lastmile_qr_scan", "android": "https://dc.lft.to/lastmile_qr_scan"}, "bike_id": "a5b72c845bbc153661c3bc627b5dbd3c", "fusion_lat": 0.0}, {"lon": -77.01388616666667, "name": "a7f956d47218bdcec9accd65fbe414b4", "is_disabled": 0, "type": "electric_scooter", "is_reserved": 0, "fusion_lon": 0.0, "lat": 38.8985225, "rental_uris": {"ios": "https://dc.lft.to/lastmile_qr_scan", "android": "https://dc.lft.to/lastmile_qr_scan"}, "bike_id": "a7f956d47218bdcec9accd65fbe414b4", "fusion_lat": 0.0}, {"lon": -76.93207533333333, "name": "3c68d57b47bf51f144a046b813dedbe5", "is_disabled": 0, "type": "electric_scooter", "is_reserved": 0, "fusion_lon": 0.0, "lat": 38.898523, "rental_uris": {"ios": "https://dc.lft.to/lastmile_qr_scan", "android": "https://dc.lft.to/lastmile_qr_scan"}, "bike_id": "3c68d57b47bf51f144a046b813dedbe5", "fusion_lat": 0.0}, {"lon": -77.0320965, "name": "840e7dbea06e8cb13c69c0612232855c", "is_disabled": 0, "type": "electric_scooter", "is_reserved": 0, "fusion_lon": 0.0, "lat": 38.91829966666667, "rental_uris": {"ios": "https://dc.lft.to/lastmile_qr_scan", "android": "https://dc.lft.to/lastmile_qr_scan"}, "bike_id": "840e7dbea06e8cb13c69c0612232855c", "fusion_lat": 0.0}, {"lon": -77.03658133333333, "name": "9d718d23002fba5a255885293900537e", "is_disabled": 0, "type": "electric_scooter", "is_reserved": 0, "fusion_lon": 0.0, "lat": 38.9233825, "rental_uris": {"ios": "https://dc.lft.to/lastmile_qr_scan", "android": "https://dc.lft.to/lastmile_qr_scan"}, "bike_id": "9d718d23002fba5a255885293900537e", "fusion_lat": 0.0}, {"lon": -77.07425816666667, "name": "5d9da094e7527c280460cbdee3ed9766", "is_disabled": 0, "type": "electric_scooter", "is_reserved": 0, "fusion_lon": 0.0, "lat": 38.9358965, "rental_uris": {"ios": "https://dc.lft.to/lastmile_qr_scan", "android": "https://dc.lft.to/lastmile_qr_scan"}, "bike_id": "5d9da094e7527c280460cbdee3ed9766", "fusion_lat": 0.0}, {"lon": -77.03664683333334, "name": "9cd1eb6c81c013a080761edcd9c46951", "is_disabled": 0, "type": "electric_scooter", "is_reserved": 0, "fusion_lon": 0.0, "lat": 38.92336566666667, "rental_uris": {"ios": "https://dc.lft.to/lastmile_qr_scan", "android": "https://dc.lft.to/lastmile_qr_scan"}, "bike_id": "9cd1eb6c81c013a080761edcd9c46951", "fusion_lat": 0.0}, {"lon": -77.0195, "name": "26136161e0970bc0db8a80a2853d8e9f", "is_disabled": 0, "type": "electric_scooter", "is_reserved": 0, "fusion_lon": 0.0, "lat": 38.922596666666664, "rental_uris": {"ios": "https://dc.lft.to/lastmile_qr_scan", "android": "https://dc.lft.to/lastmile_qr_scan"}, "bike_id": "26136161e0970bc0db8a80a2853d8e9f", "fusion_lat": 0.0}, {"lon": -77.020793, "name": "4298fc315544c25062849fd2a9f90fd9", "is_disabled": 0, "type": "electric_scooter", "is_reserved": 0, "fusion_lon": 0.0, "lat": 38.922973, "rental_uris": {"ios": "https://dc.lft.to/lastmile_qr_scan", "android": "https://dc.lft.to/lastmile_qr_scan"}, "bike_id": "4298fc315544c25062849fd2a9f90fd9", "fusion_lat": 0.0}, {"lon": -76.97952533333333, "name": "9f166630b332d1f21afc5856d83d2ad0", "is_disabled": 0, "type": "electric_bike", "is_reserved": 0, "fusion_lon": 0.0, "lat": 38.920407833333336, "rental_uris": {"ios": "https://dc.lft.to/lastmile_qr_scan", "android": "https://dc.lft.to/lastmile_qr_scan"}, "bike_id": "9f166630b332d1f21afc5856d83d2ad0", "fusion_lat": 0.0}, {"lon": -77.02288416666667, "name": "1c2de181be2a5e8f0da1266f133ef33b", "is_disabled": 0, "type": "electric_scooter", "is_reserved": 0, "fusion_lon": 0.0, "lat": 38.90750516666667, "rental_uris": {"ios": "https://dc.lft.to/lastmile_qr_scan", "android": "https://dc.lft.to/lastmile_qr_scan"}, "bike_id": "1c2de181be2a5e8f0da1266f133ef33b", "fusion_lat": 0.0}, {"lon": -77.0201625, "name": "20fd587a79fedd27e9a6ff8724f99ae6", "is_disabled": 0, "type": "electric_scooter", "is_reserved": 0, "fusion_lon": 0.0, "lat": 38.89873733333334, "rental_uris": {"ios": "https://dc.lft.to/lastmile_qr_scan", "android": "https://dc.lft.to/lastmile_qr_scan"}, "bike_id": "20fd587a79fedd27e9a6ff8724f99ae6", "fusion_lat": 0.0}, {"lon": -77.02583316666667, "name": "5028fd35ba463d5f22f8baee69df9138", "is_disabled": 0, "type": "electric_scooter", "is_reserved": 0, "fusion_lon": 0.0, "lat": 38.90417266666667, "rental_uris": {"ios": "https://dc.lft.to/lastmile_qr_scan", "android": "https://dc.lft.to/lastmile_qr_scan"}, "bike_id": "5028fd35ba463d5f22f8baee69df9138", "fusion_lat": 0.0}, {"lon": -77.02582533333333, "name": "99e26db2e020126f5714f743f35c5fe8", "is_disabled": 0, "type": "electric_scooter", "is_reserved": 0, "fusion_lon": 0.0, "lat": 38.90426166666666, "rental_uris": {"ios": "https://dc.lft.to/lastmile_qr_scan", "android": "https://dc.lft.to/lastmile_qr_scan"}, "bike_id": "99e26db2e020126f5714f743f35c5fe8", "fusion_lat": 0.0}, {"lon": -76.9845525, "name": "146ba2bf68451b2cbe3843db524d3001", "is_disabled": 0, "type": "electric_scooter", "is_reserved": 0, "fusion_lon": 0.0, "lat": 38.8923535, "rental_uris": {"ios": "https://dc.lft.to/lastmile_qr_scan", "android": "https://dc.lft.to/lastmile_qr_scan"}, "bike_id": "146ba2bf68451b2cbe3843db524d3001", "fusion_lat": 0.0}, {"lon": -77.0221485, "name": "dbfa85555ac4f5d077b6f8ee9d2deb27", "is_disabled": 0, "type": "electric_scooter", "is_reserved": 0, "fusion_lon": 0.0, "lat": 38.92470616666667, "rental_uris": {"ios": "https://dc.lft.to/lastmile_qr_scan", "android": "https://dc.lft.to/lastmile_qr_scan"}, "bike_id": "dbfa85555ac4f5d077b6f8ee9d2deb27", "fusion_lat": 0.0}, {"lon": -77.05003616666667, "name": "9053d68f1a82b810bcc0f2c85a249725", "is_disabled": 0, "type": "electric_scooter", "is_reserved": 0, "fusion_lon": 0.0, "lat": 38.8923665, "rental_uris": {"ios": "https://dc.lft.to/lastmile_qr_scan", "android": "https://dc.lft.to/lastmile_qr_scan"}, "bike_id": "9053d68f1a82b810bcc0f2c85a249725", "fusion_lat": 0.0}, {"lon": -77.04046683333333, "name": "b6d8085832ab9af6db47c2a9b96d5929", "is_disabled": 0, "type": "electric_scooter", "is_reserved": 0, "fusion_lon": 0.0, "lat": 38.917147666666665, "rental_uris": {"ios": "https://dc.lft.to/lastmile_qr_scan", "android": "https://dc.lft.to/lastmile_qr_scan"}, "bike_id": "b6d8085832ab9af6db47c2a9b96d5929", "fusion_lat": 0.0}, {"lon": -76.93972916666667, "name": "03e698c1395045d4408c53a7540c5a29", "is_disabled": 0, "type": "electric_scooter", "is_reserved": 0, "fusion_lon": 0.0, "lat": 38.899739333333336, "rental_uris": {"ios": "https://dc.lft.to/lastmile_qr_scan", "android": "https://dc.lft.to/lastmile_qr_scan"}, "bike_id": "03e698c1395045d4408c53a7540c5a29", "fusion_lat": 0.0}, {"lon": -77.0337585, "name": "aa3a46c8ba2d267632bcb6e629e392ee", "is_disabled": 0, "type": "electric_scooter", "is_reserved": 0, "fusion_lon": 0.0, "lat": 38.90016466666667, "rental_uris": {"ios": "https://dc.lft.to/lastmile_qr_scan", "android": "https://dc.lft.to/lastmile_qr_scan"}, "bike_id": "aa3a46c8ba2d267632bcb6e629e392ee", "fusion_lat": 0.0}, {"lon": -76.983491, "name": "9c0bcdf7a56b6647a823232698a2b66d", "is_disabled": 0, "type": "electric_bike", "is_reserved": 0, "fusion_lon": 0.0, "lat": 38.862705, "rental_uris": {"ios": "https://dc.lft.to/lastmile_qr_scan", "android": "https://dc.lft.to/lastmile_qr_scan"}, "bike_id": "9c0bcdf7a56b6647a823232698a2b66d", "fusion_lat": 0.0}, {"lon": -77.04498483333333, "name": "f2529de048501326189ac36464e9d84b", "is_disabled": 0, "type": "electric_scooter", "is_reserved": 0, "fusion_lon": 0.0, "lat": 38.892322666666665, "rental_uris": {"ios": "https://dc.lft.to/lastmile_qr_scan", "android": "https://dc.lft.to/lastmile_qr_scan"}, "bike_id": "f2529de048501326189ac36464e9d84b", "fusion_lat": 0.0}, {"lon": -77.03252983333333, "name": "cae370efdb7dbceb0b9123832b5540d6", "is_disabled": 0, "type": "electric_scooter", "is_reserved": 0, "fusion_lon": 0.0, "lat": 38.93976833333333, "rental_uris": {"ios": "https://dc.lft.to/lastmile_qr_scan", "android": "https://dc.lft.to/lastmile_qr_scan"}, "bike_id": "cae370efdb7dbceb0b9123832b5540d6", "fusion_lat": 0.0}, {"lon": -77.01912966666667, "name": "ed5d168e7e8678d84e4b8eddf5153c88", "is_disabled": 0, "type": "electric_scooter", "is_reserved": 0, "fusion_lon": 0.0, "lat": 38.897337666666665, "rental_uris": {"ios": "https://dc.lft.to/lastmile_qr_scan", "android": "https://dc.lft.to/lastmile_qr_scan"}, "bike_id": "ed5d168e7e8678d84e4b8eddf5153c88", "fusion_lat": 0.0}, {"lon": -77.02179516666666, "name": "5bf505d3339d428210abd9cce1057732", "is_disabled": 0, "type": "electric_scooter", "is_reserved": 0, "fusion_lon": 0.0, "lat": 38.9198105, "rental_uris": {"ios": "https://dc.lft.to/lastmile_qr_scan", "android": "https://dc.lft.to/lastmile_qr_scan"}, "bike_id": "5bf505d3339d428210abd9cce1057732", "fusion_lat": 0.0}, {"lon": -76.99512083333333, "name": "e48718c327fd42160a13029f7bdfa884", "is_disabled": 0, "type": "electric_scooter", "is_reserved": 0, "fusion_lon": 0.0, "lat": 38.89082616666666, "rental_uris": {"ios": "https://dc.lft.to/lastmile_qr_scan", "android": "https://dc.lft.to/lastmile_qr_scan"}, "bike_id": "e48718c327fd42160a13029f7bdfa884", "fusion_lat": 0.0}, {"lon": -77.02957583333334, "name": "63aa465d4a9bad0f3ea5fcd53a6400f9", "is_disabled": 0, "type": "electric_scooter", "is_reserved": 0, "fusion_lon": 0.0, "lat": 38.895689, "rental_uris": {"ios": "https://dc.lft.to/lastmile_qr_scan", "android": "https://dc.lft.to/lastmile_qr_scan"}, "bike_id": "63aa465d4a9bad0f3ea5fcd53a6400f9", "fusion_lat": 0.0}, {"lon": -77.01502133333334, "name": "5c10c7a45fab55a1395d700e3ef963bb", "is_disabled": 0, "type": "electric_scooter", "is_reserved": 0, "fusion_lon": 0.0, "lat": 38.89679983333333, "rental_uris": {"ios": "https://dc.lft.to/lastmile_qr_scan", "android": "https://dc.lft.to/lastmile_qr_scan"}, "bike_id": "5c10c7a45fab55a1395d700e3ef963bb", "fusion_lat": 0.0}, {"lon": -77.02276033333334, "name": "f8b183b68661375f2515b0ed03662be0", "is_disabled": 0, "type": "electric_scooter", "is_reserved": 0, "fusion_lon": 0.0, "lat": 38.909642833333336, "rental_uris": {"ios": "https://dc.lft.to/lastmile_qr_scan", "android": "https://dc.lft.to/lastmile_qr_scan"}, "bike_id": "f8b183b68661375f2515b0ed03662be0", "fusion_lat": 0.0}, {"lon": -76.9767875, "name": "b118ebccf8707d82ad88c6b17426a66e", "is_disabled": 0, "type": "electric_scooter", "is_reserved": 0, "fusion_lon": 0.0, "lat": 38.89202216666666, "rental_uris": {"ios": "https://dc.lft.to/lastmile_qr_scan", "android": "https://dc.lft.to/lastmile_qr_scan"}, "bike_id": "b118ebccf8707d82ad88c6b17426a66e", "fusion_lat": 0.0}, {"lon": -76.93181983333334, "name": "556ded594804333689ccc4e08d5b0c81", "is_disabled": 0, "type": "electric_scooter", "is_reserved": 0, "fusion_lon": 0.0, "lat": 38.898775, "rental_uris": {"ios": "https://dc.lft.to/lastmile_qr_scan", "android": "https://dc.lft.to/lastmile_qr_scan"}, "bike_id": "556ded594804333689ccc4e08d5b0c81", "fusion_lat": 0.0}, {"lon": -77.0366635, "name": "d935a86f100be7bb628817e9dd5dd2c5", "is_disabled": 0, "type": "electric_scooter", "is_reserved": 0, "fusion_lon": 0.0, "lat": 38.9158285, "rental_uris": {"ios": "https://dc.lft.to/lastmile_qr_scan", "android": "https://dc.lft.to/lastmile_qr_scan"}, "bike_id": "d935a86f100be7bb628817e9dd5dd2c5", "fusion_lat": 0.0}, {"lon": -76.99646233333333, "name": "75f9163debd693068c4e61127302b3ec", "is_disabled": 0, "type": "electric_bike", "is_reserved": 0, "fusion_lon": 0.0, "lat": 38.96785366666667, "rental_uris": {"ios": "https://dc.lft.to/lastmile_qr_scan", "android": "https://dc.lft.to/lastmile_qr_scan"}, "bike_id": "75f9163debd693068c4e61127302b3ec", "fusion_lat": 0.0}, {"lon": -77.0013195, "name": "da82253f515ca1f4d1d151fe368abba0", "is_disabled": 0, "type": "electric_scooter", "is_reserved": 0, "fusion_lon": 0.0, "lat": 38.8737185, "rental_uris": {"ios": "https://dc.lft.to/lastmile_qr_scan", "android": "https://dc.lft.to/lastmile_qr_scan"}, "bike_id": "da82253f515ca1f4d1d151fe368abba0", "fusion_lat": 0.0}, {"lon": -77.0213335, "name": "a3e74a3fbfbaf22d330ea7bc069e573a", "is_disabled": 0, "type": "electric_scooter", "is_reserved": 0, "fusion_lon": 0.0, "lat": 38.923716666666664, "rental_uris": {"ios": "https://dc.lft.to/lastmile_qr_scan", "android": "https://dc.lft.to/lastmile_qr_scan"}, "bike_id": "a3e74a3fbfbaf22d330ea7bc069e573a", "fusion_lat": 0.0}, {"lon": -77.04307716666666, "name": "8d966f2d9f2b32b63e323c8f629a7834", "is_disabled": 0, "type": "electric_bike", "is_reserved": 0, "fusion_lon": 0.0, "lat": 39.034313833333336, "rental_uris": {"ios": "https://dc.lft.to/lastmile_qr_scan", "android": "https://dc.lft.to/lastmile_qr_scan"}, "bike_id": "8d966f2d9f2b32b63e323c8f629a7834", "fusion_lat": 0.0}, {"lon": -76.94660716666667, "name": "cf4b7fc478ddbe5aaa5c7e9d4f82275a", "is_disabled": 0, "type": "electric_scooter", "is_reserved": 0, "fusion_lon": 0.0, "lat": 38.8987255, "rental_uris": {"ios": "https://dc.lft.to/lastmile_qr_scan", "android": "https://dc.lft.to/lastmile_qr_scan"}, "bike_id": "cf4b7fc478ddbe5aaa5c7e9d4f82275a", "fusion_lat": 0.0}, {"lon": -77.015488, "name": "e952d98154bd072333f18c717428a1bb", "is_disabled": 0, "type": "electric_scooter", "is_reserved": 0, "fusion_lon": 0.0, "lat": 38.89169533333333, "rental_uris": {"ios": "https://dc.lft.to/lastmile_qr_scan", "android": "https://dc.lft.to/lastmile_qr_scan"}, "bike_id": "e952d98154bd072333f18c717428a1bb", "fusion_lat": 0.0}, {"lon": -77.017616, "name": "ba816f3f502dfbf7a82d6cd676d461a6", "is_disabled": 0, "type": "electric_scooter", "is_reserved": 0, "fusion_lon": 0.0, "lat": 38.88316433333333, "rental_uris": {"ios": "https://dc.lft.to/lastmile_qr_scan", "android": "https://dc.lft.to/lastmile_qr_scan"}, "bike_id": "ba816f3f502dfbf7a82d6cd676d461a6", "fusion_lat": 0.0}, {"lon": -77.02097383333333, "name": "91b95ea65276493805937a69ac2c75f5", "is_disabled": 0, "type": "electric_scooter", "is_reserved": 0, "fusion_lon": 0.0, "lat": 38.92152683333333, "rental_uris": {"ios": "https://dc.lft.to/lastmile_qr_scan", "android": "https://dc.lft.to/lastmile_qr_scan"}, "bike_id": "91b95ea65276493805937a69ac2c75f5", "fusion_lat": 0.0}, {"lon": -77.03258416666667, "name": "b21f183e716ad3380215b53889c1f2a7", "is_disabled": 0, "type": "electric_scooter", "is_reserved": 0, "fusion_lon": 0.0, "lat": 38.9325655, "rental_uris": {"ios": "https://dc.lft.to/lastmile_qr_scan", "android": "https://dc.lft.to/lastmile_qr_scan"}, "bike_id": "b21f183e716ad3380215b53889c1f2a7", "fusion_lat": 0.0}, {"lon": -77.03504083333333, "name": "29a96d56568629a694d597137bed444c", "is_disabled": 0, "type": "electric_scooter", "is_reserved": 0, "fusion_lon": 0.0, "lat": 38.90131066666667, "rental_uris": {"ios": "https://dc.lft.to/lastmile_qr_scan", "android": "https://dc.lft.to/lastmile_qr_scan"}, "bike_id": "29a96d56568629a694d597137bed444c", "fusion_lat": 0.0}, {"lon": -77.01662566666667, "name": "29d71420beeb9c872ba2ed37488511b0", "is_disabled": 0, "type": "electric_scooter", "is_reserved": 0, "fusion_lon": 0.0, "lat": 38.877091666666665, "rental_uris": {"ios": "https://dc.lft.to/lastmile_qr_scan", "android": "https://dc.lft.to/lastmile_qr_scan"}, "bike_id": "29d71420beeb9c872ba2ed37488511b0", "fusion_lat": 0.0}, {"lon": -76.9957445, "name": "1f1c363e96d438f2b2c3fb23935e4bc6", "is_disabled": 0, "type": "electric_bike", "is_reserved": 0, "fusion_lon": 0.0, "lat": 38.8316005, "rental_uris": {"ios": "https://dc.lft.to/lastmile_qr_scan", "android": "https://dc.lft.to/lastmile_qr_scan"}, "bike_id": "1f1c363e96d438f2b2c3fb23935e4bc6", "fusion_lat": 0.0}, {"lon": -76.99840716666667, "name": "5bce878fa4fb290681b72b6b9d583f93", "is_disabled": 0, "type": "electric_scooter", "is_reserved": 0, "fusion_lon": 0.0, "lat": 38.90058033333333, "rental_uris": {"ios": "https://dc.lft.to/lastmile_qr_scan", "android": "https://dc.lft.to/lastmile_qr_scan"}, "bike_id": "5bce878fa4fb290681b72b6b9d583f93", "fusion_lat": 0.0}, {"lon": -77.01359316666667, "name": "d1adf68b06e02d7e9eedabdecff87781", "is_disabled": 0, "type": "electric_scooter", "is_reserved": 0, "fusion_lon": 0.0, "lat": 38.9133735, "rental_uris": {"ios": "https://dc.lft.to/lastmile_qr_scan", "android": "https://dc.lft.to/lastmile_qr_scan"}, "bike_id": "d1adf68b06e02d7e9eedabdecff87781", "fusion_lat": 0.0}, {"lon": -77.029812, "name": "b45076f6c7fa68a36e456caad96f416e", "is_disabled": 0, "type": "electric_scooter", "is_reserved": 0, "fusion_lon": 0.0, "lat": 38.943572, "rental_uris": {"ios": "https://dc.lft.to/lastmile_qr_scan", "android": "https://dc.lft.to/lastmile_qr_scan"}, "bike_id": "b45076f6c7fa68a36e456caad96f416e", "fusion_lat": 0.0}, {"lon": -77.03999383333333, "name": "b0347eb1609ab7cdc02e7cc33f921040", "is_disabled": 0, "type": "electric_scooter", "is_reserved": 0, "fusion_lon": 0.0, "lat": 38.917, "rental_uris": {"ios": "https://dc.lft.to/lastmile_qr_scan", "android": "https://dc.lft.to/lastmile_qr_scan"}, "bike_id": "b0347eb1609ab7cdc02e7cc33f921040", "fusion_lat": 0.0}, {"lon": -77.018912, "name": "b68c1e7d6501232457aeb8eb070244f6", "is_disabled": 0, "type": "electric_scooter", "is_reserved": 0, "fusion_lon": 0.0, "lat": 38.8975255, "rental_uris": {"ios": "https://dc.lft.to/lastmile_qr_scan", "android": "https://dc.lft.to/lastmile_qr_scan"}, "bike_id": "b68c1e7d6501232457aeb8eb070244f6", "fusion_lat": 0.0}, {"lon": -76.98692783333334, "name": "6ca3498289936198401c4d487b7c1048", "is_disabled": 0, "type": "electric_scooter", "is_reserved": 0, "fusion_lon": 0.0, "lat": 38.9070705, "rental_uris": {"ios": "https://dc.lft.to/lastmile_qr_scan", "android": "https://dc.lft.to/lastmile_qr_scan"}, "bike_id": "6ca3498289936198401c4d487b7c1048", "fusion_lat": 0.0}, {"lon": -77.0090305, "name": "9842f03fb8510cde4ce3b96bbc9d3d51", "is_disabled": 0, "type": "electric_scooter", "is_reserved": 0, "fusion_lon": 0.0, "lat": 38.900661666666664, "rental_uris": {"ios": "https://dc.lft.to/lastmile_qr_scan", "android": "https://dc.lft.to/lastmile_qr_scan"}, "bike_id": "9842f03fb8510cde4ce3b96bbc9d3d51", "fusion_lat": 0.0}, {"lon": -77.03291516666667, "name": "3af2e600213e800dc06765d14f93c3c4", "is_disabled": 0, "type": "electric_scooter", "is_reserved": 0, "fusion_lon": 0.0, "lat": 38.90311366666667, "rental_uris": {"ios": "https://dc.lft.to/lastmile_qr_scan", "android": "https://dc.lft.to/lastmile_qr_scan"}, "bike_id": "3af2e600213e800dc06765d14f93c3c4", "fusion_lat": 0.0}, {"lon": -76.990151, "name": "774d106fc003f50173affa897c77a451", "is_disabled": 0, "type": "electric_scooter", "is_reserved": 0, "fusion_lon": 0.0, "lat": 38.8999685, "rental_uris": {"ios": "https://dc.lft.to/lastmile_qr_scan", "android": "https://dc.lft.to/lastmile_qr_scan"}, "bike_id": "774d106fc003f50173affa897c77a451", "fusion_lat": 0.0}, {"lon": -77.03564583333333, "name": "a5088ec96a5a2fb191243eb134663c15", "is_disabled": 0, "type": "electric_scooter", "is_reserved": 0, "fusion_lon": 0.0, "lat": 38.904847, "rental_uris": {"ios": "https://dc.lft.to/lastmile_qr_scan", "android": "https://dc.lft.to/lastmile_qr_scan"}, "bike_id": "a5088ec96a5a2fb191243eb134663c15", "fusion_lat": 0.0}, {"lon": -77.02712566666666, "name": "6501f5fd55ea466d0b6b7d15d0592bcf", "is_disabled": 0, "type": "electric_scooter", "is_reserved": 0, "fusion_lon": 0.0, "lat": 38.927881666666664, "rental_uris": {"ios": "https://dc.lft.to/lastmile_qr_scan", "android": "https://dc.lft.to/lastmile_qr_scan"}, "bike_id": "6501f5fd55ea466d0b6b7d15d0592bcf", "fusion_lat": 0.0}, {"lon": -77.0204865, "name": "79e6cba8039ad74d111bfc5636b032f9", "is_disabled": 0, "type": "electric_scooter", "is_reserved": 0, "fusion_lon": 0.0, "lat": 38.9135885, "rental_uris": {"ios": "https://dc.lft.to/lastmile_qr_scan", "android": "https://dc.lft.to/lastmile_qr_scan"}, "bike_id": "79e6cba8039ad74d111bfc5636b032f9", "fusion_lat": 0.0}, {"lon": -77.00367133333333, "name": "25f42d6cd9640d7ee146e608b2076540", "is_disabled": 0, "type": "electric_bike", "is_reserved": 0, "fusion_lon": 0.0, "lat": 38.876491666666666, "rental_uris": {"ios": "https://dc.lft.to/lastmile_qr_scan", "android": "https://dc.lft.to/lastmile_qr_scan"}, "bike_id": "25f42d6cd9640d7ee146e608b2076540", "fusion_lat": 0.0}, {"lon": -77.03198283333333, "name": "c8c8ce8a2182004f501d7dae45a2c709", "is_disabled": 0, "type": "electric_scooter", "is_reserved": 0, "fusion_lon": 0.0, "lat": 38.918166166666666, "rental_uris": {"ios": "https://dc.lft.to/lastmile_qr_scan", "android": "https://dc.lft.to/lastmile_qr_scan"}, "bike_id": "c8c8ce8a2182004f501d7dae45a2c709", "fusion_lat": 0.0}, {"lon": -77.0111005, "name": "3029828c933405ae57f860db405d76b6", "is_disabled": 0, "type": "electric_scooter", "is_reserved": 0, "fusion_lon": 0.0, "lat": 38.903580166666664, "rental_uris": {"ios": "https://dc.lft.to/lastmile_qr_scan", "android": "https://dc.lft.to/lastmile_qr_scan"}, "bike_id": "3029828c933405ae57f860db405d76b6", "fusion_lat": 0.0}, {"lon": -77.0247865, "name": "8ada485b33815079880d9f3f61b5efd4", "is_disabled": 0, "type": "electric_scooter", "is_reserved": 0, "fusion_lon": 0.0, "lat": 38.938789666666665, "rental_uris": {"ios": "https://dc.lft.to/lastmile_qr_scan", "android": "https://dc.lft.to/lastmile_qr_scan"}, "bike_id": "8ada485b33815079880d9f3f61b5efd4", "fusion_lat": 0.0}, {"lon": -77.0399465, "name": "d8a18ee1993b13957097c9f05b2ce0cd", "is_disabled": 0, "type": "electric_scooter", "is_reserved": 0, "fusion_lon": 0.0, "lat": 38.914153666666664, "rental_uris": {"ios": "https://dc.lft.to/lastmile_qr_scan", "android": "https://dc.lft.to/lastmile_qr_scan"}, "bike_id": "d8a18ee1993b13957097c9f05b2ce0cd", "fusion_lat": 0.0}, {"lon": -76.9373605, "name": "9d494354e5b77228c30c819f28daa005", "is_disabled": 0, "type": "electric_scooter", "is_reserved": 0, "fusion_lon": 0.0, "lat": 38.89023516666666, "rental_uris": {"ios": "https://dc.lft.to/lastmile_qr_scan", "android": "https://dc.lft.to/lastmile_qr_scan"}, "bike_id": "9d494354e5b77228c30c819f28daa005", "fusion_lat": 0.0}, {"lon": -77.000718, "name": "3015c100d27100afcbef950c195d9a65", "is_disabled": 0, "type": "electric_scooter", "is_reserved": 0, "fusion_lon": 0.0, "lat": 38.90146883333333, "rental_uris": {"ios": "https://dc.lft.to/lastmile_qr_scan", "android": "https://dc.lft.to/lastmile_qr_scan"}, "bike_id": "3015c100d27100afcbef950c195d9a65", "fusion_lat": 0.0}, {"lon": -76.92580833333334, "name": "9e8f2764a3ecdc76d81372ec0291c6b3", "is_disabled": 0, "type": "electric_scooter", "is_reserved": 0, "fusion_lon": 0.0, "lat": 38.89726816666666, "rental_uris": {"ios": "https://dc.lft.to/lastmile_qr_scan", "android": "https://dc.lft.to/lastmile_qr_scan"}, "bike_id": "9e8f2764a3ecdc76d81372ec0291c6b3", "fusion_lat": 0.0}, {"lon": -77.0411795, "name": "d5dc340caae1c57d990c8be063d4c2ea", "is_disabled": 0, "type": "electric_scooter", "is_reserved": 0, "fusion_lon": 0.0, "lat": 38.899901, "rental_uris": {"ios": "https://dc.lft.to/lastmile_qr_scan", "android": "https://dc.lft.to/lastmile_qr_scan"}, "bike_id": "d5dc340caae1c57d990c8be063d4c2ea", "fusion_lat": 0.0}, {"lon": -77.02933033333333, "name": "9ea1ca9a3d774633cd13f8487aa9c898", "is_disabled": 0, "type": "electric_scooter", "is_reserved": 0, "fusion_lon": 0.0, "lat": 38.9204945, "rental_uris": {"ios": "https://dc.lft.to/lastmile_qr_scan", "android": "https://dc.lft.to/lastmile_qr_scan"}, "bike_id": "9ea1ca9a3d774633cd13f8487aa9c898", "fusion_lat": 0.0}, {"lon": -77.04202283333333, "name": "c56f7783050b20f14a38396f4ecb55e3", "is_disabled": 0, "type": "electric_scooter", "is_reserved": 0, "fusion_lon": 0.0, "lat": 38.9170665, "rental_uris": {"ios": "https://dc.lft.to/lastmile_qr_scan", "android": "https://dc.lft.to/lastmile_qr_scan"}, "bike_id": "c56f7783050b20f14a38396f4ecb55e3", "fusion_lat": 0.0}, {"lon": -77.02679333333333, "name": "616ebf046b1f07aad963952f8a26c96e", "is_disabled": 0, "type": "electric_scooter", "is_reserved": 0, "fusion_lon": 0.0, "lat": 38.897688, "rental_uris": {"ios": "https://dc.lft.to/lastmile_qr_scan", "android": "https://dc.lft.to/lastmile_qr_scan"}, "bike_id": "616ebf046b1f07aad963952f8a26c96e", "fusion_lat": 0.0}, {"lon": -76.99137066666667, "name": "80079ac4d06a24cee42583def40ca7fc", "is_disabled": 0, "type": "electric_scooter", "is_reserved": 0, "fusion_lon": 0.0, "lat": 38.91074666666667, "rental_uris": {"ios": "https://dc.lft.to/lastmile_qr_scan", "android": "https://dc.lft.to/lastmile_qr_scan"}, "bike_id": "80079ac4d06a24cee42583def40ca7fc", "fusion_lat": 0.0}, {"lon": -77.0166995, "name": "ebdc2db5c75cb63bece54e649b2b0378", "is_disabled": 0, "type": "electric_scooter", "is_reserved": 0, "fusion_lon": 0.0, "lat": 38.9027005, "rental_uris": {"ios": "https://dc.lft.to/lastmile_qr_scan", "android": "https://dc.lft.to/lastmile_qr_scan"}, "bike_id": "ebdc2db5c75cb63bece54e649b2b0378", "fusion_lat": 0.0}, {"lon": -77.02523283333333, "name": "795cfff50f2c408dc7261386796c9924", "is_disabled": 0, "type": "electric_scooter", "is_reserved": 0, "fusion_lon": 0.0, "lat": 38.920774, "rental_uris": {"ios": "https://dc.lft.to/lastmile_qr_scan", "android": "https://dc.lft.to/lastmile_qr_scan"}, "bike_id": "795cfff50f2c408dc7261386796c9924", "fusion_lat": 0.0}, {"lon": -77.03184233333333, "name": "089c6e7e1936f691d85d1911e5c1eb44", "is_disabled": 0, "type": "electric_scooter", "is_reserved": 0, "fusion_lon": 0.0, "lat": 38.912743166666665, "rental_uris": {"ios": "https://dc.lft.to/lastmile_qr_scan", "android": "https://dc.lft.to/lastmile_qr_scan"}, "bike_id": "089c6e7e1936f691d85d1911e5c1eb44", "fusion_lat": 0.0}, {"lon": -77.015842, "name": "8cec19d3660d9fdd2e3a7855e9ee9254", "is_disabled": 0, "type": "electric_scooter", "is_reserved": 0, "fusion_lon": 0.0, "lat": 38.87652383333333, "rental_uris": {"ios": "https://dc.lft.to/lastmile_qr_scan", "android": "https://dc.lft.to/lastmile_qr_scan"}, "bike_id": "8cec19d3660d9fdd2e3a7855e9ee9254", "fusion_lat": 0.0}, {"lon": -77.05759183333333, "name": "fdf164000e0284d47c7d76782ac57aec", "is_disabled": 0, "type": "electric_scooter", "is_reserved": 0, "fusion_lon": 0.0, "lat": 38.9246415, "rental_uris": {"ios": "https://dc.lft.to/lastmile_qr_scan", "android": "https://dc.lft.to/lastmile_qr_scan"}, "bike_id": "fdf164000e0284d47c7d76782ac57aec", "fusion_lat": 0.0}, {"lon": -77.02343183333333, "name": "86bc9b8edf6e4881a5c05a9f32117461", "is_disabled": 0, "type": "electric_scooter", "is_reserved": 0, "fusion_lon": 0.0, "lat": 38.929733, "rental_uris": {"ios": "https://dc.lft.to/lastmile_qr_scan", "android": "https://dc.lft.to/lastmile_qr_scan"}, "bike_id": "86bc9b8edf6e4881a5c05a9f32117461", "fusion_lat": 0.0}, {"lon": -77.02392766666667, "name": "24fcaceeefc24713ab87132b730e4baa", "is_disabled": 0, "type": "electric_scooter", "is_reserved": 0, "fusion_lon": 0.0, "lat": 38.92713283333333, "rental_uris": {"ios": "https://dc.lft.to/lastmile_qr_scan", "android": "https://dc.lft.to/lastmile_qr_scan"}, "bike_id": "24fcaceeefc24713ab87132b730e4baa", "fusion_lat": 0.0}, {"lon": -77.03217666666667, "name": "b5be7a563d4fa9cb3641a965b984b00e", "is_disabled": 0, "type": "electric_scooter", "is_reserved": 0, "fusion_lon": 0.0, "lat": 38.91622566666667, "rental_uris": {"ios": "https://dc.lft.to/lastmile_qr_scan", "android": "https://dc.lft.to/lastmile_qr_scan"}, "bike_id": "b5be7a563d4fa9cb3641a965b984b00e", "fusion_lat": 0.0}, {"lon": -77.00904783333333, "name": "926fe69f54218f068339b34af430c70e", "is_disabled": 0, "type": "electric_scooter", "is_reserved": 0, "fusion_lon": 0.0, "lat": 38.90987033333333, "rental_uris": {"ios": "https://dc.lft.to/lastmile_qr_scan", "android": "https://dc.lft.to/lastmile_qr_scan"}, "bike_id": "926fe69f54218f068339b34af430c70e", "fusion_lat": 0.0}, {"lon": -77.027837, "name": "9bfb1e5990b153b8cf33eb85012ff658", "is_disabled": 0, "type": "electric_scooter", "is_reserved": 0, "fusion_lon": 0.0, "lat": 38.89882766666667, "rental_uris": {"ios": "https://dc.lft.to/lastmile_qr_scan", "android": "https://dc.lft.to/lastmile_qr_scan"}, "bike_id": "9bfb1e5990b153b8cf33eb85012ff658", "fusion_lat": 0.0}, {"lon": -77.08172083333334, "name": "a03097d5c7624b09a05c79aa134f873e", "is_disabled": 0, "type": "electric_bike", "is_reserved": 0, "fusion_lon": 0.0, "lat": 38.907816, "rental_uris": {"ios": "https://dc.lft.to/lastmile_qr_scan", "android": "https://dc.lft.to/lastmile_qr_scan"}, "bike_id": "a03097d5c7624b09a05c79aa134f873e", "fusion_lat": 0.0}, {"lon": -77.01085116666667, "name": "57892da5cc219f61b7597c6963090916", "is_disabled": 0, "type": "electric_scooter", "is_reserved": 0, "fusion_lon": 0.0, "lat": 38.903393, "rental_uris": {"ios": "https://dc.lft.to/lastmile_qr_scan", "android": "https://dc.lft.to/lastmile_qr_scan"}, "bike_id": "57892da5cc219f61b7597c6963090916", "fusion_lat": 0.0}, {"lon": -77.01194816666667, "name": "f704fe849586d1bee399db87cd50c0b5", "is_disabled": 0, "type": "electric_scooter", "is_reserved": 0, "fusion_lon": 0.0, "lat": 38.8979495, "rental_uris": {"ios": "https://dc.lft.to/lastmile_qr_scan", "android": "https://dc.lft.to/lastmile_qr_scan"}, "bike_id": "f704fe849586d1bee399db87cd50c0b5", "fusion_lat": 0.0}, {"lon": -76.981659, "name": "f9b96279269b247d8ec7537b138b2ebc", "is_disabled": 0, "type": "electric_bike", "is_reserved": 0, "fusion_lon": 0.0, "lat": 38.92598566666667, "rental_uris": {"ios": "https://dc.lft.to/lastmile_qr_scan", "android": "https://dc.lft.to/lastmile_qr_scan"}, "bike_id": "f9b96279269b247d8ec7537b138b2ebc", "fusion_lat": 0.0}, {"lon": -77.015701, "name": "ddcdf2e180ebc6f2d2070db50ae5e902", "is_disabled": 0, "type": "electric_scooter", "is_reserved": 0, "fusion_lon": 0.0, "lat": 38.926898333333334, "rental_uris": {"ios": "https://dc.lft.to/lastmile_qr_scan", "android": "https://dc.lft.to/lastmile_qr_scan"}, "bike_id": "ddcdf2e180ebc6f2d2070db50ae5e902", "fusion_lat": 0.0}, {"lon": -77.044828, "name": "6baf2067ab696b2d8e6f4814d4e680af", "is_disabled": 0, "type": "electric_scooter", "is_reserved": 0, "fusion_lon": 0.0, "lat": 38.893686333333335, "rental_uris": {"ios": "https://dc.lft.to/lastmile_qr_scan", "android": "https://dc.lft.to/lastmile_qr_scan"}, "bike_id": "6baf2067ab696b2d8e6f4814d4e680af", "fusion_lat": 0.0}, {"lon": -77.1333, "name": "f22253e0fbf681f5a0838d9b6740e23d", "is_disabled": 0, "type": "electric_bike", "is_reserved": 0, "fusion_lon": 0.0, "lat": 39.0603945, "rental_uris": {"ios": "https://dc.lft.to/lastmile_qr_scan", "android": "https://dc.lft.to/lastmile_qr_scan"}, "bike_id": "f22253e0fbf681f5a0838d9b6740e23d", "fusion_lat": 0.0}, {"lon": -77.05034266666667, "name": "6fdce3ab454445167590ba2eedad9989", "is_disabled": 0, "type": "electric_scooter", "is_reserved": 0, "fusion_lon": 0.0, "lat": 38.892883833333336, "rental_uris": {"ios": "https://dc.lft.to/lastmile_qr_scan", "android": "https://dc.lft.to/lastmile_qr_scan"}, "bike_id": "6fdce3ab454445167590ba2eedad9989", "fusion_lat": 0.0}, {"lon": -76.97264966666667, "name": "6754373e2a6937816226a297b421e59e", "is_disabled": 0, "type": "electric_bike", "is_reserved": 0, "fusion_lon": 0.0, "lat": 38.856024, "rental_uris": {"ios": "https://dc.lft.to/lastmile_qr_scan", "android": "https://dc.lft.to/lastmile_qr_scan"}, "bike_id": "6754373e2a6937816226a297b421e59e", "fusion_lat": 0.0}, {"lon": -77.00396516666666, "name": "ab7468bc522902534344774ce4784e58", "is_disabled": 0, "type": "electric_bike", "is_reserved": 0, "fusion_lon": 0.0, "lat": 38.9855695, "rental_uris": {"ios": "https://dc.lft.to/lastmile_qr_scan", "android": "https://dc.lft.to/lastmile_qr_scan"}, "bike_id": "ab7468bc522902534344774ce4784e58", "fusion_lat": 0.0}, {"lon": -77.018417, "name": "3d206c21650dbb262900b0d911a55545", "is_disabled": 0, "type": "electric_scooter", "is_reserved": 0, "fusion_lon": 0.0, "lat": 38.90732633333333, "rental_uris": {"ios": "https://dc.lft.to/lastmile_qr_scan", "android": "https://dc.lft.to/lastmile_qr_scan"}, "bike_id": "3d206c21650dbb262900b0d911a55545", "fusion_lat": 0.0}, {"lon": -77.22988466666666, "name": "4db4d109ee856ac16a0faee731653467", "is_disabled": 0, "type": "electric_bike", "is_reserved": 0, "fusion_lon": 0.0, "lat": 38.871496666666665, "rental_uris": {"ios": "https://dc.lft.to/lastmile_qr_scan", "android": "https://dc.lft.to/lastmile_qr_scan"}, "bike_id": "4db4d109ee856ac16a0faee731653467", "fusion_lat": 0.0}, {"lon": -77.02402783333334, "name": "879a4c8fbef59a0a32c1ff7adc1d98e8", "is_disabled": 0, "type": "electric_scooter", "is_reserved": 0, "fusion_lon": 0.0, "lat": 38.90618083333333, "rental_uris": {"ios": "https://dc.lft.to/lastmile_qr_scan", "android": "https://dc.lft.to/lastmile_qr_scan"}, "bike_id": "879a4c8fbef59a0a32c1ff7adc1d98e8", "fusion_lat": 0.0}, {"lon": -77.01660483333333, "name": "81882b042ce17e62c67355e1bd366046", "is_disabled": 0, "type": "electric_scooter", "is_reserved": 0, "fusion_lon": 0.0, "lat": 38.9207435, "rental_uris": {"ios": "https://dc.lft.to/lastmile_qr_scan", "android": "https://dc.lft.to/lastmile_qr_scan"}, "bike_id": "81882b042ce17e62c67355e1bd366046", "fusion_lat": 0.0}, {"lon": -77.02295166666667, "name": "8ca9f1cd1f4d974ecf5d3cde053bff63", "is_disabled": 0, "type": "electric_scooter", "is_reserved": 0, "fusion_lon": 0.0, "lat": 38.8786805, "rental_uris": {"ios": "https://dc.lft.to/lastmile_qr_scan", "android": "https://dc.lft.to/lastmile_qr_scan"}, "bike_id": "8ca9f1cd1f4d974ecf5d3cde053bff63", "fusion_lat": 0.0}, {"lon": -76.99065983333334, "name": "6fe6164223f9f4f3873cb7ddcb38bfca", "is_disabled": 0, "type": "electric_bike", "is_reserved": 0, "fusion_lon": 0.0, "lat": 38.898180833333335, "rental_uris": {"ios": "https://dc.lft.to/lastmile_qr_scan", "android": "https://dc.lft.to/lastmile_qr_scan"}, "bike_id": "6fe6164223f9f4f3873cb7ddcb38bfca", "fusion_lat": 0.0}, {"lon": -77.05752466666667, "name": "b0930255002939a4695133bf9467cc08", "is_disabled": 0, "type": "electric_scooter", "is_reserved": 0, "fusion_lon": 0.0, "lat": 38.92491166666667, "rental_uris": {"ios": "https://dc.lft.to/lastmile_qr_scan", "android": "https://dc.lft.to/lastmile_qr_scan"}, "bike_id": "b0930255002939a4695133bf9467cc08", "fusion_lat": 0.0}, {"lon": -77.03152583333333, "name": "07338b4d8567c88066d100b3588fa621", "is_disabled": 0, "type": "electric_scooter", "is_reserved": 0, "fusion_lon": 0.0, "lat": 38.959364666666666, "rental_uris": {"ios": "https://dc.lft.to/lastmile_qr_scan", "android": "https://dc.lft.to/lastmile_qr_scan"}, "bike_id": "07338b4d8567c88066d100b3588fa621", "fusion_lat": 0.0}, {"lon": -77.05000883333334, "name": "200f522896ec940216cea0e96ac03f5a", "is_disabled": 0, "type": "electric_scooter", "is_reserved": 0, "fusion_lon": 0.0, "lat": 38.89232283333333, "rental_uris": {"ios": "https://dc.lft.to/lastmile_qr_scan", "android": "https://dc.lft.to/lastmile_qr_scan"}, "bike_id": "200f522896ec940216cea0e96ac03f5a", "fusion_lat": 0.0}, {"lon": -77.04326216666666, "name": "464b70dbd1e0a8d6d123e68cd5674599", "is_disabled": 0, "type": "electric_scooter", "is_reserved": 0, "fusion_lon": 0.0, "lat": 38.90871933333333, "rental_uris": {"ios": "https://dc.lft.to/lastmile_qr_scan", "android": "https://dc.lft.to/lastmile_qr_scan"}, "bike_id": "464b70dbd1e0a8d6d123e68cd5674599", "fusion_lat": 0.0}, {"lon": -77.03262533333333, "name": "64a10f7b092778a81bf86ec78aa6de27", "is_disabled": 0, "type": "electric_scooter", "is_reserved": 0, "fusion_lon": 0.0, "lat": 38.9199155, "rental_uris": {"ios": "https://dc.lft.to/lastmile_qr_scan", "android": "https://dc.lft.to/lastmile_qr_scan"}, "bike_id": "64a10f7b092778a81bf86ec78aa6de27", "fusion_lat": 0.0}, {"lon": -77.021493, "name": "a6ff97f56480545ee7a7ca4a1dd3c9a5", "is_disabled": 0, "type": "electric_scooter", "is_reserved": 0, "fusion_lon": 0.0, "lat": 38.926074166666666, "rental_uris": {"ios": "https://dc.lft.to/lastmile_qr_scan", "android": "https://dc.lft.to/lastmile_qr_scan"}, "bike_id": "a6ff97f56480545ee7a7ca4a1dd3c9a5", "fusion_lat": 0.0}, {"lon": -77.01953233333333, "name": "92836b2500d9af6f2609271a74b20910", "is_disabled": 0, "type": "electric_scooter", "is_reserved": 0, "fusion_lon": 0.0, "lat": 38.924254166666664, "rental_uris": {"ios": "https://dc.lft.to/lastmile_qr_scan", "android": "https://dc.lft.to/lastmile_qr_scan"}, "bike_id": "92836b2500d9af6f2609271a74b20910", "fusion_lat": 0.0}, {"lon": -77.04702816666666, "name": "b62f62453a7e507a95412f3a0c38e02e", "is_disabled": 0, "type": "electric_scooter", "is_reserved": 0, "fusion_lon": 0.0, "lat": 38.902478333333335, "rental_uris": {"ios": "https://dc.lft.to/lastmile_qr_scan", "android": "https://dc.lft.to/lastmile_qr_scan"}, "bike_id": "b62f62453a7e507a95412f3a0c38e02e", "fusion_lat": 0.0}, {"lon": -77.00333066666667, "name": "80fb28ea86415c18ea1e5f883f87d10f", "is_disabled": 0, "type": "electric_bike", "is_reserved": 0, "fusion_lon": 0.0, "lat": 38.9202515, "rental_uris": {"ios": "https://dc.lft.to/lastmile_qr_scan", "android": "https://dc.lft.to/lastmile_qr_scan"}, "bike_id": "80fb28ea86415c18ea1e5f883f87d10f", "fusion_lat": 0.0}, {"lon": -77.02401566666667, "name": "f4d090bf161b88a099a674f6544801e0", "is_disabled": 0, "type": "electric_scooter", "is_reserved": 0, "fusion_lon": 0.0, "lat": 38.91623583333333, "rental_uris": {"ios": "https://dc.lft.to/lastmile_qr_scan", "android": "https://dc.lft.to/lastmile_qr_scan"}, "bike_id": "f4d090bf161b88a099a674f6544801e0", "fusion_lat": 0.0}, {"lon": -77.05706616666667, "name": "eb9811010bf3b9b105b0ac5f6dd664c7", "is_disabled": 0, "type": "electric_scooter", "is_reserved": 0, "fusion_lon": 0.0, "lat": 38.9260815, "rental_uris": {"ios": "https://dc.lft.to/lastmile_qr_scan", "android": "https://dc.lft.to/lastmile_qr_scan"}, "bike_id": "eb9811010bf3b9b105b0ac5f6dd664c7", "fusion_lat": 0.0}, {"lon": -77.0422675, "name": "62464b4e727e46d4abf2889620c1b773", "is_disabled": 0, "type": "electric_scooter", "is_reserved": 0, "fusion_lon": 0.0, "lat": 38.90973416666667, "rental_uris": {"ios": "https://dc.lft.to/lastmile_qr_scan", "android": "https://dc.lft.to/lastmile_qr_scan"}, "bike_id": "62464b4e727e46d4abf2889620c1b773", "fusion_lat": 0.0}, {"lon": -77.0358355, "name": "2f504c097dd1afc308a99576cc56be7f", "is_disabled": 0, "type": "electric_scooter", "is_reserved": 0, "fusion_lon": 0.0, "lat": 38.926952, "rental_uris": {"ios": "https://dc.lft.to/lastmile_qr_scan", "android": "https://dc.lft.to/lastmile_qr_scan"}, "bike_id": "2f504c097dd1afc308a99576cc56be7f", "fusion_lat": 0.0}, {"lon": -77.04449533333333, "name": "bb18afe18a8843be45b52ad079670cc1", "is_disabled": 0, "type": "electric_scooter", "is_reserved": 0, "fusion_lon": 0.0, "lat": 38.91533616666667, "rental_uris": {"ios": "https://dc.lft.to/lastmile_qr_scan", "android": "https://dc.lft.to/lastmile_qr_scan"}, "bike_id": "bb18afe18a8843be45b52ad079670cc1", "fusion_lat": 0.0}, {"lon": -77.002045, "name": "12ba1055393f6536a63ab08afa033eef", "is_disabled": 0, "type": "electric_scooter", "is_reserved": 0, "fusion_lon": 0.0, "lat": 38.914736833333336, "rental_uris": {"ios": "https://dc.lft.to/lastmile_qr_scan", "android": "https://dc.lft.to/lastmile_qr_scan"}, "bike_id": "12ba1055393f6536a63ab08afa033eef", "fusion_lat": 0.0}, {"lon": -77.01222666666666, "name": "c2c61dedf8bceaaf1ada362339a746b2", "is_disabled": 0, "type": "electric_scooter", "is_reserved": 0, "fusion_lon": 0.0, "lat": 38.91451416666666, "rental_uris": {"ios": "https://dc.lft.to/lastmile_qr_scan", "android": "https://dc.lft.to/lastmile_qr_scan"}, "bike_id": "c2c61dedf8bceaaf1ada362339a746b2", "fusion_lat": 0.0}, {"lon": -77.01704166666667, "name": "31af3a3d800d4836be23b7319568ea92", "is_disabled": 0, "type": "electric_scooter", "is_reserved": 0, "fusion_lon": 0.0, "lat": 38.887522, "rental_uris": {"ios": "https://dc.lft.to/lastmile_qr_scan", "android": "https://dc.lft.to/lastmile_qr_scan"}, "bike_id": "31af3a3d800d4836be23b7319568ea92", "fusion_lat": 0.0}, {"lon": -76.98494816666667, "name": "222811efce04c28bb358420bb6c89390", "is_disabled": 0, "type": "electric_scooter", "is_reserved": 0, "fusion_lon": 0.0, "lat": 38.903667666666664, "rental_uris": {"ios": "https://dc.lft.to/lastmile_qr_scan", "android": "https://dc.lft.to/lastmile_qr_scan"}, "bike_id": "222811efce04c28bb358420bb6c89390", "fusion_lat": 0.0}, {"lon": -77.00925066666667, "name": "4dcbc3a6b4377c4b2f7b87d56622d57d", "is_disabled": 0, "type": "electric_scooter", "is_reserved": 0, "fusion_lon": 0.0, "lat": 38.896099666666665, "rental_uris": {"ios": "https://dc.lft.to/lastmile_qr_scan", "android": "https://dc.lft.to/lastmile_qr_scan"}, "bike_id": "4dcbc3a6b4377c4b2f7b87d56622d57d", "fusion_lat": 0.0}, {"lon": -77.02213483333334, "name": "84acbdd3727084b919112291b9e304b6", "is_disabled": 0, "type": "electric_scooter", "is_reserved": 0, "fusion_lon": 0.0, "lat": 38.9247345, "rental_uris": {"ios": "https://dc.lft.to/lastmile_qr_scan", "android": "https://dc.lft.to/lastmile_qr_scan"}, "bike_id": "84acbdd3727084b919112291b9e304b6", "fusion_lat": 0.0}, {"lon": -77.00578183333333, "name": "19a4dba3f6ff290ea0c750355187ff5e", "is_disabled": 0, "type": "electric_scooter", "is_reserved": 0, "fusion_lon": 0.0, "lat": 38.875265, "rental_uris": {"ios": "https://dc.lft.to/lastmile_qr_scan", "android": "https://dc.lft.to/lastmile_qr_scan"}, "bike_id": "19a4dba3f6ff290ea0c750355187ff5e", "fusion_lat": 0.0}, {"lon": -76.99748933333333, "name": "de98b69742484f9900f8572457998a64", "is_disabled": 0, "type": "electric_scooter", "is_reserved": 0, "fusion_lon": 0.0, "lat": 38.900445, "rental_uris": {"ios": "https://dc.lft.to/lastmile_qr_scan", "android": "https://dc.lft.to/lastmile_qr_scan"}, "bike_id": "de98b69742484f9900f8572457998a64", "fusion_lat": 0.0}, {"lon": -77.0032225, "name": "4db02cb318a947bb9c4036a9ef0d0309", "is_disabled": 0, "type": "electric_scooter", "is_reserved": 0, "fusion_lon": 0.0, "lat": 38.861270833333336, "rental_uris": {"ios": "https://dc.lft.to/lastmile_qr_scan", "android": "https://dc.lft.to/lastmile_qr_scan"}, "bike_id": "4db02cb318a947bb9c4036a9ef0d0309", "fusion_lat": 0.0}, {"lon": -77.01998566666667, "name": "3e9ee7fb3430d40f52b1520abe926a19", "is_disabled": 0, "type": "electric_scooter", "is_reserved": 0, "fusion_lon": 0.0, "lat": 38.911913166666665, "rental_uris": {"ios": "https://dc.lft.to/lastmile_qr_scan", "android": "https://dc.lft.to/lastmile_qr_scan"}, "bike_id": "3e9ee7fb3430d40f52b1520abe926a19", "fusion_lat": 0.0}, {"lon": -77.0211265, "name": "3a1ca3f0d3ef917419455d3b6d05bd26", "is_disabled": 0, "type": "electric_scooter", "is_reserved": 0, "fusion_lon": 0.0, "lat": 38.922337, "rental_uris": {"ios": "https://dc.lft.to/lastmile_qr_scan", "android": "https://dc.lft.to/lastmile_qr_scan"}, "bike_id": "3a1ca3f0d3ef917419455d3b6d05bd26", "fusion_lat": 0.0}, {"lon": -77.10322016666667, "name": "d27e2809e7e8ba2b40a0069c376a3929", "is_disabled": 0, "type": "electric_bike", "is_reserved": 0, "fusion_lon": 0.0, "lat": 38.83687066666667, "rental_uris": {"ios": "https://dc.lft.to/lastmile_qr_scan", "android": "https://dc.lft.to/lastmile_qr_scan"}, "bike_id": "d27e2809e7e8ba2b40a0069c376a3929", "fusion_lat": 0.0}, {"lon": -77.0423975, "name": "3fa60c57ba60e30d0d8835b023d1fba1", "is_disabled": 0, "type": "electric_scooter", "is_reserved": 0, "fusion_lon": 0.0, "lat": 38.921639666666664, "rental_uris": {"ios": "https://dc.lft.to/lastmile_qr_scan", "android": "https://dc.lft.to/lastmile_qr_scan"}, "bike_id": "3fa60c57ba60e30d0d8835b023d1fba1", "fusion_lat": 0.0}, {"lon": -77.07240766666666, "name": "219a0591c1bb27bb65fb0ba885d56d88", "is_disabled": 0, "type": "electric_scooter", "is_reserved": 0, "fusion_lon": 0.0, "lat": 38.92160033333333, "rental_uris": {"ios": "https://dc.lft.to/lastmile_qr_scan", "android": "https://dc.lft.to/lastmile_qr_scan"}, "bike_id": "219a0591c1bb27bb65fb0ba885d56d88", "fusion_lat": 0.0}, {"lon": -77.0243035, "name": "65518857fdcdd96ae15b18a11eda47e6", "is_disabled": 0, "type": "electric_scooter", "is_reserved": 0, "fusion_lon": 0.0, "lat": 38.91971183333333, "rental_uris": {"ios": "https://dc.lft.to/lastmile_qr_scan", "android": "https://dc.lft.to/lastmile_qr_scan"}, "bike_id": "65518857fdcdd96ae15b18a11eda47e6", "fusion_lat": 0.0}, {"lon": -77.02182116666667, "name": "dca275131221163fbdcff2d57c709e18", "is_disabled": 0, "type": "electric_scooter", "is_reserved": 0, "fusion_lon": 0.0, "lat": 38.915504166666665, "rental_uris": {"ios": "https://dc.lft.to/lastmile_qr_scan", "android": "https://dc.lft.to/lastmile_qr_scan"}, "bike_id": "dca275131221163fbdcff2d57c709e18", "fusion_lat": 0.0}, {"lon": -77.04291416666666, "name": "a97c6f51b31a772ac5eaed4eb6b65924", "is_disabled": 0, "type": "electric_scooter", "is_reserved": 0, "fusion_lon": 0.0, "lat": 38.926497, "rental_uris": {"ios": "https://dc.lft.to/lastmile_qr_scan", "android": "https://dc.lft.to/lastmile_qr_scan"}, "bike_id": "a97c6f51b31a772ac5eaed4eb6b65924", "fusion_lat": 0.0}, {"lon": -77.0296325, "name": "16afe726c89208f42b12dd2f7e0028ca", "is_disabled": 0, "type": "electric_scooter", "is_reserved": 0, "fusion_lon": 0.0, "lat": 38.92289266666667, "rental_uris": {"ios": "https://dc.lft.to/lastmile_qr_scan", "android": "https://dc.lft.to/lastmile_qr_scan"}, "bike_id": "16afe726c89208f42b12dd2f7e0028ca", "fusion_lat": 0.0}, {"lon": -77.0283285, "name": "60393f39ec34d6599ba677e171d1c749", "is_disabled": 0, "type": "electric_scooter", "is_reserved": 0, "fusion_lon": 0.0, "lat": 38.91750783333333, "rental_uris": {"ios": "https://dc.lft.to/lastmile_qr_scan", "android": "https://dc.lft.to/lastmile_qr_scan"}, "bike_id": "60393f39ec34d6599ba677e171d1c749", "fusion_lat": 0.0}, {"lon": -77.005334, "name": "7d062b47b5e064b13e1d831fd430f357", "is_disabled": 0, "type": "electric_scooter", "is_reserved": 0, "fusion_lon": 0.0, "lat": 38.8755085, "rental_uris": {"ios": "https://dc.lft.to/lastmile_qr_scan", "android": "https://dc.lft.to/lastmile_qr_scan"}, "bike_id": "7d062b47b5e064b13e1d831fd430f357", "fusion_lat": 0.0}, {"lon": -76.97137416666666, "name": "37cfacfa65513c6448ccf27eeec9c472", "is_disabled": 0, "type": "electric_scooter", "is_reserved": 0, "fusion_lon": 0.0, "lat": 38.91358066666667, "rental_uris": {"ios": "https://dc.lft.to/lastmile_qr_scan", "android": "https://dc.lft.to/lastmile_qr_scan"}, "bike_id": "37cfacfa65513c6448ccf27eeec9c472", "fusion_lat": 0.0}, {"lon": -77.04169266666666, "name": "1275197bce8e38c66ced2a39c0c1afe5", "is_disabled": 0, "type": "electric_scooter", "is_reserved": 0, "fusion_lon": 0.0, "lat": 38.91827216666667, "rental_uris": {"ios": "https://dc.lft.to/lastmile_qr_scan", "android": "https://dc.lft.to/lastmile_qr_scan"}, "bike_id": "1275197bce8e38c66ced2a39c0c1afe5", "fusion_lat": 0.0}, {"lon": -76.90753683333334, "name": "f2101cc02692bb718dff3bd3b18fff3b", "is_disabled": 0, "type": "electric_bike", "is_reserved": 0, "fusion_lon": 0.0, "lat": 38.896161666666664, "rental_uris": {"ios": "https://dc.lft.to/lastmile_qr_scan", "android": "https://dc.lft.to/lastmile_qr_scan"}, "bike_id": "f2101cc02692bb718dff3bd3b18fff3b", "fusion_lat": 0.0}, {"lon": -77.03380366666667, "name": "fc51e4d3b08b9707efba4b2eef418987", "is_disabled": 0, "type": "electric_scooter", "is_reserved": 0, "fusion_lon": 0.0, "lat": 38.921681, "rental_uris": {"ios": "https://dc.lft.to/lastmile_qr_scan", "android": "https://dc.lft.to/lastmile_qr_scan"}, "bike_id": "fc51e4d3b08b9707efba4b2eef418987", "fusion_lat": 0.0}, {"lon": -77.0192695, "name": "d94f05a8a5503da6263dcc156f506133", "is_disabled": 0, "type": "electric_scooter", "is_reserved": 0, "fusion_lon": 0.0, "lat": 38.922545666666664, "rental_uris": {"ios": "https://dc.lft.to/lastmile_qr_scan", "android": "https://dc.lft.to/lastmile_qr_scan"}, "bike_id": "d94f05a8a5503da6263dcc156f506133", "fusion_lat": 0.0}, {"lon": -77.03532233333334, "name": "922343dc989ece2f1358fad458706441", "is_disabled": 0, "type": "electric_scooter", "is_reserved": 0, "fusion_lon": 0.0, "lat": 38.90670216666667, "rental_uris": {"ios": "https://dc.lft.to/lastmile_qr_scan", "android": "https://dc.lft.to/lastmile_qr_scan"}, "bike_id": "922343dc989ece2f1358fad458706441", "fusion_lat": 0.0}, {"lon": -77.02669516666667, "name": "8ce8290b2dd98dcd883c54ca6ffd5867", "is_disabled": 0, "type": "electric_scooter", "is_reserved": 0, "fusion_lon": 0.0, "lat": 38.8977445, "rental_uris": {"ios": "https://dc.lft.to/lastmile_qr_scan", "android": "https://dc.lft.to/lastmile_qr_scan"}, "bike_id": "8ce8290b2dd98dcd883c54ca6ffd5867", "fusion_lat": 0.0}, {"lon": -77.03974816666667, "name": "3687fd69f3af4e2f11123aec4484e7df", "is_disabled": 0, "type": "electric_scooter", "is_reserved": 0, "fusion_lon": 0.0, "lat": 38.920329833333334, "rental_uris": {"ios": "https://dc.lft.to/lastmile_qr_scan", "android": "https://dc.lft.to/lastmile_qr_scan"}, "bike_id": "3687fd69f3af4e2f11123aec4484e7df", "fusion_lat": 0.0}, {"lon": -77.05296533333333, "name": "11a3848f19b0081d8cca6d06216def30", "is_disabled": 0, "type": "electric_scooter", "is_reserved": 0, "fusion_lon": 0.0, "lat": 38.925561, "rental_uris": {"ios": "https://dc.lft.to/lastmile_qr_scan", "android": "https://dc.lft.to/lastmile_qr_scan"}, "bike_id": "11a3848f19b0081d8cca6d06216def30", "fusion_lat": 0.0}, {"lon": -77.019701, "name": "dd2f3972c5771a1462d2d363b9ff5f44", "is_disabled": 0, "type": "electric_scooter", "is_reserved": 0, "fusion_lon": 0.0, "lat": 38.93019133333333, "rental_uris": {"ios": "https://dc.lft.to/lastmile_qr_scan", "android": "https://dc.lft.to/lastmile_qr_scan"}, "bike_id": "dd2f3972c5771a1462d2d363b9ff5f44", "fusion_lat": 0.0}, {"lon": -77.02767583333333, "name": "bb75c982abb7ba0f255aebc3ef5ab72d", "is_disabled": 0, "type": "electric_scooter", "is_reserved": 0, "fusion_lon": 0.0, "lat": 38.954223666666664, "rental_uris": {"ios": "https://dc.lft.to/lastmile_qr_scan", "android": "https://dc.lft.to/lastmile_qr_scan"}, "bike_id": "bb75c982abb7ba0f255aebc3ef5ab72d", "fusion_lat": 0.0}, {"lon": -77.02212416666667, "name": "1987251eb18e27de8e8035959c68fe27", "is_disabled": 0, "type": "electric_scooter", "is_reserved": 0, "fusion_lon": 0.0, "lat": 38.91272383333333, "rental_uris": {"ios": "https://dc.lft.to/lastmile_qr_scan", "android": "https://dc.lft.to/lastmile_qr_scan"}, "bike_id": "1987251eb18e27de8e8035959c68fe27", "fusion_lat": 0.0}, {"lon": -77.04460483333334, "name": "c118e0d3485584de31dd730bd478bb73", "is_disabled": 0, "type": "electric_scooter", "is_reserved": 0, "fusion_lon": 0.0, "lat": 38.915510166666664, "rental_uris": {"ios": "https://dc.lft.to/lastmile_qr_scan", "android": "https://dc.lft.to/lastmile_qr_scan"}, "bike_id": "c118e0d3485584de31dd730bd478bb73", "fusion_lat": 0.0}, {"lon": -77.03868816666666, "name": "c1bb614393021daccdda23d809af8e75", "is_disabled": 0, "type": "electric_scooter", "is_reserved": 0, "fusion_lon": 0.0, "lat": 38.921557666666665, "rental_uris": {"ios": "https://dc.lft.to/lastmile_qr_scan", "android": "https://dc.lft.to/lastmile_qr_scan"}, "bike_id": "c1bb614393021daccdda23d809af8e75", "fusion_lat": 0.0}, {"lon": -77.02403133333334, "name": "10b98e2f25814f33ad288661387b63c8", "is_disabled": 0, "type": "electric_scooter", "is_reserved": 0, "fusion_lon": 0.0, "lat": 38.903958333333335, "rental_uris": {"ios": "https://dc.lft.to/lastmile_qr_scan", "android": "https://dc.lft.to/lastmile_qr_scan"}, "bike_id": "10b98e2f25814f33ad288661387b63c8", "fusion_lat": 0.0}, {"lon": -76.9569675, "name": "e4681a697b8843f28cd11bdb75d188ad", "is_disabled": 0, "type": "electric_bike", "is_reserved": 0, "fusion_lon": 0.0, "lat": 38.8887965, "rental_uris": {"ios": "https://dc.lft.to/lastmile_qr_scan", "android": "https://dc.lft.to/lastmile_qr_scan"}, "bike_id": "e4681a697b8843f28cd11bdb75d188ad", "fusion_lat": 0.0}, {"lon": -77.019932, "name": "bbcf97ae5731455a6e6bf63e2e6a6c17", "is_disabled": 0, "type": "electric_scooter", "is_reserved": 0, "fusion_lon": 0.0, "lat": 38.939161666666664, "rental_uris": {"ios": "https://dc.lft.to/lastmile_qr_scan", "android": "https://dc.lft.to/lastmile_qr_scan"}, "bike_id": "bbcf97ae5731455a6e6bf63e2e6a6c17", "fusion_lat": 0.0}, {"lon": -77.053215, "name": "c2f78eda7e524cb58bfd3694f5a918b8", "is_disabled": 0, "type": "electric_scooter", "is_reserved": 0, "fusion_lon": 0.0, "lat": 38.9105765, "rental_uris": {"ios": "https://dc.lft.to/lastmile_qr_scan", "android": "https://dc.lft.to/lastmile_qr_scan"}, "bike_id": "c2f78eda7e524cb58bfd3694f5a918b8", "fusion_lat": 0.0}, {"lon": -77.03880416666667, "name": "8efb4e7824653786d92a4c6ce9ac3a94", "is_disabled": 0, "type": "electric_scooter", "is_reserved": 0, "fusion_lon": 0.0, "lat": 38.918498, "rental_uris": {"ios": "https://dc.lft.to/lastmile_qr_scan", "android": "https://dc.lft.to/lastmile_qr_scan"}, "bike_id": "8efb4e7824653786d92a4c6ce9ac3a94", "fusion_lat": 0.0}, {"lon": -77.03175816666666, "name": "d14572e2011930bc8e55f4f4b392fc6a", "is_disabled": 0, "type": "electric_scooter", "is_reserved": 0, "fusion_lon": 0.0, "lat": 38.911970833333335, "rental_uris": {"ios": "https://dc.lft.to/lastmile_qr_scan", "android": "https://dc.lft.to/lastmile_qr_scan"}, "bike_id": "d14572e2011930bc8e55f4f4b392fc6a", "fusion_lat": 0.0}, {"lon": -77.00221283333333, "name": "3a89e84394e9f1144278e4df9916ea9b", "is_disabled": 0, "type": "electric_scooter", "is_reserved": 0, "fusion_lon": 0.0, "lat": 38.9019765, "rental_uris": {"ios": "https://dc.lft.to/lastmile_qr_scan", "android": "https://dc.lft.to/lastmile_qr_scan"}, "bike_id": "3a89e84394e9f1144278e4df9916ea9b", "fusion_lat": 0.0}, {"lon": -76.946623, "name": "cd57a6a1ac9bb6288f4b810f06cdce6a", "is_disabled": 0, "type": "electric_scooter", "is_reserved": 0, "fusion_lon": 0.0, "lat": 38.898712333333336, "rental_uris": {"ios": "https://dc.lft.to/lastmile_qr_scan", "android": "https://dc.lft.to/lastmile_qr_scan"}, "bike_id": "cd57a6a1ac9bb6288f4b810f06cdce6a", "fusion_lat": 0.0}, {"lon": -77.01228716666667, "name": "3fbb27e9ba0220495ecee2aeed5afc1d", "is_disabled": 0, "type": "electric_scooter", "is_reserved": 0, "fusion_lon": 0.0, "lat": 38.91358966666667, "rental_uris": {"ios": "https://dc.lft.to/lastmile_qr_scan", "android": "https://dc.lft.to/lastmile_qr_scan"}, "bike_id": "3fbb27e9ba0220495ecee2aeed5afc1d", "fusion_lat": 0.0}, {"lon": -76.9882305, "name": "bdaa665621652afc2edf97cf9ce4a4ed", "is_disabled": 0, "type": "electric_scooter", "is_reserved": 0, "fusion_lon": 0.0, "lat": 38.891013666666666, "rental_uris": {"ios": "https://dc.lft.to/lastmile_qr_scan", "android": "https://dc.lft.to/lastmile_qr_scan"}, "bike_id": "bdaa665621652afc2edf97cf9ce4a4ed", "fusion_lat": 0.0}, {"lon": -77.041694, "name": "931ea6a6c47beefd3c44c2a6ce193f3f", "is_disabled": 0, "type": "electric_scooter", "is_reserved": 0, "fusion_lon": 0.0, "lat": 38.918319, "rental_uris": {"ios": "https://dc.lft.to/lastmile_qr_scan", "android": "https://dc.lft.to/lastmile_qr_scan"}, "bike_id": "931ea6a6c47beefd3c44c2a6ce193f3f", "fusion_lat": 0.0}, {"lon": -77.03246033333333, "name": "d0fee3f4eee3c0c036fe9532ef7d4603", "is_disabled": 0, "type": "electric_scooter", "is_reserved": 0, "fusion_lon": 0.0, "lat": 38.90878383333333, "rental_uris": {"ios": "https://dc.lft.to/lastmile_qr_scan", "android": "https://dc.lft.to/lastmile_qr_scan"}, "bike_id": "d0fee3f4eee3c0c036fe9532ef7d4603", "fusion_lat": 0.0}, {"lon": -77.01556683333334, "name": "ae026e04bf689b88396c96892450038f", "is_disabled": 0, "type": "electric_scooter", "is_reserved": 0, "fusion_lon": 0.0, "lat": 38.89368416666667, "rental_uris": {"ios": "https://dc.lft.to/lastmile_qr_scan", "android": "https://dc.lft.to/lastmile_qr_scan"}, "bike_id": "ae026e04bf689b88396c96892450038f", "fusion_lat": 0.0}, {"lon": -76.973403, "name": "30f5195e69604b48422f584cf3d9603d", "is_disabled": 0, "type": "electric_scooter", "is_reserved": 0, "fusion_lon": 0.0, "lat": 38.917784, "rental_uris": {"ios": "https://dc.lft.to/lastmile_qr_scan", "android": "https://dc.lft.to/lastmile_qr_scan"}, "bike_id": "30f5195e69604b48422f584cf3d9603d", "fusion_lat": 0.0}, {"lon": -77.13936416666667, "name": "3746e19163c1e0d1262324372e8d9e25", "is_disabled": 0, "type": "electric_bike", "is_reserved": 0, "fusion_lon": 0.0, "lat": 38.846808833333334, "rental_uris": {"ios": "https://dc.lft.to/lastmile_qr_scan", "android": "https://dc.lft.to/lastmile_qr_scan"}, "bike_id": "3746e19163c1e0d1262324372e8d9e25", "fusion_lat": 0.0}, {"lon": -77.02126833333334, "name": "d5b2ed232032401572f194bf72f31bcb", "is_disabled": 0, "type": "electric_scooter", "is_reserved": 0, "fusion_lon": 0.0, "lat": 38.9241475, "rental_uris": {"ios": "https://dc.lft.to/lastmile_qr_scan", "android": "https://dc.lft.to/lastmile_qr_scan"}, "bike_id": "d5b2ed232032401572f194bf72f31bcb", "fusion_lat": 0.0}, {"lon": -77.0002045, "name": "db70f70799323fa5c6071a109ced4a96", "is_disabled": 0, "type": "electric_scooter", "is_reserved": 0, "fusion_lon": 0.0, "lat": 38.8740255, "rental_uris": {"ios": "https://dc.lft.to/lastmile_qr_scan", "android": "https://dc.lft.to/lastmile_qr_scan"}, "bike_id": "db70f70799323fa5c6071a109ced4a96", "fusion_lat": 0.0}, {"lon": -76.99394416666667, "name": "c9af46f60fa322b03c86fd8b6582b469", "is_disabled": 0, "type": "electric_scooter", "is_reserved": 0, "fusion_lon": 0.0, "lat": 38.9100195, "rental_uris": {"ios": "https://dc.lft.to/lastmile_qr_scan", "android": "https://dc.lft.to/lastmile_qr_scan"}, "bike_id": "c9af46f60fa322b03c86fd8b6582b469", "fusion_lat": 0.0}, {"lon": -77.02409416666667, "name": "4dac942bdf532a65273ad1cd3fdd8875", "is_disabled": 0, "type": "electric_scooter", "is_reserved": 0, "fusion_lon": 0.0, "lat": 38.90279983333333, "rental_uris": {"ios": "https://dc.lft.to/lastmile_qr_scan", "android": "https://dc.lft.to/lastmile_qr_scan"}, "bike_id": "4dac942bdf532a65273ad1cd3fdd8875", "fusion_lat": 0.0}, {"lon": -76.9856005, "name": "76bde4b047f131cdd75fc23fbef1dbd4", "is_disabled": 0, "type": "electric_scooter", "is_reserved": 0, "fusion_lon": 0.0, "lat": 38.899596333333335, "rental_uris": {"ios": "https://dc.lft.to/lastmile_qr_scan", "android": "https://dc.lft.to/lastmile_qr_scan"}, "bike_id": "76bde4b047f131cdd75fc23fbef1dbd4", "fusion_lat": 0.0}, {"lon": -77.03137266666667, "name": "d617626a4d8942f1ec973e632a25edbf", "is_disabled": 0, "type": "electric_scooter", "is_reserved": 0, "fusion_lon": 0.0, "lat": 38.9126935, "rental_uris": {"ios": "https://dc.lft.to/lastmile_qr_scan", "android": "https://dc.lft.to/lastmile_qr_scan"}, "bike_id": "d617626a4d8942f1ec973e632a25edbf", "fusion_lat": 0.0}, {"lon": -77.01518366666667, "name": "24695b704593a3b4c2e8cd3f2fed17af", "is_disabled": 0, "type": "electric_scooter", "is_reserved": 0, "fusion_lon": 0.0, "lat": 38.87285816666667, "rental_uris": {"ios": "https://dc.lft.to/lastmile_qr_scan", "android": "https://dc.lft.to/lastmile_qr_scan"}, "bike_id": "24695b704593a3b4c2e8cd3f2fed17af", "fusion_lat": 0.0}, {"lon": -77.2339405, "name": "259acb7615970a1f7bd7481a768cf74f", "is_disabled": 0, "type": "electric_bike", "is_reserved": 0, "fusion_lon": 0.0, "lat": 38.871819, "rental_uris": {"ios": "https://dc.lft.to/lastmile_qr_scan", "android": "https://dc.lft.to/lastmile_qr_scan"}, "bike_id": "259acb7615970a1f7bd7481a768cf74f", "fusion_lat": 0.0}, {"lon": -76.99276533333334, "name": "4d3e110212a7d79534b34507beecf8d9", "is_disabled": 0, "type": "electric_scooter", "is_reserved": 0, "fusion_lon": 0.0, "lat": 38.903131333333334, "rental_uris": {"ios": "https://dc.lft.to/lastmile_qr_scan", "android": "https://dc.lft.to/lastmile_qr_scan"}, "bike_id": "4d3e110212a7d79534b34507beecf8d9", "fusion_lat": 0.0}, {"lon": -77.0201535, "name": "5d0eddb7fd565f08bb2cb4d3e72b1f03", "is_disabled": 0, "type": "electric_scooter", "is_reserved": 0, "fusion_lon": 0.0, "lat": 38.901611833333334, "rental_uris": {"ios": "https://dc.lft.to/lastmile_qr_scan", "android": "https://dc.lft.to/lastmile_qr_scan"}, "bike_id": "5d0eddb7fd565f08bb2cb4d3e72b1f03", "fusion_lat": 0.0}, {"lon": -76.99235983333334, "name": "cf0a4b5c7b0a3bb962efe52fffcc3acd", "is_disabled": 0, "type": "electric_scooter", "is_reserved": 0, "fusion_lon": 0.0, "lat": 38.90215966666667, "rental_uris": {"ios": "https://dc.lft.to/lastmile_qr_scan", "android": "https://dc.lft.to/lastmile_qr_scan"}, "bike_id": "cf0a4b5c7b0a3bb962efe52fffcc3acd", "fusion_lat": 0.0}, {"lon": -77.02125866666667, "name": "278604d55222ac4a90dc17b85a7a5c6e", "is_disabled": 0, "type": "electric_scooter", "is_reserved": 0, "fusion_lon": 0.0, "lat": 38.92125333333333, "rental_uris": {"ios": "https://dc.lft.to/lastmile_qr_scan", "android": "https://dc.lft.to/lastmile_qr_scan"}, "bike_id": "278604d55222ac4a90dc17b85a7a5c6e", "fusion_lat": 0.0}, {"lon": -77.02462816666667, "name": "597d4994b131722793bbc111681da7ff", "is_disabled": 0, "type": "electric_scooter", "is_reserved": 0, "fusion_lon": 0.0, "lat": 38.8804165, "rental_uris": {"ios": "https://dc.lft.to/lastmile_qr_scan", "android": "https://dc.lft.to/lastmile_qr_scan"}, "bike_id": "597d4994b131722793bbc111681da7ff", "fusion_lat": 0.0}, {"lon": -77.008663, "name": "e4c167767a5ce5bd322544c6773ffd43", "is_disabled": 0, "type": "electric_scooter", "is_reserved": 0, "fusion_lon": 0.0, "lat": 38.8974445, "rental_uris": {"ios": "https://dc.lft.to/lastmile_qr_scan", "android": "https://dc.lft.to/lastmile_qr_scan"}, "bike_id": "e4c167767a5ce5bd322544c6773ffd43", "fusion_lat": 0.0}, {"lon": -77.09687416666667, "name": "e4cc79af6ac781dd8ddbe58bdbc997fe", "is_disabled": 0, "type": "electric_bike", "is_reserved": 0, "fusion_lon": 0.0, "lat": 38.80742016666667, "rental_uris": {"ios": "https://dc.lft.to/lastmile_qr_scan", "android": "https://dc.lft.to/lastmile_qr_scan"}, "bike_id": "e4cc79af6ac781dd8ddbe58bdbc997fe", "fusion_lat": 0.0}, {"lon": -77.07153533333333, "name": "89dbcdc021d95d6556cf54f538a91a25", "is_disabled": 0, "type": "electric_scooter", "is_reserved": 0, "fusion_lon": 0.0, "lat": 38.9087145, "rental_uris": {"ios": "https://dc.lft.to/lastmile_qr_scan", "android": "https://dc.lft.to/lastmile_qr_scan"}, "bike_id": "89dbcdc021d95d6556cf54f538a91a25", "fusion_lat": 0.0}, {"lon": -77.01136366666667, "name": "f6e8d7e8ebeadd1679076343bc99db33", "is_disabled": 0, "type": "electric_scooter", "is_reserved": 0, "fusion_lon": 0.0, "lat": 38.907378666666666, "rental_uris": {"ios": "https://dc.lft.to/lastmile_qr_scan", "android": "https://dc.lft.to/lastmile_qr_scan"}, "bike_id": "f6e8d7e8ebeadd1679076343bc99db33", "fusion_lat": 0.0}, {"lon": -77.0088955, "name": "6327d9fbb9c5780a87b19c464c981dd3", "is_disabled": 0, "type": "electric_scooter", "is_reserved": 0, "fusion_lon": 0.0, "lat": 38.92486016666667, "rental_uris": {"ios": "https://dc.lft.to/lastmile_qr_scan", "android": "https://dc.lft.to/lastmile_qr_scan"}, "bike_id": "6327d9fbb9c5780a87b19c464c981dd3", "fusion_lat": 0.0}, {"lon": -77.0006965, "name": "2fb565160448ac19179bddc5d545dcf8", "is_disabled": 0, "type": "electric_scooter", "is_reserved": 0, "fusion_lon": 0.0, "lat": 38.920618833333336, "rental_uris": {"ios": "https://dc.lft.to/lastmile_qr_scan", "android": "https://dc.lft.to/lastmile_qr_scan"}, "bike_id": "2fb565160448ac19179bddc5d545dcf8", "fusion_lat": 0.0}, {"lon": -76.9488395, "name": "b86f2e5a3682adfaa99a517c3f3bca42", "is_disabled": 0, "type": "electric_scooter", "is_reserved": 0, "fusion_lon": 0.0, "lat": 38.895119, "rental_uris": {"ios": "https://dc.lft.to/lastmile_qr_scan", "android": "https://dc.lft.to/lastmile_qr_scan"}, "bike_id": "b86f2e5a3682adfaa99a517c3f3bca42", "fusion_lat": 0.0}, {"lon": -77.0323, "name": "87f6a14fc410c61ceecfa1d039174a34", "is_disabled": 0, "type": "electric_scooter", "is_reserved": 0, "fusion_lon": 0.0, "lat": 38.912598833333334, "rental_uris": {"ios": "https://dc.lft.to/lastmile_qr_scan", "android": "https://dc.lft.to/lastmile_qr_scan"}, "bike_id": "87f6a14fc410c61ceecfa1d039174a34", "fusion_lat": 0.0}, {"lon": -77.0259175, "name": "df7d9c594186bdb086014f20374dd2a8", "is_disabled": 0, "type": "electric_scooter", "is_reserved": 0, "fusion_lon": 0.0, "lat": 38.963933, "rental_uris": {"ios": "https://dc.lft.to/lastmile_qr_scan", "android": "https://dc.lft.to/lastmile_qr_scan"}, "bike_id": "df7d9c594186bdb086014f20374dd2a8", "fusion_lat": 0.0}, {"lon": -77.037796, "name": "eee876a5c21fcf6974d9273da7ad534c", "is_disabled": 0, "type": "electric_scooter", "is_reserved": 0, "fusion_lon": 0.0, "lat": 38.9087665, "rental_uris": {"ios": "https://dc.lft.to/lastmile_qr_scan", "android": "https://dc.lft.to/lastmile_qr_scan"}, "bike_id": "eee876a5c21fcf6974d9273da7ad534c", "fusion_lat": 0.0}, {"lon": -77.03378383333333, "name": "ae687d7c970e1eadf3da26ca4bffc01b", "is_disabled": 0, "type": "electric_scooter", "is_reserved": 0, "fusion_lon": 0.0, "lat": 38.92159616666667, "rental_uris": {"ios": "https://dc.lft.to/lastmile_qr_scan", "android": "https://dc.lft.to/lastmile_qr_scan"}, "bike_id": "ae687d7c970e1eadf3da26ca4bffc01b", "fusion_lat": 0.0}, {"lon": -77.02447016666666, "name": "d34e00989d2a3b2d4c678ceed72944e0", "is_disabled": 0, "type": "electric_scooter", "is_reserved": 0, "fusion_lon": 0.0, "lat": 38.949794, "rental_uris": {"ios": "https://dc.lft.to/lastmile_qr_scan", "android": "https://dc.lft.to/lastmile_qr_scan"}, "bike_id": "d34e00989d2a3b2d4c678ceed72944e0", "fusion_lat": 0.0}, {"lon": -77.00788883333334, "name": "70c83cf31ed26e57dd125e51011fd33e", "is_disabled": 0, "type": "electric_scooter", "is_reserved": 0, "fusion_lon": 0.0, "lat": 38.896800999999996, "rental_uris": {"ios": "https://dc.lft.to/lastmile_qr_scan", "android": "https://dc.lft.to/lastmile_qr_scan"}, "bike_id": "70c83cf31ed26e57dd125e51011fd33e", "fusion_lat": 0.0}, {"lon": -77.023819, "name": "87955b6b3cb0ea77aa58c22eadb803b7", "is_disabled": 0, "type": "electric_scooter", "is_reserved": 0, "fusion_lon": 0.0, "lat": 38.95275766666666, "rental_uris": {"ios": "https://dc.lft.to/lastmile_qr_scan", "android": "https://dc.lft.to/lastmile_qr_scan"}, "bike_id": "87955b6b3cb0ea77aa58c22eadb803b7", "fusion_lat": 0.0}, {"lon": -77.0203805, "name": "3d4f3cdf71479a2f4b1865811dafa685", "is_disabled": 0, "type": "electric_scooter", "is_reserved": 0, "fusion_lon": 0.0, "lat": 38.924194166666666, "rental_uris": {"ios": "https://dc.lft.to/lastmile_qr_scan", "android": "https://dc.lft.to/lastmile_qr_scan"}, "bike_id": "3d4f3cdf71479a2f4b1865811dafa685", "fusion_lat": 0.0}, {"lon": -77.0200805, "name": "53a78b3bd0404e90a382e7ed994f4869", "is_disabled": 0, "type": "electric_scooter", "is_reserved": 0, "fusion_lon": 0.0, "lat": 38.924209, "rental_uris": {"ios": "https://dc.lft.to/lastmile_qr_scan", "android": "https://dc.lft.to/lastmile_qr_scan"}, "bike_id": "53a78b3bd0404e90a382e7ed994f4869", "fusion_lat": 0.0}, {"lon": -77.00763616666667, "name": "b22191713820b63f4500d1a92b812c3b", "is_disabled": 0, "type": "electric_scooter", "is_reserved": 0, "fusion_lon": 0.0, "lat": 38.903868833333334, "rental_uris": {"ios": "https://dc.lft.to/lastmile_qr_scan", "android": "https://dc.lft.to/lastmile_qr_scan"}, "bike_id": "b22191713820b63f4500d1a92b812c3b", "fusion_lat": 0.0}, {"lon": -77.02082116666666, "name": "84ce2c98333a640ebf8bc499a1f1cdde", "is_disabled": 0, "type": "electric_scooter", "is_reserved": 0, "fusion_lon": 0.0, "lat": 38.92142233333333, "rental_uris": {"ios": "https://dc.lft.to/lastmile_qr_scan", "android": "https://dc.lft.to/lastmile_qr_scan"}, "bike_id": "84ce2c98333a640ebf8bc499a1f1cdde", "fusion_lat": 0.0},