{"data": {"bikes": [{"is_disabled": 0, "fusion_lon": 0.0, "fusion_lat": 0.0, "lat": 38.8995435, "type": "electric_scooter", "lon": -77.04783566666667, "bike_id": "5199c91d9549c655b4895be6ded318e4", "rental_uris": {"android": "https://dc.lft.to/lastmile_qr_scan", "ios": "https://dc.lft.to/lastmile_qr_scan"}, "name": "5199c91d9549c655b4895be6ded318e4", "is_reserved": 0}, {"is_disabled": 0, "fusion_lon": 0.0, "fusion_lat": 0.0, "lat": 38.9104195, "type": "electric_scooter", "lon": -77.03366866666667, "bike_id": "2e8ca00f37853924fbf32ee4429828e3", "rental_uris": {"android": "https://dc.lft.to/lastmile_qr_scan", "ios": "https://dc.lft.to/lastmile_qr_scan"}, "name": "2e8ca00f37853924fbf32ee4429828e3", "is_reserved": 0}, {"is_disabled": 0, "fusion_lon": 0.0, "fusion_lat": 0.0, "lat": 38.90707033333333, "type": "electric_scooter", "lon": -76.98692366666667, "bike_id": "3d729bfadaace929027aa9cda26760e2", "rental_uris": {"android": "https://dc.lft.to/lastmile_qr_scan", "ios": "https://dc.lft.to/lastmile_qr_scan"}, "name": "3d729bfadaace929027aa9cda26760e2", "is_reserved": 0}, {"is_disabled": 0, "fusion_lon": 0.0, "fusion_lat": 0.0, "lat": 38.92533133333333, "type": "electric_scooter", "lon": -77.07659733333334, "bike_id": "80e352c25bf8a7dd12198bfbf8fac429", "rental_uris": {"android": "https://dc.lft.to/lastmile_qr_scan", "ios": "https://dc.lft.to/lastmile_qr_scan"}, "name": "80e352c25bf8a7dd12198bfbf8fac429", "is_reserved": 0}, {"is_disabled": 0, "fusion_lon": 0.0, "fusion_lat": 0.0, "lat": 38.894727833333334, "type": "electric_scooter", "lon": -76.994156, "bike_id": "cb9e3c758c3844cdf94d1b5fa431eb63", "rental_uris": {"android": "https://dc.lft.to/lastmile_qr_scan", "ios": "https://dc.lft.to/lastmile_qr_scan"}, "name": "cb9e3c758c3844cdf94d1b5fa431eb63", "is_reserved": 0}, {"is_disabled": 0, "fusion_lon": 0.0, "fusion_lat": 0.0, "lat": 38.900093, "type": "electric_scooter", "lon": -77.0197435, "bike_id": "cacea2bc8862ad4a931e975cd9152c87", "rental_uris": {"android": "https://dc.lft.to/lastmile_qr_scan", "ios": "https://dc.lft.to/lastmile_qr_scan"}, "name": "cacea2bc8862ad4a931e975cd9152c87", "is_reserved": 0}, {"is_disabled": 0, "fusion_lon": 0.0, "fusion_lat": 0.0, "lat": 38.86366066666667, "type": "electric_scooter", "lon": -76.99062433333333, "bike_id": "dd83af452a0d7b1a0ee6aa4661a0c574", "rental_uris": {"android": "https://dc.lft.to/lastmile_qr_scan", "ios": "https://dc.lft.to/lastmile_qr_scan"}, "name": "dd83af452a0d7b1a0ee6aa4661a0c574", "is_reserved": 0}, {"is_disabled": 0, "fusion_lon": 0.0, "fusion_lat": 0.0, "lat": 38.9327545, "type": "electric_scooter", "lon": -76.99688, "bike_id": "82d8117ce2a9e9c2a293ed8cf0c75498", "rental_uris": {"android": "https://dc.lft.to/lastmile_qr_scan", "ios": "https://dc.lft.to/lastmile_qr_scan"}, "name": "82d8117ce2a9e9c2a293ed8cf0c75498", "is_reserved": 0}, {"is_disabled": 0, "fusion_lon": 0.0, "fusion_lat": 0.0, "lat": 38.91476216666667, "type": "electric_scooter", "lon": -77.04398083333334, "bike_id": "4e42ae125d7880a4619c4eac74b07195", "rental_uris": {"android": "https://dc.lft.to/lastmile_qr_scan", "ios": "https://dc.lft.to/lastmile_qr_scan"}, "name": "4e42ae125d7880a4619c4eac74b07195", "is_reserved": 0}, {"is_disabled": 0, "fusion_lon": 0.0, "fusion_lat": 0.0, "lat": 38.918607333333334, "type": "electric_bike", "lon": -76.96177766666666, "bike_id": "1e207519a81ea286b8086344c9c98e1a", "rental_uris": {"android": "https://dc.lft.to/lastmile_qr_scan", "ios": "https://dc.lft.to/lastmile_qr_scan"}, "name": "1e207519a81ea286b8086344c9c98e1a", "is_reserved": 0}, {"is_disabled": 0, "fusion_lon": 0.0, "fusion_lat": 0.0, "lat": 38.899078, "type": "electric_scooter", "lon": -76.93390583333333, "bike_id": "30ec29102f3c5ffd663ef4770caada5a", "rental_uris": {"android": "https://dc.lft.to/lastmile_qr_scan", "ios": "https://dc.lft.to/lastmile_qr_scan"}, "name": "30ec29102f3c5ffd663ef4770caada5a", "is_reserved": 0}, {"is_disabled": 0, "fusion_lon": 0.0, "fusion_lat": 0.0, "lat": 38.92013466666667, "type": "electric_scooter", "lon": -77.02402016666667, "bike_id": "5d6e35063cfff394c66fbe4091c10f16", "rental_uris": {"android": "https://dc.lft.to/lastmile_qr_scan", "ios": "https://dc.lft.to/lastmile_qr_scan"}, "name": "5d6e35063cfff394c66fbe4091c10f16", "is_reserved": 0}, {"is_disabled": 0, "fusion_lon": 0.0, "fusion_lat": 0.0, "lat": 38.87147566666667, "type": "electric_scooter", "lon": -76.97896483333334, "bike_id": "0dd19347180213f40072c6fbfc70da8c", "rental_uris": {"android": "https://dc.lft.to/lastmile_qr_scan", "ios": "https://dc.lft.to/lastmile_qr_scan"}, "name": "0dd19347180213f40072c6fbfc70da8c", "is_reserved": 0}, {"is_disabled": 0, "fusion_lon": 0.0, "fusion_lat": 0.0, "lat": 38.887424, "type": "electric_scooter", "lon": -77.0152785, "bike_id": "fb7bc43581bb0f80aacab32a2dab7788", "rental_uris": {"android": "https://dc.lft.to/lastmile_qr_scan", "ios": "https://dc.lft.to/lastmile_qr_scan"}, "name": "fb7bc43581bb0f80aacab32a2dab7788", "is_reserved": 0}, {"is_disabled": 0, "fusion_lon": 0.0, "fusion_lat": 0.0, "lat": 38.969255, "type": "electric_bike", "lon": -77.0262785, "bike_id": "2a15923cc62b9c81615dddcd15491837", "rental_uris": {"android": "https://dc.lft.to/lastmile_qr_scan", "ios": "https://dc.lft.to/lastmile_qr_scan"}, "name": "2a15923cc62b9c81615dddcd15491837", "is_reserved": 0}, {"is_disabled": 0, "fusion_lon": 0.0, "fusion_lat": 0.0, "lat": 38.9611645, "type": "electric_bike", "lon": -77.06903416666667, "bike_id": "24df18b35db85fc7e232d1d3b5b06d47", "rental_uris": {"android": "https://dc.lft.to/lastmile_qr_scan", "ios": "https://dc.lft.to/lastmile_qr_scan"}, "name": "24df18b35db85fc7e232d1d3b5b06d47", "is_reserved": 0}, {"is_disabled": 0, "fusion_lon": 0.0, "fusion_lat": 0.0, "lat": 38.9005245, "type": "electric_scooter", "lon": -77.00062233333334, "bike_id": "7d168cceb75a0b27d4fff9a11e4052eb", "rental_uris": {"android": "https://dc.lft.to/lastmile_qr_scan", "ios": "https://dc.lft.to/lastmile_qr_scan"}, "name": "7d168cceb75a0b27d4fff9a11e4052eb", "is_reserved": 0}, {"is_disabled": 0, "fusion_lon": 0.0, "fusion_lat": 0.0, "lat": 38.91697933333333, "type": "electric_scooter", "lon": -77.03210483333334, "bike_id": "b878865bfe7286127caa0027eaf1ca1d", "rental_uris": {"android": "https://dc.lft.to/lastmile_qr_scan", "ios": "https://dc.lft.to/lastmile_qr_scan"}, "name": "b878865bfe7286127caa0027eaf1ca1d", "is_reserved": 0}, {"is_disabled": 0, "fusion_lon": 0.0, "fusion_lat": 0.0, "lat": 38.93554916666667, "type": "electric_scooter", "lon": -77.0296615, "bike_id": "81dc2b4bd8e0cdb27161cc4f8515ff2d", "rental_uris": {"android": "https://dc.lft.to/lastmile_qr_scan", "ios": "https://dc.lft.to/lastmile_qr_scan"}, "name": "81dc2b4bd8e0cdb27161cc4f8515ff2d", "is_reserved": 0}, {"is_disabled": 0, "fusion_lon": 0.0, "fusion_lat": 0.0, "lat": 38.89209533333333, "type": "electric_scooter", "lon": -76.98799133333333, "bike_id": "af7f4467832c441eb81c43cf73155c23", "rental_uris": {"android": "https://dc.lft.to/lastmile_qr_scan", "ios": "https://dc.lft.to/lastmile_qr_scan"}, "name": "af7f4467832c441eb81c43cf73155c23", "is_reserved": 0}, {"is_disabled": 0, "fusion_lon": 0.0, "fusion_lat": 0.0, "lat": 38.92423933333333, "type": "electric_scooter", "lon": -77.0564025, "bike_id": "ba815a397e1ce04f09ae34b30e5ccb79", "rental_uris": {"android": "https://dc.lft.to/lastmile_qr_scan", "ios": "https://dc.lft.to/lastmile_qr_scan"}, "name": "ba815a397e1ce04f09ae34b30e5ccb79", "is_reserved": 0}, {"is_disabled": 0, "fusion_lon": 0.0, "fusion_lat": 0.0, "lat": 38.90743483333333, "type": "electric_scooter", "lon": -77.03431016666667, "bike_id": "a8f4d5ff9278703bc891813fc18438e1", "rental_uris": {"android": "https://dc.lft.to/lastmile_qr_scan", "ios": "https://dc.lft.to/lastmile_qr_scan"}, "name": "a8f4d5ff9278703bc891813fc18438e1", "is_reserved": 0}, {"is_disabled": 0, "fusion_lon": 0.0, "fusion_lat": 0.0, "lat": 38.98667183333333, "type": "electric_scooter", "lon": -77.02644666666667, "bike_id": "eccbc5be82166e7ffae48dfdb4e8ba80", "rental_uris": {"android": "https://dc.lft.to/lastmile_qr_scan", "ios": "https://dc.lft.to/lastmile_qr_scan"}, "name": "eccbc5be82166e7ffae48dfdb4e8ba80", "is_reserved": 0}, {"is_disabled": 0, "fusion_lon": 0.0, "fusion_lat": 0.0, "lat": 38.91806716666667, "type": "electric_scooter", "lon": -77.03176433333333, "bike_id": "a304b810e344a2b8ec2ca0ebfb31f2f7", "rental_uris": {"android": "https://dc.lft.to/lastmile_qr_scan", "ios": "https://dc.lft.to/lastmile_qr_scan"}, "name": "a304b810e344a2b8ec2ca0ebfb31f2f7", "is_reserved": 0}, {"is_disabled": 0, "fusion_lon": 0.0, "fusion_lat": 0.0, "lat": 38.84201, "type": "electric_bike", "lon": -77.1068615, "bike_id": "eaed1b9addc2f1a733c31fe23d31f336", "rental_uris": {"android": "https://dc.lft.to/lastmile_qr_scan", "ios": "https://dc.lft.to/lastmile_qr_scan"}, "name": "eaed1b9addc2f1a733c31fe23d31f336", "is_reserved": 0}, {"is_disabled": 0, "fusion_lon": 0.0, "fusion_lat": 0.0, "lat": 38.912705, "type": "electric_scooter", "lon": -77.04782783333333, "bike_id": "50a22f5a57c2430b630a5d6df8f592bb", "rental_uris": {"android": "https://dc.lft.to/lastmile_qr_scan", "ios": "https://dc.lft.to/lastmile_qr_scan"}, "name": "50a22f5a57c2430b630a5d6df8f592bb", "is_reserved": 0}, {"is_disabled": 0, "fusion_lon": 0.0, "fusion_lat": 0.0, "lat": 38.9013055, "type": "electric_scooter", "lon": -77.0119835, "bike_id": "845a980e856b8276c3bba732d6a9b6bc", "rental_uris": {"android": "https://dc.lft.to/lastmile_qr_scan", "ios": "https://dc.lft.to/lastmile_qr_scan"}, "name": "845a980e856b8276c3bba732d6a9b6bc", "is_reserved": 0}, {"is_disabled": 0, "fusion_lon": 0.0, "fusion_lat": 0.0, "lat": 38.912654833333335, "type": "electric_scooter", "lon": -77.01697083333333, "bike_id": "32cf1e9dbd5cee8b0b20d19076996e8d", "rental_uris": {"android": "https://dc.lft.to/lastmile_qr_scan", "ios": "https://dc.lft.to/lastmile_qr_scan"}, "name": "32cf1e9dbd5cee8b0b20d19076996e8d", "is_reserved": 0}, {"is_disabled": 0, "fusion_lon": 0.0, "fusion_lat": 0.0, "lat": 38.92823283333333, "type": "electric_scooter", "lon": -77.0225855, "bike_id": "340b12e53004ee5d3225736adacdc518", "rental_uris": {"android": "https://dc.lft.to/lastmile_qr_scan", "ios": "https://dc.lft.to/lastmile_qr_scan"}, "name": "340b12e53004ee5d3225736adacdc518", "is_reserved": 0}, {"is_disabled": 0, "fusion_lon": 0.0, "fusion_lat": 0.0, "lat": 38.895263, "type": "electric_scooter", "lon": -77.02945033333333, "bike_id": "961bd1160d86983195c8ac828687b221", "rental_uris": {"android": "https://dc.lft.to/lastmile_qr_scan", "ios": "https://dc.lft.to/lastmile_qr_scan"}, "name": "961bd1160d86983195c8ac828687b221", "is_reserved": 0}, {"is_disabled": 0, "fusion_lon": 0.0, "fusion_lat": 0.0, "lat": 38.9072465, "type": "electric_scooter", "lon": -77.04679466666667, "bike_id": "84191e3d3f759b884168bf0078da5c1b", "rental_uris": {"android": "https://dc.lft.to/lastmile_qr_scan", "ios": "https://dc.lft.to/lastmile_qr_scan"}, "name": "84191e3d3f759b884168bf0078da5c1b", "is_reserved": 0}, {"is_disabled": 0, "fusion_lon": 0.0, "fusion_lat": 0.0, "lat": 38.99790333333333, "type": "electric_bike", "lon": -77.02860883333334, "bike_id": "22f61b0366df4f716c2e42a15c037a76", "rental_uris": {"android": "https://dc.lft.to/lastmile_qr_scan", "ios": "https://dc.lft.to/lastmile_qr_scan"}, "name": "22f61b0366df4f716c2e42a15c037a76", "is_reserved": 0}, {"is_disabled": 0, "fusion_lon": 0.0, "fusion_lat": 0.0, "lat": 38.88891316666667, "type": "electric_scooter", "lon": -77.01550416666667, "bike_id": "f03daab655478bcc268108124963aead", "rental_uris": {"android": "https://dc.lft.to/lastmile_qr_scan", "ios": "https://dc.lft.to/lastmile_qr_scan"}, "name": "f03daab655478bcc268108124963aead", "is_reserved": 0}, {"is_disabled": 0, "fusion_lon": 0.0, "fusion_lat": 0.0, "lat": 38.967583833333336, "type": "electric_bike", "lon": -77.09162066666667, "bike_id": "188c89f5a4597f135ca0258de321de73", "rental_uris": {"android": "https://dc.lft.to/lastmile_qr_scan", "ios": "https://dc.lft.to/lastmile_qr_scan"}, "name": "188c89f5a4597f135ca0258de321de73", "is_reserved": 0}, {"is_disabled": 0, "fusion_lon": 0.0, "fusion_lat": 0.0, "lat": 38.928695166666664, "type": "electric_scooter", "lon": -77.01409133333334, "bike_id": "061cc5f024d5449844c9dbedf17f43d4", "rental_uris": {"android": "https://dc.lft.to/lastmile_qr_scan", "ios": "https://dc.lft.to/lastmile_qr_scan"}, "name": "061cc5f024d5449844c9dbedf17f43d4", "is_reserved": 0}, {"is_disabled": 0, "fusion_lon": 0.0, "fusion_lat": 0.0, "lat": 38.89226416666666, "type": "electric_scooter", "lon": -77.04659833333334, "bike_id": "1d01c28f9d168bbfe3ba1c52cf14e6e3", "rental_uris": {"android": "https://dc.lft.to/lastmile_qr_scan", "ios": "https://dc.lft.to/lastmile_qr_scan"}, "name": "1d01c28f9d168bbfe3ba1c52cf14e6e3", "is_reserved": 0}, {"is_disabled": 0, "fusion_lon": 0.0, "fusion_lat": 0.0, "lat": 38.897358833333335, "type": "electric_scooter", "lon": -77.026008, "bike_id": "8d6a101a0a6d5ea5a568ba944c743bbc", "rental_uris": {"android": "https://dc.lft.to/lastmile_qr_scan", "ios": "https://dc.lft.to/lastmile_qr_scan"}, "name": "8d6a101a0a6d5ea5a568ba944c743bbc", "is_reserved": 0}, {"is_disabled": 0, "fusion_lon": 0.0, "fusion_lat": 0.0, "lat": 38.93134233333333, "type": "electric_scooter", "lon": -77.02803283333333, "bike_id": "61a1e2ea42da435cddb4ceedf344f73f", "rental_uris": {"android": "https://dc.lft.to/lastmile_qr_scan", "ios": "https://dc.lft.to/lastmile_qr_scan"}, "name": "61a1e2ea42da435cddb4ceedf344f73f", "is_reserved": 0}, {"is_disabled": 0, "fusion_lon": 0.0, "fusion_lat": 0.0, "lat": 38.858079333333336, "type": "electric_scooter", "lon": -76.98652733333333, "bike_id": "0545b9aa56dc49969a6a97160a4a419a", "rental_uris": {"android": "https://dc.lft.to/lastmile_qr_scan", "ios": "https://dc.lft.to/lastmile_qr_scan"}, "name": "0545b9aa56dc49969a6a97160a4a419a", "is_reserved": 0}, {"is_disabled": 0, "fusion_lon": 0.0, "fusion_lat": 0.0, "lat": 38.91733333333333, "type": "electric_scooter", "lon": -77.00045316666667, "bike_id": "397ef4187bf4ba01ce9b6e079075e61b", "rental_uris": {"android": "https://dc.lft.to/lastmile_qr_scan", "ios": "https://dc.lft.to/lastmile_qr_scan"}, "name": "397ef4187bf4ba01ce9b6e079075e61b", "is_reserved": 0}, {"is_disabled": 0, "fusion_lon": 0.0, "fusion_lat": 0.0, "lat": 38.924833666666665, "type": "electric_scooter", "lon": -77.02997666666667, "bike_id": "202e0b6dd654644a27d456d796a00dae", "rental_uris": {"android": "https://dc.lft.to/lastmile_qr_scan", "ios": "https://dc.lft.to/lastmile_qr_scan"}, "name": "202e0b6dd654644a27d456d796a00dae", "is_reserved": 0}, {"is_disabled": 0, "fusion_lon": 0.0, "fusion_lat": 0.0, "lat": 38.918121666666664, "type": "electric_scooter", "lon": -77.0356255, "bike_id": "32274a6571335fa4c2640d287b27df35", "rental_uris": {"android": "https://dc.lft.to/lastmile_qr_scan", "ios": "https://dc.lft.to/lastmile_qr_scan"}, "name": "32274a6571335fa4c2640d287b27df35", "is_reserved": 0}, {"is_disabled": 0, "fusion_lon": 0.0, "fusion_lat": 0.0, "lat": 38.802977166666665, "type": "electric_bike", "lon": -77.0398965, "bike_id": "c5f958ebf1f1371fbc3ea8558df7b8bf", "rental_uris": {"android": "https://dc.lft.to/lastmile_qr_scan", "ios": "https://dc.lft.to/lastmile_qr_scan"}, "name": "c5f958ebf1f1371fbc3ea8558df7b8bf", "is_reserved": 0}, {"is_disabled": 0, "fusion_lon": 0.0, "fusion_lat": 0.0, "lat": 38.91316483333333, "type": "electric_scooter", "lon": -77.03659783333333, "bike_id": "139fba1ec4336c706fe873c536dc3fe8", "rental_uris": {"android": "https://dc.lft.to/lastmile_qr_scan", "ios": "https://dc.lft.to/lastmile_qr_scan"}, "name": "139fba1ec4336c706fe873c536dc3fe8", "is_reserved": 0}, {"is_disabled": 0, "fusion_lon": 0.0, "fusion_lat": 0.0, "lat": 38.920323333333336, "type": "electric_scooter", "lon": -77.0190605, "bike_id": "0a32a71548a5c426d4454ca236ee06f4", "rental_uris": {"android": "https://dc.lft.to/lastmile_qr_scan", "ios": "https://dc.lft.to/lastmile_qr_scan"}, "name": "0a32a71548a5c426d4454ca236ee06f4", "is_reserved": 0}, {"is_disabled": 0, "fusion_lon": 0.0, "fusion_lat": 0.0, "lat": 38.93484933333333, "type": "electric_scooter", "lon": -77.024134, "bike_id": "9e492e6f98a9cc4b286385b1131ee509", "rental_uris": {"android": "https://dc.lft.to/lastmile_qr_scan", "ios": "https://dc.lft.to/lastmile_qr_scan"}, "name": "9e492e6f98a9cc4b286385b1131ee509", "is_reserved": 0}, {"is_disabled": 0, "fusion_lon": 0.0, "fusion_lat": 0.0, "lat": 38.887448666666664, "type": "electric_scooter", "lon": -77.01537483333334, "bike_id": "3849a11cab541daaa8a19d17e389aa2f", "rental_uris": {"android": "https://dc.lft.to/lastmile_qr_scan", "ios": "https://dc.lft.to/lastmile_qr_scan"}, "name": "3849a11cab541daaa8a19d17e389aa2f", "is_reserved": 0}, {"is_disabled": 0, "fusion_lon": 0.0, "fusion_lat": 0.0, "lat": 38.91950883333333, "type": "electric_scooter", "lon": -77.01390083333334, "bike_id": "1640c5bb4941da8729a530b19b6bc24d", "rental_uris": {"android": "https://dc.lft.to/lastmile_qr_scan", "ios": "https://dc.lft.to/lastmile_qr_scan"}, "name": "1640c5bb4941da8729a530b19b6bc24d", "is_reserved": 0}, {"is_disabled": 0, "fusion_lon": 0.0, "fusion_lat": 0.0, "lat": 38.92262316666667, "type": "electric_scooter", "lon": -77.03297866666666, "bike_id": "4eeb9cbedbc1525fbe8bb393aefefd15", "rental_uris": {"android": "https://dc.lft.to/lastmile_qr_scan", "ios": "https://dc.lft.to/lastmile_qr_scan"}, "name": "4eeb9cbedbc1525fbe8bb393aefefd15", "is_reserved": 0}, {"is_disabled": 0, "fusion_lon": 0.0, "fusion_lat": 0.0, "lat": 38.91707233333333, "type": "electric_scooter", "lon": -77.02889816666666, "bike_id": "512f2f31a8e01e57a7e507478bccecd7", "rental_uris": {"android": "https://dc.lft.to/lastmile_qr_scan", "ios": "https://dc.lft.to/lastmile_qr_scan"}, "name": "512f2f31a8e01e57a7e507478bccecd7", "is_reserved": 0}, {"is_disabled": 0, "fusion_lon": 0.0, "fusion_lat": 0.0, "lat": 38.921257833333335, "type": "electric_scooter", "lon": -77.025178, "bike_id": "4c49233faa55fb8b1d196d90baf2116e", "rental_uris": {"android": "https://dc.lft.to/lastmile_qr_scan", "ios": "https://dc.lft.to/lastmile_qr_scan"}, "name": "4c49233faa55fb8b1d196d90baf2116e", "is_reserved": 0}, {"is_disabled": 0, "fusion_lon": 0.0, "fusion_lat": 0.0, "lat": 38.879372000000004, "type": "electric_scooter", "lon": -77.00998833333334, "bike_id": "a8dc9a188528d3535b392340164d4915", "rental_uris": {"android": "https://dc.lft.to/lastmile_qr_scan", "ios": "https://dc.lft.to/lastmile_qr_scan"}, "name": "a8dc9a188528d3535b392340164d4915", "is_reserved": 0}, {"is_disabled": 0, "fusion_lon": 0.0, "fusion_lat": 0.0, "lat": 38.86660933333334, "type": "electric_scooter", "lon": -76.98889033333333, "bike_id": "e424986d91b74cf430b16e440de82d99", "rental_uris": {"android": "https://dc.lft.to/lastmile_qr_scan", "ios": "https://dc.lft.to/lastmile_qr_scan"}, "name": "e424986d91b74cf430b16e440de82d99", "is_reserved": 0}, {"is_disabled": 0, "fusion_lon": 0.0, "fusion_lat": 0.0, "lat": 38.95615033333333, "type": "electric_scooter", "lon": -77.02764716666667, "bike_id": "439e641436c37b1437c40f592c6ab4dd", "rental_uris": {"android": "https://dc.lft.to/lastmile_qr_scan", "ios": "https://dc.lft.to/lastmile_qr_scan"}, "name": "439e641436c37b1437c40f592c6ab4dd", "is_reserved": 0}, {"is_disabled": 0, "fusion_lon": 0.0, "fusion_lat": 0.0, "lat": 38.96217733333334, "type": "electric_scooter", "lon": -77.02803066666667, "bike_id": "c0670bad1d83306e11547730e1523eb7", "rental_uris": {"android": "https://dc.lft.to/lastmile_qr_scan", "ios": "https://dc.lft.to/lastmile_qr_scan"}, "name": "c0670bad1d83306e11547730e1523eb7", "is_reserved": 0}, {"is_disabled": 0, "fusion_lon": 0.0, "fusion_lat": 0.0, "lat": 38.893080499999996, "type": "electric_scooter", "lon": -77.021225, "bike_id": "2eeab565a6cf43c8f0b0a2e9144746ba", "rental_uris": {"android": "https://dc.lft.to/lastmile_qr_scan", "ios": "https://dc.lft.to/lastmile_qr_scan"}, "name": "2eeab565a6cf43c8f0b0a2e9144746ba", "is_reserved": 0}, {"is_disabled": 0, "fusion_lon": 0.0, "fusion_lat": 0.0, "lat": 38.942295, "type": "electric_scooter", "lon": -77.02161066666666, "bike_id": "52874a2ea22193c093465a0314f497a6", "rental_uris": {"android": "https://dc.lft.to/lastmile_qr_scan", "ios": "https://dc.lft.to/lastmile_qr_scan"}, "name": "52874a2ea22193c093465a0314f497a6", "is_reserved": 0}, {"is_disabled": 0, "fusion_lon": 0.0, "fusion_lat": 0.0, "lat": 38.937547333333335, "type": "electric_scooter", "lon": -77.024729, "bike_id": "8c513fa4044cb6482e8d421ea1c70bdc", "rental_uris": {"android": "https://dc.lft.to/lastmile_qr_scan", "ios": "https://dc.lft.to/lastmile_qr_scan"}, "name": "8c513fa4044cb6482e8d421ea1c70bdc", "is_reserved": 0}, {"is_disabled": 0, "fusion_lon": 0.0, "fusion_lat": 0.0, "lat": 38.904927666666666, "type": "electric_scooter", "lon": -77.02955666666666, "bike_id": "d60e7d99976ee2721ef354e9699bde1e", "rental_uris": {"android": "https://dc.lft.to/lastmile_qr_scan", "ios": "https://dc.lft.to/lastmile_qr_scan"}, "name": "d60e7d99976ee2721ef354e9699bde1e", "is_reserved": 0}, {"is_disabled": 0, "fusion_lon": 0.0, "fusion_lat": 0.0, "lat": 38.9428295, "type": "electric_scooter", "lon": -77.0363145, "bike_id": "c420a74b8fd4a95179c5be42e986327b", "rental_uris": {"android": "https://dc.lft.to/lastmile_qr_scan", "ios": "https://dc.lft.to/lastmile_qr_scan"}, "name": "c420a74b8fd4a95179c5be42e986327b", "is_reserved": 0}, {"is_disabled": 0, "fusion_lon": 0.0, "fusion_lat": 0.0, "lat": 38.949845333333336, "type": "electric_scooter", "lon": -77.02704116666666, "bike_id": "cec5e9660f01a7d915cb72452adb1924", "rental_uris": {"android": "https://dc.lft.to/lastmile_qr_scan", "ios": "https://dc.lft.to/lastmile_qr_scan"}, "name": "cec5e9660f01a7d915cb72452adb1924", "is_reserved": 0}, {"is_disabled": 0, "fusion_lon": 0.0, "fusion_lat": 0.0, "lat": 38.90956466666667, "type": "electric_scooter", "lon": -77.0238325, "bike_id": "7e52e66d6f55b30f08c5181def385551", "rental_uris": {"android": "https://dc.lft.to/lastmile_qr_scan", "ios": "https://dc.lft.to/lastmile_qr_scan"}, "name": "7e52e66d6f55b30f08c5181def385551", "is_reserved": 0}, {"is_disabled": 0, "fusion_lon": 0.0, "fusion_lat": 0.0, "lat": 38.858137, "type": "electric_scooter", "lon": -76.98963566666667, "bike_id": "1eabceb71baa6047052c41450dd77606", "rental_uris": {"android": "https://dc.lft.to/lastmile_qr_scan", "ios": "https://dc.lft.to/lastmile_qr_scan"}, "name": "1eabceb71baa6047052c41450dd77606", "is_reserved": 0}, {"is_disabled": 0, "fusion_lon": 0.0, "fusion_lat": 0.0, "lat": 38.90031466666667, "type": "electric_scooter", "lon": -76.99634583333334, "bike_id": "800b1cc440da20c58e160d9cfbf3daca", "rental_uris": {"android": "https://dc.lft.to/lastmile_qr_scan", "ios": "https://dc.lft.to/lastmile_qr_scan"}, "name": "800b1cc440da20c58e160d9cfbf3daca", "is_reserved": 0}, {"is_disabled": 0, "fusion_lon": 0.0, "fusion_lat": 0.0, "lat": 38.902415166666664, "type": "electric_scooter", "lon": -77.0021155, "bike_id": "0d664150bd173fe7dd78d95a3ca1f72f", "rental_uris": {"android": "https://dc.lft.to/lastmile_qr_scan", "ios": "https://dc.lft.to/lastmile_qr_scan"}, "name": "0d664150bd173fe7dd78d95a3ca1f72f", "is_reserved": 0}, {"is_disabled": 0, "fusion_lon": 0.0, "fusion_lat": 0.0, "lat": 38.894802, "type": "electric_scooter", "lon": -76.99519366666667, "bike_id": "ff37a4fc15183f0f81ae805b45f5f2cb", "rental_uris": {"android": "https://dc.lft.to/lastmile_qr_scan", "ios": "https://dc.lft.to/lastmile_qr_scan"}, "name": "ff37a4fc15183f0f81ae805b45f5f2cb", "is_reserved": 0}, {"is_disabled": 0, "fusion_lon": 0.0, "fusion_lat": 0.0, "lat": 38.9186005, "type": "electric_bike", "lon": -76.960957, "bike_id": "bf6fb5791ec8c155b18a6cf3b1f906e0", "rental_uris": {"android": "https://dc.lft.to/lastmile_qr_scan", "ios": "https://dc.lft.to/lastmile_qr_scan"}, "name": "bf6fb5791ec8c155b18a6cf3b1f906e0", "is_reserved": 0}, {"is_disabled": 0, "fusion_lon": 0.0, "fusion_lat": 0.0, "lat": 38.9249915, "type": "electric_scooter", "lon": -77.05221383333334, "bike_id": "d16fc00618dec34d9d989dd15c7f9351", "rental_uris": {"android": "https://dc.lft.to/lastmile_qr_scan", "ios": "https://dc.lft.to/lastmile_qr_scan"}, "name": "d16fc00618dec34d9d989dd15c7f9351", "is_reserved": 0}, {"is_disabled": 0, "fusion_lon": 0.0, "fusion_lat": 0.0, "lat": 38.87806166666667, "type": "electric_scooter", "lon": -77.01427733333334, "bike_id": "3733c059bcce78c390eb553e57a7b08c", "rental_uris": {"android": "https://dc.lft.to/lastmile_qr_scan", "ios": "https://dc.lft.to/lastmile_qr_scan"}, "name": "3733c059bcce78c390eb553e57a7b08c", "is_reserved": 0}, {"is_disabled": 0, "fusion_lon": 0.0, "fusion_lat": 0.0, "lat": 38.93559, "type": "electric_scooter", "lon": -77.03485433333333, "bike_id": "11660795a8bc3387522eba66471ae9dc", "rental_uris": {"android": "https://dc.lft.to/lastmile_qr_scan", "ios": "https://dc.lft.to/lastmile_qr_scan"}, "name": "11660795a8bc3387522eba66471ae9dc", "is_reserved": 0}, {"is_disabled": 0, "fusion_lon": 0.0, "fusion_lat": 0.0, "lat": 38.92122083333334, "type": "electric_bike", "lon": -77.0121125, "bike_id": "01ec48080c0d92f7f81c49e7927c82de", "rental_uris": {"android": "https://dc.lft.to/lastmile_qr_scan", "ios": "https://dc.lft.to/lastmile_qr_scan"}, "name": "01ec48080c0d92f7f81c49e7927c82de", "is_reserved": 0}, {"is_disabled": 0, "fusion_lon": 0.0, "fusion_lat": 0.0, "lat": 38.91327533333333, "type": "electric_scooter", "lon": -77.03181466666666, "bike_id": "6c52041fe4e0333dffedadeacb16e06a", "rental_uris": {"android": "https://dc.lft.to/lastmile_qr_scan", "ios": "https://dc.lft.to/lastmile_qr_scan"}, "name": "6c52041fe4e0333dffedadeacb16e06a", "is_reserved": 0}, {"is_disabled": 0, "fusion_lon": 0.0, "fusion_lat": 0.0, "lat": 38.915032, "type": "electric_scooter", "lon": -76.98350866666667, "bike_id": "aee852fb95f087ad5d931b511e767ab5", "rental_uris": {"android": "https://dc.lft.to/lastmile_qr_scan", "ios": "https://dc.lft.to/lastmile_qr_scan"}, "name": "aee852fb95f087ad5d931b511e767ab5", "is_reserved": 0}, {"is_disabled": 0, "fusion_lon": 0.0, "fusion_lat": 0.0, "lat": 38.928483, "type": "electric_scooter", "lon": -77.05626833333334, "bike_id": "7e1258ddf05503043338ca4ddccf0393", "rental_uris": {"android": "https://dc.lft.to/lastmile_qr_scan", "ios": "https://dc.lft.to/lastmile_qr_scan"}, "name": "7e1258ddf05503043338ca4ddccf0393", "is_reserved": 0}, {"is_disabled": 0, "fusion_lon": 0.0, "fusion_lat": 0.0, "lat": 38.905459, "type": "electric_scooter", "lon": -77.0465835, "bike_id": "a1b60b710a653fea5d629467ac2f6b28", "rental_uris": {"android": "https://dc.lft.to/lastmile_qr_scan", "ios": "https://dc.lft.to/lastmile_qr_scan"}, "name": "a1b60b710a653fea5d629467ac2f6b28", "is_reserved": 0}, {"is_disabled": 0, "fusion_lon": 0.0, "fusion_lat": 0.0, "lat": 38.862449166666664, "type": "electric_scooter", "lon": -76.99494633333333, "bike_id": "43b3b1687719277d577271c567c46e46", "rental_uris": {"android": "https://dc.lft.to/lastmile_qr_scan", "ios": "https://dc.lft.to/lastmile_qr_scan"}, "name": "43b3b1687719277d577271c567c46e46", "is_reserved": 0}, {"is_disabled": 0, "fusion_lon": 0.0, "fusion_lat": 0.0, "lat": 38.83934166666667, "type": "electric_bike", "lon": -77.07898766666666, "bike_id": "d190f2c11fff9640f0b596cfd0dd9743", "rental_uris": {"android": "https://dc.lft.to/lastmile_qr_scan", "ios": "https://dc.lft.to/lastmile_qr_scan"}, "name": "d190f2c11fff9640f0b596cfd0dd9743", "is_reserved": 0}, {"is_disabled": 0, "fusion_lon": 0.0, "fusion_lat": 0.0, "lat": 38.921609333333336, "type": "electric_scooter", "lon": -77.03457266666666, "bike_id": "c269b3e66c3e6b8ad931892f86eb6bb0", "rental_uris": {"android": "https://dc.lft.to/lastmile_qr_scan", "ios": "https://dc.lft.to/lastmile_qr_scan"}, "name": "c269b3e66c3e6b8ad931892f86eb6bb0", "is_reserved": 0}, {"is_disabled": 0, "fusion_lon": 0.0, "fusion_lat": 0.0, "lat": 38.91196983333333, "type": "electric_scooter", "lon": -77.038565, "bike_id": "023e7147ce44e433fb6ba8df2c7e7704", "rental_uris": {"android": "https://dc.lft.to/lastmile_qr_scan", "ios": "https://dc.lft.to/lastmile_qr_scan"}, "name": "023e7147ce44e433fb6ba8df2c7e7704", "is_reserved": 0}, {"is_disabled": 0, "fusion_lon": 0.0, "fusion_lat": 0.0, "lat": 38.88686383333334, "type": "electric_scooter", "lon": -76.9547415, "bike_id": "50309bd69a32907c26fc34d78153cba4", "rental_uris": {"android": "https://dc.lft.to/lastmile_qr_scan", "ios": "https://dc.lft.to/lastmile_qr_scan"}, "name": "50309bd69a32907c26fc34d78153cba4", "is_reserved": 0}, {"is_disabled": 0, "fusion_lon": 0.0, "fusion_lat": 0.0, "lat": 38.94561066666667, "type": "electric_bike", "lon": -77.05111033333333, "bike_id": "8c8cb3e70a81cede6072a22847e58eb4", "rental_uris": {"android": "https://dc.lft.to/lastmile_qr_scan", "ios": "https://dc.lft.to/lastmile_qr_scan"}, "name": "8c8cb3e70a81cede6072a22847e58eb4", "is_reserved": 0}, {"is_disabled": 0, "fusion_lon": 0.0, "fusion_lat": 0.0, "lat": 38.94473033333333, "type": "electric_bike", "lon": -77.00649216666666, "bike_id": "0eeba9bd2f1f1becee99e6534bd94719", "rental_uris": {"android": "https://dc.lft.to/lastmile_qr_scan", "ios": "https://dc.lft.to/lastmile_qr_scan"}, "name": "0eeba9bd2f1f1becee99e6534bd94719", "is_reserved": 0}, {"is_disabled": 0, "fusion_lon": 0.0, "fusion_lat": 0.0, "lat": 38.928244, "type": "electric_scooter", "lon": -77.02263116666667, "bike_id": "1c9f534ca120c882a6408dde06b3107e", "rental_uris": {"android": "https://dc.lft.to/lastmile_qr_scan", "ios": "https://dc.lft.to/lastmile_qr_scan"}, "name": "1c9f534ca120c882a6408dde06b3107e", "is_reserved": 0}, {"is_disabled": 0, "fusion_lon": 0.0, "fusion_lat": 0.0, "lat": 38.906921, "type": "electric_scooter", "lon": -77.07463916666667, "bike_id": "6ec67ecac8bbd17cb59fd2648de24424", "rental_uris": {"android": "https://dc.lft.to/lastmile_qr_scan", "ios": "https://dc.lft.to/lastmile_qr_scan"}, "name": "6ec67ecac8bbd17cb59fd2648de24424", "is_reserved": 0}, {"is_disabled": 0, "fusion_lon": 0.0, "fusion_lat": 0.0, "lat": 38.8982425, "type": "electric_scooter", "lon": -77.02979683333334, "bike_id": "57d8c2093f0d0c68cdbcc084a9d249ee", "rental_uris": {"android": "https://dc.lft.to/lastmile_qr_scan", "ios": "https://dc.lft.to/lastmile_qr_scan"}, "name": "57d8c2093f0d0c68cdbcc084a9d249ee", "is_reserved": 0}, {"is_disabled": 0, "fusion_lon": 0.0, "fusion_lat": 0.0, "lat": 38.905308833333336, "type": "electric_scooter", "lon": -77.05011, "bike_id": "cec0f4ea8b85d8a617c1c14e3d4d88a1", "rental_uris": {"android": "https://dc.lft.to/lastmile_qr_scan", "ios": "https://dc.lft.to/lastmile_qr_scan"}, "name": "cec0f4ea8b85d8a617c1c14e3d4d88a1", "is_reserved": 0}, {"is_disabled": 0, "fusion_lon": 0.0, "fusion_lat": 0.0, "lat": 38.92814166666667, "type": "electric_scooter", "lon": -77.02348583333334, "bike_id": "91341bf713eb53d325e3ecc25451d616", "rental_uris": {"android": "https://dc.lft.to/lastmile_qr_scan", "ios": "https://dc.lft.to/lastmile_qr_scan"}, "name": "91341bf713eb53d325e3ecc25451d616", "is_reserved": 0}, {"is_disabled": 0, "fusion_lon": 0.0, "fusion_lat": 0.0, "lat": 38.93425083333333, "type": "electric_scooter", "lon": -77.05843166666666, "bike_id": "d77be98f4f6c8b9e1fdc5470c59b60cc", "rental_uris": {"android": "https://dc.lft.to/lastmile_qr_scan", "ios": "https://dc.lft.to/lastmile_qr_scan"}, "name": "d77be98f4f6c8b9e1fdc5470c59b60cc", "is_reserved": 0}, {"is_disabled": 0, "fusion_lon": 0.0, "fusion_lat": 0.0, "lat": 38.900046833333334, "type": "electric_scooter", "lon": -77.04363166666667, "bike_id": "17ab3b40fd3b271ff9447a812014c43a", "rental_uris": {"android": "https://dc.lft.to/lastmile_qr_scan", "ios": "https://dc.lft.to/lastmile_qr_scan"}, "name": "17ab3b40fd3b271ff9447a812014c43a", "is_reserved": 0}, {"is_disabled": 0, "fusion_lon": 0.0, "fusion_lat": 0.0, "lat": 38.918069, "type": "electric_scooter", "lon": -77.03249883333334, "bike_id": "4082f0ec10145ba89c76b915829277e2", "rental_uris": {"android": "https://dc.lft.to/lastmile_qr_scan", "ios": "https://dc.lft.to/lastmile_qr_scan"}, "name": "4082f0ec10145ba89c76b915829277e2", "is_reserved": 0}, {"is_disabled": 0, "fusion_lon": 0.0, "fusion_lat": 0.0, "lat": 38.86361566666667, "type": "electric_scooter", "lon": -76.99070366666666, "bike_id": "eb1a1612e1fa6cc51be9f48c5016ed92", "rental_uris": {"android": "https://dc.lft.to/lastmile_qr_scan", "ios": "https://dc.lft.to/lastmile_qr_scan"}, "name": "eb1a1612e1fa6cc51be9f48c5016ed92", "is_reserved": 0}, {"is_disabled": 0, "fusion_lon": 0.0, "fusion_lat": 0.0, "lat": 38.91599016666667, "type": "electric_scooter", "lon": -77.02299533333333, "bike_id": "8f0fb639952533b57fbe84d5fd369a72", "rental_uris": {"android": "https://dc.lft.to/lastmile_qr_scan", "ios": "https://dc.lft.to/lastmile_qr_scan"}, "name": "8f0fb639952533b57fbe84d5fd369a72", "is_reserved": 0}, {"is_disabled": 0, "fusion_lon": 0.0, "fusion_lat": 0.0, "lat": 38.920595166666665, "type": "electric_scooter", "lon": -77.03281033333333, "bike_id": "84d6405ec2f835953fd7d78222fd43c3", "rental_uris": {"android": "https://dc.lft.to/lastmile_qr_scan", "ios": "https://dc.lft.to/lastmile_qr_scan"}, "name": "84d6405ec2f835953fd7d78222fd43c3", "is_reserved": 0}, {"is_disabled": 0, "fusion_lon": 0.0, "fusion_lat": 0.0, "lat": 38.922495166666664, "type": "electric_scooter", "lon": -77.04227183333333, "bike_id": "d58e9336079ae7df0b4bc3c4adac579d", "rental_uris": {"android": "https://dc.lft.to/lastmile_qr_scan", "ios": "https://dc.lft.to/lastmile_qr_scan"}, "name": "d58e9336079ae7df0b4bc3c4adac579d", "is_reserved": 0}, {"is_disabled": 0, "fusion_lon": 0.0, "fusion_lat": 0.0, "lat": 38.921625166666665, "type": "electric_scooter", "lon": -77.03437133333334, "bike_id": "558b694e56459b16992895c8055a4770", "rental_uris": {"android": "https://dc.lft.to/lastmile_qr_scan", "ios": "https://dc.lft.to/lastmile_qr_scan"}, "name": "558b694e56459b16992895c8055a4770", "is_reserved": 0}, {"is_disabled": 0, "fusion_lon": 0.0, "fusion_lat": 0.0, "lat": 38.827834, "type": "electric_bike", "lon": -77.11083083333334, "bike_id": "24010bf37eb142a1c49d731dde85187d", "rental_uris": {"android": "https://dc.lft.to/lastmile_qr_scan", "ios": "https://dc.lft.to/lastmile_qr_scan"}, "name": "24010bf37eb142a1c49d731dde85187d", "is_reserved": 0}, {"is_disabled": 0, "fusion_lon": 0.0, "fusion_lat": 0.0, "lat": 38.9227895, "type": "electric_scooter", "lon": -77.04465983333333, "bike_id": "a6fc7bd9ea3d7dfbc87ad503752e8c66", "rental_uris": {"android": "https://dc.lft.to/lastmile_qr_scan", "ios": "https://dc.lft.to/lastmile_qr_scan"}, "name": "a6fc7bd9ea3d7dfbc87ad503752e8c66", "is_reserved": 0}, {"is_disabled": 0, "fusion_lon": 0.0, "fusion_lat": 0.0, "lat": 38.90165, "type": "electric_scooter", "lon": -77.02203816666666, "bike_id": "20e81d1c4284a697878ed58c335db907", "rental_uris": {"android": "https://dc.lft.to/lastmile_qr_scan", "ios": "https://dc.lft.to/lastmile_qr_scan"}, "name": "20e81d1c4284a697878ed58c335db907", "is_reserved": 0}, {"is_disabled": 0, "fusion_lon": 0.0, "fusion_lat": 0.0, "lat": 38.91955983333333, "type": "electric_scooter", "lon": -77.0008025, "bike_id": "b1605bc6ed387f9f49d3af2cf5f21fcb", "rental_uris": {"android": "https://dc.lft.to/lastmile_qr_scan", "ios": "https://dc.lft.to/lastmile_qr_scan"}, "name": "b1605bc6ed387f9f49d3af2cf5f21fcb", "is_reserved": 0}, {"is_disabled": 0, "fusion_lon": 0.0, "fusion_lat": 0.0, "lat": 38.824461666666664, "type": "electric_bike", "lon": -77.070483, "bike_id": "760c84d9fd924a7cd6c6facee927d3f6", "rental_uris": {"android": "https://dc.lft.to/lastmile_qr_scan", "ios": "https://dc.lft.to/lastmile_qr_scan"}, "name": "760c84d9fd924a7cd6c6facee927d3f6", "is_reserved": 0}, {"is_disabled": 0, "fusion_lon": 0.0, "fusion_lat": 0.0, "lat": 38.865322666666664, "type": "electric_bike", "lon": -77.128235, "bike_id": "c7a6fd321c1c17f6c91f7c7c463be3cf", "rental_uris": {"android": "https://dc.lft.to/lastmile_qr_scan", "ios": "https://dc.lft.to/lastmile_qr_scan"}, "name": "c7a6fd321c1c17f6c91f7c7c463be3cf", "is_reserved": 0}, {"is_disabled": 0, "fusion_lon": 0.0, "fusion_lat": 0.0, "lat": 38.8997065, "type": "electric_scooter", "lon": -76.93978483333333, "bike_id": "6613de599a27eb92e0af8a3a5bf719c5", "rental_uris": {"android": "https://dc.lft.to/lastmile_qr_scan", "ios": "https://dc.lft.to/lastmile_qr_scan"}, "name": "6613de599a27eb92e0af8a3a5bf719c5", "is_reserved": 0}, {"is_disabled": 0, "fusion_lon": 0.0, "fusion_lat": 0.0, "lat": 38.89224733333333, "type": "electric_scooter", "lon": -77.02268083333334, "bike_id": "4dfa07bb824a15a927dadc808aff99a2", "rental_uris": {"android": "https://dc.lft.to/lastmile_qr_scan", "ios": "https://dc.lft.to/lastmile_qr_scan"}, "name": "4dfa07bb824a15a927dadc808aff99a2", "is_reserved": 0}, {"is_disabled": 0, "fusion_lon": 0.0, "fusion_lat": 0.0, "lat": 38.936809833333335, "type": "electric_scooter", "lon": -77.036276, "bike_id": "4e737d980318445cebdc36de8bc0a1f3", "rental_uris": {"android": "https://dc.lft.to/lastmile_qr_scan", "ios": "https://dc.lft.to/lastmile_qr_scan"}, "name": "4e737d980318445cebdc36de8bc0a1f3", "is_reserved": 0}, {"is_disabled": 0, "fusion_lon": 0.0, "fusion_lat": 0.0, "lat": 38.917603666666665, "type": "electric_scooter", "lon": -77.032049, "bike_id": "1b3cae51d96e8f35057b48c80a260dfb", "rental_uris": {"android": "https://dc.lft.to/lastmile_qr_scan", "ios": "https://dc.lft.to/lastmile_qr_scan"}, "name": "1b3cae51d96e8f35057b48c80a260dfb", "is_reserved": 0}, {"is_disabled": 0, "fusion_lon": 0.0, "fusion_lat": 0.0, "lat": 38.893935666666664, "type": "electric_scooter", "lon": -76.94994583333333, "bike_id": "03630c54dd990576a6ad7fc647d7ea28", "rental_uris": {"android": "https://dc.lft.to/lastmile_qr_scan", "ios": "https://dc.lft.to/lastmile_qr_scan"}, "name": "03630c54dd990576a6ad7fc647d7ea28", "is_reserved": 0}, {"is_disabled": 0, "fusion_lon": 0.0, "fusion_lat": 0.0, "lat": 38.91532766666667, "type": "electric_scooter", "lon": -77.0218665, "bike_id": "c3e507a6e269bf37617c18fdc99b58c1", "rental_uris": {"android": "https://dc.lft.to/lastmile_qr_scan", "ios": "https://dc.lft.to/lastmile_qr_scan"}, "name": "c3e507a6e269bf37617c18fdc99b58c1", "is_reserved": 0}, {"is_disabled": 0, "fusion_lon": 0.0, "fusion_lat": 0.0, "lat": 39.05461316666667, "type": "electric_bike", "lon": -77.14328766666667, "bike_id": "33192e7d26cf4f3d8d78d8300b136dd0", "rental_uris": {"android": "https://dc.lft.to/lastmile_qr_scan", "ios": "https://dc.lft.to/lastmile_qr_scan"}, "name": "33192e7d26cf4f3d8d78d8300b136dd0", "is_reserved": 0}, {"is_disabled": 0, "fusion_lon": 0.0, "fusion_lat": 0.0, "lat": 38.945804, "type": "electric_bike", "lon": -77.344009, "bike_id": "ee1d44fd38d4c082113d2da059590db8", "rental_uris": {"android": "https://dc.lft.to/lastmile_qr_scan", "ios": "https://dc.lft.to/lastmile_qr_scan"}, "name": "ee1d44fd38d4c082113d2da059590db8", "is_reserved": 0}, {"is_disabled": 0, "fusion_lon": 0.0, "fusion_lat": 0.0, "lat": 38.910368166666665, "type": "electric_scooter", "lon": -77.03800316666667, "bike_id": "8d35f432e93821edadbd3e0f6a3cbd3d", "rental_uris": {"android": "https://dc.lft.to/lastmile_qr_scan", "ios": "https://dc.lft.to/lastmile_qr_scan"}, "name": "8d35f432e93821edadbd3e0f6a3cbd3d", "is_reserved": 0}, {"is_disabled": 0, "fusion_lon": 0.0, "fusion_lat": 0.0, "lat": 38.9284335, "type": "electric_scooter", "lon": -77.05544366666666, "bike_id": "673a6b8730272165936e9285a54b6944", "rental_uris": {"android": "https://dc.lft.to/lastmile_qr_scan", "ios": "https://dc.lft.to/lastmile_qr_scan"}, "name": "673a6b8730272165936e9285a54b6944", "is_reserved": 0}, {"is_disabled": 0, "fusion_lon": 0.0, "fusion_lat": 0.0, "lat": 38.86812966666667, "type": "electric_scooter", "lon": -77.0117585, "bike_id": "675a455f6c55996c68a91cdcdb899bd8", "rental_uris": {"android": "https://dc.lft.to/lastmile_qr_scan", "ios": "https://dc.lft.to/lastmile_qr_scan"}, "name": "675a455f6c55996c68a91cdcdb899bd8", "is_reserved": 0}, {"is_disabled": 0, "fusion_lon": 0.0, "fusion_lat": 0.0, "lat": 38.89739016666667, "type": "electric_scooter", "lon": -77.04718516666667, "bike_id": "c6c43dbcbddd1279579fe6469dc82611", "rental_uris": {"android": "https://dc.lft.to/lastmile_qr_scan", "ios": "https://dc.lft.to/lastmile_qr_scan"}, "name": "c6c43dbcbddd1279579fe6469dc82611", "is_reserved": 0}, {"is_disabled": 0, "fusion_lon": 0.0, "fusion_lat": 0.0, "lat": 38.7762075, "type": "electric_bike", "lon": -77.08349183333333, "bike_id": "ac4aab20d44e7eab23755a3baf4c7f7e", "rental_uris": {"android": "https://dc.lft.to/lastmile_qr_scan", "ios": "https://dc.lft.to/lastmile_qr_scan"}, "name": "ac4aab20d44e7eab23755a3baf4c7f7e", "is_reserved": 0}, {"is_disabled": 0, "fusion_lon": 0.0, "fusion_lat": 0.0, "lat": 38.898364, "type": "electric_scooter", "lon": -77.021681, "bike_id": "53cd01faaacdd80a09ae51757a23de80", "rental_uris": {"android": "https://dc.lft.to/lastmile_qr_scan", "ios": "https://dc.lft.to/lastmile_qr_scan"}, "name": "53cd01faaacdd80a09ae51757a23de80", "is_reserved": 0}, {"is_disabled": 0, "fusion_lon": 0.0, "fusion_lat": 0.0, "lat": 38.92655416666667, "type": "electric_bike", "lon": -76.99754883333334, "bike_id": "584f9e625702a122decb170f40aff30e", "rental_uris": {"android": "https://dc.lft.to/lastmile_qr_scan", "ios": "https://dc.lft.to/lastmile_qr_scan"}, "name": "584f9e625702a122decb170f40aff30e", "is_reserved": 0}, {"is_disabled": 0, "fusion_lon": 0.0, "fusion_lat": 0.0, "lat": 38.888557, "type": "electric_bike", "lon": -76.97706766666667, "bike_id": "fd4f17d513307821251994a90ebcdbab", "rental_uris": {"android": "https://dc.lft.to/lastmile_qr_scan", "ios": "https://dc.lft.to/lastmile_qr_scan"}, "name": "fd4f17d513307821251994a90ebcdbab", "is_reserved": 0}, {"is_disabled": 0, "fusion_lon": 0.0, "fusion_lat": 0.0, "lat": 38.908530666666664, "type": "electric_scooter", "lon": -77.05508766666667, "bike_id": "9f7bceef773f0c9e33d8e9c9b6951673", "rental_uris": {"android": "https://dc.lft.to/lastmile_qr_scan", "ios": "https://dc.lft.to/lastmile_qr_scan"}, "name": "9f7bceef773f0c9e33d8e9c9b6951673", "is_reserved": 0}, {"is_disabled": 0, "fusion_lon": 0.0, "fusion_lat": 0.0, "lat": 38.898294666666665, "type": "electric_scooter", "lon": -77.0295995, "bike_id": "3d2636d8336bf651bf32b5d6a2b31374", "rental_uris": {"android": "https://dc.lft.to/lastmile_qr_scan", "ios": "https://dc.lft.to/lastmile_qr_scan"}, "name": "3d2636d8336bf651bf32b5d6a2b31374", "is_reserved": 0}, {"is_disabled": 0, "fusion_lon": 0.0, "fusion_lat": 0.0, "lat": 38.88746583333333, "type": "electric_scooter", "lon": -77.01430466666666, "bike_id": "6c8f4ab10dc35dca39915827f3c0652b", "rental_uris": {"android": "https://dc.lft.to/lastmile_qr_scan", "ios": "https://dc.lft.to/lastmile_qr_scan"}, "name": "6c8f4ab10dc35dca39915827f3c0652b", "is_reserved": 0}, {"is_disabled": 0, "fusion_lon": 0.0, "fusion_lat": 0.0, "lat": 38.889597333333334, "type": "electric_scooter", "lon": -76.99145433333334, "bike_id": "9a2ea35042466d12bff1870dd0219406", "rental_uris": {"android": "https://dc.lft.to/lastmile_qr_scan", "ios": "https://dc.lft.to/lastmile_qr_scan"}, "name": "9a2ea35042466d12bff1870dd0219406", "is_reserved": 0}, {"is_disabled": 0, "fusion_lon": 0.0, "fusion_lat": 0.0, "lat": 38.911415, "type": "electric_scooter", "lon": -76.984847, "bike_id": "89318989b40e81a23b83d0e7d22464dd", "rental_uris": {"android": "https://dc.lft.to/lastmile_qr_scan", "ios": "https://dc.lft.to/lastmile_qr_scan"}, "name": "89318989b40e81a23b83d0e7d22464dd", "is_reserved": 0}, {"is_disabled": 0, "fusion_lon": 0.0, "fusion_lat": 0.0, "lat": 38.9163775, "type": "electric_scooter", "lon": -77.0505785, "bike_id": "e5a198fc11b45e5d86f0caa748f2314e", "rental_uris": {"android": "https://dc.lft.to/lastmile_qr_scan", "ios": "https://dc.lft.to/lastmile_qr_scan"}, "name": "e5a198fc11b45e5d86f0caa748f2314e", "is_reserved": 0}, {"is_disabled": 0, "fusion_lon": 0.0, "fusion_lat": 0.0, "lat": 38.93192783333333, "type": "electric_scooter", "lon": -77.02837283333334, "bike_id": "f57110af265e7abe1faad3d8b5a7014f", "rental_uris": {"android": "https://dc.lft.to/lastmile_qr_scan", "ios": "https://dc.lft.to/lastmile_qr_scan"}, "name": "f57110af265e7abe1faad3d8b5a7014f", "is_reserved": 0}, {"is_disabled": 0, "fusion_lon": 0.0, "fusion_lat": 0.0, "lat": 38.924768, "type": "electric_scooter", "lon": -77.02668866666667, "bike_id": "5e43bbfdafaf6a1abfaa3d873951c239", "rental_uris": {"android": "https://dc.lft.to/lastmile_qr_scan", "ios": "https://dc.lft.to/lastmile_qr_scan"}, "name": "5e43bbfdafaf6a1abfaa3d873951c239", "is_reserved": 0}, {"is_disabled": 0, "fusion_lon": 0.0, "fusion_lat": 0.0, "lat": 38.89474833333333, "type": "electric_scooter", "lon": -76.977236, "bike_id": "7b4aaf6f636c759b4d67efc05defabd9", "rental_uris": {"android": "https://dc.lft.to/lastmile_qr_scan", "ios": "https://dc.lft.to/lastmile_qr_scan"}, "name": "7b4aaf6f636c759b4d67efc05defabd9", "is_reserved": 0}, {"is_disabled": 0, "fusion_lon": 0.0, "fusion_lat": 0.0, "lat": 38.909246, "type": "electric_scooter", "lon": -76.9921345, "bike_id": "45e6dc41d40e96e249d4f63281d23948", "rental_uris": {"android": "https://dc.lft.to/lastmile_qr_scan", "ios": "https://dc.lft.to/lastmile_qr_scan"}, "name": "45e6dc41d40e96e249d4f63281d23948", "is_reserved": 0}, {"is_disabled": 0, "fusion_lon": 0.0, "fusion_lat": 0.0, "lat": 38.89744233333333, "type": "electric_scooter", "lon": -77.015994, "bike_id": "ee593eaf8180d4e79063f95f03465cec", "rental_uris": {"android": "https://dc.lft.to/lastmile_qr_scan", "ios": "https://dc.lft.to/lastmile_qr_scan"}, "name": "ee593eaf8180d4e79063f95f03465cec", "is_reserved": 0}, {"is_disabled": 0, "fusion_lon": 0.0, "fusion_lat": 0.0, "lat": 38.91203466666666, "type": "electric_scooter", "lon": -77.00084516666666, "bike_id": "2d2b747433341570649379e041575da6", "rental_uris": {"android": "https://dc.lft.to/lastmile_qr_scan", "ios": "https://dc.lft.to/lastmile_qr_scan"}, "name": "2d2b747433341570649379e041575da6", "is_reserved": 0}, {"is_disabled": 0, "fusion_lon": 0.0, "fusion_lat": 0.0, "lat": 38.90089316666667, "type": "electric_scooter", "lon": -77.039469, "bike_id": "f49e770540a4f865da12e21e3ab29b4c", "rental_uris": {"android": "https://dc.lft.to/lastmile_qr_scan", "ios": "https://dc.lft.to/lastmile_qr_scan"}, "name": "f49e770540a4f865da12e21e3ab29b4c", "is_reserved": 0}, {"is_disabled": 0, "fusion_lon": 0.0, "fusion_lat": 0.0, "lat": 38.899769666666664, "type": "electric_scooter", "lon": -77.01626233333333, "bike_id": "2fa56e16c5fb2770c5d87801337a200f", "rental_uris": {"android": "https://dc.lft.to/lastmile_qr_scan", "ios": "https://dc.lft.to/lastmile_qr_scan"}, "name": "2fa56e16c5fb2770c5d87801337a200f", "is_reserved": 0}, {"is_disabled": 0, "fusion_lon": 0.0, "fusion_lat": 0.0, "lat": 38.94446883333333, "type": "electric_scooter", "lon": -77.0604855, "bike_id": "f42fa79cbd2e0a8d9764430b1cf61bb2", "rental_uris": {"android": "https://dc.lft.to/lastmile_qr_scan", "ios": "https://dc.lft.to/lastmile_qr_scan"}, "name": "f42fa79cbd2e0a8d9764430b1cf61bb2", "is_reserved": 0}, {"is_disabled": 0, "fusion_lon": 0.0, "fusion_lat": 0.0, "lat": 38.93676816666667, "type": "electric_scooter", "lon": -77.03622466666667, "bike_id": "9c67cf1e80b375f7a5323bcd4dcf7bd3", "rental_uris": {"android": "https://dc.lft.to/lastmile_qr_scan", "ios": "https://dc.lft.to/lastmile_qr_scan"}, "name": "9c67cf1e80b375f7a5323bcd4dcf7bd3", "is_reserved": 0}, {"is_disabled": 0, "fusion_lon": 0.0, "fusion_lat": 0.0, "lat": 38.90523066666667, "type": "electric_scooter", "lon": -77.05082616666667, "bike_id": "7afb92e80052c0bc71cab96ce0c30e57", "rental_uris": {"android": "https://dc.lft.to/lastmile_qr_scan", "ios": "https://dc.lft.to/lastmile_qr_scan"}, "name": "7afb92e80052c0bc71cab96ce0c30e57", "is_reserved": 0}, {"is_disabled": 0, "fusion_lon": 0.0, "fusion_lat": 0.0, "lat": 38.900083, "type": "electric_scooter", "lon": -76.9989145, "bike_id": "b309e32c1d6d1adf45f43972710ad2fc", "rental_uris": {"android": "https://dc.lft.to/lastmile_qr_scan", "ios": "https://dc.lft.to/lastmile_qr_scan"}, "name": "b309e32c1d6d1adf45f43972710ad2fc", "is_reserved": 0}, {"is_disabled": 0, "fusion_lon": 0.0, "fusion_lat": 0.0, "lat": 38.91565266666667, "type": "electric_scooter", "lon": -77.03150133333334, "bike_id": "cb4fab016d184a8c413fc90f4df47dfa", "rental_uris": {"android": "https://dc.lft.to/lastmile_qr_scan", "ios": "https://dc.lft.to/lastmile_qr_scan"}, "name": "cb4fab016d184a8c413fc90f4df47dfa", "is_reserved": 0}, {"is_disabled": 0, "fusion_lon": 0.0, "fusion_lat": 0.0, "lat": 38.89538966666667, "type": "electric_scooter", "lon": -77.04129616666667, "bike_id": "21c453d713e30ceb0d084f918fb8a08b", "rental_uris": {"android": "https://dc.lft.to/lastmile_qr_scan", "ios": "https://dc.lft.to/lastmile_qr_scan"}, "name": "21c453d713e30ceb0d084f918fb8a08b", "is_reserved": 0}, {"is_disabled": 0, "fusion_lon": 0.0, "fusion_lat": 0.0, "lat": 38.916252, "type": "electric_scooter", "lon": -77.0402365, "bike_id": "1a8dfefd2a27b52bfd094154572c6b98", "rental_uris": {"android": "https://dc.lft.to/lastmile_qr_scan", "ios": "https://dc.lft.to/lastmile_qr_scan"}, "name": "1a8dfefd2a27b52bfd094154572c6b98", "is_reserved": 0}, {"is_disabled": 0, "fusion_lon": 0.0, "fusion_lat": 0.0, "lat": 38.89833316666667, "type": "electric_scooter", "lon": -76.94635116666667, "bike_id": "4ef6f2eded6e0d972257719f355203af", "rental_uris": {"android": "https://dc.lft.to/lastmile_qr_scan", "ios": "https://dc.lft.to/lastmile_qr_scan"}, "name": "4ef6f2eded6e0d972257719f355203af", "is_reserved": 0}, {"is_disabled": 0, "fusion_lon": 0.0, "fusion_lat": 0.0, "lat": 38.911331, "type": "electric_scooter", "lon": -77.05936016666666, "bike_id": "e3246e8ddd2cb53c71a35c90bf0ad937", "rental_uris": {"android": "https://dc.lft.to/lastmile_qr_scan", "ios": "https://dc.lft.to/lastmile_qr_scan"}, "name": "e3246e8ddd2cb53c71a35c90bf0ad937", "is_reserved": 0}, {"is_disabled": 0, "fusion_lon": 0.0, "fusion_lat": 0.0, "lat": 38.8848485, "type": "electric_scooter", "lon": -76.92961833333334, "bike_id": "2a47966287b1ee9e74d6e7d98dbcadef", "rental_uris": {"android": "https://dc.lft.to/lastmile_qr_scan", "ios": "https://dc.lft.to/lastmile_qr_scan"}, "name": "2a47966287b1ee9e74d6e7d98dbcadef", "is_reserved": 0}, {"is_disabled": 0, "fusion_lon": 0.0, "fusion_lat": 0.0, "lat": 38.904956166666665, "type": "electric_scooter", "lon": -77.00120166666666, "bike_id": "51c03dde35e004ebc7d073ebc72f3ebd", "rental_uris": {"android": "https://dc.lft.to/lastmile_qr_scan", "ios": "https://dc.lft.to/lastmile_qr_scan"}, "name": "51c03dde35e004ebc7d073ebc72f3ebd", "is_reserved": 0}, {"is_disabled": 0, "fusion_lon": 0.0, "fusion_lat": 0.0, "lat": 38.903810666666665, "type": "electric_scooter", "lon": -77.04878366666667, "bike_id": "6b0695da67c1c7293c78ee6ca81945e0", "rental_uris": {"android": "https://dc.lft.to/lastmile_qr_scan", "ios": "https://dc.lft.to/lastmile_qr_scan"}, "name": "6b0695da67c1c7293c78ee6ca81945e0", "is_reserved": 0}, {"is_disabled": 0, "fusion_lon": 0.0, "fusion_lat": 0.0, "lat": 38.9142595, "type": "electric_scooter", "lon": -77.03185583333334, "bike_id": "55e5570eab8b883923ee916b61df2d46", "rental_uris": {"android": "https://dc.lft.to/lastmile_qr_scan", "ios": "https://dc.lft.to/lastmile_qr_scan"}, "name": "55e5570eab8b883923ee916b61df2d46", "is_reserved": 0}, {"is_disabled": 0, "fusion_lon": 0.0, "fusion_lat": 0.0, "lat": 38.925356666666666, "type": "electric_scooter", "lon": -77.04427316666667, "bike_id": "c39f7502c60b974ede4999c16a9d86c9", "rental_uris": {"android": "https://dc.lft.to/lastmile_qr_scan", "ios": "https://dc.lft.to/lastmile_qr_scan"}, "name": "c39f7502c60b974ede4999c16a9d86c9", "is_reserved": 0}, {"is_disabled": 0, "fusion_lon": 0.0, "fusion_lat": 0.0, "lat": 38.91986716666667, "type": "electric_scooter", "lon": -77.03187366666667, "bike_id": "6b537b82c4009e4f625216fed2f07f5f", "rental_uris": {"android": "https://dc.lft.to/lastmile_qr_scan", "ios": "https://dc.lft.to/lastmile_qr_scan"}, "name": "6b537b82c4009e4f625216fed2f07f5f", "is_reserved": 0}, {"is_disabled": 0, "fusion_lon": 0.0, "fusion_lat": 0.0, "lat": 38.919378, "type": "electric_scooter", "lon": -77.07064933333334, "bike_id": "4599f569812c35ad363e6df22a5b6c37", "rental_uris": {"android": "https://dc.lft.to/lastmile_qr_scan", "ios": "https://dc.lft.to/lastmile_qr_scan"}, "name": "4599f569812c35ad363e6df22a5b6c37", "is_reserved": 0}, {"is_disabled": 0, "fusion_lon": 0.0, "fusion_lat": 0.0, "lat": 38.93556233333334, "type": "electric_bike", "lon": -77.0819295, "bike_id": "b9a7d061eeff3e15a30cb2f9da5e6038", "rental_uris": {"android": "https://dc.lft.to/lastmile_qr_scan", "ios": "https://dc.lft.to/lastmile_qr_scan"}, "name": "b9a7d061eeff3e15a30cb2f9da5e6038", "is_reserved": 0}, {"is_disabled": 0, "fusion_lon": 0.0, "fusion_lat": 0.0, "lat": 38.925787166666666, "type": "electric_scooter", "lon": -77.03209633333333, "bike_id": "cc106cd790f058e5418dca8b2271e774", "rental_uris": {"android": "https://dc.lft.to/lastmile_qr_scan", "ios": "https://dc.lft.to/lastmile_qr_scan"}, "name": "cc106cd790f058e5418dca8b2271e774", "is_reserved": 0}, {"is_disabled": 0, "fusion_lon": 0.0, "fusion_lat": 0.0, "lat": 38.8738715, "type": "electric_scooter", "lon": -77.00194733333333, "bike_id": "487b6a4342439edabf44ce0b606bf91e", "rental_uris": {"android": "https://dc.lft.to/lastmile_qr_scan", "ios": "https://dc.lft.to/lastmile_qr_scan"}, "name": "487b6a4342439edabf44ce0b606bf91e", "is_reserved": 0}, {"is_disabled": 0, "fusion_lon": 0.0, "fusion_lat": 0.0, "lat": 39.00786933333333, "type": "electric_bike", "lon": -76.99570783333333, "bike_id": "77b42b5e9a069afb82f04be3fee5cdf0", "rental_uris": {"android": "https://dc.lft.to/lastmile_qr_scan", "ios": "https://dc.lft.to/lastmile_qr_scan"}, "name": "77b42b5e9a069afb82f04be3fee5cdf0", "is_reserved": 0}, {"is_disabled": 0, "fusion_lon": 0.0, "fusion_lat": 0.0, "lat": 38.906399666666665, "type": "electric_scooter", "lon": -77.04514583333334, "bike_id": "ef6753378430a1458f5b9efdeeae6f7a", "rental_uris": {"android": "https://dc.lft.to/lastmile_qr_scan", "ios": "https://dc.lft.to/lastmile_qr_scan"}, "name": "ef6753378430a1458f5b9efdeeae6f7a", "is_reserved": 0}, {"is_disabled": 0, "fusion_lon": 0.0, "fusion_lat": 0.0, "lat": 38.866999666666665, "type": "electric_scooter", "lon": -76.98710166666666, "bike_id": "fa9988bca21d92b4d5aeb8048409d359", "rental_uris": {"android": "https://dc.lft.to/lastmile_qr_scan", "ios": "https://dc.lft.to/lastmile_qr_scan"}, "name": "fa9988bca21d92b4d5aeb8048409d359", "is_reserved": 0}, {"is_disabled": 0, "fusion_lon": 0.0, "fusion_lat": 0.0, "lat": 38.903101666666664, "type": "electric_scooter", "lon": -77.023729, "bike_id": "2549518585ea313097995489dd188bb8", "rental_uris": {"android": "https://dc.lft.to/lastmile_qr_scan", "ios": "https://dc.lft.to/lastmile_qr_scan"}, "name": "2549518585ea313097995489dd188bb8", "is_reserved": 0}, {"is_disabled": 0, "fusion_lon": 0.0, "fusion_lat": 0.0, "lat": 38.939006, "type": "electric_scooter", "lon": -77.03321666666666, "bike_id": "10ace65039eaec7e150d84daf1082b63", "rental_uris": {"android": "https://dc.lft.to/lastmile_qr_scan", "ios": "https://dc.lft.to/lastmile_qr_scan"}, "name": "10ace65039eaec7e150d84daf1082b63", "is_reserved": 0}, {"is_disabled": 0, "fusion_lon": 0.0, "fusion_lat": 0.0, "lat": 38.9177355, "type": "electric_scooter", "lon": -77.02958016666666, "bike_id": "5d08dcfb9740d242ff8e97eaeca41f01", "rental_uris": {"android": "https://dc.lft.to/lastmile_qr_scan", "ios": "https://dc.lft.to/lastmile_qr_scan"}, "name": "5d08dcfb9740d242ff8e97eaeca41f01", "is_reserved": 0}, {"is_disabled": 0, "fusion_lon": 0.0, "fusion_lat": 0.0, "lat": 38.91729216666667, "type": "electric_scooter", "lon": -77.00498366666666, "bike_id": "a3c9519fbc6e338db5ef649e6c785677", "rental_uris": {"android": "https://dc.lft.to/lastmile_qr_scan", "ios": "https://dc.lft.to/lastmile_qr_scan"}, "name": "a3c9519fbc6e338db5ef649e6c785677", "is_reserved": 0}, {"is_disabled": 0, "fusion_lon": 0.0, "fusion_lat": 0.0, "lat": 38.942882833333336, "type": "electric_bike", "lon": -77.06924, "bike_id": "55cd3dc9d375cf2cf3b746d0092d8c7c", "rental_uris": {"android": "https://dc.lft.to/lastmile_qr_scan", "ios": "https://dc.lft.to/lastmile_qr_scan"}, "name": "55cd3dc9d375cf2cf3b746d0092d8c7c", "is_reserved": 0}, {"is_disabled": 0, "fusion_lon": 0.0, "fusion_lat": 0.0, "lat": 38.89587066666667, "type": "electric_scooter", "lon": -77.02661333333333, "bike_id": "ebb535b63489112c8136b4622f00c9ae", "rental_uris": {"android": "https://dc.lft.to/lastmile_qr_scan", "ios": "https://dc.lft.to/lastmile_qr_scan"}, "name": "ebb535b63489112c8136b4622f00c9ae", "is_reserved": 0}, {"is_disabled": 0, "fusion_lon": 0.0, "fusion_lat": 0.0, "lat": 38.89689033333333, "type": "electric_scooter", "lon": -77.00489733333333, "bike_id": "976366e87b0953eefb55692a985a05c3", "rental_uris": {"android": "https://dc.lft.to/lastmile_qr_scan", "ios": "https://dc.lft.to/lastmile_qr_scan"}, "name": "976366e87b0953eefb55692a985a05c3", "is_reserved": 0}, {"is_disabled": 0, "fusion_lon": 0.0, "fusion_lat": 0.0, "lat": 38.91218883333333, "type": "electric_scooter", "lon": -77.038419, "bike_id": "c77f3e7884484ccef253ba4712b2a100", "rental_uris": {"android": "https://dc.lft.to/lastmile_qr_scan", "ios": "https://dc.lft.to/lastmile_qr_scan"}, "name": "c77f3e7884484ccef253ba4712b2a100", "is_reserved": 0}, {"is_disabled": 0, "fusion_lon": 0.0, "fusion_lat": 0.0, "lat": 38.92814533333333, "type": "electric_scooter", "lon": -77.02347616666667, "bike_id": "bc4b85ecd339987c03d694a3b786e770", "rental_uris": {"android": "https://dc.lft.to/lastmile_qr_scan", "ios": "https://dc.lft.to/lastmile_qr_scan"}, "name": "bc4b85ecd339987c03d694a3b786e770", "is_reserved": 0}, {"is_disabled": 0, "fusion_lon": 0.0, "fusion_lat": 0.0, "lat": 38.92968066666667, "type": "electric_scooter", "lon": -77.00540683333334, "bike_id": "5efc424a2a8ecf1d17c0eaaba15c60ed", "rental_uris": {"android": "https://dc.lft.to/lastmile_qr_scan", "ios": "https://dc.lft.to/lastmile_qr_scan"}, "name": "5efc424a2a8ecf1d17c0eaaba15c60ed", "is_reserved": 0}, {"is_disabled": 0, "fusion_lon": 0.0, "fusion_lat": 0.0, "lat": 39.058111333333336, "type": "electric_bike", "lon": -77.12627316666666, "bike_id": "1d5ba79612373180b65a84368472142e", "rental_uris": {"android": "https://dc.lft.to/lastmile_qr_scan", "ios": "https://dc.lft.to/lastmile_qr_scan"}, "name": "1d5ba79612373180b65a84368472142e", "is_reserved": 0}, {"is_disabled": 0, "fusion_lon": 0.0, "fusion_lat": 0.0, "lat": 38.94156516666666, "type": "electric_bike", "lon": -77.0018915, "bike_id": "c47a9586c37d63c7282e626713fa6936", "rental_uris": {"android": "https://dc.lft.to/lastmile_qr_scan", "ios": "https://dc.lft.to/lastmile_qr_scan"}, "name": "c47a9586c37d63c7282e626713fa6936", "is_reserved": 0}, {"is_disabled": 0, "fusion_lon": 0.0, "fusion_lat": 0.0, "lat": 38.89220433333333, "type": "electric_scooter", "lon": -77.03187566666666, "bike_id": "3673bd30854d010457f6f63235bab909", "rental_uris": {"android": "https://dc.lft.to/lastmile_qr_scan", "ios": "https://dc.lft.to/lastmile_qr_scan"}, "name": "3673bd30854d010457f6f63235bab909", "is_reserved": 0}, {"is_disabled": 0, "fusion_lon": 0.0, "fusion_lat": 0.0, "lat": 38.9021625, "type": "electric_scooter", "lon": -76.982181, "bike_id": "8facbcf7129f0e7f21a628b212277d3c", "rental_uris": {"android": "https://dc.lft.to/lastmile_qr_scan", "ios": "https://dc.lft.to/lastmile_qr_scan"}, "name": "8facbcf7129f0e7f21a628b212277d3c", "is_reserved": 0}, {"is_disabled": 0, "fusion_lon": 0.0, "fusion_lat": 0.0, "lat": 38.90694516666667, "type": "electric_bike", "lon": -77.035951, "bike_id": "47be42ded7e7532cb1be244c4baf3eac", "rental_uris": {"android": "https://dc.lft.to/lastmile_qr_scan", "ios": "https://dc.lft.to/lastmile_qr_scan"}, "name": "47be42ded7e7532cb1be244c4baf3eac", "is_reserved": 0}, {"is_disabled": 0, "fusion_lon": 0.0, "fusion_lat": 0.0, "lat": 38.8983965, "type": "electric_scooter", "lon": -77.02903716666667, "bike_id": "672dc354044b187ce3909892f93f1214", "rental_uris": {"android": "https://dc.lft.to/lastmile_qr_scan", "ios": "https://dc.lft.to/lastmile_qr_scan"}, "name": "672dc354044b187ce3909892f93f1214", "is_reserved": 0}, {"is_disabled": 0, "fusion_lon": 0.0, "fusion_lat": 0.0, "lat": 38.91741833333333, "type": "electric_scooter", "lon": -77.01714416666667, "bike_id": "956788042035bdcb29411fd1c54ec17c", "rental_uris": {"android": "https://dc.lft.to/lastmile_qr_scan", "ios": "https://dc.lft.to/lastmile_qr_scan"}, "name": "956788042035bdcb29411fd1c54ec17c", "is_reserved": 0}, {"is_disabled": 0, "fusion_lon": 0.0, "fusion_lat": 0.0, "lat": 38.914085666666665, "type": "electric_scooter", "lon": -77.037529, "bike_id": "8c64c1994528ecefde5117e8e2227448", "rental_uris": {"android": "https://dc.lft.to/lastmile_qr_scan", "ios": "https://dc.lft.to/lastmile_qr_scan"}, "name": "8c64c1994528ecefde5117e8e2227448", "is_reserved": 0}, {"is_disabled": 0, "fusion_lon": 0.0, "fusion_lat": 0.0, "lat": 38.94577366666667, "type": "electric_bike", "lon": -76.9877785, "bike_id": "3ba8861be7ea5054b8c7b660d746cfb1", "rental_uris": {"android": "https://dc.lft.to/lastmile_qr_scan", "ios": "https://dc.lft.to/lastmile_qr_scan"}, "name": "3ba8861be7ea5054b8c7b660d746cfb1", "is_reserved": 0}, {"is_disabled": 0, "fusion_lon": 0.0, "fusion_lat": 0.0, "lat": 38.904716666666666, "type": "electric_scooter", "lon": -77.035737, "bike_id": "7d0c7d76db63878489aec6a6efbb6561", "rental_uris": {"android": "https://dc.lft.to/lastmile_qr_scan", "ios": "https://dc.lft.to/lastmile_qr_scan"}, "name": "7d0c7d76db63878489aec6a6efbb6561", "is_reserved": 0}, {"is_disabled": 0, "fusion_lon": 0.0, "fusion_lat": 0.0, "lat": 38.91020366666667, "type": "electric_scooter", "lon": -77.0386015, "bike_id": "3b4e1c688c96c3eba44113882ed6932a", "rental_uris": {"android": "https://dc.lft.to/lastmile_qr_scan", "ios": "https://dc.lft.to/lastmile_qr_scan"}, "name": "3b4e1c688c96c3eba44113882ed6932a", "is_reserved": 0}, {"is_disabled": 0, "fusion_lon": 0.0, "fusion_lat": 0.0, "lat": 38.936390833333334, "type": "electric_bike", "lon": -76.9546375, "bike_id": "76e6af25f8794fe8d411cd3a35692a8a", "rental_uris": {"android": "https://dc.lft.to/lastmile_qr_scan", "ios": "https://dc.lft.to/lastmile_qr_scan"}, "name": "76e6af25f8794fe8d411cd3a35692a8a", "is_reserved": 0}, {"is_disabled": 0, "fusion_lon": 0.0, "fusion_lat": 0.0, "lat": 38.914817166666666, "type": "electric_scooter", "lon": -77.03833916666666, "bike_id": "60da3f0e8ae8ba6081f93ac66b06a37c", "rental_uris": {"android": "https://dc.lft.to/lastmile_qr_scan", "ios": "https://dc.lft.to/lastmile_qr_scan"}, "name": "60da3f0e8ae8ba6081f93ac66b06a37c", "is_reserved": 0}, {"is_disabled": 0, "fusion_lon": 0.0, "fusion_lat": 0.0, "lat": 38.9307875, "type": "electric_scooter", "lon": -77.03105783333334, "bike_id": "c9f72bda3d6e52940ad422d7fdb715f8", "rental_uris": {"android": "https://dc.lft.to/lastmile_qr_scan", "ios": "https://dc.lft.to/lastmile_qr_scan"}, "name": "c9f72bda3d6e52940ad422d7fdb715f8", "is_reserved": 0}, {"is_disabled": 0, "fusion_lon": 0.0, "fusion_lat": 0.0, "lat": 38.87396783333333, "type": "electric_scooter", "lon": -77.00198566666667, "bike_id": "5c962e32719eae1a9157f8491dfb55e6", "rental_uris": {"android": "https://dc.lft.to/lastmile_qr_scan", "ios": "https://dc.lft.to/lastmile_qr_scan"}, "name": "5c962e32719eae1a9157f8491dfb55e6", "is_reserved": 0}, {"is_disabled": 0, "fusion_lon": 0.0, "fusion_lat": 0.0, "lat": 38.91873, "type": "electric_scooter", "lon": -77.0448185, "bike_id": "239720e2254afba4484c207af56d8c48", "rental_uris": {"android": "https://dc.lft.to/lastmile_qr_scan", "ios": "https://dc.lft.to/lastmile_qr_scan"}, "name": "239720e2254afba4484c207af56d8c48", "is_reserved": 0}, {"is_disabled": 0, "fusion_lon": 0.0, "fusion_lat": 0.0, "lat": 38.8922285, "type": "electric_scooter", "lon": -77.03185016666667, "bike_id": "645c31efdaf5dc6fce549e3e32c5b3e3", "rental_uris": {"android": "https://dc.lft.to/lastmile_qr_scan", "ios": "https://dc.lft.to/lastmile_qr_scan"}, "name": "645c31efdaf5dc6fce549e3e32c5b3e3", "is_reserved": 0}, {"is_disabled": 0, "fusion_lon": 0.0, "fusion_lat": 0.0, "lat": 38.90966366666667, "type": "electric_scooter", "lon": -77.03260116666667, "bike_id": "680226dcc55976e63d27fed5ad2fc142", "rental_uris": {"android": "https://dc.lft.to/lastmile_qr_scan", "ios": "https://dc.lft.to/lastmile_qr_scan"}, "name": "680226dcc55976e63d27fed5ad2fc142", "is_reserved": 0}, {"is_disabled": 0, "fusion_lon": 0.0, "fusion_lat": 0.0, "lat": 38.939176333333336, "type": "electric_bike", "lon": -77.03282083333333, "bike_id": "8be620abf434000861b0b93083b20cd1", "rental_uris": {"android": "https://dc.lft.to/lastmile_qr_scan", "ios": "https://dc.lft.to/lastmile_qr_scan"}, "name": "8be620abf434000861b0b93083b20cd1", "is_reserved": 0}, {"is_disabled": 0, "fusion_lon": 0.0, "fusion_lat": 0.0, "lat": 38.90076633333334, "type": "electric_scooter", "lon": -77.04879666666666, "bike_id": "5df30081f8f9b903ca8f8d49382f7e93", "rental_uris": {"android": "https://dc.lft.to/lastmile_qr_scan", "ios": "https://dc.lft.to/lastmile_qr_scan"}, "name": "5df30081f8f9b903ca8f8d49382f7e93", "is_reserved": 0}, {"is_disabled": 0, "fusion_lon": 0.0, "fusion_lat": 0.0, "lat": 38.904429, "type": "electric_scooter", "lon": -77.03475116666667, "bike_id": "6c45aea85caf315d058a3881309cf8a0", "rental_uris": {"android": "https://dc.lft.to/lastmile_qr_scan", "ios": "https://dc.lft.to/lastmile_qr_scan"}, "name": "6c45aea85caf315d058a3881309cf8a0", "is_reserved": 0}, {"is_disabled": 0, "fusion_lon": 0.0, "fusion_lat": 0.0, "lat": 38.942807333333334, "type": "electric_scooter", "lon": -77.023499, "bike_id": "949e74909ed1a8ca64a0221c20dc316f", "rental_uris": {"android": "https://dc.lft.to/lastmile_qr_scan", "ios": "https://dc.lft.to/lastmile_qr_scan"}, "name": "949e74909ed1a8ca64a0221c20dc316f", "is_reserved": 0}, {"is_disabled": 0, "fusion_lon": 0.0, "fusion_lat": 0.0, "lat": 39.11506766666667, "type": "electric_bike", "lon": -77.19547466666667, "bike_id": "b95549df103fec75a40656d3906da58b", "rental_uris": {"android": "https://dc.lft.to/lastmile_qr_scan", "ios": "https://dc.lft.to/lastmile_qr_scan"}, "name": "b95549df103fec75a40656d3906da58b", "is_reserved": 0}, {"is_disabled": 0, "fusion_lon": 0.0, "fusion_lat": 0.0, "lat": 38.85717066666667, "type": "electric_bike", "lon": -76.98116633333333, "bike_id": "df422dbc1448e0eaa0bebd3218fc8a4b", "rental_uris": {"android": "https://dc.lft.to/lastmile_qr_scan", "ios": "https://dc.lft.to/lastmile_qr_scan"}, "name": "df422dbc1448e0eaa0bebd3218fc8a4b", "is_reserved": 0}, {"is_disabled": 0, "fusion_lon": 0.0, "fusion_lat": 0.0, "lat": 38.83808, "type": "electric_scooter", "lon": -77.00437166666667, "bike_id": "b6789f8ff2808655aa2ed2c65975bbeb", "rental_uris": {"android": "https://dc.lft.to/lastmile_qr_scan", "ios": "https://dc.lft.to/lastmile_qr_scan"}, "name": "b6789f8ff2808655aa2ed2c65975bbeb", "is_reserved": 0}, {"is_disabled": 0, "fusion_lon": 0.0, "fusion_lat": 0.0, "lat": 38.91560066666667, "type": "electric_scooter", "lon": -77.038758, "bike_id": "b53b458ff0afb487ec2acf50b095b526", "rental_uris": {"android": "https://dc.lft.to/lastmile_qr_scan", "ios": "https://dc.lft.to/lastmile_qr_scan"}, "name": "b53b458ff0afb487ec2acf50b095b526", "is_reserved": 0}, {"is_disabled": 0, "fusion_lon": 0.0, "fusion_lat": 0.0, "lat": 38.930472, "type": "electric_scooter", "lon": -77.00419216666667, "bike_id": "8b25b59251eec7f566652b840331e707", "rental_uris": {"android": "https://dc.lft.to/lastmile_qr_scan", "ios": "https://dc.lft.to/lastmile_qr_scan"}, "name": "8b25b59251eec7f566652b840331e707", "is_reserved": 0}, {"is_disabled": 0, "fusion_lon": 0.0, "fusion_lat": 0.0, "lat": 38.92851783333333, "type": "electric_scooter", "lon": -77.03430216666666, "bike_id": "7201d0ba53c0272e8704b444200b3d60", "rental_uris": {"android": "https://dc.lft.to/lastmile_qr_scan", "ios": "https://dc.lft.to/lastmile_qr_scan"}, "name": "7201d0ba53c0272e8704b444200b3d60", "is_reserved": 0}, {"is_disabled": 0, "fusion_lon": 0.0, "fusion_lat": 0.0, "lat": 38.862436833333334, "type": "electric_scooter", "lon": -76.99495016666667, "bike_id": "bdc04cfe72bdcfb84e9b157661f4e4fc", "rental_uris": {"android": "https://dc.lft.to/lastmile_qr_scan", "ios": "https://dc.lft.to/lastmile_qr_scan"}, "name": "bdc04cfe72bdcfb84e9b157661f4e4fc", "is_reserved": 0}, {"is_disabled": 0, "fusion_lon": 0.0, "fusion_lat": 0.0, "lat": 38.992533, "type": "electric_bike", "lon": -77.05000616666666, "bike_id": "fdaaa9618d3efdf559c64900a8aad848", "rental_uris": {"android": "https://dc.lft.to/lastmile_qr_scan", "ios": "https://dc.lft.to/lastmile_qr_scan"}, "name": "fdaaa9618d3efdf559c64900a8aad848", "is_reserved": 0}, {"is_disabled": 0, "fusion_lon": 0.0, "fusion_lat": 0.0, "lat": 38.9085845, "type": "electric_scooter", "lon": -77.00988433333333, "bike_id": "ba131ad4a715569fac4d67b676755414", "rental_uris": {"android": "https://dc.lft.to/lastmile_qr_scan", "ios": "https://dc.lft.to/lastmile_qr_scan"}, "name": "ba131ad4a715569fac4d67b676755414", "is_reserved": 0}, {"is_disabled": 0, "fusion_lon": 0.0, "fusion_lat": 0.0, "lat": 38.923341, "type": "electric_scooter", "lon": -77.04310166666667, "bike_id": "8d22a7affe93bece52de047641ff028d", "rental_uris": {"android": "https://dc.lft.to/lastmile_qr_scan", "ios": "https://dc.lft.to/lastmile_qr_scan"}, "name": "8d22a7affe93bece52de047641ff028d", "is_reserved": 0}, {"is_disabled": 0, "fusion_lon": 0.0, "fusion_lat": 0.0, "lat": 38.91711083333333, "type": "electric_scooter", "lon": -77.02985733333334, "bike_id": "350757f6076f2304ce21a16e1e8701c4", "rental_uris": {"android": "https://dc.lft.to/lastmile_qr_scan", "ios": "https://dc.lft.to/lastmile_qr_scan"}, "name": "350757f6076f2304ce21a16e1e8701c4", "is_reserved": 0}, {"is_disabled": 0, "fusion_lon": 0.0, "fusion_lat": 0.0, "lat": 38.93559533333333, "type": "electric_bike", "lon": -77.0819425, "bike_id": "919448cc0af1e2da321a775d2f11aa34", "rental_uris": {"android": "https://dc.lft.to/lastmile_qr_scan", "ios": "https://dc.lft.to/lastmile_qr_scan"}, "name": "919448cc0af1e2da321a775d2f11aa34", "is_reserved": 0}, {"is_disabled": 0, "fusion_lon": 0.0, "fusion_lat": 0.0, "lat": 38.911555666666665, "type": "electric_scooter", "lon": -77.02381666666666, "bike_id": "19d7fa3aac6d475bd4bb65cb462be263", "rental_uris": {"android": "https://dc.lft.to/lastmile_qr_scan", "ios": "https://dc.lft.to/lastmile_qr_scan"}, "name": "19d7fa3aac6d475bd4bb65cb462be263", "is_reserved": 0}, {"is_disabled": 0, "fusion_lon": 0.0, "fusion_lat": 0.0, "lat": 38.86909433333334, "type": "electric_bike", "lon": -77.13179166666667, "bike_id": "67c949b70f24a3d9b9d5c6318632c9d7", "rental_uris": {"android": "https://dc.lft.to/lastmile_qr_scan", "ios": "https://dc.lft.to/lastmile_qr_scan"}, "name": "67c949b70f24a3d9b9d5c6318632c9d7", "is_reserved": 0}, {"is_disabled": 0, "fusion_lon": 0.0, "fusion_lat": 0.0, "lat": 38.919918833333334, "type": "electric_bike", "lon": -76.97309716666666, "bike_id": "7b2631cb27bce877d60e306982791747", "rental_uris": {"android": "https://dc.lft.to/lastmile_qr_scan", "ios": "https://dc.lft.to/lastmile_qr_scan"}, "name": "7b2631cb27bce877d60e306982791747", "is_reserved": 0}, {"is_disabled": 0, "fusion_lon": 0.0, "fusion_lat": 0.0, "lat": 38.90486116666667, "type": "electric_scooter", "lon": -77.02968983333334, "bike_id": "7ec03e374272821a87f9c7fd7cfc7133", "rental_uris": {"android": "https://dc.lft.to/lastmile_qr_scan", "ios": "https://dc.lft.to/lastmile_qr_scan"}, "name": "7ec03e374272821a87f9c7fd7cfc7133", "is_reserved": 0}, {"is_disabled": 0, "fusion_lon": 0.0, "fusion_lat": 0.0, "lat": 38.8711065, "type": "electric_bike", "lon": -77.00764816666667, "bike_id": "98b0852f54e6b17a0713b38ddca0b67e", "rental_uris": {"android": "https://dc.lft.to/lastmile_qr_scan", "ios": "https://dc.lft.to/lastmile_qr_scan"}, "name": "98b0852f54e6b17a0713b38ddca0b67e", "is_reserved": 0}, {"is_disabled": 0, "fusion_lon": 0.0, "fusion_lat": 0.0, "lat": 38.94922833333333, "type": "electric_bike", "lon": -77.007986, "bike_id": "0fbc9ffe45312fea51f9db3106f12408", "rental_uris": {"android": "https://dc.lft.to/lastmile_qr_scan", "ios": "https://dc.lft.to/lastmile_qr_scan"}, "name": "0fbc9ffe45312fea51f9db3106f12408", "is_reserved": 0}, {"is_disabled": 0, "fusion_lon": 0.0, "fusion_lat": 0.0, "lat": 38.88481983333333, "type": "electric_scooter", "lon": -77.02062216666667, "bike_id": "e6d26828da58b551a0b1575096a820de", "rental_uris": {"android": "https://dc.lft.to/lastmile_qr_scan", "ios": "https://dc.lft.to/lastmile_qr_scan"}, "name": "e6d26828da58b551a0b1575096a820de", "is_reserved": 0}, {"is_disabled": 0, "fusion_lon": 0.0, "fusion_lat": 0.0, "lat": 38.9083075, "type": "electric_scooter", "lon": -76.9969965, "bike_id": "cf2066979acec6809fb788e06f9820af", "rental_uris": {"android": "https://dc.lft.to/lastmile_qr_scan", "ios": "https://dc.lft.to/lastmile_qr_scan"}, "name": "cf2066979acec6809fb788e06f9820af", "is_reserved": 0}, {"is_disabled": 0, "fusion_lon": 0.0, "fusion_lat": 0.0, "lat": 38.899429166666664, "type": "electric_scooter", "lon": -77.02945233333334, "bike_id": "3be08e5fd3eb29d26a7aa4e3c3599cd4", "rental_uris": {"android": "https://dc.lft.to/lastmile_qr_scan", "ios": "https://dc.lft.to/lastmile_qr_scan"}, "name": "3be08e5fd3eb29d26a7aa4e3c3599cd4", "is_reserved": 0}, {"is_disabled": 0, "fusion_lon": 0.0, "fusion_lat": 0.0, "lat": 38.90953283333333, "type": "electric_scooter", "lon": -77.02716833333334, "bike_id": "69bb3179f59ac7656a6ed9a509390dc4", "rental_uris": {"android": "https://dc.lft.to/lastmile_qr_scan", "ios": "https://dc.lft.to/lastmile_qr_scan"}, "name": "69bb3179f59ac7656a6ed9a509390dc4", "is_reserved": 0}, {"is_disabled": 0, "fusion_lon": 0.0, "fusion_lat": 0.0, "lat": 38.8899425, "type": "electric_scooter", "lon": -77.04895483333334, "bike_id": "ae5164e681423cc02c2644857bdcaadd", "rental_uris": {"android": "https://dc.lft.to/lastmile_qr_scan", "ios": "https://dc.lft.to/lastmile_qr_scan"}, "name": "ae5164e681423cc02c2644857bdcaadd", "is_reserved": 0}, {"is_disabled": 0, "fusion_lon": 0.0, "fusion_lat": 0.0, "lat": 38.97541066666667, "type": "electric_bike", "lon": -76.9953025, "bike_id": "27fb8a70b7b23dff7dd1c1490542ae7b", "rental_uris": {"android": "https://dc.lft.to/lastmile_qr_scan", "ios": "https://dc.lft.to/lastmile_qr_scan"}, "name": "27fb8a70b7b23dff7dd1c1490542ae7b", "is_reserved": 0}, {"is_disabled": 0, "fusion_lon": 0.0, "fusion_lat": 0.0, "lat": 38.895682, "type": "electric_scooter", "lon": -77.0229955, "bike_id": "4c019700a6071a22735ccad75b62affc", "rental_uris": {"android": "https://dc.lft.to/lastmile_qr_scan", "ios": "https://dc.lft.to/lastmile_qr_scan"}, "name": "4c019700a6071a22735ccad75b62affc", "is_reserved": 0}, {"is_disabled": 0, "fusion_lon": 0.0, "fusion_lat": 0.0, "lat": 38.916106166666665, "type": "electric_scooter", "lon": -77.04016616666667, "bike_id": "d30d53cd0db531e499b9c1bf237ab799", "rental_uris": {"android": "https://dc.lft.to/lastmile_qr_scan", "ios": "https://dc.lft.to/lastmile_qr_scan"}, "name": "d30d53cd0db531e499b9c1bf237ab799", "is_reserved": 0}, {"is_disabled": 0, "fusion_lon": 0.0, "fusion_lat": 0.0, "lat": 38.933066833333335, "type": "electric_scooter", "lon": -77.03270916666666, "bike_id": "ad94b5e0330a0eff8113121c4bf05c3c", "rental_uris": {"android": "https://dc.lft.to/lastmile_qr_scan", "ios": "https://dc.lft.to/lastmile_qr_scan"}, "name": "ad94b5e0330a0eff8113121c4bf05c3c", "is_reserved": 0}, {"is_disabled": 0, "fusion_lon": 0.0, "fusion_lat": 0.0, "lat": 38.9088485, "type": "electric_scooter", "lon": -77.03388383333333, "bike_id": "9483d6887a0f49920e5ab46bcb5fa80b", "rental_uris": {"android": "https://dc.lft.to/lastmile_qr_scan", "ios": "https://dc.lft.to/lastmile_qr_scan"}, "name": "9483d6887a0f49920e5ab46bcb5fa80b", "is_reserved": 0}, {"is_disabled": 0, "fusion_lon": 0.0, "fusion_lat": 0.0, "lat": 38.89833766666667, "type": "electric_scooter", "lon": -76.94634966666666, "bike_id": "35b022336c1395b21c8e5d40073193bd", "rental_uris": {"android": "https://dc.lft.to/lastmile_qr_scan", "ios": "https://dc.lft.to/lastmile_qr_scan"}, "name": "35b022336c1395b21c8e5d40073193bd", "is_reserved": 0}, {"is_disabled": 0, "fusion_lon": 0.0, "fusion_lat": 0.0, "lat": 38.930000666666665, "type": "electric_scooter", "lon": -77.022068, "bike_id": "7112ee771f06d96988740b4bd486134c", "rental_uris": {"android": "https://dc.lft.to/lastmile_qr_scan", "ios": "https://dc.lft.to/lastmile_qr_scan"}, "name": "7112ee771f06d96988740b4bd486134c", "is_reserved": 0}, {"is_disabled": 0, "fusion_lon": 0.0, "fusion_lat": 0.0, "lat": 38.915943166666665, "type": "electric_bike", "lon": -76.97155783333334, "bike_id": "12e8496e25ca2f568ebb4db24aa4130f", "rental_uris": {"android": "https://dc.lft.to/lastmile_qr_scan", "ios": "https://dc.lft.to/lastmile_qr_scan"}, "name": "12e8496e25ca2f568ebb4db24aa4130f", "is_reserved": 0}, {"is_disabled": 0, "fusion_lon": 0.0, "fusion_lat": 0.0, "lat": 38.90584116666667, "type": "electric_scooter", "lon": -77.02384466666666, "bike_id": "ddcb4a609968f9f928846af582dd9fe8", "rental_uris": {"android": "https://dc.lft.to/lastmile_qr_scan", "ios": "https://dc.lft.to/lastmile_qr_scan"}, "name": "ddcb4a609968f9f928846af582dd9fe8", "is_reserved": 0}, {"is_disabled": 0, "fusion_lon": 0.0, "fusion_lat": 0.0, "lat": 38.898863, "type": "electric_scooter", "lon": -77.04165166666667, "bike_id": "d2d9531c47f1af6387741b9732a14982", "rental_uris": {"android": "https://dc.lft.to/lastmile_qr_scan", "ios": "https://dc.lft.to/lastmile_qr_scan"}, "name": "d2d9531c47f1af6387741b9732a14982", "is_reserved": 0}, {"is_disabled": 0, "fusion_lon": 0.0, "fusion_lat": 0.0, "lat": 38.90147016666667, "type": "electric_scooter", "lon": -77.0151555, "bike_id": "03d38bc34c12dd020ffb5214a2247326", "rental_uris": {"android": "https://dc.lft.to/lastmile_qr_scan", "ios": "https://dc.lft.to/lastmile_qr_scan"}, "name": "03d38bc34c12dd020ffb5214a2247326", "is_reserved": 0}, {"is_disabled": 0, "fusion_lon": 0.0, "fusion_lat": 0.0, "lat": 38.91012283333333, "type": "electric_scooter", "lon": -77.0220215, "bike_id": "240e08d5b973f81592034dda82c7ce51", "rental_uris": {"android": "https://dc.lft.to/lastmile_qr_scan", "ios": "https://dc.lft.to/lastmile_qr_scan"}, "name": "240e08d5b973f81592034dda82c7ce51", "is_reserved": 0}, {"is_disabled": 0, "fusion_lon": 0.0, "fusion_lat": 0.0, "lat": 38.937144, "type": "electric_scooter", "lon": -77.03271016666666, "bike_id": "b0d7057c468b5afa37509962d8e4b38a", "rental_uris": {"android": "https://dc.lft.to/lastmile_qr_scan", "ios": "https://dc.lft.to/lastmile_qr_scan"}, "name": "b0d7057c468b5afa37509962d8e4b38a", "is_reserved": 0}, {"is_disabled": 0, "fusion_lon": 0.0, "fusion_lat": 0.0, "lat": 39.003803166666664, "type": "electric_bike", "lon": -77.01297683333334, "bike_id": "53e1af26ec764983f96cd2604fdb954d", "rental_uris": {"android": "https://dc.lft.to/lastmile_qr_scan", "ios": "https://dc.lft.to/lastmile_qr_scan"}, "name": "53e1af26ec764983f96cd2604fdb954d", "is_reserved": 0}, {"is_disabled": 0, "fusion_lon": 0.0, "fusion_lat": 0.0, "lat": 38.91683783333333, "type": "electric_scooter", "lon": -77.04139033333334, "bike_id": "f22853cd36d8a827f72f2e6c0fe18c03", "rental_uris": {"android": "https://dc.lft.to/lastmile_qr_scan", "ios": "https://dc.lft.to/lastmile_qr_scan"}, "name": "f22853cd36d8a827f72f2e6c0fe18c03", "is_reserved": 0}, {"is_disabled": 0, "fusion_lon": 0.0, "fusion_lat": 0.0, "lat": 38.90062133333333, "type": "electric_scooter", "lon": -76.99954466666667, "bike_id": "239a01e7c69ee51856c3b4455505c134", "rental_uris": {"android": "https://dc.lft.to/lastmile_qr_scan", "ios": "https://dc.lft.to/lastmile_qr_scan"}, "name": "239a01e7c69ee51856c3b4455505c134", "is_reserved": 0}, {"is_disabled": 0, "fusion_lon": 0.0, "fusion_lat": 0.0, "lat": 38.96561883333333, "type": "electric_bike", "lon": -77.02305866666667, "bike_id": "e5860e699b73e6138cc2dc9d45fa1261", "rental_uris": {"android": "https://dc.lft.to/lastmile_qr_scan", "ios": "https://dc.lft.to/lastmile_qr_scan"}, "name": "e5860e699b73e6138cc2dc9d45fa1261", "is_reserved": 0}, {"is_disabled": 0, "fusion_lon": 0.0, "fusion_lat": 0.0, "lat": 38.939238, "type": "electric_scooter", "lon": -77.0247945, "bike_id": "c400a578b004c650bf26cba3a26247e1", "rental_uris": {"android": "https://dc.lft.to/lastmile_qr_scan", "ios": "https://dc.lft.to/lastmile_qr_scan"}, "name": "c400a578b004c650bf26cba3a26247e1", "is_reserved": 0}, {"is_disabled": 0, "fusion_lon": 0.0, "fusion_lat": 0.0, "lat": 38.9245395, "type": "electric_scooter", "lon": -76.99907733333333, "bike_id": "221d86aff29242b11ee1d3f11352bcfa", "rental_uris": {"android": "https://dc.lft.to/lastmile_qr_scan", "ios": "https://dc.lft.to/lastmile_qr_scan"}, "name": "221d86aff29242b11ee1d3f11352bcfa", "is_reserved": 0}, {"is_disabled": 0, "fusion_lon": 0.0, "fusion_lat": 0.0, "lat": 38.8982505, "type": "electric_scooter", "lon": -77.00206866666667, "bike_id": "2ac675b09cf9a039dbe133224fe269a9", "rental_uris": {"android": "https://dc.lft.to/lastmile_qr_scan", "ios": "https://dc.lft.to/lastmile_qr_scan"}, "name": "2ac675b09cf9a039dbe133224fe269a9", "is_reserved": 0}, {"is_disabled": 0, "fusion_lon": 0.0, "fusion_lat": 0.0, "lat": 38.912708333333335, "type": "electric_scooter", "lon": -77.02224983333333, "bike_id": "0c707bd74b0c40f96bc51da094605d7c", "rental_uris": {"android": "https://dc.lft.to/lastmile_qr_scan", "ios": "https://dc.lft.to/lastmile_qr_scan"}, "name": "0c707bd74b0c40f96bc51da094605d7c", "is_reserved": 0}, {"is_disabled": 0, "fusion_lon": 0.0, "fusion_lat": 0.0, "lat": 38.91709183333333, "type": "electric_scooter", "lon": -77.02618016666666, "bike_id": "89a235b0fb7919e31658c4befa397db4", "rental_uris": {"android": "https://dc.lft.to/lastmile_qr_scan", "ios": "https://dc.lft.to/lastmile_qr_scan"}, "name": "89a235b0fb7919e31658c4befa397db4", "is_reserved": 0}, {"is_disabled": 0, "fusion_lon": 0.0, "fusion_lat": 0.0, "lat": 38.902475333333335, "type": "electric_scooter", "lon": -77.03094516666667, "bike_id": "b7e830d850d016ae6bf70813bc3a6df8", "rental_uris": {"android": "https://dc.lft.to/lastmile_qr_scan", "ios": "https://dc.lft.to/lastmile_qr_scan"}, "name": "b7e830d850d016ae6bf70813bc3a6df8", "is_reserved": 0}, {"is_disabled": 0, "fusion_lon": 0.0, "fusion_lat": 0.0, "lat": 38.9181525, "type": "electric_scooter", "lon": -77.03182266666667, "bike_id": "7cb6b548e6eca87e4e4931d5e425cb83", "rental_uris": {"android": "https://dc.lft.to/lastmile_qr_scan", "ios": "https://dc.lft.to/lastmile_qr_scan"}, "name": "7cb6b548e6eca87e4e4931d5e425cb83", "is_reserved": 0}, {"is_disabled": 0, "fusion_lon": 0.0, "fusion_lat": 0.0, "lat": 38.91264866666667, "type": "electric_scooter", "lon": -77.04154783333334, "bike_id": "421907bab373d9ef3bff104050002f04", "rental_uris": {"android": "https://dc.lft.to/lastmile_qr_scan", "ios": "https://dc.lft.to/lastmile_qr_scan"}, "name": "421907bab373d9ef3bff104050002f04", "is_reserved": 0}, {"is_disabled": 0, "fusion_lon": 0.0, "fusion_lat": 0.0, "lat": 38.8337455, "type": "electric_scooter", "lon": -76.99296566666666, "bike_id": "7566ef6a022a4b961960df65c27e76bb", "rental_uris": {"android": "https://dc.lft.to/lastmile_qr_scan", "ios": "https://dc.lft.to/lastmile_qr_scan"}, "name": "7566ef6a022a4b961960df65c27e76bb", "is_reserved": 0}, {"is_disabled": 0, "fusion_lon": 0.0, "fusion_lat": 0.0, "lat": 38.905694833333335, "type": "electric_scooter", "lon": -77.0059965, "bike_id": "b492c0f11cccff24d7f6867a566eb144", "rental_uris": {"android": "https://dc.lft.to/lastmile_qr_scan", "ios": "https://dc.lft.to/lastmile_qr_scan"}, "name": "b492c0f11cccff24d7f6867a566eb144", "is_reserved": 0}, {"is_disabled": 0, "fusion_lon": 0.0, "fusion_lat": 0.0, "lat": 38.9228805, "type": "electric_scooter", "lon": -77.031968, "bike_id": "7e10d80e2e06e2f1f3fed9c76b48495f", "rental_uris": {"android": "https://dc.lft.to/lastmile_qr_scan", "ios": "https://dc.lft.to/lastmile_qr_scan"}, "name": "7e10d80e2e06e2f1f3fed9c76b48495f", "is_reserved": 0}, {"is_disabled": 0, "fusion_lon": 0.0, "fusion_lat": 0.0, "lat": 38.9191545, "type": "electric_scooter", "lon": -77.01764466666667, "bike_id": "cf36eb22ab4283c87ce133af4cf222b5", "rental_uris": {"android": "https://dc.lft.to/lastmile_qr_scan", "ios": "https://dc.lft.to/lastmile_qr_scan"}, "name": "cf36eb22ab4283c87ce133af4cf222b5", "is_reserved": 0}, {"is_disabled": 0, "fusion_lon": 0.0, "fusion_lat": 0.0, "lat": 38.91299816666667, "type": "electric_scooter", "lon": -77.0385635, "bike_id": "62abd27713983d74b6956ba7d33531dd", "rental_uris": {"android": "https://dc.lft.to/lastmile_qr_scan", "ios": "https://dc.lft.to/lastmile_qr_scan"}, "name": "62abd27713983d74b6956ba7d33531dd", "is_reserved": 0}, {"is_disabled": 0, "fusion_lon": 0.0, "fusion_lat": 0.0, "lat": 38.9187055, "type": "electric_scooter", "lon": -77.03656933333333, "bike_id": "cf991626bf881fe1ef1235001847f002", "rental_uris": {"android": "https://dc.lft.to/lastmile_qr_scan", "ios": "https://dc.lft.to/lastmile_qr_scan"}, "name": "cf991626bf881fe1ef1235001847f002", "is_reserved": 0}, {"is_disabled": 0, "fusion_lon": 0.0, "fusion_lat": 0.0, "lat": 38.926088666666665, "type": "electric_scooter", "lon": -77.02417383333334, "bike_id": "9e81a7ea664becca8db09c806b48aa7d", "rental_uris": {"android": "https://dc.lft.to/lastmile_qr_scan", "ios": "https://dc.lft.to/lastmile_qr_scan"}, "name": "9e81a7ea664becca8db09c806b48aa7d", "is_reserved": 0}, {"is_disabled": 0, "fusion_lon": 0.0, "fusion_lat": 0.0, "lat": 38.91316416666667, "type": "electric_scooter", "lon": -77.03844833333333, "bike_id": "776d639f158d8e7c6d0be8d52be59734", "rental_uris": {"android": "https://dc.lft.to/lastmile_qr_scan", "ios": "https://dc.lft.to/lastmile_qr_scan"}, "name": "776d639f158d8e7c6d0be8d52be59734", "is_reserved": 0}, {"is_disabled": 0, "fusion_lon": 0.0, "fusion_lat": 0.0, "lat": 38.9171365, "type": "electric_scooter", "lon": -77.03572966666667, "bike_id": "0a69ab526df63b87187465c21cba23ca", "rental_uris": {"android": "https://dc.lft.to/lastmile_qr_scan", "ios": "https://dc.lft.to/lastmile_qr_scan"}, "name": "0a69ab526df63b87187465c21cba23ca", "is_reserved": 0}, {"is_disabled": 0, "fusion_lon": 0.0, "fusion_lat": 0.0, "lat": 38.89730216666667, "type": "electric_scooter", "lon": -77.00748866666666, "bike_id": "f61a8618336921ebc08a4374a1d67bba", "rental_uris": {"android": "https://dc.lft.to/lastmile_qr_scan", "ios": "https://dc.lft.to/lastmile_qr_scan"}, "name": "f61a8618336921ebc08a4374a1d67bba", "is_reserved": 0}, {"is_disabled": 0, "fusion_lon": 0.0, "fusion_lat": 0.0, "lat": 38.931297, "type": "electric_scooter", "lon": -77.02200816666667, "bike_id": "f935e88571b6fe4986d88217888aeae7", "rental_uris": {"android": "https://dc.lft.to/lastmile_qr_scan", "ios": "https://dc.lft.to/lastmile_qr_scan"}, "name": "f935e88571b6fe4986d88217888aeae7", "is_reserved": 0}, {"is_disabled": 0, "fusion_lon": 0.0, "fusion_lat": 0.0, "lat": 38.96057066666667, "type": "electric_scooter", "lon": -77.08559866666667, "bike_id": "a63b2e75e95d450ffeb612ce0f440b5d", "rental_uris": {"android": "https://dc.lft.to/lastmile_qr_scan", "ios": "https://dc.lft.to/lastmile_qr_scan"}, "name": "a63b2e75e95d450ffeb612ce0f440b5d", "is_reserved": 0}, {"is_disabled": 0, "fusion_lon": 0.0, "fusion_lat": 0.0, "lat": 38.89333516666667, "type": "electric_scooter", "lon": -77.02126966666667, "bike_id": "f77ca297ebf94c26df79403d4c0c5fca", "rental_uris": {"android": "https://dc.lft.to/lastmile_qr_scan", "ios": "https://dc.lft.to/lastmile_qr_scan"}, "name": "f77ca297ebf94c26df79403d4c0c5fca", "is_reserved": 0}, {"is_disabled": 0, "fusion_lon": 0.0, "fusion_lat": 0.0, "lat": 38.90602583333333, "type": "electric_scooter", "lon": -77.01617416666667, "bike_id": "2ad92e6b53979580c9867b27e9e1e272", "rental_uris": {"android": "https://dc.lft.to/lastmile_qr_scan", "ios": "https://dc.lft.to/lastmile_qr_scan"}, "name": "2ad92e6b53979580c9867b27e9e1e272", "is_reserved": 0}, {"is_disabled": 0, "fusion_lon": 0.0, "fusion_lat": 0.0, "lat": 38.923135, "type": "electric_scooter", "lon": -77.03929183333334, "bike_id": "0034ccae02f8eb8ac6570e5fb60f3bec", "rental_uris": {"android": "https://dc.lft.to/lastmile_qr_scan", "ios": "https://dc.lft.to/lastmile_qr_scan"}, "name": "0034ccae02f8eb8ac6570e5fb60f3bec", "is_reserved": 0}, {"is_disabled": 0, "fusion_lon": 0.0, "fusion_lat": 0.0, "lat": 39.02298416666667, "type": "electric_bike", "lon": -77.02105766666666, "bike_id": "32ecb1677b86749bc2e7bc6cff3727f3", "rental_uris": {"android": "https://dc.lft.to/lastmile_qr_scan", "ios": "https://dc.lft.to/lastmile_qr_scan"}, "name": "32ecb1677b86749bc2e7bc6cff3727f3", "is_reserved": 0}, {"is_disabled": 0, "fusion_lon": 0.0, "fusion_lat": 0.0, "lat": 38.89771016666667, "type": "electric_scooter", "lon": -77.05138316666667, "bike_id": "1b9e37334e81aa22509e335348240fdb", "rental_uris": {"android": "https://dc.lft.to/lastmile_qr_scan", "ios": "https://dc.lft.to/lastmile_qr_scan"}, "name": "1b9e37334e81aa22509e335348240fdb", "is_reserved": 0}, {"is_disabled": 0, "fusion_lon": 0.0, "fusion_lat": 0.0, "lat": 38.94189133333333, "type": "electric_scooter", "lon": -77.04254833333333, "bike_id": "569e46daecdc943e93ef4b6c5bb4f491", "rental_uris": {"android": "https://dc.lft.to/lastmile_qr_scan", "ios": "https://dc.lft.to/lastmile_qr_scan"}, "name": "569e46daecdc943e93ef4b6c5bb4f491", "is_reserved": 0}, {"is_disabled": 0, "fusion_lon": 0.0, "fusion_lat": 0.0, "lat": 38.935416000000004, "type": "electric_scooter", "lon": -77.03426266666666, "bike_id": "fdcfb7d2fb23c07d3766a17a314655f3", "rental_uris": {"android": "https://dc.lft.to/lastmile_qr_scan", "ios": "https://dc.lft.to/lastmile_qr_scan"}, "name": "fdcfb7d2fb23c07d3766a17a314655f3", "is_reserved": 0}, {"is_disabled": 0, "fusion_lon": 0.0, "fusion_lat": 0.0, "lat": 38.898485666666666, "type": "electric_scooter", "lon": -76.94492816666667, "bike_id": "66affee94c5ca7413d5c6cc29f8a2975", "rental_uris": {"android": "https://dc.lft.to/lastmile_qr_scan", "ios": "https://dc.lft.to/lastmile_qr_scan"}, "name": "66affee94c5ca7413d5c6cc29f8a2975", "is_reserved": 0}, {"is_disabled": 0, "fusion_lon": 0.0, "fusion_lat": 0.0, "lat": 38.932367666666664, "type": "electric_scooter", "lon": -77.0389165, "bike_id": "e2dbcdbea09b427d736e7a3d00575ffd", "rental_uris": {"android": "https://dc.lft.to/lastmile_qr_scan", "ios": "https://dc.lft.to/lastmile_qr_scan"}, "name": "e2dbcdbea09b427d736e7a3d00575ffd", "is_reserved": 0}, {"is_disabled": 0, "fusion_lon": 0.0, "fusion_lat": 0.0, "lat": 38.890436666666666, "type": "electric_scooter", "lon": -76.9375285, "bike_id": "b2c7f68cf8b9637caa6b99d79007e1be", "rental_uris": {"android": "https://dc.lft.to/lastmile_qr_scan", "ios": "https://dc.lft.to/lastmile_qr_scan"}, "name": "b2c7f68cf8b9637caa6b99d79007e1be", "is_reserved": 0}, {"is_disabled": 0, "fusion_lon": 0.0, "fusion_lat": 0.0, "lat": 38.900798, "type": "electric_scooter", "lon": -77.01340466666667, "bike_id": "d337de86127cef7e6c8176ab9069356e", "rental_uris": {"android": "https://dc.lft.to/lastmile_qr_scan", "ios": "https://dc.lft.to/lastmile_qr_scan"}, "name": "d337de86127cef7e6c8176ab9069356e", "is_reserved": 0}, {"is_disabled": 0, "fusion_lon": 0.0, "fusion_lat": 0.0, "lat": 38.8554295, "type": "electric_bike", "lon": -77.107069, "bike_id": "2210e781f7a1d780dc0249586e0c2383", "rental_uris": {"android": "https://dc.lft.to/lastmile_qr_scan", "ios": "https://dc.lft.to/lastmile_qr_scan"}, "name": "2210e781f7a1d780dc0249586e0c2383", "is_reserved": 0}, {"is_disabled": 0, "fusion_lon": 0.0, "fusion_lat": 0.0, "lat": 38.860347833333336, "type": "electric_scooter", "lon": -76.99691033333333, "bike_id": "eca38dfa86cc49ba4b02af1baaf2b8fe", "rental_uris": {"android": "https://dc.lft.to/lastmile_qr_scan", "ios": "https://dc.lft.to/lastmile_qr_scan"}, "name": "eca38dfa86cc49ba4b02af1baaf2b8fe", "is_reserved": 0}, {"is_disabled": 0, "fusion_lon": 0.0, "fusion_lat": 0.0, "lat": 38.899858, "type": "electric_scooter", "lon": -77.031908, "bike_id": "ec14bb86107a25aede8f443c34397fdc", "rental_uris": {"android": "https://dc.lft.to/lastmile_qr_scan", "ios": "https://dc.lft.to/lastmile_qr_scan"}, "name": "ec14bb86107a25aede8f443c34397fdc", "is_reserved": 0}, {"is_disabled": 0, "fusion_lon": 0.0, "fusion_lat": 0.0, "lat": 38.99934966666667, "type": "electric_bike", "lon": -77.001213, "bike_id": "efdabd8c5037a32fefee7f23e4787cfb", "rental_uris": {"android": "https://dc.lft.to/lastmile_qr_scan", "ios": "https://dc.lft.to/lastmile_qr_scan"}, "name": "efdabd8c5037a32fefee7f23e4787cfb", "is_reserved": 0}, {"is_disabled": 0, "fusion_lon": 0.0, "fusion_lat": 0.0, "lat": 38.8419435, "type": "electric_bike", "lon": -77.07748216666667, "bike_id": "1b0ae6e505230ae78f7218038748f8a9", "rental_uris": {"android": "https://dc.lft.to/lastmile_qr_scan", "ios": "https://dc.lft.to/lastmile_qr_scan"}, "name": "1b0ae6e505230ae78f7218038748f8a9", "is_reserved": 0}, {"is_disabled": 0, "fusion_lon": 0.0, "fusion_lat": 0.0, "lat": 38.89508933333333, "type": "electric_scooter", "lon": -76.94879883333333, "bike_id": "a5413a7d15bac2cd78e44fc48cef6fd9", "rental_uris": {"android": "https://dc.lft.to/lastmile_qr_scan", "ios": "https://dc.lft.to/lastmile_qr_scan"}, "name": "a5413a7d15bac2cd78e44fc48cef6fd9", "is_reserved": 0}, {"is_disabled": 0, "fusion_lon": 0.0, "fusion_lat": 0.0, "lat": 38.8991205, "type": "electric_scooter", "lon": -76.933503, "bike_id": "3296499db33c36c7c749fdd45314a917", "rental_uris": {"android": "https://dc.lft.to/lastmile_qr_scan", "ios": "https://dc.lft.to/lastmile_qr_scan"}, "name": "3296499db33c36c7c749fdd45314a917", "is_reserved": 0}, {"is_disabled": 0, "fusion_lon": 0.0, "fusion_lat": 0.0, "lat": 38.89219633333333, "type": "electric_scooter", "lon": -77.02261183333333, "bike_id": "5d3cc7e791df720954bb5f7f95370a43", "rental_uris": {"android": "https://dc.lft.to/lastmile_qr_scan", "ios": "https://dc.lft.to/lastmile_qr_scan"}, "name": "5d3cc7e791df720954bb5f7f95370a43", "is_reserved": 0}, {"is_disabled": 0, "fusion_lon": 0.0, "fusion_lat": 0.0, "lat": 38.915511333333335, "type": "electric_scooter", "lon": -77.01232016666667, "bike_id": "d8e1e490049a91dde863af39fe0cd47e", "rental_uris": {"android": "https://dc.lft.to/lastmile_qr_scan", "ios": "https://dc.lft.to/lastmile_qr_scan"}, "name": "d8e1e490049a91dde863af39fe0cd47e", "is_reserved": 0}, {"is_disabled": 0, "fusion_lon": 0.0, "fusion_lat": 0.0, "lat": 39.095923, "type": "electric_bike", "lon": -77.1478135, "bike_id": "76c4f78a70908c39fdd8a057b797e5f6", "rental_uris": {"android": "https://dc.lft.to/lastmile_qr_scan", "ios": "https://dc.lft.to/lastmile_qr_scan"}, "name": "76c4f78a70908c39fdd8a057b797e5f6", "is_reserved": 0}, {"is_disabled": 0, "fusion_lon": 0.0, "fusion_lat": 0.0, "lat": 38.902398166666664, "type": "electric_scooter", "lon": -77.0020735, "bike_id": "891d5ea7eb01d1968caa2c8b39ec28ba", "rental_uris": {"android": "https://dc.lft.to/lastmile_qr_scan", "ios": "https://dc.lft.to/lastmile_qr_scan"}, "name": "891d5ea7eb01d1968caa2c8b39ec28ba", "is_reserved": 0}, {"is_disabled": 0, "fusion_lon": 0.0, "fusion_lat": 0.0, "lat": 38.953554833333335, "type": "electric_bike", "lon": -76.98092133333333, "bike_id": "1132cbf710fade1a4c7cea4f1ac4c604", "rental_uris": {"android": "https://dc.lft.to/lastmile_qr_scan", "ios": "https://dc.lft.to/lastmile_qr_scan"}, "name": "1132cbf710fade1a4c7cea4f1ac4c604", "is_reserved": 0}, {"is_disabled": 0, "fusion_lon": 0.0, "fusion_lat": 0.0, "lat": 38.87573866666666, "type": "electric_scooter", "lon": -77.01988816666666, "bike_id": "180f33106639468db5b9f3d3306e6542", "rental_uris": {"android": "https://dc.lft.to/lastmile_qr_scan", "ios": "https://dc.lft.to/lastmile_qr_scan"}, "name": "180f33106639468db5b9f3d3306e6542", "is_reserved": 0}, {"is_disabled": 0, "fusion_lon": 0.0, "fusion_lat": 0.0, "lat": 38.917859166666666, "type": "electric_scooter", "lon": -77.02307533333334, "bike_id": "5b8396f61b67da3f2019d759817291e2", "rental_uris": {"android": "https://dc.lft.to/lastmile_qr_scan", "ios": "https://dc.lft.to/lastmile_qr_scan"}, "name": "5b8396f61b67da3f2019d759817291e2", "is_reserved": 0}, {"is_disabled": 0, "fusion_lon": 0.0, "fusion_lat": 0.0, "lat": 38.91792233333334, "type": "electric_scooter", "lon": -77.03658483333334, "bike_id": "00fe6c364ea7434bd0f46ae485d46537", "rental_uris": {"android": "https://dc.lft.to/lastmile_qr_scan", "ios": "https://dc.lft.to/lastmile_qr_scan"}, "name": "00fe6c364ea7434bd0f46ae485d46537", "is_reserved": 0}, {"is_disabled": 0, "fusion_lon": 0.0, "fusion_lat": 0.0, "lat": 38.91543933333333, "type": "electric_scooter", "lon": -77.019724, "bike_id": "adede33096dcc37db78c949761a27d2e", "rental_uris": {"android": "https://dc.lft.to/lastmile_qr_scan", "ios": "https://dc.lft.to/lastmile_qr_scan"}, "name": "adede33096dcc37db78c949761a27d2e", "is_reserved": 0}, {"is_disabled": 0, "fusion_lon": 0.0, "fusion_lat": 0.0, "lat": 38.915364333333336, "type": "electric_scooter", "lon": -77.02181883333333, "bike_id": "9f9f2da404995c9f8da70e519f62a0b5", "rental_uris": {"android": "https://dc.lft.to/lastmile_qr_scan", "ios": "https://dc.lft.to/lastmile_qr_scan"}, "name": "9f9f2da404995c9f8da70e519f62a0b5", "is_reserved": 0}, {"is_disabled": 0, "fusion_lon": 0.0, "fusion_lat": 0.0, "lat": 38.902773, "type": "electric_scooter", "lon": -77.03648966666667, "bike_id": "335297954d0ce75fc88a8859c3b992ea", "rental_uris": {"android": "https://dc.lft.to/lastmile_qr_scan", "ios": "https://dc.lft.to/lastmile_qr_scan"}, "name": "335297954d0ce75fc88a8859c3b992ea", "is_reserved": 0}, {"is_disabled": 0, "fusion_lon": 0.0, "fusion_lat": 0.0, "lat": 38.93399216666667, "type": "electric_scooter", "lon": -77.02736266666666, "bike_id": "e619e81c17a645eae114516b0a21d753", "rental_uris": {"android": "https://dc.lft.to/lastmile_qr_scan", "ios": "https://dc.lft.to/lastmile_qr_scan"}, "name": "e619e81c17a645eae114516b0a21d753", "is_reserved": 0}, {"is_disabled": 0, "fusion_lon": 0.0, "fusion_lat": 0.0, "lat": 38.905823833333336, "type": "electric_scooter", "lon": -77.02380116666667, "bike_id": "9db9785ac6046d1f9a04dec0000251a2", "rental_uris": {"android": "https://dc.lft.to/lastmile_qr_scan", "ios": "https://dc.lft.to/lastmile_qr_scan"}, "name": "9db9785ac6046d1f9a04dec0000251a2", "is_reserved": 0}, {"is_disabled": 0, "fusion_lon": 0.0, "fusion_lat": 0.0, "lat": 38.9155005, "type": "electric_scooter", "lon": -77.012339, "bike_id": "41819bc1653c008ac3539a89ad3cfb9e", "rental_uris": {"android": "https://dc.lft.to/lastmile_qr_scan", "ios": "https://dc.lft.to/lastmile_qr_scan"}, "name": "41819bc1653c008ac3539a89ad3cfb9e", "is_reserved": 0}, {"is_disabled": 0, "fusion_lon": 0.0, "fusion_lat": 0.0, "lat": 38.892616, "type": "electric_scooter", "lon": -77.0319335, "bike_id": "9b1976ce1b97749669013c65e51eb37f", "rental_uris": {"android": "https://dc.lft.to/lastmile_qr_scan", "ios": "https://dc.lft.to/lastmile_qr_scan"}, "name": "9b1976ce1b97749669013c65e51eb37f", "is_reserved": 0}, {"is_disabled": 0, "fusion_lon": 0.0, "fusion_lat": 0.0, "lat": 38.84848016666667, "type": "electric_bike", "lon": -77.08042633333334, "bike_id": "01e5fcc4d41dc1a7bc13e4f3d4b8f662", "rental_uris": {"android": "https://dc.lft.to/lastmile_qr_scan", "ios": "https://dc.lft.to/lastmile_qr_scan"}, "name": "01e5fcc4d41dc1a7bc13e4f3d4b8f662", "is_reserved": 0}, {"is_disabled": 0, "fusion_lon": 0.0, "fusion_lat": 0.0, "lat": 38.921622666666664, "type": "electric_scooter", "lon": -77.03846616666667, "bike_id": "100d9393223d86f8be74ca3b99969aae", "rental_uris": {"android": "https://dc.lft.to/lastmile_qr_scan", "ios": "https://dc.lft.to/lastmile_qr_scan"}, "name": "100d9393223d86f8be74ca3b99969aae", "is_reserved": 0}, {"is_disabled": 0, "fusion_lon": 0.0, "fusion_lat": 0.0, "lat": 38.923190166666664, "type": "electric_scooter", "lon": -77.04203966666667, "bike_id": "46cb238228ce29d436d9f2a16054b3f3", "rental_uris": {"android": "https://dc.lft.to/lastmile_qr_scan", "ios": "https://dc.lft.to/lastmile_qr_scan"}, "name": "46cb238228ce29d436d9f2a16054b3f3", "is_reserved": 0}, {"is_disabled": 0, "fusion_lon": 0.0, "fusion_lat": 0.0, "lat": 38.8968135, "type": "electric_scooter", "lon": -76.94712816666667, "bike_id": "fe79963e728b3cc29d0471515ae0ac6b", "rental_uris": {"android": "https://dc.lft.to/lastmile_qr_scan", "ios": "https://dc.lft.to/lastmile_qr_scan"}, "name": "fe79963e728b3cc29d0471515ae0ac6b", "is_reserved": 0},