{"data": {"bikes": [{"name": "941998abfe9176a00acf9bfcd3baed18", "fusion_lat": 0.0, "type": "electric_scooter", "lat": 38.90339683333333, "is_reserved": 0, "is_disabled": 0, "fusion_lon": 0.0, "bike_id": "941998abfe9176a00acf9bfcd3baed18", "lon": -76.9466755, "rental_uris": {"ios": "https://dc.lft.to/lastmile_qr_scan", "android": "https://dc.lft.to/lastmile_qr_scan"}}, {"name": "2f77066e8d46b56e3010797198ef6fcb", "fusion_lat": 0.0, "type": "electric_bike", "lat": 38.94360566666667, "is_reserved": 0, "is_disabled": 0, "fusion_lon": 0.0, "bike_id": "2f77066e8d46b56e3010797198ef6fcb", "lon": -77.003452, "rental_uris": {"ios": "https://dc.lft.to/lastmile_qr_scan", "android": "https://dc.lft.to/lastmile_qr_scan"}}, {"name": "b9493639896df7df3e8489430c648848", "fusion_lat": 0.0, "type": "electric_scooter", "lat": 38.90138666666667, "is_reserved": 0, "is_disabled": 0, "fusion_lon": 0.0, "bike_id": "b9493639896df7df3e8489430c648848", "lon": -77.03973216666667, "rental_uris": {"ios": "https://dc.lft.to/lastmile_qr_scan", "android": "https://dc.lft.to/lastmile_qr_scan"}}, {"name": "be7a3fff3501c56d1fd61095e5170baa", "fusion_lat": 0.0, "type": "electric_bike", "lat": 38.992283666666665, "is_reserved": 0, "is_disabled": 0, "fusion_lon": 0.0, "bike_id": "be7a3fff3501c56d1fd61095e5170baa", "lon": -76.8782935, "rental_uris": {"ios": "https://dc.lft.to/lastmile_qr_scan", "android": "https://dc.lft.to/lastmile_qr_scan"}}, {"name": "76b328c4e101bd7d7c76f690b9d15579", "fusion_lat": 0.0, "type": "electric_scooter", "lat": 38.90737433333334, "is_reserved": 0, "is_disabled": 0, "fusion_lon": 0.0, "bike_id": "76b328c4e101bd7d7c76f690b9d15579", "lon": -77.03445666666667, "rental_uris": {"ios": "https://dc.lft.to/lastmile_qr_scan", "android": "https://dc.lft.to/lastmile_qr_scan"}}, {"name": "6dff6f7beb1cff72bf49e0d61cf38080", "fusion_lat": 0.0, "type": "electric_scooter", "lat": 38.901293333333335, "is_reserved": 0, "is_disabled": 0, "fusion_lon": 0.0, "bike_id": "6dff6f7beb1cff72bf49e0d61cf38080", "lon": -77.04509666666667, "rental_uris": {"ios": "https://dc.lft.to/lastmile_qr_scan", "android": "https://dc.lft.to/lastmile_qr_scan"}}, {"name": "c9ae86dd151e0e52a6b7b4ccf662942b", "fusion_lat": 0.0, "type": "electric_scooter", "lat": 38.90848416666667, "is_reserved": 0, "is_disabled": 0, "fusion_lon": 0.0, "bike_id": "c9ae86dd151e0e52a6b7b4ccf662942b", "lon": -77.03188883333333, "rental_uris": {"ios": "https://dc.lft.to/lastmile_qr_scan", "android": "https://dc.lft.to/lastmile_qr_scan"}}, {"name": "e2c6b4eb279cf580cac378f54979776a", "fusion_lat": 0.0, "type": "electric_scooter", "lat": 38.904687, "is_reserved": 0, "is_disabled": 0, "fusion_lon": 0.0, "bike_id": "e2c6b4eb279cf580cac378f54979776a", "lon": -76.9825085, "rental_uris": {"ios": "https://dc.lft.to/lastmile_qr_scan", "android": "https://dc.lft.to/lastmile_qr_scan"}}, {"name": "0b855d39a1a70b560a61e4ef47795f56", "fusion_lat": 0.0, "type": "electric_scooter", "lat": 38.91116733333333, "is_reserved": 0, "is_disabled": 0, "fusion_lon": 0.0, "bike_id": "0b855d39a1a70b560a61e4ef47795f56", "lon": -77.0373545, "rental_uris": {"ios": "https://dc.lft.to/lastmile_qr_scan", "android": "https://dc.lft.to/lastmile_qr_scan"}}, {"name": "a642e9599158f5efc03393f5c1037f29", "fusion_lat": 0.0, "type": "electric_scooter", "lat": 38.90640616666666, "is_reserved": 0, "is_disabled": 0, "fusion_lon": 0.0, "bike_id": "a642e9599158f5efc03393f5c1037f29", "lon": -77.053123, "rental_uris": {"ios": "https://dc.lft.to/lastmile_qr_scan", "android": "https://dc.lft.to/lastmile_qr_scan"}}, {"name": "743164272629979e31f89b2eb8b219a1", "fusion_lat": 0.0, "type": "electric_scooter", "lat": 38.919634333333335, "is_reserved": 0, "is_disabled": 0, "fusion_lon": 0.0, "bike_id": "743164272629979e31f89b2eb8b219a1", "lon": -77.03855133333333, "rental_uris": {"ios": "https://dc.lft.to/lastmile_qr_scan", "android": "https://dc.lft.to/lastmile_qr_scan"}}, {"name": "eab7d06ccac8133a2165e16c78cd9fd9", "fusion_lat": 0.0, "type": "electric_scooter", "lat": 38.91760433333334, "is_reserved": 0, "is_disabled": 0, "fusion_lon": 0.0, "bike_id": "eab7d06ccac8133a2165e16c78cd9fd9", "lon": -77.025118, "rental_uris": {"ios": "https://dc.lft.to/lastmile_qr_scan", "android": "https://dc.lft.to/lastmile_qr_scan"}}, {"name": "977a72b3e5d6a2a7fe3e838cd6f02544", "fusion_lat": 0.0, "type": "electric_scooter", "lat": 38.897301666666664, "is_reserved": 0, "is_disabled": 0, "fusion_lon": 0.0, "bike_id": "977a72b3e5d6a2a7fe3e838cd6f02544", "lon": -77.0464395, "rental_uris": {"ios": "https://dc.lft.to/lastmile_qr_scan", "android": "https://dc.lft.to/lastmile_qr_scan"}}, {"name": "f028f5c974736195d6c591c2c26258cd", "fusion_lat": 0.0, "type": "electric_scooter", "lat": 38.912497, "is_reserved": 0, "is_disabled": 0, "fusion_lon": 0.0, "bike_id": "f028f5c974736195d6c591c2c26258cd", "lon": -77.03837666666666, "rental_uris": {"ios": "https://dc.lft.to/lastmile_qr_scan", "android": "https://dc.lft.to/lastmile_qr_scan"}}, {"name": "37a8bfdc1a6bae06d9e6bbdafbb9dd7d", "fusion_lat": 0.0, "type": "electric_scooter", "lat": 38.91409316666667, "is_reserved": 0, "is_disabled": 0, "fusion_lon": 0.0, "bike_id": "37a8bfdc1a6bae06d9e6bbdafbb9dd7d", "lon": -77.0450275, "rental_uris": {"ios": "https://dc.lft.to/lastmile_qr_scan", "android": "https://dc.lft.to/lastmile_qr_scan"}}, {"name": "2b3ce122039dc23fe30e8befb4051e39", "fusion_lat": 0.0, "type": "electric_bike", "lat": 38.992374, "is_reserved": 0, "is_disabled": 0, "fusion_lon": 0.0, "bike_id": "2b3ce122039dc23fe30e8befb4051e39", "lon": -77.10011216666666, "rental_uris": {"ios": "https://dc.lft.to/lastmile_qr_scan", "android": "https://dc.lft.to/lastmile_qr_scan"}}, {"name": "249e3fdc0b29beba5b866af5db711f58", "fusion_lat": 0.0, "type": "electric_scooter", "lat": 38.9126205, "is_reserved": 0, "is_disabled": 0, "fusion_lon": 0.0, "bike_id": "249e3fdc0b29beba5b866af5db711f58", "lon": -77.03938833333333, "rental_uris": {"ios": "https://dc.lft.to/lastmile_qr_scan", "android": "https://dc.lft.to/lastmile_qr_scan"}}, {"name": "a4967d8d7d561dada3faa21e4dd5fc93", "fusion_lat": 0.0, "type": "electric_scooter", "lat": 38.917185833333335, "is_reserved": 0, "is_disabled": 0, "fusion_lon": 0.0, "bike_id": "a4967d8d7d561dada3faa21e4dd5fc93", "lon": -77.0186515, "rental_uris": {"ios": "https://dc.lft.to/lastmile_qr_scan", "android": "https://dc.lft.to/lastmile_qr_scan"}}, {"name": "41d25d10b2e27ee4b39c3d935465db7d", "fusion_lat": 0.0, "type": "electric_scooter", "lat": 38.89764133333333, "is_reserved": 0, "is_disabled": 0, "fusion_lon": 0.0, "bike_id": "41d25d10b2e27ee4b39c3d935465db7d", "lon": -77.05166016666666, "rental_uris": {"ios": "https://dc.lft.to/lastmile_qr_scan", "android": "https://dc.lft.to/lastmile_qr_scan"}}, {"name": "9bbb7ea7b1c8477e8a5b4c3cc4c6d51c", "fusion_lat": 0.0, "type": "electric_bike", "lat": 38.90297266666666, "is_reserved": 0, "is_disabled": 0, "fusion_lon": 0.0, "bike_id": "9bbb7ea7b1c8477e8a5b4c3cc4c6d51c", "lon": -76.94438533333333, "rental_uris": {"ios": "https://dc.lft.to/lastmile_qr_scan", "android": "https://dc.lft.to/lastmile_qr_scan"}}, {"name": "41508b01624c3d5f519a7eeeec1df6e7", "fusion_lat": 0.0, "type": "electric_scooter", "lat": 38.9225485, "is_reserved": 0, "is_disabled": 0, "fusion_lon": 0.0, "bike_id": "41508b01624c3d5f519a7eeeec1df6e7", "lon": -77.0304385, "rental_uris": {"ios": "https://dc.lft.to/lastmile_qr_scan", "android": "https://dc.lft.to/lastmile_qr_scan"}}, {"name": "7d3c47456dc6145a427d1a208932b405", "fusion_lat": 0.0, "type": "electric_bike", "lat": 38.93943066666667, "is_reserved": 0, "is_disabled": 0, "fusion_lon": 0.0, "bike_id": "7d3c47456dc6145a427d1a208932b405", "lon": -77.0326535, "rental_uris": {"ios": "https://dc.lft.to/lastmile_qr_scan", "android": "https://dc.lft.to/lastmile_qr_scan"}}, {"name": "b04809e5faf257d42ab3bd939927f183", "fusion_lat": 0.0, "type": "electric_scooter", "lat": 38.95778383333333, "is_reserved": 0, "is_disabled": 0, "fusion_lon": 0.0, "bike_id": "b04809e5faf257d42ab3bd939927f183", "lon": -77.02762066666666, "rental_uris": {"ios": "https://dc.lft.to/lastmile_qr_scan", "android": "https://dc.lft.to/lastmile_qr_scan"}}, {"name": "de7e1d1b262aa59fd23a9159026b7c4b", "fusion_lat": 0.0, "type": "electric_scooter", "lat": 38.9079265, "is_reserved": 0, "is_disabled": 0, "fusion_lon": 0.0, "bike_id": "de7e1d1b262aa59fd23a9159026b7c4b", "lon": -76.99697766666667, "rental_uris": {"ios": "https://dc.lft.to/lastmile_qr_scan", "android": "https://dc.lft.to/lastmile_qr_scan"}}, {"name": "83e282a8f273c7cb62bc6a9179596f04", "fusion_lat": 0.0, "type": "electric_scooter", "lat": 38.904915333333335, "is_reserved": 0, "is_disabled": 0, "fusion_lon": 0.0, "bike_id": "83e282a8f273c7cb62bc6a9179596f04", "lon": -77.01452616666667, "rental_uris": {"ios": "https://dc.lft.to/lastmile_qr_scan", "android": "https://dc.lft.to/lastmile_qr_scan"}}, {"name": "04727aeae8ae7c8862b7c036c2f0338e", "fusion_lat": 0.0, "type": "electric_bike", "lat": 38.9497315, "is_reserved": 0, "is_disabled": 0, "fusion_lon": 0.0, "bike_id": "04727aeae8ae7c8862b7c036c2f0338e", "lon": -76.972818, "rental_uris": {"ios": "https://dc.lft.to/lastmile_qr_scan", "android": "https://dc.lft.to/lastmile_qr_scan"}}, {"name": "08d2df54c2618bb0437223d00f9936cd", "fusion_lat": 0.0, "type": "electric_bike", "lat": 38.875494833333335, "is_reserved": 0, "is_disabled": 0, "fusion_lon": 0.0, "bike_id": "08d2df54c2618bb0437223d00f9936cd", "lon": -76.96757383333333, "rental_uris": {"ios": "https://dc.lft.to/lastmile_qr_scan", "android": "https://dc.lft.to/lastmile_qr_scan"}}, {"name": "bfcd2df4ac87b3bfbe4ffd3f19c419cf", "fusion_lat": 0.0, "type": "electric_scooter", "lat": 38.925132166666664, "is_reserved": 0, "is_disabled": 0, "fusion_lon": 0.0, "bike_id": "bfcd2df4ac87b3bfbe4ffd3f19c419cf", "lon": -77.00220466666667, "rental_uris": {"ios": "https://dc.lft.to/lastmile_qr_scan", "android": "https://dc.lft.to/lastmile_qr_scan"}}, {"name": "8ae30a979bc1ac4fdc0e8276136cb643", "fusion_lat": 0.0, "type": "electric_scooter", "lat": 38.912542, "is_reserved": 0, "is_disabled": 0, "fusion_lon": 0.0, "bike_id": "8ae30a979bc1ac4fdc0e8276136cb643", "lon": -77.04031, "rental_uris": {"ios": "https://dc.lft.to/lastmile_qr_scan", "android": "https://dc.lft.to/lastmile_qr_scan"}}, {"name": "510ce42ec55fa893a4c4b3c036a6fa60", "fusion_lat": 0.0, "type": "electric_scooter", "lat": 38.896828666666664, "is_reserved": 0, "is_disabled": 0, "fusion_lon": 0.0, "bike_id": "510ce42ec55fa893a4c4b3c036a6fa60", "lon": -76.996233, "rental_uris": {"ios": "https://dc.lft.to/lastmile_qr_scan", "android": "https://dc.lft.to/lastmile_qr_scan"}}, {"name": "146b7e69691aa150b8c523d7b227e22b", "fusion_lat": 0.0, "type": "electric_scooter", "lat": 38.90738416666667, "is_reserved": 0, "is_disabled": 0, "fusion_lon": 0.0, "bike_id": "146b7e69691aa150b8c523d7b227e22b", "lon": -77.04666566666667, "rental_uris": {"ios": "https://dc.lft.to/lastmile_qr_scan", "android": "https://dc.lft.to/lastmile_qr_scan"}}, {"name": "f4113edaade71a5f599be211f1fbfd0e", "fusion_lat": 0.0, "type": "electric_scooter", "lat": 38.90036383333333, "is_reserved": 0, "is_disabled": 0, "fusion_lon": 0.0, "bike_id": "f4113edaade71a5f599be211f1fbfd0e", "lon": -77.0063685, "rental_uris": {"ios": "https://dc.lft.to/lastmile_qr_scan", "android": "https://dc.lft.to/lastmile_qr_scan"}}, {"name": "c201eb5770f273012f3dd65d9c1bd4f2", "fusion_lat": 0.0, "type": "electric_scooter", "lat": 38.91836983333334, "is_reserved": 0, "is_disabled": 0, "fusion_lon": 0.0, "bike_id": "c201eb5770f273012f3dd65d9c1bd4f2", "lon": -77.03644033333333, "rental_uris": {"ios": "https://dc.lft.to/lastmile_qr_scan", "android": "https://dc.lft.to/lastmile_qr_scan"}}, {"name": "f7f9c1c07919b56ccee39b4cf7095b47", "fusion_lat": 0.0, "type": "electric_scooter", "lat": 38.9086495, "is_reserved": 0, "is_disabled": 0, "fusion_lon": 0.0, "bike_id": "f7f9c1c07919b56ccee39b4cf7095b47", "lon": -77.0032615, "rental_uris": {"ios": "https://dc.lft.to/lastmile_qr_scan", "android": "https://dc.lft.to/lastmile_qr_scan"}}, {"name": "d54717f22d8a22f03a3c9e4d152a818f", "fusion_lat": 0.0, "type": "electric_scooter", "lat": 38.895138333333335, "is_reserved": 0, "is_disabled": 0, "fusion_lon": 0.0, "bike_id": "d54717f22d8a22f03a3c9e4d152a818f", "lon": -77.011343, "rental_uris": {"ios": "https://dc.lft.to/lastmile_qr_scan", "android": "https://dc.lft.to/lastmile_qr_scan"}}, {"name": "edd9a632d40d5f28e6ce1d9a2744deaf", "fusion_lat": 0.0, "type": "electric_scooter", "lat": 38.9127255, "is_reserved": 0, "is_disabled": 0, "fusion_lon": 0.0, "bike_id": "edd9a632d40d5f28e6ce1d9a2744deaf", "lon": -77.04500866666666, "rental_uris": {"ios": "https://dc.lft.to/lastmile_qr_scan", "android": "https://dc.lft.to/lastmile_qr_scan"}}, {"name": "18e7eb12261bf700e5ff83b673045f8a", "fusion_lat": 0.0, "type": "electric_scooter", "lat": 38.896128, "is_reserved": 0, "is_disabled": 0, "fusion_lon": 0.0, "bike_id": "18e7eb12261bf700e5ff83b673045f8a", "lon": -77.0446255, "rental_uris": {"ios": "https://dc.lft.to/lastmile_qr_scan", "android": "https://dc.lft.to/lastmile_qr_scan"}}, {"name": "cb0aaf58622481c9640c5292e3b04955", "fusion_lat": 0.0, "type": "electric_scooter", "lat": 38.928514666666665, "is_reserved": 0, "is_disabled": 0, "fusion_lon": 0.0, "bike_id": "cb0aaf58622481c9640c5292e3b04955", "lon": -77.02733833333333, "rental_uris": {"ios": "https://dc.lft.to/lastmile_qr_scan", "android": "https://dc.lft.to/lastmile_qr_scan"}}, {"name": "8fd611b99e882431b90c9e7d0b40f21f", "fusion_lat": 0.0, "type": "electric_scooter", "lat": 38.919260666666666, "is_reserved": 0, "is_disabled": 0, "fusion_lon": 0.0, "bike_id": "8fd611b99e882431b90c9e7d0b40f21f", "lon": -77.03426783333333, "rental_uris": {"ios": "https://dc.lft.to/lastmile_qr_scan", "android": "https://dc.lft.to/lastmile_qr_scan"}}, {"name": "280d1b4492f639c98e1f4c3478b4fca2", "fusion_lat": 0.0, "type": "electric_scooter", "lat": 38.906833666666664, "is_reserved": 0, "is_disabled": 0, "fusion_lon": 0.0, "bike_id": "280d1b4492f639c98e1f4c3478b4fca2", "lon": -77.0464985, "rental_uris": {"ios": "https://dc.lft.to/lastmile_qr_scan", "android": "https://dc.lft.to/lastmile_qr_scan"}}, {"name": "b826e1b31b31995c6bdb3c4c3fa2ec35", "fusion_lat": 0.0, "type": "electric_scooter", "lat": 38.901978166666666, "is_reserved": 0, "is_disabled": 0, "fusion_lon": 0.0, "bike_id": "b826e1b31b31995c6bdb3c4c3fa2ec35", "lon": -76.9821085, "rental_uris": {"ios": "https://dc.lft.to/lastmile_qr_scan", "android": "https://dc.lft.to/lastmile_qr_scan"}}, {"name": "ab80d4bb3a61423d46cb1481e2f3a25b", "fusion_lat": 0.0, "type": "electric_scooter", "lat": 38.91766416666667, "is_reserved": 0, "is_disabled": 0, "fusion_lon": 0.0, "bike_id": "ab80d4bb3a61423d46cb1481e2f3a25b", "lon": -77.09675033333333, "rental_uris": {"ios": "https://dc.lft.to/lastmile_qr_scan", "android": "https://dc.lft.to/lastmile_qr_scan"}}, {"name": "7c6dc690d94041f38f623bca3dff5ed2", "fusion_lat": 0.0, "type": "electric_scooter", "lat": 38.909605666666664, "is_reserved": 0, "is_disabled": 0, "fusion_lon": 0.0, "bike_id": "7c6dc690d94041f38f623bca3dff5ed2", "lon": -77.02743916666667, "rental_uris": {"ios": "https://dc.lft.to/lastmile_qr_scan", "android": "https://dc.lft.to/lastmile_qr_scan"}}, {"name": "ea5f57ce4a9457f328ccb0ad7bc14a35", "fusion_lat": 0.0, "type": "electric_scooter", "lat": 38.9251605, "is_reserved": 0, "is_disabled": 0, "fusion_lon": 0.0, "bike_id": "ea5f57ce4a9457f328ccb0ad7bc14a35", "lon": -77.03323716666667, "rental_uris": {"ios": "https://dc.lft.to/lastmile_qr_scan", "android": "https://dc.lft.to/lastmile_qr_scan"}}, {"name": "c470b8c3124b9768a0c467c6344d3ed6", "fusion_lat": 0.0, "type": "electric_scooter", "lat": 38.866567333333336, "is_reserved": 0, "is_disabled": 0, "fusion_lon": 0.0, "bike_id": "c470b8c3124b9768a0c467c6344d3ed6", "lon": -76.98883116666667, "rental_uris": {"ios": "https://dc.lft.to/lastmile_qr_scan", "android": "https://dc.lft.to/lastmile_qr_scan"}}, {"name": "d9af64cf4f192cc218c791a6b93c2de6", "fusion_lat": 0.0, "type": "electric_scooter", "lat": 38.9192525, "is_reserved": 0, "is_disabled": 0, "fusion_lon": 0.0, "bike_id": "d9af64cf4f192cc218c791a6b93c2de6", "lon": -77.0415945, "rental_uris": {"ios": "https://dc.lft.to/lastmile_qr_scan", "android": "https://dc.lft.to/lastmile_qr_scan"}}, {"name": "2a04d1ffcf3519d272bd87d7049fd808", "fusion_lat": 0.0, "type": "electric_scooter", "lat": 38.92468866666667, "is_reserved": 0, "is_disabled": 0, "fusion_lon": 0.0, "bike_id": "2a04d1ffcf3519d272bd87d7049fd808", "lon": -77.02896, "rental_uris": {"ios": "https://dc.lft.to/lastmile_qr_scan", "android": "https://dc.lft.to/lastmile_qr_scan"}}, {"name": "5b6b6b6dc5621f7feb28167f81f40c5b", "fusion_lat": 0.0, "type": "electric_scooter", "lat": 38.91107483333333, "is_reserved": 0, "is_disabled": 0, "fusion_lon": 0.0, "bike_id": "5b6b6b6dc5621f7feb28167f81f40c5b", "lon": -77.0246555, "rental_uris": {"ios": "https://dc.lft.to/lastmile_qr_scan", "android": "https://dc.lft.to/lastmile_qr_scan"}}, {"name": "895d6d3da94895066943a63eac2fcd78", "fusion_lat": 0.0, "type": "electric_scooter", "lat": 38.8837385, "is_reserved": 0, "is_disabled": 0, "fusion_lon": 0.0, "bike_id": "895d6d3da94895066943a63eac2fcd78", "lon": -76.92373433333333, "rental_uris": {"ios": "https://dc.lft.to/lastmile_qr_scan", "android": "https://dc.lft.to/lastmile_qr_scan"}}, {"name": "d84ee77ee116b1533169bc0bcfc7fdd4", "fusion_lat": 0.0, "type": "electric_scooter", "lat": 38.92359366666667, "is_reserved": 0, "is_disabled": 0, "fusion_lon": 0.0, "bike_id": "d84ee77ee116b1533169bc0bcfc7fdd4", "lon": -77.0584165, "rental_uris": {"ios": "https://dc.lft.to/lastmile_qr_scan", "android": "https://dc.lft.to/lastmile_qr_scan"}}, {"name": "d185dc7c6820289554a23ceb4192f28f", "fusion_lat": 0.0, "type": "electric_scooter", "lat": 38.92513983333333, "is_reserved": 0, "is_disabled": 0, "fusion_lon": 0.0, "bike_id": "d185dc7c6820289554a23ceb4192f28f", "lon": -77.00175283333333, "rental_uris": {"ios": "https://dc.lft.to/lastmile_qr_scan", "android": "https://dc.lft.to/lastmile_qr_scan"}}, {"name": "87cbb9b7d2a80dabd4e5c04a43a0fa15", "fusion_lat": 0.0, "type": "electric_scooter", "lat": 38.91684566666667, "is_reserved": 0, "is_disabled": 0, "fusion_lon": 0.0, "bike_id": "87cbb9b7d2a80dabd4e5c04a43a0fa15", "lon": -77.03169233333334, "rental_uris": {"ios": "https://dc.lft.to/lastmile_qr_scan", "android": "https://dc.lft.to/lastmile_qr_scan"}}, {"name": "d85599af41ce109fbcddef3f4e372874", "fusion_lat": 0.0, "type": "electric_scooter", "lat": 38.9141885, "is_reserved": 0, "is_disabled": 0, "fusion_lon": 0.0, "bike_id": "d85599af41ce109fbcddef3f4e372874", "lon": -77.02805683333334, "rental_uris": {"ios": "https://dc.lft.to/lastmile_qr_scan", "android": "https://dc.lft.to/lastmile_qr_scan"}}, {"name": "1a00aaeb3f4281b420ee81c491ba32e2", "fusion_lat": 0.0, "type": "electric_scooter", "lat": 38.92491416666667, "is_reserved": 0, "is_disabled": 0, "fusion_lon": 0.0, "bike_id": "1a00aaeb3f4281b420ee81c491ba32e2", "lon": -77.02710516666667, "rental_uris": {"ios": "https://dc.lft.to/lastmile_qr_scan", "android": "https://dc.lft.to/lastmile_qr_scan"}}, {"name": "cc8f9a5c1f17813bf604415d385390b5", "fusion_lat": 0.0, "type": "electric_scooter", "lat": 38.88221383333333, "is_reserved": 0, "is_disabled": 0, "fusion_lon": 0.0, "bike_id": "cc8f9a5c1f17813bf604415d385390b5", "lon": -76.94173683333334, "rental_uris": {"ios": "https://dc.lft.to/lastmile_qr_scan", "android": "https://dc.lft.to/lastmile_qr_scan"}}, {"name": "a2c8306eb7fc84ec63ac75078ff0b109", "fusion_lat": 0.0, "type": "electric_scooter", "lat": 38.91624216666666, "is_reserved": 0, "is_disabled": 0, "fusion_lon": 0.0, "bike_id": "a2c8306eb7fc84ec63ac75078ff0b109", "lon": -77.03595783333333, "rental_uris": {"ios": "https://dc.lft.to/lastmile_qr_scan", "android": "https://dc.lft.to/lastmile_qr_scan"}}, {"name": "655c33b0929aef32cbe90bb7db82a3f2", "fusion_lat": 0.0, "type": "electric_scooter", "lat": 38.9207595, "is_reserved": 0, "is_disabled": 0, "fusion_lon": 0.0, "bike_id": "655c33b0929aef32cbe90bb7db82a3f2", "lon": -77.023937, "rental_uris": {"ios": "https://dc.lft.to/lastmile_qr_scan", "android": "https://dc.lft.to/lastmile_qr_scan"}}, {"name": "ea01d286e4baf8026e52f54e3f30f154", "fusion_lat": 0.0, "type": "electric_scooter", "lat": 38.932630833333334, "is_reserved": 0, "is_disabled": 0, "fusion_lon": 0.0, "bike_id": "ea01d286e4baf8026e52f54e3f30f154", "lon": -77.0326035, "rental_uris": {"ios": "https://dc.lft.to/lastmile_qr_scan", "android": "https://dc.lft.to/lastmile_qr_scan"}}, {"name": "99038ad8fd64500b516b511c8dbb625c", "fusion_lat": 0.0, "type": "electric_scooter", "lat": 38.91248266666667, "is_reserved": 0, "is_disabled": 0, "fusion_lon": 0.0, "bike_id": "99038ad8fd64500b516b511c8dbb625c", "lon": -77.04764616666667, "rental_uris": {"ios": "https://dc.lft.to/lastmile_qr_scan", "android": "https://dc.lft.to/lastmile_qr_scan"}}, {"name": "b2b81ce80d45d8f40f25c230a3bf93b7", "fusion_lat": 0.0, "type": "electric_scooter", "lat": 38.911264333333335, "is_reserved": 0, "is_disabled": 0, "fusion_lon": 0.0, "bike_id": "b2b81ce80d45d8f40f25c230a3bf93b7", "lon": -77.03183683333333, "rental_uris": {"ios": "https://dc.lft.to/lastmile_qr_scan", "android": "https://dc.lft.to/lastmile_qr_scan"}}, {"name": "fde5cd4d81b8c5e9a8530705ef3b50f1", "fusion_lat": 0.0, "type": "electric_scooter", "lat": 38.90858816666667, "is_reserved": 0, "is_disabled": 0, "fusion_lon": 0.0, "bike_id": "fde5cd4d81b8c5e9a8530705ef3b50f1", "lon": -77.03481416666666, "rental_uris": {"ios": "https://dc.lft.to/lastmile_qr_scan", "android": "https://dc.lft.to/lastmile_qr_scan"}}, {"name": "409ac95538afd05d918cb482b398db97", "fusion_lat": 0.0, "type": "electric_scooter", "lat": 38.9033245, "is_reserved": 0, "is_disabled": 0, "fusion_lon": 0.0, "bike_id": "409ac95538afd05d918cb482b398db97", "lon": -76.98972783333333, "rental_uris": {"ios": "https://dc.lft.to/lastmile_qr_scan", "android": "https://dc.lft.to/lastmile_qr_scan"}}, {"name": "563781fbc80b3b934d1f59a2027f5534", "fusion_lat": 0.0, "type": "electric_scooter", "lat": 38.92929016666667, "is_reserved": 0, "is_disabled": 0, "fusion_lon": 0.0, "bike_id": "563781fbc80b3b934d1f59a2027f5534", "lon": -77.02338883333333, "rental_uris": {"ios": "https://dc.lft.to/lastmile_qr_scan", "android": "https://dc.lft.to/lastmile_qr_scan"}}, {"name": "3daa3672392edcd32e2b9df0cbbe8a65", "fusion_lat": 0.0, "type": "electric_scooter", "lat": 38.881506, "is_reserved": 0, "is_disabled": 0, "fusion_lon": 0.0, "bike_id": "3daa3672392edcd32e2b9df0cbbe8a65", "lon": -77.01287066666667, "rental_uris": {"ios": "https://dc.lft.to/lastmile_qr_scan", "android": "https://dc.lft.to/lastmile_qr_scan"}}, {"name": "32cd4da30d49941876fed0789a58cd3e", "fusion_lat": 0.0, "type": "electric_scooter", "lat": 38.924670666666664, "is_reserved": 0, "is_disabled": 0, "fusion_lon": 0.0, "bike_id": "32cd4da30d49941876fed0789a58cd3e", "lon": -77.03057533333333, "rental_uris": {"ios": "https://dc.lft.to/lastmile_qr_scan", "android": "https://dc.lft.to/lastmile_qr_scan"}}, {"name": "01ebaa54d452956b4a2da0a3bc324054", "fusion_lat": 0.0, "type": "electric_scooter", "lat": 38.917168833333335, "is_reserved": 0, "is_disabled": 0, "fusion_lon": 0.0, "bike_id": "01ebaa54d452956b4a2da0a3bc324054", "lon": -77.03662783333333, "rental_uris": {"ios": "https://dc.lft.to/lastmile_qr_scan", "android": "https://dc.lft.to/lastmile_qr_scan"}}, {"name": "88abc4c7ff31aada9265218ba87b0c86", "fusion_lat": 0.0, "type": "electric_scooter", "lat": 38.909222666666665, "is_reserved": 0, "is_disabled": 0, "fusion_lon": 0.0, "bike_id": "88abc4c7ff31aada9265218ba87b0c86", "lon": -77.0415685, "rental_uris": {"ios": "https://dc.lft.to/lastmile_qr_scan", "android": "https://dc.lft.to/lastmile_qr_scan"}}, {"name": "7ce9d3a8417a0db69bdd491a31e4e013", "fusion_lat": 0.0, "type": "electric_scooter", "lat": 38.90864416666667, "is_reserved": 0, "is_disabled": 0, "fusion_lon": 0.0, "bike_id": "7ce9d3a8417a0db69bdd491a31e4e013", "lon": -77.0271305, "rental_uris": {"ios": "https://dc.lft.to/lastmile_qr_scan", "android": "https://dc.lft.to/lastmile_qr_scan"}}, {"name": "4372852368508043c934d321ba6ba741", "fusion_lat": 0.0, "type": "electric_bike", "lat": 38.9909035, "is_reserved": 0, "is_disabled": 0, "fusion_lon": 0.0, "bike_id": "4372852368508043c934d321ba6ba741", "lon": -76.87497966666666, "rental_uris": {"ios": "https://dc.lft.to/lastmile_qr_scan", "android": "https://dc.lft.to/lastmile_qr_scan"}}, {"name": "a926cce8b6ab59aa6abe0e5c13d28c40", "fusion_lat": 0.0, "type": "electric_scooter", "lat": 38.916858166666664, "is_reserved": 0, "is_disabled": 0, "fusion_lon": 0.0, "bike_id": "a926cce8b6ab59aa6abe0e5c13d28c40", "lon": -77.0390185, "rental_uris": {"ios": "https://dc.lft.to/lastmile_qr_scan", "android": "https://dc.lft.to/lastmile_qr_scan"}}, {"name": "4a39de9ada707dbadbf3aa993aa83efa", "fusion_lat": 0.0, "type": "electric_scooter", "lat": 38.90284033333333, "is_reserved": 0, "is_disabled": 0, "fusion_lon": 0.0, "bike_id": "4a39de9ada707dbadbf3aa993aa83efa", "lon": -77.03852116666667, "rental_uris": {"ios": "https://dc.lft.to/lastmile_qr_scan", "android": "https://dc.lft.to/lastmile_qr_scan"}}, {"name": "286fe390c20ffe59f3d06278f9f084e1", "fusion_lat": 0.0, "type": "electric_scooter", "lat": 38.89986583333334, "is_reserved": 0, "is_disabled": 0, "fusion_lon": 0.0, "bike_id": "286fe390c20ffe59f3d06278f9f084e1", "lon": -77.02719116666667, "rental_uris": {"ios": "https://dc.lft.to/lastmile_qr_scan", "android": "https://dc.lft.to/lastmile_qr_scan"}}, {"name": "7c494ede5b12121a51ba77d2ae154e6b", "fusion_lat": 0.0, "type": "electric_scooter", "lat": 38.921208666666665, "is_reserved": 0, "is_disabled": 0, "fusion_lon": 0.0, "bike_id": "7c494ede5b12121a51ba77d2ae154e6b", "lon": -77.0366375, "rental_uris": {"ios": "https://dc.lft.to/lastmile_qr_scan", "android": "https://dc.lft.to/lastmile_qr_scan"}}, {"name": "1bcf44c0402c25dea244f1a9f9d5e820", "fusion_lat": 0.0, "type": "electric_bike", "lat": 38.90532733333333, "is_reserved": 0, "is_disabled": 0, "fusion_lon": 0.0, "bike_id": "1bcf44c0402c25dea244f1a9f9d5e820", "lon": -76.99807283333334, "rental_uris": {"ios": "https://dc.lft.to/lastmile_qr_scan", "android": "https://dc.lft.to/lastmile_qr_scan"}}, {"name": "557ae4d17ebc6e88193950b606269b9b", "fusion_lat": 0.0, "type": "electric_scooter", "lat": 38.914077, "is_reserved": 0, "is_disabled": 0, "fusion_lon": 0.0, "bike_id": "557ae4d17ebc6e88193950b606269b9b", "lon": -77.03908766666666, "rental_uris": {"ios": "https://dc.lft.to/lastmile_qr_scan", "android": "https://dc.lft.to/lastmile_qr_scan"}}, {"name": "d2082f2bc4d8933ecdc6777982b3589f", "fusion_lat": 0.0, "type": "electric_scooter", "lat": 38.91819733333333, "is_reserved": 0, "is_disabled": 0, "fusion_lon": 0.0, "bike_id": "d2082f2bc4d8933ecdc6777982b3589f", "lon": -77.0279395, "rental_uris": {"ios": "https://dc.lft.to/lastmile_qr_scan", "android": "https://dc.lft.to/lastmile_qr_scan"}}, {"name": "46d623b22e4e23ee8094c74a4c5171ba", "fusion_lat": 0.0, "type": "electric_scooter", "lat": 38.90117333333333, "is_reserved": 0, "is_disabled": 0, "fusion_lon": 0.0, "bike_id": "46d623b22e4e23ee8094c74a4c5171ba", "lon": -77.02722933333334, "rental_uris": {"ios": "https://dc.lft.to/lastmile_qr_scan", "android": "https://dc.lft.to/lastmile_qr_scan"}}, {"name": "d5747bf39335c716944fec548a80cf3a", "fusion_lat": 0.0, "type": "electric_scooter", "lat": 38.89220233333333, "is_reserved": 0, "is_disabled": 0, "fusion_lon": 0.0, "bike_id": "d5747bf39335c716944fec548a80cf3a", "lon": -77.02228483333333, "rental_uris": {"ios": "https://dc.lft.to/lastmile_qr_scan", "android": "https://dc.lft.to/lastmile_qr_scan"}}, {"name": "8b17fc5c9d251150fd19f58bf64c05af", "fusion_lat": 0.0, "type": "electric_scooter", "lat": 38.927256, "is_reserved": 0, "is_disabled": 0, "fusion_lon": 0.0, "bike_id": "8b17fc5c9d251150fd19f58bf64c05af", "lon": -77.00568333333334, "rental_uris": {"ios": "https://dc.lft.to/lastmile_qr_scan", "android": "https://dc.lft.to/lastmile_qr_scan"}}, {"name": "a936df02f1f5292c810f899407477a18", "fusion_lat": 0.0, "type": "electric_bike", "lat": 38.87530533333333, "is_reserved": 0, "is_disabled": 0, "fusion_lon": 0.0, "bike_id": "a936df02f1f5292c810f899407477a18", "lon": -77.19908166666667, "rental_uris": {"ios": "https://dc.lft.to/lastmile_qr_scan", "android": "https://dc.lft.to/lastmile_qr_scan"}}, {"name": "2f85013ac86de4a555462307a406e646", "fusion_lat": 0.0, "type": "electric_scooter", "lat": 38.92375766666667, "is_reserved": 0, "is_disabled": 0, "fusion_lon": 0.0, "bike_id": "2f85013ac86de4a555462307a406e646", "lon": -77.029881, "rental_uris": {"ios": "https://dc.lft.to/lastmile_qr_scan", "android": "https://dc.lft.to/lastmile_qr_scan"}}, {"name": "1fccbc5aa2edff25b81bdaaa6e4f13dc", "fusion_lat": 0.0, "type": "electric_scooter", "lat": 38.9097705, "is_reserved": 0, "is_disabled": 0, "fusion_lon": 0.0, "bike_id": "1fccbc5aa2edff25b81bdaaa6e4f13dc", "lon": -77.046264, "rental_uris": {"ios": "https://dc.lft.to/lastmile_qr_scan", "android": "https://dc.lft.to/lastmile_qr_scan"}}, {"name": "1f8d79e01b600f309dcc0a99a0f45fb8", "fusion_lat": 0.0, "type": "electric_bike", "lat": 38.857913, "is_reserved": 0, "is_disabled": 0, "fusion_lon": 0.0, "bike_id": "1f8d79e01b600f309dcc0a99a0f45fb8", "lon": -77.099644, "rental_uris": {"ios": "https://dc.lft.to/lastmile_qr_scan", "android": "https://dc.lft.to/lastmile_qr_scan"}}, {"name": "77d5d0616e02bf9e5fd7e199707db571", "fusion_lat": 0.0, "type": "electric_bike", "lat": 38.89609566666667, "is_reserved": 0, "is_disabled": 0, "fusion_lon": 0.0, "bike_id": "77d5d0616e02bf9e5fd7e199707db571", "lon": -76.99285866666666, "rental_uris": {"ios": "https://dc.lft.to/lastmile_qr_scan", "android": "https://dc.lft.to/lastmile_qr_scan"}}, {"name": "6cced9f39eddffc1df6769749a8a1c6c", "fusion_lat": 0.0, "type": "electric_bike", "lat": 38.827868, "is_reserved": 0, "is_disabled": 0, "fusion_lon": 0.0, "bike_id": "6cced9f39eddffc1df6769749a8a1c6c", "lon": -77.0090055, "rental_uris": {"ios": "https://dc.lft.to/lastmile_qr_scan", "android": "https://dc.lft.to/lastmile_qr_scan"}}, {"name": "265ef41f6dc6595ca8b22b069a67050c", "fusion_lat": 0.0, "type": "electric_bike", "lat": 39.094627333333335, "is_reserved": 0, "is_disabled": 0, "fusion_lon": 0.0, "bike_id": "265ef41f6dc6595ca8b22b069a67050c", "lon": -77.14996866666667, "rental_uris": {"ios": "https://dc.lft.to/lastmile_qr_scan", "android": "https://dc.lft.to/lastmile_qr_scan"}}, {"name": "1a2863e72b0f11bbe3fa73f2df9258c1", "fusion_lat": 0.0, "type": "electric_scooter", "lat": 38.89903966666667, "is_reserved": 0, "is_disabled": 0, "fusion_lon": 0.0, "bike_id": "1a2863e72b0f11bbe3fa73f2df9258c1", "lon": -76.93374666666666, "rental_uris": {"ios": "https://dc.lft.to/lastmile_qr_scan", "android": "https://dc.lft.to/lastmile_qr_scan"}}, {"name": "f3b67391da3a422125e7beba8ca67cf5", "fusion_lat": 0.0, "type": "electric_scooter", "lat": 38.900049333333335, "is_reserved": 0, "is_disabled": 0, "fusion_lon": 0.0, "bike_id": "f3b67391da3a422125e7beba8ca67cf5", "lon": -77.01122133333334, "rental_uris": {"ios": "https://dc.lft.to/lastmile_qr_scan", "android": "https://dc.lft.to/lastmile_qr_scan"}}, {"name": "0b0bf85a79d7fde20d626e1d50aa287d", "fusion_lat": 0.0, "type": "electric_scooter", "lat": 38.900433, "is_reserved": 0, "is_disabled": 0, "fusion_lon": 0.0, "bike_id": "0b0bf85a79d7fde20d626e1d50aa287d", "lon": -76.98835, "rental_uris": {"ios": "https://dc.lft.to/lastmile_qr_scan", "android": "https://dc.lft.to/lastmile_qr_scan"}}, {"name": "95ccf249bea648863b28f08a1bb89b8a", "fusion_lat": 0.0, "type": "electric_scooter", "lat": 38.932576, "is_reserved": 0, "is_disabled": 0, "fusion_lon": 0.0, "bike_id": "95ccf249bea648863b28f08a1bb89b8a", "lon": -77.04005116666667, "rental_uris": {"ios": "https://dc.lft.to/lastmile_qr_scan", "android": "https://dc.lft.to/lastmile_qr_scan"}}, {"name": "0ddabd3ed8b74b7b68be4123f39775cd", "fusion_lat": 0.0, "type": "electric_scooter", "lat": 38.917218, "is_reserved": 0, "is_disabled": 0, "fusion_lon": 0.0, "bike_id": "0ddabd3ed8b74b7b68be4123f39775cd", "lon": -77.03844933333333, "rental_uris": {"ios": "https://dc.lft.to/lastmile_qr_scan", "android": "https://dc.lft.to/lastmile_qr_scan"}}, {"name": "33289d0058aabdd721f7df313169ec13", "fusion_lat": 0.0, "type": "electric_scooter", "lat": 38.916935333333335, "is_reserved": 0, "is_disabled": 0, "fusion_lon": 0.0, "bike_id": "33289d0058aabdd721f7df313169ec13", "lon": -77.02437033333334, "rental_uris": {"ios": "https://dc.lft.to/lastmile_qr_scan", "android": "https://dc.lft.to/lastmile_qr_scan"}}, {"name": "6c49aaabcb0e57ea837bb07b476b030a", "fusion_lat": 0.0, "type": "electric_scooter", "lat": 38.9166045, "is_reserved": 0, "is_disabled": 0, "fusion_lon": 0.0, "bike_id": "6c49aaabcb0e57ea837bb07b476b030a", "lon": -77.0257005, "rental_uris": {"ios": "https://dc.lft.to/lastmile_qr_scan", "android": "https://dc.lft.to/lastmile_qr_scan"}}, {"name": "30a24ca22305003e413c6b0976834727", "fusion_lat": 0.0, "type": "electric_scooter", "lat": 38.91119966666667, "is_reserved": 0, "is_disabled": 0, "fusion_lon": 0.0, "bike_id": "30a24ca22305003e413c6b0976834727", "lon": -77.03304683333333, "rental_uris": {"ios": "https://dc.lft.to/lastmile_qr_scan", "android": "https://dc.lft.to/lastmile_qr_scan"}}, {"name": "c33ddfc3c794201e6462b208bcf1d073", "fusion_lat": 0.0, "type": "electric_scooter", "lat": 38.89993, "is_reserved": 0, "is_disabled": 0, "fusion_lon": 0.0, "bike_id": "c33ddfc3c794201e6462b208bcf1d073", "lon": -77.0329505, "rental_uris": {"ios": "https://dc.lft.to/lastmile_qr_scan", "android": "https://dc.lft.to/lastmile_qr_scan"}}, {"name": "46cc90f04949d908a28082b00cddd71a", "fusion_lat": 0.0, "type": "electric_scooter", "lat": 38.86661983333333, "is_reserved": 0, "is_disabled": 0, "fusion_lon": 0.0, "bike_id": "46cc90f04949d908a28082b00cddd71a", "lon": -76.98885866666667, "rental_uris": {"ios": "https://dc.lft.to/lastmile_qr_scan", "android": "https://dc.lft.to/lastmile_qr_scan"}}, {"name": "6ae5966ef557ce2df10fa26bdc7fc5fe", "fusion_lat": 0.0, "type": "electric_scooter", "lat": 38.924839, "is_reserved": 0, "is_disabled": 0, "fusion_lon": 0.0, "bike_id": "6ae5966ef557ce2df10fa26bdc7fc5fe", "lon": -77.02897416666667, "rental_uris": {"ios": "https://dc.lft.to/lastmile_qr_scan", "android": "https://dc.lft.to/lastmile_qr_scan"}}, {"name": "45d7a697107dd9ba072d95e2f2e9df34", "fusion_lat": 0.0, "type": "electric_scooter", "lat": 38.906093166666665, "is_reserved": 0, "is_disabled": 0, "fusion_lon": 0.0, "bike_id": "45d7a697107dd9ba072d95e2f2e9df34", "lon": -77.04659766666667, "rental_uris": {"ios": "https://dc.lft.to/lastmile_qr_scan", "android": "https://dc.lft.to/lastmile_qr_scan"}}, {"name": "a2712aca4834bdc194a622f3b98f0dc8", "fusion_lat": 0.0, "type": "electric_bike", "lat": 38.9568905, "is_reserved": 0, "is_disabled": 0, "fusion_lon": 0.0, "bike_id": "a2712aca4834bdc194a622f3b98f0dc8", "lon": -77.022256, "rental_uris": {"ios": "https://dc.lft.to/lastmile_qr_scan", "android": "https://dc.lft.to/lastmile_qr_scan"}}, {"name": "3e53c0d8284491e0b7637df289917827", "fusion_lat": 0.0, "type": "electric_scooter", "lat": 38.886102, "is_reserved": 0, "is_disabled": 0, "fusion_lon": 0.0, "bike_id": "3e53c0d8284491e0b7637df289917827", "lon": -77.01981166666667, "rental_uris": {"ios": "https://dc.lft.to/lastmile_qr_scan", "android": "https://dc.lft.to/lastmile_qr_scan"}}, {"name": "4b8bc35efb739f0c3cd1519a74c96ae6", "fusion_lat": 0.0, "type": "electric_scooter", "lat": 38.9113425, "is_reserved": 0, "is_disabled": 0, "fusion_lon": 0.0, "bike_id": "4b8bc35efb739f0c3cd1519a74c96ae6", "lon": -77.02198233333333, "rental_uris": {"ios": "https://dc.lft.to/lastmile_qr_scan", "android": "https://dc.lft.to/lastmile_qr_scan"}}, {"name": "6e9bfc5800716f6c570a9e7fa448d36e", "fusion_lat": 0.0, "type": "electric_scooter", "lat": 38.92066, "is_reserved": 0, "is_disabled": 0, "fusion_lon": 0.0, "bike_id": "6e9bfc5800716f6c570a9e7fa448d36e", "lon": -77.04250416666666, "rental_uris": {"ios": "https://dc.lft.to/lastmile_qr_scan", "android": "https://dc.lft.to/lastmile_qr_scan"}}, {"name": "7d8220bca2fede847e1ff3cfe3ff7923", "fusion_lat": 0.0, "type": "electric_scooter", "lat": 38.917094, "is_reserved": 0, "is_disabled": 0, "fusion_lon": 0.0, "bike_id": "7d8220bca2fede847e1ff3cfe3ff7923", "lon": -77.03353283333334, "rental_uris": {"ios": "https://dc.lft.to/lastmile_qr_scan", "android": "https://dc.lft.to/lastmile_qr_scan"}}, {"name": "306fd8ea2a172be5c4d8ed9fdf6e753a", "fusion_lat": 0.0, "type": "electric_scooter", "lat": 38.90521416666667, "is_reserved": 0, "is_disabled": 0, "fusion_lon": 0.0, "bike_id": "306fd8ea2a172be5c4d8ed9fdf6e753a", "lon": -77.06628583333334, "rental_uris": {"ios": "https://dc.lft.to/lastmile_qr_scan", "android": "https://dc.lft.to/lastmile_qr_scan"}}, {"name": "182b41b7c7ff649267bce40b0ac66395", "fusion_lat": 0.0, "type": "electric_scooter", "lat": 38.910124833333334, "is_reserved": 0, "is_disabled": 0, "fusion_lon": 0.0, "bike_id": "182b41b7c7ff649267bce40b0ac66395", "lon": -76.9939035, "rental_uris": {"ios": "https://dc.lft.to/lastmile_qr_scan", "android": "https://dc.lft.to/lastmile_qr_scan"}}, {"name": "a2ed56d98c03dce5ed51e869d3ebb8aa", "fusion_lat": 0.0, "type": "electric_bike", "lat": 38.874759166666664, "is_reserved": 0, "is_disabled": 0, "fusion_lon": 0.0, "bike_id": "a2ed56d98c03dce5ed51e869d3ebb8aa", "lon": -76.96532283333333, "rental_uris": {"ios": "https://dc.lft.to/lastmile_qr_scan", "android": "https://dc.lft.to/lastmile_qr_scan"}}, {"name": "b2a6685091258655757d4ace3a7adaa0", "fusion_lat": 0.0, "type": "electric_bike", "lat": 38.9427325, "is_reserved": 0, "is_disabled": 0, "fusion_lon": 0.0, "bike_id": "b2a6685091258655757d4ace3a7adaa0", "lon": -76.98070433333334, "rental_uris": {"ios": "https://dc.lft.to/lastmile_qr_scan", "android": "https://dc.lft.to/lastmile_qr_scan"}}, {"name": "01d8034e06e7b56bf2f25ff4546a9f35", "fusion_lat": 0.0, "type": "electric_scooter", "lat": 38.89614566666667, "is_reserved": 0, "is_disabled": 0, "fusion_lon": 0.0, "bike_id": "01d8034e06e7b56bf2f25ff4546a9f35", "lon": -77.010118, "rental_uris": {"ios": "https://dc.lft.to/lastmile_qr_scan", "android": "https://dc.lft.to/lastmile_qr_scan"}}, {"name": "e9cd29fca2ba4b64bde74725ac04153e", "fusion_lat": 0.0, "type": "electric_scooter", "lat": 38.92467466666667, "is_reserved": 0, "is_disabled": 0, "fusion_lon": 0.0, "bike_id": "e9cd29fca2ba4b64bde74725ac04153e", "lon": -77.03765033333333, "rental_uris": {"ios": "https://dc.lft.to/lastmile_qr_scan", "android": "https://dc.lft.to/lastmile_qr_scan"}}, {"name": "317f2120af6b5cac3fe38fb2667ae577", "fusion_lat": 0.0, "type": "electric_scooter", "lat": 38.9125015, "is_reserved": 0, "is_disabled": 0, "fusion_lon": 0.0, "bike_id": "317f2120af6b5cac3fe38fb2667ae577", "lon": -77.03429016666666, "rental_uris": {"ios": "https://dc.lft.to/lastmile_qr_scan", "android": "https://dc.lft.to/lastmile_qr_scan"}}, {"name": "5125bf766f9e3eafd7ae49c74679bd1d", "fusion_lat": 0.0, "type": "electric_scooter", "lat": 38.909009833333336, "is_reserved": 0, "is_disabled": 0, "fusion_lon": 0.0, "bike_id": "5125bf766f9e3eafd7ae49c74679bd1d", "lon": -77.032077, "rental_uris": {"ios": "https://dc.lft.to/lastmile_qr_scan", "android": "https://dc.lft.to/lastmile_qr_scan"}}, {"name": "9b71b3bd1fee1087bff9531d36d8a6a3", "fusion_lat": 0.0, "type": "electric_scooter", "lat": 38.89731733333333, "is_reserved": 0, "is_disabled": 0, "fusion_lon": 0.0, "bike_id": "9b71b3bd1fee1087bff9531d36d8a6a3", "lon": -77.04766783333334, "rental_uris": {"ios": "https://dc.lft.to/lastmile_qr_scan", "android": "https://dc.lft.to/lastmile_qr_scan"}}, {"name": "32011ee2edeffec1a2c605740a2ec420", "fusion_lat": 0.0, "type": "electric_scooter", "lat": 38.92447533333333, "is_reserved": 0, "is_disabled": 0, "fusion_lon": 0.0, "bike_id": "32011ee2edeffec1a2c605740a2ec420", "lon": -77.02975933333333, "rental_uris": {"ios": "https://dc.lft.to/lastmile_qr_scan", "android": "https://dc.lft.to/lastmile_qr_scan"}}, {"name": "e7967bcc40c1ae0bdc409d0a9e6cc95b", "fusion_lat": 0.0, "type": "electric_scooter", "lat": 38.9256, "is_reserved": 0, "is_disabled": 0, "fusion_lon": 0.0, "bike_id": "e7967bcc40c1ae0bdc409d0a9e6cc95b", "lon": -77.0628895, "rental_uris": {"ios": "https://dc.lft.to/lastmile_qr_scan", "android": "https://dc.lft.to/lastmile_qr_scan"}}, {"name": "fdd6b52e09f79a0ee6eca3a55fb7f5ff", "fusion_lat": 0.0, "type": "electric_scooter", "lat": 38.883520833333336, "is_reserved": 0, "is_disabled": 0, "fusion_lon": 0.0, "bike_id": "fdd6b52e09f79a0ee6eca3a55fb7f5ff", "lon": -76.94939033333333, "rental_uris": {"ios": "https://dc.lft.to/lastmile_qr_scan", "android": "https://dc.lft.to/lastmile_qr_scan"}}, {"name": "10cd64594ac5efd757b25ca09ff81772", "fusion_lat": 0.0, "type": "electric_bike", "lat": 38.928529, "is_reserved": 0, "is_disabled": 0, "fusion_lon": 0.0, "bike_id": "10cd64594ac5efd757b25ca09ff81772", "lon": -77.1067965, "rental_uris": {"ios": "https://dc.lft.to/lastmile_qr_scan", "android": "https://dc.lft.to/lastmile_qr_scan"}}, {"name": "c3ed751010a7588908f75ff7104894e7", "fusion_lat": 0.0, "type": "electric_scooter", "lat": 38.894959166666666, "is_reserved": 0, "is_disabled": 0, "fusion_lon": 0.0, "bike_id": "c3ed751010a7588908f75ff7104894e7", "lon": -77.01093983333334, "rental_uris": {"ios": "https://dc.lft.to/lastmile_qr_scan", "android": "https://dc.lft.to/lastmile_qr_scan"}}, {"name": "d6f47b375a357e1bf02e7286f5034b39", "fusion_lat": 0.0, "type": "electric_scooter", "lat": 38.90262966666667, "is_reserved": 0, "is_disabled": 0, "fusion_lon": 0.0, "bike_id": "d6f47b375a357e1bf02e7286f5034b39", "lon": -77.04259416666666, "rental_uris": {"ios": "https://dc.lft.to/lastmile_qr_scan", "android": "https://dc.lft.to/lastmile_qr_scan"}}, {"name": "412774cc8f015da3536269ab8891c7e9", "fusion_lat": 0.0, "type": "electric_scooter", "lat": 38.89725966666666, "is_reserved": 0, "is_disabled": 0, "fusion_lon": 0.0, "bike_id": "412774cc8f015da3536269ab8891c7e9", "lon": -77.04343583333333, "rental_uris": {"ios": "https://dc.lft.to/lastmile_qr_scan", "android": "https://dc.lft.to/lastmile_qr_scan"}}, {"name": "5dd85b6d4230ae40f4aa655300e99186", "fusion_lat": 0.0, "type": "electric_scooter", "lat": 38.86368233333334, "is_reserved": 0, "is_disabled": 0, "fusion_lon": 0.0, "bike_id": "5dd85b6d4230ae40f4aa655300e99186", "lon": -77.01369716666666, "rental_uris": {"ios": "https://dc.lft.to/lastmile_qr_scan", "android": "https://dc.lft.to/lastmile_qr_scan"}}, {"name": "b753403f067619a45381dce2ef83f5f9", "fusion_lat": 0.0, "type": "electric_scooter", "lat": 38.91256766666667, "is_reserved": 0, "is_disabled": 0, "fusion_lon": 0.0, "bike_id": "b753403f067619a45381dce2ef83f5f9", "lon": -77.00767616666667, "rental_uris": {"ios": "https://dc.lft.to/lastmile_qr_scan", "android": "https://dc.lft.to/lastmile_qr_scan"}}, {"name": "ab60644d720bc47f169648a7f2562d0e", "fusion_lat": 0.0, "type": "electric_scooter", "lat": 38.930587833333334, "is_reserved": 0, "is_disabled": 0, "fusion_lon": 0.0, "bike_id": "ab60644d720bc47f169648a7f2562d0e", "lon": -77.02322133333334, "rental_uris": {"ios": "https://dc.lft.to/lastmile_qr_scan", "android": "https://dc.lft.to/lastmile_qr_scan"}}, {"name": "40c24f91ac19d7ebe84e6d49f49aba44", "fusion_lat": 0.0, "type": "electric_scooter", "lat": 38.907718833333334, "is_reserved": 0, "is_disabled": 0, "fusion_lon": 0.0, "bike_id": "40c24f91ac19d7ebe84e6d49f49aba44", "lon": -77.0386555, "rental_uris": {"ios": "https://dc.lft.to/lastmile_qr_scan", "android": "https://dc.lft.to/lastmile_qr_scan"}}, {"name": "6cba24bddce77cc1a1d493fb331e08c4", "fusion_lat": 0.0, "type": "electric_scooter", "lat": 38.939607, "is_reserved": 0, "is_disabled": 0, "fusion_lon": 0.0, "bike_id": "6cba24bddce77cc1a1d493fb331e08c4", "lon": -77.02752033333333, "rental_uris": {"ios": "https://dc.lft.to/lastmile_qr_scan", "android": "https://dc.lft.to/lastmile_qr_scan"}}, {"name": "28b44e39c52df3332065c570dcb0a057", "fusion_lat": 0.0, "type": "electric_scooter", "lat": 38.8929605, "is_reserved": 0, "is_disabled": 0, "fusion_lon": 0.0, "bike_id": "28b44e39c52df3332065c570dcb0a057", "lon": -76.939274, "rental_uris": {"ios": "https://dc.lft.to/lastmile_qr_scan", "android": "https://dc.lft.to/lastmile_qr_scan"}}, {"name": "58fe2333295d9b2cb9d6feb5ff4bed23", "fusion_lat": 0.0, "type": "electric_scooter", "lat": 38.90984383333333, "is_reserved": 0, "is_disabled": 0, "fusion_lon": 0.0, "bike_id": "58fe2333295d9b2cb9d6feb5ff4bed23", "lon": -77.04874033333333, "rental_uris": {"ios": "https://dc.lft.to/lastmile_qr_scan", "android": "https://dc.lft.to/lastmile_qr_scan"}}, {"name": "1208c5343dabecf74729bbe9775bac94", "fusion_lat": 0.0, "type": "electric_scooter", "lat": 38.9207655, "is_reserved": 0, "is_disabled": 0, "fusion_lon": 0.0, "bike_id": "1208c5343dabecf74729bbe9775bac94", "lon": -77.023959, "rental_uris": {"ios": "https://dc.lft.to/lastmile_qr_scan", "android": "https://dc.lft.to/lastmile_qr_scan"}}, {"name": "19891ad69c9049bbd8748291fc2b566b", "fusion_lat": 0.0, "type": "electric_bike", "lat": 38.8323435, "is_reserved": 0, "is_disabled": 0, "fusion_lon": 0.0, "bike_id": "19891ad69c9049bbd8748291fc2b566b", "lon": -76.94620783333333, "rental_uris": {"ios": "https://dc.lft.to/lastmile_qr_scan", "android": "https://dc.lft.to/lastmile_qr_scan"}}, {"name": "c804e9dba68f4476be48484b8761ed8e", "fusion_lat": 0.0, "type": "electric_scooter", "lat": 38.90909683333334, "is_reserved": 0, "is_disabled": 0, "fusion_lon": 0.0, "bike_id": "c804e9dba68f4476be48484b8761ed8e", "lon": -77.03182783333334, "rental_uris": {"ios": "https://dc.lft.to/lastmile_qr_scan", "android": "https://dc.lft.to/lastmile_qr_scan"}}, {"name": "062266abf9179e6946d9ea82ec5ec498", "fusion_lat": 0.0, "type": "electric_scooter", "lat": 38.890908, "is_reserved": 0, "is_disabled": 0, "fusion_lon": 0.0, "bike_id": "062266abf9179e6946d9ea82ec5ec498", "lon": -76.9914315, "rental_uris": {"ios": "https://dc.lft.to/lastmile_qr_scan", "android": "https://dc.lft.to/lastmile_qr_scan"}}, {"name": "4a42d6aa9c75e1ce2fa8133de673f22d", "fusion_lat": 0.0, "type": "electric_scooter", "lat": 38.90118866666667, "is_reserved": 0, "is_disabled": 0, "fusion_lon": 0.0, "bike_id": "4a42d6aa9c75e1ce2fa8133de673f22d", "lon": -77.02470616666666, "rental_uris": {"ios": "https://dc.lft.to/lastmile_qr_scan", "android": "https://dc.lft.to/lastmile_qr_scan"}}, {"name": "ea82d69314c9f2cbde6f018537ddbf82", "fusion_lat": 0.0, "type": "electric_scooter", "lat": 38.926272833333336, "is_reserved": 0, "is_disabled": 0, "fusion_lon": 0.0, "bike_id": "ea82d69314c9f2cbde6f018537ddbf82", "lon": -77.03712333333333, "rental_uris": {"ios": "https://dc.lft.to/lastmile_qr_scan", "android": "https://dc.lft.to/lastmile_qr_scan"}}, {"name": "c1335fbf77b7107b15a90ca753a62d30", "fusion_lat": 0.0, "type": "electric_scooter", "lat": 38.905043666666664, "is_reserved": 0, "is_disabled": 0, "fusion_lon": 0.0, "bike_id": "c1335fbf77b7107b15a90ca753a62d30", "lon": -76.99448516666666, "rental_uris": {"ios": "https://dc.lft.to/lastmile_qr_scan", "android": "https://dc.lft.to/lastmile_qr_scan"}}, {"name": "cf242fb33146bd724f1d5433d2f7e19d", "fusion_lat": 0.0, "type": "electric_scooter", "lat": 38.881051166666666, "is_reserved": 0, "is_disabled": 0, "fusion_lon": 0.0, "bike_id": "cf242fb33146bd724f1d5433d2f7e19d", "lon": -77.01208666666666, "rental_uris": {"ios": "https://dc.lft.to/lastmile_qr_scan", "android": "https://dc.lft.to/lastmile_qr_scan"}}, {"name": "d5c592b527f775b4ebe2f72cc900f889", "fusion_lat": 0.0, "type": "electric_scooter", "lat": 38.90642883333334, "is_reserved": 0, "is_disabled": 0, "fusion_lon": 0.0, "bike_id": "d5c592b527f775b4ebe2f72cc900f889", "lon": -77.03870366666666, "rental_uris": {"ios": "https://dc.lft.to/lastmile_qr_scan", "android": "https://dc.lft.to/lastmile_qr_scan"}}, {"name": "e791677f4c7e8aff0808bc517e12fdf3", "fusion_lat": 0.0, "type": "electric_scooter", "lat": 38.90672433333334, "is_reserved": 0, "is_disabled": 0, "fusion_lon": 0.0, "bike_id": "e791677f4c7e8aff0808bc517e12fdf3", "lon": -77.02718133333333, "rental_uris": {"ios": "https://dc.lft.to/lastmile_qr_scan", "android": "https://dc.lft.to/lastmile_qr_scan"}}, {"name": "1061cbd005ab3562172403cacd63d7c4", "fusion_lat": 0.0, "type": "electric_bike", "lat": 38.9589365, "is_reserved": 0, "is_disabled": 0, "fusion_lon": 0.0, "bike_id": "1061cbd005ab3562172403cacd63d7c4", "lon": -77.02597033333333, "rental_uris": {"ios": "https://dc.lft.to/lastmile_qr_scan", "android": "https://dc.lft.to/lastmile_qr_scan"}}, {"name": "08d62cf95ca0fea3684920abfb5ab41e", "fusion_lat": 0.0, "type": "electric_scooter", "lat": 38.905756333333336, "is_reserved": 0, "is_disabled": 0, "fusion_lon": 0.0, "bike_id": "08d62cf95ca0fea3684920abfb5ab41e", "lon": -77.02215816666667, "rental_uris": {"ios": "https://dc.lft.to/lastmile_qr_scan", "android": "https://dc.lft.to/lastmile_qr_scan"}}, {"name": "b60166fff5f66bf75259bf2983f1be84", "fusion_lat": 0.0, "type": "electric_scooter", "lat": 38.86657783333333, "is_reserved": 0, "is_disabled": 0, "fusion_lon": 0.0, "bike_id": "b60166fff5f66bf75259bf2983f1be84", "lon": -76.98886333333333, "rental_uris": {"ios": "https://dc.lft.to/lastmile_qr_scan", "android": "https://dc.lft.to/lastmile_qr_scan"}}, {"name": "9855974e984bcb161306dbe5c590a859", "fusion_lat": 0.0, "type": "electric_scooter", "lat": 38.883557333333336, "is_reserved": 0, "is_disabled": 0, "fusion_lon": 0.0, "bike_id": "9855974e984bcb161306dbe5c590a859", "lon": -76.996096, "rental_uris": {"ios": "https://dc.lft.to/lastmile_qr_scan", "android": "https://dc.lft.to/lastmile_qr_scan"}}, {"name": "25e3201620d33fc8af4b0875eed20c82", "fusion_lat": 0.0, "type": "electric_scooter", "lat": 38.909488333333336, "is_reserved": 0, "is_disabled": 0, "fusion_lon": 0.0, "bike_id": "25e3201620d33fc8af4b0875eed20c82", "lon": -77.04940883333333, "rental_uris": {"ios": "https://dc.lft.to/lastmile_qr_scan", "android": "https://dc.lft.to/lastmile_qr_scan"}}, {"name": "9b980faabeb3dc68de51fbf9395049a3", "fusion_lat": 0.0, "type": "electric_scooter", "lat": 38.92339166666667, "is_reserved": 0, "is_disabled": 0, "fusion_lon": 0.0, "bike_id": "9b980faabeb3dc68de51fbf9395049a3", "lon": -77.04190183333333, "rental_uris": {"ios": "https://dc.lft.to/lastmile_qr_scan", "android": "https://dc.lft.to/lastmile_qr_scan"}}, {"name": "0d3adc610f2985ea3f98cb18b5690247", "fusion_lat": 0.0, "type": "electric_scooter", "lat": 38.91778383333333, "is_reserved": 0, "is_disabled": 0, "fusion_lon": 0.0, "bike_id": "0d3adc610f2985ea3f98cb18b5690247", "lon": -77.02293916666666, "rental_uris": {"ios": "https://dc.lft.to/lastmile_qr_scan", "android": "https://dc.lft.to/lastmile_qr_scan"}}, {"name": "bc7ac8637a636ab75814ef4440dcc172", "fusion_lat": 0.0, "type": "electric_scooter", "lat": 38.9203675, "is_reserved": 0, "is_disabled": 0, "fusion_lon": 0.0, "bike_id": "bc7ac8637a636ab75814ef4440dcc172", "lon": -77.07156933333333, "rental_uris": {"ios": "https://dc.lft.to/lastmile_qr_scan", "android": "https://dc.lft.to/lastmile_qr_scan"}}, {"name": "9ca31ead555e0660383ea1ed918edc8d", "fusion_lat": 0.0, "type": "electric_scooter", "lat": 38.8873915, "is_reserved": 0, "is_disabled": 0, "fusion_lon": 0.0, "bike_id": "9ca31ead555e0660383ea1ed918edc8d", "lon": -77.0322195, "rental_uris": {"ios": "https://dc.lft.to/lastmile_qr_scan", "android": "https://dc.lft.to/lastmile_qr_scan"}}, {"name": "7056b32ca01a43b494fa798d29a11ebf", "fusion_lat": 0.0, "type": "electric_scooter", "lat": 38.92927066666667, "is_reserved": 0, "is_disabled": 0, "fusion_lon": 0.0, "bike_id": "7056b32ca01a43b494fa798d29a11ebf", "lon": -77.0364085, "rental_uris": {"ios": "https://dc.lft.to/lastmile_qr_scan", "android": "https://dc.lft.to/lastmile_qr_scan"}}, {"name": "859f597c5cd1ab4173d25ce4deadd629", "fusion_lat": 0.0, "type": "electric_scooter", "lat": 38.9013465, "is_reserved": 0, "is_disabled": 0, "fusion_lon": 0.0, "bike_id": "859f597c5cd1ab4173d25ce4deadd629", "lon": -77.042114, "rental_uris": {"ios": "https://dc.lft.to/lastmile_qr_scan", "android": "https://dc.lft.to/lastmile_qr_scan"}}, {"name": "d7f081f6b77cdaaae7697327d5ac24c1", "fusion_lat": 0.0, "type": "electric_scooter", "lat": 38.94600716666667, "is_reserved": 0, "is_disabled": 0, "fusion_lon": 0.0, "bike_id": "d7f081f6b77cdaaae7697327d5ac24c1", "lon": -77.029782, "rental_uris": {"ios": "https://dc.lft.to/lastmile_qr_scan", "android": "https://dc.lft.to/lastmile_qr_scan"}}, {"name": "b2e032d21986a157501dd640f99f2385", "fusion_lat": 0.0, "type": "electric_scooter", "lat": 38.919221, "is_reserved": 0, "is_disabled": 0, "fusion_lon": 0.0, "bike_id": "b2e032d21986a157501dd640f99f2385", "lon": -77.03218966666667, "rental_uris": {"ios": "https://dc.lft.to/lastmile_qr_scan", "android": "https://dc.lft.to/lastmile_qr_scan"}}, {"name": "7554a94716ddb89d33e90c1418a42155", "fusion_lat": 0.0, "type": "electric_scooter", "lat": 38.900486666666666, "is_reserved": 0, "is_disabled": 0, "fusion_lon": 0.0, "bike_id": "7554a94716ddb89d33e90c1418a42155", "lon": -77.00071916666667, "rental_uris": {"ios": "https://dc.lft.to/lastmile_qr_scan", "android": "https://dc.lft.to/lastmile_qr_scan"}}, {"name": "592a6d488e96841661d8c8ade6b4d979", "fusion_lat": 0.0, "type": "electric_bike", "lat": 38.92584016666667, "is_reserved": 0, "is_disabled": 0, "fusion_lon": 0.0, "bike_id": "592a6d488e96841661d8c8ade6b4d979", "lon": -76.9949405, "rental_uris": {"ios": "https://dc.lft.to/lastmile_qr_scan", "android": "https://dc.lft.to/lastmile_qr_scan"}}, {"name": "a90fdf7bc3caf68d64a9c36d1a6b6974", "fusion_lat": 0.0, "type": "electric_scooter", "lat": 38.91607833333333, "is_reserved": 0, "is_disabled": 0, "fusion_lon": 0.0, "bike_id": "a90fdf7bc3caf68d64a9c36d1a6b6974", "lon": -77.0416015, "rental_uris": {"ios": "https://dc.lft.to/lastmile_qr_scan", "android": "https://dc.lft.to/lastmile_qr_scan"}}, {"name": "004ceb44a83d8adbf238a3fb3edbc389", "fusion_lat": 0.0, "type": "electric_scooter", "lat": 38.93606783333333, "is_reserved": 0, "is_disabled": 0, "fusion_lon": 0.0, "bike_id": "004ceb44a83d8adbf238a3fb3edbc389", "lon": -77.05863116666667, "rental_uris": {"ios": "https://dc.lft.to/lastmile_qr_scan", "android": "https://dc.lft.to/lastmile_qr_scan"}}, {"name": "112a205669199fca89390903a83d8676", "fusion_lat": 0.0, "type": "electric_scooter", "lat": 38.91115283333333, "is_reserved": 0, "is_disabled": 0, "fusion_lon": 0.0, "bike_id": "112a205669199fca89390903a83d8676", "lon": -77.037297, "rental_uris": {"ios": "https://dc.lft.to/lastmile_qr_scan", "android": "https://dc.lft.to/lastmile_qr_scan"}}, {"name": "f00023f904c4651cc30342b28e05b7b0", "fusion_lat": 0.0, "type": "electric_scooter", "lat": 38.92569683333333, "is_reserved": 0, "is_disabled": 0, "fusion_lon": 0.0, "bike_id": "f00023f904c4651cc30342b28e05b7b0", "lon": -77.04374116666666, "rental_uris": {"ios": "https://dc.lft.to/lastmile_qr_scan", "android": "https://dc.lft.to/lastmile_qr_scan"}}, {"name": "f8459a7faed6ebef2ffd5303c5d83d00", "fusion_lat": 0.0, "type": "electric_scooter", "lat": 38.880389666666666, "is_reserved": 0, "is_disabled": 0, "fusion_lon": 0.0, "bike_id": "f8459a7faed6ebef2ffd5303c5d83d00", "lon": -76.92724066666666, "rental_uris": {"ios": "https://dc.lft.to/lastmile_qr_scan", "android": "https://dc.lft.to/lastmile_qr_scan"}}, {"name": "1519e4c79edabfb52e4341271235335d", "fusion_lat": 0.0, "type": "electric_scooter", "lat": 38.915650166666666, "is_reserved": 0, "is_disabled": 0, "fusion_lon": 0.0, "bike_id": "1519e4c79edabfb52e4341271235335d", "lon": -77.03913883333334, "rental_uris": {"ios": "https://dc.lft.to/lastmile_qr_scan", "android": "https://dc.lft.to/lastmile_qr_scan"}}, {"name": "3cd4d254a7cc81f85ed40ca3d492506b", "fusion_lat": 0.0, "type": "electric_scooter", "lat": 38.929289833333335, "is_reserved": 0, "is_disabled": 0, "fusion_lon": 0.0, "bike_id": "3cd4d254a7cc81f85ed40ca3d492506b", "lon": -77.01963983333333, "rental_uris": {"ios": "https://dc.lft.to/lastmile_qr_scan", "android": "https://dc.lft.to/lastmile_qr_scan"}}, {"name": "1e841d7f675f659710c569c9b90370b7", "fusion_lat": 0.0, "type": "electric_scooter", "lat": 38.907519, "is_reserved": 0, "is_disabled": 0, "fusion_lon": 0.0, "bike_id": "1e841d7f675f659710c569c9b90370b7", "lon": -77.03089033333333, "rental_uris": {"ios": "https://dc.lft.to/lastmile_qr_scan", "android": "https://dc.lft.to/lastmile_qr_scan"}}, {"name": "ca11cc62f72fce65732197685f7ddf83", "fusion_lat": 0.0, "type": "electric_scooter", "lat": 38.913331, "is_reserved": 0, "is_disabled": 0, "fusion_lon": 0.0, "bike_id": "ca11cc62f72fce65732197685f7ddf83", "lon": -77.03452016666667, "rental_uris": {"ios": "https://dc.lft.to/lastmile_qr_scan", "android": "https://dc.lft.to/lastmile_qr_scan"}}, {"name": "a32845c3f8541a37a6c3e0170870de35", "fusion_lat": 0.0, "type": "electric_bike", "lat": 38.8522995, "is_reserved": 0, "is_disabled": 0, "fusion_lon": 0.0, "bike_id": "a32845c3f8541a37a6c3e0170870de35", "lon": -77.10336783333334, "rental_uris": {"ios": "https://dc.lft.to/lastmile_qr_scan", "android": "https://dc.lft.to/lastmile_qr_scan"}}, {"name": "646934ae8cb9c668ce13f4ec20f9735b", "fusion_lat": 0.0, "type": "electric_bike", "lat": 38.892892, "is_reserved": 0, "is_disabled": 0, "fusion_lon": 0.0, "bike_id": "646934ae8cb9c668ce13f4ec20f9735b", "lon": -76.98558933333334, "rental_uris": {"ios": "https://dc.lft.to/lastmile_qr_scan", "android": "https://dc.lft.to/lastmile_qr_scan"}}, {"name": "57f4af65f3ef6b1a3eaff691d25e4177", "fusion_lat": 0.0, "type": "electric_bike", "lat": 38.88042766666667, "is_reserved": 0, "is_disabled": 0, "fusion_lon": 0.0, "bike_id": "57f4af65f3ef6b1a3eaff691d25e4177", "lon": -77.01328583333333, "rental_uris": {"ios": "https://dc.lft.to/lastmile_qr_scan", "android": "https://dc.lft.to/lastmile_qr_scan"}}, {"name": "9653f8ed65df007e6e5c1aab8cac26e7", "fusion_lat": 0.0, "type": "electric_scooter", "lat": 38.9073085, "is_reserved": 0, "is_disabled": 0, "fusion_lon": 0.0, "bike_id": "9653f8ed65df007e6e5c1aab8cac26e7", "lon": -77.02973316666667, "rental_uris": {"ios": "https://dc.lft.to/lastmile_qr_scan", "android": "https://dc.lft.to/lastmile_qr_scan"}}, {"name": "bf71fd7bbfef34562dfd9b35284556d5", "fusion_lat": 0.0, "type": "electric_scooter", "lat": 38.92434733333333, "is_reserved": 0, "is_disabled": 0, "fusion_lon": 0.0, "bike_id": "bf71fd7bbfef34562dfd9b35284556d5", "lon": -77.02977316666667, "rental_uris": {"ios": "https://dc.lft.to/lastmile_qr_scan", "android": "https://dc.lft.to/lastmile_qr_scan"}}, {"name": "4c2bf605bb49762a4c6fa75700baafb8", "fusion_lat": 0.0, "type": "electric_scooter", "lat": 38.9496005, "is_reserved": 0, "is_disabled": 0, "fusion_lon": 0.0, "bike_id": "4c2bf605bb49762a4c6fa75700baafb8", "lon": -77.02720983333333, "rental_uris": {"ios": "https://dc.lft.to/lastmile_qr_scan", "android": "https://dc.lft.to/lastmile_qr_scan"}}, {"name": "ba0ccbd872d25a85da4a27c5b647ecd1", "fusion_lat": 0.0, "type": "electric_scooter", "lat": 38.927468166666664, "is_reserved": 0, "is_disabled": 0, "fusion_lon": 0.0, "bike_id": "ba0ccbd872d25a85da4a27c5b647ecd1", "lon": -77.02250033333333, "rental_uris": {"ios": "https://dc.lft.to/lastmile_qr_scan", "android": "https://dc.lft.to/lastmile_qr_scan"}}, {"name": "7308d18c663ee33fbbff499f9d3c05f9", "fusion_lat": 0.0, "type": "electric_scooter", "lat": 38.90733066666667, "is_reserved": 0, "is_disabled": 0, "fusion_lon": 0.0, "bike_id": "7308d18c663ee33fbbff499f9d3c05f9", "lon": -77.031935, "rental_uris": {"ios": "https://dc.lft.to/lastmile_qr_scan", "android": "https://dc.lft.to/lastmile_qr_scan"}}, {"name": "ed372c8985545b142fe1a72a69a3e28f", "fusion_lat": 0.0, "type": "electric_scooter", "lat": 38.878309333333334, "is_reserved": 0, "is_disabled": 0, "fusion_lon": 0.0, "bike_id": "ed372c8985545b142fe1a72a69a3e28f", "lon": -76.98612083333333, "rental_uris": {"ios": "https://dc.lft.to/lastmile_qr_scan", "android": "https://dc.lft.to/lastmile_qr_scan"}}, {"name": "a2fb5e98062edc8b14455c528542d076", "fusion_lat": 0.0, "type": "electric_scooter", "lat": 38.90125583333333, "is_reserved": 0, "is_disabled": 0, "fusion_lon": 0.0, "bike_id": "a2fb5e98062edc8b14455c528542d076", "lon": -77.047092, "rental_uris": {"ios": "https://dc.lft.to/lastmile_qr_scan", "android": "https://dc.lft.to/lastmile_qr_scan"}}, {"name": "675bb3b89ffdaeb46c3ab45ae11166e7", "fusion_lat": 0.0, "type": "electric_scooter", "lat": 38.883284833333335, "is_reserved": 0, "is_disabled": 0, "fusion_lon": 0.0, "bike_id": "675bb3b89ffdaeb46c3ab45ae11166e7", "lon": -77.01542366666666, "rental_uris": {"ios": "https://dc.lft.to/lastmile_qr_scan", "android": "https://dc.lft.to/lastmile_qr_scan"}}, {"name": "36bfdf774b046f83b2c2f9ff28a1212d", "fusion_lat": 0.0, "type": "electric_scooter", "lat": 38.939109, "is_reserved": 0, "is_disabled": 0, "fusion_lon": 0.0, "bike_id": "36bfdf774b046f83b2c2f9ff28a1212d", "lon": -77.06045, "rental_uris": {"ios": "https://dc.lft.to/lastmile_qr_scan", "android": "https://dc.lft.to/lastmile_qr_scan"}}, {"name": "b99e529ef927caa9e7f7846652ef25cf", "fusion_lat": 0.0, "type": "electric_scooter", "lat": 38.910143833333336, "is_reserved": 0, "is_disabled": 0, "fusion_lon": 0.0, "bike_id": "b99e529ef927caa9e7f7846652ef25cf", "lon": -76.99674133333333, "rental_uris": {"ios": "https://dc.lft.to/lastmile_qr_scan", "android": "https://dc.lft.to/lastmile_qr_scan"}}, {"name": "96af579b3bc02aecd9e74a4175ceb6ca", "fusion_lat": 0.0, "type": "electric_scooter", "lat": 38.90554366666667, "is_reserved": 0, "is_disabled": 0, "fusion_lon": 0.0, "bike_id": "96af579b3bc02aecd9e74a4175ceb6ca", "lon": -77.00581116666666, "rental_uris": {"ios": "https://dc.lft.to/lastmile_qr_scan", "android": "https://dc.lft.to/lastmile_qr_scan"}}, {"name": "b8dfe0a1d8b834743b9c129d287ac132", "fusion_lat": 0.0, "type": "electric_scooter", "lat": 38.927313166666664, "is_reserved": 0, "is_disabled": 0, "fusion_lon": 0.0, "bike_id": "b8dfe0a1d8b834743b9c129d287ac132", "lon": -77.024918, "rental_uris": {"ios": "https://dc.lft.to/lastmile_qr_scan", "android": "https://dc.lft.to/lastmile_qr_scan"}}, {"name": "241efe84ab832189ff41a28c86f7d39d", "fusion_lat": 0.0, "type": "electric_scooter", "lat": 38.92876916666667, "is_reserved": 0, "is_disabled": 0, "fusion_lon": 0.0, "bike_id": "241efe84ab832189ff41a28c86f7d39d", "lon": -77.02707583333333, "rental_uris": {"ios": "https://dc.lft.to/lastmile_qr_scan", "android": "https://dc.lft.to/lastmile_qr_scan"}}, {"name": "7c502cbafb11029b76aa34d5a7411f91", "fusion_lat": 0.0, "type": "electric_scooter", "lat": 38.911731333333336, "is_reserved": 0, "is_disabled": 0, "fusion_lon": 0.0, "bike_id": "7c502cbafb11029b76aa34d5a7411f91", "lon": -77.031822, "rental_uris": {"ios": "https://dc.lft.to/lastmile_qr_scan", "android": "https://dc.lft.to/lastmile_qr_scan"}}, {"name": "3f16231ed49b959941f089d30f5606a6", "fusion_lat": 0.0, "type": "electric_scooter", "lat": 38.902529666666666, "is_reserved": 0, "is_disabled": 0, "fusion_lon": 0.0, "bike_id": "3f16231ed49b959941f089d30f5606a6", "lon": -77.03983016666666, "rental_uris": {"ios": "https://dc.lft.to/lastmile_qr_scan", "android": "https://dc.lft.to/lastmile_qr_scan"}}, {"name": "18e4249e3fd4c7929dfe87b1ac96dba0", "fusion_lat": 0.0, "type": "electric_scooter", "lat": 38.899680833333335, "is_reserved": 0, "is_disabled": 0, "fusion_lon": 0.0, "bike_id": "18e4249e3fd4c7929dfe87b1ac96dba0", "lon": -77.05291983333333, "rental_uris": {"ios": "https://dc.lft.to/lastmile_qr_scan", "android": "https://dc.lft.to/lastmile_qr_scan"}}, {"name": "eb899e2d2a059623147f00f557e84b1c", "fusion_lat": 0.0, "type": "electric_scooter", "lat": 38.90077083333333, "is_reserved": 0, "is_disabled": 0, "fusion_lon": 0.0, "bike_id": "eb899e2d2a059623147f00f557e84b1c", "lon": -77.05016883333333, "rental_uris": {"ios": "https://dc.lft.to/lastmile_qr_scan", "android": "https://dc.lft.to/lastmile_qr_scan"}}, {"name": "5f987d71c62772adfe1f71eedfc8f43e", "fusion_lat": 0.0, "type": "electric_bike", "lat": 38.90689533333333, "is_reserved": 0, "is_disabled": 0, "fusion_lon": 0.0, "bike_id": "5f987d71c62772adfe1f71eedfc8f43e", "lon": -76.951883, "rental_uris": {"ios": "https://dc.lft.to/lastmile_qr_scan", "android": "https://dc.lft.to/lastmile_qr_scan"}}, {"name": "385dbcf9709ccb242fa3d62e9f02973b", "fusion_lat": 0.0, "type": "electric_scooter", "lat": 38.938915333333334, "is_reserved": 0, "is_disabled": 0, "fusion_lon": 0.0, "bike_id": "385dbcf9709ccb242fa3d62e9f02973b", "lon": -77.02461966666667, "rental_uris": {"ios": "https://dc.lft.to/lastmile_qr_scan", "android": "https://dc.lft.to/lastmile_qr_scan"}}, {"name": "3c0820d66f5c220b432061b193f63e80", "fusion_lat": 0.0, "type": "electric_scooter", "lat": 38.9074185, "is_reserved": 0, "is_disabled": 0, "fusion_lon": 0.0, "bike_id": "3c0820d66f5c220b432061b193f63e80", "lon": -77.03224733333333, "rental_uris": {"ios": "https://dc.lft.to/lastmile_qr_scan", "android": "https://dc.lft.to/lastmile_qr_scan"}}, {"name": "7ee97ad42a321876a29fd0245976aa6e", "fusion_lat": 0.0, "type": "electric_bike", "lat": 38.802261666666666, "is_reserved": 0, "is_disabled": 0, "fusion_lon": 0.0, "bike_id": "7ee97ad42a321876a29fd0245976aa6e", "lon": -77.079177, "rental_uris": {"ios": "https://dc.lft.to/lastmile_qr_scan", "android": "https://dc.lft.to/lastmile_qr_scan"}}, {"name": "a64b98be9420f0b56d388106c6733d02", "fusion_lat": 0.0, "type": "electric_scooter", "lat": 38.89528283333333, "is_reserved": 0, "is_disabled": 0, "fusion_lon": 0.0, "bike_id": "a64b98be9420f0b56d388106c6733d02", "lon": -77.04284683333333, "rental_uris": {"ios": "https://dc.lft.to/lastmile_qr_scan", "android": "https://dc.lft.to/lastmile_qr_scan"}}, {"name": "f819d56dfe8c55070372ad835cd99d22", "fusion_lat": 0.0, "type": "electric_scooter", "lat": 38.897183166666665, "is_reserved": 0, "is_disabled": 0, "fusion_lon": 0.0, "bike_id": "f819d56dfe8c55070372ad835cd99d22", "lon": -77.03084716666666, "rental_uris": {"ios": "https://dc.lft.to/lastmile_qr_scan", "android": "https://dc.lft.to/lastmile_qr_scan"}}, {"name": "6a34d991ab3185e1c6f143657491495b", "fusion_lat": 0.0, "type": "electric_scooter", "lat": 38.90372216666667, "is_reserved": 0, "is_disabled": 0, "fusion_lon": 0.0, "bike_id": "6a34d991ab3185e1c6f143657491495b", "lon": -77.01107316666666, "rental_uris": {"ios": "https://dc.lft.to/lastmile_qr_scan", "android": "https://dc.lft.to/lastmile_qr_scan"}}, {"name": "817a773a82d58d7987f75b69fa8bdf1b", "fusion_lat": 0.0, "type": "electric_scooter", "lat": 38.90681216666667, "is_reserved": 0, "is_disabled": 0, "fusion_lon": 0.0, "bike_id": "817a773a82d58d7987f75b69fa8bdf1b", "lon": -77.01096483333333, "rental_uris": {"ios": "https://dc.lft.to/lastmile_qr_scan", "android": "https://dc.lft.to/lastmile_qr_scan"}}, {"name": "43d48167b042f2bde9c82d22d07d4d08", "fusion_lat": 0.0, "type": "electric_scooter", "lat": 38.9125325, "is_reserved": 0, "is_disabled": 0, "fusion_lon": 0.0, "bike_id": "43d48167b042f2bde9c82d22d07d4d08", "lon": -77.03840833333334, "rental_uris": {"ios": "https://dc.lft.to/lastmile_qr_scan", "android": "https://dc.lft.to/lastmile_qr_scan"}}, {"name": "d7767812ba0698de05db98f4a15a7f8a", "fusion_lat": 0.0, "type": "electric_scooter", "lat": 38.91153416666667, "is_reserved": 0, "is_disabled": 0, "fusion_lon": 0.0, "bike_id": "d7767812ba0698de05db98f4a15a7f8a", "lon": -77.021929, "rental_uris": {"ios": "https://dc.lft.to/lastmile_qr_scan", "android": "https://dc.lft.to/lastmile_qr_scan"}}, {"name": "ff407e3773107de0c57cc8af9c2dc6c8", "fusion_lat": 0.0, "type": "electric_scooter", "lat": 38.89850033333333, "is_reserved": 0, "is_disabled": 0, "fusion_lon": 0.0, "bike_id": "ff407e3773107de0c57cc8af9c2dc6c8", "lon": -76.99032016666666, "rental_uris": {"ios": "https://dc.lft.to/lastmile_qr_scan", "android": "https://dc.lft.to/lastmile_qr_scan"}}, {"name": "e1d97b35fea893b15edd1b08306452da", "fusion_lat": 0.0, "type": "electric_scooter", "lat": 38.903654833333334, "is_reserved": 0, "is_disabled": 0, "fusion_lon": 0.0, "bike_id": "e1d97b35fea893b15edd1b08306452da", "lon": -77.01764466666667, "rental_uris": {"ios": "https://dc.lft.to/lastmile_qr_scan", "android": "https://dc.lft.to/lastmile_qr_scan"}}, {"name": "1328efc91c459262a72bcc0aa6ac56e8", "fusion_lat": 0.0, "type": "electric_scooter", "lat": 38.903419666666665, "is_reserved": 0, "is_disabled": 0, "fusion_lon": 0.0, "bike_id": "1328efc91c459262a72bcc0aa6ac56e8", "lon": -76.9984685, "rental_uris": {"ios": "https://dc.lft.to/lastmile_qr_scan", "android": "https://dc.lft.to/lastmile_qr_scan"}}, {"name": "c0970042994f4e33a8a4625da8f8dd6f", "fusion_lat": 0.0, "type": "electric_scooter", "lat": 38.9004735, "is_reserved": 0, "is_disabled": 0, "fusion_lon": 0.0, "bike_id": "c0970042994f4e33a8a4625da8f8dd6f", "lon": -77.01676633333334, "rental_uris": {"ios": "https://dc.lft.to/lastmile_qr_scan", "android": "https://dc.lft.to/lastmile_qr_scan"}}, {"name": "afc3c2ca63fc148daaaae3476df90027", "fusion_lat": 0.0, "type": "electric_scooter", "lat": 38.93963766666667, "is_reserved": 0, "is_disabled": 0, "fusion_lon": 0.0, "bike_id": "afc3c2ca63fc148daaaae3476df90027", "lon": -77.02750483333334, "rental_uris": {"ios": "https://dc.lft.to/lastmile_qr_scan", "android": "https://dc.lft.to/lastmile_qr_scan"}}, {"name": "4b1cf7fa6e293b73fdd010d49149d785", "fusion_lat": 0.0, "type": "electric_scooter", "lat": 38.90408933333333, "is_reserved": 0, "is_disabled": 0, "fusion_lon": 0.0, "bike_id": "4b1cf7fa6e293b73fdd010d49149d785", "lon": -77.03436916666666, "rental_uris": {"ios": "https://dc.lft.to/lastmile_qr_scan", "android": "https://dc.lft.to/lastmile_qr_scan"}}, {"name": "d779afa5f308120ce9951425a01ae406", "fusion_lat": 0.0, "type": "electric_bike", "lat": 38.99940466666666, "is_reserved": 0, "is_disabled": 0, "fusion_lon": 0.0, "bike_id": "d779afa5f308120ce9951425a01ae406", "lon": -77.01766283333333, "rental_uris": {"ios": "https://dc.lft.to/lastmile_qr_scan", "android": "https://dc.lft.to/lastmile_qr_scan"}}, {"name": "c627847a8b212d88d4d10779d9c9840c", "fusion_lat": 0.0, "type": "electric_scooter", "lat": 38.90962233333333, "is_reserved": 0, "is_disabled": 0, "fusion_lon": 0.0, "bike_id": "c627847a8b212d88d4d10779d9c9840c", "lon": -77.02297416666667, "rental_uris": {"ios": "https://dc.lft.to/lastmile_qr_scan", "android": "https://dc.lft.to/lastmile_qr_scan"}}, {"name": "f886d40a3daf74afb5f70f4e8f114a48", "fusion_lat": 0.0, "type": "electric_scooter", "lat": 38.922403833333334, "is_reserved": 0, "is_disabled": 0, "fusion_lon": 0.0, "bike_id": "f886d40a3daf74afb5f70f4e8f114a48", "lon": -77.03666533333333, "rental_uris": {"ios": "https://dc.lft.to/lastmile_qr_scan", "android": "https://dc.lft.to/lastmile_qr_scan"}}, {"name": "b5deced42c132f38bcef1762a2a7d6ac", "fusion_lat": 0.0, "type": "electric_scooter", "lat": 38.924538, "is_reserved": 0, "is_disabled": 0, "fusion_lon": 0.0, "bike_id": "b5deced42c132f38bcef1762a2a7d6ac", "lon": -77.03274466666667, "rental_uris": {"ios": "https://dc.lft.to/lastmile_qr_scan", "android": "https://dc.lft.to/lastmile_qr_scan"}}, {"name": "e30896424096307ce54982b2b0251fa7", "fusion_lat": 0.0, "type": "electric_bike", "lat": 38.95090483333333, "is_reserved": 0, "is_disabled": 0, "fusion_lon": 0.0, "bike_id": "e30896424096307ce54982b2b0251fa7", "lon": -77.012221, "rental_uris": {"ios": "https://dc.lft.to/lastmile_qr_scan", "android": "https://dc.lft.to/lastmile_qr_scan"}}, {"name": "dd4d972e3f8eedca32bc32fc7b8c1b5e", "fusion_lat": 0.0, "type": "electric_scooter", "lat": 38.931, "is_reserved": 0, "is_disabled": 0, "fusion_lon": 0.0, "bike_id": "dd4d972e3f8eedca32bc32fc7b8c1b5e", "lon": -77.02456583333333, "rental_uris": {"ios": "https://dc.lft.to/lastmile_qr_scan", "android": "https://dc.lft.to/lastmile_qr_scan"}}, {"name": "4847fcb8533a59be39755b426363877e", "fusion_lat": 0.0, "type": "electric_scooter", "lat": 38.88120283333333, "is_reserved": 0, "is_disabled": 0, "fusion_lon": 0.0, "bike_id": "4847fcb8533a59be39755b426363877e", "lon": -76.990123, "rental_uris": {"ios": "https://dc.lft.to/lastmile_qr_scan", "android": "https://dc.lft.to/lastmile_qr_scan"}}, {"name": "eb968def0b41b1c832353c06d97bd982", "fusion_lat": 0.0, "type": "electric_bike", "lat": 38.85685933333333, "is_reserved": 0, "is_disabled": 0, "fusion_lon": 0.0, "bike_id": "eb968def0b41b1c832353c06d97bd982", "lon": -77.08540716666667, "rental_uris": {"ios": "https://dc.lft.to/lastmile_qr_scan", "android": "https://dc.lft.to/lastmile_qr_scan"}}, {"name": "48fcffaa016d2e178e5c636eadcc74ed", "fusion_lat": 0.0, "type": "electric_bike", "lat": 38.80755516666667, "is_reserved": 0, "is_disabled": 0, "fusion_lon": 0.0, "bike_id": "48fcffaa016d2e178e5c636eadcc74ed", "lon": -77.09453616666667, "rental_uris": {"ios": "https://dc.lft.to/lastmile_qr_scan", "android": "https://dc.lft.to/lastmile_qr_scan"}}, {"name": "2df744bdf3b457c303d6f9671892808e", "fusion_lat": 0.0, "type": "electric_scooter", "lat": 38.92197083333333, "is_reserved": 0, "is_disabled": 0, "fusion_lon": 0.0, "bike_id": "2df744bdf3b457c303d6f9671892808e", "lon": -77.0243495, "rental_uris": {"ios": "https://dc.lft.to/lastmile_qr_scan", "android": "https://dc.lft.to/lastmile_qr_scan"}}, {"name": "7af1c93ef88801cd1bf9379d64964e48", "fusion_lat": 0.0, "type": "electric_scooter", "lat": 38.920631, "is_reserved": 0, "is_disabled": 0, "fusion_lon": 0.0, "bike_id": "7af1c93ef88801cd1bf9379d64964e48", "lon": -77.03461533333333, "rental_uris": {"ios": "https://dc.lft.to/lastmile_qr_scan", "android": "https://dc.lft.to/lastmile_qr_scan"}}, {"name": "c1bf40e9b641677ab56ec2ca9f766e2e", "fusion_lat": 0.0, "type": "electric_bike", "lat": 38.9235015, "is_reserved": 0, "is_disabled": 0, "fusion_lon": 0.0, "bike_id": "c1bf40e9b641677ab56ec2ca9f766e2e", "lon": -76.99249966666666, "rental_uris": {"ios": "https://dc.lft.to/lastmile_qr_scan", "android": "https://dc.lft.to/lastmile_qr_scan"}}, {"name": "ef4b20b0677b02238fcbf9ed5337c751", "fusion_lat": 0.0, "type": "electric_scooter", "lat": 38.8726705, "is_reserved": 0, "is_disabled": 0, "fusion_lon": 0.0, "bike_id": "ef4b20b0677b02238fcbf9ed5337c751", "lon": -77.01535966666667, "rental_uris": {"ios": "https://dc.lft.to/lastmile_qr_scan", "android": "https://dc.lft.to/lastmile_qr_scan"}}, {"name": "ea3d3a717aa282d6edc3a106e631edb0", "fusion_lat": 0.0, "type": "electric_scooter", "lat": 38.9013815, "is_reserved": 0, "is_disabled": 0, "fusion_lon": 0.0, "bike_id": "ea3d3a717aa282d6edc3a106e631edb0", "lon": -77.0007195, "rental_uris": {"ios": "https://dc.lft.to/lastmile_qr_scan", "android": "https://dc.lft.to/lastmile_qr_scan"}}, {"name": "4363ce960a5524ece2d7bce2e655971e", "fusion_lat": 0.0, "type": "electric_scooter", "lat": 38.938145, "is_reserved": 0, "is_disabled": 0, "fusion_lon": 0.0, "bike_id": "4363ce960a5524ece2d7bce2e655971e", "lon": -77.02638883333333, "rental_uris": {"ios": "https://dc.lft.to/lastmile_qr_scan", "android": "https://dc.lft.to/lastmile_qr_scan"}}, {"name": "9fdcd8b3889e9a4664891f3ec5fbc5da", "fusion_lat": 0.0, "type": "electric_scooter", "lat": 38.916040333333335, "is_reserved": 0, "is_disabled": 0, "fusion_lon": 0.0, "bike_id": "9fdcd8b3889e9a4664891f3ec5fbc5da", "lon": -77.041636, "rental_uris": {"ios": "https://dc.lft.to/lastmile_qr_scan", "android": "https://dc.lft.to/lastmile_qr_scan"}}, {"name": "55ec2f24cd2fd91a1a2f40a49630f647", "fusion_lat": 0.0, "type": "electric_scooter", "lat": 38.90722316666667, "is_reserved": 0, "is_disabled": 0, "fusion_lon": 0.0, "bike_id": "55ec2f24cd2fd91a1a2f40a49630f647", "lon": -77.0010515, "rental_uris": {"ios": "https://dc.lft.to/lastmile_qr_scan", "android": "https://dc.lft.to/lastmile_qr_scan"}}, {"name": "1f84046f2e0e5440fbadf51f01ce6d57", "fusion_lat": 0.0, "type": "electric_scooter", "lat": 38.9122545, "is_reserved": 0, "is_disabled": 0, "fusion_lon": 0.0, "bike_id": "1f84046f2e0e5440fbadf51f01ce6d57", "lon": -77.02954866666667, "rental_uris": {"ios": "https://dc.lft.to/lastmile_qr_scan", "android": "https://dc.lft.to/lastmile_qr_scan"}}, {"name": "636f9fa6b66b0054910b3d31d8df17a8", "fusion_lat": 0.0, "type": "electric_scooter", "lat": 38.89825316666666, "is_reserved": 0, "is_disabled": 0, "fusion_lon": 0.0, "bike_id": "636f9fa6b66b0054910b3d31d8df17a8", "lon": -77.0406745, "rental_uris": {"ios": "https://dc.lft.to/lastmile_qr_scan", "android": "https://dc.lft.to/lastmile_qr_scan"}}, {"name": "1b76fcd709734e89e968e48cbd464c36", "fusion_lat": 0.0, "type": "electric_bike", "lat": 38.9518225, "is_reserved": 0, "is_disabled": 0, "fusion_lon": 0.0, "bike_id": "1b76fcd709734e89e968e48cbd464c36", "lon": -76.935454, "rental_uris": {"ios": "https://dc.lft.to/lastmile_qr_scan", "android": "https://dc.lft.to/lastmile_qr_scan"}}, {"name": "3daeef49d0b2d80f621ad89d3ee469d8", "fusion_lat": 0.0, "type": "electric_scooter", "lat": 38.94180583333333, "is_reserved": 0, "is_disabled": 0, "fusion_lon": 0.0, "bike_id": "3daeef49d0b2d80f621ad89d3ee469d8", "lon": -77.024856, "rental_uris": {"ios": "https://dc.lft.to/lastmile_qr_scan", "android": "https://dc.lft.to/lastmile_qr_scan"}}, {"name": "6537e5e88b9dd3974d25e2ace0dcf767", "fusion_lat": 0.0, "type": "electric_scooter", "lat": 38.9052965, "is_reserved": 0, "is_disabled": 0, "fusion_lon": 0.0, "bike_id": "6537e5e88b9dd3974d25e2ace0dcf767", "lon": -77.057648, "rental_uris": {"ios": "https://dc.lft.to/lastmile_qr_scan", "android": "https://dc.lft.to/lastmile_qr_scan"}}, {"name": "62d25f6016bcef5db0336ce6782f143f", "fusion_lat": 0.0, "type": "electric_bike", "lat": 38.83811933333333, "is_reserved": 0, "is_disabled": 0, "fusion_lon": 0.0, "bike_id": "62d25f6016bcef5db0336ce6782f143f", "lon": -77.09522516666667, "rental_uris": {"ios": "https://dc.lft.to/lastmile_qr_scan", "android": "https://dc.lft.to/lastmile_qr_scan"}}, {"name": "3f6bcf11f986f9fe80f2db9b6b24d995", "fusion_lat": 0.0, "type": "electric_scooter", "lat": 38.89401133333333, "is_reserved": 0, "is_disabled": 0, "fusion_lon": 0.0, "bike_id": "3f6bcf11f986f9fe80f2db9b6b24d995", "lon": -76.9480005, "rental_uris": {"ios": "https://dc.lft.to/lastmile_qr_scan", "android": "https://dc.lft.to/lastmile_qr_scan"}}, {"name": "5afe3ae45162ea89cf50dcbc36d8a342", "fusion_lat": 0.0, "type": "electric_scooter", "lat": 38.91929433333333, "is_reserved": 0, "is_disabled": 0, "fusion_lon": 0.0, "bike_id": "5afe3ae45162ea89cf50dcbc36d8a342", "lon": -77.03425533333333, "rental_uris": {"ios": "https://dc.lft.to/lastmile_qr_scan", "android": "https://dc.lft.to/lastmile_qr_scan"}}, {"name": "65da357cd98c144d4179147bda838fd6", "fusion_lat": 0.0, "type": "electric_scooter", "lat": 38.9358015, "is_reserved": 0, "is_disabled": 0, "fusion_lon": 0.0, "bike_id": "65da357cd98c144d4179147bda838fd6", "lon": -76.990993, "rental_uris": {"ios": "https://dc.lft.to/lastmile_qr_scan", "android": "https://dc.lft.to/lastmile_qr_scan"}}, {"name": "ca9749d6a293b2c6b17cb762f4711c0e", "fusion_lat": 0.0, "type": "electric_scooter", "lat": 38.908234666666665, "is_reserved": 0, "is_disabled": 0, "fusion_lon": 0.0, "bike_id": "ca9749d6a293b2c6b17cb762f4711c0e", "lon": -77.04363933333333, "rental_uris": {"ios": "https://dc.lft.to/lastmile_qr_scan", "android": "https://dc.lft.to/lastmile_qr_scan"}}, {"name": "2df27ef04941af7ad37b8282767f3313", "fusion_lat": 0.0, "type": "electric_scooter", "lat": 38.901519, "is_reserved": 0, "is_disabled": 0, "fusion_lon": 0.0, "bike_id": "2df27ef04941af7ad37b8282767f3313", "lon": -76.93059816666667, "rental_uris": {"ios": "https://dc.lft.to/lastmile_qr_scan", "android": "https://dc.lft.to/lastmile_qr_scan"}}, {"name": "bdaf2892fd93b54ecad15133b8685b49", "fusion_lat": 0.0, "type": "electric_scooter", "lat": 38.85708283333334, "is_reserved": 0, "is_disabled": 0, "fusion_lon": 0.0, "bike_id": "bdaf2892fd93b54ecad15133b8685b49", "lon": -76.98135483333333, "rental_uris": {"ios": "https://dc.lft.to/lastmile_qr_scan", "android": "https://dc.lft.to/lastmile_qr_scan"}}, {"name": "f3a1ec58433b3d080e18c8405d0edde4", "fusion_lat": 0.0, "type": "electric_scooter", "lat": 38.9252585, "is_reserved": 0, "is_disabled": 0, "fusion_lon": 0.0, "bike_id": "f3a1ec58433b3d080e18c8405d0edde4", "lon": -77.0552585, "rental_uris": {"ios": "https://dc.lft.to/lastmile_qr_scan", "android": "https://dc.lft.to/lastmile_qr_scan"}}, {"name": "a7eff13a22ee1073792d9405f7712e3d", "fusion_lat": 0.0, "type": "electric_bike", "lat": 38.9032855, "is_reserved": 0, "is_disabled": 0, "fusion_lon": 0.0, "bike_id": "a7eff13a22ee1073792d9405f7712e3d", "lon": -76.9753105, "rental_uris": {"ios": "https://dc.lft.to/lastmile_qr_scan", "android": "https://dc.lft.to/lastmile_qr_scan"}}, {"name": "1293ae05155388bf854e3a7b1e80625c", "fusion_lat": 0.0, "type": "electric_scooter", "lat": 38.88428, "is_reserved": 0, "is_disabled": 0, "fusion_lon": 0.0, "bike_id": "1293ae05155388bf854e3a7b1e80625c", "lon": -76.95744316666666, "rental_uris": {"ios": "https://dc.lft.to/lastmile_qr_scan", "android": "https://dc.lft.to/lastmile_qr_scan"}}, {"name": "3db4db1af8f754ed9bdbb91238342d48", "fusion_lat": 0.0, "type": "electric_scooter", "lat": 38.923373833333336, "is_reserved": 0, "is_disabled": 0, "fusion_lon": 0.0, "bike_id": "3db4db1af8f754ed9bdbb91238342d48", "lon": -77.0352285, "rental_uris": {"ios": "https://dc.lft.to/lastmile_qr_scan", "android": "https://dc.lft.to/lastmile_qr_scan"}}, {"name": "0ed6e5521246f577d7cdbc85d2a2fbbd", "fusion_lat": 0.0, "type": "electric_scooter", "lat": 38.931418666666666, "is_reserved": 0, "is_disabled": 0, "fusion_lon": 0.0, "bike_id": "0ed6e5521246f577d7cdbc85d2a2fbbd", "lon": -77.04056716666666, "rental_uris": {"ios": "https://dc.lft.to/lastmile_qr_scan", "android": "https://dc.lft.to/lastmile_qr_scan"}}, {"name": "fe3fe83ff8672e877218b4f55af43714", "fusion_lat": 0.0, "type": "electric_scooter", "lat": 38.9078095, "is_reserved": 0, "is_disabled": 0, "fusion_lon": 0.0, "bike_id": "fe3fe83ff8672e877218b4f55af43714", "lon": -77.03860533333334, "rental_uris": {"ios": "https://dc.lft.to/lastmile_qr_scan", "android": "https://dc.lft.to/lastmile_qr_scan"}}, {"name": "160ec7fe1bf7bc1d82c60424add0028a", "fusion_lat": 0.0, "type": "electric_scooter", "lat": 38.91122716666667, "is_reserved": 0, "is_disabled": 0, "fusion_lon": 0.0, "bike_id": "160ec7fe1bf7bc1d82c60424add0028a", "lon": -77.0293205, "rental_uris": {"ios": "https://dc.lft.to/lastmile_qr_scan", "android": "https://dc.lft.to/lastmile_qr_scan"}}, {"name": "9b7a36cd34cb93f0c11266270522ff58", "fusion_lat": 0.0, "type": "electric_scooter", "lat": 38.887441833333334, "is_reserved": 0, "is_disabled": 0, "fusion_lon": 0.0, "bike_id": "9b7a36cd34cb93f0c11266270522ff58", "lon": -77.02128116666667, "rental_uris": {"ios": "https://dc.lft.to/lastmile_qr_scan", "android": "https://dc.lft.to/lastmile_qr_scan"}}, {"name": "81cb1429e6f03f5816c0f8b4cf6a76e0", "fusion_lat": 0.0, "type": "electric_scooter", "lat": 38.91175766666667, "is_reserved": 0, "is_disabled": 0, "fusion_lon": 0.0, "bike_id": "81cb1429e6f03f5816c0f8b4cf6a76e0", "lon": -77.00139266666666, "rental_uris": {"ios": "https://dc.lft.to/lastmile_qr_scan", "android": "https://dc.lft.to/lastmile_qr_scan"}}, {"name": "25d0c98ee369ebe6260daef65f442bb6", "fusion_lat": 0.0, "type": "electric_scooter", "lat": 38.91636916666667, "is_reserved": 0, "is_disabled": 0, "fusion_lon": 0.0, "bike_id": "25d0c98ee369ebe6260daef65f442bb6", "lon": -77.0317875, "rental_uris": {"ios": "https://dc.lft.to/lastmile_qr_scan", "android": "https://dc.lft.to/lastmile_qr_scan"}}, {"name": "66304615cfb73b542f54d0cd7802602e", "fusion_lat": 0.0, "type": "electric_scooter", "lat": 38.905055, "is_reserved": 0, "is_disabled": 0, "fusion_lon": 0.0, "bike_id": "66304615cfb73b542f54d0cd7802602e", "lon": -77.02614083333333, "rental_uris": {"ios": "https://dc.lft.to/lastmile_qr_scan", "android": "https://dc.lft.to/lastmile_qr_scan"}}, {"name": "b8ffc468c642f590d9c44a1014678217", "fusion_lat": 0.0, "type": "electric_scooter", "lat": 38.92623483333333, "is_reserved": 0, "is_disabled": 0, "fusion_lon": 0.0, "bike_id": "b8ffc468c642f590d9c44a1014678217", "lon": -77.04188066666667, "rental_uris": {"ios": "https://dc.lft.to/lastmile_qr_scan", "android": "https://dc.lft.to/lastmile_qr_scan"}}, {"name": "37bc67166aa210f5e500d997ed6da3d8", "fusion_lat": 0.0, "type": "electric_scooter", "lat": 38.9237895, "is_reserved": 0, "is_disabled": 0, "fusion_lon": 0.0, "bike_id": "37bc67166aa210f5e500d997ed6da3d8", "lon": -77.029525, "rental_uris": {"ios": "https://dc.lft.to/lastmile_qr_scan", "android": "https://dc.lft.to/lastmile_qr_scan"}}, {"name": "6c5816d0a6f1cc0c74a48ff3840dd305", "fusion_lat": 0.0, "type": "electric_scooter", "lat": 38.906487166666665, "is_reserved": 0, "is_disabled": 0, "fusion_lon": 0.0, "bike_id": "6c5816d0a6f1cc0c74a48ff3840dd305", "lon": -76.98372116666667, "rental_uris": {"ios": "https://dc.lft.to/lastmile_qr_scan", "android": "https://dc.lft.to/lastmile_qr_scan"}}, {"name": "84e96c5b4f6fac0462cdee115a43bdcc", "fusion_lat": 0.0, "type": "electric_scooter", "lat": 38.909969833333335, "is_reserved": 0, "is_disabled": 0, "fusion_lon": 0.0, "bike_id": "84e96c5b4f6fac0462cdee115a43bdcc", "lon": -77.04012133333333, "rental_uris": {"ios": "https://dc.lft.to/lastmile_qr_scan", "android": "https://dc.lft.to/lastmile_qr_scan"}}, {"name": "1c2ad602a3399c69e9adaaf2f7086c29", "fusion_lat": 0.0, "type": "electric_scooter", "lat": 38.91419833333333, "is_reserved": 0, "is_disabled": 0, "fusion_lon": 0.0, "bike_id": "1c2ad602a3399c69e9adaaf2f7086c29", "lon": -77.041582, "rental_uris": {"ios": "https://dc.lft.to/lastmile_qr_scan", "android": "https://dc.lft.to/lastmile_qr_scan"}}, {"name": "974d90da40c71b848fe37ed6af0d79e6", "fusion_lat": 0.0, "type": "electric_bike", "lat": 38.914040166666666, "is_reserved": 0, "is_disabled": 0, "fusion_lon": 0.0, "bike_id": "974d90da40c71b848fe37ed6af0d79e6", "lon": -77.03223733333333, "rental_uris": {"ios": "https://dc.lft.to/lastmile_qr_scan", "android": "https://dc.lft.to/lastmile_qr_scan"}}, {"name": "0cc044b49ef95e347ad8079baa9327b5", "fusion_lat": 0.0, "type": "electric_scooter", "lat": 38.88610766666667, "is_reserved": 0, "is_disabled": 0, "fusion_lon": 0.0, "bike_id": "0cc044b49ef95e347ad8079baa9327b5", "lon": -76.97821666666667, "rental_uris": {"ios": "https://dc.lft.to/lastmile_qr_scan", "android": "https://dc.lft.to/lastmile_qr_scan"}}, {"name": "7fdefea87a1f6703673ca29a003ba398", "fusion_lat": 0.0, "type": "electric_scooter", "lat": 38.9125845, "is_reserved": 0, "is_disabled": 0, "fusion_lon": 0.0, "bike_id": "7fdefea87a1f6703673ca29a003ba398", "lon": -77.00772666666667, "rental_uris": {"ios": "https://dc.lft.to/lastmile_qr_scan", "android": "https://dc.lft.to/lastmile_qr_scan"}}, {"name": "fce2ea171650d00b3fc10ff1ff86375a", "fusion_lat": 0.0, "type": "electric_scooter", "lat": 38.9212935, "is_reserved": 0, "is_disabled": 0, "fusion_lon": 0.0, "bike_id": "fce2ea171650d00b3fc10ff1ff86375a", "lon": -77.04570633333333, "rental_uris": {"ios": "https://dc.lft.to/lastmile_qr_scan", "android": "https://dc.lft.to/lastmile_qr_scan"}}, {"name": "6fd70498043daf73b4ae84c09e412989", "fusion_lat": 0.0, "type": "electric_bike", "lat": 38.89835333333333, "is_reserved": 0, "is_disabled": 0, "fusion_lon": 0.0, "bike_id": "6fd70498043daf73b4ae84c09e412989", "lon": -77.11797883333334, "rental_uris": {"ios": "https://dc.lft.to/lastmile_qr_scan", "android": "https://dc.lft.to/lastmile_qr_scan"}}, {"name": "8691886f91e6ae79bdd89943670ba531", "fusion_lat": 0.0, "type": "electric_scooter", "lat": 38.933679833333336, "is_reserved": 0, "is_disabled": 0, "fusion_lon": 0.0, "bike_id": "8691886f91e6ae79bdd89943670ba531", "lon": -77.05719216666667, "rental_uris": {"ios": "https://dc.lft.to/lastmile_qr_scan", "android": "https://dc.lft.to/lastmile_qr_scan"}}, {"name": "a545fb91bb8628f3d4cb8afb13a48290", "fusion_lat": 0.0, "type": "electric_scooter", "lat": 38.92058216666667, "is_reserved": 0, "is_disabled": 0, "fusion_lon": 0.0, "bike_id": "a545fb91bb8628f3d4cb8afb13a48290", "lon": -77.0293765, "rental_uris": {"ios": "https://dc.lft.to/lastmile_qr_scan", "android": "https://dc.lft.to/lastmile_qr_scan"}}, {"name": "572bc4ed9f3991a215dd0a93656ef242", "fusion_lat": 0.0, "type": "electric_scooter", "lat": 38.903788166666665, "is_reserved": 0, "is_disabled": 0, "fusion_lon": 0.0, "bike_id": "572bc4ed9f3991a215dd0a93656ef242", "lon": -77.044954, "rental_uris": {"ios": "https://dc.lft.to/lastmile_qr_scan", "android": "https://dc.lft.to/lastmile_qr_scan"}}, {"name": "e201a13805ad06173bf2fbc8ab3f7dcf", "fusion_lat": 0.0, "type": "electric_scooter", "lat": 38.909627, "is_reserved": 0, "is_disabled": 0, "fusion_lon": 0.0, "bike_id": "e201a13805ad06173bf2fbc8ab3f7dcf", "lon": -77.0386445, "rental_uris": {"ios": "https://dc.lft.to/lastmile_qr_scan", "android": "https://dc.lft.to/lastmile_qr_scan"}}, {"name": "9dbfcfb6510d3cc0cffd4c085e538d9c", "fusion_lat": 0.0, "type": "electric_bike", "lat": 38.896852, "is_reserved": 0, "is_disabled": 0, "fusion_lon": 0.0, "bike_id": "9dbfcfb6510d3cc0cffd4c085e538d9c", "lon": -76.94065816666667, "rental_uris": {"ios": "https://dc.lft.to/lastmile_qr_scan", "android": "https://dc.lft.to/lastmile_qr_scan"}}, {"name": "12ba8e5e983e6b14450333337fb21535", "fusion_lat": 0.0, "type": "electric_scooter", "lat": 38.93305866666667, "is_reserved": 0, "is_disabled": 0, "fusion_lon": 0.0, "bike_id": "12ba8e5e983e6b14450333337fb21535", "lon": -77.030905, "rental_uris": {"ios": "https://dc.lft.to/lastmile_qr_scan", "android": "https://dc.lft.to/lastmile_qr_scan"}}, {"name": "cf03a8d1e6979ec99f7123d1b055ecaf", "fusion_lat": 0.0, "type": "electric_scooter", "lat": 38.93192233333333, "is_reserved": 0, "is_disabled": 0, "fusion_lon": 0.0, "bike_id": "cf03a8d1e6979ec99f7123d1b055ecaf", "lon": -77.02790466666667, "rental_uris": {"ios": "https://dc.lft.to/lastmile_qr_scan", "android": "https://dc.lft.to/lastmile_qr_scan"}}, {"name": "5c73edf8c07ef2b35c7d73cfb9da15da", "fusion_lat": 0.0, "type": "electric_bike", "lat": 38.8863775, "is_reserved": 0, "is_disabled": 0, "fusion_lon": 0.0, "bike_id": "5c73edf8c07ef2b35c7d73cfb9da15da", "lon": -76.95463083333334, "rental_uris": {"ios": "https://dc.lft.to/lastmile_qr_scan", "android": "https://dc.lft.to/lastmile_qr_scan"}}, {"name": "6066c7b1305aed2d5a41cd74e311badf", "fusion_lat": 0.0, "type": "electric_bike", "lat": 38.9377245, "is_reserved": 0, "is_disabled": 0, "fusion_lon": 0.0, "bike_id": "6066c7b1305aed2d5a41cd74e311badf", "lon": -77.019085, "rental_uris": {"ios": "https://dc.lft.to/lastmile_qr_scan", "android": "https://dc.lft.to/lastmile_qr_scan"}}, {"name": "0e938af9a7f0f4c0cbb4eee2ba5d9597", "fusion_lat": 0.0, "type": "electric_scooter", "lat": 38.897728, "is_reserved": 0, "is_disabled": 0, "fusion_lon": 0.0, "bike_id": "0e938af9a7f0f4c0cbb4eee2ba5d9597", "lon": -77.04778483333334, "rental_uris": {"ios": "https://dc.lft.to/lastmile_qr_scan", "android": "https://dc.lft.to/lastmile_qr_scan"}}, {"name": "16c4382564cc25ec7e59c80c70c2e878", "fusion_lat": 0.0, "type": "electric_scooter", "lat": 38.89802566666667, "is_reserved": 0, "is_disabled": 0, "fusion_lon": 0.0, "bike_id": "16c4382564cc25ec7e59c80c70c2e878", "lon": -76.995001, "rental_uris": {"ios": "https://dc.lft.to/lastmile_qr_scan", "android": "https://dc.lft.to/lastmile_qr_scan"}}, {"name": "c203dc61ee71b97c41bf0faf1129b8d0", "fusion_lat": 0.0, "type": "electric_scooter", "lat": 38.90310066666667, "is_reserved": 0, "is_disabled": 0, "fusion_lon": 0.0, "bike_id": "c203dc61ee71b97c41bf0faf1129b8d0", "lon": -77.04983383333334, "rental_uris": {"ios": "https://dc.lft.to/lastmile_qr_scan", "android": "https://dc.lft.to/lastmile_qr_scan"}}, {"name": "01e2558dd5b5040b26ce4ab29ecd24c1", "fusion_lat": 0.0, "type": "electric_scooter", "lat": 38.857159833333334, "is_reserved": 0, "is_disabled": 0, "fusion_lon": 0.0, "bike_id": "01e2558dd5b5040b26ce4ab29ecd24c1", "lon": -76.98099816666667, "rental_uris": {"ios": "https://dc.lft.to/lastmile_qr_scan", "android": "https://dc.lft.to/lastmile_qr_scan"}}, {"name": "ace15f6ff28732e76081180507256751", "fusion_lat": 0.0, "type": "electric_scooter", "lat": 38.88964033333333, "is_reserved": 0, "is_disabled": 0, "fusion_lon": 0.0, "bike_id": "ace15f6ff28732e76081180507256751", "lon": -76.9277585, "rental_uris": {"ios": "https://dc.lft.to/lastmile_qr_scan", "android": "https://dc.lft.to/lastmile_qr_scan"}}, {"name": "cfcad419583e8570ddbf2bcac4e6221c", "fusion_lat": 0.0, "type": "electric_scooter", "lat": 38.93394933333333, "is_reserved": 0, "is_disabled": 0, "fusion_lon": 0.0, "bike_id": "cfcad419583e8570ddbf2bcac4e6221c", "lon": -77.031582, "rental_uris": {"ios": "https://dc.lft.to/lastmile_qr_scan", "android": "https://dc.lft.to/lastmile_qr_scan"}}, {"name": "c39657a4b361ec02b9ce415421f31270", "fusion_lat": 0.0, "type": "electric_scooter", "lat": 38.91827966666666, "is_reserved": 0, "is_disabled": 0, "fusion_lon": 0.0, "bike_id": "c39657a4b361ec02b9ce415421f31270", "lon": -77.031799, "rental_uris": {"ios": "https://dc.lft.to/lastmile_qr_scan", "android": "https://dc.lft.to/lastmile_qr_scan"}}, {"name": "ded6c80591176f128f868aa723eefbf4", "fusion_lat": 0.0, "type": "electric_scooter", "lat": 38.9234465, "is_reserved": 0, "is_disabled": 0, "fusion_lon": 0.0, "bike_id": "ded6c80591176f128f868aa723eefbf4", "lon": -77.0509815, "rental_uris": {"ios": "https://dc.lft.to/lastmile_qr_scan", "android": "https://dc.lft.to/lastmile_qr_scan"}}, {"name": "02f19e816c92e471414d5680a11185c3", "fusion_lat": 0.0, "type": "electric_scooter", "lat": 38.903436166666665, "is_reserved": 0, "is_disabled": 0, "fusion_lon": 0.0, "bike_id": "02f19e816c92e471414d5680a11185c3", "lon": -77.03845166666666, "rental_uris": {"ios": "https://dc.lft.to/lastmile_qr_scan", "android": "https://dc.lft.to/lastmile_qr_scan"}}, {"name": "e4a7525e2310e56c4c89c8dcb9ed3421", "fusion_lat": 0.0, "type": "electric_scooter", "lat": 38.905711833333335, "is_reserved": 0, "is_disabled": 0, "fusion_lon": 0.0, "bike_id": "e4a7525e2310e56c4c89c8dcb9ed3421", "lon": -77.02216816666666, "rental_uris": {"ios": "https://dc.lft.to/lastmile_qr_scan", "android": "https://dc.lft.to/lastmile_qr_scan"}}, {"name": "e6a2aa4095e882ce0dca0035ef8ae2b9", "fusion_lat": 0.0, "type": "electric_scooter", "lat": 38.95402, "is_reserved": 0, "is_disabled": 0, "fusion_lon": 0.0, "bike_id": "e6a2aa4095e882ce0dca0035ef8ae2b9", "lon": -77.0274495, "rental_uris": {"ios": "https://dc.lft.to/lastmile_qr_scan", "android": "https://dc.lft.to/lastmile_qr_scan"}}, {"name": "aaf72518a6bb2406f7f60f5a510ba66c", "fusion_lat": 0.0, "type": "electric_scooter", "lat": 38.902848666666664, "is_reserved": 0, "is_disabled": 0, "fusion_lon": 0.0, "bike_id": "aaf72518a6bb2406f7f60f5a510ba66c", "lon": -77.0384655, "rental_uris": {"ios": "https://dc.lft.to/lastmile_qr_scan", "android": "https://dc.lft.to/lastmile_qr_scan"}}, {"name": "8aacc8cff14ec1be616fdc633e8b9e34", "fusion_lat": 0.0, "type": "electric_scooter", "lat": 38.914046166666665, "is_reserved": 0, "is_disabled": 0, "fusion_lon": 0.0, "bike_id": "8aacc8cff14ec1be616fdc633e8b9e34", "lon": -77.02726733333333, "rental_uris": {"ios": "https://dc.lft.to/lastmile_qr_scan", "android": "https://dc.lft.to/lastmile_qr_scan"}}, {"name": "ab0f973135ccbd73cf336585d7e6a14a", "fusion_lat": 0.0, "type": "electric_scooter", "lat": 38.918008666666665, "is_reserved": 0, "is_disabled": 0, "fusion_lon": 0.0, "bike_id": "ab0f973135ccbd73cf336585d7e6a14a", "lon": -77.0401645, "rental_uris": {"ios": "https://dc.lft.to/lastmile_qr_scan", "android": "https://dc.lft.to/lastmile_qr_scan"}}, {"name": "51ed84ddcf930e060a9614f462492932", "fusion_lat": 0.0, "type": "electric_scooter", "lat": 38.9346925, "is_reserved": 0, "is_disabled": 0, "fusion_lon": 0.0, "bike_id": "51ed84ddcf930e060a9614f462492932", "lon": -77.02841833333333, "rental_uris": {"ios": "https://dc.lft.to/lastmile_qr_scan", "android": "https://dc.lft.to/lastmile_qr_scan"}}, {"name": "2a313b4c41e2f4afc02a1eabdf4919e0", "fusion_lat": 0.0, "type": "electric_scooter", "lat": 38.90735683333333, "is_reserved": 0, "is_disabled": 0, "fusion_lon": 0.0, "bike_id": "2a313b4c41e2f4afc02a1eabdf4919e0", "lon": -77.04494383333333, "rental_uris": {"ios": "https://dc.lft.to/lastmile_qr_scan", "android": "https://dc.lft.to/lastmile_qr_scan"}}, {"name": "cd2f4f4e8a306039e0eb19159ef36fac", "fusion_lat": 0.0, "type": "electric_scooter", "lat": 38.927054166666665, "is_reserved": 0, "is_disabled": 0, "fusion_lon": 0.0, "bike_id": "cd2f4f4e8a306039e0eb19159ef36fac", "lon": -77.037344, "rental_uris": {"ios": "https://dc.lft.to/lastmile_qr_scan", "android": "https://dc.lft.to/lastmile_qr_scan"}}, {"name": "3bb7a0f1f8d62c750b158093e1faecf6", "fusion_lat": 0.0, "type": "electric_scooter", "lat": 38.915852666666666, "is_reserved": 0, "is_disabled": 0, "fusion_lon": 0.0, "bike_id": "3bb7a0f1f8d62c750b158093e1faecf6", "lon": -77.0318815, "rental_uris": {"ios": "https://dc.lft.to/lastmile_qr_scan", "android": "https://dc.lft.to/lastmile_qr_scan"}}, {"name": "7c4b960a22db64257ab1e83726f847f7", "fusion_lat": 0.0, "type": "electric_scooter", "lat": 38.922337166666665, "is_reserved": 0, "is_disabled": 0, "fusion_lon": 0.0, "bike_id": "7c4b960a22db64257ab1e83726f847f7", "lon": -77.0425035, "rental_uris": {"ios": "https://dc.lft.to/lastmile_qr_scan", "android": "https://dc.lft.to/lastmile_qr_scan"}}, {"name": "32c657c99dd90ec62ae63d7fd4571d4c", "fusion_lat": 0.0, "type": "electric_scooter", "lat": 38.958701, "is_reserved": 0, "is_disabled": 0, "fusion_lon": 0.0, "bike_id": "32c657c99dd90ec62ae63d7fd4571d4c", "lon": -77.0205405, "rental_uris": {"ios": "https://dc.lft.to/lastmile_qr_scan", "android": "https://dc.lft.to/lastmile_qr_scan"}}, {"name": "aa62355b34c077159764ef178bec0fc9", "fusion_lat": 0.0, "type": "electric_scooter", "lat": 38.92908166666667, "is_reserved": 0, "is_disabled": 0, "fusion_lon": 0.0, "bike_id": "aa62355b34c077159764ef178bec0fc9", "lon": -77.02618566666666, "rental_uris": {"ios": "https://dc.lft.to/lastmile_qr_scan", "android": "https://dc.lft.to/lastmile_qr_scan"}}, {"name": "a97b1dfb1d8a8de7b5750479b957a91c", "fusion_lat": 0.0, "type": "electric_bike", "lat": 38.8524595, "is_reserved": 0, "is_disabled": 0, "fusion_lon": 0.0, "bike_id": "a97b1dfb1d8a8de7b5750479b957a91c", "lon": -77.11422883333333, "rental_uris": {"ios": "https://dc.lft.to/lastmile_qr_scan", "android": "https://dc.lft.to/lastmile_qr_scan"}}, {"name": "3611710b25bc92531f0be43e110b737a", "fusion_lat": 0.0, "type": "electric_scooter", "lat": 38.90959433333333, "is_reserved": 0, "is_disabled": 0, "fusion_lon": 0.0, "bike_id": "3611710b25bc92531f0be43e110b737a", "lon": -77.041352, "rental_uris": {"ios": "https://dc.lft.to/lastmile_qr_scan", "android": "https://dc.lft.to/lastmile_qr_scan"}}, {"name": "05b0019cdf602e4d65141963bda98749", "fusion_lat": 0.0, "type": "electric_scooter", "lat": 38.842962666666665, "is_reserved": 0, "is_disabled": 0, "fusion_lon": 0.0, "bike_id": "05b0019cdf602e4d65141963bda98749", "lon": -76.99948466666666, "rental_uris": {"ios": "https://dc.lft.to/lastmile_qr_scan", "android": "https://dc.lft.to/lastmile_qr_scan"}}, {"name": "eee8670fcb64211a536153f7c22d073c", "fusion_lat": 0.0, "type": "electric_scooter", "lat": 38.8580025, "is_reserved": 0, "is_disabled": 0, "fusion_lon": 0.0, "bike_id": "eee8670fcb64211a536153f7c22d073c", "lon": -76.9865205, "rental_uris": {"ios": "https://dc.lft.to/lastmile_qr_scan", "android": "https://dc.lft.to/lastmile_qr_scan"}}, {"name": "d041b7d8e9ad74dac46ed84be8acd7c6", "fusion_lat": 0.0, "type": "electric_scooter", "lat": 38.89984283333333, "is_reserved": 0, "is_disabled": 0, "fusion_lon": 0.0, "bike_id": "d041b7d8e9ad74dac46ed84be8acd7c6", "lon": -77.02713933333334, "rental_uris": {"ios": "https://dc.lft.to/lastmile_qr_scan", "android": "https://dc.lft.to/lastmile_qr_scan"}}, {"name": "647561e3788f5e67b01ef79052b416c0", "fusion_lat": 0.0, "type": "electric_scooter", "lat": 38.93945633333333, "is_reserved": 0, "is_disabled": 0, "fusion_lon": 0.0, "bike_id": "647561e3788f5e67b01ef79052b416c0", "lon": -77.03263266666667, "rental_uris": {"ios": "https://dc.lft.to/lastmile_qr_scan", "android": "https://dc.lft.to/lastmile_qr_scan"}},