{"data": {"bikes": [{"bike_id": "4ca5d89c33538a1840e18dbbbdd61891", "fusion_lon": 0.0, "name": "4ca5d89c33538a1840e18dbbbdd61891", "lat": 38.9228005, "is_disabled": 0, "is_reserved": 0, "lon": -77.04239716666666, "type": "electric_scooter", "fusion_lat": 0.0, "rental_uris": {"android": "https://dc.lft.to/lastmile_qr_scan", "ios": "https://dc.lft.to/lastmile_qr_scan"}}, {"bike_id": "eb596413f45144fdfb40ec4999b32765", "fusion_lon": 0.0, "name": "eb596413f45144fdfb40ec4999b32765", "lat": 38.907255666666664, "is_disabled": 0, "is_reserved": 0, "lon": -77.03441616666667, "type": "electric_scooter", "fusion_lat": 0.0, "rental_uris": {"android": "https://dc.lft.to/lastmile_qr_scan", "ios": "https://dc.lft.to/lastmile_qr_scan"}}, {"bike_id": "213dd3f0a27627fd4b5c884075a9d0c5", "fusion_lon": 0.0, "name": "213dd3f0a27627fd4b5c884075a9d0c5", "lat": 38.89403433333333, "is_disabled": 0, "is_reserved": 0, "lon": -76.99160066666667, "type": "electric_scooter", "fusion_lat": 0.0, "rental_uris": {"android": "https://dc.lft.to/lastmile_qr_scan", "ios": "https://dc.lft.to/lastmile_qr_scan"}}, {"bike_id": "0fdab2162153578eab3c86cf9bf9beb5", "fusion_lon": 0.0, "name": "0fdab2162153578eab3c86cf9bf9beb5", "lat": 38.92655116666667, "is_disabled": 0, "is_reserved": 0, "lon": -77.0429895, "type": "electric_scooter", "fusion_lat": 0.0, "rental_uris": {"android": "https://dc.lft.to/lastmile_qr_scan", "ios": "https://dc.lft.to/lastmile_qr_scan"}}, {"bike_id": "c2db0a2fe8b0c14d96c62469e0327773", "fusion_lon": 0.0, "name": "c2db0a2fe8b0c14d96c62469e0327773", "lat": 38.908133, "is_disabled": 0, "is_reserved": 0, "lon": -77.039426, "type": "electric_scooter", "fusion_lat": 0.0, "rental_uris": {"android": "https://dc.lft.to/lastmile_qr_scan", "ios": "https://dc.lft.to/lastmile_qr_scan"}}, {"bike_id": "d3dee3f83a953ca19c15b7047f0f1422", "fusion_lon": 0.0, "name": "d3dee3f83a953ca19c15b7047f0f1422", "lat": 38.906908, "is_disabled": 0, "is_reserved": 0, "lon": -77.0572135, "type": "electric_scooter", "fusion_lat": 0.0, "rental_uris": {"android": "https://dc.lft.to/lastmile_qr_scan", "ios": "https://dc.lft.to/lastmile_qr_scan"}}, {"bike_id": "95ae7d9420dc37f8f77bb97769ec464c", "fusion_lon": 0.0, "name": "95ae7d9420dc37f8f77bb97769ec464c", "lat": 38.90019516666667, "is_disabled": 0, "is_reserved": 0, "lon": -76.98789633333334, "type": "electric_scooter", "fusion_lat": 0.0, "rental_uris": {"android": "https://dc.lft.to/lastmile_qr_scan", "ios": "https://dc.lft.to/lastmile_qr_scan"}}, {"bike_id": "0fdbb7c43f7a3b0b06bb0621acf4ed6f", "fusion_lon": 0.0, "name": "0fdbb7c43f7a3b0b06bb0621acf4ed6f", "lat": 39.08458433333333, "is_disabled": 0, "is_reserved": 0, "lon": -76.95195566666666, "type": "electric_bike", "fusion_lat": 0.0, "rental_uris": {"android": "https://dc.lft.to/lastmile_qr_scan", "ios": "https://dc.lft.to/lastmile_qr_scan"}}, {"bike_id": "b16724f81131b546af31e804206b9521", "fusion_lon": 0.0, "name": "b16724f81131b546af31e804206b9521", "lat": 38.914853, "is_disabled": 0, "is_reserved": 0, "lon": -77.008744, "type": "electric_scooter", "fusion_lat": 0.0, "rental_uris": {"android": "https://dc.lft.to/lastmile_qr_scan", "ios": "https://dc.lft.to/lastmile_qr_scan"}}, {"bike_id": "563a509bb78bdebb732ac91dbbf1171a", "fusion_lon": 0.0, "name": "563a509bb78bdebb732ac91dbbf1171a", "lat": 38.9629115, "is_disabled": 0, "is_reserved": 0, "lon": -77.01059366666667, "type": "electric_bike", "fusion_lat": 0.0, "rental_uris": {"android": "https://dc.lft.to/lastmile_qr_scan", "ios": "https://dc.lft.to/lastmile_qr_scan"}}, {"bike_id": "d7ae5dd742937380d76508874d03dfab", "fusion_lon": 0.0, "name": "d7ae5dd742937380d76508874d03dfab", "lat": 38.88738633333333, "is_disabled": 0, "is_reserved": 0, "lon": -76.99488, "type": "electric_scooter", "fusion_lat": 0.0, "rental_uris": {"android": "https://dc.lft.to/lastmile_qr_scan", "ios": "https://dc.lft.to/lastmile_qr_scan"}}, {"bike_id": "b2e9847029e2122322aafa70c0c4fd16", "fusion_lon": 0.0, "name": "b2e9847029e2122322aafa70c0c4fd16", "lat": 38.92973583333333, "is_disabled": 0, "is_reserved": 0, "lon": -77.03183483333333, "type": "electric_scooter", "fusion_lat": 0.0, "rental_uris": {"android": "https://dc.lft.to/lastmile_qr_scan", "ios": "https://dc.lft.to/lastmile_qr_scan"}}, {"bike_id": "39e9a243d3288942186cf2064fbb1cf5", "fusion_lon": 0.0, "name": "39e9a243d3288942186cf2064fbb1cf5", "lat": 38.91912283333333, "is_disabled": 0, "is_reserved": 0, "lon": -77.02136883333333, "type": "electric_scooter", "fusion_lat": 0.0, "rental_uris": {"android": "https://dc.lft.to/lastmile_qr_scan", "ios": "https://dc.lft.to/lastmile_qr_scan"}}, {"bike_id": "15c6dd6775cb3b42868511a3a5283e0a", "fusion_lon": 0.0, "name": "15c6dd6775cb3b42868511a3a5283e0a", "lat": 38.93487483333333, "is_disabled": 0, "is_reserved": 0, "lon": -77.04534883333334, "type": "electric_scooter", "fusion_lat": 0.0, "rental_uris": {"android": "https://dc.lft.to/lastmile_qr_scan", "ios": "https://dc.lft.to/lastmile_qr_scan"}}, {"bike_id": "23db21bb996e60d3b15e23b20c45400f", "fusion_lon": 0.0, "name": "23db21bb996e60d3b15e23b20c45400f", "lat": 38.83144016666667, "is_disabled": 0, "is_reserved": 0, "lon": -77.0084075, "type": "electric_scooter", "fusion_lat": 0.0, "rental_uris": {"android": "https://dc.lft.to/lastmile_qr_scan", "ios": "https://dc.lft.to/lastmile_qr_scan"}}, {"bike_id": "3bea6abb239d8067fbb93777b5be5b25", "fusion_lon": 0.0, "name": "3bea6abb239d8067fbb93777b5be5b25", "lat": 38.89240916666667, "is_disabled": 0, "is_reserved": 0, "lon": -77.03955816666667, "type": "electric_scooter", "fusion_lat": 0.0, "rental_uris": {"android": "https://dc.lft.to/lastmile_qr_scan", "ios": "https://dc.lft.to/lastmile_qr_scan"}}, {"bike_id": "2f69c226f97bf74b0e571d7a05f7308b", "fusion_lon": 0.0, "name": "2f69c226f97bf74b0e571d7a05f7308b", "lat": 38.89874616666667, "is_disabled": 0, "is_reserved": 0, "lon": -76.93182483333334, "type": "electric_scooter", "fusion_lat": 0.0, "rental_uris": {"android": "https://dc.lft.to/lastmile_qr_scan", "ios": "https://dc.lft.to/lastmile_qr_scan"}}, {"bike_id": "4748f28ac4acb5c88a01ac1128e2297f", "fusion_lon": 0.0, "name": "4748f28ac4acb5c88a01ac1128e2297f", "lat": 38.90982416666667, "is_disabled": 0, "is_reserved": 0, "lon": -77.03440516666667, "type": "electric_scooter", "fusion_lat": 0.0, "rental_uris": {"android": "https://dc.lft.to/lastmile_qr_scan", "ios": "https://dc.lft.to/lastmile_qr_scan"}}, {"bike_id": "ccd38073ca12426f7b0d93a25ff92bca", "fusion_lon": 0.0, "name": "ccd38073ca12426f7b0d93a25ff92bca", "lat": 38.90110683333333, "is_disabled": 0, "is_reserved": 0, "lon": -77.046064, "type": "electric_scooter", "fusion_lat": 0.0, "rental_uris": {"android": "https://dc.lft.to/lastmile_qr_scan", "ios": "https://dc.lft.to/lastmile_qr_scan"}}, {"bike_id": "674d216690632351bfc1e597c9ac9b86", "fusion_lon": 0.0, "name": "674d216690632351bfc1e597c9ac9b86", "lat": 38.902465666666664, "is_disabled": 0, "is_reserved": 0, "lon": -77.0475295, "type": "electric_scooter", "fusion_lat": 0.0, "rental_uris": {"android": "https://dc.lft.to/lastmile_qr_scan", "ios": "https://dc.lft.to/lastmile_qr_scan"}}, {"bike_id": "fc5a6d3ee4310fd974ea8e827cfc93f8", "fusion_lon": 0.0, "name": "fc5a6d3ee4310fd974ea8e827cfc93f8", "lat": 38.90980833333333, "is_disabled": 0, "is_reserved": 0, "lon": -77.03439066666667, "type": "electric_scooter", "fusion_lat": 0.0, "rental_uris": {"android": "https://dc.lft.to/lastmile_qr_scan", "ios": "https://dc.lft.to/lastmile_qr_scan"}}, {"bike_id": "5635ad867a0c13dc282314ea9b441cfa", "fusion_lon": 0.0, "name": "5635ad867a0c13dc282314ea9b441cfa", "lat": 38.901458, "is_disabled": 0, "is_reserved": 0, "lon": -77.0347255, "type": "electric_scooter", "fusion_lat": 0.0, "rental_uris": {"android": "https://dc.lft.to/lastmile_qr_scan", "ios": "https://dc.lft.to/lastmile_qr_scan"}}, {"bike_id": "1cc0e894cfc3ecfee11445f229c77f07", "fusion_lon": 0.0, "name": "1cc0e894cfc3ecfee11445f229c77f07", "lat": 38.89883116666667, "is_disabled": 0, "is_reserved": 0, "lon": -77.02039033333334, "type": "electric_scooter", "fusion_lat": 0.0, "rental_uris": {"android": "https://dc.lft.to/lastmile_qr_scan", "ios": "https://dc.lft.to/lastmile_qr_scan"}}, {"bike_id": "04ec6efea263c1a38eefd78847bde976", "fusion_lon": 0.0, "name": "04ec6efea263c1a38eefd78847bde976", "lat": 38.892384, "is_disabled": 0, "is_reserved": 0, "lon": -77.0487025, "type": "electric_scooter", "fusion_lat": 0.0, "rental_uris": {"android": "https://dc.lft.to/lastmile_qr_scan", "ios": "https://dc.lft.to/lastmile_qr_scan"}}, {"bike_id": "d2034d18526378241fb5525f0e3a55a1", "fusion_lon": 0.0, "name": "d2034d18526378241fb5525f0e3a55a1", "lat": 38.8561095, "is_disabled": 0, "is_reserved": 0, "lon": -76.9727255, "type": "electric_scooter", "fusion_lat": 0.0, "rental_uris": {"android": "https://dc.lft.to/lastmile_qr_scan", "ios": "https://dc.lft.to/lastmile_qr_scan"}}, {"bike_id": "757dc85fd0aea3787f7ebca354234dee", "fusion_lon": 0.0, "name": "757dc85fd0aea3787f7ebca354234dee", "lat": 38.881384833333335, "is_disabled": 0, "is_reserved": 0, "lon": -77.02709316666666, "type": "electric_scooter", "fusion_lat": 0.0, "rental_uris": {"android": "https://dc.lft.to/lastmile_qr_scan", "ios": "https://dc.lft.to/lastmile_qr_scan"}}, {"bike_id": "8e8cb427d4679c72f8ef1e06c677faf6", "fusion_lon": 0.0, "name": "8e8cb427d4679c72f8ef1e06c677faf6", "lat": 38.922698, "is_disabled": 0, "is_reserved": 0, "lon": -77.0326135, "type": "electric_scooter", "fusion_lat": 0.0, "rental_uris": {"android": "https://dc.lft.to/lastmile_qr_scan", "ios": "https://dc.lft.to/lastmile_qr_scan"}}, {"bike_id": "f7bf5deaaceeacf2a23a902911f6a4b0", "fusion_lon": 0.0, "name": "f7bf5deaaceeacf2a23a902911f6a4b0", "lat": 38.88300816666667, "is_disabled": 0, "is_reserved": 0, "lon": -77.01360283333334, "type": "electric_scooter", "fusion_lat": 0.0, "rental_uris": {"android": "https://dc.lft.to/lastmile_qr_scan", "ios": "https://dc.lft.to/lastmile_qr_scan"}}, {"bike_id": "32edc608e196ee9e2aac53cb6871a508", "fusion_lon": 0.0, "name": "32edc608e196ee9e2aac53cb6871a508", "lat": 38.89833266666667, "is_disabled": 0, "is_reserved": 0, "lon": -77.031971, "type": "electric_scooter", "fusion_lat": 0.0, "rental_uris": {"android": "https://dc.lft.to/lastmile_qr_scan", "ios": "https://dc.lft.to/lastmile_qr_scan"}}, {"bike_id": "fc6a49a81eda32d505c5a1ad45a3797f", "fusion_lon": 0.0, "name": "fc6a49a81eda32d505c5a1ad45a3797f", "lat": 38.972595, "is_disabled": 0, "is_reserved": 0, "lon": -76.9927535, "type": "electric_bike", "fusion_lat": 0.0, "rental_uris": {"android": "https://dc.lft.to/lastmile_qr_scan", "ios": "https://dc.lft.to/lastmile_qr_scan"}}, {"bike_id": "8204d24efd52c0e5e5d02f1175f06fb7", "fusion_lon": 0.0, "name": "8204d24efd52c0e5e5d02f1175f06fb7", "lat": 38.91265516666667, "is_disabled": 0, "is_reserved": 0, "lon": -77.02219716666667, "type": "electric_scooter", "fusion_lat": 0.0, "rental_uris": {"android": "https://dc.lft.to/lastmile_qr_scan", "ios": "https://dc.lft.to/lastmile_qr_scan"}}, {"bike_id": "6f428cb91903b9d0d047f3dfcb836e16", "fusion_lon": 0.0, "name": "6f428cb91903b9d0d047f3dfcb836e16", "lat": 38.917402833333334, "is_disabled": 0, "is_reserved": 0, "lon": -77.0211635, "type": "electric_scooter", "fusion_lat": 0.0, "rental_uris": {"android": "https://dc.lft.to/lastmile_qr_scan", "ios": "https://dc.lft.to/lastmile_qr_scan"}}, {"bike_id": "6ee93e66ad51fc3e6257ad7e07322b0e", "fusion_lon": 0.0, "name": "6ee93e66ad51fc3e6257ad7e07322b0e", "lat": 38.89223166666667, "is_disabled": 0, "is_reserved": 0, "lon": -77.04305533333333, "type": "electric_scooter", "fusion_lat": 0.0, "rental_uris": {"android": "https://dc.lft.to/lastmile_qr_scan", "ios": "https://dc.lft.to/lastmile_qr_scan"}}, {"bike_id": "2cd64cb76d7c57fe7a2e63db88a70f8e", "fusion_lon": 0.0, "name": "2cd64cb76d7c57fe7a2e63db88a70f8e", "lat": 38.89849566666667, "is_disabled": 0, "is_reserved": 0, "lon": -77.02515866666667, "type": "electric_scooter", "fusion_lat": 0.0, "rental_uris": {"android": "https://dc.lft.to/lastmile_qr_scan", "ios": "https://dc.lft.to/lastmile_qr_scan"}}, {"bike_id": "d141c5b0300e18b7bd08bb29e1f1dffe", "fusion_lon": 0.0, "name": "d141c5b0300e18b7bd08bb29e1f1dffe", "lat": 38.923229, "is_disabled": 0, "is_reserved": 0, "lon": -77.02960566666667, "type": "electric_scooter", "fusion_lat": 0.0, "rental_uris": {"android": "https://dc.lft.to/lastmile_qr_scan", "ios": "https://dc.lft.to/lastmile_qr_scan"}}, {"bike_id": "3115d9ed18b8c1c9e7f711e899c3e6e8", "fusion_lon": 0.0, "name": "3115d9ed18b8c1c9e7f711e899c3e6e8", "lat": 38.905626, "is_disabled": 0, "is_reserved": 0, "lon": -77.04868833333333, "type": "electric_scooter", "fusion_lat": 0.0, "rental_uris": {"android": "https://dc.lft.to/lastmile_qr_scan", "ios": "https://dc.lft.to/lastmile_qr_scan"}}, {"bike_id": "c984aa788d5a059533548006cdfb5bcf", "fusion_lon": 0.0, "name": "c984aa788d5a059533548006cdfb5bcf", "lat": 38.90676466666667, "is_disabled": 0, "is_reserved": 0, "lon": -77.07518383333333, "type": "electric_scooter", "fusion_lat": 0.0, "rental_uris": {"android": "https://dc.lft.to/lastmile_qr_scan", "ios": "https://dc.lft.to/lastmile_qr_scan"}}, {"bike_id": "fca428af135e7736a0c17a57f2bb50bd", "fusion_lon": 0.0, "name": "fca428af135e7736a0c17a57f2bb50bd", "lat": 38.937515, "is_disabled": 0, "is_reserved": 0, "lon": -77.0859605, "type": "electric_scooter", "fusion_lat": 0.0, "rental_uris": {"android": "https://dc.lft.to/lastmile_qr_scan", "ios": "https://dc.lft.to/lastmile_qr_scan"}}, {"bike_id": "ead2fca12eb043e5709d2d28851c27ba", "fusion_lon": 0.0, "name": "ead2fca12eb043e5709d2d28851c27ba", "lat": 38.9052805, "is_disabled": 0, "is_reserved": 0, "lon": -77.061285, "type": "electric_scooter", "fusion_lat": 0.0, "rental_uris": {"android": "https://dc.lft.to/lastmile_qr_scan", "ios": "https://dc.lft.to/lastmile_qr_scan"}}, {"bike_id": "b24fcad0efc48141c43efd2b9a217564", "fusion_lon": 0.0, "name": "b24fcad0efc48141c43efd2b9a217564", "lat": 38.892249666666665, "is_disabled": 0, "is_reserved": 0, "lon": -77.022319, "type": "electric_scooter", "fusion_lat": 0.0, "rental_uris": {"android": "https://dc.lft.to/lastmile_qr_scan", "ios": "https://dc.lft.to/lastmile_qr_scan"}}, {"bike_id": "a3901818a88b809c364cbbbde224d812", "fusion_lon": 0.0, "name": "a3901818a88b809c364cbbbde224d812", "lat": 38.90378716666667, "is_disabled": 0, "is_reserved": 0, "lon": -77.03620883333333, "type": "electric_scooter", "fusion_lat": 0.0, "rental_uris": {"android": "https://dc.lft.to/lastmile_qr_scan", "ios": "https://dc.lft.to/lastmile_qr_scan"}}, {"bike_id": "2ad9a03c9e1f715a1fade94fe52a92b7", "fusion_lon": 0.0, "name": "2ad9a03c9e1f715a1fade94fe52a92b7", "lat": 38.89614133333333, "is_disabled": 0, "is_reserved": 0, "lon": -77.04481616666666, "type": "electric_scooter", "fusion_lat": 0.0, "rental_uris": {"android": "https://dc.lft.to/lastmile_qr_scan", "ios": "https://dc.lft.to/lastmile_qr_scan"}}, {"bike_id": "2a5a51e1f8f9d691fc3c0b5e69a36312", "fusion_lon": 0.0, "name": "2a5a51e1f8f9d691fc3c0b5e69a36312", "lat": 38.896144166666666, "is_disabled": 0, "is_reserved": 0, "lon": -77.04407583333334, "type": "electric_scooter", "fusion_lat": 0.0, "rental_uris": {"android": "https://dc.lft.to/lastmile_qr_scan", "ios": "https://dc.lft.to/lastmile_qr_scan"}}, {"bike_id": "3fc39fece189c518e58cd5701f125ad8", "fusion_lon": 0.0, "name": "3fc39fece189c518e58cd5701f125ad8", "lat": 38.920331, "is_disabled": 0, "is_reserved": 0, "lon": -77.01221716666667, "type": "electric_scooter", "fusion_lat": 0.0, "rental_uris": {"android": "https://dc.lft.to/lastmile_qr_scan", "ios": "https://dc.lft.to/lastmile_qr_scan"}}, {"bike_id": "0ca8b88abd0a3bd24c517563f809762b", "fusion_lon": 0.0, "name": "0ca8b88abd0a3bd24c517563f809762b", "lat": 38.9038325, "is_disabled": 0, "is_reserved": 0, "lon": -77.06266283333333, "type": "electric_scooter", "fusion_lat": 0.0, "rental_uris": {"android": "https://dc.lft.to/lastmile_qr_scan", "ios": "https://dc.lft.to/lastmile_qr_scan"}}, {"bike_id": "b9fabeeb0389f612ca9dd8c05d92e25c", "fusion_lon": 0.0, "name": "b9fabeeb0389f612ca9dd8c05d92e25c", "lat": 38.911956333333336, "is_disabled": 0, "is_reserved": 0, "lon": -77.03958516666667, "type": "electric_scooter", "fusion_lat": 0.0, "rental_uris": {"android": "https://dc.lft.to/lastmile_qr_scan", "ios": "https://dc.lft.to/lastmile_qr_scan"}}, {"bike_id": "4208a92faf5e5cc38f4a0f7f4a7f447c", "fusion_lon": 0.0, "name": "4208a92faf5e5cc38f4a0f7f4a7f447c", "lat": 38.84509283333333, "is_disabled": 0, "is_reserved": 0, "lon": -76.99350116666666, "type": "electric_bike", "fusion_lat": 0.0, "rental_uris": {"android": "https://dc.lft.to/lastmile_qr_scan", "ios": "https://dc.lft.to/lastmile_qr_scan"}}, {"bike_id": "26dd790b8611ea7d2624328dc26d0777", "fusion_lon": 0.0, "name": "26dd790b8611ea7d2624328dc26d0777", "lat": 38.9940645, "is_disabled": 0, "is_reserved": 0, "lon": -77.03095483333334, "type": "electric_bike", "fusion_lat": 0.0, "rental_uris": {"android": "https://dc.lft.to/lastmile_qr_scan", "ios": "https://dc.lft.to/lastmile_qr_scan"}}, {"bike_id": "6ad540088097fd2a84758f0a3a0dc3c4", "fusion_lon": 0.0, "name": "6ad540088097fd2a84758f0a3a0dc3c4", "lat": 38.89019433333333, "is_disabled": 0, "is_reserved": 0, "lon": -76.93749916666667, "type": "electric_scooter", "fusion_lat": 0.0, "rental_uris": {"android": "https://dc.lft.to/lastmile_qr_scan", "ios": "https://dc.lft.to/lastmile_qr_scan"}}, {"bike_id": "85d55fa564044f678e7cb7383ae70839", "fusion_lon": 0.0, "name": "85d55fa564044f678e7cb7383ae70839", "lat": 38.8956775, "is_disabled": 0, "is_reserved": 0, "lon": -77.12736633333333, "type": "electric_bike", "fusion_lat": 0.0, "rental_uris": {"android": "https://dc.lft.to/lastmile_qr_scan", "ios": "https://dc.lft.to/lastmile_qr_scan"}}, {"bike_id": "5c86baadb83f64ed9b1f65bb54f92b6f", "fusion_lon": 0.0, "name": "5c86baadb83f64ed9b1f65bb54f92b6f", "lat": 38.91745616666667, "is_disabled": 0, "is_reserved": 0, "lon": -77.0318255, "type": "electric_scooter", "fusion_lat": 0.0, "rental_uris": {"android": "https://dc.lft.to/lastmile_qr_scan", "ios": "https://dc.lft.to/lastmile_qr_scan"}}, {"bike_id": "1b53a1f52f52d71093abda2818f8766c", "fusion_lon": 0.0, "name": "1b53a1f52f52d71093abda2818f8766c", "lat": 38.90412366666666, "is_disabled": 0, "is_reserved": 0, "lon": -76.973301, "type": "electric_scooter", "fusion_lat": 0.0, "rental_uris": {"android": "https://dc.lft.to/lastmile_qr_scan", "ios": "https://dc.lft.to/lastmile_qr_scan"}}, {"bike_id": "f6aa324e97aea36d7849f7c3f619b1be", "fusion_lon": 0.0, "name": "f6aa324e97aea36d7849f7c3f619b1be", "lat": 38.8572185, "is_disabled": 0, "is_reserved": 0, "lon": -76.98095616666667, "type": "electric_scooter", "fusion_lat": 0.0, "rental_uris": {"android": "https://dc.lft.to/lastmile_qr_scan", "ios": "https://dc.lft.to/lastmile_qr_scan"}}, {"bike_id": "ca32927e6384a2b582a7fbf4fa42b785", "fusion_lon": 0.0, "name": "ca32927e6384a2b582a7fbf4fa42b785", "lat": 38.91291783333333, "is_disabled": 0, "is_reserved": 0, "lon": -77.047508, "type": "electric_scooter", "fusion_lat": 0.0, "rental_uris": {"android": "https://dc.lft.to/lastmile_qr_scan", "ios": "https://dc.lft.to/lastmile_qr_scan"}}, {"bike_id": "22899fe65ec5adf9a50a8c12b58ac86a", "fusion_lon": 0.0, "name": "22899fe65ec5adf9a50a8c12b58ac86a", "lat": 38.8833235, "is_disabled": 0, "is_reserved": 0, "lon": -77.01739816666667, "type": "electric_scooter", "fusion_lat": 0.0, "rental_uris": {"android": "https://dc.lft.to/lastmile_qr_scan", "ios": "https://dc.lft.to/lastmile_qr_scan"}}, {"bike_id": "27f7653c6853d667e0e1632109f89e7e", "fusion_lon": 0.0, "name": "27f7653c6853d667e0e1632109f89e7e", "lat": 38.939127166666665, "is_disabled": 0, "is_reserved": 0, "lon": -77.03621733333334, "type": "electric_scooter", "fusion_lat": 0.0, "rental_uris": {"android": "https://dc.lft.to/lastmile_qr_scan", "ios": "https://dc.lft.to/lastmile_qr_scan"}}, {"bike_id": "ffe5c04da21856f6da46f2c7734ec85a", "fusion_lon": 0.0, "name": "ffe5c04da21856f6da46f2c7734ec85a", "lat": 38.8737695, "is_disabled": 0, "is_reserved": 0, "lon": -76.97001966666667, "type": "electric_scooter", "fusion_lat": 0.0, "rental_uris": {"android": "https://dc.lft.to/lastmile_qr_scan", "ios": "https://dc.lft.to/lastmile_qr_scan"}}, {"bike_id": "26b1fad6b1fee63756541e79578191d1", "fusion_lon": 0.0, "name": "26b1fad6b1fee63756541e79578191d1", "lat": 38.905009, "is_disabled": 0, "is_reserved": 0, "lon": -77.02945683333333, "type": "electric_scooter", "fusion_lat": 0.0, "rental_uris": {"android": "https://dc.lft.to/lastmile_qr_scan", "ios": "https://dc.lft.to/lastmile_qr_scan"}}, {"bike_id": "1b627c92180c8139ffe03e6edad94484", "fusion_lon": 0.0, "name": "1b627c92180c8139ffe03e6edad94484", "lat": 38.89625566666667, "is_disabled": 0, "is_reserved": 0, "lon": -77.00917316666667, "type": "electric_scooter", "fusion_lat": 0.0, "rental_uris": {"android": "https://dc.lft.to/lastmile_qr_scan", "ios": "https://dc.lft.to/lastmile_qr_scan"}}, {"bike_id": "2eb125c2def130bc94ab7ccc47c34790", "fusion_lon": 0.0, "name": "2eb125c2def130bc94ab7ccc47c34790", "lat": 38.919085833333334, "is_disabled": 0, "is_reserved": 0, "lon": -77.04101383333334, "type": "electric_scooter", "fusion_lat": 0.0, "rental_uris": {"android": "https://dc.lft.to/lastmile_qr_scan", "ios": "https://dc.lft.to/lastmile_qr_scan"}}, {"bike_id": "f2c6947b6dedb517fdbea5bd656a9c55", "fusion_lon": 0.0, "name": "f2c6947b6dedb517fdbea5bd656a9c55", "lat": 38.883311166666665, "is_disabled": 0, "is_reserved": 0, "lon": -77.01768683333333, "type": "electric_scooter", "fusion_lat": 0.0, "rental_uris": {"android": "https://dc.lft.to/lastmile_qr_scan", "ios": "https://dc.lft.to/lastmile_qr_scan"}}, {"bike_id": "4e3c1c84a12b46abbf54ea4911d8f04c", "fusion_lon": 0.0, "name": "4e3c1c84a12b46abbf54ea4911d8f04c", "lat": 38.873958333333334, "is_disabled": 0, "is_reserved": 0, "lon": -77.002026, "type": "electric_scooter", "fusion_lat": 0.0, "rental_uris": {"android": "https://dc.lft.to/lastmile_qr_scan", "ios": "https://dc.lft.to/lastmile_qr_scan"}}, {"bike_id": "c960a31e71be2f5ad243d77a27249680", "fusion_lon": 0.0, "name": "c960a31e71be2f5ad243d77a27249680", "lat": 38.892255666666664, "is_disabled": 0, "is_reserved": 0, "lon": -77.02222983333333, "type": "electric_scooter", "fusion_lat": 0.0, "rental_uris": {"android": "https://dc.lft.to/lastmile_qr_scan", "ios": "https://dc.lft.to/lastmile_qr_scan"}}, {"bike_id": "88db961ad67ae63a8d2f9d8e53b38261", "fusion_lon": 0.0, "name": "88db961ad67ae63a8d2f9d8e53b38261", "lat": 38.90476366666667, "is_disabled": 0, "is_reserved": 0, "lon": -77.0347595, "type": "electric_scooter", "fusion_lat": 0.0, "rental_uris": {"android": "https://dc.lft.to/lastmile_qr_scan", "ios": "https://dc.lft.to/lastmile_qr_scan"}}, {"bike_id": "d7165d20740b91b1166b3d598b4445a4", "fusion_lon": 0.0, "name": "d7165d20740b91b1166b3d598b4445a4", "lat": 39.05256, "is_disabled": 0, "is_reserved": 0, "lon": -77.08066316666667, "type": "electric_bike", "fusion_lat": 0.0, "rental_uris": {"android": "https://dc.lft.to/lastmile_qr_scan", "ios": "https://dc.lft.to/lastmile_qr_scan"}}, {"bike_id": "f0c0e5bc120ca7d611abaf8983145ab8", "fusion_lon": 0.0, "name": "f0c0e5bc120ca7d611abaf8983145ab8", "lat": 38.898743, "is_disabled": 0, "is_reserved": 0, "lon": -76.93183733333333, "type": "electric_scooter", "fusion_lat": 0.0, "rental_uris": {"android": "https://dc.lft.to/lastmile_qr_scan", "ios": "https://dc.lft.to/lastmile_qr_scan"}}, {"bike_id": "ca2194d058f9ef0b277c17b8c0ff6c95", "fusion_lon": 0.0, "name": "ca2194d058f9ef0b277c17b8c0ff6c95", "lat": 38.90019916666667, "is_disabled": 0, "is_reserved": 0, "lon": -76.98848766666667, "type": "electric_scooter", "fusion_lat": 0.0, "rental_uris": {"android": "https://dc.lft.to/lastmile_qr_scan", "ios": "https://dc.lft.to/lastmile_qr_scan"}}, {"bike_id": "97f2a039216782fb9cb1180143d54524", "fusion_lon": 0.0, "name": "97f2a039216782fb9cb1180143d54524", "lat": 38.909825833333336, "is_disabled": 0, "is_reserved": 0, "lon": -77.06505666666666, "type": "electric_scooter", "fusion_lat": 0.0, "rental_uris": {"android": "https://dc.lft.to/lastmile_qr_scan", "ios": "https://dc.lft.to/lastmile_qr_scan"}}, {"bike_id": "3b7a09258b7d1825e899293757b26f7f", "fusion_lon": 0.0, "name": "3b7a09258b7d1825e899293757b26f7f", "lat": 38.923147, "is_disabled": 0, "is_reserved": 0, "lon": -77.01950683333334, "type": "electric_scooter", "fusion_lat": 0.0, "rental_uris": {"android": "https://dc.lft.to/lastmile_qr_scan", "ios": "https://dc.lft.to/lastmile_qr_scan"}}, {"bike_id": "6b6da5558c2c7179b5b5ec2aaddb5d05", "fusion_lon": 0.0, "name": "6b6da5558c2c7179b5b5ec2aaddb5d05", "lat": 38.9328465, "is_disabled": 0, "is_reserved": 0, "lon": -77.040866, "type": "electric_scooter", "fusion_lat": 0.0, "rental_uris": {"android": "https://dc.lft.to/lastmile_qr_scan", "ios": "https://dc.lft.to/lastmile_qr_scan"}}, {"bike_id": "595dc9429b22b0ebe3d6cc437bcac8a7", "fusion_lon": 0.0, "name": "595dc9429b22b0ebe3d6cc437bcac8a7", "lat": 38.9230335, "is_disabled": 0, "is_reserved": 0, "lon": -77.042691, "type": "electric_scooter", "fusion_lat": 0.0, "rental_uris": {"android": "https://dc.lft.to/lastmile_qr_scan", "ios": "https://dc.lft.to/lastmile_qr_scan"}}, {"bike_id": "232efbf5af44209969b8549b06a8c484", "fusion_lon": 0.0, "name": "232efbf5af44209969b8549b06a8c484", "lat": 38.91189033333333, "is_disabled": 0, "is_reserved": 0, "lon": -77.0038635, "type": "electric_scooter", "fusion_lat": 0.0, "rental_uris": {"android": "https://dc.lft.to/lastmile_qr_scan", "ios": "https://dc.lft.to/lastmile_qr_scan"}}, {"bike_id": "c0737d947320673a57f8dfdf43a31f06", "fusion_lon": 0.0, "name": "c0737d947320673a57f8dfdf43a31f06", "lat": 38.909779666666665, "is_disabled": 0, "is_reserved": 0, "lon": -77.0321405, "type": "electric_scooter", "fusion_lat": 0.0, "rental_uris": {"android": "https://dc.lft.to/lastmile_qr_scan", "ios": "https://dc.lft.to/lastmile_qr_scan"}}, {"bike_id": "87d71cfc5b9821e259bb10eef1b9c423", "fusion_lon": 0.0, "name": "87d71cfc5b9821e259bb10eef1b9c423", "lat": 38.8987045, "is_disabled": 0, "is_reserved": 0, "lon": -76.94635016666666, "type": "electric_scooter", "fusion_lat": 0.0, "rental_uris": {"android": "https://dc.lft.to/lastmile_qr_scan", "ios": "https://dc.lft.to/lastmile_qr_scan"}}, {"bike_id": "190de4a34e1c6b1937bfd37b4835725a", "fusion_lon": 0.0, "name": "190de4a34e1c6b1937bfd37b4835725a", "lat": 38.8902475, "is_disabled": 0, "is_reserved": 0, "lon": -76.93731766666667, "type": "electric_scooter", "fusion_lat": 0.0, "rental_uris": {"android": "https://dc.lft.to/lastmile_qr_scan", "ios": "https://dc.lft.to/lastmile_qr_scan"}}, {"bike_id": "21202e53acfccd47ca37e9cbd1b3c50c", "fusion_lon": 0.0, "name": "21202e53acfccd47ca37e9cbd1b3c50c", "lat": 38.887356833333335, "is_disabled": 0, "is_reserved": 0, "lon": -77.02581533333333, "type": "electric_scooter", "fusion_lat": 0.0, "rental_uris": {"android": "https://dc.lft.to/lastmile_qr_scan", "ios": "https://dc.lft.to/lastmile_qr_scan"}}, {"bike_id": "5e0df8dc15050171254ecad7d885337f", "fusion_lon": 0.0, "name": "5e0df8dc15050171254ecad7d885337f", "lat": 38.93525283333334, "is_disabled": 0, "is_reserved": 0, "lon": -77.07654016666666, "type": "electric_scooter", "fusion_lat": 0.0, "rental_uris": {"android": "https://dc.lft.to/lastmile_qr_scan", "ios": "https://dc.lft.to/lastmile_qr_scan"}}, {"bike_id": "cecf452aaea2ffee8e0e4a8bff8dbfea", "fusion_lon": 0.0, "name": "cecf452aaea2ffee8e0e4a8bff8dbfea", "lat": 38.89187883333334, "is_disabled": 0, "is_reserved": 0, "lon": -76.9281765, "type": "electric_bike", "fusion_lat": 0.0, "rental_uris": {"android": "https://dc.lft.to/lastmile_qr_scan", "ios": "https://dc.lft.to/lastmile_qr_scan"}}, {"bike_id": "8d846de294b7d62940f558f9814ec92f", "fusion_lon": 0.0, "name": "8d846de294b7d62940f558f9814ec92f", "lat": 38.865558166666666, "is_disabled": 0, "is_reserved": 0, "lon": -76.97855266666667, "type": "electric_scooter", "fusion_lat": 0.0, "rental_uris": {"android": "https://dc.lft.to/lastmile_qr_scan", "ios": "https://dc.lft.to/lastmile_qr_scan"}}, {"bike_id": "cdaea5d0c2d9577998f8645ff4d35968", "fusion_lon": 0.0, "name": "cdaea5d0c2d9577998f8645ff4d35968", "lat": 38.903635333333334, "is_disabled": 0, "is_reserved": 0, "lon": -77.01629833333334, "type": "electric_scooter", "fusion_lat": 0.0, "rental_uris": {"android": "https://dc.lft.to/lastmile_qr_scan", "ios": "https://dc.lft.to/lastmile_qr_scan"}}, {"bike_id": "ac634cbfc085e3f603e6aaaec8a1e306", "fusion_lon": 0.0, "name": "ac634cbfc085e3f603e6aaaec8a1e306", "lat": 38.924571666666665, "is_disabled": 0, "is_reserved": 0, "lon": -77.05231683333334, "type": "electric_scooter", "fusion_lat": 0.0, "rental_uris": {"android": "https://dc.lft.to/lastmile_qr_scan", "ios": "https://dc.lft.to/lastmile_qr_scan"}}, {"bike_id": "c2812b72a1941d446bb5a9763d679633", "fusion_lon": 0.0, "name": "c2812b72a1941d446bb5a9763d679633", "lat": 38.884076, "is_disabled": 0, "is_reserved": 0, "lon": -76.98613233333333, "type": "electric_scooter", "fusion_lat": 0.0, "rental_uris": {"android": "https://dc.lft.to/lastmile_qr_scan", "ios": "https://dc.lft.to/lastmile_qr_scan"}}, {"bike_id": "a5931022b5d073d8a5b65dbdacd37afa", "fusion_lon": 0.0, "name": "a5931022b5d073d8a5b65dbdacd37afa", "lat": 38.89219216666667, "is_disabled": 0, "is_reserved": 0, "lon": -77.03125133333333, "type": "electric_scooter", "fusion_lat": 0.0, "rental_uris": {"android": "https://dc.lft.to/lastmile_qr_scan", "ios": "https://dc.lft.to/lastmile_qr_scan"}}, {"bike_id": "585804d497b9c379ad245a234907bf16", "fusion_lon": 0.0, "name": "585804d497b9c379ad245a234907bf16", "lat": 38.797028166666664, "is_disabled": 0, "is_reserved": 0, "lon": -77.00372133333333, "type": "electric_bike", "fusion_lat": 0.0, "rental_uris": {"android": "https://dc.lft.to/lastmile_qr_scan", "ios": "https://dc.lft.to/lastmile_qr_scan"}}, {"bike_id": "a7a76cdd7593547ca3786e562896d7c2", "fusion_lon": 0.0, "name": "a7a76cdd7593547ca3786e562896d7c2", "lat": 38.918625, "is_disabled": 0, "is_reserved": 0, "lon": -77.0259645, "type": "electric_scooter", "fusion_lat": 0.0, "rental_uris": {"android": "https://dc.lft.to/lastmile_qr_scan", "ios": "https://dc.lft.to/lastmile_qr_scan"}}, {"bike_id": "731d4cea2f1c2f08d00a81fdd4892883", "fusion_lon": 0.0, "name": "731d4cea2f1c2f08d00a81fdd4892883", "lat": 38.924396, "is_disabled": 0, "is_reserved": 0, "lon": -77.03404, "type": "electric_scooter", "fusion_lat": 0.0, "rental_uris": {"android": "https://dc.lft.to/lastmile_qr_scan", "ios": "https://dc.lft.to/lastmile_qr_scan"}}, {"bike_id": "23deaa25c182d6c594825b40e895cf33", "fusion_lon": 0.0, "name": "23deaa25c182d6c594825b40e895cf33", "lat": 38.92194333333333, "is_disabled": 0, "is_reserved": 0, "lon": -77.01832816666666, "type": "electric_scooter", "fusion_lat": 0.0, "rental_uris": {"android": "https://dc.lft.to/lastmile_qr_scan", "ios": "https://dc.lft.to/lastmile_qr_scan"}}, {"bike_id": "70edfcf0260cd70ed35aea0a9d5a0089", "fusion_lon": 0.0, "name": "70edfcf0260cd70ed35aea0a9d5a0089", "lat": 38.920522, "is_disabled": 0, "is_reserved": 0, "lon": -77.023607, "type": "electric_scooter", "fusion_lat": 0.0, "rental_uris": {"android": "https://dc.lft.to/lastmile_qr_scan", "ios": "https://dc.lft.to/lastmile_qr_scan"}}, {"bike_id": "0f58028d90dc5ffb429c8c85b1c87719", "fusion_lon": 0.0, "name": "0f58028d90dc5ffb429c8c85b1c87719", "lat": 38.89959283333334, "is_disabled": 0, "is_reserved": 0, "lon": -76.98162, "type": "electric_scooter", "fusion_lat": 0.0, "rental_uris": {"android": "https://dc.lft.to/lastmile_qr_scan", "ios": "https://dc.lft.to/lastmile_qr_scan"}}, {"bike_id": "8ad5ccbee881aec1e81cd56ef4406f8d", "fusion_lon": 0.0, "name": "8ad5ccbee881aec1e81cd56ef4406f8d", "lat": 38.892230833333336, "is_disabled": 0, "is_reserved": 0, "lon": -77.0314445, "type": "electric_scooter", "fusion_lat": 0.0, "rental_uris": {"android": "https://dc.lft.to/lastmile_qr_scan", "ios": "https://dc.lft.to/lastmile_qr_scan"}}, {"bike_id": "8bb4c9de6a9ff7062a8ea75739a7ca71", "fusion_lon": 0.0, "name": "8bb4c9de6a9ff7062a8ea75739a7ca71", "lat": 38.911173, "is_disabled": 0, "is_reserved": 0, "lon": -77.03833383333334, "type": "electric_scooter", "fusion_lat": 0.0, "rental_uris": {"android": "https://dc.lft.to/lastmile_qr_scan", "ios": "https://dc.lft.to/lastmile_qr_scan"}}, {"bike_id": "d39cfac968e614736c30d3a3d2f2f5f2", "fusion_lon": 0.0, "name": "d39cfac968e614736c30d3a3d2f2f5f2", "lat": 38.88413383333334, "is_disabled": 0, "is_reserved": 0, "lon": -76.957613, "type": "electric_scooter", "fusion_lat": 0.0, "rental_uris": {"android": "https://dc.lft.to/lastmile_qr_scan", "ios": "https://dc.lft.to/lastmile_qr_scan"}}, {"bike_id": "3d2050beedda0615eaff9803f185343f", "fusion_lon": 0.0, "name": "3d2050beedda0615eaff9803f185343f", "lat": 38.88722966666667, "is_disabled": 0, "is_reserved": 0, "lon": -76.99680883333333, "type": "electric_scooter", "fusion_lat": 0.0, "rental_uris": {"android": "https://dc.lft.to/lastmile_qr_scan", "ios": "https://dc.lft.to/lastmile_qr_scan"}}, {"bike_id": "a642107e212af62f09ee4bad63123553", "fusion_lon": 0.0, "name": "a642107e212af62f09ee4bad63123553", "lat": 38.9248915, "is_disabled": 0, "is_reserved": 0, "lon": -77.02137483333334, "type": "electric_scooter", "fusion_lat": 0.0, "rental_uris": {"android": "https://dc.lft.to/lastmile_qr_scan", "ios": "https://dc.lft.to/lastmile_qr_scan"}}, {"bike_id": "9d8ac4a044896bf0b122399b42595355", "fusion_lon": 0.0, "name": "9d8ac4a044896bf0b122399b42595355", "lat": 38.91101833333333, "is_disabled": 0, "is_reserved": 0, "lon": -77.02801066666666, "type": "electric_scooter", "fusion_lat": 0.0, "rental_uris": {"android": "https://dc.lft.to/lastmile_qr_scan", "ios": "https://dc.lft.to/lastmile_qr_scan"}}, {"bike_id": "46c3106653cc0a3a510dd1d2a6117497", "fusion_lon": 0.0, "name": "46c3106653cc0a3a510dd1d2a6117497", "lat": 38.813354, "is_disabled": 0, "is_reserved": 0, "lon": -77.050932, "type": "electric_bike", "fusion_lat": 0.0, "rental_uris": {"android": "https://dc.lft.to/lastmile_qr_scan", "ios": "https://dc.lft.to/lastmile_qr_scan"}}, {"bike_id": "58ea63a2ea560241f36fc724669fd4d9", "fusion_lon": 0.0, "name": "58ea63a2ea560241f36fc724669fd4d9", "lat": 38.920779, "is_disabled": 0, "is_reserved": 0, "lon": -76.99722983333334, "type": "electric_scooter", "fusion_lat": 0.0, "rental_uris": {"android": "https://dc.lft.to/lastmile_qr_scan", "ios": "https://dc.lft.to/lastmile_qr_scan"}}, {"bike_id": "25ef6ed2716390f3ebbb81c1d89b2dd4", "fusion_lon": 0.0, "name": "25ef6ed2716390f3ebbb81c1d89b2dd4", "lat": 38.9319565, "is_disabled": 0, "is_reserved": 0, "lon": -77.22924533333334, "type": "electric_bike", "fusion_lat": 0.0, "rental_uris": {"android": "https://dc.lft.to/lastmile_qr_scan", "ios": "https://dc.lft.to/lastmile_qr_scan"}}, {"bike_id": "a5fc14ef957bd57fe69971e4bb9f1b9c", "fusion_lon": 0.0, "name": "a5fc14ef957bd57fe69971e4bb9f1b9c", "lat": 38.88371016666667, "is_disabled": 0, "is_reserved": 0, "lon": -77.0200255, "type": "electric_scooter", "fusion_lat": 0.0, "rental_uris": {"android": "https://dc.lft.to/lastmile_qr_scan", "ios": "https://dc.lft.to/lastmile_qr_scan"}}, {"bike_id": "927848d5ff412ec73451690365ae7c38", "fusion_lon": 0.0, "name": "927848d5ff412ec73451690365ae7c38", "lat": 38.8829925, "is_disabled": 0, "is_reserved": 0, "lon": -77.02474933333333, "type": "electric_scooter", "fusion_lat": 0.0, "rental_uris": {"android": "https://dc.lft.to/lastmile_qr_scan", "ios": "https://dc.lft.to/lastmile_qr_scan"}}, {"bike_id": "60aad3a706f72ddc26de42c47c2f4caa", "fusion_lon": 0.0, "name": "60aad3a706f72ddc26de42c47c2f4caa", "lat": 38.84990766666667, "is_disabled": 0, "is_reserved": 0, "lon": -77.097554, "type": "electric_bike", "fusion_lat": 0.0, "rental_uris": {"android": "https://dc.lft.to/lastmile_qr_scan", "ios": "https://dc.lft.to/lastmile_qr_scan"}}, {"bike_id": "b530649948eb243178c91a7f357a8652", "fusion_lon": 0.0, "name": "b530649948eb243178c91a7f357a8652", "lat": 38.913569333333335, "is_disabled": 0, "is_reserved": 0, "lon": -77.034337, "type": "electric_scooter", "fusion_lat": 0.0, "rental_uris": {"android": "https://dc.lft.to/lastmile_qr_scan", "ios": "https://dc.lft.to/lastmile_qr_scan"}}, {"bike_id": "7d0d70fd9c4948f1a1e1ab3c0cef3018", "fusion_lon": 0.0, "name": "7d0d70fd9c4948f1a1e1ab3c0cef3018", "lat": 38.917081333333336, "is_disabled": 0, "is_reserved": 0, "lon": -77.04147016666667, "type": "electric_scooter", "fusion_lat": 0.0, "rental_uris": {"android": "https://dc.lft.to/lastmile_qr_scan", "ios": "https://dc.lft.to/lastmile_qr_scan"}}, {"bike_id": "03ac40b024cd9d0d56eaf51c347bdb2e", "fusion_lon": 0.0, "name": "03ac40b024cd9d0d56eaf51c347bdb2e", "lat": 38.916768, "is_disabled": 0, "is_reserved": 0, "lon": -77.03685766666666, "type": "electric_scooter", "fusion_lat": 0.0, "rental_uris": {"android": "https://dc.lft.to/lastmile_qr_scan", "ios": "https://dc.lft.to/lastmile_qr_scan"}}, {"bike_id": "bacb56439d6ff6460121e78888abfd13", "fusion_lon": 0.0, "name": "bacb56439d6ff6460121e78888abfd13", "lat": 38.90504133333334, "is_disabled": 0, "is_reserved": 0, "lon": -77.02601333333334, "type": "electric_scooter", "fusion_lat": 0.0, "rental_uris": {"android": "https://dc.lft.to/lastmile_qr_scan", "ios": "https://dc.lft.to/lastmile_qr_scan"}}, {"bike_id": "c0d4706b2f55532f28f6a880ed199834", "fusion_lon": 0.0, "name": "c0d4706b2f55532f28f6a880ed199834", "lat": 38.92551566666667, "is_disabled": 0, "is_reserved": 0, "lon": -77.00153466666667, "type": "electric_bike", "fusion_lat": 0.0, "rental_uris": {"android": "https://dc.lft.to/lastmile_qr_scan", "ios": "https://dc.lft.to/lastmile_qr_scan"}}, {"bike_id": "1172b60799ccd960902139e09c8a08d2", "fusion_lon": 0.0, "name": "1172b60799ccd960902139e09c8a08d2", "lat": 38.88416616666667, "is_disabled": 0, "is_reserved": 0, "lon": -77.02542266666667, "type": "electric_scooter", "fusion_lat": 0.0, "rental_uris": {"android": "https://dc.lft.to/lastmile_qr_scan", "ios": "https://dc.lft.to/lastmile_qr_scan"}}, {"bike_id": "50d53aa160103d0fa07e3bd2ec59120a", "fusion_lon": 0.0, "name": "50d53aa160103d0fa07e3bd2ec59120a", "lat": 38.8921395, "is_disabled": 0, "is_reserved": 0, "lon": -76.99568283333333, "type": "electric_scooter", "fusion_lat": 0.0, "rental_uris": {"android": "https://dc.lft.to/lastmile_qr_scan", "ios": "https://dc.lft.to/lastmile_qr_scan"}}, {"bike_id": "0436da1504584f206194f650baa6104e", "fusion_lon": 0.0, "name": "0436da1504584f206194f650baa6104e", "lat": 38.9223865, "is_disabled": 0, "is_reserved": 0, "lon": -77.02127666666667, "type": "electric_scooter", "fusion_lat": 0.0, "rental_uris": {"android": "https://dc.lft.to/lastmile_qr_scan", "ios": "https://dc.lft.to/lastmile_qr_scan"}}, {"bike_id": "95830d11840461c69997f9c217264c03", "fusion_lon": 0.0, "name": "95830d11840461c69997f9c217264c03", "lat": 38.900275, "is_disabled": 0, "is_reserved": 0, "lon": -76.98701666666666, "type": "electric_scooter", "fusion_lat": 0.0, "rental_uris": {"android": "https://dc.lft.to/lastmile_qr_scan", "ios": "https://dc.lft.to/lastmile_qr_scan"}}, {"bike_id": "219c9039f78c7dab5c9770f90d595ac0", "fusion_lon": 0.0, "name": "219c9039f78c7dab5c9770f90d595ac0", "lat": 38.88749816666667, "is_disabled": 0, "is_reserved": 0, "lon": -76.9835695, "type": "electric_scooter", "fusion_lat": 0.0, "rental_uris": {"android": "https://dc.lft.to/lastmile_qr_scan", "ios": "https://dc.lft.to/lastmile_qr_scan"}}, {"bike_id": "be1fc71499378223ff52b92869bdfedb", "fusion_lon": 0.0, "name": "be1fc71499378223ff52b92869bdfedb", "lat": 38.96034433333333, "is_disabled": 0, "is_reserved": 0, "lon": -77.0718875, "type": "electric_scooter", "fusion_lat": 0.0, "rental_uris": {"android": "https://dc.lft.to/lastmile_qr_scan", "ios": "https://dc.lft.to/lastmile_qr_scan"}}, {"bike_id": "fa89a314e87b10d91f2c1f4777769f29", "fusion_lon": 0.0, "name": "fa89a314e87b10d91f2c1f4777769f29", "lat": 38.912705833333334, "is_disabled": 0, "is_reserved": 0, "lon": -77.03828133333333, "type": "electric_scooter", "fusion_lat": 0.0, "rental_uris": {"android": "https://dc.lft.to/lastmile_qr_scan", "ios": "https://dc.lft.to/lastmile_qr_scan"}}, {"bike_id": "ffe96bf974ced01b7f0359bce0e5dc67", "fusion_lon": 0.0, "name": "ffe96bf974ced01b7f0359bce0e5dc67", "lat": 38.9284685, "is_disabled": 0, "is_reserved": 0, "lon": -77.01418283333334, "type": "electric_scooter", "fusion_lat": 0.0, "rental_uris": {"android": "https://dc.lft.to/lastmile_qr_scan", "ios": "https://dc.lft.to/lastmile_qr_scan"}}, {"bike_id": "5f1c5ddc17e29ad37e39a6e1144e4c81", "fusion_lon": 0.0, "name": "5f1c5ddc17e29ad37e39a6e1144e4c81", "lat": 38.928249666666666, "is_disabled": 0, "is_reserved": 0, "lon": -77.05433283333333, "type": "electric_scooter", "fusion_lat": 0.0, "rental_uris": {"android": "https://dc.lft.to/lastmile_qr_scan", "ios": "https://dc.lft.to/lastmile_qr_scan"}}, {"bike_id": "a3dac2561639dbd5b63d8e02b833618d", "fusion_lon": 0.0, "name": "a3dac2561639dbd5b63d8e02b833618d", "lat": 38.922215666666666, "is_disabled": 0, "is_reserved": 0, "lon": -77.2013895, "type": "electric_bike", "fusion_lat": 0.0, "rental_uris": {"android": "https://dc.lft.to/lastmile_qr_scan", "ios": "https://dc.lft.to/lastmile_qr_scan"}}, {"bike_id": "4f8228f37ab54d5ab33233cee5a28172", "fusion_lon": 0.0, "name": "4f8228f37ab54d5ab33233cee5a28172", "lat": 38.89592616666667, "is_disabled": 0, "is_reserved": 0, "lon": -77.02575783333333, "type": "electric_scooter", "fusion_lat": 0.0, "rental_uris": {"android": "https://dc.lft.to/lastmile_qr_scan", "ios": "https://dc.lft.to/lastmile_qr_scan"}}, {"bike_id": "20fce1450398bc1cb16a28e0e0e31761", "fusion_lon": 0.0, "name": "20fce1450398bc1cb16a28e0e0e31761", "lat": 38.92304766666667, "is_disabled": 0, "is_reserved": 0, "lon": -77.04172583333333, "type": "electric_scooter", "fusion_lat": 0.0, "rental_uris": {"android": "https://dc.lft.to/lastmile_qr_scan", "ios": "https://dc.lft.to/lastmile_qr_scan"}}, {"bike_id": "70ed5abe0ec8983381e091da14a99775", "fusion_lon": 0.0, "name": "70ed5abe0ec8983381e091da14a99775", "lat": 38.922104, "is_disabled": 0, "is_reserved": 0, "lon": -77.0423705, "type": "electric_bike", "fusion_lat": 0.0, "rental_uris": {"android": "https://dc.lft.to/lastmile_qr_scan", "ios": "https://dc.lft.to/lastmile_qr_scan"}}, {"bike_id": "dd249bc1b920dbd61056c102dd5c1af6", "fusion_lon": 0.0, "name": "dd249bc1b920dbd61056c102dd5c1af6", "lat": 38.91544866666667, "is_disabled": 0, "is_reserved": 0, "lon": -77.03852016666667, "type": "electric_scooter", "fusion_lat": 0.0, "rental_uris": {"android": "https://dc.lft.to/lastmile_qr_scan", "ios": "https://dc.lft.to/lastmile_qr_scan"}}, {"bike_id": "458484514a9789083ce98a389a3328dc", "fusion_lon": 0.0, "name": "458484514a9789083ce98a389a3328dc", "lat": 38.91071483333333, "is_disabled": 0, "is_reserved": 0, "lon": -77.0303145, "type": "electric_scooter", "fusion_lat": 0.0, "rental_uris": {"android": "https://dc.lft.to/lastmile_qr_scan", "ios": "https://dc.lft.to/lastmile_qr_scan"}}, {"bike_id": "173cfc55a7e6c890f26616eb3f4ebe9f", "fusion_lon": 0.0, "name": "173cfc55a7e6c890f26616eb3f4ebe9f", "lat": 38.88733116666667, "is_disabled": 0, "is_reserved": 0, "lon": -77.028305, "type": "electric_scooter", "fusion_lat": 0.0, "rental_uris": {"android": "https://dc.lft.to/lastmile_qr_scan", "ios": "https://dc.lft.to/lastmile_qr_scan"}}, {"bike_id": "63a590e2b32c79ebaf16abae0fee93e8", "fusion_lon": 0.0, "name": "63a590e2b32c79ebaf16abae0fee93e8", "lat": 38.922185666666664, "is_disabled": 0, "is_reserved": 0, "lon": -77.04246833333333, "type": "electric_scooter", "fusion_lat": 0.0, "rental_uris": {"android": "https://dc.lft.to/lastmile_qr_scan", "ios": "https://dc.lft.to/lastmile_qr_scan"}}, {"bike_id": "ab1268fea6c2dffda5c4c9530ce0af30", "fusion_lon": 0.0, "name": "ab1268fea6c2dffda5c4c9530ce0af30", "lat": 38.935904666666666, "is_disabled": 0, "is_reserved": 0, "lon": -77.0285555, "type": "electric_scooter", "fusion_lat": 0.0, "rental_uris": {"android": "https://dc.lft.to/lastmile_qr_scan", "ios": "https://dc.lft.to/lastmile_qr_scan"}}, {"bike_id": "4ce9664c3543c71fc2e82fe670df4faa", "fusion_lon": 0.0, "name": "4ce9664c3543c71fc2e82fe670df4faa", "lat": 38.895319666666666, "is_disabled": 0, "is_reserved": 0, "lon": -76.94894566666666, "type": "electric_scooter", "fusion_lat": 0.0, "rental_uris": {"android": "https://dc.lft.to/lastmile_qr_scan", "ios": "https://dc.lft.to/lastmile_qr_scan"}}, {"bike_id": "f9c767b2c8120bfc3d9c5588369f76ce", "fusion_lon": 0.0, "name": "f9c767b2c8120bfc3d9c5588369f76ce", "lat": 38.923461333333336, "is_disabled": 0, "is_reserved": 0, "lon": -77.05117383333334, "type": "electric_scooter", "fusion_lat": 0.0, "rental_uris": {"android": "https://dc.lft.to/lastmile_qr_scan", "ios": "https://dc.lft.to/lastmile_qr_scan"}}, {"bike_id": "61dbc23d801195b58f8cdcf66d89eb1e", "fusion_lon": 0.0, "name": "61dbc23d801195b58f8cdcf66d89eb1e", "lat": 38.9013675, "is_disabled": 0, "is_reserved": 0, "lon": -77.04445616666666, "type": "electric_scooter", "fusion_lat": 0.0, "rental_uris": {"android": "https://dc.lft.to/lastmile_qr_scan", "ios": "https://dc.lft.to/lastmile_qr_scan"}}, {"bike_id": "6f5749e750d7f7e6e7e20196a725df61", "fusion_lon": 0.0, "name": "6f5749e750d7f7e6e7e20196a725df61", "lat": 38.947505, "is_disabled": 0, "is_reserved": 0, "lon": -77.0072605, "type": "electric_scooter", "fusion_lat": 0.0, "rental_uris": {"android": "https://dc.lft.to/lastmile_qr_scan", "ios": "https://dc.lft.to/lastmile_qr_scan"}}, {"bike_id": "c77712e18af3c755fb1f8254d06d6f1d", "fusion_lon": 0.0, "name": "c77712e18af3c755fb1f8254d06d6f1d", "lat": 38.91989266666667, "is_disabled": 0, "is_reserved": 0, "lon": -77.02370883333333, "type": "electric_scooter", "fusion_lat": 0.0, "rental_uris": {"android": "https://dc.lft.to/lastmile_qr_scan", "ios": "https://dc.lft.to/lastmile_qr_scan"}}, {"bike_id": "f92d95584882baf05a3e053d5cde6cf1", "fusion_lon": 0.0, "name": "f92d95584882baf05a3e053d5cde6cf1", "lat": 38.8577445, "is_disabled": 0, "is_reserved": 0, "lon": -76.98753733333334, "type": "electric_bike", "fusion_lat": 0.0, "rental_uris": {"android": "https://dc.lft.to/lastmile_qr_scan", "ios": "https://dc.lft.to/lastmile_qr_scan"}}, {"bike_id": "cbe35379742cfb2e9b71437e0b4d207a", "fusion_lon": 0.0, "name": "cbe35379742cfb2e9b71437e0b4d207a", "lat": 38.91707, "is_disabled": 0, "is_reserved": 0, "lon": -77.03144033333334, "type": "electric_scooter", "fusion_lat": 0.0, "rental_uris": {"android": "https://dc.lft.to/lastmile_qr_scan", "ios": "https://dc.lft.to/lastmile_qr_scan"}}, {"bike_id": "f498a4781e1719dff6fd7599e5fbfd56", "fusion_lon": 0.0, "name": "f498a4781e1719dff6fd7599e5fbfd56", "lat": 38.879919666666666, "is_disabled": 0, "is_reserved": 0, "lon": -77.024104, "type": "electric_scooter", "fusion_lat": 0.0, "rental_uris": {"android": "https://dc.lft.to/lastmile_qr_scan", "ios": "https://dc.lft.to/lastmile_qr_scan"}}, {"bike_id": "adf9ddef93545b3f2fff15ab953d55ac", "fusion_lon": 0.0, "name": "adf9ddef93545b3f2fff15ab953d55ac", "lat": 38.857971666666664, "is_disabled": 0, "is_reserved": 0, "lon": -76.98909733333333, "type": "electric_scooter", "fusion_lat": 0.0, "rental_uris": {"android": "https://dc.lft.to/lastmile_qr_scan", "ios": "https://dc.lft.to/lastmile_qr_scan"}}, {"bike_id": "5f7c5443aa9409f795c55d11c5b855a3", "fusion_lon": 0.0, "name": "5f7c5443aa9409f795c55d11c5b855a3", "lat": 38.928905, "is_disabled": 0, "is_reserved": 0, "lon": -77.0136065, "type": "electric_scooter", "fusion_lat": 0.0, "rental_uris": {"android": "https://dc.lft.to/lastmile_qr_scan", "ios": "https://dc.lft.to/lastmile_qr_scan"}}, {"bike_id": "86989a37678a57918f1eff8b6e564077", "fusion_lon": 0.0, "name": "86989a37678a57918f1eff8b6e564077", "lat": 38.93952766666666, "is_disabled": 0, "is_reserved": 0, "lon": -77.0859135, "type": "electric_scooter", "fusion_lat": 0.0, "rental_uris": {"android": "https://dc.lft.to/lastmile_qr_scan", "ios": "https://dc.lft.to/lastmile_qr_scan"}}, {"bike_id": "9e4a8d2a817a137c9dee58d45e902aa9", "fusion_lon": 0.0, "name": "9e4a8d2a817a137c9dee58d45e902aa9", "lat": 38.90274316666667, "is_disabled": 0, "is_reserved": 0, "lon": -77.0337715, "type": "electric_scooter", "fusion_lat": 0.0, "rental_uris": {"android": "https://dc.lft.to/lastmile_qr_scan", "ios": "https://dc.lft.to/lastmile_qr_scan"}}, {"bike_id": "cbbe8ff0fec2996436ce692d8bc4d147", "fusion_lon": 0.0, "name": "cbbe8ff0fec2996436ce692d8bc4d147", "lat": 38.94429933333333, "is_disabled": 0, "is_reserved": 0, "lon": -77.02597583333333, "type": "electric_bike", "fusion_lat": 0.0, "rental_uris": {"android": "https://dc.lft.to/lastmile_qr_scan", "ios": "https://dc.lft.to/lastmile_qr_scan"}}, {"bike_id": "2bbb8026d171cbb3befa1ba4283d5705", "fusion_lon": 0.0, "name": "2bbb8026d171cbb3befa1ba4283d5705", "lat": 38.798578666666664, "is_disabled": 0, "is_reserved": 0, "lon": -77.06306283333333, "type": "electric_bike", "fusion_lat": 0.0, "rental_uris": {"android": "https://dc.lft.to/lastmile_qr_scan", "ios": "https://dc.lft.to/lastmile_qr_scan"}}, {"bike_id": "599732c734d2c9a451a33b20131c3815", "fusion_lon": 0.0, "name": "599732c734d2c9a451a33b20131c3815", "lat": 38.905024166666664, "is_disabled": 0, "is_reserved": 0, "lon": -77.00100333333333, "type": "electric_scooter", "fusion_lat": 0.0, "rental_uris": {"android": "https://dc.lft.to/lastmile_qr_scan", "ios": "https://dc.lft.to/lastmile_qr_scan"}}, {"bike_id": "2095c795acc1c655407489d6b5ebd04c", "fusion_lon": 0.0, "name": "2095c795acc1c655407489d6b5ebd04c", "lat": 38.92416216666667, "is_disabled": 0, "is_reserved": 0, "lon": -77.05173083333334, "type": "electric_scooter", "fusion_lat": 0.0, "rental_uris": {"android": "https://dc.lft.to/lastmile_qr_scan", "ios": "https://dc.lft.to/lastmile_qr_scan"}}, {"bike_id": "ab28b33983191f2abc5b84d59881fbcd", "fusion_lon": 0.0, "name": "ab28b33983191f2abc5b84d59881fbcd", "lat": 38.985056666666665, "is_disabled": 0, "is_reserved": 0, "lon": -76.9820915, "type": "electric_bike", "fusion_lat": 0.0, "rental_uris": {"android": "https://dc.lft.to/lastmile_qr_scan", "ios": "https://dc.lft.to/lastmile_qr_scan"}}, {"bike_id": "9b94de9ff7b434373862947a9683fc74", "fusion_lon": 0.0, "name": "9b94de9ff7b434373862947a9683fc74", "lat": 38.91714483333333, "is_disabled": 0, "is_reserved": 0, "lon": -77.04152133333334, "type": "electric_scooter", "fusion_lat": 0.0, "rental_uris": {"android": "https://dc.lft.to/lastmile_qr_scan", "ios": "https://dc.lft.to/lastmile_qr_scan"}}, {"bike_id": "3d23599e00165e9e784ea927a8ff2a00", "fusion_lon": 0.0, "name": "3d23599e00165e9e784ea927a8ff2a00", "lat": 38.88745866666667, "is_disabled": 0, "is_reserved": 0, "lon": -77.01779416666666, "type": "electric_scooter", "fusion_lat": 0.0, "rental_uris": {"android": "https://dc.lft.to/lastmile_qr_scan", "ios": "https://dc.lft.to/lastmile_qr_scan"}}, {"bike_id": "f2699359cef531e4e72804c271eef19a", "fusion_lon": 0.0, "name": "f2699359cef531e4e72804c271eef19a", "lat": 38.92963916666667, "is_disabled": 0, "is_reserved": 0, "lon": -77.01142866666666, "type": "electric_scooter", "fusion_lat": 0.0, "rental_uris": {"android": "https://dc.lft.to/lastmile_qr_scan", "ios": "https://dc.lft.to/lastmile_qr_scan"}}, {"bike_id": "eb6998431b5ef1af270bc2f64fc09623", "fusion_lon": 0.0, "name": "eb6998431b5ef1af270bc2f64fc09623", "lat": 38.887497, "is_disabled": 0, "is_reserved": 0, "lon": -76.98355383333333, "type": "electric_scooter", "fusion_lat": 0.0, "rental_uris": {"android": "https://dc.lft.to/lastmile_qr_scan", "ios": "https://dc.lft.to/lastmile_qr_scan"}}, {"bike_id": "335dc8c1e10ab11b7e67c2908507d53d", "fusion_lon": 0.0, "name": "335dc8c1e10ab11b7e67c2908507d53d", "lat": 38.89556233333333, "is_disabled": 0, "is_reserved": 0, "lon": -76.99841116666667, "type": "electric_scooter", "fusion_lat": 0.0, "rental_uris": {"android": "https://dc.lft.to/lastmile_qr_scan", "ios": "https://dc.lft.to/lastmile_qr_scan"}}, {"bike_id": "1ac033d95433858ab6a62c0f2b2985f8", "fusion_lon": 0.0, "name": "1ac033d95433858ab6a62c0f2b2985f8", "lat": 38.90112366666666, "is_disabled": 0, "is_reserved": 0, "lon": -77.04622716666667, "type": "electric_scooter", "fusion_lat": 0.0, "rental_uris": {"android": "https://dc.lft.to/lastmile_qr_scan", "ios": "https://dc.lft.to/lastmile_qr_scan"}}, {"bike_id": "60a5b57fcf67915c6c82d992e3deb999", "fusion_lon": 0.0, "name": "60a5b57fcf67915c6c82d992e3deb999", "lat": 38.91432233333333, "is_disabled": 0, "is_reserved": 0, "lon": -77.06418116666667, "type": "electric_scooter", "fusion_lat": 0.0, "rental_uris": {"android": "https://dc.lft.to/lastmile_qr_scan", "ios": "https://dc.lft.to/lastmile_qr_scan"}}, {"bike_id": "ed6453f6492c0d3504e3931f9e91a8b3", "fusion_lon": 0.0, "name": "ed6453f6492c0d3504e3931f9e91a8b3", "lat": 38.874597333333334, "is_disabled": 0, "is_reserved": 0, "lon": -77.00964833333333, "type": "electric_scooter", "fusion_lat": 0.0, "rental_uris": {"android": "https://dc.lft.to/lastmile_qr_scan", "ios": "https://dc.lft.to/lastmile_qr_scan"}}, {"bike_id": "3c758f4fa34ff4c07c73ea8efcb98211", "fusion_lon": 0.0, "name": "3c758f4fa34ff4c07c73ea8efcb98211", "lat": 38.8840635, "is_disabled": 0, "is_reserved": 0, "lon": -76.98586633333333, "type": "electric_scooter", "fusion_lat": 0.0, "rental_uris": {"android": "https://dc.lft.to/lastmile_qr_scan", "ios": "https://dc.lft.to/lastmile_qr_scan"}}, {"bike_id": "41b479c811ab4b17f4d63999f6425fdf", "fusion_lon": 0.0, "name": "41b479c811ab4b17f4d63999f6425fdf", "lat": 38.884957666666665, "is_disabled": 0, "is_reserved": 0, "lon": -77.00729566666666, "type": "electric_scooter", "fusion_lat": 0.0, "rental_uris": {"android": "https://dc.lft.to/lastmile_qr_scan", "ios": "https://dc.lft.to/lastmile_qr_scan"}}, {"bike_id": "e7d97ee48968eb861d156c5e81ae7487", "fusion_lon": 0.0, "name": "e7d97ee48968eb861d156c5e81ae7487", "lat": 38.8852395, "is_disabled": 0, "is_reserved": 0, "lon": -77.01518316666667, "type": "electric_scooter", "fusion_lat": 0.0, "rental_uris": {"android": "https://dc.lft.to/lastmile_qr_scan", "ios": "https://dc.lft.to/lastmile_qr_scan"}}, {"bike_id": "52023217248fab6ce91d54a0dd4d3a80", "fusion_lon": 0.0, "name": "52023217248fab6ce91d54a0dd4d3a80", "lat": 38.9073215, "is_disabled": 0, "is_reserved": 0, "lon": -77.01304866666666, "type": "electric_scooter", "fusion_lat": 0.0, "rental_uris": {"android": "https://dc.lft.to/lastmile_qr_scan", "ios": "https://dc.lft.to/lastmile_qr_scan"}}, {"bike_id": "3c8cd49d27331360293e6c79d2f281d6", "fusion_lon": 0.0, "name": "3c8cd49d27331360293e6c79d2f281d6", "lat": 38.8606255, "is_disabled": 0, "is_reserved": 0, "lon": -76.98501116666667, "type": "electric_scooter", "fusion_lat": 0.0, "rental_uris": {"android": "https://dc.lft.to/lastmile_qr_scan", "ios": "https://dc.lft.to/lastmile_qr_scan"}}, {"bike_id": "de4a9a1a2203d7288c97738bb1b7409c", "fusion_lon": 0.0, "name": "de4a9a1a2203d7288c97738bb1b7409c", "lat": 38.901997, "is_disabled": 0, "is_reserved": 0, "lon": -77.02371816666667, "type": "electric_scooter", "fusion_lat": 0.0, "rental_uris": {"android": "https://dc.lft.to/lastmile_qr_scan", "ios": "https://dc.lft.to/lastmile_qr_scan"}}, {"bike_id": "888d84e74111a810f9e24259c3476ae8", "fusion_lon": 0.0, "name": "888d84e74111a810f9e24259c3476ae8", "lat": 38.8848985, "is_disabled": 0, "is_reserved": 0, "lon": -77.00708633333333, "type": "electric_scooter", "fusion_lat": 0.0, "rental_uris": {"android": "https://dc.lft.to/lastmile_qr_scan", "ios": "https://dc.lft.to/lastmile_qr_scan"}}, {"bike_id": "88818fea3a7d1b2ca0191eefef95ef48", "fusion_lon": 0.0, "name": "88818fea3a7d1b2ca0191eefef95ef48", "lat": 38.91827033333333, "is_disabled": 0, "is_reserved": 0, "lon": -77.04173333333334, "type": "electric_scooter", "fusion_lat": 0.0, "rental_uris": {"android": "https://dc.lft.to/lastmile_qr_scan", "ios": "https://dc.lft.to/lastmile_qr_scan"}}, {"bike_id": "4a41dff09f1aeb9a18af4f031330c4e5", "fusion_lon": 0.0, "name": "4a41dff09f1aeb9a18af4f031330c4e5", "lat": 38.8450855, "is_disabled": 0, "is_reserved": 0, "lon": -76.99348766666667, "type": "electric_bike", "fusion_lat": 0.0, "rental_uris": {"android": "https://dc.lft.to/lastmile_qr_scan", "ios": "https://dc.lft.to/lastmile_qr_scan"}}, {"bike_id": "ff50a18909ba0f60cd34d34f2ce3cb5a", "fusion_lon": 0.0, "name": "ff50a18909ba0f60cd34d34f2ce3cb5a", "lat": 38.90200183333333, "is_disabled": 0, "is_reserved": 0, "lon": -77.02732433333334, "type": "electric_scooter", "fusion_lat": 0.0, "rental_uris": {"android": "https://dc.lft.to/lastmile_qr_scan", "ios": "https://dc.lft.to/lastmile_qr_scan"}}, {"bike_id": "7e59deeefdecacee194f5beaf0f5f077", "fusion_lon": 0.0, "name": "7e59deeefdecacee194f5beaf0f5f077", "lat": 38.92931166666666, "is_disabled": 0, "is_reserved": 0, "lon": -77.03286683333333, "type": "electric_scooter", "fusion_lat": 0.0, "rental_uris": {"android": "https://dc.lft.to/lastmile_qr_scan", "ios": "https://dc.lft.to/lastmile_qr_scan"}}, {"bike_id": "96d12e444e1d8f50f4c00348b2d5f41e", "fusion_lon": 0.0, "name": "96d12e444e1d8f50f4c00348b2d5f41e", "lat": 38.92988166666667, "is_disabled": 0, "is_reserved": 0, "lon": -77.01051366666667, "type": "electric_scooter", "fusion_lat": 0.0, "rental_uris": {"android": "https://dc.lft.to/lastmile_qr_scan", "ios": "https://dc.lft.to/lastmile_qr_scan"}}, {"bike_id": "b5917e9d1943082497bfd58c4ff92dea", "fusion_lon": 0.0, "name": "b5917e9d1943082497bfd58c4ff92dea", "lat": 38.897451, "is_disabled": 0, "is_reserved": 0, "lon": -77.03035883333334, "type": "electric_scooter", "fusion_lat": 0.0, "rental_uris": {"android": "https://dc.lft.to/lastmile_qr_scan", "ios": "https://dc.lft.to/lastmile_qr_scan"}}, {"bike_id": "fbbb1721d5d282a2e6da993f66a06387", "fusion_lon": 0.0, "name": "fbbb1721d5d282a2e6da993f66a06387", "lat": 38.959342, "is_disabled": 0, "is_reserved": 0, "lon": -77.0311745, "type": "electric_scooter", "fusion_lat": 0.0, "rental_uris": {"android": "https://dc.lft.to/lastmile_qr_scan", "ios": "https://dc.lft.to/lastmile_qr_scan"}}, {"bike_id": "95b154d62374250be5a28fecb9a6a3cb", "fusion_lon": 0.0, "name": "95b154d62374250be5a28fecb9a6a3cb", "lat": 38.919296333333335, "is_disabled": 0, "is_reserved": 0, "lon": -77.02389383333333, "type": "electric_scooter", "fusion_lat": 0.0, "rental_uris": {"android": "https://dc.lft.to/lastmile_qr_scan", "ios": "https://dc.lft.to/lastmile_qr_scan"}}, {"bike_id": "1ff50b2c081aaa4d392e0c1e8a2a1478", "fusion_lon": 0.0, "name": "1ff50b2c081aaa4d392e0c1e8a2a1478", "lat": 38.912325333333335, "is_disabled": 0, "is_reserved": 0, "lon": -77.03791783333334, "type": "electric_scooter", "fusion_lat": 0.0, "rental_uris": {"android": "https://dc.lft.to/lastmile_qr_scan", "ios": "https://dc.lft.to/lastmile_qr_scan"}}, {"bike_id": "d0ebd789b82119ed638b8e7f9c68df2c", "fusion_lon": 0.0, "name": "d0ebd789b82119ed638b8e7f9c68df2c", "lat": 38.902641333333335, "is_disabled": 0, "is_reserved": 0, "lon": -77.03427383333333, "type": "electric_scooter", "fusion_lat": 0.0, "rental_uris": {"android": "https://dc.lft.to/lastmile_qr_scan", "ios": "https://dc.lft.to/lastmile_qr_scan"}}, {"bike_id": "fa0380279e4b25c76f5a5e659f25b23a", "fusion_lon": 0.0, "name": "fa0380279e4b25c76f5a5e659f25b23a", "lat": 38.89062633333333, "is_disabled": 0, "is_reserved": 0, "lon": -76.944413, "type": "electric_scooter", "fusion_lat": 0.0, "rental_uris": {"android": "https://dc.lft.to/lastmile_qr_scan", "ios": "https://dc.lft.to/lastmile_qr_scan"}}, {"bike_id": "99564e5ad83101cc0de64df5af132856", "fusion_lon": 0.0, "name": "99564e5ad83101cc0de64df5af132856", "lat": 38.89972183333333, "is_disabled": 0, "is_reserved": 0, "lon": -77.00931383333334, "type": "electric_scooter", "fusion_lat": 0.0, "rental_uris": {"android": "https://dc.lft.to/lastmile_qr_scan", "ios": "https://dc.lft.to/lastmile_qr_scan"}}, {"bike_id": "e013fa6325ebf15eab255113c3352825", "fusion_lon": 0.0, "name": "e013fa6325ebf15eab255113c3352825", "lat": 38.92159383333333, "is_disabled": 0, "is_reserved": 0, "lon": -77.03315366666666, "type": "electric_scooter", "fusion_lat": 0.0, "rental_uris": {"android": "https://dc.lft.to/lastmile_qr_scan", "ios": "https://dc.lft.to/lastmile_qr_scan"}}, {"bike_id": "2c6a987858ae26876872d72d0c17d6fc", "fusion_lon": 0.0, "name": "2c6a987858ae26876872d72d0c17d6fc", "lat": 38.909558, "is_disabled": 0, "is_reserved": 0, "lon": -77.02275583333333, "type": "electric_scooter", "fusion_lat": 0.0, "rental_uris": {"android": "https://dc.lft.to/lastmile_qr_scan", "ios": "https://dc.lft.to/lastmile_qr_scan"}}, {"bike_id": "d98fc96c0469fe92ef038d970e3893c3", "fusion_lon": 0.0, "name": "d98fc96c0469fe92ef038d970e3893c3", "lat": 38.905296, "is_disabled": 0, "is_reserved": 0, "lon": -77.04864016666667, "type": "electric_scooter", "fusion_lat": 0.0, "rental_uris": {"android": "https://dc.lft.to/lastmile_qr_scan", "ios": "https://dc.lft.to/lastmile_qr_scan"}}, {"bike_id": "0fc5d3260028342b653cf566c762003b", "fusion_lon": 0.0, "name": "0fc5d3260028342b653cf566c762003b", "lat": 38.90135733333334, "is_disabled": 0, "is_reserved": 0, "lon": -77.04153116666667, "type": "electric_scooter", "fusion_lat": 0.0, "rental_uris": {"android": "https://dc.lft.to/lastmile_qr_scan", "ios": "https://dc.lft.to/lastmile_qr_scan"}}, {"bike_id": "bb77d5d2be685a432c8242e67b1838dc", "fusion_lon": 0.0, "name": "bb77d5d2be685a432c8242e67b1838dc", "lat": 38.8668535, "is_disabled": 0, "is_reserved": 0, "lon": -76.98560116666667, "type": "electric_scooter", "fusion_lat": 0.0, "rental_uris": {"android": "https://dc.lft.to/lastmile_qr_scan", "ios": "https://dc.lft.to/lastmile_qr_scan"}}, {"bike_id": "903bd14d724868ac27b8e8a420b5498f", "fusion_lon": 0.0, "name": "903bd14d724868ac27b8e8a420b5498f", "lat": 38.92510083333333, "is_disabled": 0, "is_reserved": 0, "lon": -76.99563233333333, "type": "electric_scooter", "fusion_lat": 0.0, "rental_uris": {"android": "https://dc.lft.to/lastmile_qr_scan", "ios": "https://dc.lft.to/lastmile_qr_scan"}}, {"bike_id": "cec107d9227de79c306384e1be3d691d", "fusion_lon": 0.0, "name": "cec107d9227de79c306384e1be3d691d", "lat": 38.913967166666666, "is_disabled": 0, "is_reserved": 0, "lon": -77.04174333333333, "type": "electric_scooter", "fusion_lat": 0.0, "rental_uris": {"android": "https://dc.lft.to/lastmile_qr_scan", "ios": "https://dc.lft.to/lastmile_qr_scan"}}, {"bike_id": "4964ac91218240b8d7cc6d22e5ab65e7", "fusion_lon": 0.0, "name": "4964ac91218240b8d7cc6d22e5ab65e7", "lat": 38.90572133333333, "is_disabled": 0, "is_reserved": 0, "lon": -77.04347383333334, "type": "electric_scooter", "fusion_lat": 0.0, "rental_uris": {"android": "https://dc.lft.to/lastmile_qr_scan", "ios": "https://dc.lft.to/lastmile_qr_scan"}}, {"bike_id": "6fe13eb93d43cd007c4379aeb17fe9ac", "fusion_lon": 0.0, "name": "6fe13eb93d43cd007c4379aeb17fe9ac", "lat": 38.915378, "is_disabled": 0, "is_reserved": 0, "lon": -77.01220733333334, "type": "electric_scooter", "fusion_lat": 0.0, "rental_uris": {"android": "https://dc.lft.to/lastmile_qr_scan", "ios": "https://dc.lft.to/lastmile_qr_scan"}}, {"bike_id": "1aed91b76768a90f27f11405d0f79c7c", "fusion_lon": 0.0, "name": "1aed91b76768a90f27f11405d0f79c7c", "lat": 38.8316005, "is_disabled": 0, "is_reserved": 0, "lon": -76.995442, "type": "electric_bike", "fusion_lat": 0.0, "rental_uris": {"android": "https://dc.lft.to/lastmile_qr_scan", "ios": "https://dc.lft.to/lastmile_qr_scan"}}, {"bike_id": "b68d1dfa296cf1f48c6c1eeee416edb3", "fusion_lon": 0.0, "name": "b68d1dfa296cf1f48c6c1eeee416edb3", "lat": 38.922598666666666, "is_disabled": 0, "is_reserved": 0, "lon": -77.0091465, "type": "electric_scooter", "fusion_lat": 0.0, "rental_uris": {"android": "https://dc.lft.to/lastmile_qr_scan", "ios": "https://dc.lft.to/lastmile_qr_scan"}}, {"bike_id": "afaad435ca2663960daebd9b550cb260", "fusion_lon": 0.0, "name": "afaad435ca2663960daebd9b550cb260", "lat": 38.900397166666664, "is_disabled": 0, "is_reserved": 0, "lon": -76.97219716666666, "type": "electric_bike", "fusion_lat": 0.0, "rental_uris": {"android": "https://dc.lft.to/lastmile_qr_scan", "ios": "https://dc.lft.to/lastmile_qr_scan"}}, {"bike_id": "8ec113ab992797d4163813f300983add", "fusion_lon": 0.0, "name": "8ec113ab992797d4163813f300983add", "lat": 38.89228283333333, "is_disabled": 0, "is_reserved": 0, "lon": -77.0314345, "type": "electric_scooter", "fusion_lat": 0.0, "rental_uris": {"android": "https://dc.lft.to/lastmile_qr_scan", "ios": "https://dc.lft.to/lastmile_qr_scan"}}, {"bike_id": "be4ae1cba95ace6c74bd3718c18d0553", "fusion_lon": 0.0, "name": "be4ae1cba95ace6c74bd3718c18d0553", "lat": 38.87702566666667, "is_disabled": 0, "is_reserved": 0, "lon": -77.0045985, "type": "electric_scooter", "fusion_lat": 0.0, "rental_uris": {"android": "https://dc.lft.to/lastmile_qr_scan", "ios": "https://dc.lft.to/lastmile_qr_scan"}}, {"bike_id": "4f990ff9d471dd672a3748c9815ceb2f", "fusion_lon": 0.0, "name": "4f990ff9d471dd672a3748c9815ceb2f", "lat": 38.905794666666665, "is_disabled": 0, "is_reserved": 0, "lon": -77.05145083333333, "type": "electric_scooter", "fusion_lat": 0.0, "rental_uris": {"android": "https://dc.lft.to/lastmile_qr_scan", "ios": "https://dc.lft.to/lastmile_qr_scan"}}, {"bike_id": "a5f4eafa2de668b00cbce39020687e5e", "fusion_lon": 0.0, "name": "a5f4eafa2de668b00cbce39020687e5e", "lat": 38.952044666666666, "is_disabled": 0, "is_reserved": 0, "lon": -77.0029385, "type": "electric_bike", "fusion_lat": 0.0, "rental_uris": {"android": "https://dc.lft.to/lastmile_qr_scan", "ios": "https://dc.lft.to/lastmile_qr_scan"}}, {"bike_id": "de29b82decb7d2a09fd0570aa8cdb44e", "fusion_lon": 0.0, "name": "de29b82decb7d2a09fd0570aa8cdb44e", "lat": 38.885264666666664, "is_disabled": 0, "is_reserved": 0, "lon": -77.01522933333334, "type": "electric_scooter", "fusion_lat": 0.0, "rental_uris": {"android": "https://dc.lft.to/lastmile_qr_scan", "ios": "https://dc.lft.to/lastmile_qr_scan"}}, {"bike_id": "cc560c67f4d6d2f8a730e6325a59e469", "fusion_lon": 0.0, "name": "cc560c67f4d6d2f8a730e6325a59e469", "lat": 38.908678333333334, "is_disabled": 0, "is_reserved": 0, "lon": -77.03221633333334, "type": "electric_scooter", "fusion_lat": 0.0, "rental_uris": {"android": "https://dc.lft.to/lastmile_qr_scan", "ios": "https://dc.lft.to/lastmile_qr_scan"}}, {"bike_id": "d5d3d2c7c48343f39e27bca0998a5d5d", "fusion_lon": 0.0, "name": "d5d3d2c7c48343f39e27bca0998a5d5d", "lat": 38.90237316666666, "is_disabled": 0, "is_reserved": 0, "lon": -77.05927366666667, "type": "electric_scooter", "fusion_lat": 0.0, "rental_uris": {"android": "https://dc.lft.to/lastmile_qr_scan", "ios": "https://dc.lft.to/lastmile_qr_scan"}}, {"bike_id": "d11bdda265a8d5128ec23686ed63dd0e", "fusion_lon": 0.0, "name": "d11bdda265a8d5128ec23686ed63dd0e", "lat": 38.90807816666667, "is_disabled": 0, "is_reserved": 0, "lon": -77.03457133333333, "type": "electric_scooter", "fusion_lat": 0.0, "rental_uris": {"android": "https://dc.lft.to/lastmile_qr_scan", "ios": "https://dc.lft.to/lastmile_qr_scan"}}, {"bike_id": "5b5f20a60452be20b465b67c4a557ecf", "fusion_lon": 0.0, "name": "5b5f20a60452be20b465b67c4a557ecf", "lat": 38.88721666666667, "is_disabled": 0, "is_reserved": 0, "lon": -76.9969015, "type": "electric_scooter", "fusion_lat": 0.0, "rental_uris": {"android": "https://dc.lft.to/lastmile_qr_scan", "ios": "https://dc.lft.to/lastmile_qr_scan"}}, {"bike_id": "5497c811d85ead5b934eaa4e620f474d", "fusion_lon": 0.0, "name": "5497c811d85ead5b934eaa4e620f474d", "lat": 38.923570166666664, "is_disabled": 0, "is_reserved": 0, "lon": -77.0504835, "type": "electric_scooter", "fusion_lat": 0.0, "rental_uris": {"android": "https://dc.lft.to/lastmile_qr_scan", "ios": "https://dc.lft.to/lastmile_qr_scan"}}, {"bike_id": "a11d69956a88ec6a0e34c6cb5e7dd09e", "fusion_lon": 0.0, "name": "a11d69956a88ec6a0e34c6cb5e7dd09e", "lat": 38.911389166666666, "is_disabled": 0, "is_reserved": 0, "lon": -77.0449285, "type": "electric_scooter", "fusion_lat": 0.0, "rental_uris": {"android": "https://dc.lft.to/lastmile_qr_scan", "ios": "https://dc.lft.to/lastmile_qr_scan"}}, {"bike_id": "0972c39cabeba59673949aabc18ea8c6", "fusion_lon": 0.0, "name": "0972c39cabeba59673949aabc18ea8c6", "lat": 38.876734666666664, "is_disabled": 0, "is_reserved": 0, "lon": -77.00880916666667, "type": "electric_scooter", "fusion_lat": 0.0, "rental_uris": {"android": "https://dc.lft.to/lastmile_qr_scan", "ios": "https://dc.lft.to/lastmile_qr_scan"}}, {"bike_id": "60b8eae91f84f159743466e173abaf73", "fusion_lon": 0.0, "name": "60b8eae91f84f159743466e173abaf73", "lat": 38.91269283333333, "is_disabled": 0, "is_reserved": 0, "lon": -77.03829216666666, "type": "electric_scooter", "fusion_lat": 0.0, "rental_uris": {"android": "https://dc.lft.to/lastmile_qr_scan", "ios": "https://dc.lft.to/lastmile_qr_scan"}}, {"bike_id": "732d7428e682fee3622c829d37260820", "fusion_lon": 0.0, "name": "732d7428e682fee3622c829d37260820", "lat": 38.91006733333333, "is_disabled": 0, "is_reserved": 0, "lon": -76.9941235, "type": "electric_scooter", "fusion_lat": 0.0, "rental_uris": {"android": "https://dc.lft.to/lastmile_qr_scan", "ios": "https://dc.lft.to/lastmile_qr_scan"}}, {"bike_id": "2fd0506f29a594da5ccae78d86be0a26", "fusion_lon": 0.0, "name": "2fd0506f29a594da5ccae78d86be0a26", "lat": 38.927566666666664, "is_disabled": 0, "is_reserved": 0, "lon": -77.02113, "type": "electric_scooter", "fusion_lat": 0.0, "rental_uris": {"android": "https://dc.lft.to/lastmile_qr_scan", "ios": "https://dc.lft.to/lastmile_qr_scan"}}, {"bike_id": "3650ec505f4efdd86b9138b5160d19a3", "fusion_lon": 0.0, "name": "3650ec505f4efdd86b9138b5160d19a3", "lat": 38.9112335, "is_disabled": 0, "is_reserved": 0, "lon": -77.02203266666666, "type": "electric_scooter", "fusion_lat": 0.0, "rental_uris": {"android": "https://dc.lft.to/lastmile_qr_scan", "ios": "https://dc.lft.to/lastmile_qr_scan"}}, {"bike_id": "eb0f065a73a2e292fa1d501b6093f629", "fusion_lon": 0.0, "name": "eb0f065a73a2e292fa1d501b6093f629", "lat": 38.90732633333333, "is_disabled": 0, "is_reserved": 0, "lon": -76.99776083333333, "type": "electric_scooter", "fusion_lat": 0.0, "rental_uris": {"android": "https://dc.lft.to/lastmile_qr_scan", "ios": "https://dc.lft.to/lastmile_qr_scan"}}, {"bike_id": "92412de0edd8146ac48a16636ac9b8c1", "fusion_lon": 0.0, "name": "92412de0edd8146ac48a16636ac9b8c1", "lat": 38.978856666666665, "is_disabled": 0, "is_reserved": 0, "lon": -77.0602775, "type": "electric_bike", "fusion_lat": 0.0, "rental_uris": {"android": "https://dc.lft.to/lastmile_qr_scan", "ios": "https://dc.lft.to/lastmile_qr_scan"}}, {"bike_id": "7355d53d12e5e85f749963d0b567b765", "fusion_lon": 0.0, "name": "7355d53d12e5e85f749963d0b567b765", "lat": 38.9358, "is_disabled": 0, "is_reserved": 0, "lon": -76.9992445, "type": "electric_bike", "fusion_lat": 0.0, "rental_uris": {"android": "https://dc.lft.to/lastmile_qr_scan", "ios": "https://dc.lft.to/lastmile_qr_scan"}}, {"bike_id": "dd43af4cc9ddbad6dc994799c123d9ac", "fusion_lon": 0.0, "name": "dd43af4cc9ddbad6dc994799c123d9ac", "lat": 38.914891833333336, "is_disabled": 0, "is_reserved": 0, "lon": -77.0372725, "type": "electric_scooter", "fusion_lat": 0.0, "rental_uris": {"android": "https://dc.lft.to/lastmile_qr_scan", "ios": "https://dc.lft.to/lastmile_qr_scan"}}, {"bike_id": "a04d038a868604a64f92e9fa1a17c6b7", "fusion_lon": 0.0, "name": "a04d038a868604a64f92e9fa1a17c6b7", "lat": 38.892273333333335, "is_disabled": 0, "is_reserved": 0, "lon": -77.04181866666667, "type": "electric_scooter", "fusion_lat": 0.0, "rental_uris": {"android": "https://dc.lft.to/lastmile_qr_scan", "ios": "https://dc.lft.to/lastmile_qr_scan"}}, {"bike_id": "e24899dd39d2f337994d9de2e4058078", "fusion_lon": 0.0, "name": "e24899dd39d2f337994d9de2e4058078", "lat": 38.90518083333333, "is_disabled": 0, "is_reserved": 0, "lon": -77.0491355, "type": "electric_scooter", "fusion_lat": 0.0, "rental_uris": {"android": "https://dc.lft.to/lastmile_qr_scan", "ios": "https://dc.lft.to/lastmile_qr_scan"}}, {"bike_id": "e6ec4cb6c0065663fa5a0cf82c9d15ee", "fusion_lon": 0.0, "name": "e6ec4cb6c0065663fa5a0cf82c9d15ee", "lat": 38.89222266666667, "is_disabled": 0, "is_reserved": 0, "lon": -77.0477065, "type": "electric_scooter", "fusion_lat": 0.0, "rental_uris": {"android": "https://dc.lft.to/lastmile_qr_scan", "ios": "https://dc.lft.to/lastmile_qr_scan"}}, {"bike_id": "4ffc93f21f1f2c18fa6f4164ce33faf7", "fusion_lon": 0.0, "name": "4ffc93f21f1f2c18fa6f4164ce33faf7", "lat": 38.925303666666665, "is_disabled": 0, "is_reserved": 0, "lon": -77.02282966666667, "type": "electric_scooter", "fusion_lat": 0.0, "rental_uris": {"android": "https://dc.lft.to/lastmile_qr_scan", "ios": "https://dc.lft.to/lastmile_qr_scan"}}, {"bike_id": "4bb2cfe36c17277c642881e2de93444f", "fusion_lon": 0.0, "name": "4bb2cfe36c17277c642881e2de93444f", "lat": 38.922784, "is_disabled": 0, "is_reserved": 0, "lon": -77.01948033333333, "type": "electric_scooter", "fusion_lat": 0.0, "rental_uris": {"android": "https://dc.lft.to/lastmile_qr_scan", "ios": "https://dc.lft.to/lastmile_qr_scan"}}, {"bike_id": "83709b355c4c0bd5eb6b266efdb8720a", "fusion_lon": 0.0, "name": "83709b355c4c0bd5eb6b266efdb8720a", "lat": 38.897369, "is_disabled": 0, "is_reserved": 0, "lon": -77.04645933333333, "type": "electric_scooter", "fusion_lat": 0.0, "rental_uris": {"android": "https://dc.lft.to/lastmile_qr_scan", "ios": "https://dc.lft.to/lastmile_qr_scan"}}, {"bike_id": "749711e1478563877df9dac350a5c46e", "fusion_lon": 0.0, "name": "749711e1478563877df9dac350a5c46e", "lat": 38.926012666666665, "is_disabled": 0, "is_reserved": 0, "lon": -77.02385516666666, "type": "electric_scooter", "fusion_lat": 0.0, "rental_uris": {"android": "https://dc.lft.to/lastmile_qr_scan", "ios": "https://dc.lft.to/lastmile_qr_scan"}}, {"bike_id": "20151ab60f5bbe9b28d568a2f28ee223", "fusion_lon": 0.0, "name": "20151ab60f5bbe9b28d568a2f28ee223", "lat": 38.8393655, "is_disabled": 0, "is_reserved": 0, "lon": -77.07903166666667, "type": "electric_bike", "fusion_lat": 0.0, "rental_uris": {"android": "https://dc.lft.to/lastmile_qr_scan", "ios": "https://dc.lft.to/lastmile_qr_scan"}}, {"bike_id": "618ffd0c438e7d78a4bb1d47499ecc27", "fusion_lon": 0.0, "name": "618ffd0c438e7d78a4bb1d47499ecc27", "lat": 38.88736683333333, "is_disabled": 0, "is_reserved": 0, "lon": -77.0258175, "type": "electric_scooter", "fusion_lat": 0.0, "rental_uris": {"android": "https://dc.lft.to/lastmile_qr_scan", "ios": "https://dc.lft.to/lastmile_qr_scan"}}, {"bike_id": "6d350323aa9ce3f9c7aa997e0462f9c4", "fusion_lon": 0.0, "name": "6d350323aa9ce3f9c7aa997e0462f9c4", "lat": 38.920331166666664, "is_disabled": 0, "is_reserved": 0, "lon": -77.03129766666666, "type": "electric_scooter", "fusion_lat": 0.0, "rental_uris": {"android": "https://dc.lft.to/lastmile_qr_scan", "ios": "https://dc.lft.to/lastmile_qr_scan"}}, {"bike_id": "a154284ab7479f32aaaf512947ae0dd0", "fusion_lon": 0.0, "name": "a154284ab7479f32aaaf512947ae0dd0", "lat": 38.88607716666667, "is_disabled": 0, "is_reserved": 0, "lon": -77.0320625, "type": "electric_scooter", "fusion_lat": 0.0, "rental_uris": {"android": "https://dc.lft.to/lastmile_qr_scan", "ios": "https://dc.lft.to/lastmile_qr_scan"}}, {"bike_id": "5ab43d94b372223d3a48a717fde6b72b", "fusion_lon": 0.0, "name": "5ab43d94b372223d3a48a717fde6b72b", "lat": 38.909730333333336, "is_disabled": 0, "is_reserved": 0, "lon": -77.0330845, "type": "electric_scooter", "fusion_lat": 0.0, "rental_uris": {"android": "https://dc.lft.to/lastmile_qr_scan", "ios": "https://dc.lft.to/lastmile_qr_scan"}}, {"bike_id": "ac96d87b588bce310887dfb22edd7886", "fusion_lon": 0.0, "name": "ac96d87b588bce310887dfb22edd7886", "lat": 38.9153325, "is_disabled": 0, "is_reserved": 0, "lon": -77.031927, "type": "electric_scooter", "fusion_lat": 0.0, "rental_uris": {"android": "https://dc.lft.to/lastmile_qr_scan", "ios": "https://dc.lft.to/lastmile_qr_scan"}}, {"bike_id": "430d9343e5a3665257f7a95837682be9", "fusion_lon": 0.0, "name": "430d9343e5a3665257f7a95837682be9", "lat": 38.917155666666666, "is_disabled": 0, "is_reserved": 0, "lon": -77.0365595, "type": "electric_scooter", "fusion_lat": 0.0, "rental_uris": {"android": "https://dc.lft.to/lastmile_qr_scan", "ios": "https://dc.lft.to/lastmile_qr_scan"}}, {"bike_id": "8a57c213f4385a8cd8d206a51d9c814a", "fusion_lon": 0.0, "name": "8a57c213f4385a8cd8d206a51d9c814a", "lat": 38.915637333333336, "is_disabled": 0, "is_reserved": 0, "lon": -77.021283, "type": "electric_scooter", "fusion_lat": 0.0, "rental_uris": {"android": "https://dc.lft.to/lastmile_qr_scan", "ios": "https://dc.lft.to/lastmile_qr_scan"}}, {"bike_id": "9e7ea1e6a8cf03e02a02a299992896c6", "fusion_lon": 0.0, "name": "9e7ea1e6a8cf03e02a02a299992896c6", "lat": 38.88066966666667, "is_disabled": 0, "is_reserved": 0, "lon": -76.93219866666666, "type": "electric_scooter", "fusion_lat": 0.0, "rental_uris": {"android": "https://dc.lft.to/lastmile_qr_scan", "ios": "https://dc.lft.to/lastmile_qr_scan"}}, {"bike_id": "826772b522a793f0f69d769ab852e969", "fusion_lon": 0.0, "name": "826772b522a793f0f69d769ab852e969", "lat": 38.921173333333336, "is_disabled": 0, "is_reserved": 0, "lon": -77.00916416666666, "type": "electric_scooter", "fusion_lat": 0.0, "rental_uris": {"android": "https://dc.lft.to/lastmile_qr_scan", "ios": "https://dc.lft.to/lastmile_qr_scan"}}, {"bike_id": "bca680e8de23d71005967c19e50c4fd8", "fusion_lon": 0.0, "name": "bca680e8de23d71005967c19e50c4fd8", "lat": 38.902412166666664, "is_disabled": 0, "is_reserved": 0, "lon": -77.05328816666666, "type": "electric_scooter", "fusion_lat": 0.0, "rental_uris": {"android": "https://dc.lft.to/lastmile_qr_scan", "ios": "https://dc.lft.to/lastmile_qr_scan"}}, {"bike_id": "bf798a2239a6f726356ed4b6ce4fa2b9", "fusion_lon": 0.0, "name": "bf798a2239a6f726356ed4b6ce4fa2b9", "lat": 38.937543, "is_disabled": 0, "is_reserved": 0, "lon": -77.02952283333333, "type": "electric_scooter", "fusion_lat": 0.0, "rental_uris": {"android": "https://dc.lft.to/lastmile_qr_scan", "ios": "https://dc.lft.to/lastmile_qr_scan"}}, {"bike_id": "56f88033ef956657e715ef691eaaac32", "fusion_lon": 0.0, "name": "56f88033ef956657e715ef691eaaac32", "lat": 38.90153766666667, "is_disabled": 0, "is_reserved": 0, "lon": -76.99026716666667, "type": "electric_scooter", "fusion_lat": 0.0, "rental_uris": {"android": "https://dc.lft.to/lastmile_qr_scan", "ios": "https://dc.lft.to/lastmile_qr_scan"}}, {"bike_id": "85bf95254518be8642f839fc2f98fd00", "fusion_lon": 0.0, "name": "85bf95254518be8642f839fc2f98fd00", "lat": 38.910547333333334, "is_disabled": 0, "is_reserved": 0, "lon": -77.04353933333333, "type": "electric_scooter", "fusion_lat": 0.0, "rental_uris": {"android": "https://dc.lft.to/lastmile_qr_scan", "ios": "https://dc.lft.to/lastmile_qr_scan"}}, {"bike_id": "957a3e78af0c5627ed52171360ba7e0c", "fusion_lon": 0.0, "name": "957a3e78af0c5627ed52171360ba7e0c", "lat": 38.92344033333333, "is_disabled": 0, "is_reserved": 0, "lon": -77.052367, "type": "electric_scooter", "fusion_lat": 0.0, "rental_uris": {"android": "https://dc.lft.to/lastmile_qr_scan", "ios": "https://dc.lft.to/lastmile_qr_scan"}}, {"bike_id": "9c7d2cb657e006e2b846fc7c0fdd04ae", "fusion_lon": 0.0, "name": "9c7d2cb657e006e2b846fc7c0fdd04ae", "lat": 38.898261, "is_disabled": 0, "is_reserved": 0, "lon": -77.00745916666666, "type": "electric_scooter", "fusion_lat": 0.0, "rental_uris": {"android": "https://dc.lft.to/lastmile_qr_scan", "ios": "https://dc.lft.to/lastmile_qr_scan"}}, {"bike_id": "f951ebb2bdefb595e6fa1b630676351b", "fusion_lon": 0.0, "name": "f951ebb2bdefb595e6fa1b630676351b", "lat": 38.91796083333333, "is_disabled": 0, "is_reserved": 0, "lon": -77.02313266666667, "type": "electric_scooter", "fusion_lat": 0.0, "rental_uris": {"android": "https://dc.lft.to/lastmile_qr_scan", "ios": "https://dc.lft.to/lastmile_qr_scan"}}, {"bike_id": "485be2bda8468fbce0aa3c097928e53c", "fusion_lon": 0.0, "name": "485be2bda8468fbce0aa3c097928e53c", "lat": 38.9242445, "is_disabled": 0, "is_reserved": 0, "lon": -77.01946033333333, "type": "electric_scooter", "fusion_lat": 0.0, "rental_uris": {"android": "https://dc.lft.to/lastmile_qr_scan", "ios": "https://dc.lft.to/lastmile_qr_scan"}}, {"bike_id": "a7574473ba1c0a77a317d0779db739f7", "fusion_lon": 0.0, "name": "a7574473ba1c0a77a317d0779db739f7", "lat": 38.885227, "is_disabled": 0, "is_reserved": 0, "lon": -76.9770665, "type": "electric_scooter", "fusion_lat": 0.0, "rental_uris": {"android": "https://dc.lft.to/lastmile_qr_scan", "ios": "https://dc.lft.to/lastmile_qr_scan"}}, {"bike_id": "e81ba3aab919aada74d0a9f08d0282d5", "fusion_lon": 0.0, "name": "e81ba3aab919aada74d0a9f08d0282d5", "lat": 38.934234833333335, "is_disabled": 0, "is_reserved": 0, "lon": -77.04402816666666, "type": "electric_scooter", "fusion_lat": 0.0, "rental_uris": {"android": "https://dc.lft.to/lastmile_qr_scan", "ios": "https://dc.lft.to/lastmile_qr_scan"}}, {"bike_id": "5e27dda90d1d90dde95eb242518fec88", "fusion_lon": 0.0, "name": "5e27dda90d1d90dde95eb242518fec88", "lat": 38.890140833333334, "is_disabled": 0, "is_reserved": 0, "lon": -76.93746266666666, "type": "electric_scooter", "fusion_lat": 0.0, "rental_uris": {"android": "https://dc.lft.to/lastmile_qr_scan", "ios": "https://dc.lft.to/lastmile_qr_scan"}}, {"bike_id": "d273980a1dd34f273b21f448a8987810", "fusion_lon": 0.0, "name": "d273980a1dd34f273b21f448a8987810", "lat": 38.896722, "is_disabled": 0, "is_reserved": 0, "lon": -77.05464566666667, "type": "electric_scooter", "fusion_lat": 0.0, "rental_uris": {"android": "https://dc.lft.to/lastmile_qr_scan", "ios": "https://dc.lft.to/lastmile_qr_scan"}}, {"bike_id": "3f5f4c5ef4eed00241d44253c5852b03", "fusion_lon": 0.0, "name": "3f5f4c5ef4eed00241d44253c5852b03", "lat": 38.9079205, "is_disabled": 0, "is_reserved": 0, "lon": -76.994196, "type": "electric_scooter", "fusion_lat": 0.0, "rental_uris": {"android": "https://dc.lft.to/lastmile_qr_scan", "ios": "https://dc.lft.to/lastmile_qr_scan"}}, {"bike_id": "c0bd2df719c88b4c5a64703c9aac6f0b", "fusion_lon": 0.0, "name": "c0bd2df719c88b4c5a64703c9aac6f0b", "lat": 38.916293333333336, "is_disabled": 0, "is_reserved": 0, "lon": -77.02152683333334, "type": "electric_scooter", "fusion_lat": 0.0, "rental_uris": {"android": "https://dc.lft.to/lastmile_qr_scan", "ios": "https://dc.lft.to/lastmile_qr_scan"}}, {"bike_id": "24ba41992bd7c44bbfaf3f6dd73694a4", "fusion_lon": 0.0, "name": "24ba41992bd7c44bbfaf3f6dd73694a4", "lat": 38.909668, "is_disabled": 0, "is_reserved": 0, "lon": -77.22890666666666, "type": "electric_bike", "fusion_lat": 0.0, "rental_uris": {"android": "https://dc.lft.to/lastmile_qr_scan", "ios": "https://dc.lft.to/lastmile_qr_scan"}}, {"bike_id": "70002589e42730013c8e8823d83b7d2a", "fusion_lon": 0.0, "name": "70002589e42730013c8e8823d83b7d2a", "lat": 38.898397333333335, "is_disabled": 0, "is_reserved": 0, "lon": -77.03315866666667, "type": "electric_scooter", "fusion_lat": 0.0, "rental_uris": {"android": "https://dc.lft.to/lastmile_qr_scan", "ios": "https://dc.lft.to/lastmile_qr_scan"}}, {"bike_id": "ec1a8d00dd3bcde6adb165393f5c5d0a", "fusion_lon": 0.0, "name": "ec1a8d00dd3bcde6adb165393f5c5d0a", "lat": 38.903974, "is_disabled": 0, "is_reserved": 0, "lon": -77.03420266666667, "type": "electric_scooter", "fusion_lat": 0.0, "rental_uris": {"android": "https://dc.lft.to/lastmile_qr_scan", "ios": "https://dc.lft.to/lastmile_qr_scan"}}, {"bike_id": "4982cb05050183ff7b5303bc76600343", "fusion_lon": 0.0, "name": "4982cb05050183ff7b5303bc76600343", "lat": 38.96510633333333, "is_disabled": 0, "is_reserved": 0, "lon": -77.02597283333333, "type": "electric_scooter", "fusion_lat": 0.0, "rental_uris": {"android": "https://dc.lft.to/lastmile_qr_scan", "ios": "https://dc.lft.to/lastmile_qr_scan"}}, {"bike_id": "3f8eb97ec36cad206363693369c86938", "fusion_lon": 0.0, "name": "3f8eb97ec36cad206363693369c86938", "lat": 38.901157166666664, "is_disabled": 0, "is_reserved": 0, "lon": -77.046246, "type": "electric_scooter", "fusion_lat": 0.0, "rental_uris": {"android": "https://dc.lft.to/lastmile_qr_scan", "ios": "https://dc.lft.to/lastmile_qr_scan"}}, {"bike_id": "49f74b23209538eef50d8b5e0139fa0a", "fusion_lon": 0.0, "name": "49f74b23209538eef50d8b5e0139fa0a", "lat": 38.88492516666667, "is_disabled": 0, "is_reserved": 0, "lon": -77.00706683333334, "type": "electric_scooter", "fusion_lat": 0.0, "rental_uris": {"android": "https://dc.lft.to/lastmile_qr_scan", "ios": "https://dc.lft.to/lastmile_qr_scan"}}, {"bike_id": "dc71bd4026685a2db09d567335ed1147", "fusion_lon": 0.0, "name": "dc71bd4026685a2db09d567335ed1147", "lat": 38.8676195, "is_disabled": 0, "is_reserved": 0, "lon": -76.982805, "type": "electric_scooter", "fusion_lat": 0.0, "rental_uris": {"android": "https://dc.lft.to/lastmile_qr_scan", "ios": "https://dc.lft.to/lastmile_qr_scan"}}, {"bike_id": "02d637886f22bc44e549aa6e62299625", "fusion_lon": 0.0, "name": "02d637886f22bc44e549aa6e62299625", "lat": 38.8944205, "is_disabled": 0, "is_reserved": 0, "lon": -76.97716416666667, "type": "electric_scooter", "fusion_lat": 0.0, "rental_uris": {"android": "https://dc.lft.to/lastmile_qr_scan", "ios": "https://dc.lft.to/lastmile_qr_scan"}}, {"bike_id": "97ad2737ee7c31e99badab005567046e", "fusion_lon": 0.0, "name": "97ad2737ee7c31e99badab005567046e", "lat": 38.8133415, "is_disabled": 0, "is_reserved": 0, "lon": -77.05094816666667, "type": "electric_bike", "fusion_lat": 0.0, "rental_uris": {"android": "https://dc.lft.to/lastmile_qr_scan", "ios": "https://dc.lft.to/lastmile_qr_scan"}}, {"bike_id": "b733bb666b108307c5bebd0c1988ca41", "fusion_lon": 0.0, "name": "b733bb666b108307c5bebd0c1988ca41", "lat": 38.884476166666666, "is_disabled": 0, "is_reserved": 0, "lon": -76.99624216666666, "type": "electric_scooter", "fusion_lat": 0.0, "rental_uris": {"android": "https://dc.lft.to/lastmile_qr_scan", "ios": "https://dc.lft.to/lastmile_qr_scan"}}, {"bike_id": "7edb11472a25d8d3f5c42bdb4c109584", "fusion_lon": 0.0, "name": "7edb11472a25d8d3f5c42bdb4c109584", "lat": 38.8982645, "is_disabled": 0, "is_reserved": 0, "lon": -77.045882, "type": "electric_scooter", "fusion_lat": 0.0, "rental_uris": {"android": "https://dc.lft.to/lastmile_qr_scan", "ios": "https://dc.lft.to/lastmile_qr_scan"}}, {"bike_id": "16765eac1e1cb3b6cfb3d7378c8aeec9", "fusion_lon": 0.0, "name": "16765eac1e1cb3b6cfb3d7378c8aeec9", "lat": 38.927944833333335, "is_disabled": 0, "is_reserved": 0, "lon": -76.95558416666667, "type": "electric_scooter", "fusion_lat": 0.0, "rental_uris": {"android": "https://dc.lft.to/lastmile_qr_scan", "ios": "https://dc.lft.to/lastmile_qr_scan"}}, {"bike_id": "1bc2dfdf281302107a0b99fb860f9871", "fusion_lon": 0.0, "name": "1bc2dfdf281302107a0b99fb860f9871", "lat": 38.90161, "is_disabled": 0, "is_reserved": 0, "lon": -76.9763095, "type": "electric_scooter", "fusion_lat": 0.0, "rental_uris": {"android": "https://dc.lft.to/lastmile_qr_scan", "ios": "https://dc.lft.to/lastmile_qr_scan"}}, {"bike_id": "ffc00dcff9bafcf57cd4ddfa8c073d96", "fusion_lon": 0.0, "name": "ffc00dcff9bafcf57cd4ddfa8c073d96", "lat": 38.920426666666664, "is_disabled": 0, "is_reserved": 0, "lon": -77.079788, "type": "electric_scooter", "fusion_lat": 0.0, "rental_uris": {"android": "https://dc.lft.to/lastmile_qr_scan", "ios": "https://dc.lft.to/lastmile_qr_scan"}}, {"bike_id": "3bd52c0078acb424d9c4847b1abdb025", "fusion_lon": 0.0, "name": "3bd52c0078acb424d9c4847b1abdb025", "lat": 38.94918333333333, "is_disabled": 0, "is_reserved": 0, "lon": -77.01858316666667, "type": "electric_scooter", "fusion_lat": 0.0, "rental_uris": {"android": "https://dc.lft.to/lastmile_qr_scan", "ios": "https://dc.lft.to/lastmile_qr_scan"}}, {"bike_id": "78080c88fe30a65564f3f70b9161d265", "fusion_lon": 0.0, "name": "78080c88fe30a65564f3f70b9161d265", "lat": 38.9332835, "is_disabled": 0, "is_reserved": 0, "lon": -77.03266683333334, "type": "electric_scooter", "fusion_lat": 0.0, "rental_uris": {"android": "https://dc.lft.to/lastmile_qr_scan", "ios": "https://dc.lft.to/lastmile_qr_scan"}}, {"bike_id": "f406b9f6ee8fd8e60c9d186f263a23c7", "fusion_lon": 0.0, "name": "f406b9f6ee8fd8e60c9d186f263a23c7", "lat": 38.914753166666664, "is_disabled": 0, "is_reserved": 0, "lon": -77.02161083333333, "type": "electric_scooter", "fusion_lat": 0.0, "rental_uris": {"android": "https://dc.lft.to/lastmile_qr_scan", "ios": "https://dc.lft.to/lastmile_qr_scan"}}, {"bike_id": "f7f1a3702bed6d04a2c09c643dbb113f", "fusion_lon": 0.0, "name": "f7f1a3702bed6d04a2c09c643dbb113f", "lat": 38.90269383333333, "is_disabled": 0, "is_reserved": 0, "lon": -77.03848083333334, "type": "electric_scooter", "fusion_lat": 0.0, "rental_uris": {"android": "https://dc.lft.to/lastmile_qr_scan", "ios": "https://dc.lft.to/lastmile_qr_scan"}}, {"bike_id": "33a85e9cfdbb483e711d51cfc7adcaf6", "fusion_lon": 0.0, "name": "33a85e9cfdbb483e711d51cfc7adcaf6", "lat": 38.92444733333333, "is_disabled": 0, "is_reserved": 0, "lon": -77.0524845, "type": "electric_scooter", "fusion_lat": 0.0, "rental_uris": {"android": "https://dc.lft.to/lastmile_qr_scan", "ios": "https://dc.lft.to/lastmile_qr_scan"}}, {"bike_id": "b175d2d524ae8bab600110160035845c", "fusion_lon": 0.0, "name": "b175d2d524ae8bab600110160035845c", "lat": 38.935950166666665, "is_disabled": 0, "is_reserved": 0, "lon": -77.05845533333333, "type": "electric_scooter", "fusion_lat": 0.0, "rental_uris": {"android": "https://dc.lft.to/lastmile_qr_scan", "ios": "https://dc.lft.to/lastmile_qr_scan"}}, {"bike_id": "c17701bccb0994601f8c2593ac244e25", "fusion_lon": 0.0, "name": "c17701bccb0994601f8c2593ac244e25", "lat": 38.9072405, "is_disabled": 0, "is_reserved": 0, "lon": -77.04007716666666, "type": "electric_scooter", "fusion_lat": 0.0, "rental_uris": {"android": "https://dc.lft.to/lastmile_qr_scan", "ios": "https://dc.lft.to/lastmile_qr_scan"}}, {"bike_id": "f18e4586e32b1009b02542f158e9589b", "fusion_lon": 0.0, "name": "f18e4586e32b1009b02542f158e9589b", "lat": 38.87570316666667, "is_disabled": 0, "is_reserved": 0, "lon": -77.009337, "type": "electric_scooter", "fusion_lat": 0.0, "rental_uris": {"android": "https://dc.lft.to/lastmile_qr_scan", "ios": "https://dc.lft.to/lastmile_qr_scan"}}, {"bike_id": "66a9ae2c3623ed081ee388f9c9a6892b", "fusion_lon": 0.0, "name": "66a9ae2c3623ed081ee388f9c9a6892b", "lat": 38.8795755, "is_disabled": 0, "is_reserved": 0, "lon": -77.02422333333334, "type": "electric_scooter", "fusion_lat": 0.0, "rental_uris": {"android": "https://dc.lft.to/lastmile_qr_scan", "ios": "https://dc.lft.to/lastmile_qr_scan"}}, {"bike_id": "f53eb234e3af0a17b04bb60386da5386", "fusion_lon": 0.0, "name": "f53eb234e3af0a17b04bb60386da5386", "lat": 38.88245833333333, "is_disabled": 0, "is_reserved": 0, "lon": -76.9626175, "type": "electric_bike", "fusion_lat": 0.0, "rental_uris": {"android": "https://dc.lft.to/lastmile_qr_scan", "ios": "https://dc.lft.to/lastmile_qr_scan"}}, {"bike_id": "4b4387afff25d4bd88b45da953a0073d", "fusion_lon": 0.0, "name": "4b4387afff25d4bd88b45da953a0073d", "lat": 38.89620716666667, "is_disabled": 0, "is_reserved": 0, "lon": -77.04802933333333, "type": "electric_scooter", "fusion_lat": 0.0, "rental_uris": {"android": "https://dc.lft.to/lastmile_qr_scan", "ios": "https://dc.lft.to/lastmile_qr_scan"}}, {"bike_id": "e476928c2d0c2f59b83daf75aace3e56", "fusion_lon": 0.0, "name": "e476928c2d0c2f59b83daf75aace3e56", "lat": 38.98058366666667, "is_disabled": 0, "is_reserved": 0, "lon": -77.02638, "type": "electric_scooter", "fusion_lat": 0.0, "rental_uris": {"android": "https://dc.lft.to/lastmile_qr_scan", "ios": "https://dc.lft.to/lastmile_qr_scan"}}, {"bike_id": "1b620b724482bd4a671c8299d158a383", "fusion_lon": 0.0, "name": "1b620b724482bd4a671c8299d158a383", "lat": 38.90722683333333, "is_disabled": 0, "is_reserved": 0, "lon": -77.06895066666667, "type": "electric_scooter", "fusion_lat": 0.0, "rental_uris": {"android": "https://dc.lft.to/lastmile_qr_scan", "ios": "https://dc.lft.to/lastmile_qr_scan"}}, {"bike_id": "f04eb247db3af819be51e19ffcfe5f88", "fusion_lon": 0.0, "name": "f04eb247db3af819be51e19ffcfe5f88", "lat": 38.938970833333336, "is_disabled": 0, "is_reserved": 0, "lon": -77.033456, "type": "electric_scooter", "fusion_lat": 0.0, "rental_uris": {"android": "https://dc.lft.to/lastmile_qr_scan", "ios": "https://dc.lft.to/lastmile_qr_scan"}}, {"bike_id": "2395cf9d20a392bbca3a73e86ef72376", "fusion_lon": 0.0, "name": "2395cf9d20a392bbca3a73e86ef72376", "lat": 38.942807, "is_disabled": 0, "is_reserved": 0, "lon": -77.01267766666666, "type": "electric_scooter", "fusion_lat": 0.0, "rental_uris": {"android": "https://dc.lft.to/lastmile_qr_scan", "ios": "https://dc.lft.to/lastmile_qr_scan"}}, {"bike_id": "117da9bec5ee797b435624206c6c96d4", "fusion_lon": 0.0, "name": "117da9bec5ee797b435624206c6c96d4", "lat": 38.83579683333333, "is_disabled": 0, "is_reserved": 0, "lon": -77.001248, "type": "electric_bike", "fusion_lat": 0.0, "rental_uris": {"android": "https://dc.lft.to/lastmile_qr_scan", "ios": "https://dc.lft.to/lastmile_qr_scan"}}, {"bike_id": "805fa7f69896424020f67b3fe49a47b6", "fusion_lon": 0.0, "name": "805fa7f69896424020f67b3fe49a47b6", "lat": 38.8953595, "is_disabled": 0, "is_reserved": 0, "lon": -77.02818033333334, "type": "electric_scooter", "fusion_lat": 0.0, "rental_uris": {"android": "https://dc.lft.to/lastmile_qr_scan", "ios": "https://dc.lft.to/lastmile_qr_scan"}}, {"bike_id": "3e351d6cad7d5c4935bd561c63f34450", "fusion_lon": 0.0, "name": "3e351d6cad7d5c4935bd561c63f34450", "lat": 38.895578, "is_disabled": 0, "is_reserved": 0, "lon": -77.03963966666667, "type": "electric_scooter", "fusion_lat": 0.0, "rental_uris": {"android": "https://dc.lft.to/lastmile_qr_scan", "ios": "https://dc.lft.to/lastmile_qr_scan"}}, {"bike_id": "8fd779ad5df5d8e15fce4c419245e53c", "fusion_lon": 0.0, "name": "8fd779ad5df5d8e15fce4c419245e53c", "lat": 38.9232035, "is_disabled": 0, "is_reserved": 0, "lon": -77.02971633333334, "type": "electric_scooter", "fusion_lat": 0.0, "rental_uris": {"android": "https://dc.lft.to/lastmile_qr_scan", "ios": "https://dc.lft.to/lastmile_qr_scan"}}, {"bike_id": "2e6a4ee6a1c25d812ea3f9cd3e85f92c", "fusion_lon": 0.0, "name": "2e6a4ee6a1c25d812ea3f9cd3e85f92c", "lat": 38.90959816666667, "is_disabled": 0, "is_reserved": 0, "lon": -77.0226995, "type": "electric_scooter", "fusion_lat": 0.0, "rental_uris": {"android": "https://dc.lft.to/lastmile_qr_scan", "ios": "https://dc.lft.to/lastmile_qr_scan"}}, {"bike_id": "05022384fca6466884754b815a9eccd0", "fusion_lon": 0.0, "name": "05022384fca6466884754b815a9eccd0", "lat": 38.894267666666664, "is_disabled": 0, "is_reserved": 0, "lon": -77.0009615, "type": "electric_scooter", "fusion_lat": 0.0, "rental_uris": {"android": "https://dc.lft.to/lastmile_qr_scan", "ios": "https://dc.lft.to/lastmile_qr_scan"}}, {"bike_id": "767a751b9ef43404ef5e5528bc50cc1a", "fusion_lon": 0.0, "name": "767a751b9ef43404ef5e5528bc50cc1a", "lat": 38.905233, "is_disabled": 0, "is_reserved": 0, "lon": -77.04838266666667, "type": "electric_scooter", "fusion_lat": 0.0, "rental_uris": {"android": "https://dc.lft.to/lastmile_qr_scan", "ios": "https://dc.lft.to/lastmile_qr_scan"}}, {"bike_id": "bf0fe5f946c827f9d7465276286d2d02", "fusion_lon": 0.0, "name": "bf0fe5f946c827f9d7465276286d2d02", "lat": 38.927534333333334, "is_disabled": 0, "is_reserved": 0, "lon": -77.02132216666666, "type": "electric_scooter", "fusion_lat": 0.0, "rental_uris": {"android": "https://dc.lft.to/lastmile_qr_scan", "ios": "https://dc.lft.to/lastmile_qr_scan"}}, {"bike_id": "ac221b97113ff84d872de128ab815d10", "fusion_lon": 0.0, "name": "ac221b97113ff84d872de128ab815d10", "lat": 38.928712166666664, "is_disabled": 0, "is_reserved": 0, "lon": -77.03283366666666, "type": "electric_scooter", "fusion_lat": 0.0, "rental_uris": {"android": "https://dc.lft.to/lastmile_qr_scan", "ios": "https://dc.lft.to/lastmile_qr_scan"}}, {"bike_id": "e306361c7aec1788336d6090c9cd3b67", "fusion_lon": 0.0, "name": "e306361c7aec1788336d6090c9cd3b67", "lat": 38.9112475, "is_disabled": 0, "is_reserved": 0, "lon": -77.043495, "type": "electric_scooter", "fusion_lat": 0.0, "rental_uris": {"android": "https://dc.lft.to/lastmile_qr_scan", "ios": "https://dc.lft.to/lastmile_qr_scan"}}, {"bike_id": "a0a0609fbc594a8f862254fd71a150b8", "fusion_lon": 0.0, "name": "a0a0609fbc594a8f862254fd71a150b8", "lat": 38.93171616666667, "is_disabled": 0, "is_reserved": 0, "lon": -77.03664183333333, "type": "electric_scooter", "fusion_lat": 0.0, "rental_uris": {"android": "https://dc.lft.to/lastmile_qr_scan", "ios": "https://dc.lft.to/lastmile_qr_scan"}}, {"bike_id": "9d509d0b5f52dd72e5c522cad2e51d94", "fusion_lon": 0.0, "name": "9d509d0b5f52dd72e5c522cad2e51d94", "lat": 38.880006333333334, "is_disabled": 0, "is_reserved": 0, "lon": -76.98543333333333, "type": "electric_scooter", "fusion_lat": 0.0, "rental_uris": {"android": "https://dc.lft.to/lastmile_qr_scan", "ios": "https://dc.lft.to/lastmile_qr_scan"}}, {"bike_id": "868475d1ad632530a4818a30f7d1f589", "fusion_lon": 0.0, "name": "868475d1ad632530a4818a30f7d1f589", "lat": 38.917102166666666, "is_disabled": 0, "is_reserved": 0, "lon": -77.0315275, "type": "electric_scooter", "fusion_lat": 0.0, "rental_uris": {"android": "https://dc.lft.to/lastmile_qr_scan", "ios": "https://dc.lft.to/lastmile_qr_scan"}}, {"bike_id": "44e3baabd086bd39dd913972c4c3bca0", "fusion_lon": 0.0, "name": "44e3baabd086bd39dd913972c4c3bca0", "lat": 38.90722816666667, "is_disabled": 0, "is_reserved": 0, "lon": -77.02541616666667, "type": "electric_scooter", "fusion_lat": 0.0, "rental_uris": {"android": "https://dc.lft.to/lastmile_qr_scan", "ios": "https://dc.lft.to/lastmile_qr_scan"}}, {"bike_id": "0694553990a2eabe07016e3d5c8a336e", "fusion_lon": 0.0, "name": "0694553990a2eabe07016e3d5c8a336e", "lat": 38.92048416666667, "is_disabled": 0, "is_reserved": 0, "lon": -77.0020655, "type": "electric_scooter", "fusion_lat": 0.0, "rental_uris": {"android": "https://dc.lft.to/lastmile_qr_scan", "ios": "https://dc.lft.to/lastmile_qr_scan"}}, {"bike_id": "3a37d2265104d453f52265ddfa700cf1", "fusion_lon": 0.0, "name": "3a37d2265104d453f52265ddfa700cf1", "lat": 38.892222333333336, "is_disabled": 0, "is_reserved": 0, "lon": -77.02227033333334, "type": "electric_scooter", "fusion_lat": 0.0, "rental_uris": {"android": "https://dc.lft.to/lastmile_qr_scan", "ios": "https://dc.lft.to/lastmile_qr_scan"}}, {"bike_id": "6fbb30b769adb7abca71f08e6aab0cee", "fusion_lon": 0.0, "name": "6fbb30b769adb7abca71f08e6aab0cee", "lat": 38.89225366666667, "is_disabled": 0, "is_reserved": 0, "lon": -77.04802166666667, "type": "electric_scooter", "fusion_lat": 0.0, "rental_uris": {"android": "https://dc.lft.to/lastmile_qr_scan", "ios": "https://dc.lft.to/lastmile_qr_scan"}}, {"bike_id": "26215407a758759a3f6ad0cdc90fe069", "fusion_lon": 0.0, "name": "26215407a758759a3f6ad0cdc90fe069", "lat": 38.90186416666667, "is_disabled": 0, "is_reserved": 0, "lon": -76.92895733333333, "type": "electric_scooter", "fusion_lat": 0.0, "rental_uris": {"android": "https://dc.lft.to/lastmile_qr_scan", "ios": "https://dc.lft.to/lastmile_qr_scan"}}, {"bike_id": "b7e702354bc42b9c6b91a7046e9acd59", "fusion_lon": 0.0, "name": "b7e702354bc42b9c6b91a7046e9acd59", "lat": 38.914227833333335, "is_disabled": 0, "is_reserved": 0, "lon": -77.0380895, "type": "electric_scooter", "fusion_lat": 0.0, "rental_uris": {"android": "https://dc.lft.to/lastmile_qr_scan", "ios": "https://dc.lft.to/lastmile_qr_scan"}}, {"bike_id": "001e0a3017d92015b5208495ff8aa698", "fusion_lon": 0.0, "name": "001e0a3017d92015b5208495ff8aa698", "lat": 38.876131, "is_disabled": 0, "is_reserved": 0, "lon": -76.96566183333333, "type": "electric_scooter", "fusion_lat": 0.0, "rental_uris": {"android": "https://dc.lft.to/lastmile_qr_scan", "ios": "https://dc.lft.to/lastmile_qr_scan"}}, {"bike_id": "e3d472b18919bb14a3011043da0f87a7", "fusion_lon": 0.0, "name": "e3d472b18919bb14a3011043da0f87a7", "lat": 38.8863555, "is_disabled": 0, "is_reserved": 0, "lon": -76.9258445, "type": "electric_scooter", "fusion_lat": 0.0, "rental_uris": {"android": "https://dc.lft.to/lastmile_qr_scan", "ios": "https://dc.lft.to/lastmile_qr_scan"}}, {"bike_id": "3b6ec330d4e3e17fe3d3da8003fdc971", "fusion_lon": 0.0, "name": "3b6ec330d4e3e17fe3d3da8003fdc971", "lat": 38.92827166666667, "is_disabled": 0, "is_reserved": 0, "lon": -77.0543555, "type": "electric_scooter", "fusion_lat": 0.0, "rental_uris": {"android": "https://dc.lft.to/lastmile_qr_scan", "ios": "https://dc.lft.to/lastmile_qr_scan"}},