{"data": {"bikes": [{"lon": -77.03852866666666, "bike_id": "088cd3d22b6e0f6e51f245ca49415fdc", "lat": 38.91550516666667, "fusion_lon": 0.0, "fusion_lat": 0.0, "type": "electric_scooter", "name": "088cd3d22b6e0f6e51f245ca49415fdc", "is_disabled": 0, "rental_uris": {"ios": "https://dc.lft.to/lastmile_qr_scan", "android": "https://dc.lft.to/lastmile_qr_scan"}, "is_reserved": 0}, {"lon": -77.03516816666667, "bike_id": "5734d6bffb997eea1c68a23664c3f6f2", "lat": 38.9214095, "fusion_lon": 0.0, "fusion_lat": 0.0, "type": "electric_scooter", "name": "5734d6bffb997eea1c68a23664c3f6f2", "is_disabled": 0, "rental_uris": {"ios": "https://dc.lft.to/lastmile_qr_scan", "android": "https://dc.lft.to/lastmile_qr_scan"}, "is_reserved": 0}, {"lon": -77.02119933333333, "bike_id": "578349b4378fa7a661e45e0b2711b54e", "lat": 38.93699383333333, "fusion_lon": 0.0, "fusion_lat": 0.0, "type": "electric_scooter", "name": "578349b4378fa7a661e45e0b2711b54e", "is_disabled": 0, "rental_uris": {"ios": "https://dc.lft.to/lastmile_qr_scan", "android": "https://dc.lft.to/lastmile_qr_scan"}, "is_reserved": 0}, {"lon": -77.046919, "bike_id": "d869b09ad3ad56fe0eb205e823f69203", "lat": 38.89222916666667, "fusion_lon": 0.0, "fusion_lat": 0.0, "type": "electric_scooter", "name": "d869b09ad3ad56fe0eb205e823f69203", "is_disabled": 0, "rental_uris": {"ios": "https://dc.lft.to/lastmile_qr_scan", "android": "https://dc.lft.to/lastmile_qr_scan"}, "is_reserved": 0}, {"lon": -77.029581, "bike_id": "ee69be5d0c1811b53f9beebbba30bd5b", "lat": 38.906587, "fusion_lon": 0.0, "fusion_lat": 0.0, "type": "electric_scooter", "name": "ee69be5d0c1811b53f9beebbba30bd5b", "is_disabled": 0, "rental_uris": {"ios": "https://dc.lft.to/lastmile_qr_scan", "android": "https://dc.lft.to/lastmile_qr_scan"}, "is_reserved": 0}, {"lon": -77.0469155, "bike_id": "1245c3a6a4a2cd7b4fd781e8567c16de", "lat": 38.8922245, "fusion_lon": 0.0, "fusion_lat": 0.0, "type": "electric_scooter", "name": "1245c3a6a4a2cd7b4fd781e8567c16de", "is_disabled": 0, "rental_uris": {"ios": "https://dc.lft.to/lastmile_qr_scan", "android": "https://dc.lft.to/lastmile_qr_scan"}, "is_reserved": 0}, {"lon": -77.02423, "bike_id": "e287960562256b62b9911d9b9c9a2431", "lat": 38.904281166666664, "fusion_lon": 0.0, "fusion_lat": 0.0, "type": "electric_scooter", "name": "e287960562256b62b9911d9b9c9a2431", "is_disabled": 0, "rental_uris": {"ios": "https://dc.lft.to/lastmile_qr_scan", "android": "https://dc.lft.to/lastmile_qr_scan"}, "is_reserved": 0}, {"lon": -77.04871183333333, "bike_id": "818ab1036d2e012cd69b6bb1abe1f5fb", "lat": 38.907172833333334, "fusion_lon": 0.0, "fusion_lat": 0.0, "type": "electric_scooter", "name": "818ab1036d2e012cd69b6bb1abe1f5fb", "is_disabled": 0, "rental_uris": {"ios": "https://dc.lft.to/lastmile_qr_scan", "android": "https://dc.lft.to/lastmile_qr_scan"}, "is_reserved": 0}, {"lon": -77.02579333333334, "bike_id": "b44573ade9eeb302d93abfd3fc25e44e", "lat": 38.887376833333335, "fusion_lon": 0.0, "fusion_lat": 0.0, "type": "electric_scooter", "name": "b44573ade9eeb302d93abfd3fc25e44e", "is_disabled": 0, "rental_uris": {"ios": "https://dc.lft.to/lastmile_qr_scan", "android": "https://dc.lft.to/lastmile_qr_scan"}, "is_reserved": 0}, {"lon": -76.95894883333334, "bike_id": "80dbbdc143ea2fef979ed7a9df3eb3ad", "lat": 38.890092, "fusion_lon": 0.0, "fusion_lat": 0.0, "type": "electric_scooter", "name": "80dbbdc143ea2fef979ed7a9df3eb3ad", "is_disabled": 0, "rental_uris": {"ios": "https://dc.lft.to/lastmile_qr_scan", "android": "https://dc.lft.to/lastmile_qr_scan"}, "is_reserved": 0}, {"lon": -76.9635795, "bike_id": "06ba72b0104892c0fb74820265e9ccee", "lat": 38.935007, "fusion_lon": 0.0, "fusion_lat": 0.0, "type": "electric_scooter", "name": "06ba72b0104892c0fb74820265e9ccee", "is_disabled": 0, "rental_uris": {"ios": "https://dc.lft.to/lastmile_qr_scan", "android": "https://dc.lft.to/lastmile_qr_scan"}, "is_reserved": 0}, {"lon": -77.00919483333334, "bike_id": "70af47bd714f7d021109590bbe2680c1", "lat": 38.82790383333333, "fusion_lon": 0.0, "fusion_lat": 0.0, "type": "electric_bike", "name": "70af47bd714f7d021109590bbe2680c1", "is_disabled": 0, "rental_uris": {"ios": "https://dc.lft.to/lastmile_qr_scan", "android": "https://dc.lft.to/lastmile_qr_scan"}, "is_reserved": 0}, {"lon": -77.0381865, "bike_id": "12e2fd2c1df76c1c6de215b79227b36c", "lat": 38.930932, "fusion_lon": 0.0, "fusion_lat": 0.0, "type": "electric_scooter", "name": "12e2fd2c1df76c1c6de215b79227b36c", "is_disabled": 0, "rental_uris": {"ios": "https://dc.lft.to/lastmile_qr_scan", "android": "https://dc.lft.to/lastmile_qr_scan"}, "is_reserved": 0}, {"lon": -77.01304766666667, "bike_id": "08f32af9b3d984e0ecfa682cea5f5a0a", "lat": 38.94326016666667, "fusion_lon": 0.0, "fusion_lat": 0.0, "type": "electric_scooter", "name": "08f32af9b3d984e0ecfa682cea5f5a0a", "is_disabled": 0, "rental_uris": {"ios": "https://dc.lft.to/lastmile_qr_scan", "android": "https://dc.lft.to/lastmile_qr_scan"}, "is_reserved": 0}, {"lon": -77.04880633333333, "bike_id": "869914d139d702c836c046dd616a79c1", "lat": 38.8923055, "fusion_lon": 0.0, "fusion_lat": 0.0, "type": "electric_scooter", "name": "869914d139d702c836c046dd616a79c1", "is_disabled": 0, "rental_uris": {"ios": "https://dc.lft.to/lastmile_qr_scan", "android": "https://dc.lft.to/lastmile_qr_scan"}, "is_reserved": 0}, {"lon": -76.99376216666667, "bike_id": "2d05363b88ca311a463a31f1edb3606c", "lat": 38.971834333333334, "fusion_lon": 0.0, "fusion_lat": 0.0, "type": "electric_bike", "name": "2d05363b88ca311a463a31f1edb3606c", "is_disabled": 0, "rental_uris": {"ios": "https://dc.lft.to/lastmile_qr_scan", "android": "https://dc.lft.to/lastmile_qr_scan"}, "is_reserved": 0}, {"lon": -77.04575183333333, "bike_id": "c0adf16d1be5b3abc5c3c4ff93f0fa21", "lat": 38.92124116666667, "fusion_lon": 0.0, "fusion_lat": 0.0, "type": "electric_scooter", "name": "c0adf16d1be5b3abc5c3c4ff93f0fa21", "is_disabled": 0, "rental_uris": {"ios": "https://dc.lft.to/lastmile_qr_scan", "android": "https://dc.lft.to/lastmile_qr_scan"}, "is_reserved": 0}, {"lon": -77.07232016666667, "bike_id": "c77ea98666b804e634a2b86f30387236", "lat": 38.96815383333333, "fusion_lon": 0.0, "fusion_lat": 0.0, "type": "electric_bike", "name": "c77ea98666b804e634a2b86f30387236", "is_disabled": 0, "rental_uris": {"ios": "https://dc.lft.to/lastmile_qr_scan", "android": "https://dc.lft.to/lastmile_qr_scan"}, "is_reserved": 0}, {"lon": -77.0352065, "bike_id": "477a89209766f9f93ed8d0bb44d879e1", "lat": 38.90687583333333, "fusion_lon": 0.0, "fusion_lat": 0.0, "type": "electric_scooter", "name": "477a89209766f9f93ed8d0bb44d879e1", "is_disabled": 0, "rental_uris": {"ios": "https://dc.lft.to/lastmile_qr_scan", "android": "https://dc.lft.to/lastmile_qr_scan"}, "is_reserved": 0}, {"lon": -77.01105883333334, "bike_id": "15615157d20d547ec1d663b908d406af", "lat": 38.898261833333336, "fusion_lon": 0.0, "fusion_lat": 0.0, "type": "electric_scooter", "name": "15615157d20d547ec1d663b908d406af", "is_disabled": 0, "rental_uris": {"ios": "https://dc.lft.to/lastmile_qr_scan", "android": "https://dc.lft.to/lastmile_qr_scan"}, "is_reserved": 0}, {"lon": -77.01768333333334, "bike_id": "03bf68c093c6759d937b4687f0b37760", "lat": 38.88729166666667, "fusion_lon": 0.0, "fusion_lat": 0.0, "type": "electric_scooter", "name": "03bf68c093c6759d937b4687f0b37760", "is_disabled": 0, "rental_uris": {"ios": "https://dc.lft.to/lastmile_qr_scan", "android": "https://dc.lft.to/lastmile_qr_scan"}, "is_reserved": 0}, {"lon": -77.018113, "bike_id": "a825eb5899888b3ffcbb77cf32e14fa7", "lat": 38.92227366666667, "fusion_lon": 0.0, "fusion_lat": 0.0, "type": "electric_scooter", "name": "a825eb5899888b3ffcbb77cf32e14fa7", "is_disabled": 0, "rental_uris": {"ios": "https://dc.lft.to/lastmile_qr_scan", "android": "https://dc.lft.to/lastmile_qr_scan"}, "is_reserved": 0}, {"lon": -77.0338465, "bike_id": "99cea936a19c04f7971033cc4dd8dc2b", "lat": 38.92161016666667, "fusion_lon": 0.0, "fusion_lat": 0.0, "type": "electric_scooter", "name": "99cea936a19c04f7971033cc4dd8dc2b", "is_disabled": 0, "rental_uris": {"ios": "https://dc.lft.to/lastmile_qr_scan", "android": "https://dc.lft.to/lastmile_qr_scan"}, "is_reserved": 0}, {"lon": -77.023841, "bike_id": "382027aad5966d61c2d7e1fb19a44d0a", "lat": 38.89235033333333, "fusion_lon": 0.0, "fusion_lat": 0.0, "type": "electric_scooter", "name": "382027aad5966d61c2d7e1fb19a44d0a", "is_disabled": 0, "rental_uris": {"ios": "https://dc.lft.to/lastmile_qr_scan", "android": "https://dc.lft.to/lastmile_qr_scan"}, "is_reserved": 0}, {"lon": -77.03447766666666, "bike_id": "7ccf9166f59ff5e2b0b46a3d3e22b816", "lat": 38.9095015, "fusion_lon": 0.0, "fusion_lat": 0.0, "type": "electric_scooter", "name": "7ccf9166f59ff5e2b0b46a3d3e22b816", "is_disabled": 0, "rental_uris": {"ios": "https://dc.lft.to/lastmile_qr_scan", "android": "https://dc.lft.to/lastmile_qr_scan"}, "is_reserved": 0}, {"lon": -76.99945816666667, "bike_id": "ae9c965ee9da95cb59e41119fa869e17", "lat": 38.92345233333333, "fusion_lon": 0.0, "fusion_lat": 0.0, "type": "electric_scooter", "name": "ae9c965ee9da95cb59e41119fa869e17", "is_disabled": 0, "rental_uris": {"ios": "https://dc.lft.to/lastmile_qr_scan", "android": "https://dc.lft.to/lastmile_qr_scan"}, "is_reserved": 0}, {"lon": -76.96093383333333, "bike_id": "a4bc9f817dfb1bef666e14c326b8cc9f", "lat": 38.918517, "fusion_lon": 0.0, "fusion_lat": 0.0, "type": "electric_bike", "name": "a4bc9f817dfb1bef666e14c326b8cc9f", "is_disabled": 0, "rental_uris": {"ios": "https://dc.lft.to/lastmile_qr_scan", "android": "https://dc.lft.to/lastmile_qr_scan"}, "is_reserved": 0}, {"lon": -76.9855025, "bike_id": "999ccb320a3edadba3b81bba047402b8", "lat": 38.920164166666666, "fusion_lon": 0.0, "fusion_lat": 0.0, "type": "electric_scooter", "name": "999ccb320a3edadba3b81bba047402b8", "is_disabled": 0, "rental_uris": {"ios": "https://dc.lft.to/lastmile_qr_scan", "android": "https://dc.lft.to/lastmile_qr_scan"}, "is_reserved": 0}, {"lon": -77.02842033333333, "bike_id": "d1f59aab20ae5cdd186807364842dcd7", "lat": 38.92569, "fusion_lon": 0.0, "fusion_lat": 0.0, "type": "electric_scooter", "name": "d1f59aab20ae5cdd186807364842dcd7", "is_disabled": 0, "rental_uris": {"ios": "https://dc.lft.to/lastmile_qr_scan", "android": "https://dc.lft.to/lastmile_qr_scan"}, "is_reserved": 0}, {"lon": -77.02237866666667, "bike_id": "08c0fd42c153b6d901ee3ce1680cf431", "lat": 38.926041, "fusion_lon": 0.0, "fusion_lat": 0.0, "type": "electric_scooter", "name": "08c0fd42c153b6d901ee3ce1680cf431", "is_disabled": 0, "rental_uris": {"ios": "https://dc.lft.to/lastmile_qr_scan", "android": "https://dc.lft.to/lastmile_qr_scan"}, "is_reserved": 0}, {"lon": -77.04391916666667, "bike_id": "76ce14316b79b25f360a0b56a0b09b04", "lat": 39.047208, "fusion_lon": 0.0, "fusion_lat": 0.0, "type": "electric_bike", "name": "76ce14316b79b25f360a0b56a0b09b04", "is_disabled": 0, "rental_uris": {"ios": "https://dc.lft.to/lastmile_qr_scan", "android": "https://dc.lft.to/lastmile_qr_scan"}, "is_reserved": 0}, {"lon": -77.02121333333334, "bike_id": "acdce8bcee12bfb1439c93243926a5d8", "lat": 38.922389333333335, "fusion_lon": 0.0, "fusion_lat": 0.0, "type": "electric_scooter", "name": "acdce8bcee12bfb1439c93243926a5d8", "is_disabled": 0, "rental_uris": {"ios": "https://dc.lft.to/lastmile_qr_scan", "android": "https://dc.lft.to/lastmile_qr_scan"}, "is_reserved": 0}, {"lon": -77.04684533333334, "bike_id": "0e14c2f7d68b87fddfccda2bdb862f2b", "lat": 38.905485666666664, "fusion_lon": 0.0, "fusion_lat": 0.0, "type": "electric_scooter", "name": "0e14c2f7d68b87fddfccda2bdb862f2b", "is_disabled": 0, "rental_uris": {"ios": "https://dc.lft.to/lastmile_qr_scan", "android": "https://dc.lft.to/lastmile_qr_scan"}, "is_reserved": 0}, {"lon": -77.0321545, "bike_id": "3b32a6fae34dc71aee71cb509d0a1137", "lat": 38.912458, "fusion_lon": 0.0, "fusion_lat": 0.0, "type": "electric_scooter", "name": "3b32a6fae34dc71aee71cb509d0a1137", "is_disabled": 0, "rental_uris": {"ios": "https://dc.lft.to/lastmile_qr_scan", "android": "https://dc.lft.to/lastmile_qr_scan"}, "is_reserved": 0}, {"lon": -77.02238966666667, "bike_id": "fea6f9a5366989d50c268cc5ee04f1cf", "lat": 38.962174833333336, "fusion_lon": 0.0, "fusion_lat": 0.0, "type": "electric_bike", "name": "fea6f9a5366989d50c268cc5ee04f1cf", "is_disabled": 0, "rental_uris": {"ios": "https://dc.lft.to/lastmile_qr_scan", "android": "https://dc.lft.to/lastmile_qr_scan"}, "is_reserved": 0}, {"lon": -77.04662633333334, "bike_id": "0a2582792b25b089ffbe731a4d04a47f", "lat": 38.898246666666665, "fusion_lon": 0.0, "fusion_lat": 0.0, "type": "electric_scooter", "name": "0a2582792b25b089ffbe731a4d04a47f", "is_disabled": 0, "rental_uris": {"ios": "https://dc.lft.to/lastmile_qr_scan", "android": "https://dc.lft.to/lastmile_qr_scan"}, "is_reserved": 0}, {"lon": -77.04492983333333, "bike_id": "0a344a85052f0b7ac46170226cfe44e3", "lat": 38.897504166666664, "fusion_lon": 0.0, "fusion_lat": 0.0, "type": "electric_scooter", "name": "0a344a85052f0b7ac46170226cfe44e3", "is_disabled": 0, "rental_uris": {"ios": "https://dc.lft.to/lastmile_qr_scan", "android": "https://dc.lft.to/lastmile_qr_scan"}, "is_reserved": 0}, {"lon": -77.07461533333333, "bike_id": "e14050f358004f904dad66a321e196b9", "lat": 38.93345816666667, "fusion_lon": 0.0, "fusion_lat": 0.0, "type": "electric_bike", "name": "e14050f358004f904dad66a321e196b9", "is_disabled": 0, "rental_uris": {"ios": "https://dc.lft.to/lastmile_qr_scan", "android": "https://dc.lft.to/lastmile_qr_scan"}, "is_reserved": 0}, {"lon": -77.07339533333334, "bike_id": "0ae5c1565a9f4c30953716e78635d3f8", "lat": 38.910067166666664, "fusion_lon": 0.0, "fusion_lat": 0.0, "type": "electric_scooter", "name": "0ae5c1565a9f4c30953716e78635d3f8", "is_disabled": 0, "rental_uris": {"ios": "https://dc.lft.to/lastmile_qr_scan", "android": "https://dc.lft.to/lastmile_qr_scan"}, "is_reserved": 0}, {"lon": -77.0185425, "bike_id": "ad235de4bf9ce229feacce57a4bac172", "lat": 38.93999683333333, "fusion_lon": 0.0, "fusion_lat": 0.0, "type": "electric_scooter", "name": "ad235de4bf9ce229feacce57a4bac172", "is_disabled": 0, "rental_uris": {"ios": "https://dc.lft.to/lastmile_qr_scan", "android": "https://dc.lft.to/lastmile_qr_scan"}, "is_reserved": 0}, {"lon": -76.95575766666667, "bike_id": "42d772eaf5800de254d3c7f18ebd6ae6", "lat": 38.887716166666664, "fusion_lon": 0.0, "fusion_lat": 0.0, "type": "electric_scooter", "name": "42d772eaf5800de254d3c7f18ebd6ae6", "is_disabled": 0, "rental_uris": {"ios": "https://dc.lft.to/lastmile_qr_scan", "android": "https://dc.lft.to/lastmile_qr_scan"}, "is_reserved": 0}, {"lon": -77.02140266666666, "bike_id": "24e7b97ad98f0dc559aed40eb80a9a37", "lat": 38.90574616666667, "fusion_lon": 0.0, "fusion_lat": 0.0, "type": "electric_scooter", "name": "24e7b97ad98f0dc559aed40eb80a9a37", "is_disabled": 0, "rental_uris": {"ios": "https://dc.lft.to/lastmile_qr_scan", "android": "https://dc.lft.to/lastmile_qr_scan"}, "is_reserved": 0}, {"lon": -77.03358533333333, "bike_id": "c99831fe5a7e87d8b312f1b62132b495", "lat": 38.92870033333333, "fusion_lon": 0.0, "fusion_lat": 0.0, "type": "electric_scooter", "name": "c99831fe5a7e87d8b312f1b62132b495", "is_disabled": 0, "rental_uris": {"ios": "https://dc.lft.to/lastmile_qr_scan", "android": "https://dc.lft.to/lastmile_qr_scan"}, "is_reserved": 0}, {"lon": -77.01334316666667, "bike_id": "e017407faafe7559b75106fcdddf4ab1", "lat": 38.900261666666665, "fusion_lon": 0.0, "fusion_lat": 0.0, "type": "electric_scooter", "name": "e017407faafe7559b75106fcdddf4ab1", "is_disabled": 0, "rental_uris": {"ios": "https://dc.lft.to/lastmile_qr_scan", "android": "https://dc.lft.to/lastmile_qr_scan"}, "is_reserved": 0}, {"lon": -77.06207, "bike_id": "ba6de8e3027814d8d1e422cb6d82144a", "lat": 38.92040933333333, "fusion_lon": 0.0, "fusion_lat": 0.0, "type": "electric_bike", "name": "ba6de8e3027814d8d1e422cb6d82144a", "is_disabled": 0, "rental_uris": {"ios": "https://dc.lft.to/lastmile_qr_scan", "android": "https://dc.lft.to/lastmile_qr_scan"}, "is_reserved": 0}, {"lon": -77.03508533333333, "bike_id": "93c12add47371286a8f9238a98a5e0fa", "lat": 38.9233355, "fusion_lon": 0.0, "fusion_lat": 0.0, "type": "electric_scooter", "name": "93c12add47371286a8f9238a98a5e0fa", "is_disabled": 0, "rental_uris": {"ios": "https://dc.lft.to/lastmile_qr_scan", "android": "https://dc.lft.to/lastmile_qr_scan"}, "is_reserved": 0}, {"lon": -76.98527866666667, "bike_id": "f95305cf7a7ee6a505e2a0c2478be6df", "lat": 38.866884166666665, "fusion_lon": 0.0, "fusion_lat": 0.0, "type": "electric_scooter", "name": "f95305cf7a7ee6a505e2a0c2478be6df", "is_disabled": 0, "rental_uris": {"ios": "https://dc.lft.to/lastmile_qr_scan", "android": "https://dc.lft.to/lastmile_qr_scan"}, "is_reserved": 0}, {"lon": -77.02461233333334, "bike_id": "a468f70315ab34520417b664bfa2c7fb", "lat": 38.938625, "fusion_lon": 0.0, "fusion_lat": 0.0, "type": "electric_scooter", "name": "a468f70315ab34520417b664bfa2c7fb", "is_disabled": 0, "rental_uris": {"ios": "https://dc.lft.to/lastmile_qr_scan", "android": "https://dc.lft.to/lastmile_qr_scan"}, "is_reserved": 0}, {"lon": -77.02227616666667, "bike_id": "a3bba39e74a913d560e05215c8afadcd", "lat": 38.9125275, "fusion_lon": 0.0, "fusion_lat": 0.0, "type": "electric_scooter", "name": "a3bba39e74a913d560e05215c8afadcd", "is_disabled": 0, "rental_uris": {"ios": "https://dc.lft.to/lastmile_qr_scan", "android": "https://dc.lft.to/lastmile_qr_scan"}, "is_reserved": 0}, {"lon": -76.93613816666667, "bike_id": "f482755cec06c9c0414ea8f624c93ce2", "lat": 38.9705555, "fusion_lon": 0.0, "fusion_lat": 0.0, "type": "electric_bike", "name": "f482755cec06c9c0414ea8f624c93ce2", "is_disabled": 0, "rental_uris": {"ios": "https://dc.lft.to/lastmile_qr_scan", "android": "https://dc.lft.to/lastmile_qr_scan"}, "is_reserved": 0}, {"lon": -77.03472866666667, "bike_id": "784cab836c84428b4782b30e6be0ad9d", "lat": 38.907277, "fusion_lon": 0.0, "fusion_lat": 0.0, "type": "electric_scooter", "name": "784cab836c84428b4782b30e6be0ad9d", "is_disabled": 0, "rental_uris": {"ios": "https://dc.lft.to/lastmile_qr_scan", "android": "https://dc.lft.to/lastmile_qr_scan"}, "is_reserved": 0}, {"lon": -76.97331033333333, "bike_id": "c43152984c755a713b7c8d4d429fd4e9", "lat": 38.904110833333334, "fusion_lon": 0.0, "fusion_lat": 0.0, "type": "electric_scooter", "name": "c43152984c755a713b7c8d4d429fd4e9", "is_disabled": 0, "rental_uris": {"ios": "https://dc.lft.to/lastmile_qr_scan", "android": "https://dc.lft.to/lastmile_qr_scan"}, "is_reserved": 0}, {"lon": -76.94209483333333, "bike_id": "442802347e7e2d1f7a98d8ac802e544e", "lat": 38.893145, "fusion_lon": 0.0, "fusion_lat": 0.0, "type": "electric_bike", "name": "442802347e7e2d1f7a98d8ac802e544e", "is_disabled": 0, "rental_uris": {"ios": "https://dc.lft.to/lastmile_qr_scan", "android": "https://dc.lft.to/lastmile_qr_scan"}, "is_reserved": 0}, {"lon": -77.036566, "bike_id": "368ed695f24b3a2de6c6b38c906515ab", "lat": 38.90286566666666, "fusion_lon": 0.0, "fusion_lat": 0.0, "type": "electric_scooter", "name": "368ed695f24b3a2de6c6b38c906515ab", "is_disabled": 0, "rental_uris": {"ios": "https://dc.lft.to/lastmile_qr_scan", "android": "https://dc.lft.to/lastmile_qr_scan"}, "is_reserved": 0}, {"lon": -76.99809666666667, "bike_id": "1a79b837a7365874082de922344114bc", "lat": 38.905024, "fusion_lon": 0.0, "fusion_lat": 0.0, "type": "electric_bike", "name": "1a79b837a7365874082de922344114bc", "is_disabled": 0, "rental_uris": {"ios": "https://dc.lft.to/lastmile_qr_scan", "android": "https://dc.lft.to/lastmile_qr_scan"}, "is_reserved": 0}, {"lon": -77.0323515, "bike_id": "17776ff92ef7388fc411dab5ee41f076", "lat": 38.921669, "fusion_lon": 0.0, "fusion_lat": 0.0, "type": "electric_scooter", "name": "17776ff92ef7388fc411dab5ee41f076", "is_disabled": 0, "rental_uris": {"ios": "https://dc.lft.to/lastmile_qr_scan", "android": "https://dc.lft.to/lastmile_qr_scan"}, "is_reserved": 0}, {"lon": -76.99411266666667, "bike_id": "05699841468da3dc72e38315a6e1ec00", "lat": 38.87785233333334, "fusion_lon": 0.0, "fusion_lat": 0.0, "type": "electric_scooter", "name": "05699841468da3dc72e38315a6e1ec00", "is_disabled": 0, "rental_uris": {"ios": "https://dc.lft.to/lastmile_qr_scan", "android": "https://dc.lft.to/lastmile_qr_scan"}, "is_reserved": 0}, {"lon": -77.01190816666667, "bike_id": "32c1a3e6c32ff9b9ea6080ec53c36bab", "lat": 38.89691766666667, "fusion_lon": 0.0, "fusion_lat": 0.0, "type": "electric_scooter", "name": "32c1a3e6c32ff9b9ea6080ec53c36bab", "is_disabled": 0, "rental_uris": {"ios": "https://dc.lft.to/lastmile_qr_scan", "android": "https://dc.lft.to/lastmile_qr_scan"}, "is_reserved": 0}, {"lon": -77.024038, "bike_id": "c4bc673085ab6ed123319058749fb0ef", "lat": 38.88283633333333, "fusion_lon": 0.0, "fusion_lat": 0.0, "type": "electric_scooter", "name": "c4bc673085ab6ed123319058749fb0ef", "is_disabled": 0, "rental_uris": {"ios": "https://dc.lft.to/lastmile_qr_scan", "android": "https://dc.lft.to/lastmile_qr_scan"}, "is_reserved": 0}, {"lon": -77.02725683333334, "bike_id": "234f9d48c67851b2418a93ebd34f0886", "lat": 38.95132733333333, "fusion_lon": 0.0, "fusion_lat": 0.0, "type": "electric_scooter", "name": "234f9d48c67851b2418a93ebd34f0886", "is_disabled": 0, "rental_uris": {"ios": "https://dc.lft.to/lastmile_qr_scan", "android": "https://dc.lft.to/lastmile_qr_scan"}, "is_reserved": 0}, {"lon": -76.94979783333334, "bike_id": "722017ddd912c2af6700ced4f8f06093", "lat": 38.89376, "fusion_lon": 0.0, "fusion_lat": 0.0, "type": "electric_scooter", "name": "722017ddd912c2af6700ced4f8f06093", "is_disabled": 0, "rental_uris": {"ios": "https://dc.lft.to/lastmile_qr_scan", "android": "https://dc.lft.to/lastmile_qr_scan"}, "is_reserved": 0}, {"lon": -77.03187533333333, "bike_id": "bdcedd948ee9330aceaccd2327fcb701", "lat": 38.912208, "fusion_lon": 0.0, "fusion_lat": 0.0, "type": "electric_scooter", "name": "bdcedd948ee9330aceaccd2327fcb701", "is_disabled": 0, "rental_uris": {"ios": "https://dc.lft.to/lastmile_qr_scan", "android": "https://dc.lft.to/lastmile_qr_scan"}, "is_reserved": 0}, {"lon": -76.93534066666666, "bike_id": "f1bba34059686b1dfaef6353beb94670", "lat": 38.89684783333333, "fusion_lon": 0.0, "fusion_lat": 0.0, "type": "electric_scooter", "name": "f1bba34059686b1dfaef6353beb94670", "is_disabled": 0, "rental_uris": {"ios": "https://dc.lft.to/lastmile_qr_scan", "android": "https://dc.lft.to/lastmile_qr_scan"}, "is_reserved": 0}, {"lon": -77.03445133333334, "bike_id": "0a6068e8638e4af5678cc28e10ff0714", "lat": 38.907354166666664, "fusion_lon": 0.0, "fusion_lat": 0.0, "type": "electric_scooter", "name": "0a6068e8638e4af5678cc28e10ff0714", "is_disabled": 0, "rental_uris": {"ios": "https://dc.lft.to/lastmile_qr_scan", "android": "https://dc.lft.to/lastmile_qr_scan"}, "is_reserved": 0}, {"lon": -77.02393466666666, "bike_id": "a9c7c88fccc1371435aaa0b76ae2dce4", "lat": 38.907991, "fusion_lon": 0.0, "fusion_lat": 0.0, "type": "electric_scooter", "name": "a9c7c88fccc1371435aaa0b76ae2dce4", "is_disabled": 0, "rental_uris": {"ios": "https://dc.lft.to/lastmile_qr_scan", "android": "https://dc.lft.to/lastmile_qr_scan"}, "is_reserved": 0}, {"lon": -77.02978533333334, "bike_id": "b0ee8229820f3810f483702344fdc678", "lat": 38.924503333333334, "fusion_lon": 0.0, "fusion_lat": 0.0, "type": "electric_scooter", "name": "b0ee8229820f3810f483702344fdc678", "is_disabled": 0, "rental_uris": {"ios": "https://dc.lft.to/lastmile_qr_scan", "android": "https://dc.lft.to/lastmile_qr_scan"}, "is_reserved": 0}, {"lon": -77.0218835, "bike_id": "6c3f3197dd6723ec0be8e9da21c8b0e7", "lat": 38.91531766666667, "fusion_lon": 0.0, "fusion_lat": 0.0, "type": "electric_scooter", "name": "6c3f3197dd6723ec0be8e9da21c8b0e7", "is_disabled": 0, "rental_uris": {"ios": "https://dc.lft.to/lastmile_qr_scan", "android": "https://dc.lft.to/lastmile_qr_scan"}, "is_reserved": 0}, {"lon": -77.0394475, "bike_id": "21c2afd90184961ef74d4f216c9fb0aa", "lat": 38.898863166666665, "fusion_lon": 0.0, "fusion_lat": 0.0, "type": "electric_scooter", "name": "21c2afd90184961ef74d4f216c9fb0aa", "is_disabled": 0, "rental_uris": {"ios": "https://dc.lft.to/lastmile_qr_scan", "android": "https://dc.lft.to/lastmile_qr_scan"}, "is_reserved": 0}, {"lon": -77.00695933333333, "bike_id": "a72a8ac1679740bcbf1193720700c043", "lat": 38.90918766666667, "fusion_lon": 0.0, "fusion_lat": 0.0, "type": "electric_scooter", "name": "a72a8ac1679740bcbf1193720700c043", "is_disabled": 0, "rental_uris": {"ios": "https://dc.lft.to/lastmile_qr_scan", "android": "https://dc.lft.to/lastmile_qr_scan"}, "is_reserved": 0}, {"lon": -77.0321515, "bike_id": "373fa27648f64a09ca62cd37e13d8880", "lat": 38.898586333333334, "fusion_lon": 0.0, "fusion_lat": 0.0, "type": "electric_scooter", "name": "373fa27648f64a09ca62cd37e13d8880", "is_disabled": 0, "rental_uris": {"ios": "https://dc.lft.to/lastmile_qr_scan", "android": "https://dc.lft.to/lastmile_qr_scan"}, "is_reserved": 0}, {"lon": -77.03802333333333, "bike_id": "4f8c8226cfa5fa8aae8557d061fe3160", "lat": 38.92067333333333, "fusion_lon": 0.0, "fusion_lat": 0.0, "type": "electric_scooter", "name": "4f8c8226cfa5fa8aae8557d061fe3160", "is_disabled": 0, "rental_uris": {"ios": "https://dc.lft.to/lastmile_qr_scan", "android": "https://dc.lft.to/lastmile_qr_scan"}, "is_reserved": 0}, {"lon": -77.02469583333334, "bike_id": "7f6359ccf11cedbaacf0ea881e1261a8", "lat": 38.938514, "fusion_lon": 0.0, "fusion_lat": 0.0, "type": "electric_scooter", "name": "7f6359ccf11cedbaacf0ea881e1261a8", "is_disabled": 0, "rental_uris": {"ios": "https://dc.lft.to/lastmile_qr_scan", "android": "https://dc.lft.to/lastmile_qr_scan"}, "is_reserved": 0}, {"lon": -76.97767033333334, "bike_id": "df36a715b4a03da665f00ef3b510e922", "lat": 38.9515335, "fusion_lon": 0.0, "fusion_lat": 0.0, "type": "electric_bike", "name": "df36a715b4a03da665f00ef3b510e922", "is_disabled": 0, "rental_uris": {"ios": "https://dc.lft.to/lastmile_qr_scan", "android": "https://dc.lft.to/lastmile_qr_scan"}, "is_reserved": 0}, {"lon": -77.04375833333333, "bike_id": "83b0154d71997e51da16088bb74c0a12", "lat": 38.92098216666667, "fusion_lon": 0.0, "fusion_lat": 0.0, "type": "electric_scooter", "name": "83b0154d71997e51da16088bb74c0a12", "is_disabled": 0, "rental_uris": {"ios": "https://dc.lft.to/lastmile_qr_scan", "android": "https://dc.lft.to/lastmile_qr_scan"}, "is_reserved": 0}, {"lon": -77.02593066666667, "bike_id": "f5d4f959411759acb570cf3369c8216c", "lat": 38.94200266666667, "fusion_lon": 0.0, "fusion_lat": 0.0, "type": "electric_scooter", "name": "f5d4f959411759acb570cf3369c8216c", "is_disabled": 0, "rental_uris": {"ios": "https://dc.lft.to/lastmile_qr_scan", "android": "https://dc.lft.to/lastmile_qr_scan"}, "is_reserved": 0}, {"lon": -77.017657, "bike_id": "46dd0a688df335689212ee65e6b9d801", "lat": 38.885990166666666, "fusion_lon": 0.0, "fusion_lat": 0.0, "type": "electric_scooter", "name": "46dd0a688df335689212ee65e6b9d801", "is_disabled": 0, "rental_uris": {"ios": "https://dc.lft.to/lastmile_qr_scan", "android": "https://dc.lft.to/lastmile_qr_scan"}, "is_reserved": 0}, {"lon": -77.0564065, "bike_id": "81c917b169713ab765259a5e4b023a2c", "lat": 38.9263375, "fusion_lon": 0.0, "fusion_lat": 0.0, "type": "electric_scooter", "name": "81c917b169713ab765259a5e4b023a2c", "is_disabled": 0, "rental_uris": {"ios": "https://dc.lft.to/lastmile_qr_scan", "android": "https://dc.lft.to/lastmile_qr_scan"}, "is_reserved": 0}, {"lon": -77.02394983333333, "bike_id": "353ebaaffae0de0e459949eb1bbc5153", "lat": 38.91700383333333, "fusion_lon": 0.0, "fusion_lat": 0.0, "type": "electric_scooter", "name": "353ebaaffae0de0e459949eb1bbc5153", "is_disabled": 0, "rental_uris": {"ios": "https://dc.lft.to/lastmile_qr_scan", "android": "https://dc.lft.to/lastmile_qr_scan"}, "is_reserved": 0}, {"lon": -77.03993366666667, "bike_id": "715975acd6b61ab9e5ba12a41d928be1", "lat": 38.9073055, "fusion_lon": 0.0, "fusion_lat": 0.0, "type": "electric_scooter", "name": "715975acd6b61ab9e5ba12a41d928be1", "is_disabled": 0, "rental_uris": {"ios": "https://dc.lft.to/lastmile_qr_scan", "android": "https://dc.lft.to/lastmile_qr_scan"}, "is_reserved": 0}, {"lon": -77.0487825, "bike_id": "c7e62529ad97dc7e01a3269938988bd2", "lat": 38.8927535, "fusion_lon": 0.0, "fusion_lat": 0.0, "type": "electric_scooter", "name": "c7e62529ad97dc7e01a3269938988bd2", "is_disabled": 0, "rental_uris": {"ios": "https://dc.lft.to/lastmile_qr_scan", "android": "https://dc.lft.to/lastmile_qr_scan"}, "is_reserved": 0}, {"lon": -76.9730545, "bike_id": "ea9eaaa0897afff52a612b876b871bf2", "lat": 38.9164395, "fusion_lon": 0.0, "fusion_lat": 0.0, "type": "electric_bike", "name": "ea9eaaa0897afff52a612b876b871bf2", "is_disabled": 0, "rental_uris": {"ios": "https://dc.lft.to/lastmile_qr_scan", "android": "https://dc.lft.to/lastmile_qr_scan"}, "is_reserved": 0}, {"lon": -77.02191233333333, "bike_id": "8e229ae4dd1b18be7345c7f4830a72c0", "lat": 38.90016333333333, "fusion_lon": 0.0, "fusion_lat": 0.0, "type": "electric_scooter", "name": "8e229ae4dd1b18be7345c7f4830a72c0", "is_disabled": 0, "rental_uris": {"ios": "https://dc.lft.to/lastmile_qr_scan", "android": "https://dc.lft.to/lastmile_qr_scan"}, "is_reserved": 0}, {"lon": -77.03631466666667, "bike_id": "52e102c62c7271be39875d95e9ac84ae", "lat": 38.94496983333333, "fusion_lon": 0.0, "fusion_lat": 0.0, "type": "electric_scooter", "name": "52e102c62c7271be39875d95e9ac84ae", "is_disabled": 0, "rental_uris": {"ios": "https://dc.lft.to/lastmile_qr_scan", "android": "https://dc.lft.to/lastmile_qr_scan"}, "is_reserved": 0}, {"lon": -77.03306983333333, "bike_id": "4ac4c688f3a842cdd38ed364899d3473", "lat": 38.928794333333336, "fusion_lon": 0.0, "fusion_lat": 0.0, "type": "electric_scooter", "name": "4ac4c688f3a842cdd38ed364899d3473", "is_disabled": 0, "rental_uris": {"ios": "https://dc.lft.to/lastmile_qr_scan", "android": "https://dc.lft.to/lastmile_qr_scan"}, "is_reserved": 0}, {"lon": -76.965257, "bike_id": "c8fe3dc142d004e3b88a14a8c3e52eec", "lat": 38.8763255, "fusion_lon": 0.0, "fusion_lat": 0.0, "type": "electric_scooter", "name": "c8fe3dc142d004e3b88a14a8c3e52eec", "is_disabled": 0, "rental_uris": {"ios": "https://dc.lft.to/lastmile_qr_scan", "android": "https://dc.lft.to/lastmile_qr_scan"}, "is_reserved": 0}, {"lon": -77.023274, "bike_id": "10bdb5b842445e35652891647207ea65", "lat": 38.924075333333334, "fusion_lon": 0.0, "fusion_lat": 0.0, "type": "electric_scooter", "name": "10bdb5b842445e35652891647207ea65", "is_disabled": 0, "rental_uris": {"ios": "https://dc.lft.to/lastmile_qr_scan", "android": "https://dc.lft.to/lastmile_qr_scan"}, "is_reserved": 0}, {"lon": -77.02970666666667, "bike_id": "ac9a5a96be93d68cd4c0cb645ef519c1", "lat": 38.9166945, "fusion_lon": 0.0, "fusion_lat": 0.0, "type": "electric_scooter", "name": "ac9a5a96be93d68cd4c0cb645ef519c1", "is_disabled": 0, "rental_uris": {"ios": "https://dc.lft.to/lastmile_qr_scan", "android": "https://dc.lft.to/lastmile_qr_scan"}, "is_reserved": 0}, {"lon": -77.02172316666666, "bike_id": "321321ea26af0771efe9d68fcc8e3b5a", "lat": 38.94293566666666, "fusion_lon": 0.0, "fusion_lat": 0.0, "type": "electric_scooter", "name": "321321ea26af0771efe9d68fcc8e3b5a", "is_disabled": 0, "rental_uris": {"ios": "https://dc.lft.to/lastmile_qr_scan", "android": "https://dc.lft.to/lastmile_qr_scan"}, "is_reserved": 0}, {"lon": -77.04243516666666, "bike_id": "51aaf7e9096312c3559464eebc0df207", "lat": 38.92164983333333, "fusion_lon": 0.0, "fusion_lat": 0.0, "type": "electric_scooter", "name": "51aaf7e9096312c3559464eebc0df207", "is_disabled": 0, "rental_uris": {"ios": "https://dc.lft.to/lastmile_qr_scan", "android": "https://dc.lft.to/lastmile_qr_scan"}, "is_reserved": 0}, {"lon": -77.02694616666666, "bike_id": "080a715b4ce5b8d00dda780e74ed02d7", "lat": 38.90616716666667, "fusion_lon": 0.0, "fusion_lat": 0.0, "type": "electric_scooter", "name": "080a715b4ce5b8d00dda780e74ed02d7", "is_disabled": 0, "rental_uris": {"ios": "https://dc.lft.to/lastmile_qr_scan", "android": "https://dc.lft.to/lastmile_qr_scan"}, "is_reserved": 0}, {"lon": -77.03515033333333, "bike_id": "9145f51d8d0ed5770f27323565176149", "lat": 38.927361, "fusion_lon": 0.0, "fusion_lat": 0.0, "type": "electric_scooter", "name": "9145f51d8d0ed5770f27323565176149", "is_disabled": 0, "rental_uris": {"ios": "https://dc.lft.to/lastmile_qr_scan", "android": "https://dc.lft.to/lastmile_qr_scan"}, "is_reserved": 0}, {"lon": -76.94039333333333, "bike_id": "93040e63c60fc4f1313658ca3bb903fc", "lat": 38.908238, "fusion_lon": 0.0, "fusion_lat": 0.0, "type": "electric_bike", "name": "93040e63c60fc4f1313658ca3bb903fc", "is_disabled": 0, "rental_uris": {"ios": "https://dc.lft.to/lastmile_qr_scan", "android": "https://dc.lft.to/lastmile_qr_scan"}, "is_reserved": 0}, {"lon": -77.02722616666667, "bike_id": "213c9683f46ba1e43bb043bc6ee6e1c1", "lat": 38.924817, "fusion_lon": 0.0, "fusion_lat": 0.0, "type": "electric_scooter", "name": "213c9683f46ba1e43bb043bc6ee6e1c1", "is_disabled": 0, "rental_uris": {"ios": "https://dc.lft.to/lastmile_qr_scan", "android": "https://dc.lft.to/lastmile_qr_scan"}, "is_reserved": 0}, {"lon": -77.026965, "bike_id": "a0ff58aa6270a54336809abad3485a0f", "lat": 38.921305, "fusion_lon": 0.0, "fusion_lat": 0.0, "type": "electric_scooter", "name": "a0ff58aa6270a54336809abad3485a0f", "is_disabled": 0, "rental_uris": {"ios": "https://dc.lft.to/lastmile_qr_scan", "android": "https://dc.lft.to/lastmile_qr_scan"}, "is_reserved": 0}, {"lon": -77.04667666666667, "bike_id": "cf188a2468706dc710063cd46f15899f", "lat": 38.896665, "fusion_lon": 0.0, "fusion_lat": 0.0, "type": "electric_scooter", "name": "cf188a2468706dc710063cd46f15899f", "is_disabled": 0, "rental_uris": {"ios": "https://dc.lft.to/lastmile_qr_scan", "android": "https://dc.lft.to/lastmile_qr_scan"}, "is_reserved": 0}, {"lon": -77.03643916666667, "bike_id": "349849f3da1cb9d70e195940e82fc695", "lat": 38.913371833333336, "fusion_lon": 0.0, "fusion_lat": 0.0, "type": "electric_scooter", "name": "349849f3da1cb9d70e195940e82fc695", "is_disabled": 0, "rental_uris": {"ios": "https://dc.lft.to/lastmile_qr_scan", "android": "https://dc.lft.to/lastmile_qr_scan"}, "is_reserved": 0}, {"lon": -76.98338933333334, "bike_id": "9685710935e995dde953b929890d2f60", "lat": 38.895474, "fusion_lon": 0.0, "fusion_lat": 0.0, "type": "electric_scooter", "name": "9685710935e995dde953b929890d2f60", "is_disabled": 0, "rental_uris": {"ios": "https://dc.lft.to/lastmile_qr_scan", "android": "https://dc.lft.to/lastmile_qr_scan"}, "is_reserved": 0}, {"lon": -76.96152916666666, "bike_id": "e505047307efe8d19644054daf15d310", "lat": 38.883588, "fusion_lon": 0.0, "fusion_lat": 0.0, "type": "electric_scooter", "name": "e505047307efe8d19644054daf15d310", "is_disabled": 0, "rental_uris": {"ios": "https://dc.lft.to/lastmile_qr_scan", "android": "https://dc.lft.to/lastmile_qr_scan"}, "is_reserved": 0}, {"lon": -77.06781166666667, "bike_id": "46035f3f082892d4e6f4fc3c9b4ac2ad", "lat": 38.90363883333333, "fusion_lon": 0.0, "fusion_lat": 0.0, "type": "electric_scooter", "name": "46035f3f082892d4e6f4fc3c9b4ac2ad", "is_disabled": 0, "rental_uris": {"ios": "https://dc.lft.to/lastmile_qr_scan", "android": "https://dc.lft.to/lastmile_qr_scan"}, "is_reserved": 0}, {"lon": -76.96911616666667, "bike_id": "3c4fcb4339ed92140378ef621008cccd", "lat": 38.8461355, "fusion_lon": 0.0, "fusion_lat": 0.0, "type": "electric_bike", "name": "3c4fcb4339ed92140378ef621008cccd", "is_disabled": 0, "rental_uris": {"ios": "https://dc.lft.to/lastmile_qr_scan", "android": "https://dc.lft.to/lastmile_qr_scan"}, "is_reserved": 0}, {"lon": -77.03331666666666, "bike_id": "bde569e4e128c51bce61732c9c7e4fc7", "lat": 38.9011835, "fusion_lon": 0.0, "fusion_lat": 0.0, "type": "electric_scooter", "name": "bde569e4e128c51bce61732c9c7e4fc7", "is_disabled": 0, "rental_uris": {"ios": "https://dc.lft.to/lastmile_qr_scan", "android": "https://dc.lft.to/lastmile_qr_scan"}, "is_reserved": 0}, {"lon": -77.0460655, "bike_id": "1b07d53aa621d7219d487f1d42084428", "lat": 38.9095545, "fusion_lon": 0.0, "fusion_lat": 0.0, "type": "electric_scooter", "name": "1b07d53aa621d7219d487f1d42084428", "is_disabled": 0, "rental_uris": {"ios": "https://dc.lft.to/lastmile_qr_scan", "android": "https://dc.lft.to/lastmile_qr_scan"}, "is_reserved": 0}, {"lon": -77.06339116666666, "bike_id": "4d1c843442fc300a16bd6145d37d7130", "lat": 38.9068155, "fusion_lon": 0.0, "fusion_lat": 0.0, "type": "electric_scooter", "name": "4d1c843442fc300a16bd6145d37d7130", "is_disabled": 0, "rental_uris": {"ios": "https://dc.lft.to/lastmile_qr_scan", "android": "https://dc.lft.to/lastmile_qr_scan"}, "is_reserved": 0}, {"lon": -77.03502183333333, "bike_id": "f65151c96a5495f75c8fe86df44c34c7", "lat": 38.93750933333333, "fusion_lon": 0.0, "fusion_lat": 0.0, "type": "electric_scooter", "name": "f65151c96a5495f75c8fe86df44c34c7", "is_disabled": 0, "rental_uris": {"ios": "https://dc.lft.to/lastmile_qr_scan", "android": "https://dc.lft.to/lastmile_qr_scan"}, "is_reserved": 0}, {"lon": -77.08458733333333, "bike_id": "35296c6c434d58e9b0004de7106f451c", "lat": 38.8481895, "fusion_lon": 0.0, "fusion_lat": 0.0, "type": "electric_bike", "name": "35296c6c434d58e9b0004de7106f451c", "is_disabled": 0, "rental_uris": {"ios": "https://dc.lft.to/lastmile_qr_scan", "android": "https://dc.lft.to/lastmile_qr_scan"}, "is_reserved": 0}, {"lon": -76.9835225, "bike_id": "a1640f49d0285f3c49df987204aee76d", "lat": 38.887700833333334, "fusion_lon": 0.0, "fusion_lat": 0.0, "type": "electric_scooter", "name": "a1640f49d0285f3c49df987204aee76d", "is_disabled": 0, "rental_uris": {"ios": "https://dc.lft.to/lastmile_qr_scan", "android": "https://dc.lft.to/lastmile_qr_scan"}, "is_reserved": 0}, {"lon": -76.97391583333334, "bike_id": "17b6cd33ffc79c27e703e40ba07b4566", "lat": 38.905549666666666, "fusion_lon": 0.0, "fusion_lat": 0.0, "type": "electric_scooter", "name": "17b6cd33ffc79c27e703e40ba07b4566", "is_disabled": 0, "rental_uris": {"ios": "https://dc.lft.to/lastmile_qr_scan", "android": "https://dc.lft.to/lastmile_qr_scan"}, "is_reserved": 0}, {"lon": -77.034316, "bike_id": "661ea2c9cd58c9c0112fad539c0e9c11", "lat": 38.92241516666667, "fusion_lon": 0.0, "fusion_lat": 0.0, "type": "electric_scooter", "name": "661ea2c9cd58c9c0112fad539c0e9c11", "is_disabled": 0, "rental_uris": {"ios": "https://dc.lft.to/lastmile_qr_scan", "android": "https://dc.lft.to/lastmile_qr_scan"}, "is_reserved": 0}, {"lon": -76.99157466666666, "bike_id": "17d45965b132ebb6bf03f39e9c329389", "lat": 38.90039083333333, "fusion_lon": 0.0, "fusion_lat": 0.0, "type": "electric_scooter", "name": "17d45965b132ebb6bf03f39e9c329389", "is_disabled": 0, "rental_uris": {"ios": "https://dc.lft.to/lastmile_qr_scan", "android": "https://dc.lft.to/lastmile_qr_scan"}, "is_reserved": 0}, {"lon": -77.023077, "bike_id": "dd7730f921b92a9a7087c191a3b46160", "lat": 38.94088883333333, "fusion_lon": 0.0, "fusion_lat": 0.0, "type": "electric_scooter", "name": "dd7730f921b92a9a7087c191a3b46160", "is_disabled": 0, "rental_uris": {"ios": "https://dc.lft.to/lastmile_qr_scan", "android": "https://dc.lft.to/lastmile_qr_scan"}, "is_reserved": 0}, {"lon": -77.02392316666666, "bike_id": "6213400408956926fa946a244db552c7", "lat": 38.927566666666664, "fusion_lon": 0.0, "fusion_lat": 0.0, "type": "electric_scooter", "name": "6213400408956926fa946a244db552c7", "is_disabled": 0, "rental_uris": {"ios": "https://dc.lft.to/lastmile_qr_scan", "android": "https://dc.lft.to/lastmile_qr_scan"}, "is_reserved": 0}, {"lon": -77.00454733333333, "bike_id": "0cbb11a0433961d976f040d7a92823ef", "lat": 38.876597333333336, "fusion_lon": 0.0, "fusion_lat": 0.0, "type": "electric_scooter", "name": "0cbb11a0433961d976f040d7a92823ef", "is_disabled": 0, "rental_uris": {"ios": "https://dc.lft.to/lastmile_qr_scan", "android": "https://dc.lft.to/lastmile_qr_scan"}, "is_reserved": 0}, {"lon": -77.0282955, "bike_id": "b9725be2bbb88b9afb2a0792b2540f0d", "lat": 38.887402, "fusion_lon": 0.0, "fusion_lat": 0.0, "type": "electric_scooter", "name": "b9725be2bbb88b9afb2a0792b2540f0d", "is_disabled": 0, "rental_uris": {"ios": "https://dc.lft.to/lastmile_qr_scan", "android": "https://dc.lft.to/lastmile_qr_scan"}, "is_reserved": 0}, {"lon": -77.09844366666667, "bike_id": "ee24c8fb08bbfcc41f3498d834662a5e", "lat": 38.84843433333333, "fusion_lon": 0.0, "fusion_lat": 0.0, "type": "electric_bike", "name": "ee24c8fb08bbfcc41f3498d834662a5e", "is_disabled": 0, "rental_uris": {"ios": "https://dc.lft.to/lastmile_qr_scan", "android": "https://dc.lft.to/lastmile_qr_scan"}, "is_reserved": 0}, {"lon": -77.02152366666667, "bike_id": "bbca12a5f9ff2da71f9aec17deea8985", "lat": 38.89734833333333, "fusion_lon": 0.0, "fusion_lat": 0.0, "type": "electric_scooter", "name": "bbca12a5f9ff2da71f9aec17deea8985", "is_disabled": 0, "rental_uris": {"ios": "https://dc.lft.to/lastmile_qr_scan", "android": "https://dc.lft.to/lastmile_qr_scan"}, "is_reserved": 0}, {"lon": -76.94637416666667, "bike_id": "68a2ca1309e10b69413150a3f4be5a2c", "lat": 38.89834183333333, "fusion_lon": 0.0, "fusion_lat": 0.0, "type": "electric_scooter", "name": "68a2ca1309e10b69413150a3f4be5a2c", "is_disabled": 0, "rental_uris": {"ios": "https://dc.lft.to/lastmile_qr_scan", "android": "https://dc.lft.to/lastmile_qr_scan"}, "is_reserved": 0}, {"lon": -77.02730683333333, "bike_id": "c6d899e4ebd54e12c2f334852dce9031", "lat": 38.89739683333333, "fusion_lon": 0.0, "fusion_lat": 0.0, "type": "electric_scooter", "name": "c6d899e4ebd54e12c2f334852dce9031", "is_disabled": 0, "rental_uris": {"ios": "https://dc.lft.to/lastmile_qr_scan", "android": "https://dc.lft.to/lastmile_qr_scan"}, "is_reserved": 0}, {"lon": -76.97549816666667, "bike_id": "50c5478ca508dd238a1bf322e3ffa3cd", "lat": 38.903235, "fusion_lon": 0.0, "fusion_lat": 0.0, "type": "electric_scooter", "name": "50c5478ca508dd238a1bf322e3ffa3cd", "is_disabled": 0, "rental_uris": {"ios": "https://dc.lft.to/lastmile_qr_scan", "android": "https://dc.lft.to/lastmile_qr_scan"}, "is_reserved": 0}, {"lon": -77.0350425, "bike_id": "e668620edf70cca4af5860e543d58853", "lat": 38.9125085, "fusion_lon": 0.0, "fusion_lat": 0.0, "type": "electric_scooter", "name": "e668620edf70cca4af5860e543d58853", "is_disabled": 0, "rental_uris": {"ios": "https://dc.lft.to/lastmile_qr_scan", "android": "https://dc.lft.to/lastmile_qr_scan"}, "is_reserved": 0}, {"lon": -77.02474033333333, "bike_id": "7d5599a59b9ff9ce9f7749ab99173021", "lat": 38.918204833333334, "fusion_lon": 0.0, "fusion_lat": 0.0, "type": "electric_scooter", "name": "7d5599a59b9ff9ce9f7749ab99173021", "is_disabled": 0, "rental_uris": {"ios": "https://dc.lft.to/lastmile_qr_scan", "android": "https://dc.lft.to/lastmile_qr_scan"}, "is_reserved": 0}, {"lon": -77.039537, "bike_id": "78517dee42fd55adffd2b6b4bd3dd0ab", "lat": 38.8988475, "fusion_lon": 0.0, "fusion_lat": 0.0, "type": "electric_scooter", "name": "78517dee42fd55adffd2b6b4bd3dd0ab", "is_disabled": 0, "rental_uris": {"ios": "https://dc.lft.to/lastmile_qr_scan", "android": "https://dc.lft.to/lastmile_qr_scan"}, "is_reserved": 0}, {"lon": -76.99838483333333, "bike_id": "cb083f818eef622508e92c03498f8644", "lat": 38.953694666666664, "fusion_lon": 0.0, "fusion_lat": 0.0, "type": "electric_scooter", "name": "cb083f818eef622508e92c03498f8644", "is_disabled": 0, "rental_uris": {"ios": "https://dc.lft.to/lastmile_qr_scan", "android": "https://dc.lft.to/lastmile_qr_scan"}, "is_reserved": 0}, {"lon": -76.99037416666667, "bike_id": "701df1c6d2ff92e147b3aef2123bc3cf", "lat": 38.898802333333336, "fusion_lon": 0.0, "fusion_lat": 0.0, "type": "electric_scooter", "name": "701df1c6d2ff92e147b3aef2123bc3cf", "is_disabled": 0, "rental_uris": {"ios": "https://dc.lft.to/lastmile_qr_scan", "android": "https://dc.lft.to/lastmile_qr_scan"}, "is_reserved": 0}, {"lon": -77.018594, "bike_id": "71b81f32d0f717bad0905573962cf0c3", "lat": 38.914952666666665, "fusion_lon": 0.0, "fusion_lat": 0.0, "type": "electric_scooter", "name": "71b81f32d0f717bad0905573962cf0c3", "is_disabled": 0, "rental_uris": {"ios": "https://dc.lft.to/lastmile_qr_scan", "android": "https://dc.lft.to/lastmile_qr_scan"}, "is_reserved": 0}, {"lon": -77.05047616666667, "bike_id": "267e4582242f05bbd847e6ced17d9dbb", "lat": 38.92519683333333, "fusion_lon": 0.0, "fusion_lat": 0.0, "type": "electric_scooter", "name": "267e4582242f05bbd847e6ced17d9dbb", "is_disabled": 0, "rental_uris": {"ios": "https://dc.lft.to/lastmile_qr_scan", "android": "https://dc.lft.to/lastmile_qr_scan"}, "is_reserved": 0}, {"lon": -76.98410883333334, "bike_id": "a7e68f34ef7e1ad85c174dd16324750f", "lat": 38.90631783333333, "fusion_lon": 0.0, "fusion_lat": 0.0, "type": "electric_scooter", "name": "a7e68f34ef7e1ad85c174dd16324750f", "is_disabled": 0, "rental_uris": {"ios": "https://dc.lft.to/lastmile_qr_scan", "android": "https://dc.lft.to/lastmile_qr_scan"}, "is_reserved": 0}, {"lon": -77.03966466666667, "bike_id": "d1bc229a7bae2fa5797a45d864c00c81", "lat": 38.9162945, "fusion_lon": 0.0, "fusion_lat": 0.0, "type": "electric_scooter", "name": "d1bc229a7bae2fa5797a45d864c00c81", "is_disabled": 0, "rental_uris": {"ios": "https://dc.lft.to/lastmile_qr_scan", "android": "https://dc.lft.to/lastmile_qr_scan"}, "is_reserved": 0}, {"lon": -77.02543566666667, "bike_id": "468c7e36d569219574797004c3656e0c", "lat": 38.941000333333335, "fusion_lon": 0.0, "fusion_lat": 0.0, "type": "electric_scooter", "name": "468c7e36d569219574797004c3656e0c", "is_disabled": 0, "rental_uris": {"ios": "https://dc.lft.to/lastmile_qr_scan", "android": "https://dc.lft.to/lastmile_qr_scan"}, "is_reserved": 0}, {"lon": -77.02201933333333, "bike_id": "5dc09794687dc9b1531e6bca20f9a4cc", "lat": 38.89290883333334, "fusion_lon": 0.0, "fusion_lat": 0.0, "type": "electric_scooter", "name": "5dc09794687dc9b1531e6bca20f9a4cc", "is_disabled": 0, "rental_uris": {"ios": "https://dc.lft.to/lastmile_qr_scan", "android": "https://dc.lft.to/lastmile_qr_scan"}, "is_reserved": 0}, {"lon": -77.025975, "bike_id": "94f0d2603b8559985a6bb8abb4b7f606", "lat": 38.94201833333333, "fusion_lon": 0.0, "fusion_lat": 0.0, "type": "electric_scooter", "name": "94f0d2603b8559985a6bb8abb4b7f606", "is_disabled": 0, "rental_uris": {"ios": "https://dc.lft.to/lastmile_qr_scan", "android": "https://dc.lft.to/lastmile_qr_scan"}, "is_reserved": 0}, {"lon": -76.9882785, "bike_id": "db76dcd2f1726ccb31814e4123a5ab81", "lat": 38.90091133333333, "fusion_lon": 0.0, "fusion_lat": 0.0, "type": "electric_scooter", "name": "db76dcd2f1726ccb31814e4123a5ab81", "is_disabled": 0, "rental_uris": {"ios": "https://dc.lft.to/lastmile_qr_scan", "android": "https://dc.lft.to/lastmile_qr_scan"}, "is_reserved": 0}, {"lon": -77.059361, "bike_id": "850fedaa966866ca3e47e0cb60bf0bc2", "lat": 38.90528416666667, "fusion_lon": 0.0, "fusion_lat": 0.0, "type": "electric_bike", "name": "850fedaa966866ca3e47e0cb60bf0bc2", "is_disabled": 0, "rental_uris": {"ios": "https://dc.lft.to/lastmile_qr_scan", "android": "https://dc.lft.to/lastmile_qr_scan"}, "is_reserved": 0}, {"lon": -77.03181416666666, "bike_id": "f02dd4c7114376d5205a5ebffba13d08", "lat": 38.896254166666665, "fusion_lon": 0.0, "fusion_lat": 0.0, "type": "electric_scooter", "name": "f02dd4c7114376d5205a5ebffba13d08", "is_disabled": 0, "rental_uris": {"ios": "https://dc.lft.to/lastmile_qr_scan", "android": "https://dc.lft.to/lastmile_qr_scan"}, "is_reserved": 0}, {"lon": -77.02715516666666, "bike_id": "b8a3f68ad35c35e793c14be6fa2b51d7", "lat": 38.896559833333335, "fusion_lon": 0.0, "fusion_lat": 0.0, "type": "electric_scooter", "name": "b8a3f68ad35c35e793c14be6fa2b51d7", "is_disabled": 0, "rental_uris": {"ios": "https://dc.lft.to/lastmile_qr_scan", "android": "https://dc.lft.to/lastmile_qr_scan"}, "is_reserved": 0}, {"lon": -77.0175635, "bike_id": "aae6d69caf77e1c3085f871c7f2978b6", "lat": 38.8772615, "fusion_lon": 0.0, "fusion_lat": 0.0, "type": "electric_scooter", "name": "aae6d69caf77e1c3085f871c7f2978b6", "is_disabled": 0, "rental_uris": {"ios": "https://dc.lft.to/lastmile_qr_scan", "android": "https://dc.lft.to/lastmile_qr_scan"}, "is_reserved": 0}, {"lon": -77.03380733333333, "bike_id": "df280369ea8660aa90856040a06e14f1", "lat": 38.9026405, "fusion_lon": 0.0, "fusion_lat": 0.0, "type": "electric_scooter", "name": "df280369ea8660aa90856040a06e14f1", "is_disabled": 0, "rental_uris": {"ios": "https://dc.lft.to/lastmile_qr_scan", "android": "https://dc.lft.to/lastmile_qr_scan"}, "is_reserved": 0}, {"lon": -77.03406233333334, "bike_id": "9f5355d84711fc82d3af70cfdfd9ffb6", "lat": 38.922742166666666, "fusion_lon": 0.0, "fusion_lat": 0.0, "type": "electric_scooter", "name": "9f5355d84711fc82d3af70cfdfd9ffb6", "is_disabled": 0, "rental_uris": {"ios": "https://dc.lft.to/lastmile_qr_scan", "android": "https://dc.lft.to/lastmile_qr_scan"}, "is_reserved": 0}, {"lon": -77.09472033333333, "bike_id": "d2f610f972cb757bf280ce1627786e14", "lat": 38.807597666666666, "fusion_lon": 0.0, "fusion_lat": 0.0, "type": "electric_bike", "name": "d2f610f972cb757bf280ce1627786e14", "is_disabled": 0, "rental_uris": {"ios": "https://dc.lft.to/lastmile_qr_scan", "android": "https://dc.lft.to/lastmile_qr_scan"}, "is_reserved": 0}, {"lon": -77.04584266666667, "bike_id": "6c2c8a54ad65196d344cab6bae2876fd", "lat": 38.90208233333333, "fusion_lon": 0.0, "fusion_lat": 0.0, "type": "electric_scooter", "name": "6c2c8a54ad65196d344cab6bae2876fd", "is_disabled": 0, "rental_uris": {"ios": "https://dc.lft.to/lastmile_qr_scan", "android": "https://dc.lft.to/lastmile_qr_scan"}, "is_reserved": 0}, {"lon": -77.03218183333334, "bike_id": "1e99f3bdd807011fba6518154108c453", "lat": 38.90704566666667, "fusion_lon": 0.0, "fusion_lat": 0.0, "type": "electric_scooter", "name": "1e99f3bdd807011fba6518154108c453", "is_disabled": 0, "rental_uris": {"ios": "https://dc.lft.to/lastmile_qr_scan", "android": "https://dc.lft.to/lastmile_qr_scan"}, "is_reserved": 0}, {"lon": -76.99944016666667, "bike_id": "d650a30e15c3f3098fdb12daa4cb82e3", "lat": 38.919305666666666, "fusion_lon": 0.0, "fusion_lat": 0.0, "type": "electric_scooter", "name": "d650a30e15c3f3098fdb12daa4cb82e3", "is_disabled": 0, "rental_uris": {"ios": "https://dc.lft.to/lastmile_qr_scan", "android": "https://dc.lft.to/lastmile_qr_scan"}, "is_reserved": 0}, {"lon": -77.01882433333333, "bike_id": "23d53bf22f561c19420a8fcfabb942f6", "lat": 38.90426433333333, "fusion_lon": 0.0, "fusion_lat": 0.0, "type": "electric_scooter", "name": "23d53bf22f561c19420a8fcfabb942f6", "is_disabled": 0, "rental_uris": {"ios": "https://dc.lft.to/lastmile_qr_scan", "android": "https://dc.lft.to/lastmile_qr_scan"}, "is_reserved": 0}, {"lon": -77.03193633333333, "bike_id": "fc268e8986e47096e2f4f7e16a942518", "lat": 38.901367, "fusion_lon": 0.0, "fusion_lat": 0.0, "type": "electric_scooter", "name": "fc268e8986e47096e2f4f7e16a942518", "is_disabled": 0, "rental_uris": {"ios": "https://dc.lft.to/lastmile_qr_scan", "android": "https://dc.lft.to/lastmile_qr_scan"}, "is_reserved": 0}, {"lon": -77.04555433333333, "bike_id": "b721c0fac2b9addf180e7f029c97e26d", "lat": 38.913142666666666, "fusion_lon": 0.0, "fusion_lat": 0.0, "type": "electric_scooter", "name": "b721c0fac2b9addf180e7f029c97e26d", "is_disabled": 0, "rental_uris": {"ios": "https://dc.lft.to/lastmile_qr_scan", "android": "https://dc.lft.to/lastmile_qr_scan"}, "is_reserved": 0}, {"lon": -77.027714, "bike_id": "48d9c5f693b9d74b3d1e004b85cff8f4", "lat": 38.89218616666667, "fusion_lon": 0.0, "fusion_lat": 0.0, "type": "electric_scooter", "name": "48d9c5f693b9d74b3d1e004b85cff8f4", "is_disabled": 0, "rental_uris": {"ios": "https://dc.lft.to/lastmile_qr_scan", "android": "https://dc.lft.to/lastmile_qr_scan"}, "is_reserved": 0}, {"lon": -77.02158483333334, "bike_id": "256a25e1d1281eda7f832e28295b3d98", "lat": 38.9249785, "fusion_lon": 0.0, "fusion_lat": 0.0, "type": "electric_scooter", "name": "256a25e1d1281eda7f832e28295b3d98", "is_disabled": 0, "rental_uris": {"ios": "https://dc.lft.to/lastmile_qr_scan", "android": "https://dc.lft.to/lastmile_qr_scan"}, "is_reserved": 0}, {"lon": -76.9905505, "bike_id": "196e1cc397a9e5da3af377a5d0310e71", "lat": 38.86375233333333, "fusion_lon": 0.0, "fusion_lat": 0.0, "type": "electric_scooter", "name": "196e1cc397a9e5da3af377a5d0310e71", "is_disabled": 0, "rental_uris": {"ios": "https://dc.lft.to/lastmile_qr_scan", "android": "https://dc.lft.to/lastmile_qr_scan"}, "is_reserved": 0}, {"lon": -77.00059516666667, "bike_id": "0eda5195f3b116136e0070c24306c5e7", "lat": 38.90078583333333, "fusion_lon": 0.0, "fusion_lat": 0.0, "type": "electric_scooter", "name": "0eda5195f3b116136e0070c24306c5e7", "is_disabled": 0, "rental_uris": {"ios": "https://dc.lft.to/lastmile_qr_scan", "android": "https://dc.lft.to/lastmile_qr_scan"}, "is_reserved": 0}, {"lon": -77.01987133333333, "bike_id": "c9a6471e254d4dafe68941c6007c6682", "lat": 38.92551316666667, "fusion_lon": 0.0, "fusion_lat": 0.0, "type": "electric_bike", "name": "c9a6471e254d4dafe68941c6007c6682", "is_disabled": 0, "rental_uris": {"ios": "https://dc.lft.to/lastmile_qr_scan", "android": "https://dc.lft.to/lastmile_qr_scan"}, "is_reserved": 0}, {"lon": -77.04657233333333, "bike_id": "2e3e90fcb4a5f6e254291788b716d3cf", "lat": 38.9045745, "fusion_lon": 0.0, "fusion_lat": 0.0, "type": "electric_scooter", "name": "2e3e90fcb4a5f6e254291788b716d3cf", "is_disabled": 0, "rental_uris": {"ios": "https://dc.lft.to/lastmile_qr_scan", "android": "https://dc.lft.to/lastmile_qr_scan"}, "is_reserved": 0}, {"lon": -77.032162, "bike_id": "7d0f30e849001010a5ce69ac79766cc3", "lat": 38.912582666666665, "fusion_lon": 0.0, "fusion_lat": 0.0, "type": "electric_scooter", "name": "7d0f30e849001010a5ce69ac79766cc3", "is_disabled": 0, "rental_uris": {"ios": "https://dc.lft.to/lastmile_qr_scan", "android": "https://dc.lft.to/lastmile_qr_scan"}, "is_reserved": 0}, {"lon": -76.94878766666666, "bike_id": "eb358b3984ff89c16ed9a431474e6edd", "lat": 38.89431533333333, "fusion_lon": 0.0, "fusion_lat": 0.0, "type": "electric_scooter", "name": "eb358b3984ff89c16ed9a431474e6edd", "is_disabled": 0, "rental_uris": {"ios": "https://dc.lft.to/lastmile_qr_scan", "android": "https://dc.lft.to/lastmile_qr_scan"}, "is_reserved": 0}, {"lon": -77.0216445, "bike_id": "b02b1b5a1f042d0f4d849ef27ed4e185", "lat": 38.9261225, "fusion_lon": 0.0, "fusion_lat": 0.0, "type": "electric_scooter", "name": "b02b1b5a1f042d0f4d849ef27ed4e185", "is_disabled": 0, "rental_uris": {"ios": "https://dc.lft.to/lastmile_qr_scan", "android": "https://dc.lft.to/lastmile_qr_scan"}, "is_reserved": 0}, {"lon": -77.00228516666667, "bike_id": "cb137efd1e21a97e4fe64dafd3596506", "lat": 38.92510433333333, "fusion_lon": 0.0, "fusion_lat": 0.0, "type": "electric_scooter", "name": "cb137efd1e21a97e4fe64dafd3596506", "is_disabled": 0, "rental_uris": {"ios": "https://dc.lft.to/lastmile_qr_scan", "android": "https://dc.lft.to/lastmile_qr_scan"}, "is_reserved": 0}, {"lon": -77.04639433333334, "bike_id": "7df8c4311d13bd336a1a130076c0bd0f", "lat": 38.915715, "fusion_lon": 0.0, "fusion_lat": 0.0, "type": "electric_scooter", "name": "7df8c4311d13bd336a1a130076c0bd0f", "is_disabled": 0, "rental_uris": {"ios": "https://dc.lft.to/lastmile_qr_scan", "android": "https://dc.lft.to/lastmile_qr_scan"}, "is_reserved": 0}, {"lon": -76.993699, "bike_id": "c3fb6a5560fb8807839143587fd81718", "lat": 38.8938225, "fusion_lon": 0.0, "fusion_lat": 0.0, "type": "electric_scooter", "name": "c3fb6a5560fb8807839143587fd81718", "is_disabled": 0, "rental_uris": {"ios": "https://dc.lft.to/lastmile_qr_scan", "android": "https://dc.lft.to/lastmile_qr_scan"}, "is_reserved": 0}, {"lon": -77.03453966666666, "bike_id": "4e516f0fabe4141821e7fa0727145b7c", "lat": 38.909929, "fusion_lon": 0.0, "fusion_lat": 0.0, "type": "electric_scooter", "name": "4e516f0fabe4141821e7fa0727145b7c", "is_disabled": 0, "rental_uris": {"ios": "https://dc.lft.to/lastmile_qr_scan", "android": "https://dc.lft.to/lastmile_qr_scan"}, "is_reserved": 0}, {"lon": -77.03868916666667, "bike_id": "73e6ee49706bc8b5e88737952e1ac4d3", "lat": 38.90274216666667, "fusion_lon": 0.0, "fusion_lat": 0.0, "type": "electric_scooter", "name": "73e6ee49706bc8b5e88737952e1ac4d3", "is_disabled": 0, "rental_uris": {"ios": "https://dc.lft.to/lastmile_qr_scan", "android": "https://dc.lft.to/lastmile_qr_scan"}, "is_reserved": 0}, {"lon": -77.03323833333333, "bike_id": "444006b1d0ee980cab4e895d4141b356", "lat": 38.921454833333335, "fusion_lon": 0.0, "fusion_lat": 0.0, "type": "electric_scooter", "name": "444006b1d0ee980cab4e895d4141b356", "is_disabled": 0, "rental_uris": {"ios": "https://dc.lft.to/lastmile_qr_scan", "android": "https://dc.lft.to/lastmile_qr_scan"}, "is_reserved": 0}, {"lon": -77.03093233333334, "bike_id": "3e1bc056b348baa36d076a895f504869", "lat": 38.9007195, "fusion_lon": 0.0, "fusion_lat": 0.0, "type": "electric_scooter", "name": "3e1bc056b348baa36d076a895f504869", "is_disabled": 0, "rental_uris": {"ios": "https://dc.lft.to/lastmile_qr_scan", "android": "https://dc.lft.to/lastmile_qr_scan"}, "is_reserved": 0}, {"lon": -77.00507383333333, "bike_id": "0064fc4020d66f144511257408a2b82a", "lat": 38.91269966666667, "fusion_lon": 0.0, "fusion_lat": 0.0, "type": "electric_scooter", "name": "0064fc4020d66f144511257408a2b82a", "is_disabled": 0, "rental_uris": {"ios": "https://dc.lft.to/lastmile_qr_scan", "android": "https://dc.lft.to/lastmile_qr_scan"}, "is_reserved": 0}, {"lon": -77.01967583333334, "bike_id": "db21c564f0ea907b2ec25d29097d97eb", "lat": 38.92331516666667, "fusion_lon": 0.0, "fusion_lat": 0.0, "type": "electric_scooter", "name": "db21c564f0ea907b2ec25d29097d97eb", "is_disabled": 0, "rental_uris": {"ios": "https://dc.lft.to/lastmile_qr_scan", "android": "https://dc.lft.to/lastmile_qr_scan"}, "is_reserved": 0}, {"lon": -77.038336, "bike_id": "d4a77a6d3e78d3d6b9097990281b174f", "lat": 38.906691, "fusion_lon": 0.0, "fusion_lat": 0.0, "type": "electric_scooter", "name": "d4a77a6d3e78d3d6b9097990281b174f", "is_disabled": 0, "rental_uris": {"ios": "https://dc.lft.to/lastmile_qr_scan", "android": "https://dc.lft.to/lastmile_qr_scan"}, "is_reserved": 0}, {"lon": -77.04648416666667, "bike_id": "7aa3bbaaf8ee09cfd1341bdf074233ce", "lat": 38.915961, "fusion_lon": 0.0, "fusion_lat": 0.0, "type": "electric_scooter", "name": "7aa3bbaaf8ee09cfd1341bdf074233ce", "is_disabled": 0, "rental_uris": {"ios": "https://dc.lft.to/lastmile_qr_scan", "android": "https://dc.lft.to/lastmile_qr_scan"}, "is_reserved": 0}, {"lon": -77.02053833333333, "bike_id": "995c3b295a8e95dc06bb06bb6cdd9eeb", "lat": 38.909654833333335, "fusion_lon": 0.0, "fusion_lat": 0.0, "type": "electric_scooter", "name": "995c3b295a8e95dc06bb06bb6cdd9eeb", "is_disabled": 0, "rental_uris": {"ios": "https://dc.lft.to/lastmile_qr_scan", "android": "https://dc.lft.to/lastmile_qr_scan"}, "is_reserved": 0}, {"lon": -77.023629, "bike_id": "e92dca73cf5ec2603a9d363f56cd1f06", "lat": 38.892222, "fusion_lon": 0.0, "fusion_lat": 0.0, "type": "electric_scooter", "name": "e92dca73cf5ec2603a9d363f56cd1f06", "is_disabled": 0, "rental_uris": {"ios": "https://dc.lft.to/lastmile_qr_scan", "android": "https://dc.lft.to/lastmile_qr_scan"}, "is_reserved": 0}, {"lon": -77.040409, "bike_id": "43a325915f10cd3ef800563d3d963016", "lat": 38.923077666666664, "fusion_lon": 0.0, "fusion_lat": 0.0, "type": "electric_scooter", "name": "43a325915f10cd3ef800563d3d963016", "is_disabled": 0, "rental_uris": {"ios": "https://dc.lft.to/lastmile_qr_scan", "android": "https://dc.lft.to/lastmile_qr_scan"}, "is_reserved": 0}, {"lon": -77.02400683333333, "bike_id": "38bb40ee25e5402ecc469e55d33d30ce", "lat": 38.91684133333333, "fusion_lon": 0.0, "fusion_lat": 0.0, "type": "electric_scooter", "name": "38bb40ee25e5402ecc469e55d33d30ce", "is_disabled": 0, "rental_uris": {"ios": "https://dc.lft.to/lastmile_qr_scan", "android": "https://dc.lft.to/lastmile_qr_scan"}, "is_reserved": 0}, {"lon": -77.05863183333334, "bike_id": "1ecbc458b00fa29ed00cc0c1e3c8e205", "lat": 38.93604166666667, "fusion_lon": 0.0, "fusion_lat": 0.0, "type": "electric_scooter", "name": "1ecbc458b00fa29ed00cc0c1e3c8e205", "is_disabled": 0, "rental_uris": {"ios": "https://dc.lft.to/lastmile_qr_scan", "android": "https://dc.lft.to/lastmile_qr_scan"}, "is_reserved": 0}, {"lon": -77.03414683333334, "bike_id": "864cb5fcc1cc65cde0ae6e846edfd0bc", "lat": 38.92319066666667, "fusion_lon": 0.0, "fusion_lat": 0.0, "type": "electric_scooter", "name": "864cb5fcc1cc65cde0ae6e846edfd0bc", "is_disabled": 0, "rental_uris": {"ios": "https://dc.lft.to/lastmile_qr_scan", "android": "https://dc.lft.to/lastmile_qr_scan"}, "is_reserved": 0}, {"lon": -77.027615, "bike_id": "812096e9bfe9d87a48f04e84cfe9af7d", "lat": 38.94404383333333, "fusion_lon": 0.0, "fusion_lat": 0.0, "type": "electric_scooter", "name": "812096e9bfe9d87a48f04e84cfe9af7d", "is_disabled": 0, "rental_uris": {"ios": "https://dc.lft.to/lastmile_qr_scan", "android": "https://dc.lft.to/lastmile_qr_scan"}, "is_reserved": 0}, {"lon": -77.02462033333333, "bike_id": "7c4fb3c71e3f3b3223c99c883e8dc84d", "lat": 38.90093366666667, "fusion_lon": 0.0, "fusion_lat": 0.0, "type": "electric_scooter", "name": "7c4fb3c71e3f3b3223c99c883e8dc84d", "is_disabled": 0, "rental_uris": {"ios": "https://dc.lft.to/lastmile_qr_scan", "android": "https://dc.lft.to/lastmile_qr_scan"}, "is_reserved": 0}, {"lon": -77.03452633333333, "bike_id": "4b9d76e8d878ad480798bcbf6232f3ae", "lat": 38.909786, "fusion_lon": 0.0, "fusion_lat": 0.0, "type": "electric_scooter", "name": "4b9d76e8d878ad480798bcbf6232f3ae", "is_disabled": 0, "rental_uris": {"ios": "https://dc.lft.to/lastmile_qr_scan", "android": "https://dc.lft.to/lastmile_qr_scan"}, "is_reserved": 0}, {"lon": -77.0461445, "bike_id": "a93ebb364dbd546fc42acd24ee31fe9b", "lat": 38.91550216666667, "fusion_lon": 0.0, "fusion_lat": 0.0, "type": "electric_scooter", "name": "a93ebb364dbd546fc42acd24ee31fe9b", "is_disabled": 0, "rental_uris": {"ios": "https://dc.lft.to/lastmile_qr_scan", "android": "https://dc.lft.to/lastmile_qr_scan"}, "is_reserved": 0}, {"lon": -77.02226766666666, "bike_id": "c1becfb5d9ccba0b269d1f7c613b31a0", "lat": 38.91252583333333, "fusion_lon": 0.0, "fusion_lat": 0.0, "type": "electric_scooter", "name": "c1becfb5d9ccba0b269d1f7c613b31a0", "is_disabled": 0, "rental_uris": {"ios": "https://dc.lft.to/lastmile_qr_scan", "android": "https://dc.lft.to/lastmile_qr_scan"}, "is_reserved": 0}, {"lon": -77.0206565, "bike_id": "08c6c3d6eef3243eefa8ccf06baf33f2", "lat": 38.899624333333335, "fusion_lon": 0.0, "fusion_lat": 0.0, "type": "electric_scooter", "name": "08c6c3d6eef3243eefa8ccf06baf33f2", "is_disabled": 0, "rental_uris": {"ios": "https://dc.lft.to/lastmile_qr_scan", "android": "https://dc.lft.to/lastmile_qr_scan"}, "is_reserved": 0}, {"lon": -76.9306035, "bike_id": "29e00ecc10c9f666f04e107e05ae613f", "lat": 38.88382516666667, "fusion_lon": 0.0, "fusion_lat": 0.0, "type": "electric_scooter", "name": "29e00ecc10c9f666f04e107e05ae613f", "is_disabled": 0, "rental_uris": {"ios": "https://dc.lft.to/lastmile_qr_scan", "android": "https://dc.lft.to/lastmile_qr_scan"}, "is_reserved": 0}, {"lon": -77.0203785, "bike_id": "cd1e6fdc4f02b424996ae6e959010dc4", "lat": 38.908631666666665, "fusion_lon": 0.0, "fusion_lat": 0.0, "type": "electric_scooter", "name": "cd1e6fdc4f02b424996ae6e959010dc4", "is_disabled": 0, "rental_uris": {"ios": "https://dc.lft.to/lastmile_qr_scan", "android": "https://dc.lft.to/lastmile_qr_scan"}, "is_reserved": 0}, {"lon": -77.02668633333333, "bike_id": "ee42d230dd05790e7819012e69a58d36", "lat": 38.917013, "fusion_lon": 0.0, "fusion_lat": 0.0, "type": "electric_scooter", "name": "ee42d230dd05790e7819012e69a58d36", "is_disabled": 0, "rental_uris": {"ios": "https://dc.lft.to/lastmile_qr_scan", "android": "https://dc.lft.to/lastmile_qr_scan"}, "is_reserved": 0}, {"lon": -77.02669483333334, "bike_id": "f7622e1dc1f0e67a0b5f1c3bf1857c90", "lat": 38.921809333333336, "fusion_lon": 0.0, "fusion_lat": 0.0, "type": "electric_scooter", "name": "f7622e1dc1f0e67a0b5f1c3bf1857c90", "is_disabled": 0, "rental_uris": {"ios": "https://dc.lft.to/lastmile_qr_scan", "android": "https://dc.lft.to/lastmile_qr_scan"}, "is_reserved": 0}, {"lon": -77.043573, "bike_id": "29608dc5b3c9a1d458fe375f4de88b7b", "lat": 38.92168483333333, "fusion_lon": 0.0, "fusion_lat": 0.0, "type": "electric_scooter", "name": "29608dc5b3c9a1d458fe375f4de88b7b", "is_disabled": 0, "rental_uris": {"ios": "https://dc.lft.to/lastmile_qr_scan", "android": "https://dc.lft.to/lastmile_qr_scan"}, "is_reserved": 0}, {"lon": -77.01486333333334, "bike_id": "6ed49fafbcf263701d24087320c82362", "lat": 38.940655666666665, "fusion_lon": 0.0, "fusion_lat": 0.0, "type": "electric_bike", "name": "6ed49fafbcf263701d24087320c82362", "is_disabled": 0, "rental_uris": {"ios": "https://dc.lft.to/lastmile_qr_scan", "android": "https://dc.lft.to/lastmile_qr_scan"}, "is_reserved": 0}, {"lon": -77.022644, "bike_id": "42ed226893361a534d560e5c9bc6e676", "lat": 38.93773866666667, "fusion_lon": 0.0, "fusion_lat": 0.0, "type": "electric_scooter", "name": "42ed226893361a534d560e5c9bc6e676", "is_disabled": 0, "rental_uris": {"ios": "https://dc.lft.to/lastmile_qr_scan", "android": "https://dc.lft.to/lastmile_qr_scan"}, "is_reserved": 0}, {"lon": -77.031795, "bike_id": "aebab67fde1c4120ab78799193e45786", "lat": 38.891964333333334, "fusion_lon": 0.0, "fusion_lat": 0.0, "type": "electric_scooter", "name": "aebab67fde1c4120ab78799193e45786", "is_disabled": 0, "rental_uris": {"ios": "https://dc.lft.to/lastmile_qr_scan", "android": "https://dc.lft.to/lastmile_qr_scan"}, "is_reserved": 0}, {"lon": -77.04487933333333, "bike_id": "2e45960e97e352f850a445152cc62d04", "lat": 38.8923985, "fusion_lon": 0.0, "fusion_lat": 0.0, "type": "electric_scooter", "name": "2e45960e97e352f850a445152cc62d04", "is_disabled": 0, "rental_uris": {"ios": "https://dc.lft.to/lastmile_qr_scan", "android": "https://dc.lft.to/lastmile_qr_scan"}, "is_reserved": 0}, {"lon": -77.00529816666666, "bike_id": "befb194e93a77940d2b7f95f3a619f78", "lat": 38.929776, "fusion_lon": 0.0, "fusion_lat": 0.0, "type": "electric_scooter", "name": "befb194e93a77940d2b7f95f3a619f78", "is_disabled": 0, "rental_uris": {"ios": "https://dc.lft.to/lastmile_qr_scan", "android": "https://dc.lft.to/lastmile_qr_scan"}, "is_reserved": 0}, {"lon": -77.01281233333333, "bike_id": "a5769eb653acbfb315c8c47226e87272", "lat": 38.91561816666667, "fusion_lon": 0.0, "fusion_lat": 0.0, "type": "electric_scooter", "name": "a5769eb653acbfb315c8c47226e87272", "is_disabled": 0, "rental_uris": {"ios": "https://dc.lft.to/lastmile_qr_scan", "android": "https://dc.lft.to/lastmile_qr_scan"}, "is_reserved": 0}, {"lon": -77.043658, "bike_id": "d643549f797c52739c2b3564a97df948", "lat": 38.91342066666667, "fusion_lon": 0.0, "fusion_lat": 0.0, "type": "electric_scooter", "name": "d643549f797c52739c2b3564a97df948", "is_disabled": 0, "rental_uris": {"ios": "https://dc.lft.to/lastmile_qr_scan", "android": "https://dc.lft.to/lastmile_qr_scan"}, "is_reserved": 0}, {"lon": -76.985252, "bike_id": "89e50ad6f0fa356d71003072c1003a63", "lat": 38.86687633333333, "fusion_lon": 0.0, "fusion_lat": 0.0, "type": "electric_scooter", "name": "89e50ad6f0fa356d71003072c1003a63", "is_disabled": 0, "rental_uris": {"ios": "https://dc.lft.to/lastmile_qr_scan", "android": "https://dc.lft.to/lastmile_qr_scan"}, "is_reserved": 0}, {"lon": -77.02181383333334, "bike_id": "39be634b7889ab7e73b839b8177d489f", "lat": 38.9098335, "fusion_lon": 0.0, "fusion_lat": 0.0, "type": "electric_scooter", "name": "39be634b7889ab7e73b839b8177d489f", "is_disabled": 0, "rental_uris": {"ios": "https://dc.lft.to/lastmile_qr_scan", "android": "https://dc.lft.to/lastmile_qr_scan"}, "is_reserved": 0}, {"lon": -76.99794833333333, "bike_id": "c91b9c62cf67bea2dc3819b869d9f081", "lat": 38.956436333333336, "fusion_lon": 0.0, "fusion_lat": 0.0, "type": "electric_bike", "name": "c91b9c62cf67bea2dc3819b869d9f081", "is_disabled": 0, "rental_uris": {"ios": "https://dc.lft.to/lastmile_qr_scan", "android": "https://dc.lft.to/lastmile_qr_scan"}, "is_reserved": 0}, {"lon": -77.041976, "bike_id": "4c35bc7081e45b2bdcf499a51cd07495", "lat": 38.899709, "fusion_lon": 0.0, "fusion_lat": 0.0, "type": "electric_scooter", "name": "4c35bc7081e45b2bdcf499a51cd07495", "is_disabled": 0, "rental_uris": {"ios": "https://dc.lft.to/lastmile_qr_scan", "android": "https://dc.lft.to/lastmile_qr_scan"}, "is_reserved": 0}, {"lon": -77.05014916666667, "bike_id": "e04614b0da75afec1848529dce5a5d1e", "lat": 38.90531983333333, "fusion_lon": 0.0, "fusion_lat": 0.0, "type": "electric_scooter", "name": "e04614b0da75afec1848529dce5a5d1e", "is_disabled": 0, "rental_uris": {"ios": "https://dc.lft.to/lastmile_qr_scan", "android": "https://dc.lft.to/lastmile_qr_scan"}, "is_reserved": 0}, {"lon": -77.03194783333333, "bike_id": "4f238586bfcf46b6df56ebc985972789", "lat": 38.91580483333333, "fusion_lon": 0.0, "fusion_lat": 0.0, "type": "electric_scooter", "name": "4f238586bfcf46b6df56ebc985972789", "is_disabled": 0, "rental_uris": {"ios": "https://dc.lft.to/lastmile_qr_scan", "android": "https://dc.lft.to/lastmile_qr_scan"}, "is_reserved": 0}, {"lon": -77.0221155, "bike_id": "03d1fa2ccf086ed7b48b9024ff1c102f", "lat": 38.88729566666667, "fusion_lon": 0.0, "fusion_lat": 0.0, "type": "electric_scooter", "name": "03d1fa2ccf086ed7b48b9024ff1c102f", "is_disabled": 0, "rental_uris": {"ios": "https://dc.lft.to/lastmile_qr_scan", "android": "https://dc.lft.to/lastmile_qr_scan"}, "is_reserved": 0}, {"lon": -77.04180716666667, "bike_id": "0d8936f71e4c21c99659f348a5c3f659", "lat": 38.91972783333333, "fusion_lon": 0.0, "fusion_lat": 0.0, "type": "electric_scooter", "name": "0d8936f71e4c21c99659f348a5c3f659", "is_disabled": 0, "rental_uris": {"ios": "https://dc.lft.to/lastmile_qr_scan", "android": "https://dc.lft.to/lastmile_qr_scan"}, "is_reserved": 0}, {"lon": -77.02570366666667, "bike_id": "5d9d0ff804e627b374af2b095c5cb2a3", "lat": 38.8830135, "fusion_lon": 0.0, "fusion_lat": 0.0, "type": "electric_scooter", "name": "5d9d0ff804e627b374af2b095c5cb2a3", "is_disabled": 0, "rental_uris": {"ios": "https://dc.lft.to/lastmile_qr_scan", "android": "https://dc.lft.to/lastmile_qr_scan"}, "is_reserved": 0}, {"lon": -77.03292316666666, "bike_id": "c6f6bec68aae5d513a6943c8374cde89", "lat": 38.95649183333333, "fusion_lon": 0.0, "fusion_lat": 0.0, "type": "electric_scooter", "name": "c6f6bec68aae5d513a6943c8374cde89", "is_disabled": 0, "rental_uris": {"ios": "https://dc.lft.to/lastmile_qr_scan", "android": "https://dc.lft.to/lastmile_qr_scan"}, "is_reserved": 0}, {"lon": -77.0239855, "bike_id": "96bf224159a38579bf161f95e43f221d", "lat": 38.88127, "fusion_lon": 0.0, "fusion_lat": 0.0, "type": "electric_scooter", "name": "96bf224159a38579bf161f95e43f221d", "is_disabled": 0, "rental_uris": {"ios": "https://dc.lft.to/lastmile_qr_scan", "android": "https://dc.lft.to/lastmile_qr_scan"}, "is_reserved": 0}, {"lon": -76.9733175, "bike_id": "d2c96725c37714ed8f89b9804b86a4fb", "lat": 38.90479933333334, "fusion_lon": 0.0, "fusion_lat": 0.0, "type": "electric_bike", "name": "d2c96725c37714ed8f89b9804b86a4fb", "is_disabled": 0, "rental_uris": {"ios": "https://dc.lft.to/lastmile_qr_scan", "android": "https://dc.lft.to/lastmile_qr_scan"}, "is_reserved": 0}, {"lon": -77.03988433333333, "bike_id": "792984e920264c4d427e1f08e67532d6", "lat": 38.93339483333333, "fusion_lon": 0.0, "fusion_lat": 0.0, "type": "electric_scooter", "name": "792984e920264c4d427e1f08e67532d6", "is_disabled": 0, "rental_uris": {"ios": "https://dc.lft.to/lastmile_qr_scan", "android": "https://dc.lft.to/lastmile_qr_scan"}, "is_reserved": 0}, {"lon": -77.011881, "bike_id": "f7899e9fb714066b2e323ebfd0aa92fc", "lat": 38.900367833333334, "fusion_lon": 0.0, "fusion_lat": 0.0, "type": "electric_scooter", "name": "f7899e9fb714066b2e323ebfd0aa92fc", "is_disabled": 0, "rental_uris": {"ios": "https://dc.lft.to/lastmile_qr_scan", "android": "https://dc.lft.to/lastmile_qr_scan"}, "is_reserved": 0}, {"lon": -77.0161555, "bike_id": "4fddd46fa761f223ff688dbcfb5ba6f4", "lat": 38.89966533333333, "fusion_lon": 0.0, "fusion_lat": 0.0, "type": "electric_scooter", "name": "4fddd46fa761f223ff688dbcfb5ba6f4", "is_disabled": 0, "rental_uris": {"ios": "https://dc.lft.to/lastmile_qr_scan", "android": "https://dc.lft.to/lastmile_qr_scan"}, "is_reserved": 0}, {"lon": -77.048553, "bike_id": "1859e66bc86c365ffd0dca466c2088b3", "lat": 38.915186166666665, "fusion_lon": 0.0, "fusion_lat": 0.0, "type": "electric_scooter", "name": "1859e66bc86c365ffd0dca466c2088b3", "is_disabled": 0, "rental_uris": {"ios": "https://dc.lft.to/lastmile_qr_scan", "android": "https://dc.lft.to/lastmile_qr_scan"}, "is_reserved": 0}, {"lon": -77.0417, "bike_id": "b3a60bb4a996925b080f1b09335dc125", "lat": 38.91249233333333, "fusion_lon": 0.0, "fusion_lat": 0.0, "type": "electric_scooter", "name": "b3a60bb4a996925b080f1b09335dc125", "is_disabled": 0, "rental_uris": {"ios": "https://dc.lft.to/lastmile_qr_scan", "android": "https://dc.lft.to/lastmile_qr_scan"}, "is_reserved": 0}, {"lon": -76.930635, "bike_id": "eb3d7e9ac04c830136d9706f2a4dc2de", "lat": 38.901544, "fusion_lon": 0.0, "fusion_lat": 0.0, "type": "electric_scooter", "name": "eb3d7e9ac04c830136d9706f2a4dc2de", "is_disabled": 0, "rental_uris": {"ios": "https://dc.lft.to/lastmile_qr_scan", "android": "https://dc.lft.to/lastmile_qr_scan"}, "is_reserved": 0}, {"lon": -76.99020133333333, "bike_id": "43b35ff3ed53d7d3b224bf06ba71188a", "lat": 38.866452, "fusion_lon": 0.0, "fusion_lat": 0.0, "type": "electric_scooter", "name": "43b35ff3ed53d7d3b224bf06ba71188a", "is_disabled": 0, "rental_uris": {"ios": "https://dc.lft.to/lastmile_qr_scan", "android": "https://dc.lft.to/lastmile_qr_scan"}, "is_reserved": 0}, {"lon": -77.029697, "bike_id": "3258b23a07486bdd92695db6fd079c64", "lat": 38.916812666666665, "fusion_lon": 0.0, "fusion_lat": 0.0, "type": "electric_scooter", "name": "3258b23a07486bdd92695db6fd079c64", "is_disabled": 0, "rental_uris": {"ios": "https://dc.lft.to/lastmile_qr_scan", "android": "https://dc.lft.to/lastmile_qr_scan"}, "is_reserved": 0}, {"lon": -77.0330105, "bike_id": "967c1c200c4500c838f24cd691e2c2f4", "lat": 38.92549233333333, "fusion_lon": 0.0, "fusion_lat": 0.0, "type": "electric_scooter", "name": "967c1c200c4500c838f24cd691e2c2f4", "is_disabled": 0, "rental_uris": {"ios": "https://dc.lft.to/lastmile_qr_scan", "android": "https://dc.lft.to/lastmile_qr_scan"}, "is_reserved": 0}, {"lon": -77.0477395, "bike_id": "233b30ba7b3c5991d263ff6b5f678524", "lat": 38.921425166666666, "fusion_lon": 0.0, "fusion_lat": 0.0, "type": "electric_scooter", "name": "233b30ba7b3c5991d263ff6b5f678524", "is_disabled": 0, "rental_uris": {"ios": "https://dc.lft.to/lastmile_qr_scan", "android": "https://dc.lft.to/lastmile_qr_scan"}, "is_reserved": 0}, {"lon": -77.00922216666666, "bike_id": "30b6b167f296ea54a050b5f1002fc0aa", "lat": 38.89978083333333, "fusion_lon": 0.0, "fusion_lat": 0.0, "type": "electric_scooter", "name": "30b6b167f296ea54a050b5f1002fc0aa", "is_disabled": 0, "rental_uris": {"ios": "https://dc.lft.to/lastmile_qr_scan", "android": "https://dc.lft.to/lastmile_qr_scan"}, "is_reserved": 0}, {"lon": -77.02549016666667, "bike_id": "766514178195e9c821b9af852a56bcbe", "lat": 38.99292466666667, "fusion_lon": 0.0, "fusion_lat": 0.0, "type": "electric_bike", "name": "766514178195e9c821b9af852a56bcbe", "is_disabled": 0, "rental_uris": {"ios": "https://dc.lft.to/lastmile_qr_scan", "android": "https://dc.lft.to/lastmile_qr_scan"}, "is_reserved": 0}, {"lon": -77.01944333333333, "bike_id": "8bd3008a5dc8fcd08f3f9be4faec123a", "lat": 38.9368915, "fusion_lon": 0.0, "fusion_lat": 0.0, "type": "electric_scooter", "name": "8bd3008a5dc8fcd08f3f9be4faec123a", "is_disabled": 0, "rental_uris": {"ios": "https://dc.lft.to/lastmile_qr_scan", "android": "https://dc.lft.to/lastmile_qr_scan"}, "is_reserved": 0}, {"lon": -77.021172, "bike_id": "cbce3512c3c4c71a7049b9639147ba2a", "lat": 38.915871333333335, "fusion_lon": 0.0, "fusion_lat": 0.0, "type": "electric_scooter", "name": "cbce3512c3c4c71a7049b9639147ba2a", "is_disabled": 0, "rental_uris": {"ios": "https://dc.lft.to/lastmile_qr_scan", "android": "https://dc.lft.to/lastmile_qr_scan"}, "is_reserved": 0}, {"lon": -76.9763325, "bike_id": "0443d08bc141509865f7c00f913b1c12", "lat": 38.905743666666666, "fusion_lon": 0.0, "fusion_lat": 0.0, "type": "electric_scooter", "name": "0443d08bc141509865f7c00f913b1c12", "is_disabled": 0, "rental_uris": {"ios": "https://dc.lft.to/lastmile_qr_scan", "android": "https://dc.lft.to/lastmile_qr_scan"}, "is_reserved": 0}, {"lon": -77.038243, "bike_id": "20cd88610d1cca47b5bca3393c58af9e", "lat": 38.9103995, "fusion_lon": 0.0, "fusion_lat": 0.0, "type": "electric_scooter", "name": "20cd88610d1cca47b5bca3393c58af9e", "is_disabled": 0, "rental_uris": {"ios": "https://dc.lft.to/lastmile_qr_scan", "android": "https://dc.lft.to/lastmile_qr_scan"}, "is_reserved": 0}, {"lon": -77.1084115, "bike_id": "f062d87062bade8086b729a69e1ef351", "lat": 38.8120405, "fusion_lon": 0.0, "fusion_lat": 0.0, "type": "electric_bike", "name": "f062d87062bade8086b729a69e1ef351", "is_disabled": 0, "rental_uris": {"ios": "https://dc.lft.to/lastmile_qr_scan", "android": "https://dc.lft.to/lastmile_qr_scan"}, "is_reserved": 0}, {"lon": -76.98086916666666, "bike_id": "922d7c398155a0e78b39eed4354ec56f", "lat": 38.90709583333334, "fusion_lon": 0.0, "fusion_lat": 0.0, "type": "electric_scooter", "name": "922d7c398155a0e78b39eed4354ec56f", "is_disabled": 0, "rental_uris": {"ios": "https://dc.lft.to/lastmile_qr_scan", "android": "https://dc.lft.to/lastmile_qr_scan"}, "is_reserved": 0}, {"lon": -77.02704266666667, "bike_id": "7bcbeaeedcb995b29173706e89ffbcda", "lat": 38.906222666666665, "fusion_lon": 0.0, "fusion_lat": 0.0, "type": "electric_scooter", "name": "7bcbeaeedcb995b29173706e89ffbcda", "is_disabled": 0, "rental_uris": {"ios": "https://dc.lft.to/lastmile_qr_scan", "android": "https://dc.lft.to/lastmile_qr_scan"}, "is_reserved": 0}, {"lon": -77.04338016666667, "bike_id": "bc1135312885ef1a7e938c44af9c2738", "lat": 38.91108416666667, "fusion_lon": 0.0, "fusion_lat": 0.0, "type": "electric_scooter", "name": "bc1135312885ef1a7e938c44af9c2738", "is_disabled": 0, "rental_uris": {"ios": "https://dc.lft.to/lastmile_qr_scan", "android": "https://dc.lft.to/lastmile_qr_scan"}, "is_reserved": 0}, {"lon": -77.02551533333333, "bike_id": "43f1daadbef930c64ac730a75c5db21e", "lat": 38.93092383333333, "fusion_lon": 0.0, "fusion_lat": 0.0, "type": "electric_scooter", "name": "43f1daadbef930c64ac730a75c5db21e", "is_disabled": 0, "rental_uris": {"ios": "https://dc.lft.to/lastmile_qr_scan", "android": "https://dc.lft.to/lastmile_qr_scan"}, "is_reserved": 0}, {"lon": -77.03944283333334, "bike_id": "b70bbedfd36b53a7d5e77b3ef72dce27", "lat": 38.898817, "fusion_lon": 0.0, "fusion_lat": 0.0, "type": "electric_scooter", "name": "b70bbedfd36b53a7d5e77b3ef72dce27", "is_disabled": 0, "rental_uris": {"ios": "https://dc.lft.to/lastmile_qr_scan", "android": "https://dc.lft.to/lastmile_qr_scan"}, "is_reserved": 0}, {"lon": -77.02774833333334, "bike_id": "62a92b1cc6312c93575e9c3e98243bc6", "lat": 38.930062166666666, "fusion_lon": 0.0, "fusion_lat": 0.0, "type": "electric_scooter", "name": "62a92b1cc6312c93575e9c3e98243bc6", "is_disabled": 0, "rental_uris": {"ios": "https://dc.lft.to/lastmile_qr_scan", "android": "https://dc.lft.to/lastmile_qr_scan"}, "is_reserved": 0}, {"lon": -76.99004066666667, "bike_id": "920885cc85ab9ede93af3b690ab28bf4", "lat": 38.86508383333333, "fusion_lon": 0.0, "fusion_lat": 0.0, "type": "electric_scooter", "name": "920885cc85ab9ede93af3b690ab28bf4", "is_disabled": 0, "rental_uris": {"ios": "https://dc.lft.to/lastmile_qr_scan", "android": "https://dc.lft.to/lastmile_qr_scan"}, "is_reserved": 0}, {"lon": -77.02845083333334, "bike_id": "02d01b2e3f4353b68cafcc37a77710bf", "lat": 38.893661, "fusion_lon": 0.0, "fusion_lat": 0.0, "type": "electric_scooter", "name": "02d01b2e3f4353b68cafcc37a77710bf", "is_disabled": 0, "rental_uris": {"ios": "https://dc.lft.to/lastmile_qr_scan", "android": "https://dc.lft.to/lastmile_qr_scan"}, "is_reserved": 0}, {"lon": -77.03677216666667, "bike_id": "8ae9732e8fc8b068c5af81ac0302ad68", "lat": 38.9167545, "fusion_lon": 0.0, "fusion_lat": 0.0, "type": "electric_scooter", "name": "8ae9732e8fc8b068c5af81ac0302ad68", "is_disabled": 0, "rental_uris": {"ios": "https://dc.lft.to/lastmile_qr_scan", "android": "https://dc.lft.to/lastmile_qr_scan"}, "is_reserved": 0}, {"lon": -77.02376866666667, "bike_id": "ffe64d4f36f30dd8c35c38e992eb33a8", "lat": 38.9020205, "fusion_lon": 0.0, "fusion_lat": 0.0, "type": "electric_scooter", "name": "ffe64d4f36f30dd8c35c38e992eb33a8", "is_disabled": 0, "rental_uris": {"ios": "https://dc.lft.to/lastmile_qr_scan", "android": "https://dc.lft.to/lastmile_qr_scan"}, "is_reserved": 0}, {"lon": -76.98901683333334, "bike_id": "5f6b96d707f7bda1e7e0c0648cbccb1b", "lat": 38.86662783333333, "fusion_lon": 0.0, "fusion_lat": 0.0, "type": "electric_scooter", "name": "5f6b96d707f7bda1e7e0c0648cbccb1b", "is_disabled": 0, "rental_uris": {"ios": "https://dc.lft.to/lastmile_qr_scan", "android": "https://dc.lft.to/lastmile_qr_scan"}, "is_reserved": 0}, {"lon": -77.0434865, "bike_id": "ac12db800d03361361d7dc1d286177e0", "lat": 38.90241483333333, "fusion_lon": 0.0, "fusion_lat": 0.0, "type": "electric_scooter", "name": "ac12db800d03361361d7dc1d286177e0", "is_disabled": 0, "rental_uris": {"ios": "https://dc.lft.to/lastmile_qr_scan", "android": "https://dc.lft.to/lastmile_qr_scan"}, "is_reserved": 0}, {"lon": -77.03948616666666, "bike_id": "a614e509ef6cbea57eb7277c5d495eaf", "lat": 38.89888716666667, "fusion_lon": 0.0, "fusion_lat": 0.0, "type": "electric_scooter", "name": "a614e509ef6cbea57eb7277c5d495eaf", "is_disabled": 0, "rental_uris": {"ios": "https://dc.lft.to/lastmile_qr_scan", "android": "https://dc.lft.to/lastmile_qr_scan"}, "is_reserved": 0}, {"lon": -77.0317915, "bike_id": "0a469db6ef483a4239f6aedb560406ac", "lat": 38.891973166666666, "fusion_lon": 0.0, "fusion_lat": 0.0, "type": "electric_scooter", "name": "0a469db6ef483a4239f6aedb560406ac", "is_disabled": 0, "rental_uris": {"ios": "https://dc.lft.to/lastmile_qr_scan", "android": "https://dc.lft.to/lastmile_qr_scan"}, "is_reserved": 0}, {"lon": -77.04665283333334, "bike_id": "5d89d08dcfa9035b6fe14f5ac14d6990", "lat": 38.904199166666665, "fusion_lon": 0.0, "fusion_lat": 0.0, "type": "electric_scooter", "name": "5d89d08dcfa9035b6fe14f5ac14d6990", "is_disabled": 0, "rental_uris": {"ios": "https://dc.lft.to/lastmile_qr_scan", "android": "https://dc.lft.to/lastmile_qr_scan"}, "is_reserved": 0}, {"lon": -77.04269633333334, "bike_id": "c3b9ca57dbb74f679009381e8ce5de9b", "lat": 38.89991233333333, "fusion_lon": 0.0, "fusion_lat": 0.0, "type": "electric_scooter", "name": "c3b9ca57dbb74f679009381e8ce5de9b", "is_disabled": 0, "rental_uris": {"ios": "https://dc.lft.to/lastmile_qr_scan", "android": "https://dc.lft.to/lastmile_qr_scan"}, "is_reserved": 0}, {"lon": -77.04702933333333, "bike_id": "3e5ca2370f873ba8e08de8abeede3b8c", "lat": 38.92132316666667, "fusion_lon": 0.0, "fusion_lat": 0.0, "type": "electric_scooter", "name": "3e5ca2370f873ba8e08de8abeede3b8c", "is_disabled": 0, "rental_uris": {"ios": "https://dc.lft.to/lastmile_qr_scan", "android": "https://dc.lft.to/lastmile_qr_scan"}, "is_reserved": 0}, {"lon": -77.05149966666667, "bike_id": "eb575c2909089838b88d87d5c1a9d143", "lat": 38.92372233333333, "fusion_lon": 0.0, "fusion_lat": 0.0, "type": "electric_scooter", "name": "eb575c2909089838b88d87d5c1a9d143", "is_disabled": 0, "rental_uris": {"ios": "https://dc.lft.to/lastmile_qr_scan", "android": "https://dc.lft.to/lastmile_qr_scan"}, "is_reserved": 0}, {"lon": -77.03375883333334, "bike_id": "11c56bb2c7465a41b6e1acee39af6c87", "lat": 38.899849833333334, "fusion_lon": 0.0, "fusion_lat": 0.0, "type": "electric_scooter", "name": "11c56bb2c7465a41b6e1acee39af6c87", "is_disabled": 0, "rental_uris": {"ios": "https://dc.lft.to/lastmile_qr_scan", "android": "https://dc.lft.to/lastmile_qr_scan"}, "is_reserved": 0}, {"lon": -77.0222425, "bike_id": "35a9c444e7d13e99238ce0605b549e33", "lat": 38.924812333333335, "fusion_lon": 0.0, "fusion_lat": 0.0, "type": "electric_scooter", "name": "35a9c444e7d13e99238ce0605b549e33", "is_disabled": 0, "rental_uris": {"ios": "https://dc.lft.to/lastmile_qr_scan", "android": "https://dc.lft.to/lastmile_qr_scan"}, "is_reserved": 0}, {"lon": -77.0298305, "bike_id": "a6b371f8cee835cfe01cb811704e0a32", "lat": 38.90722566666667, "fusion_lon": 0.0, "fusion_lat": 0.0, "type": "electric_scooter", "name": "a6b371f8cee835cfe01cb811704e0a32", "is_disabled": 0, "rental_uris": {"ios": "https://dc.lft.to/lastmile_qr_scan", "android": "https://dc.lft.to/lastmile_qr_scan"}, "is_reserved": 0}, {"lon": -77.03387233333333, "bike_id": "cf4a028926c95e36efbe3f96050e7d41", "lat": 38.90268183333333, "fusion_lon": 0.0, "fusion_lat": 0.0, "type": "electric_scooter", "name": "cf4a028926c95e36efbe3f96050e7d41", "is_disabled": 0, "rental_uris": {"ios": "https://dc.lft.to/lastmile_qr_scan", "android": "https://dc.lft.to/lastmile_qr_scan"}, "is_reserved": 0}, {"lon": -77.02648266666667, "bike_id": "64cfbac4b61398b5bcc23f29d6720a9e", "lat": 38.90267566666667, "fusion_lon": 0.0, "fusion_lat": 0.0, "type": "electric_scooter", "name": "64cfbac4b61398b5bcc23f29d6720a9e", "is_disabled": 0, "rental_uris": {"ios": "https://dc.lft.to/lastmile_qr_scan", "android": "https://dc.lft.to/lastmile_qr_scan"}, "is_reserved": 0}, {"lon": -77.0019645, "bike_id": "85b33c643ae8a42a1cee4c28aa9923db", "lat": 38.900408166666665, "fusion_lon": 0.0, "fusion_lat": 0.0, "type": "electric_scooter", "name": "85b33c643ae8a42a1cee4c28aa9923db", "is_disabled": 0, "rental_uris": {"ios": "https://dc.lft.to/lastmile_qr_scan", "android": "https://dc.lft.to/lastmile_qr_scan"}, "is_reserved": 0}, {"lon": -77.0480735, "bike_id": "a772a2a993f1284b62d354750a1a256b", "lat": 38.914072166666664, "fusion_lon": 0.0, "fusion_lat": 0.0, "type": "electric_scooter", "name": "a772a2a993f1284b62d354750a1a256b", "is_disabled": 0, "rental_uris": {"ios": "https://dc.lft.to/lastmile_qr_scan", "android": "https://dc.lft.to/lastmile_qr_scan"}, "is_reserved": 0}, {"lon": -76.98239233333334, "bike_id": "89581e9163c2548b023de0eb1da91977", "lat": 38.888634833333334, "fusion_lon": 0.0, "fusion_lat": 0.0, "type": "electric_scooter", "name": "89581e9163c2548b023de0eb1da91977", "is_disabled": 0, "rental_uris": {"ios": "https://dc.lft.to/lastmile_qr_scan", "android": "https://dc.lft.to/lastmile_qr_scan"}, "is_reserved": 0}, {"lon": -77.0306165, "bike_id": "f78c3e4b13ce436bad8b3d655ae7ab7c", "lat": 38.90797333333333, "fusion_lon": 0.0, "fusion_lat": 0.0, "type": "electric_scooter", "name": "f78c3e4b13ce436bad8b3d655ae7ab7c", "is_disabled": 0, "rental_uris": {"ios": "https://dc.lft.to/lastmile_qr_scan", "android": "https://dc.lft.to/lastmile_qr_scan"}, "is_reserved": 0}, {"lon": -77.04182966666667, "bike_id": "0a4d95a97c2c992ebd7647e4293ae6c1", "lat": 38.892243666666666, "fusion_lon": 0.0, "fusion_lat": 0.0, "type": "electric_scooter", "name": "0a4d95a97c2c992ebd7647e4293ae6c1", "is_disabled": 0, "rental_uris": {"ios": "https://dc.lft.to/lastmile_qr_scan", "android": "https://dc.lft.to/lastmile_qr_scan"}, "is_reserved": 0}, {"lon": -77.03830516666666, "bike_id": "d807949d6d1c8b4deac0cbaf937813a0", "lat": 38.91266383333333, "fusion_lon": 0.0, "fusion_lat": 0.0, "type": "electric_scooter", "name": "d807949d6d1c8b4deac0cbaf937813a0", "is_disabled": 0, "rental_uris": {"ios": "https://dc.lft.to/lastmile_qr_scan", "android": "https://dc.lft.to/lastmile_qr_scan"}, "is_reserved": 0}, {"lon": -77.0178115, "bike_id": "512018311f9a52f0a930d8549aded794", "lat": 38.8859765, "fusion_lon": 0.0, "fusion_lat": 0.0, "type": "electric_scooter", "name": "512018311f9a52f0a930d8549aded794", "is_disabled": 0, "rental_uris": {"ios": "https://dc.lft.to/lastmile_qr_scan", "android": "https://dc.lft.to/lastmile_qr_scan"}, "is_reserved": 0}, {"lon": -77.04166983333333, "bike_id": "d7b5cb177d85fb6b8cf9f4e3ba8bf0ed", "lat": 38.912476, "fusion_lon": 0.0, "fusion_lat": 0.0, "type": "electric_scooter", "name": "d7b5cb177d85fb6b8cf9f4e3ba8bf0ed", "is_disabled": 0, "rental_uris": {"ios": "https://dc.lft.to/lastmile_qr_scan", "android": "https://dc.lft.to/lastmile_qr_scan"}, "is_reserved": 0}, {"lon": -77.02215916666667, "bike_id": "5ce4c7cd077b6387b7f47d0c3dd727ad", "lat": 38.8876765, "fusion_lon": 0.0, "fusion_lat": 0.0, "type": "electric_scooter", "name": "5ce4c7cd077b6387b7f47d0c3dd727ad", "is_disabled": 0, "rental_uris": {"ios": "https://dc.lft.to/lastmile_qr_scan", "android": "https://dc.lft.to/lastmile_qr_scan"}, "is_reserved": 0}, {"lon": -77.02446816666667, "bike_id": "74c47027a30a52d87a10dc5fa5f53407", "lat": 38.884291833333336, "fusion_lon": 0.0, "fusion_lat": 0.0, "type": "electric_scooter", "name": "74c47027a30a52d87a10dc5fa5f53407", "is_disabled": 0, "rental_uris": {"ios": "https://dc.lft.to/lastmile_qr_scan", "android": "https://dc.lft.to/lastmile_qr_scan"}, "is_reserved": 0}, {"lon": -77.03212316666666, "bike_id": "5d8c8c138aab2aca01fd122bcc5187e1", "lat": 38.912442, "fusion_lon": 0.0, "fusion_lat": 0.0, "type": "electric_scooter", "name": "5d8c8c138aab2aca01fd122bcc5187e1", "is_disabled": 0, "rental_uris": {"ios": "https://dc.lft.to/lastmile_qr_scan", "android": "https://dc.lft.to/lastmile_qr_scan"}, "is_reserved": 0}, {"lon": -77.027196, "bike_id": "33a1026baff39857229b0c2ecb841706", "lat": 38.909515, "fusion_lon": 0.0, "fusion_lat": 0.0, "type": "electric_scooter", "name": "33a1026baff39857229b0c2ecb841706", "is_disabled": 0, "rental_uris": {"ios": "https://dc.lft.to/lastmile_qr_scan", "android": "https://dc.lft.to/lastmile_qr_scan"}, "is_reserved": 0}, {"lon": -77.0231575, "bike_id": "8eba2c410207214669b1e6c3fb65e585", "lat": 38.89473683333333, "fusion_lon": 0.0, "fusion_lat": 0.0, "type": "electric_scooter", "name": "8eba2c410207214669b1e6c3fb65e585", "is_disabled": 0, "rental_uris": {"ios": "https://dc.lft.to/lastmile_qr_scan", "android": "https://dc.lft.to/lastmile_qr_scan"}, "is_reserved": 0}, {"lon": -77.02176266666666, "bike_id": "ddbab7de979a045bd0c666c117773efd", "lat": 38.909791, "fusion_lon": 0.0, "fusion_lat": 0.0, "type": "electric_scooter", "name": "ddbab7de979a045bd0c666c117773efd", "is_disabled": 0, "rental_uris": {"ios": "https://dc.lft.to/lastmile_qr_scan", "android": "https://dc.lft.to/lastmile_qr_scan"}, "is_reserved": 0}, {"lon": -77.0220445, "bike_id": "c2bcdc39030fe9327e04b8a1e78b8dc1", "lat": 38.903879833333335, "fusion_lon": 0.0, "fusion_lat": 0.0, "type": "electric_scooter", "name": "c2bcdc39030fe9327e04b8a1e78b8dc1", "is_disabled": 0, "rental_uris": {"ios": "https://dc.lft.to/lastmile_qr_scan", "android": "https://dc.lft.to/lastmile_qr_scan"}, "is_reserved": 0}, {"lon": -77.076226, "bike_id": "0472229c936ff47e811330260c9ad8c9", "lat": 38.96577533333333, "fusion_lon": 0.0, "fusion_lat": 0.0, "type": "electric_bike", "name": "0472229c936ff47e811330260c9ad8c9", "is_disabled": 0, "rental_uris": {"ios": "https://dc.lft.to/lastmile_qr_scan", "android": "https://dc.lft.to/lastmile_qr_scan"}, "is_reserved": 0}, {"lon": -76.9575145, "bike_id": "a72229fe611aaedab406912359f9ebd9", "lat": 38.88428966666667, "fusion_lon": 0.0, "fusion_lat": 0.0, "type": "electric_scooter", "name": "a72229fe611aaedab406912359f9ebd9", "is_disabled": 0, "rental_uris": {"ios": "https://dc.lft.to/lastmile_qr_scan", "android": "https://dc.lft.to/lastmile_qr_scan"}, "is_reserved": 0}, {"lon": -77.030847, "bike_id": "43da1fc3964d24d3d3d9c4c29a3432a3", "lat": 38.9200925, "fusion_lon": 0.0, "fusion_lat": 0.0, "type": "electric_scooter", "name": "43da1fc3964d24d3d3d9c4c29a3432a3", "is_disabled": 0, "rental_uris": {"ios": "https://dc.lft.to/lastmile_qr_scan", "android": "https://dc.lft.to/lastmile_qr_scan"}, "is_reserved": 0}, {"lon": -77.02128933333333, "bike_id": "f71ad2f4455d40d0e4cd0707b0f108e4", "lat": 38.89715233333333, "fusion_lon": 0.0, "fusion_lat": 0.0, "type": "electric_scooter", "name": "f71ad2f4455d40d0e4cd0707b0f108e4", "is_disabled": 0, "rental_uris": {"ios": "https://dc.lft.to/lastmile_qr_scan", "android": "https://dc.lft.to/lastmile_qr_scan"}, "is_reserved": 0}, {"lon": -77.11709966666666, "bike_id": "21d1e8eab4ec0d554bb7c80a52d0229f", "lat": 38.86744016666667, "fusion_lon": 0.0, "fusion_lat": 0.0, "type": "electric_bike", "name": "21d1e8eab4ec0d554bb7c80a52d0229f", "is_disabled": 0, "rental_uris": {"ios": "https://dc.lft.to/lastmile_qr_scan", "android": "https://dc.lft.to/lastmile_qr_scan"}, "is_reserved": 0}, {"lon": -77.0419435, "bike_id": "7fbef8d65624368f3acfc059149cfac0", "lat": 38.89988433333333, "fusion_lon": 0.0, "fusion_lat": 0.0, "type": "electric_scooter", "name": "7fbef8d65624368f3acfc059149cfac0", "is_disabled": 0, "rental_uris": {"ios": "https://dc.lft.to/lastmile_qr_scan", "android": "https://dc.lft.to/lastmile_qr_scan"}, "is_reserved": 0}, {"lon": -76.997948, "bike_id": "a3463fda7d82af3c625e335952381772", "lat": 38.829112, "fusion_lon": 0.0, "fusion_lat": 0.0, "type": "electric_bike", "name": "a3463fda7d82af3c625e335952381772", "is_disabled": 0, "rental_uris": {"ios": "https://dc.lft.to/lastmile_qr_scan", "android": "https://dc.lft.to/lastmile_qr_scan"}, "is_reserved": 0}, {"lon": -77.03610683333333, "bike_id": "15f051f281b448375f127f26dc01f32c", "lat": 38.93682033333333, "fusion_lon": 0.0, "fusion_lat": 0.0, "type": "electric_scooter", "name": "15f051f281b448375f127f26dc01f32c", "is_disabled": 0, "rental_uris": {"ios": "https://dc.lft.to/lastmile_qr_scan", "android": "https://dc.lft.to/lastmile_qr_scan"}, "is_reserved": 0}, {"lon": -77.03434633333333, "bike_id": "f25843756bb8ce4ea1661a187ffa4a01", "lat": 38.96536566666666, "fusion_lon": 0.0, "fusion_lat": 0.0, "type": "electric_bike", "name": "f25843756bb8ce4ea1661a187ffa4a01", "is_disabled": 0, "rental_uris": {"ios": "https://dc.lft.to/lastmile_qr_scan", "android": "https://dc.lft.to/lastmile_qr_scan"}, "is_reserved": 0}, {"lon": -77.03020716666667, "bike_id": "2ac2eda3f12650b81270106cfc833c21", "lat": 38.88440933333333, "fusion_lon": 0.0, "fusion_lat": 0.0, "type": "electric_scooter", "name": "2ac2eda3f12650b81270106cfc833c21", "is_disabled": 0, "rental_uris": {"ios": "https://dc.lft.to/lastmile_qr_scan", "android": "https://dc.lft.to/lastmile_qr_scan"}, "is_reserved": 0}, {"lon": -77.022116, "bike_id": "828ffda335b42de6000face60a6dc234", "lat": 38.912717, "fusion_lon": 0.0, "fusion_lat": 0.0, "type": "electric_scooter", "name": "828ffda335b42de6000face60a6dc234", "is_disabled": 0, "rental_uris": {"ios": "https://dc.lft.to/lastmile_qr_scan", "android": "https://dc.lft.to/lastmile_qr_scan"}, "is_reserved": 0}, {"lon": -77.03207383333333, "bike_id": "5f3abd79bac22d24849d9c3a07537f21", "lat": 38.906975, "fusion_lon": 0.0, "fusion_lat": 0.0, "type": "electric_scooter", "name": "5f3abd79bac22d24849d9c3a07537f21", "is_disabled": 0, "rental_uris": {"ios": "https://dc.lft.to/lastmile_qr_scan", "android": "https://dc.lft.to/lastmile_qr_scan"}, "is_reserved": 0}, {"lon": -77.03557683333334, "bike_id": "b445edf3edb72b585f992b803ecbfd48", "lat": 38.908171333333335, "fusion_lon": 0.0, "fusion_lat": 0.0, "type": "electric_scooter", "name": "b445edf3edb72b585f992b803ecbfd48", "is_disabled": 0, "rental_uris": {"ios": "https://dc.lft.to/lastmile_qr_scan", "android": "https://dc.lft.to/lastmile_qr_scan"}, "is_reserved": 0}, {"lon": -77.0258335, "bike_id": "df9eb6090c1866598462025d60a507f9", "lat": 38.90354116666666, "fusion_lon": 0.0, "fusion_lat": 0.0, "type": "electric_scooter", "name": "df9eb6090c1866598462025d60a507f9", "is_disabled": 0, "rental_uris": {"ios": "https://dc.lft.to/lastmile_qr_scan", "android": "https://dc.lft.to/lastmile_qr_scan"}, "is_reserved": 0}, {"lon": -77.04871533333333, "bike_id": "1fb066308ea5ad9b78d2f1fcb0900e08", "lat": 38.913357166666664, "fusion_lon": 0.0, "fusion_lat": 0.0, "type": "electric_scooter", "name": "1fb066308ea5ad9b78d2f1fcb0900e08", "is_disabled": 0, "rental_uris": {"ios": "https://dc.lft.to/lastmile_qr_scan", "android": "https://dc.lft.to/lastmile_qr_scan"}, "is_reserved": 0}, {"lon": -77.0251145, "bike_id": "53e4d3e42dab8ab659f0e2b0c0c7348e", "lat": 38.920497833333336, "fusion_lon": 0.0, "fusion_lat": 0.0, "type": "electric_scooter", "name": "53e4d3e42dab8ab659f0e2b0c0c7348e", "is_disabled": 0, "rental_uris": {"ios": "https://dc.lft.to/lastmile_qr_scan", "android": "https://dc.lft.to/lastmile_qr_scan"}, "is_reserved": 0}, {"lon": -77.01740866666667, "bike_id": "3d3d2fc11b25b0aa5af1abf10f0e0b0b", "lat": 38.88743633333333, "fusion_lon": 0.0, "fusion_lat": 0.0, "type": "electric_scooter", "name": "3d3d2fc11b25b0aa5af1abf10f0e0b0b", "is_disabled": 0, "rental_uris": {"ios": "https://dc.lft.to/lastmile_qr_scan", "android": "https://dc.lft.to/lastmile_qr_scan"}, "is_reserved": 0}, {"lon": -76.98145016666666, "bike_id": "207db6fed895c6ed40b91ec2c1efb2df", "lat": 38.905665166666665, "fusion_lon": 0.0, "fusion_lat": 0.0, "type": "electric_scooter", "name": "207db6fed895c6ed40b91ec2c1efb2df", "is_disabled": 0, "rental_uris": {"ios": "https://dc.lft.to/lastmile_qr_scan", "android": "https://dc.lft.to/lastmile_qr_scan"}, "is_reserved": 0}, {"lon": -77.03445133333334, "bike_id": "0b66312c3ff5b6eb7cc7b9a345100f65", "lat": 38.90805833333334, "fusion_lon": 0.0, "fusion_lat": 0.0, "type": "electric_scooter", "name": "0b66312c3ff5b6eb7cc7b9a345100f65", "is_disabled": 0, "rental_uris": {"ios": "https://dc.lft.to/lastmile_qr_scan", "android": "https://dc.lft.to/lastmile_qr_scan"}, "is_reserved": 0}, {"lon": -77.09468616666666, "bike_id": "d87dfead73eba3456a9b66f56b256504", "lat": 38.86938766666667, "fusion_lon": 0.0, "fusion_lat": 0.0, "type": "electric_bike", "name": "d87dfead73eba3456a9b66f56b256504", "is_disabled": 0, "rental_uris": {"ios": "https://dc.lft.to/lastmile_qr_scan", "android": "https://dc.lft.to/lastmile_qr_scan"}, "is_reserved": 0}, {"lon": -77.048782, "bike_id": "bdc6ce57aa4821d1629242a6c09bde84", "lat": 38.90720833333334, "fusion_lon": 0.0, "fusion_lat": 0.0, "type": "electric_scooter", "name": "bdc6ce57aa4821d1629242a6c09bde84", "is_disabled": 0, "rental_uris": {"ios": "https://dc.lft.to/lastmile_qr_scan", "android": "https://dc.lft.to/lastmile_qr_scan"}, "is_reserved": 0}, {"lon": -77.04346233333334, "bike_id": "372cd605d4cfd198504882e19c79d2ff", "lat": 38.91214766666667, "fusion_lon": 0.0, "fusion_lat": 0.0, "type": "electric_scooter", "name": "372cd605d4cfd198504882e19c79d2ff", "is_disabled": 0, "rental_uris": {"ios": "https://dc.lft.to/lastmile_qr_scan", "android": "https://dc.lft.to/lastmile_qr_scan"}, "is_reserved": 0}, {"lon": -77.03190033333334, "bike_id": "e32e87e4428e601cdb04e72fcf2b1c32", "lat": 38.91305283333333, "fusion_lon": 0.0, "fusion_lat": 0.0, "type": "electric_scooter", "name": "e32e87e4428e601cdb04e72fcf2b1c32", "is_disabled": 0, "rental_uris": {"ios": "https://dc.lft.to/lastmile_qr_scan", "android": "https://dc.lft.to/lastmile_qr_scan"}, "is_reserved": 0}, {"lon": -77.04257766666667, "bike_id": "e317231a17dad864739cad464951a43b", "lat": 38.9002565, "fusion_lon": 0.0, "fusion_lat": 0.0, "type": "electric_scooter", "name": "e317231a17dad864739cad464951a43b", "is_disabled": 0, "rental_uris": {"ios": "https://dc.lft.to/lastmile_qr_scan", "android": "https://dc.lft.to/lastmile_qr_scan"}, "is_reserved": 0}, {"lon": -77.02225466666667, "bike_id": "2e4a9bc9a68db814bf422263b6b20b9b", "lat": 38.93550366666667, "fusion_lon": 0.0, "fusion_lat": 0.0, "type": "electric_scooter", "name": "2e4a9bc9a68db814bf422263b6b20b9b", "is_disabled": 0, "rental_uris": {"ios": "https://dc.lft.to/lastmile_qr_scan", "android": "https://dc.lft.to/lastmile_qr_scan"}, "is_reserved": 0}, {"lon": -77.1052475, "bike_id": "2b8526c0db51963fd59bfae385313735", "lat": 38.873745666666665, "fusion_lon": 0.0, "fusion_lat": 0.0, "type": "electric_bike", "name": "2b8526c0db51963fd59bfae385313735", "is_disabled": 0, "rental_uris": {"ios": "https://dc.lft.to/lastmile_qr_scan", "android": "https://dc.lft.to/lastmile_qr_scan"}, "is_reserved": 0}, {"lon": -77.03306333333333, "bike_id": "d5c103a267e0e607ef83ae1ffb0cdcc6", "lat": 38.902944, "fusion_lon": 0.0, "fusion_lat": 0.0, "type": "electric_scooter", "name": "d5c103a267e0e607ef83ae1ffb0cdcc6", "is_disabled": 0, "rental_uris": {"ios": "https://dc.lft.to/lastmile_qr_scan", "android": "https://dc.lft.to/lastmile_qr_scan"}, "is_reserved": 0},