{"data": {"bikes": [{"lat": 38.91100866666667, "fusion_lat": 0.0, "type": "electric_scooter", "bike_id": "a2456a7522b95a612539ff7eee99734c", "is_reserved": 0, "rental_uris": {"ios": "https://dc.lft.to/lastmile_qr_scan", "android": "https://dc.lft.to/lastmile_qr_scan"}, "is_disabled": 0, "lon": -77.00369566666667, "name": "a2456a7522b95a612539ff7eee99734c", "fusion_lon": 0.0}, {"lat": 38.87502383333333, "fusion_lat": 0.0, "type": "electric_scooter", "bike_id": "0200000cde7e134cedaf328610b9bc74", "is_reserved": 0, "rental_uris": {"ios": "https://dc.lft.to/lastmile_qr_scan", "android": "https://dc.lft.to/lastmile_qr_scan"}, "is_disabled": 0, "lon": -76.99977933333334, "name": "0200000cde7e134cedaf328610b9bc74", "fusion_lon": 0.0}, {"lat": 38.90129133333333, "fusion_lat": 0.0, "type": "electric_scooter", "bike_id": "501ce575f9b2d1b57d8dc6d5f7ca2cc5", "is_reserved": 0, "rental_uris": {"ios": "https://dc.lft.to/lastmile_qr_scan", "android": "https://dc.lft.to/lastmile_qr_scan"}, "is_disabled": 0, "lon": -77.04154233333334, "name": "501ce575f9b2d1b57d8dc6d5f7ca2cc5", "fusion_lon": 0.0}, {"lat": 38.916217, "fusion_lat": 0.0, "type": "electric_scooter", "bike_id": "75abe615840665624bef59fd82eb64c3", "is_reserved": 0, "rental_uris": {"ios": "https://dc.lft.to/lastmile_qr_scan", "android": "https://dc.lft.to/lastmile_qr_scan"}, "is_disabled": 0, "lon": -77.03205516666667, "name": "75abe615840665624bef59fd82eb64c3", "fusion_lon": 0.0}, {"lat": 38.87104266666667, "fusion_lat": 0.0, "type": "electric_scooter", "bike_id": "be1a509e1df22bf38b30b3c4133bb885", "is_reserved": 0, "rental_uris": {"ios": "https://dc.lft.to/lastmile_qr_scan", "android": "https://dc.lft.to/lastmile_qr_scan"}, "is_disabled": 0, "lon": -76.96571333333333, "name": "be1a509e1df22bf38b30b3c4133bb885", "fusion_lon": 0.0}, {"lat": 38.9192965, "fusion_lat": 0.0, "type": "electric_scooter", "bike_id": "d227ec370d273204bca53846881336e7", "is_reserved": 0, "rental_uris": {"ios": "https://dc.lft.to/lastmile_qr_scan", "android": "https://dc.lft.to/lastmile_qr_scan"}, "is_disabled": 0, "lon": -77.002185, "name": "d227ec370d273204bca53846881336e7", "fusion_lon": 0.0}, {"lat": 38.921603166666664, "fusion_lat": 0.0, "type": "electric_scooter", "bike_id": "2b0e52ea80e06714baaa42452558e8b3", "is_reserved": 0, "rental_uris": {"ios": "https://dc.lft.to/lastmile_qr_scan", "android": "https://dc.lft.to/lastmile_qr_scan"}, "is_disabled": 0, "lon": -77.03381883333333, "name": "2b0e52ea80e06714baaa42452558e8b3", "fusion_lon": 0.0}, {"lat": 38.86696166666667, "fusion_lat": 0.0, "type": "electric_scooter", "bike_id": "da11dad5e96b95cc2d8d3e9e2c330c76", "is_reserved": 0, "rental_uris": {"ios": "https://dc.lft.to/lastmile_qr_scan", "android": "https://dc.lft.to/lastmile_qr_scan"}, "is_disabled": 0, "lon": -76.98714683333333, "name": "da11dad5e96b95cc2d8d3e9e2c330c76", "fusion_lon": 0.0}, {"lat": 38.94086383333333, "fusion_lat": 0.0, "type": "electric_scooter", "bike_id": "568c01b6d02482f4aeb7a40ffcbfb93d", "is_reserved": 0, "rental_uris": {"ios": "https://dc.lft.to/lastmile_qr_scan", "android": "https://dc.lft.to/lastmile_qr_scan"}, "is_disabled": 0, "lon": -77.02727833333333, "name": "568c01b6d02482f4aeb7a40ffcbfb93d", "fusion_lon": 0.0}, {"lat": 38.89964483333333, "fusion_lat": 0.0, "type": "electric_scooter", "bike_id": "d368270dcafab1aa1d7083be612afa35", "is_reserved": 0, "rental_uris": {"ios": "https://dc.lft.to/lastmile_qr_scan", "android": "https://dc.lft.to/lastmile_qr_scan"}, "is_disabled": 0, "lon": -77.01620683333333, "name": "d368270dcafab1aa1d7083be612afa35", "fusion_lon": 0.0}, {"lat": 38.94795416666667, "fusion_lat": 0.0, "type": "electric_scooter", "bike_id": "135d2ac3f38b35a1b209ed7bda8a0746", "is_reserved": 0, "rental_uris": {"ios": "https://dc.lft.to/lastmile_qr_scan", "android": "https://dc.lft.to/lastmile_qr_scan"}, "is_disabled": 0, "lon": -77.08020566666667, "name": "135d2ac3f38b35a1b209ed7bda8a0746", "fusion_lon": 0.0}, {"lat": 39.05279383333333, "fusion_lat": 0.0, "type": "electric_bike", "bike_id": "831d72890e236f1e1583149460dde7c6", "is_reserved": 0, "rental_uris": {"ios": "https://dc.lft.to/lastmile_qr_scan", "android": "https://dc.lft.to/lastmile_qr_scan"}, "is_disabled": 0, "lon": -77.080694, "name": "831d72890e236f1e1583149460dde7c6", "fusion_lon": 0.0}, {"lat": 38.91485683333333, "fusion_lat": 0.0, "type": "electric_scooter", "bike_id": "b55de371dd752159c939bbd9db0071fd", "is_reserved": 0, "rental_uris": {"ios": "https://dc.lft.to/lastmile_qr_scan", "android": "https://dc.lft.to/lastmile_qr_scan"}, "is_disabled": 0, "lon": -76.98437366666667, "name": "b55de371dd752159c939bbd9db0071fd", "fusion_lon": 0.0}, {"lat": 38.915966166666664, "fusion_lat": 0.0, "type": "electric_scooter", "bike_id": "13cd5bc075ae5996ef5ece4c253f55a9", "is_reserved": 0, "rental_uris": {"ios": "https://dc.lft.to/lastmile_qr_scan", "android": "https://dc.lft.to/lastmile_qr_scan"}, "is_disabled": 0, "lon": -76.98379483333333, "name": "13cd5bc075ae5996ef5ece4c253f55a9", "fusion_lon": 0.0}, {"lat": 38.8621355, "fusion_lat": 0.0, "type": "electric_scooter", "bike_id": "ccca38a88c94caaf2499d8bb258ef4c6", "is_reserved": 0, "rental_uris": {"ios": "https://dc.lft.to/lastmile_qr_scan", "android": "https://dc.lft.to/lastmile_qr_scan"}, "is_disabled": 0, "lon": -76.994858, "name": "ccca38a88c94caaf2499d8bb258ef4c6", "fusion_lon": 0.0}, {"lat": 38.89857416666667, "fusion_lat": 0.0, "type": "electric_scooter", "bike_id": "9ea88760f556a0d91776ea8f5f79279b", "is_reserved": 0, "rental_uris": {"ios": "https://dc.lft.to/lastmile_qr_scan", "android": "https://dc.lft.to/lastmile_qr_scan"}, "is_disabled": 0, "lon": -77.0395475, "name": "9ea88760f556a0d91776ea8f5f79279b", "fusion_lon": 0.0}, {"lat": 38.84275316666667, "fusion_lat": 0.0, "type": "electric_bike", "bike_id": "800fda7d347d4e9896f9976adc576482", "is_reserved": 0, "rental_uris": {"ios": "https://dc.lft.to/lastmile_qr_scan", "android": "https://dc.lft.to/lastmile_qr_scan"}, "is_disabled": 0, "lon": -76.98842016666667, "name": "800fda7d347d4e9896f9976adc576482", "fusion_lon": 0.0}, {"lat": 38.89546266666667, "fusion_lat": 0.0, "type": "electric_scooter", "bike_id": "14867c5551a24fd0091b913b6c633cd6", "is_reserved": 0, "rental_uris": {"ios": "https://dc.lft.to/lastmile_qr_scan", "android": "https://dc.lft.to/lastmile_qr_scan"}, "is_disabled": 0, "lon": -77.0566015, "name": "14867c5551a24fd0091b913b6c633cd6", "fusion_lon": 0.0}, {"lat": 38.910867833333334, "fusion_lat": 0.0, "type": "electric_scooter", "bike_id": "1a9ec58d219366e89175863e4ecdddc9", "is_reserved": 0, "rental_uris": {"ios": "https://dc.lft.to/lastmile_qr_scan", "android": "https://dc.lft.to/lastmile_qr_scan"}, "is_disabled": 0, "lon": -77.07388383333333, "name": "1a9ec58d219366e89175863e4ecdddc9", "fusion_lon": 0.0}, {"lat": 38.89724833333333, "fusion_lat": 0.0, "type": "electric_scooter", "bike_id": "21a4a4d660502816582ab200b66a71ee", "is_reserved": 0, "rental_uris": {"ios": "https://dc.lft.to/lastmile_qr_scan", "android": "https://dc.lft.to/lastmile_qr_scan"}, "is_disabled": 0, "lon": -77.02485166666666, "name": "21a4a4d660502816582ab200b66a71ee", "fusion_lon": 0.0}, {"lat": 38.908549, "fusion_lat": 0.0, "type": "electric_scooter", "bike_id": "4f1945dda85ee1629d22af8e9e2db43c", "is_reserved": 0, "rental_uris": {"ios": "https://dc.lft.to/lastmile_qr_scan", "android": "https://dc.lft.to/lastmile_qr_scan"}, "is_disabled": 0, "lon": -77.0101835, "name": "4f1945dda85ee1629d22af8e9e2db43c", "fusion_lon": 0.0}, {"lat": 38.9083365, "fusion_lat": 0.0, "type": "electric_scooter", "bike_id": "6c83af863ec0c6887e7cd680ad34c7b6", "is_reserved": 0, "rental_uris": {"ios": "https://dc.lft.to/lastmile_qr_scan", "android": "https://dc.lft.to/lastmile_qr_scan"}, "is_disabled": 0, "lon": -77.04338633333333, "name": "6c83af863ec0c6887e7cd680ad34c7b6", "fusion_lon": 0.0}, {"lat": 38.938785333333335, "fusion_lat": 0.0, "type": "electric_scooter", "bike_id": "2a544bb5e3f0cb0720128a781cbba83e", "is_reserved": 0, "rental_uris": {"ios": "https://dc.lft.to/lastmile_qr_scan", "android": "https://dc.lft.to/lastmile_qr_scan"}, "is_disabled": 0, "lon": -77.02485516666667, "name": "2a544bb5e3f0cb0720128a781cbba83e", "fusion_lon": 0.0}, {"lat": 38.84730283333333, "fusion_lat": 0.0, "type": "electric_bike", "bike_id": "3a491737d7a10ccb5a6279953acfa82c", "is_reserved": 0, "rental_uris": {"ios": "https://dc.lft.to/lastmile_qr_scan", "android": "https://dc.lft.to/lastmile_qr_scan"}, "is_disabled": 0, "lon": -77.11985466666667, "name": "3a491737d7a10ccb5a6279953acfa82c", "fusion_lon": 0.0}, {"lat": 38.86240883333333, "fusion_lat": 0.0, "type": "electric_scooter", "bike_id": "9358e543f0def805b9aa7f922be00972", "is_reserved": 0, "rental_uris": {"ios": "https://dc.lft.to/lastmile_qr_scan", "android": "https://dc.lft.to/lastmile_qr_scan"}, "is_disabled": 0, "lon": -76.99492916666667, "name": "9358e543f0def805b9aa7f922be00972", "fusion_lon": 0.0}, {"lat": 38.90082566666667, "fusion_lat": 0.0, "type": "electric_scooter", "bike_id": "11d3b2af16a60bfba2e6b3c3d742d398", "is_reserved": 0, "rental_uris": {"ios": "https://dc.lft.to/lastmile_qr_scan", "android": "https://dc.lft.to/lastmile_qr_scan"}, "is_disabled": 0, "lon": -77.04348166666666, "name": "11d3b2af16a60bfba2e6b3c3d742d398", "fusion_lon": 0.0}, {"lat": 38.935351, "fusion_lat": 0.0, "type": "electric_scooter", "bike_id": "66e2511a593c8a0b234621a14125d529", "is_reserved": 0, "rental_uris": {"ios": "https://dc.lft.to/lastmile_qr_scan", "android": "https://dc.lft.to/lastmile_qr_scan"}, "is_disabled": 0, "lon": -77.02355333333334, "name": "66e2511a593c8a0b234621a14125d529", "fusion_lon": 0.0}, {"lat": 38.92339616666667, "fusion_lat": 0.0, "type": "electric_scooter", "bike_id": "8a4e33ee0fb56421016f680104544eb0", "is_reserved": 0, "rental_uris": {"ios": "https://dc.lft.to/lastmile_qr_scan", "android": "https://dc.lft.to/lastmile_qr_scan"}, "is_disabled": 0, "lon": -77.05246783333334, "name": "8a4e33ee0fb56421016f680104544eb0", "fusion_lon": 0.0}, {"lat": 38.9247445, "fusion_lat": 0.0, "type": "electric_scooter", "bike_id": "b8f5290e4bd628b81cda716b18b4d3d5", "is_reserved": 0, "rental_uris": {"ios": "https://dc.lft.to/lastmile_qr_scan", "android": "https://dc.lft.to/lastmile_qr_scan"}, "is_disabled": 0, "lon": -77.02147, "name": "b8f5290e4bd628b81cda716b18b4d3d5", "fusion_lon": 0.0}, {"lat": 38.892245, "fusion_lat": 0.0, "type": "electric_scooter", "bike_id": "87f8963c9f9fb86a3a3bf9ce2a35297b", "is_reserved": 0, "rental_uris": {"ios": "https://dc.lft.to/lastmile_qr_scan", "android": "https://dc.lft.to/lastmile_qr_scan"}, "is_disabled": 0, "lon": -77.01282566666667, "name": "87f8963c9f9fb86a3a3bf9ce2a35297b", "fusion_lon": 0.0}, {"lat": 38.876247, "fusion_lat": 0.0, "type": "electric_scooter", "bike_id": "d8030c59c8a6b85d81c12c51e3990bca", "is_reserved": 0, "rental_uris": {"ios": "https://dc.lft.to/lastmile_qr_scan", "android": "https://dc.lft.to/lastmile_qr_scan"}, "is_disabled": 0, "lon": -77.01447016666667, "name": "d8030c59c8a6b85d81c12c51e3990bca", "fusion_lon": 0.0}, {"lat": 38.903367333333335, "fusion_lat": 0.0, "type": "electric_scooter", "bike_id": "125f582f1173f4588d460793f3715eb8", "is_reserved": 0, "rental_uris": {"ios": "https://dc.lft.to/lastmile_qr_scan", "android": "https://dc.lft.to/lastmile_qr_scan"}, "is_disabled": 0, "lon": -76.97584416666666, "name": "125f582f1173f4588d460793f3715eb8", "fusion_lon": 0.0}, {"lat": 38.8999075, "fusion_lat": 0.0, "type": "electric_scooter", "bike_id": "c680c33ab59547680a2e5ba929d216c6", "is_reserved": 0, "rental_uris": {"ios": "https://dc.lft.to/lastmile_qr_scan", "android": "https://dc.lft.to/lastmile_qr_scan"}, "is_disabled": 0, "lon": -77.0069045, "name": "c680c33ab59547680a2e5ba929d216c6", "fusion_lon": 0.0}, {"lat": 38.899173833333336, "fusion_lat": 0.0, "type": "electric_scooter", "bike_id": "c73c3c105f50b6c6284a053da937db5b", "is_reserved": 0, "rental_uris": {"ios": "https://dc.lft.to/lastmile_qr_scan", "android": "https://dc.lft.to/lastmile_qr_scan"}, "is_disabled": 0, "lon": -76.93383183333333, "name": "c73c3c105f50b6c6284a053da937db5b", "fusion_lon": 0.0}, {"lat": 38.930618833333334, "fusion_lat": 0.0, "type": "electric_scooter", "bike_id": "a3bf4bebb2542524a7e7549cab18f4be", "is_reserved": 0, "rental_uris": {"ios": "https://dc.lft.to/lastmile_qr_scan", "android": "https://dc.lft.to/lastmile_qr_scan"}, "is_disabled": 0, "lon": -77.0381935, "name": "a3bf4bebb2542524a7e7549cab18f4be", "fusion_lon": 0.0}, {"lat": 38.90151183333333, "fusion_lat": 0.0, "type": "electric_scooter", "bike_id": "fb3f5d327b17585c6b22cf62312c3e0a", "is_reserved": 0, "rental_uris": {"ios": "https://dc.lft.to/lastmile_qr_scan", "android": "https://dc.lft.to/lastmile_qr_scan"}, "is_disabled": 0, "lon": -76.92139733333333, "name": "fb3f5d327b17585c6b22cf62312c3e0a", "fusion_lon": 0.0}, {"lat": 38.93132466666667, "fusion_lat": 0.0, "type": "electric_scooter", "bike_id": "35e3b64c3d12c94d4609712b340fd25d", "is_reserved": 0, "rental_uris": {"ios": "https://dc.lft.to/lastmile_qr_scan", "android": "https://dc.lft.to/lastmile_qr_scan"}, "is_disabled": 0, "lon": -77.03306116666667, "name": "35e3b64c3d12c94d4609712b340fd25d", "fusion_lon": 0.0}, {"lat": 38.90250783333333, "fusion_lat": 0.0, "type": "electric_scooter", "bike_id": "84e3059cad4f7cbde4bd808edc12762b", "is_reserved": 0, "rental_uris": {"ios": "https://dc.lft.to/lastmile_qr_scan", "android": "https://dc.lft.to/lastmile_qr_scan"}, "is_disabled": 0, "lon": -77.03965366666667, "name": "84e3059cad4f7cbde4bd808edc12762b", "fusion_lon": 0.0}, {"lat": 38.92969316666667, "fusion_lat": 0.0, "type": "electric_scooter", "bike_id": "0567b962b34f938f4d69d374d42444d1", "is_reserved": 0, "rental_uris": {"ios": "https://dc.lft.to/lastmile_qr_scan", "android": "https://dc.lft.to/lastmile_qr_scan"}, "is_disabled": 0, "lon": -77.02953516666666, "name": "0567b962b34f938f4d69d374d42444d1", "fusion_lon": 0.0}, {"lat": 38.838107, "fusion_lat": 0.0, "type": "electric_bike", "bike_id": "4a6948d2c8861901ec443a9cf8d372f7", "is_reserved": 0, "rental_uris": {"ios": "https://dc.lft.to/lastmile_qr_scan", "android": "https://dc.lft.to/lastmile_qr_scan"}, "is_disabled": 0, "lon": -77.09524233333333, "name": "4a6948d2c8861901ec443a9cf8d372f7", "fusion_lon": 0.0}, {"lat": 38.857677833333334, "fusion_lat": 0.0, "type": "electric_bike", "bike_id": "ef5c6ac6ba0b33a7f000e97caf6166cd", "is_reserved": 0, "rental_uris": {"ios": "https://dc.lft.to/lastmile_qr_scan", "android": "https://dc.lft.to/lastmile_qr_scan"}, "is_disabled": 0, "lon": -76.987676, "name": "ef5c6ac6ba0b33a7f000e97caf6166cd", "fusion_lon": 0.0}, {"lat": 38.893486333333335, "fusion_lat": 0.0, "type": "electric_scooter", "bike_id": "05b007d8b85a06ed723d4360920ccb1e", "is_reserved": 0, "rental_uris": {"ios": "https://dc.lft.to/lastmile_qr_scan", "android": "https://dc.lft.to/lastmile_qr_scan"}, "is_disabled": 0, "lon": -77.0171845, "name": "05b007d8b85a06ed723d4360920ccb1e", "fusion_lon": 0.0}, {"lat": 38.955309166666666, "fusion_lat": 0.0, "type": "electric_scooter", "bike_id": "7a61e0d6abd784a4691cc098220dc88a", "is_reserved": 0, "rental_uris": {"ios": "https://dc.lft.to/lastmile_qr_scan", "android": "https://dc.lft.to/lastmile_qr_scan"}, "is_disabled": 0, "lon": -77.027794, "name": "7a61e0d6abd784a4691cc098220dc88a", "fusion_lon": 0.0}, {"lat": 38.9080915, "fusion_lat": 0.0, "type": "electric_scooter", "bike_id": "322e2c8993a56934a711d600748c4a49", "is_reserved": 0, "rental_uris": {"ios": "https://dc.lft.to/lastmile_qr_scan", "android": "https://dc.lft.to/lastmile_qr_scan"}, "is_disabled": 0, "lon": -77.03650883333333, "name": "322e2c8993a56934a711d600748c4a49", "fusion_lon": 0.0}, {"lat": 38.9178755, "fusion_lat": 0.0, "type": "electric_scooter", "bike_id": "71fca7b54a165459e95f4a864b752de3", "is_reserved": 0, "rental_uris": {"ios": "https://dc.lft.to/lastmile_qr_scan", "android": "https://dc.lft.to/lastmile_qr_scan"}, "is_disabled": 0, "lon": -77.02372033333333, "name": "71fca7b54a165459e95f4a864b752de3", "fusion_lon": 0.0}, {"lat": 38.90993433333333, "fusion_lat": 0.0, "type": "electric_scooter", "bike_id": "d0eecfe0fab0b5e5fdb7854d68905098", "is_reserved": 0, "rental_uris": {"ios": "https://dc.lft.to/lastmile_qr_scan", "android": "https://dc.lft.to/lastmile_qr_scan"}, "is_disabled": 0, "lon": -77.044292, "name": "d0eecfe0fab0b5e5fdb7854d68905098", "fusion_lon": 0.0}, {"lat": 38.8988645, "fusion_lat": 0.0, "type": "electric_scooter", "bike_id": "b29926adcbc5d7e1de2ece57b04efc47", "is_reserved": 0, "rental_uris": {"ios": "https://dc.lft.to/lastmile_qr_scan", "android": "https://dc.lft.to/lastmile_qr_scan"}, "is_disabled": 0, "lon": -76.97707866666667, "name": "b29926adcbc5d7e1de2ece57b04efc47", "fusion_lon": 0.0}, {"lat": 38.912679, "fusion_lat": 0.0, "type": "electric_scooter", "bike_id": "0a3a34284170d9eeb44d5542156a5384", "is_reserved": 0, "rental_uris": {"ios": "https://dc.lft.to/lastmile_qr_scan", "android": "https://dc.lft.to/lastmile_qr_scan"}, "is_disabled": 0, "lon": -77.03834283333333, "name": "0a3a34284170d9eeb44d5542156a5384", "fusion_lon": 0.0}, {"lat": 38.9211845, "fusion_lat": 0.0, "type": "electric_scooter", "bike_id": "73c534787f3b599ab28cc5ca909cc1d8", "is_reserved": 0, "rental_uris": {"ios": "https://dc.lft.to/lastmile_qr_scan", "android": "https://dc.lft.to/lastmile_qr_scan"}, "is_disabled": 0, "lon": -77.043736, "name": "73c534787f3b599ab28cc5ca909cc1d8", "fusion_lon": 0.0}, {"lat": 38.87469516666667, "fusion_lat": 0.0, "type": "electric_scooter", "bike_id": "333a75d15387064aaab2222c616038d8", "is_reserved": 0, "rental_uris": {"ios": "https://dc.lft.to/lastmile_qr_scan", "android": "https://dc.lft.to/lastmile_qr_scan"}, "is_disabled": 0, "lon": -77.00562033333334, "name": "333a75d15387064aaab2222c616038d8", "fusion_lon": 0.0}, {"lat": 38.908982333333334, "fusion_lat": 0.0, "type": "electric_scooter", "bike_id": "0bccd462f828c544fa683a15064acac0", "is_reserved": 0, "rental_uris": {"ios": "https://dc.lft.to/lastmile_qr_scan", "android": "https://dc.lft.to/lastmile_qr_scan"}, "is_disabled": 0, "lon": -77.07276533333334, "name": "0bccd462f828c544fa683a15064acac0", "fusion_lon": 0.0}, {"lat": 38.918812333333335, "fusion_lat": 0.0, "type": "electric_scooter", "bike_id": "d24e704c1114949cfed2c067e1ca1676", "is_reserved": 0, "rental_uris": {"ios": "https://dc.lft.to/lastmile_qr_scan", "android": "https://dc.lft.to/lastmile_qr_scan"}, "is_disabled": 0, "lon": -77.029625, "name": "d24e704c1114949cfed2c067e1ca1676", "fusion_lon": 0.0}, {"lat": 38.9452685, "fusion_lat": 0.0, "type": "electric_scooter", "bike_id": "2e4681bf3118fa258b80ac622a24eb6f", "is_reserved": 0, "rental_uris": {"ios": "https://dc.lft.to/lastmile_qr_scan", "android": "https://dc.lft.to/lastmile_qr_scan"}, "is_disabled": 0, "lon": -77.02088733333333, "name": "2e4681bf3118fa258b80ac622a24eb6f", "fusion_lon": 0.0}, {"lat": 38.9217105, "fusion_lat": 0.0, "type": "electric_scooter", "bike_id": "7afc63e6b91a86f9700566a83c6f45fd", "is_reserved": 0, "rental_uris": {"ios": "https://dc.lft.to/lastmile_qr_scan", "android": "https://dc.lft.to/lastmile_qr_scan"}, "is_disabled": 0, "lon": -77.03266983333333, "name": "7afc63e6b91a86f9700566a83c6f45fd", "fusion_lon": 0.0}, {"lat": 38.928841166666665, "fusion_lat": 0.0, "type": "electric_scooter", "bike_id": "efa434bd6bf63bc187707f8ef728869c", "is_reserved": 0, "rental_uris": {"ios": "https://dc.lft.to/lastmile_qr_scan", "android": "https://dc.lft.to/lastmile_qr_scan"}, "is_disabled": 0, "lon": -77.03258966666667, "name": "efa434bd6bf63bc187707f8ef728869c", "fusion_lon": 0.0}, {"lat": 38.924305, "fusion_lat": 0.0, "type": "electric_scooter", "bike_id": "97e3af05887a4957d54640fb7fb229d6", "is_reserved": 0, "rental_uris": {"ios": "https://dc.lft.to/lastmile_qr_scan", "android": "https://dc.lft.to/lastmile_qr_scan"}, "is_disabled": 0, "lon": -77.04247866666667, "name": "97e3af05887a4957d54640fb7fb229d6", "fusion_lon": 0.0}, {"lat": 38.917191, "fusion_lat": 0.0, "type": "electric_scooter", "bike_id": "2c8586c958042ea8807356b82369ad02", "is_reserved": 0, "rental_uris": {"ios": "https://dc.lft.to/lastmile_qr_scan", "android": "https://dc.lft.to/lastmile_qr_scan"}, "is_disabled": 0, "lon": -77.0297705, "name": "2c8586c958042ea8807356b82369ad02", "fusion_lon": 0.0}, {"lat": 38.90837, "fusion_lat": 0.0, "type": "electric_scooter", "bike_id": "2759b95cccb97d2c629d883e062ed901", "is_reserved": 0, "rental_uris": {"ios": "https://dc.lft.to/lastmile_qr_scan", "android": "https://dc.lft.to/lastmile_qr_scan"}, "is_disabled": 0, "lon": -77.04362616666667, "name": "2759b95cccb97d2c629d883e062ed901", "fusion_lon": 0.0}, {"lat": 38.90425833333333, "fusion_lat": 0.0, "type": "electric_scooter", "bike_id": "b6612828758321c25ed15353c6907865", "is_reserved": 0, "rental_uris": {"ios": "https://dc.lft.to/lastmile_qr_scan", "android": "https://dc.lft.to/lastmile_qr_scan"}, "is_disabled": 0, "lon": -77.02405616666667, "name": "b6612828758321c25ed15353c6907865", "fusion_lon": 0.0}, {"lat": 38.90743883333333, "fusion_lat": 0.0, "type": "electric_scooter", "bike_id": "94b3db8ab2d01f938801cea83f82ddc0", "is_reserved": 0, "rental_uris": {"ios": "https://dc.lft.to/lastmile_qr_scan", "android": "https://dc.lft.to/lastmile_qr_scan"}, "is_disabled": 0, "lon": -77.00133, "name": "94b3db8ab2d01f938801cea83f82ddc0", "fusion_lon": 0.0}, {"lat": 38.902190833333336, "fusion_lat": 0.0, "type": "electric_scooter", "bike_id": "87bd00692e7972dc970a056144e0e106", "is_reserved": 0, "rental_uris": {"ios": "https://dc.lft.to/lastmile_qr_scan", "android": "https://dc.lft.to/lastmile_qr_scan"}, "is_disabled": 0, "lon": -77.03180716666667, "name": "87bd00692e7972dc970a056144e0e106", "fusion_lon": 0.0}, {"lat": 38.922159666666666, "fusion_lat": 0.0, "type": "electric_scooter", "bike_id": "0fa86532d1f2ccd902ba6065c735ccdc", "is_reserved": 0, "rental_uris": {"ios": "https://dc.lft.to/lastmile_qr_scan", "android": "https://dc.lft.to/lastmile_qr_scan"}, "is_disabled": 0, "lon": -77.03292466666667, "name": "0fa86532d1f2ccd902ba6065c735ccdc", "fusion_lon": 0.0}, {"lat": 38.912628833333336, "fusion_lat": 0.0, "type": "electric_scooter", "bike_id": "a08b9f621ae3b8dd2c9d04169d23e669", "is_reserved": 0, "rental_uris": {"ios": "https://dc.lft.to/lastmile_qr_scan", "android": "https://dc.lft.to/lastmile_qr_scan"}, "is_disabled": 0, "lon": -77.03894483333333, "name": "a08b9f621ae3b8dd2c9d04169d23e669", "fusion_lon": 0.0}, {"lat": 38.91677966666666, "fusion_lat": 0.0, "type": "electric_scooter", "bike_id": "8537eebc718dc95f5d10245b6e77c36d", "is_reserved": 0, "rental_uris": {"ios": "https://dc.lft.to/lastmile_qr_scan", "android": "https://dc.lft.to/lastmile_qr_scan"}, "is_disabled": 0, "lon": -77.05649483333333, "name": "8537eebc718dc95f5d10245b6e77c36d", "fusion_lon": 0.0}, {"lat": 38.88745083333333, "fusion_lat": 0.0, "type": "electric_scooter", "bike_id": "2830e68fe4fdd9b92e2ad59d1e556720", "is_reserved": 0, "rental_uris": {"ios": "https://dc.lft.to/lastmile_qr_scan", "android": "https://dc.lft.to/lastmile_qr_scan"}, "is_disabled": 0, "lon": -77.0257465, "name": "2830e68fe4fdd9b92e2ad59d1e556720", "fusion_lon": 0.0}, {"lat": 38.8911405, "fusion_lat": 0.0, "type": "electric_scooter", "bike_id": "0095179b60b4586f0d99ceb88814a90f", "is_reserved": 0, "rental_uris": {"ios": "https://dc.lft.to/lastmile_qr_scan", "android": "https://dc.lft.to/lastmile_qr_scan"}, "is_disabled": 0, "lon": -76.991599, "name": "0095179b60b4586f0d99ceb88814a90f", "fusion_lon": 0.0}, {"lat": 38.89229983333333, "fusion_lat": 0.0, "type": "electric_scooter", "bike_id": "ce50d5266ca493ed1cbc0b94f07745a6", "is_reserved": 0, "rental_uris": {"ios": "https://dc.lft.to/lastmile_qr_scan", "android": "https://dc.lft.to/lastmile_qr_scan"}, "is_disabled": 0, "lon": -77.05003733333334, "name": "ce50d5266ca493ed1cbc0b94f07745a6", "fusion_lon": 0.0}, {"lat": 38.92279666666667, "fusion_lat": 0.0, "type": "electric_scooter", "bike_id": "5055d391eab107d0b47a65a072b31190", "is_reserved": 0, "rental_uris": {"ios": "https://dc.lft.to/lastmile_qr_scan", "android": "https://dc.lft.to/lastmile_qr_scan"}, "is_disabled": 0, "lon": -77.04464433333334, "name": "5055d391eab107d0b47a65a072b31190", "fusion_lon": 0.0}, {"lat": 38.844243666666664, "fusion_lat": 0.0, "type": "electric_scooter", "bike_id": "aa447cd74dca7322ab9c28ca9439d3e1", "is_reserved": 0, "rental_uris": {"ios": "https://dc.lft.to/lastmile_qr_scan", "android": "https://dc.lft.to/lastmile_qr_scan"}, "is_disabled": 0, "lon": -76.99777966666667, "name": "aa447cd74dca7322ab9c28ca9439d3e1", "fusion_lon": 0.0}, {"lat": 38.914818, "fusion_lat": 0.0, "type": "electric_scooter", "bike_id": "928856343395675de86a6c1a68e621c2", "is_reserved": 0, "rental_uris": {"ios": "https://dc.lft.to/lastmile_qr_scan", "android": "https://dc.lft.to/lastmile_qr_scan"}, "is_disabled": 0, "lon": -76.98390216666667, "name": "928856343395675de86a6c1a68e621c2", "fusion_lon": 0.0}, {"lat": 38.92254633333334, "fusion_lat": 0.0, "type": "electric_bike", "bike_id": "1958532c4af155884dcd92fef69bf4a9", "is_reserved": 0, "rental_uris": {"ios": "https://dc.lft.to/lastmile_qr_scan", "android": "https://dc.lft.to/lastmile_qr_scan"}, "is_disabled": 0, "lon": -77.01948916666667, "name": "1958532c4af155884dcd92fef69bf4a9", "fusion_lon": 0.0}, {"lat": 38.9190135, "fusion_lat": 0.0, "type": "electric_scooter", "bike_id": "7f0e2cb021fd655d9591172ef1e4a07d", "is_reserved": 0, "rental_uris": {"ios": "https://dc.lft.to/lastmile_qr_scan", "android": "https://dc.lft.to/lastmile_qr_scan"}, "is_disabled": 0, "lon": -77.04617783333333, "name": "7f0e2cb021fd655d9591172ef1e4a07d", "fusion_lon": 0.0}, {"lat": 38.8998455, "fusion_lat": 0.0, "type": "electric_scooter", "bike_id": "4c47558a0c9dfd90b1bd077cf72699c7", "is_reserved": 0, "rental_uris": {"ios": "https://dc.lft.to/lastmile_qr_scan", "android": "https://dc.lft.to/lastmile_qr_scan"}, "is_disabled": 0, "lon": -77.01215416666666, "name": "4c47558a0c9dfd90b1bd077cf72699c7", "fusion_lon": 0.0}, {"lat": 38.9290495, "fusion_lat": 0.0, "type": "electric_scooter", "bike_id": "185e3dcb05d3aac9726174388c6b7b0a", "is_reserved": 0, "rental_uris": {"ios": "https://dc.lft.to/lastmile_qr_scan", "android": "https://dc.lft.to/lastmile_qr_scan"}, "is_disabled": 0, "lon": -77.06265833333333, "name": "185e3dcb05d3aac9726174388c6b7b0a", "fusion_lon": 0.0}, {"lat": 38.91597933333333, "fusion_lat": 0.0, "type": "electric_scooter", "bike_id": "5a760ced2189960bf63ec2da10fd08a3", "is_reserved": 0, "rental_uris": {"ios": "https://dc.lft.to/lastmile_qr_scan", "android": "https://dc.lft.to/lastmile_qr_scan"}, "is_disabled": 0, "lon": -77.03189416666666, "name": "5a760ced2189960bf63ec2da10fd08a3", "fusion_lon": 0.0}, {"lat": 38.9369135, "fusion_lat": 0.0, "type": "electric_bike", "bike_id": "28e934de668311d113bd8296d002fbd8", "is_reserved": 0, "rental_uris": {"ios": "https://dc.lft.to/lastmile_qr_scan", "android": "https://dc.lft.to/lastmile_qr_scan"}, "is_disabled": 0, "lon": -76.99061933333333, "name": "28e934de668311d113bd8296d002fbd8", "fusion_lon": 0.0}, {"lat": 38.89687983333334, "fusion_lat": 0.0, "type": "electric_scooter", "bike_id": "e857ed86ce20493ec9d4becbefb6cdfd", "is_reserved": 0, "rental_uris": {"ios": "https://dc.lft.to/lastmile_qr_scan", "android": "https://dc.lft.to/lastmile_qr_scan"}, "is_disabled": 0, "lon": -77.0432735, "name": "e857ed86ce20493ec9d4becbefb6cdfd", "fusion_lon": 0.0}, {"lat": 38.89224383333333, "fusion_lat": 0.0, "type": "electric_scooter", "bike_id": "ec0bf2c3b5c3ad679f269bd5ddf6f339", "is_reserved": 0, "rental_uris": {"ios": "https://dc.lft.to/lastmile_qr_scan", "android": "https://dc.lft.to/lastmile_qr_scan"}, "is_disabled": 0, "lon": -77.04800183333333, "name": "ec0bf2c3b5c3ad679f269bd5ddf6f339", "fusion_lon": 0.0}, {"lat": 38.92868033333333, "fusion_lat": 0.0, "type": "electric_scooter", "bike_id": "20244558189b21ef9d0a936193687e54", "is_reserved": 0, "rental_uris": {"ios": "https://dc.lft.to/lastmile_qr_scan", "android": "https://dc.lft.to/lastmile_qr_scan"}, "is_disabled": 0, "lon": -77.01366166666666, "name": "20244558189b21ef9d0a936193687e54", "fusion_lon": 0.0}, {"lat": 38.8849155, "fusion_lat": 0.0, "type": "electric_scooter", "bike_id": "c4e6688bb315ad818cbd9dd04e775f16", "is_reserved": 0, "rental_uris": {"ios": "https://dc.lft.to/lastmile_qr_scan", "android": "https://dc.lft.to/lastmile_qr_scan"}, "is_disabled": 0, "lon": -77.00709066666667, "name": "c4e6688bb315ad818cbd9dd04e775f16", "fusion_lon": 0.0}, {"lat": 38.92866716666666, "fusion_lat": 0.0, "type": "electric_scooter", "bike_id": "9c6b08228462dc8234d0a79a9ac2eb34", "is_reserved": 0, "rental_uris": {"ios": "https://dc.lft.to/lastmile_qr_scan", "android": "https://dc.lft.to/lastmile_qr_scan"}, "is_disabled": 0, "lon": -77.0340915, "name": "9c6b08228462dc8234d0a79a9ac2eb34", "fusion_lon": 0.0}, {"lat": 38.9156425, "fusion_lat": 0.0, "type": "electric_scooter", "bike_id": "250830dc999ba10b026598aa1f291a4c", "is_reserved": 0, "rental_uris": {"ios": "https://dc.lft.to/lastmile_qr_scan", "android": "https://dc.lft.to/lastmile_qr_scan"}, "is_disabled": 0, "lon": -77.04283533333333, "name": "250830dc999ba10b026598aa1f291a4c", "fusion_lon": 0.0}, {"lat": 38.896125, "fusion_lat": 0.0, "type": "electric_scooter", "bike_id": "2ed071f8c5c2b4c0aa5e3aa9d5ff0b8d", "is_reserved": 0, "rental_uris": {"ios": "https://dc.lft.to/lastmile_qr_scan", "android": "https://dc.lft.to/lastmile_qr_scan"}, "is_disabled": 0, "lon": -77.02193133333333, "name": "2ed071f8c5c2b4c0aa5e3aa9d5ff0b8d", "fusion_lon": 0.0}, {"lat": 38.91102816666667, "fusion_lat": 0.0, "type": "electric_scooter", "bike_id": "0c636d2688c56bf8b7b9425366814cad", "is_reserved": 0, "rental_uris": {"ios": "https://dc.lft.to/lastmile_qr_scan", "android": "https://dc.lft.to/lastmile_qr_scan"}, "is_disabled": 0, "lon": -77.02508883333333, "name": "0c636d2688c56bf8b7b9425366814cad", "fusion_lon": 0.0}, {"lat": 38.89291866666667, "fusion_lat": 0.0, "type": "electric_bike", "bike_id": "d8970d7ccd81d12fd92fa241dced5006", "is_reserved": 0, "rental_uris": {"ios": "https://dc.lft.to/lastmile_qr_scan", "android": "https://dc.lft.to/lastmile_qr_scan"}, "is_disabled": 0, "lon": -76.976173, "name": "d8970d7ccd81d12fd92fa241dced5006", "fusion_lon": 0.0}, {"lat": 38.9057705, "fusion_lat": 0.0, "type": "electric_scooter", "bike_id": "cc337c7729b7d80afeeeccad088747fb", "is_reserved": 0, "rental_uris": {"ios": "https://dc.lft.to/lastmile_qr_scan", "android": "https://dc.lft.to/lastmile_qr_scan"}, "is_disabled": 0, "lon": -77.0344365, "name": "cc337c7729b7d80afeeeccad088747fb", "fusion_lon": 0.0}, {"lat": 38.9067615, "fusion_lat": 0.0, "type": "electric_scooter", "bike_id": "05911da795537c24aa1cc652b2a81f08", "is_reserved": 0, "rental_uris": {"ios": "https://dc.lft.to/lastmile_qr_scan", "android": "https://dc.lft.to/lastmile_qr_scan"}, "is_disabled": 0, "lon": -77.037582, "name": "05911da795537c24aa1cc652b2a81f08", "fusion_lon": 0.0}, {"lat": 38.926979, "fusion_lat": 0.0, "type": "electric_scooter", "bike_id": "0071cc31afd39572559426669a139349", "is_reserved": 0, "rental_uris": {"ios": "https://dc.lft.to/lastmile_qr_scan", "android": "https://dc.lft.to/lastmile_qr_scan"}, "is_disabled": 0, "lon": -77.02101683333333, "name": "0071cc31afd39572559426669a139349", "fusion_lon": 0.0}, {"lat": 38.90731183333333, "fusion_lat": 0.0, "type": "electric_scooter", "bike_id": "d69f490989c723c2bdd7e87bc07fa68c", "is_reserved": 0, "rental_uris": {"ios": "https://dc.lft.to/lastmile_qr_scan", "android": "https://dc.lft.to/lastmile_qr_scan"}, "is_disabled": 0, "lon": -77.0006565, "name": "d69f490989c723c2bdd7e87bc07fa68c", "fusion_lon": 0.0}, {"lat": 38.90947166666667, "fusion_lat": 0.0, "type": "electric_scooter", "bike_id": "df8d01a2da4077701ef2d838e5aca725", "is_reserved": 0, "rental_uris": {"ios": "https://dc.lft.to/lastmile_qr_scan", "android": "https://dc.lft.to/lastmile_qr_scan"}, "is_disabled": 0, "lon": -77.04941283333334, "name": "df8d01a2da4077701ef2d838e5aca725", "fusion_lon": 0.0}, {"lat": 38.9068345, "fusion_lat": 0.0, "type": "electric_scooter", "bike_id": "50ad759702806a9d5b28814053bd716f", "is_reserved": 0, "rental_uris": {"ios": "https://dc.lft.to/lastmile_qr_scan", "android": "https://dc.lft.to/lastmile_qr_scan"}, "is_disabled": 0, "lon": -77.04332733333334, "name": "50ad759702806a9d5b28814053bd716f", "fusion_lon": 0.0}, {"lat": 38.9113655, "fusion_lat": 0.0, "type": "electric_scooter", "bike_id": "d340da646a57c17d6ef05d2d5c0f66a8", "is_reserved": 0, "rental_uris": {"ios": "https://dc.lft.to/lastmile_qr_scan", "android": "https://dc.lft.to/lastmile_qr_scan"}, "is_disabled": 0, "lon": -77.03841483333333, "name": "d340da646a57c17d6ef05d2d5c0f66a8", "fusion_lon": 0.0}, {"lat": 38.907553666666665, "fusion_lat": 0.0, "type": "electric_scooter", "bike_id": "5c1f6482f8272786a440a1e70f88fcca", "is_reserved": 0, "rental_uris": {"ios": "https://dc.lft.to/lastmile_qr_scan", "android": "https://dc.lft.to/lastmile_qr_scan"}, "is_disabled": 0, "lon": -77.02605466666667, "name": "5c1f6482f8272786a440a1e70f88fcca", "fusion_lon": 0.0}, {"lat": 38.902529, "fusion_lat": 0.0, "type": "electric_scooter", "bike_id": "af2e5939b20948c08e190edcd450d408", "is_reserved": 0, "rental_uris": {"ios": "https://dc.lft.to/lastmile_qr_scan", "android": "https://dc.lft.to/lastmile_qr_scan"}, "is_disabled": 0, "lon": -77.04853316666667, "name": "af2e5939b20948c08e190edcd450d408", "fusion_lon": 0.0}, {"lat": 38.8722745, "fusion_lat": 0.0, "type": "electric_scooter", "bike_id": "4425aa2ae61e4e3b6e563411ec0c77c9", "is_reserved": 0, "rental_uris": {"ios": "https://dc.lft.to/lastmile_qr_scan", "android": "https://dc.lft.to/lastmile_qr_scan"}, "is_disabled": 0, "lon": -77.011793, "name": "4425aa2ae61e4e3b6e563411ec0c77c9", "fusion_lon": 0.0}, {"lat": 38.92032583333334, "fusion_lat": 0.0, "type": "electric_scooter", "bike_id": "3f3bfe15eed73e385b0e9eb7bebb3851", "is_reserved": 0, "rental_uris": {"ios": "https://dc.lft.to/lastmile_qr_scan", "android": "https://dc.lft.to/lastmile_qr_scan"}, "is_disabled": 0, "lon": -77.02583533333333, "name": "3f3bfe15eed73e385b0e9eb7bebb3851", "fusion_lon": 0.0}, {"lat": 38.9562895, "fusion_lat": 0.0, "type": "electric_bike", "bike_id": "317c8bc78f4f5edbee80a79312d57b25", "is_reserved": 0, "rental_uris": {"ios": "https://dc.lft.to/lastmile_qr_scan", "android": "https://dc.lft.to/lastmile_qr_scan"}, "is_disabled": 0, "lon": -76.93872433333334, "name": "317c8bc78f4f5edbee80a79312d57b25", "fusion_lon": 0.0}, {"lat": 38.9287725, "fusion_lat": 0.0, "type": "electric_scooter", "bike_id": "52540561a23854629cebc4f0321a9dd4", "is_reserved": 0, "rental_uris": {"ios": "https://dc.lft.to/lastmile_qr_scan", "android": "https://dc.lft.to/lastmile_qr_scan"}, "is_disabled": 0, "lon": -77.042324, "name": "52540561a23854629cebc4f0321a9dd4", "fusion_lon": 0.0}, {"lat": 38.892974833333334, "fusion_lat": 0.0, "type": "electric_scooter", "bike_id": "280598003df5b06aa217928f2ba6d7dc", "is_reserved": 0, "rental_uris": {"ios": "https://dc.lft.to/lastmile_qr_scan", "android": "https://dc.lft.to/lastmile_qr_scan"}, "is_disabled": 0, "lon": -76.9392735, "name": "280598003df5b06aa217928f2ba6d7dc", "fusion_lon": 0.0}, {"lat": 38.898922166666665, "fusion_lat": 0.0, "type": "electric_scooter", "bike_id": "1002a9792cf8ea1dd77e1b4995bc8d5d", "is_reserved": 0, "rental_uris": {"ios": "https://dc.lft.to/lastmile_qr_scan", "android": "https://dc.lft.to/lastmile_qr_scan"}, "is_disabled": 0, "lon": -77.03271933333333, "name": "1002a9792cf8ea1dd77e1b4995bc8d5d", "fusion_lon": 0.0}, {"lat": 38.87658, "fusion_lat": 0.0, "type": "electric_scooter", "bike_id": "9f7725faee66c251fa9f97f9d407349b", "is_reserved": 0, "rental_uris": {"ios": "https://dc.lft.to/lastmile_qr_scan", "android": "https://dc.lft.to/lastmile_qr_scan"}, "is_disabled": 0, "lon": -77.0090275, "name": "9f7725faee66c251fa9f97f9d407349b", "fusion_lon": 0.0}, {"lat": 38.894804666666666, "fusion_lat": 0.0, "type": "electric_scooter", "bike_id": "97bba4d2a884d681574c94e57b7a7af5", "is_reserved": 0, "rental_uris": {"ios": "https://dc.lft.to/lastmile_qr_scan", "android": "https://dc.lft.to/lastmile_qr_scan"}, "is_disabled": 0, "lon": -77.04653466666667, "name": "97bba4d2a884d681574c94e57b7a7af5", "fusion_lon": 0.0}, {"lat": 38.984308, "fusion_lat": 0.0, "type": "electric_scooter", "bike_id": "83e337c3cd325baf403467508ecc5f5a", "is_reserved": 0, "rental_uris": {"ios": "https://dc.lft.to/lastmile_qr_scan", "android": "https://dc.lft.to/lastmile_qr_scan"}, "is_disabled": 0, "lon": -77.02670133333334, "name": "83e337c3cd325baf403467508ecc5f5a", "fusion_lon": 0.0}, {"lat": 38.892401666666665, "fusion_lat": 0.0, "type": "electric_scooter", "bike_id": "8aa19b796801c2c2d49154ea3607ef24", "is_reserved": 0, "rental_uris": {"ios": "https://dc.lft.to/lastmile_qr_scan", "android": "https://dc.lft.to/lastmile_qr_scan"}, "is_disabled": 0, "lon": -77.02411483333333, "name": "8aa19b796801c2c2d49154ea3607ef24", "fusion_lon": 0.0}, {"lat": 38.901002166666665, "fusion_lat": 0.0, "type": "electric_scooter", "bike_id": "0f352d0ca46ee364beb5eab18857e7b0", "is_reserved": 0, "rental_uris": {"ios": "https://dc.lft.to/lastmile_qr_scan", "android": "https://dc.lft.to/lastmile_qr_scan"}, "is_disabled": 0, "lon": -77.00648166666667, "name": "0f352d0ca46ee364beb5eab18857e7b0", "fusion_lon": 0.0}, {"lat": 38.926992166666665, "fusion_lat": 0.0, "type": "electric_scooter", "bike_id": "acf1e930fb3f556e550f074074c8788f", "is_reserved": 0, "rental_uris": {"ios": "https://dc.lft.to/lastmile_qr_scan", "android": "https://dc.lft.to/lastmile_qr_scan"}, "is_disabled": 0, "lon": -77.03640433333334, "name": "acf1e930fb3f556e550f074074c8788f", "fusion_lon": 0.0}, {"lat": 38.89816283333333, "fusion_lat": 0.0, "type": "electric_scooter", "bike_id": "ae883478cc270e969e35afc32679d906", "is_reserved": 0, "rental_uris": {"ios": "https://dc.lft.to/lastmile_qr_scan", "android": "https://dc.lft.to/lastmile_qr_scan"}, "is_disabled": 0, "lon": -77.00370616666666, "name": "ae883478cc270e969e35afc32679d906", "fusion_lon": 0.0}, {"lat": 38.906212833333335, "fusion_lat": 0.0, "type": "electric_scooter", "bike_id": "3b92fc49bb1690c07a34ec22e7818e62", "is_reserved": 0, "rental_uris": {"ios": "https://dc.lft.to/lastmile_qr_scan", "android": "https://dc.lft.to/lastmile_qr_scan"}, "is_disabled": 0, "lon": -77.02981216666667, "name": "3b92fc49bb1690c07a34ec22e7818e62", "fusion_lon": 0.0}, {"lat": 38.940410166666666, "fusion_lat": 0.0, "type": "electric_scooter", "bike_id": "178640c041ce63173fd7135f5dc05812", "is_reserved": 0, "rental_uris": {"ios": "https://dc.lft.to/lastmile_qr_scan", "android": "https://dc.lft.to/lastmile_qr_scan"}, "is_disabled": 0, "lon": -77.02900883333334, "name": "178640c041ce63173fd7135f5dc05812", "fusion_lon": 0.0}, {"lat": 38.8619175, "fusion_lat": 0.0, "type": "electric_bike", "bike_id": "86976e98d5d9c9dee7a9791ff9275391", "is_reserved": 0, "rental_uris": {"ios": "https://dc.lft.to/lastmile_qr_scan", "android": "https://dc.lft.to/lastmile_qr_scan"}, "is_disabled": 0, "lon": -76.94805133333334, "name": "86976e98d5d9c9dee7a9791ff9275391", "fusion_lon": 0.0}, {"lat": 38.917169666666666, "fusion_lat": 0.0, "type": "electric_scooter", "bike_id": "dfa8040077da0603c015fc683012ef38", "is_reserved": 0, "rental_uris": {"ios": "https://dc.lft.to/lastmile_qr_scan", "android": "https://dc.lft.to/lastmile_qr_scan"}, "is_disabled": 0, "lon": -77.0289375, "name": "dfa8040077da0603c015fc683012ef38", "fusion_lon": 0.0}, {"lat": 38.892207666666664, "fusion_lat": 0.0, "type": "electric_scooter", "bike_id": "d78e50983196650d3e2e410eff3171af", "is_reserved": 0, "rental_uris": {"ios": "https://dc.lft.to/lastmile_qr_scan", "android": "https://dc.lft.to/lastmile_qr_scan"}, "is_disabled": 0, "lon": -77.02227116666667, "name": "d78e50983196650d3e2e410eff3171af", "fusion_lon": 0.0}, {"lat": 38.905048666666666, "fusion_lat": 0.0, "type": "electric_scooter", "bike_id": "f77b207487986c3e454bdc18beb4fdfe", "is_reserved": 0, "rental_uris": {"ios": "https://dc.lft.to/lastmile_qr_scan", "android": "https://dc.lft.to/lastmile_qr_scan"}, "is_disabled": 0, "lon": -77.02947566666667, "name": "f77b207487986c3e454bdc18beb4fdfe", "fusion_lon": 0.0}, {"lat": 38.91988666666666, "fusion_lat": 0.0, "type": "electric_scooter", "bike_id": "f50ba58cda486ca2a91326cb1378385e", "is_reserved": 0, "rental_uris": {"ios": "https://dc.lft.to/lastmile_qr_scan", "android": "https://dc.lft.to/lastmile_qr_scan"}, "is_disabled": 0, "lon": -77.02383116666667, "name": "f50ba58cda486ca2a91326cb1378385e", "fusion_lon": 0.0}, {"lat": 38.903733833333334, "fusion_lat": 0.0, "type": "electric_scooter", "bike_id": "4f94b95aa985aa37bdc5dc90bf389954", "is_reserved": 0, "rental_uris": {"ios": "https://dc.lft.to/lastmile_qr_scan", "android": "https://dc.lft.to/lastmile_qr_scan"}, "is_disabled": 0, "lon": -77.04901733333334, "name": "4f94b95aa985aa37bdc5dc90bf389954", "fusion_lon": 0.0}, {"lat": 38.952008, "fusion_lat": 0.0, "type": "electric_scooter", "bike_id": "31ce37988cc3c59f1eca8e4e62de6a11", "is_reserved": 0, "rental_uris": {"ios": "https://dc.lft.to/lastmile_qr_scan", "android": "https://dc.lft.to/lastmile_qr_scan"}, "is_disabled": 0, "lon": -77.02732866666666, "name": "31ce37988cc3c59f1eca8e4e62de6a11", "fusion_lon": 0.0}, {"lat": 38.901365166666665, "fusion_lat": 0.0, "type": "electric_scooter", "bike_id": "c7afc1ae3328a60d8806923687604f0f", "is_reserved": 0, "rental_uris": {"ios": "https://dc.lft.to/lastmile_qr_scan", "android": "https://dc.lft.to/lastmile_qr_scan"}, "is_disabled": 0, "lon": -77.00855483333333, "name": "c7afc1ae3328a60d8806923687604f0f", "fusion_lon": 0.0}, {"lat": 38.90516916666667, "fusion_lat": 0.0, "type": "electric_scooter", "bike_id": "26cdb9215c02b80caba5f2acefb5a8c3", "is_reserved": 0, "rental_uris": {"ios": "https://dc.lft.to/lastmile_qr_scan", "android": "https://dc.lft.to/lastmile_qr_scan"}, "is_disabled": 0, "lon": -77.041769, "name": "26cdb9215c02b80caba5f2acefb5a8c3", "fusion_lon": 0.0}, {"lat": 38.895020333333335, "fusion_lat": 0.0, "type": "electric_scooter", "bike_id": "f01a1ffcf60cfee1f548e417fd922575", "is_reserved": 0, "rental_uris": {"ios": "https://dc.lft.to/lastmile_qr_scan", "android": "https://dc.lft.to/lastmile_qr_scan"}, "is_disabled": 0, "lon": -77.00330816666667, "name": "f01a1ffcf60cfee1f548e417fd922575", "fusion_lon": 0.0}, {"lat": 38.91496716666666, "fusion_lat": 0.0, "type": "electric_scooter", "bike_id": "6e38b73b50e7c78079943128aa31d73c", "is_reserved": 0, "rental_uris": {"ios": "https://dc.lft.to/lastmile_qr_scan", "android": "https://dc.lft.to/lastmile_qr_scan"}, "is_disabled": 0, "lon": -76.983618, "name": "6e38b73b50e7c78079943128aa31d73c", "fusion_lon": 0.0}, {"lat": 38.95656366666667, "fusion_lat": 0.0, "type": "electric_scooter", "bike_id": "eec72bbb2f743e463a2a4332891695f6", "is_reserved": 0, "rental_uris": {"ios": "https://dc.lft.to/lastmile_qr_scan", "android": "https://dc.lft.to/lastmile_qr_scan"}, "is_disabled": 0, "lon": -77.03325133333334, "name": "eec72bbb2f743e463a2a4332891695f6", "fusion_lon": 0.0}, {"lat": 38.921565, "fusion_lat": 0.0, "type": "electric_scooter", "bike_id": "bf2cb79b474f32d30b10ec6ba8ff5f3f", "is_reserved": 0, "rental_uris": {"ios": "https://dc.lft.to/lastmile_qr_scan", "android": "https://dc.lft.to/lastmile_qr_scan"}, "is_disabled": 0, "lon": -77.02533533333333, "name": "bf2cb79b474f32d30b10ec6ba8ff5f3f", "fusion_lon": 0.0}, {"lat": 38.935813, "fusion_lat": 0.0, "type": "electric_scooter", "bike_id": "ac85599c75859fd1a6e359f5430ff533", "is_reserved": 0, "rental_uris": {"ios": "https://dc.lft.to/lastmile_qr_scan", "android": "https://dc.lft.to/lastmile_qr_scan"}, "is_disabled": 0, "lon": -77.0211135, "name": "ac85599c75859fd1a6e359f5430ff533", "fusion_lon": 0.0}, {"lat": 38.93628416666667, "fusion_lat": 0.0, "type": "electric_scooter", "bike_id": "9b55cacc98837c9905e08e4f0f773ad2", "is_reserved": 0, "rental_uris": {"ios": "https://dc.lft.to/lastmile_qr_scan", "android": "https://dc.lft.to/lastmile_qr_scan"}, "is_disabled": 0, "lon": -77.03651533333333, "name": "9b55cacc98837c9905e08e4f0f773ad2", "fusion_lon": 0.0}, {"lat": 38.910371833333336, "fusion_lat": 0.0, "type": "electric_scooter", "bike_id": "8d6d1e6b076771a0d561b2664c347159", "is_reserved": 0, "rental_uris": {"ios": "https://dc.lft.to/lastmile_qr_scan", "android": "https://dc.lft.to/lastmile_qr_scan"}, "is_disabled": 0, "lon": -77.04373233333334, "name": "8d6d1e6b076771a0d561b2664c347159", "fusion_lon": 0.0}, {"lat": 38.92511983333333, "fusion_lat": 0.0, "type": "electric_scooter", "bike_id": "185c55524afc65fad77895a04f72fd5f", "is_reserved": 0, "rental_uris": {"ios": "https://dc.lft.to/lastmile_qr_scan", "android": "https://dc.lft.to/lastmile_qr_scan"}, "is_disabled": 0, "lon": -77.05255183333334, "name": "185c55524afc65fad77895a04f72fd5f", "fusion_lon": 0.0}, {"lat": 38.919228833333335, "fusion_lat": 0.0, "type": "electric_scooter", "bike_id": "6440a908ab34ee4b8155907505713c7a", "is_reserved": 0, "rental_uris": {"ios": "https://dc.lft.to/lastmile_qr_scan", "android": "https://dc.lft.to/lastmile_qr_scan"}, "is_disabled": 0, "lon": -77.02514066666667, "name": "6440a908ab34ee4b8155907505713c7a", "fusion_lon": 0.0}, {"lat": 38.9279985, "fusion_lat": 0.0, "type": "electric_scooter", "bike_id": "21c6f2a6929220ec92ab36af6fa748ab", "is_reserved": 0, "rental_uris": {"ios": "https://dc.lft.to/lastmile_qr_scan", "android": "https://dc.lft.to/lastmile_qr_scan"}, "is_disabled": 0, "lon": -77.01415683333333, "name": "21c6f2a6929220ec92ab36af6fa748ab", "fusion_lon": 0.0}, {"lat": 38.9211375, "fusion_lat": 0.0, "type": "electric_scooter", "bike_id": "d51cac3d608b9c3fa33c17500062c9f1", "is_reserved": 0, "rental_uris": {"ios": "https://dc.lft.to/lastmile_qr_scan", "android": "https://dc.lft.to/lastmile_qr_scan"}, "is_disabled": 0, "lon": -77.04565883333333, "name": "d51cac3d608b9c3fa33c17500062c9f1", "fusion_lon": 0.0}, {"lat": 38.907402, "fusion_lat": 0.0, "type": "electric_scooter", "bike_id": "96b34ae0dcb257780d5f2f8539e85dca", "is_reserved": 0, "rental_uris": {"ios": "https://dc.lft.to/lastmile_qr_scan", "android": "https://dc.lft.to/lastmile_qr_scan"}, "is_disabled": 0, "lon": -77.03462483333334, "name": "96b34ae0dcb257780d5f2f8539e85dca", "fusion_lon": 0.0}, {"lat": 38.90048816666667, "fusion_lat": 0.0, "type": "electric_scooter", "bike_id": "671a08bda84450312562148157d406e6", "is_reserved": 0, "rental_uris": {"ios": "https://dc.lft.to/lastmile_qr_scan", "android": "https://dc.lft.to/lastmile_qr_scan"}, "is_disabled": 0, "lon": -77.029091, "name": "671a08bda84450312562148157d406e6", "fusion_lon": 0.0}, {"lat": 38.9181975, "fusion_lat": 0.0, "type": "electric_scooter", "bike_id": "a843214b2a9f4abb8967f0ce7dedafad", "is_reserved": 0, "rental_uris": {"ios": "https://dc.lft.to/lastmile_qr_scan", "android": "https://dc.lft.to/lastmile_qr_scan"}, "is_disabled": 0, "lon": -77.024977, "name": "a843214b2a9f4abb8967f0ce7dedafad", "fusion_lon": 0.0}, {"lat": 38.8961665, "fusion_lat": 0.0, "type": "electric_scooter", "bike_id": "10d5b0fcbf9d961b955383085299f11a", "is_reserved": 0, "rental_uris": {"ios": "https://dc.lft.to/lastmile_qr_scan", "android": "https://dc.lft.to/lastmile_qr_scan"}, "is_disabled": 0, "lon": -77.02151383333333, "name": "10d5b0fcbf9d961b955383085299f11a", "fusion_lon": 0.0}, {"lat": 38.907146, "fusion_lat": 0.0, "type": "electric_scooter", "bike_id": "673ddb86e40f09041538939fb51a44f3", "is_reserved": 0, "rental_uris": {"ios": "https://dc.lft.to/lastmile_qr_scan", "android": "https://dc.lft.to/lastmile_qr_scan"}, "is_disabled": 0, "lon": -77.010176, "name": "673ddb86e40f09041538939fb51a44f3", "fusion_lon": 0.0}, {"lat": 38.89896683333333, "fusion_lat": 0.0, "type": "electric_scooter", "bike_id": "9a54894d14ff23840c981dcf7678c244", "is_reserved": 0, "rental_uris": {"ios": "https://dc.lft.to/lastmile_qr_scan", "android": "https://dc.lft.to/lastmile_qr_scan"}, "is_disabled": 0, "lon": -76.97611716666667, "name": "9a54894d14ff23840c981dcf7678c244", "fusion_lon": 0.0}, {"lat": 38.90671116666667, "fusion_lat": 0.0, "type": "electric_scooter", "bike_id": "f2c0a7c3e8f80b4a54e353bf7044faa3", "is_reserved": 0, "rental_uris": {"ios": "https://dc.lft.to/lastmile_qr_scan", "android": "https://dc.lft.to/lastmile_qr_scan"}, "is_disabled": 0, "lon": -77.04508433333334, "name": "f2c0a7c3e8f80b4a54e353bf7044faa3", "fusion_lon": 0.0}, {"lat": 38.90216, "fusion_lat": 0.0, "type": "electric_scooter", "bike_id": "59115c80c6d957556dbc00cd9311f9f5", "is_reserved": 0, "rental_uris": {"ios": "https://dc.lft.to/lastmile_qr_scan", "android": "https://dc.lft.to/lastmile_qr_scan"}, "is_disabled": 0, "lon": -77.02435666666666, "name": "59115c80c6d957556dbc00cd9311f9f5", "fusion_lon": 0.0}, {"lat": 38.91703966666667, "fusion_lat": 0.0, "type": "electric_scooter", "bike_id": "b0f9fda045ad82fae007e696f3348aa1", "is_reserved": 0, "rental_uris": {"ios": "https://dc.lft.to/lastmile_qr_scan", "android": "https://dc.lft.to/lastmile_qr_scan"}, "is_disabled": 0, "lon": -77.02886933333333, "name": "b0f9fda045ad82fae007e696f3348aa1", "fusion_lon": 0.0}, {"lat": 38.93072866666667, "fusion_lat": 0.0, "type": "electric_scooter", "bike_id": "32ac55604e0141d4399343e860405fec", "is_reserved": 0, "rental_uris": {"ios": "https://dc.lft.to/lastmile_qr_scan", "android": "https://dc.lft.to/lastmile_qr_scan"}, "is_disabled": 0, "lon": -77.021657, "name": "32ac55604e0141d4399343e860405fec", "fusion_lon": 0.0}, {"lat": 38.86711783333333, "fusion_lat": 0.0, "type": "electric_scooter", "bike_id": "09fe377f474c9c31461c2e64a1120668", "is_reserved": 0, "rental_uris": {"ios": "https://dc.lft.to/lastmile_qr_scan", "android": "https://dc.lft.to/lastmile_qr_scan"}, "is_disabled": 0, "lon": -76.98727583333333, "name": "09fe377f474c9c31461c2e64a1120668", "fusion_lon": 0.0}, {"lat": 38.922523, "fusion_lat": 0.0, "type": "electric_scooter", "bike_id": "61ff0f900b7e1de7ccdc09110b724ebc", "is_reserved": 0, "rental_uris": {"ios": "https://dc.lft.to/lastmile_qr_scan", "android": "https://dc.lft.to/lastmile_qr_scan"}, "is_disabled": 0, "lon": -77.01955816666667, "name": "61ff0f900b7e1de7ccdc09110b724ebc", "fusion_lon": 0.0}, {"lat": 38.9023745, "fusion_lat": 0.0, "type": "electric_scooter", "bike_id": "05f7216ccdbd0c6324260eb8a442a1b1", "is_reserved": 0, "rental_uris": {"ios": "https://dc.lft.to/lastmile_qr_scan", "android": "https://dc.lft.to/lastmile_qr_scan"}, "is_disabled": 0, "lon": -77.033415, "name": "05f7216ccdbd0c6324260eb8a442a1b1", "fusion_lon": 0.0}, {"lat": 38.92017216666667, "fusion_lat": 0.0, "type": "electric_scooter", "bike_id": "7ba06dae4d04eff982582749054ba689", "is_reserved": 0, "rental_uris": {"ios": "https://dc.lft.to/lastmile_qr_scan", "android": "https://dc.lft.to/lastmile_qr_scan"}, "is_disabled": 0, "lon": -77.02042866666666, "name": "7ba06dae4d04eff982582749054ba689", "fusion_lon": 0.0}, {"lat": 38.956859, "fusion_lat": 0.0, "type": "electric_scooter", "bike_id": "40e9376676c2c045cb691c41b243a587", "is_reserved": 0, "rental_uris": {"ios": "https://dc.lft.to/lastmile_qr_scan", "android": "https://dc.lft.to/lastmile_qr_scan"}, "is_disabled": 0, "lon": -77.02395816666667, "name": "40e9376676c2c045cb691c41b243a587", "fusion_lon": 0.0}, {"lat": 38.91560666666667, "fusion_lat": 0.0, "type": "electric_scooter", "bike_id": "7f2660d9ec178b132f99b4681cc86589", "is_reserved": 0, "rental_uris": {"ios": "https://dc.lft.to/lastmile_qr_scan", "android": "https://dc.lft.to/lastmile_qr_scan"}, "is_disabled": 0, "lon": -77.039517, "name": "7f2660d9ec178b132f99b4681cc86589", "fusion_lon": 0.0}, {"lat": 38.88485333333333, "fusion_lat": 0.0, "type": "electric_scooter", "bike_id": "df9ea7cb3c821cc089db9f5ccf3f8adb", "is_reserved": 0, "rental_uris": {"ios": "https://dc.lft.to/lastmile_qr_scan", "android": "https://dc.lft.to/lastmile_qr_scan"}, "is_disabled": 0, "lon": -77.015079, "name": "df9ea7cb3c821cc089db9f5ccf3f8adb", "fusion_lon": 0.0}, {"lat": 38.90834183333333, "fusion_lat": 0.0, "type": "electric_scooter", "bike_id": "178502fb4be587129004bd8fa711b233", "is_reserved": 0, "rental_uris": {"ios": "https://dc.lft.to/lastmile_qr_scan", "android": "https://dc.lft.to/lastmile_qr_scan"}, "is_disabled": 0, "lon": -77.00926933333334, "name": "178502fb4be587129004bd8fa711b233", "fusion_lon": 0.0}, {"lat": 38.89830366666666, "fusion_lat": 0.0, "type": "electric_scooter", "bike_id": "9be7fb284e17b92f140417f639352a6d", "is_reserved": 0, "rental_uris": {"ios": "https://dc.lft.to/lastmile_qr_scan", "android": "https://dc.lft.to/lastmile_qr_scan"}, "is_disabled": 0, "lon": -77.0334855, "name": "9be7fb284e17b92f140417f639352a6d", "fusion_lon": 0.0}, {"lat": 38.8746355, "fusion_lat": 0.0, "type": "electric_scooter", "bike_id": "28a89ec7d2f10028184651726efa681e", "is_reserved": 0, "rental_uris": {"ios": "https://dc.lft.to/lastmile_qr_scan", "android": "https://dc.lft.to/lastmile_qr_scan"}, "is_disabled": 0, "lon": -77.01895566666667, "name": "28a89ec7d2f10028184651726efa681e", "fusion_lon": 0.0}, {"lat": 38.9107335, "fusion_lat": 0.0, "type": "electric_scooter", "bike_id": "ae3b89ba50e0bb6115a938bb367f83cc", "is_reserved": 0, "rental_uris": {"ios": "https://dc.lft.to/lastmile_qr_scan", "android": "https://dc.lft.to/lastmile_qr_scan"}, "is_disabled": 0, "lon": -77.03706366666667, "name": "ae3b89ba50e0bb6115a938bb367f83cc", "fusion_lon": 0.0}, {"lat": 38.907092166666665, "fusion_lat": 0.0, "type": "electric_scooter", "bike_id": "b8ddf9971e0bcf7531e48be90300d4b4", "is_reserved": 0, "rental_uris": {"ios": "https://dc.lft.to/lastmile_qr_scan", "android": "https://dc.lft.to/lastmile_qr_scan"}, "is_disabled": 0, "lon": -77.07610983333333, "name": "b8ddf9971e0bcf7531e48be90300d4b4", "fusion_lon": 0.0}, {"lat": 38.919268, "fusion_lat": 0.0, "type": "electric_scooter", "bike_id": "703e22857f181d59c9d11ab66b7729de", "is_reserved": 0, "rental_uris": {"ios": "https://dc.lft.to/lastmile_qr_scan", "android": "https://dc.lft.to/lastmile_qr_scan"}, "is_disabled": 0, "lon": -77.03220833333333, "name": "703e22857f181d59c9d11ab66b7729de", "fusion_lon": 0.0}, {"lat": 38.88245633333333, "fusion_lat": 0.0, "type": "electric_scooter", "bike_id": "ebc55f2a3d7df7d26a3c33f10eab472c", "is_reserved": 0, "rental_uris": {"ios": "https://dc.lft.to/lastmile_qr_scan", "android": "https://dc.lft.to/lastmile_qr_scan"}, "is_disabled": 0, "lon": -76.99125016666666, "name": "ebc55f2a3d7df7d26a3c33f10eab472c", "fusion_lon": 0.0}, {"lat": 38.90255416666667, "fusion_lat": 0.0, "type": "electric_scooter", "bike_id": "b4be8a95ea982b812ff9043efe1b7a21", "is_reserved": 0, "rental_uris": {"ios": "https://dc.lft.to/lastmile_qr_scan", "android": "https://dc.lft.to/lastmile_qr_scan"}, "is_disabled": 0, "lon": -77.03840783333334, "name": "b4be8a95ea982b812ff9043efe1b7a21", "fusion_lon": 0.0}, {"lat": 38.90357233333334, "fusion_lat": 0.0, "type": "electric_scooter", "bike_id": "8ac5de0d80835aa246f8d7b8b1d6efb3", "is_reserved": 0, "rental_uris": {"ios": "https://dc.lft.to/lastmile_qr_scan", "android": "https://dc.lft.to/lastmile_qr_scan"}, "is_disabled": 0, "lon": -77.03984916666667, "name": "8ac5de0d80835aa246f8d7b8b1d6efb3", "fusion_lon": 0.0}, {"lat": 38.89613516666667, "fusion_lat": 0.0, "type": "electric_scooter", "bike_id": "d62204f4b724cac3d46056afe9ffbb76", "is_reserved": 0, "rental_uris": {"ios": "https://dc.lft.to/lastmile_qr_scan", "android": "https://dc.lft.to/lastmile_qr_scan"}, "is_disabled": 0, "lon": -77.04557066666666, "name": "d62204f4b724cac3d46056afe9ffbb76", "fusion_lon": 0.0}, {"lat": 38.906327, "fusion_lat": 0.0, "type": "electric_scooter", "bike_id": "a2dc572160cd49347ab5db878dd3e847", "is_reserved": 0, "rental_uris": {"ios": "https://dc.lft.to/lastmile_qr_scan", "android": "https://dc.lft.to/lastmile_qr_scan"}, "is_disabled": 0, "lon": -77.04154183333333, "name": "a2dc572160cd49347ab5db878dd3e847", "fusion_lon": 0.0}, {"lat": 38.90261316666667, "fusion_lat": 0.0, "type": "electric_scooter", "bike_id": "c4dea51f1f6f6d9d2b24d9e6ec1d31a1", "is_reserved": 0, "rental_uris": {"ios": "https://dc.lft.to/lastmile_qr_scan", "android": "https://dc.lft.to/lastmile_qr_scan"}, "is_disabled": 0, "lon": -77.0242085, "name": "c4dea51f1f6f6d9d2b24d9e6ec1d31a1", "fusion_lon": 0.0}, {"lat": 38.918675, "fusion_lat": 0.0, "type": "electric_scooter", "bike_id": "7ded205c842cbb692b6c67e6078cd053", "is_reserved": 0, "rental_uris": {"ios": "https://dc.lft.to/lastmile_qr_scan", "android": "https://dc.lft.to/lastmile_qr_scan"}, "is_disabled": 0, "lon": -77.04751033333334, "name": "7ded205c842cbb692b6c67e6078cd053", "fusion_lon": 0.0}, {"lat": 38.9148605, "fusion_lat": 0.0, "type": "electric_scooter", "bike_id": "1de88070fd53ba22c9759cb6fdaffd69", "is_reserved": 0, "rental_uris": {"ios": "https://dc.lft.to/lastmile_qr_scan", "android": "https://dc.lft.to/lastmile_qr_scan"}, "is_disabled": 0, "lon": -77.02195016666667, "name": "1de88070fd53ba22c9759cb6fdaffd69", "fusion_lon": 0.0}, {"lat": 38.92158933333333, "fusion_lat": 0.0, "type": "electric_scooter", "bike_id": "74cdd76a0b47770b858893d6d76ed013", "is_reserved": 0, "rental_uris": {"ios": "https://dc.lft.to/lastmile_qr_scan", "android": "https://dc.lft.to/lastmile_qr_scan"}, "is_disabled": 0, "lon": -77.034404, "name": "74cdd76a0b47770b858893d6d76ed013", "fusion_lon": 0.0}, {"lat": 38.901134166666665, "fusion_lat": 0.0, "type": "electric_scooter", "bike_id": "780fb2913186fe638d722d4009e7d9ea", "is_reserved": 0, "rental_uris": {"ios": "https://dc.lft.to/lastmile_qr_scan", "android": "https://dc.lft.to/lastmile_qr_scan"}, "is_disabled": 0, "lon": -77.04988233333333, "name": "780fb2913186fe638d722d4009e7d9ea", "fusion_lon": 0.0}, {"lat": 38.957315, "fusion_lat": 0.0, "type": "electric_scooter", "bike_id": "3b5d3d09b30cb127ec14f7cdc816ec30", "is_reserved": 0, "rental_uris": {"ios": "https://dc.lft.to/lastmile_qr_scan", "android": "https://dc.lft.to/lastmile_qr_scan"}, "is_disabled": 0, "lon": -77.024048, "name": "3b5d3d09b30cb127ec14f7cdc816ec30", "fusion_lon": 0.0}, {"lat": 38.872276166666666, "fusion_lat": 0.0, "type": "electric_scooter", "bike_id": "dacea525c51f891fd406aeb10120f2e8", "is_reserved": 0, "rental_uris": {"ios": "https://dc.lft.to/lastmile_qr_scan", "android": "https://dc.lft.to/lastmile_qr_scan"}, "is_disabled": 0, "lon": -77.01763116666666, "name": "dacea525c51f891fd406aeb10120f2e8", "fusion_lon": 0.0}, {"lat": 38.873446666666666, "fusion_lat": 0.0, "type": "electric_scooter", "bike_id": "49e394e526327ac802478050853420f1", "is_reserved": 0, "rental_uris": {"ios": "https://dc.lft.to/lastmile_qr_scan", "android": "https://dc.lft.to/lastmile_qr_scan"}, "is_disabled": 0, "lon": -77.002646, "name": "49e394e526327ac802478050853420f1", "fusion_lon": 0.0}, {"lat": 38.9160235, "fusion_lat": 0.0, "type": "electric_scooter", "bike_id": "378b6abbcde0da3f434f4abf732a673e", "is_reserved": 0, "rental_uris": {"ios": "https://dc.lft.to/lastmile_qr_scan", "android": "https://dc.lft.to/lastmile_qr_scan"}, "is_disabled": 0, "lon": -77.02152783333334, "name": "378b6abbcde0da3f434f4abf732a673e", "fusion_lon": 0.0}, {"lat": 38.917209, "fusion_lat": 0.0, "type": "electric_scooter", "bike_id": "aaff5baac900e1a1bd1bd35e235bc3fe", "is_reserved": 0, "rental_uris": {"ios": "https://dc.lft.to/lastmile_qr_scan", "android": "https://dc.lft.to/lastmile_qr_scan"}, "is_disabled": 0, "lon": -77.02974833333333, "name": "aaff5baac900e1a1bd1bd35e235bc3fe", "fusion_lon": 0.0}, {"lat": 38.90682233333333, "fusion_lat": 0.0, "type": "electric_scooter", "bike_id": "1612bbf6861ee86f081d478dc2eca74b", "is_reserved": 0, "rental_uris": {"ios": "https://dc.lft.to/lastmile_qr_scan", "android": "https://dc.lft.to/lastmile_qr_scan"}, "is_disabled": 0, "lon": -77.0715925, "name": "1612bbf6861ee86f081d478dc2eca74b", "fusion_lon": 0.0}, {"lat": 38.962270333333336, "fusion_lat": 0.0, "type": "electric_bike", "bike_id": "7974eceb83ce6aa09a65793102c4d4aa", "is_reserved": 0, "rental_uris": {"ios": "https://dc.lft.to/lastmile_qr_scan", "android": "https://dc.lft.to/lastmile_qr_scan"}, "is_disabled": 0, "lon": -77.026272, "name": "7974eceb83ce6aa09a65793102c4d4aa", "fusion_lon": 0.0}, {"lat": 38.907001, "fusion_lat": 0.0, "type": "electric_scooter", "bike_id": "0a376837cd372f8ce9b783232e137d93", "is_reserved": 0, "rental_uris": {"ios": "https://dc.lft.to/lastmile_qr_scan", "android": "https://dc.lft.to/lastmile_qr_scan"}, "is_disabled": 0, "lon": -77.02941433333334, "name": "0a376837cd372f8ce9b783232e137d93", "fusion_lon": 0.0}, {"lat": 38.862347, "fusion_lat": 0.0, "type": "electric_scooter", "bike_id": "90caf962166ab0cd2164cc5573f9bfd5", "is_reserved": 0, "rental_uris": {"ios": "https://dc.lft.to/lastmile_qr_scan", "android": "https://dc.lft.to/lastmile_qr_scan"}, "is_disabled": 0, "lon": -76.99517533333334, "name": "90caf962166ab0cd2164cc5573f9bfd5", "fusion_lon": 0.0}, {"lat": 38.90028066666667, "fusion_lat": 0.0, "type": "electric_scooter", "bike_id": "50f95900a029a612405f4009321ed7cb", "is_reserved": 0, "rental_uris": {"ios": "https://dc.lft.to/lastmile_qr_scan", "android": "https://dc.lft.to/lastmile_qr_scan"}, "is_disabled": 0, "lon": -77.00661116666667, "name": "50f95900a029a612405f4009321ed7cb", "fusion_lon": 0.0}, {"lat": 38.92032833333333, "fusion_lat": 0.0, "type": "electric_scooter", "bike_id": "4467f76b99cfcaa4ed15f314929e36bd", "is_reserved": 0, "rental_uris": {"ios": "https://dc.lft.to/lastmile_qr_scan", "android": "https://dc.lft.to/lastmile_qr_scan"}, "is_disabled": 0, "lon": -77.02582533333333, "name": "4467f76b99cfcaa4ed15f314929e36bd", "fusion_lon": 0.0}, {"lat": 38.9005055, "fusion_lat": 0.0, "type": "electric_scooter", "bike_id": "fc72a8c4d7136d1a31afa0a59b669c0e", "is_reserved": 0, "rental_uris": {"ios": "https://dc.lft.to/lastmile_qr_scan", "android": "https://dc.lft.to/lastmile_qr_scan"}, "is_disabled": 0, "lon": -77.00065883333333, "name": "fc72a8c4d7136d1a31afa0a59b669c0e", "fusion_lon": 0.0}, {"lat": 38.8606155, "fusion_lat": 0.0, "type": "electric_scooter", "bike_id": "9bab9ded8751d69eb8b92c369301d489", "is_reserved": 0, "rental_uris": {"ios": "https://dc.lft.to/lastmile_qr_scan", "android": "https://dc.lft.to/lastmile_qr_scan"}, "is_disabled": 0, "lon": -76.98424166666666, "name": "9bab9ded8751d69eb8b92c369301d489", "fusion_lon": 0.0}, {"lat": 38.88864566666667, "fusion_lat": 0.0, "type": "electric_scooter", "bike_id": "25b97e5555aac2c97cf71c2bbe20bb95", "is_reserved": 0, "rental_uris": {"ios": "https://dc.lft.to/lastmile_qr_scan", "android": "https://dc.lft.to/lastmile_qr_scan"}, "is_disabled": 0, "lon": -77.04007933333334, "name": "25b97e5555aac2c97cf71c2bbe20bb95", "fusion_lon": 0.0}, {"lat": 38.89958383333333, "fusion_lat": 0.0, "type": "electric_scooter", "bike_id": "3a0b16e2cb9d57dfcd96c81a778445c0", "is_reserved": 0, "rental_uris": {"ios": "https://dc.lft.to/lastmile_qr_scan", "android": "https://dc.lft.to/lastmile_qr_scan"}, "is_disabled": 0, "lon": -77.01613416666666, "name": "3a0b16e2cb9d57dfcd96c81a778445c0", "fusion_lon": 0.0}, {"lat": 38.893554333333334, "fusion_lat": 0.0, "type": "electric_scooter", "bike_id": "98bc85dd77b9a2c334a46fe70ad122a0", "is_reserved": 0, "rental_uris": {"ios": "https://dc.lft.to/lastmile_qr_scan", "android": "https://dc.lft.to/lastmile_qr_scan"}, "is_disabled": 0, "lon": -77.00333683333334, "name": "98bc85dd77b9a2c334a46fe70ad122a0", "fusion_lon": 0.0}, {"lat": 38.930931, "fusion_lat": 0.0, "type": "electric_scooter", "bike_id": "4d0bb5b8f86077144c1eda4fb7eacc26", "is_reserved": 0, "rental_uris": {"ios": "https://dc.lft.to/lastmile_qr_scan", "android": "https://dc.lft.to/lastmile_qr_scan"}, "is_disabled": 0, "lon": -77.0344385, "name": "4d0bb5b8f86077144c1eda4fb7eacc26", "fusion_lon": 0.0}, {"lat": 38.8763955, "fusion_lat": 0.0, "type": "electric_scooter", "bike_id": "8b0b7923f76e2638c3c2c8a185d3cde8", "is_reserved": 0, "rental_uris": {"ios": "https://dc.lft.to/lastmile_qr_scan", "android": "https://dc.lft.to/lastmile_qr_scan"}, "is_disabled": 0, "lon": -77.00455466666666, "name": "8b0b7923f76e2638c3c2c8a185d3cde8", "fusion_lon": 0.0}, {"lat": 38.887818833333334, "fusion_lat": 0.0, "type": "electric_scooter", "bike_id": "b3a7accce453ef4a4e0c6710b1768f50", "is_reserved": 0, "rental_uris": {"ios": "https://dc.lft.to/lastmile_qr_scan", "android": "https://dc.lft.to/lastmile_qr_scan"}, "is_disabled": 0, "lon": -76.95533533333334, "name": "b3a7accce453ef4a4e0c6710b1768f50", "fusion_lon": 0.0}, {"lat": 38.8756865, "fusion_lat": 0.0, "type": "electric_scooter", "bike_id": "8fae45ad4574ae848604e363760ea94e", "is_reserved": 0, "rental_uris": {"ios": "https://dc.lft.to/lastmile_qr_scan", "android": "https://dc.lft.to/lastmile_qr_scan"}, "is_disabled": 0, "lon": -77.0059585, "name": "8fae45ad4574ae848604e363760ea94e", "fusion_lon": 0.0}, {"lat": 38.923305166666665, "fusion_lat": 0.0, "type": "electric_scooter", "bike_id": "3fb8164c714b5c2831b178a47f5a785e", "is_reserved": 0, "rental_uris": {"ios": "https://dc.lft.to/lastmile_qr_scan", "android": "https://dc.lft.to/lastmile_qr_scan"}, "is_disabled": 0, "lon": -77.03906933333333, "name": "3fb8164c714b5c2831b178a47f5a785e", "fusion_lon": 0.0}, {"lat": 38.9289415, "fusion_lat": 0.0, "type": "electric_scooter", "bike_id": "893daf337795a01e13716a33cd82aa96", "is_reserved": 0, "rental_uris": {"ios": "https://dc.lft.to/lastmile_qr_scan", "android": "https://dc.lft.to/lastmile_qr_scan"}, "is_disabled": 0, "lon": -77.032486, "name": "893daf337795a01e13716a33cd82aa96", "fusion_lon": 0.0}, {"lat": 38.88863166666667, "fusion_lat": 0.0, "type": "electric_scooter", "bike_id": "f491273428aa03e95655407a79cea699", "is_reserved": 0, "rental_uris": {"ios": "https://dc.lft.to/lastmile_qr_scan", "android": "https://dc.lft.to/lastmile_qr_scan"}, "is_disabled": 0, "lon": -77.0400765, "name": "f491273428aa03e95655407a79cea699", "fusion_lon": 0.0}, {"lat": 38.893915, "fusion_lat": 0.0, "type": "electric_scooter", "bike_id": "94b6a60b64599db64333264d56968b23", "is_reserved": 0, "rental_uris": {"ios": "https://dc.lft.to/lastmile_qr_scan", "android": "https://dc.lft.to/lastmile_qr_scan"}, "is_disabled": 0, "lon": -77.03178683333333, "name": "94b6a60b64599db64333264d56968b23", "fusion_lon": 0.0}, {"lat": 38.89474083333333, "fusion_lat": 0.0, "type": "electric_scooter", "bike_id": "524cc500a44bd8a9dee3b0a0e706bc88", "is_reserved": 0, "rental_uris": {"ios": "https://dc.lft.to/lastmile_qr_scan", "android": "https://dc.lft.to/lastmile_qr_scan"}, "is_disabled": 0, "lon": -77.02820166666666, "name": "524cc500a44bd8a9dee3b0a0e706bc88", "fusion_lon": 0.0}, {"lat": 38.902568, "fusion_lat": 0.0, "type": "electric_bike", "bike_id": "8bd8b138eb0bf4fe29c109494fe1d02d", "is_reserved": 0, "rental_uris": {"ios": "https://dc.lft.to/lastmile_qr_scan", "android": "https://dc.lft.to/lastmile_qr_scan"}, "is_disabled": 0, "lon": -77.01737216666666, "name": "8bd8b138eb0bf4fe29c109494fe1d02d", "fusion_lon": 0.0}, {"lat": 38.83206083333334, "fusion_lat": 0.0, "type": "electric_scooter", "bike_id": "8cbd60f772d0766818d06c6bfcb693ff", "is_reserved": 0, "rental_uris": {"ios": "https://dc.lft.to/lastmile_qr_scan", "android": "https://dc.lft.to/lastmile_qr_scan"}, "is_disabled": 0, "lon": -77.00796183333334, "name": "8cbd60f772d0766818d06c6bfcb693ff", "fusion_lon": 0.0}, {"lat": 38.916866166666665, "fusion_lat": 0.0, "type": "electric_scooter", "bike_id": "2e0abc8807b40b6324cbf90cb7694254", "is_reserved": 0, "rental_uris": {"ios": "https://dc.lft.to/lastmile_qr_scan", "android": "https://dc.lft.to/lastmile_qr_scan"}, "is_disabled": 0, "lon": -77.02529533333333, "name": "2e0abc8807b40b6324cbf90cb7694254", "fusion_lon": 0.0}, {"lat": 38.905364166666665, "fusion_lat": 0.0, "type": "electric_scooter", "bike_id": "2e824d10c36a23568b57253001c20778", "is_reserved": 0, "rental_uris": {"ios": "https://dc.lft.to/lastmile_qr_scan", "android": "https://dc.lft.to/lastmile_qr_scan"}, "is_disabled": 0, "lon": -76.98113433333333, "name": "2e824d10c36a23568b57253001c20778", "fusion_lon": 0.0}, {"lat": 38.911538, "fusion_lat": 0.0, "type": "electric_scooter", "bike_id": "422eebdf2c250d1252852e040d5d54f5", "is_reserved": 0, "rental_uris": {"ios": "https://dc.lft.to/lastmile_qr_scan", "android": "https://dc.lft.to/lastmile_qr_scan"}, "is_disabled": 0, "lon": -77.038551, "name": "422eebdf2c250d1252852e040d5d54f5", "fusion_lon": 0.0}, {"lat": 38.88911516666667, "fusion_lat": 0.0, "type": "electric_scooter", "bike_id": "495692758dc179dd9ec01d2ad98badb7", "is_reserved": 0, "rental_uris": {"ios": "https://dc.lft.to/lastmile_qr_scan", "android": "https://dc.lft.to/lastmile_qr_scan"}, "is_disabled": 0, "lon": -76.9917395, "name": "495692758dc179dd9ec01d2ad98badb7", "fusion_lon": 0.0}, {"lat": 38.892365833333336, "fusion_lat": 0.0, "type": "electric_scooter", "bike_id": "6922a3e5faf78f8df51b01d63101bc9f", "is_reserved": 0, "rental_uris": {"ios": "https://dc.lft.to/lastmile_qr_scan", "android": "https://dc.lft.to/lastmile_qr_scan"}, "is_disabled": 0, "lon": -77.032096, "name": "6922a3e5faf78f8df51b01d63101bc9f", "fusion_lon": 0.0}, {"lat": 38.83839666666667, "fusion_lat": 0.0, "type": "electric_bike", "bike_id": "1f0cc52bb791342c3df13d5f1a800316", "is_reserved": 0, "rental_uris": {"ios": "https://dc.lft.to/lastmile_qr_scan", "android": "https://dc.lft.to/lastmile_qr_scan"}, "is_disabled": 0, "lon": -77.00231433333333, "name": "1f0cc52bb791342c3df13d5f1a800316", "fusion_lon": 0.0}, {"lat": 38.9085485, "fusion_lat": 0.0, "type": "electric_scooter", "bike_id": "7d9edc0f99d226648d39d943bfa45f14", "is_reserved": 0, "rental_uris": {"ios": "https://dc.lft.to/lastmile_qr_scan", "android": "https://dc.lft.to/lastmile_qr_scan"}, "is_disabled": 0, "lon": -77.02543433333334, "name": "7d9edc0f99d226648d39d943bfa45f14", "fusion_lon": 0.0}, {"lat": 38.93248216666667, "fusion_lat": 0.0, "type": "electric_scooter", "bike_id": "cf2d18480816fe38d3c973ecab96dc0f", "is_reserved": 0, "rental_uris": {"ios": "https://dc.lft.to/lastmile_qr_scan", "android": "https://dc.lft.to/lastmile_qr_scan"}, "is_disabled": 0, "lon": -77.03853516666666, "name": "cf2d18480816fe38d3c973ecab96dc0f", "fusion_lon": 0.0}, {"lat": 38.835482, "fusion_lat": 0.0, "type": "electric_bike", "bike_id": "fe500030f48abed2660d8ccfd3f3974b", "is_reserved": 0, "rental_uris": {"ios": "https://dc.lft.to/lastmile_qr_scan", "android": "https://dc.lft.to/lastmile_qr_scan"}, "is_disabled": 0, "lon": -76.9873155, "name": "fe500030f48abed2660d8ccfd3f3974b", "fusion_lon": 0.0}, {"lat": 38.90973416666667, "fusion_lat": 0.0, "type": "electric_scooter", "bike_id": "53206193d18cbff4ee8ac073cffa4155", "is_reserved": 0, "rental_uris": {"ios": "https://dc.lft.to/lastmile_qr_scan", "android": "https://dc.lft.to/lastmile_qr_scan"}, "is_disabled": 0, "lon": -77.034459, "name": "53206193d18cbff4ee8ac073cffa4155", "fusion_lon": 0.0}, {"lat": 38.905815833333335, "fusion_lat": 0.0, "type": "electric_scooter", "bike_id": "e5e6e41de818e835880e1ce50d33e358", "is_reserved": 0, "rental_uris": {"ios": "https://dc.lft.to/lastmile_qr_scan", "android": "https://dc.lft.to/lastmile_qr_scan"}, "is_disabled": 0, "lon": -77.04155766666666, "name": "e5e6e41de818e835880e1ce50d33e358", "fusion_lon": 0.0}, {"lat": 38.923224833333336, "fusion_lat": 0.0, "type": "electric_scooter", "bike_id": "d875096f0f1db4580281e58bc19ffca9", "is_reserved": 0, "rental_uris": {"ios": "https://dc.lft.to/lastmile_qr_scan", "android": "https://dc.lft.to/lastmile_qr_scan"}, "is_disabled": 0, "lon": -77.04298583333333, "name": "d875096f0f1db4580281e58bc19ffca9", "fusion_lon": 0.0}, {"lat": 38.96223583333333, "fusion_lat": 0.0, "type": "electric_bike", "bike_id": "721f8f6c48d41419add681796eb748b5", "is_reserved": 0, "rental_uris": {"ios": "https://dc.lft.to/lastmile_qr_scan", "android": "https://dc.lft.to/lastmile_qr_scan"}, "is_disabled": 0, "lon": -77.02623016666666, "name": "721f8f6c48d41419add681796eb748b5", "fusion_lon": 0.0}, {"lat": 38.88458883333333, "fusion_lat": 0.0, "type": "electric_scooter", "bike_id": "0b1960bff4515dfde5e9e78db9bdc829", "is_reserved": 0, "rental_uris": {"ios": "https://dc.lft.to/lastmile_qr_scan", "android": "https://dc.lft.to/lastmile_qr_scan"}, "is_disabled": 0, "lon": -76.92623116666667, "name": "0b1960bff4515dfde5e9e78db9bdc829", "fusion_lon": 0.0}, {"lat": 38.906022166666666, "fusion_lat": 0.0, "type": "electric_scooter", "bike_id": "913398f259d1b265a468c8a57cb2c7fd", "is_reserved": 0, "rental_uris": {"ios": "https://dc.lft.to/lastmile_qr_scan", "android": "https://dc.lft.to/lastmile_qr_scan"}, "is_disabled": 0, "lon": -77.02116333333333, "name": "913398f259d1b265a468c8a57cb2c7fd", "fusion_lon": 0.0}, {"lat": 38.928439166666664, "fusion_lat": 0.0, "type": "electric_scooter", "bike_id": "a9ac76c0f0e39434677bf0dea446b195", "is_reserved": 0, "rental_uris": {"ios": "https://dc.lft.to/lastmile_qr_scan", "android": "https://dc.lft.to/lastmile_qr_scan"}, "is_disabled": 0, "lon": -77.03636733333333, "name": "a9ac76c0f0e39434677bf0dea446b195", "fusion_lon": 0.0}, {"lat": 38.91004366666667, "fusion_lat": 0.0, "type": "electric_scooter", "bike_id": "cd592f81bb61d8479048154412fe94e4", "is_reserved": 0, "rental_uris": {"ios": "https://dc.lft.to/lastmile_qr_scan", "android": "https://dc.lft.to/lastmile_qr_scan"}, "is_disabled": 0, "lon": -77.04362533333334, "name": "cd592f81bb61d8479048154412fe94e4", "fusion_lon": 0.0}, {"lat": 38.90241283333334, "fusion_lat": 0.0, "type": "electric_scooter", "bike_id": "ad389d91dc0d5c67ab3c95971aab1a14", "is_reserved": 0, "rental_uris": {"ios": "https://dc.lft.to/lastmile_qr_scan", "android": "https://dc.lft.to/lastmile_qr_scan"}, "is_disabled": 0, "lon": -77.00207983333334, "name": "ad389d91dc0d5c67ab3c95971aab1a14", "fusion_lon": 0.0}, {"lat": 38.911167666666664, "fusion_lat": 0.0, "type": "electric_scooter", "bike_id": "fc710c01429e8a4ec0a15adc6aedb689", "is_reserved": 0, "rental_uris": {"ios": "https://dc.lft.to/lastmile_qr_scan", "android": "https://dc.lft.to/lastmile_qr_scan"}, "is_disabled": 0, "lon": -77.03202383333333, "name": "fc710c01429e8a4ec0a15adc6aedb689", "fusion_lon": 0.0}, {"lat": 38.9279655, "fusion_lat": 0.0, "type": "electric_scooter", "bike_id": "c08ebf0ca263de0f03e4845e7525d2cb", "is_reserved": 0, "rental_uris": {"ios": "https://dc.lft.to/lastmile_qr_scan", "android": "https://dc.lft.to/lastmile_qr_scan"}, "is_disabled": 0, "lon": -77.02207083333333, "name": "c08ebf0ca263de0f03e4845e7525d2cb", "fusion_lon": 0.0}, {"lat": 38.916925166666665, "fusion_lat": 0.0, "type": "electric_scooter", "bike_id": "81aaae3a39ed570e8717ead556eaae15", "is_reserved": 0, "rental_uris": {"ios": "https://dc.lft.to/lastmile_qr_scan", "android": "https://dc.lft.to/lastmile_qr_scan"}, "is_disabled": 0, "lon": -77.03762466666667, "name": "81aaae3a39ed570e8717ead556eaae15", "fusion_lon": 0.0}, {"lat": 38.87886366666667, "fusion_lat": 0.0, "type": "electric_bike", "bike_id": "b79eb4f56c792c9de4385769353b5494", "is_reserved": 0, "rental_uris": {"ios": "https://dc.lft.to/lastmile_qr_scan", "android": "https://dc.lft.to/lastmile_qr_scan"}, "is_disabled": 0, "lon": -77.09614583333334, "name": "b79eb4f56c792c9de4385769353b5494", "fusion_lon": 0.0}, {"lat": 38.91563816666667, "fusion_lat": 0.0, "type": "electric_scooter", "bike_id": "0503a9537edd6b722ca03ffc4dff57f1", "is_reserved": 0, "rental_uris": {"ios": "https://dc.lft.to/lastmile_qr_scan", "android": "https://dc.lft.to/lastmile_qr_scan"}, "is_disabled": 0, "lon": -77.03909066666667, "name": "0503a9537edd6b722ca03ffc4dff57f1", "fusion_lon": 0.0}, {"lat": 38.92508183333333, "fusion_lat": 0.0, "type": "electric_scooter", "bike_id": "d00944427dba4955371fa774b75c7367", "is_reserved": 0, "rental_uris": {"ios": "https://dc.lft.to/lastmile_qr_scan", "android": "https://dc.lft.to/lastmile_qr_scan"}, "is_disabled": 0, "lon": -77.02355766666666, "name": "d00944427dba4955371fa774b75c7367", "fusion_lon": 0.0}, {"lat": 38.91702766666667, "fusion_lat": 0.0, "type": "electric_scooter", "bike_id": "0be12288ea7ac03c7380f110ef347d76", "is_reserved": 0, "rental_uris": {"ios": "https://dc.lft.to/lastmile_qr_scan", "android": "https://dc.lft.to/lastmile_qr_scan"}, "is_disabled": 0, "lon": -77.042654, "name": "0be12288ea7ac03c7380f110ef347d76", "fusion_lon": 0.0}, {"lat": 38.897877666666666, "fusion_lat": 0.0, "type": "electric_scooter", "bike_id": "d412be25bd3debc9d6a766527dba1dac", "is_reserved": 0, "rental_uris": {"ios": "https://dc.lft.to/lastmile_qr_scan", "android": "https://dc.lft.to/lastmile_qr_scan"}, "is_disabled": 0, "lon": -77.009164, "name": "d412be25bd3debc9d6a766527dba1dac", "fusion_lon": 0.0}, {"lat": 38.917726333333334, "fusion_lat": 0.0, "type": "electric_scooter", "bike_id": "da289dec1e0c351f1657aa36693e89ec", "is_reserved": 0, "rental_uris": {"ios": "https://dc.lft.to/lastmile_qr_scan", "android": "https://dc.lft.to/lastmile_qr_scan"}, "is_disabled": 0, "lon": -77.04060016666666, "name": "da289dec1e0c351f1657aa36693e89ec", "fusion_lon": 0.0}, {"lat": 38.924517, "fusion_lat": 0.0, "type": "electric_scooter", "bike_id": "356e0dc63573d62ee7686510a9504430", "is_reserved": 0, "rental_uris": {"ios": "https://dc.lft.to/lastmile_qr_scan", "android": "https://dc.lft.to/lastmile_qr_scan"}, "is_disabled": 0, "lon": -77.0411095, "name": "356e0dc63573d62ee7686510a9504430", "fusion_lon": 0.0}, {"lat": 38.896693166666665, "fusion_lat": 0.0, "type": "electric_scooter", "bike_id": "566316ca144511c837bede2f18fdcbaa", "is_reserved": 0, "rental_uris": {"ios": "https://dc.lft.to/lastmile_qr_scan", "android": "https://dc.lft.to/lastmile_qr_scan"}, "is_disabled": 0, "lon": -77.02622866666667, "name": "566316ca144511c837bede2f18fdcbaa", "fusion_lon": 0.0}, {"lat": 38.9106955, "fusion_lat": 0.0, "type": "electric_scooter", "bike_id": "606ddcf322b200b2ba820d0dd0291d63", "is_reserved": 0, "rental_uris": {"ios": "https://dc.lft.to/lastmile_qr_scan", "android": "https://dc.lft.to/lastmile_qr_scan"}, "is_disabled": 0, "lon": -77.0384175, "name": "606ddcf322b200b2ba820d0dd0291d63", "fusion_lon": 0.0}, {"lat": 38.8382665, "fusion_lat": 0.0, "type": "electric_bike", "bike_id": "d2ab75e496d8142900d13c1d3f9c0474", "is_reserved": 0, "rental_uris": {"ios": "https://dc.lft.to/lastmile_qr_scan", "android": "https://dc.lft.to/lastmile_qr_scan"}, "is_disabled": 0, "lon": -77.07915866666667, "name": "d2ab75e496d8142900d13c1d3f9c0474", "fusion_lon": 0.0}, {"lat": 38.87666933333333, "fusion_lat": 0.0, "type": "electric_scooter", "bike_id": "5655a25ca96d5233dea80d50cb07af15", "is_reserved": 0, "rental_uris": {"ios": "https://dc.lft.to/lastmile_qr_scan", "android": "https://dc.lft.to/lastmile_qr_scan"}, "is_disabled": 0, "lon": -77.00421933333334, "name": "5655a25ca96d5233dea80d50cb07af15", "fusion_lon": 0.0}, {"lat": 38.909812333333335, "fusion_lat": 0.0, "type": "electric_scooter", "bike_id": "7c837b65b5cc066271500290272d36bd", "is_reserved": 0, "rental_uris": {"ios": "https://dc.lft.to/lastmile_qr_scan", "android": "https://dc.lft.to/lastmile_qr_scan"}, "is_disabled": 0, "lon": -77.04403816666667, "name": "7c837b65b5cc066271500290272d36bd", "fusion_lon": 0.0}, {"lat": 38.9242375, "fusion_lat": 0.0, "type": "electric_scooter", "bike_id": "7dd76f9aeea230dbca4183c855695b31", "is_reserved": 0, "rental_uris": {"ios": "https://dc.lft.to/lastmile_qr_scan", "android": "https://dc.lft.to/lastmile_qr_scan"}, "is_disabled": 0, "lon": -77.019524, "name": "7dd76f9aeea230dbca4183c855695b31", "fusion_lon": 0.0}, {"lat": 38.96134133333334, "fusion_lat": 0.0, "type": "electric_bike", "bike_id": "13971220d20d93eb0509032c01d08e46", "is_reserved": 0, "rental_uris": {"ios": "https://dc.lft.to/lastmile_qr_scan", "android": "https://dc.lft.to/lastmile_qr_scan"}, "is_disabled": 0, "lon": -77.01364683333334, "name": "13971220d20d93eb0509032c01d08e46", "fusion_lon": 0.0}, {"lat": 38.92016316666667, "fusion_lat": 0.0, "type": "electric_scooter", "bike_id": "cae96c08365a626e0a312c417d93b253", "is_reserved": 0, "rental_uris": {"ios": "https://dc.lft.to/lastmile_qr_scan", "android": "https://dc.lft.to/lastmile_qr_scan"}, "is_disabled": 0, "lon": -77.04186316666667, "name": "cae96c08365a626e0a312c417d93b253", "fusion_lon": 0.0}, {"lat": 38.9083565, "fusion_lat": 0.0, "type": "electric_bike", "bike_id": "ca8e5bf3db31b3b602c18608a2cde167", "is_reserved": 0, "rental_uris": {"ios": "https://dc.lft.to/lastmile_qr_scan", "android": "https://dc.lft.to/lastmile_qr_scan"}, "is_disabled": 0, "lon": -76.93312383333334, "name": "ca8e5bf3db31b3b602c18608a2cde167", "fusion_lon": 0.0}, {"lat": 38.8840615, "fusion_lat": 0.0, "type": "electric_scooter", "bike_id": "76d7830fb3e5fb8baf43581b0c32e2c8", "is_reserved": 0, "rental_uris": {"ios": "https://dc.lft.to/lastmile_qr_scan", "android": "https://dc.lft.to/lastmile_qr_scan"}, "is_disabled": 0, "lon": -76.95400033333334, "name": "76d7830fb3e5fb8baf43581b0c32e2c8", "fusion_lon": 0.0}, {"lat": 38.89270666666667, "fusion_lat": 0.0, "type": "electric_scooter", "bike_id": "beb638d71e92ec9932ecf1a35435c2dd", "is_reserved": 0, "rental_uris": {"ios": "https://dc.lft.to/lastmile_qr_scan", "android": "https://dc.lft.to/lastmile_qr_scan"}, "is_disabled": 0, "lon": -77.0035025, "name": "beb638d71e92ec9932ecf1a35435c2dd", "fusion_lon": 0.0}, {"lat": 38.9098715, "fusion_lat": 0.0, "type": "electric_scooter", "bike_id": "d816da9d6bd2fa03dde80f4fbf94395c", "is_reserved": 0, "rental_uris": {"ios": "https://dc.lft.to/lastmile_qr_scan", "android": "https://dc.lft.to/lastmile_qr_scan"}, "is_disabled": 0, "lon": -77.03192566666667, "name": "d816da9d6bd2fa03dde80f4fbf94395c", "fusion_lon": 0.0}, {"lat": 38.92967216666667, "fusion_lat": 0.0, "type": "electric_scooter", "bike_id": "f0fae95622843af22324a8130dc11ec5", "is_reserved": 0, "rental_uris": {"ios": "https://dc.lft.to/lastmile_qr_scan", "android": "https://dc.lft.to/lastmile_qr_scan"}, "is_disabled": 0, "lon": -77.0282255, "name": "f0fae95622843af22324a8130dc11ec5", "fusion_lon": 0.0}, {"lat": 38.940422166666664, "fusion_lat": 0.0, "type": "electric_scooter", "bike_id": "cbc0bee73cb73e628440263d279a90d3", "is_reserved": 0, "rental_uris": {"ios": "https://dc.lft.to/lastmile_qr_scan", "android": "https://dc.lft.to/lastmile_qr_scan"}, "is_disabled": 0, "lon": -77.02912266666667, "name": "cbc0bee73cb73e628440263d279a90d3", "fusion_lon": 0.0}, {"lat": 38.90247, "fusion_lat": 0.0, "type": "electric_scooter", "bike_id": "9e0ad0f569ef47eee501e2bb857dfb3f", "is_reserved": 0, "rental_uris": {"ios": "https://dc.lft.to/lastmile_qr_scan", "android": "https://dc.lft.to/lastmile_qr_scan"}, "is_disabled": 0, "lon": -77.03950283333333, "name": "9e0ad0f569ef47eee501e2bb857dfb3f", "fusion_lon": 0.0}, {"lat": 38.90989033333334, "fusion_lat": 0.0, "type": "electric_scooter", "bike_id": "bdc950eb51973ce2de5bc4d168d9fcc5", "is_reserved": 0, "rental_uris": {"ios": "https://dc.lft.to/lastmile_qr_scan", "android": "https://dc.lft.to/lastmile_qr_scan"}, "is_disabled": 0, "lon": -77.03186883333333, "name": "bdc950eb51973ce2de5bc4d168d9fcc5", "fusion_lon": 0.0}, {"lat": 38.9086105, "fusion_lat": 0.0, "type": "electric_bike", "bike_id": "2aef9a70dd7369135c288688c662110d", "is_reserved": 0, "rental_uris": {"ios": "https://dc.lft.to/lastmile_qr_scan", "android": "https://dc.lft.to/lastmile_qr_scan"}, "is_disabled": 0, "lon": -76.99136766666666, "name": "2aef9a70dd7369135c288688c662110d", "fusion_lon": 0.0}, {"lat": 38.891695666666664, "fusion_lat": 0.0, "type": "electric_scooter", "bike_id": "0259c90c9416173eea6afda688a30c70", "is_reserved": 0, "rental_uris": {"ios": "https://dc.lft.to/lastmile_qr_scan", "android": "https://dc.lft.to/lastmile_qr_scan"}, "is_disabled": 0, "lon": -77.0155075, "name": "0259c90c9416173eea6afda688a30c70", "fusion_lon": 0.0}, {"lat": 38.921450666666665, "fusion_lat": 0.0, "type": "electric_scooter", "bike_id": "7ff9ae2329b0c3fc8171d08d11146f09", "is_reserved": 0, "rental_uris": {"ios": "https://dc.lft.to/lastmile_qr_scan", "android": "https://dc.lft.to/lastmile_qr_scan"}, "is_disabled": 0, "lon": -77.01817166666666, "name": "7ff9ae2329b0c3fc8171d08d11146f09", "fusion_lon": 0.0}, {"lat": 38.89042883333333, "fusion_lat": 0.0, "type": "electric_scooter", "bike_id": "c573418819127fb8fd3ffeee611edec2", "is_reserved": 0, "rental_uris": {"ios": "https://dc.lft.to/lastmile_qr_scan", "android": "https://dc.lft.to/lastmile_qr_scan"}, "is_disabled": 0, "lon": -76.95142733333333, "name": "c573418819127fb8fd3ffeee611edec2", "fusion_lon": 0.0}, {"lat": 38.907531, "fusion_lat": 0.0, "type": "electric_scooter", "bike_id": "45095d6182e94b3dbe62efe7d79b8f7b", "is_reserved": 0, "rental_uris": {"ios": "https://dc.lft.to/lastmile_qr_scan", "android": "https://dc.lft.to/lastmile_qr_scan"}, "is_disabled": 0, "lon": -77.03199766666667, "name": "45095d6182e94b3dbe62efe7d79b8f7b", "fusion_lon": 0.0}, {"lat": 38.9127465, "fusion_lat": 0.0, "type": "electric_scooter", "bike_id": "020b1b497e9812fb1902365fea7df2dd", "is_reserved": 0, "rental_uris": {"ios": "https://dc.lft.to/lastmile_qr_scan", "android": "https://dc.lft.to/lastmile_qr_scan"}, "is_disabled": 0, "lon": -77.02694016666666, "name": "020b1b497e9812fb1902365fea7df2dd", "fusion_lon": 0.0}, {"lat": 38.900355833333336, "fusion_lat": 0.0, "type": "electric_scooter", "bike_id": "a5057699cf2311b49ba78d2844a3e2c5", "is_reserved": 0, "rental_uris": {"ios": "https://dc.lft.to/lastmile_qr_scan", "android": "https://dc.lft.to/lastmile_qr_scan"}, "is_disabled": 0, "lon": -77.02388183333333, "name": "a5057699cf2311b49ba78d2844a3e2c5", "fusion_lon": 0.0}, {"lat": 38.930833666666665, "fusion_lat": 0.0, "type": "electric_scooter", "bike_id": "97f5d00f93c933d8860519ad00198031", "is_reserved": 0, "rental_uris": {"ios": "https://dc.lft.to/lastmile_qr_scan", "android": "https://dc.lft.to/lastmile_qr_scan"}, "is_disabled": 0, "lon": -77.02563416666666, "name": "97f5d00f93c933d8860519ad00198031", "fusion_lon": 0.0}, {"lat": 38.88508366666667, "fusion_lat": 0.0, "type": "electric_scooter", "bike_id": "b7bebfa8a44068bb3721382966a7e373", "is_reserved": 0, "rental_uris": {"ios": "https://dc.lft.to/lastmile_qr_scan", "android": "https://dc.lft.to/lastmile_qr_scan"}, "is_disabled": 0, "lon": -76.998388, "name": "b7bebfa8a44068bb3721382966a7e373", "fusion_lon": 0.0}, {"lat": 38.8983585, "fusion_lat": 0.0, "type": "electric_scooter", "bike_id": "748ddbd43317e30067e3ab6d0ede860a", "is_reserved": 0, "rental_uris": {"ios": "https://dc.lft.to/lastmile_qr_scan", "android": "https://dc.lft.to/lastmile_qr_scan"}, "is_disabled": 0, "lon": -77.03350233333333, "name": "748ddbd43317e30067e3ab6d0ede860a", "fusion_lon": 0.0}, {"lat": 38.939452, "fusion_lat": 0.0, "type": "electric_scooter", "bike_id": "70e7f4395b98baaad8acfcab3c6e09db", "is_reserved": 0, "rental_uris": {"ios": "https://dc.lft.to/lastmile_qr_scan", "android": "https://dc.lft.to/lastmile_qr_scan"}, "is_disabled": 0, "lon": -77.0725165, "name": "70e7f4395b98baaad8acfcab3c6e09db", "fusion_lon": 0.0}, {"lat": 38.908401, "fusion_lat": 0.0, "type": "electric_scooter", "bike_id": "9e76b02dadf90a4b7ff8b1f195fbab4a", "is_reserved": 0, "rental_uris": {"ios": "https://dc.lft.to/lastmile_qr_scan", "android": "https://dc.lft.to/lastmile_qr_scan"}, "is_disabled": 0, "lon": -77.03667383333334, "name": "9e76b02dadf90a4b7ff8b1f195fbab4a", "fusion_lon": 0.0}, {"lat": 38.89866083333333, "fusion_lat": 0.0, "type": "electric_scooter", "bike_id": "062e3c9f7dd0e4373a38116f9912c82f", "is_reserved": 0, "rental_uris": {"ios": "https://dc.lft.to/lastmile_qr_scan", "android": "https://dc.lft.to/lastmile_qr_scan"}, "is_disabled": 0, "lon": -76.9466175, "name": "062e3c9f7dd0e4373a38116f9912c82f", "fusion_lon": 0.0}, {"lat": 38.94199183333333, "fusion_lat": 0.0, "type": "electric_scooter", "bike_id": "61b449a3d0b86597920c2bc8b0134200", "is_reserved": 0, "rental_uris": {"ios": "https://dc.lft.to/lastmile_qr_scan", "android": "https://dc.lft.to/lastmile_qr_scan"}, "is_disabled": 0, "lon": -77.02515066666666, "name": "61b449a3d0b86597920c2bc8b0134200", "fusion_lon": 0.0}, {"lat": 38.91259733333333, "fusion_lat": 0.0, "type": "electric_scooter", "bike_id": "728636f8733cda318d829a4ff4a9bea4", "is_reserved": 0, "rental_uris": {"ios": "https://dc.lft.to/lastmile_qr_scan", "android": "https://dc.lft.to/lastmile_qr_scan"}, "is_disabled": 0, "lon": -77.04440416666667, "name": "728636f8733cda318d829a4ff4a9bea4", "fusion_lon": 0.0}, {"lat": 38.90042033333334, "fusion_lat": 0.0, "type": "electric_scooter", "bike_id": "add06f011e05590250fe08604a3b05df", "is_reserved": 0, "rental_uris": {"ios": "https://dc.lft.to/lastmile_qr_scan", "android": "https://dc.lft.to/lastmile_qr_scan"}, "is_disabled": 0, "lon": -76.91918416666667, "name": "add06f011e05590250fe08604a3b05df", "fusion_lon": 0.0}, {"lat": 38.883116666666666, "fusion_lat": 0.0, "type": "electric_scooter", "bike_id": "e286b47fcf1600146042c6df92681436", "is_reserved": 0, "rental_uris": {"ios": "https://dc.lft.to/lastmile_qr_scan", "android": "https://dc.lft.to/lastmile_qr_scan"}, "is_disabled": 0, "lon": -77.000522, "name": "e286b47fcf1600146042c6df92681436", "fusion_lon": 0.0}, {"lat": 38.90007683333333, "fusion_lat": 0.0, "type": "electric_scooter", "bike_id": "06ddde25454e08dd3077b6cf87fcaa4f", "is_reserved": 0, "rental_uris": {"ios": "https://dc.lft.to/lastmile_qr_scan", "android": "https://dc.lft.to/lastmile_qr_scan"}, "is_disabled": 0, "lon": -77.01029666666666, "name": "06ddde25454e08dd3077b6cf87fcaa4f", "fusion_lon": 0.0}, {"lat": 38.8745785, "fusion_lat": 0.0, "type": "electric_scooter", "bike_id": "e1142d9fc527bb9e7afbc011c338a155", "is_reserved": 0, "rental_uris": {"ios": "https://dc.lft.to/lastmile_qr_scan", "android": "https://dc.lft.to/lastmile_qr_scan"}, "is_disabled": 0, "lon": -77.00944083333333, "name": "e1142d9fc527bb9e7afbc011c338a155", "fusion_lon": 0.0}, {"lat": 38.843143833333336, "fusion_lat": 0.0, "type": "electric_scooter", "bike_id": "53b18061806e0acff392eb77008fbbd4", "is_reserved": 0, "rental_uris": {"ios": "https://dc.lft.to/lastmile_qr_scan", "android": "https://dc.lft.to/lastmile_qr_scan"}, "is_disabled": 0, "lon": -76.99928016666667, "name": "53b18061806e0acff392eb77008fbbd4", "fusion_lon": 0.0}, {"lat": 38.876824666666664, "fusion_lat": 0.0, "type": "electric_scooter", "bike_id": "a524fd2f6cc2d8367c9cd3ad5a2a4e21", "is_reserved": 0, "rental_uris": {"ios": "https://dc.lft.to/lastmile_qr_scan", "android": "https://dc.lft.to/lastmile_qr_scan"}, "is_disabled": 0, "lon": -77.00459, "name": "a524fd2f6cc2d8367c9cd3ad5a2a4e21", "fusion_lon": 0.0}, {"lat": 38.9177505, "fusion_lat": 0.0, "type": "electric_scooter", "bike_id": "bf7413c4a9c75718f557ed78eecc57fa", "is_reserved": 0, "rental_uris": {"ios": "https://dc.lft.to/lastmile_qr_scan", "android": "https://dc.lft.to/lastmile_qr_scan"}, "is_disabled": 0, "lon": -77.0228625, "name": "bf7413c4a9c75718f557ed78eecc57fa", "fusion_lon": 0.0}, {"lat": 38.912584, "fusion_lat": 0.0, "type": "electric_scooter", "bike_id": "993b3803e9f6afe6c8b3e44bd33cdc37", "is_reserved": 0, "rental_uris": {"ios": "https://dc.lft.to/lastmile_qr_scan", "android": "https://dc.lft.to/lastmile_qr_scan"}, "is_disabled": 0, "lon": -77.04466283333333, "name": "993b3803e9f6afe6c8b3e44bd33cdc37", "fusion_lon": 0.0}, {"lat": 38.92423433333333, "fusion_lat": 0.0, "type": "electric_scooter", "bike_id": "a7ed36f48522af6382032c766c9f3599", "is_reserved": 0, "rental_uris": {"ios": "https://dc.lft.to/lastmile_qr_scan", "android": "https://dc.lft.to/lastmile_qr_scan"}, "is_disabled": 0, "lon": -77.01948116666667, "name": "a7ed36f48522af6382032c766c9f3599", "fusion_lon": 0.0}, {"lat": 38.91922433333333, "fusion_lat": 0.0, "type": "electric_scooter", "bike_id": "ccc951b5c37a06ac72a3258282408ede", "is_reserved": 0, "rental_uris": {"ios": "https://dc.lft.to/lastmile_qr_scan", "android": "https://dc.lft.to/lastmile_qr_scan"}, "is_disabled": 0, "lon": -77.03185616666667, "name": "ccc951b5c37a06ac72a3258282408ede", "fusion_lon": 0.0}, {"lat": 38.855100666666665, "fusion_lat": 0.0, "type": "electric_bike", "bike_id": "384489c68c3e16e7259816be8b1426f0", "is_reserved": 0, "rental_uris": {"ios": "https://dc.lft.to/lastmile_qr_scan", "android": "https://dc.lft.to/lastmile_qr_scan"}, "is_disabled": 0, "lon": -76.98428266666667, "name": "384489c68c3e16e7259816be8b1426f0", "fusion_lon": 0.0}, {"lat": 38.929354833333335, "fusion_lat": 0.0, "type": "electric_scooter", "bike_id": "955c1ddcc193cb627fac4fc5e3806228", "is_reserved": 0, "rental_uris": {"ios": "https://dc.lft.to/lastmile_qr_scan", "android": "https://dc.lft.to/lastmile_qr_scan"}, "is_disabled": 0, "lon": -77.03769333333334, "name": "955c1ddcc193cb627fac4fc5e3806228", "fusion_lon": 0.0}, {"lat": 38.9184965, "fusion_lat": 0.0, "type": "electric_scooter", "bike_id": "4c66d51dcfe80f682c8184a923cb99bc", "is_reserved": 0, "rental_uris": {"ios": "https://dc.lft.to/lastmile_qr_scan", "android": "https://dc.lft.to/lastmile_qr_scan"}, "is_disabled": 0, "lon": -77.040435, "name": "4c66d51dcfe80f682c8184a923cb99bc", "fusion_lon": 0.0}, {"lat": 38.883689333333336, "fusion_lat": 0.0, "type": "electric_scooter", "bike_id": "f0049c36db7e16324bb9dc3066d5262c", "is_reserved": 0, "rental_uris": {"ios": "https://dc.lft.to/lastmile_qr_scan", "android": "https://dc.lft.to/lastmile_qr_scan"}, "is_disabled": 0, "lon": -76.99522716666667, "name": "f0049c36db7e16324bb9dc3066d5262c", "fusion_lon": 0.0}, {"lat": 38.8931145, "fusion_lat": 0.0, "type": "electric_scooter", "bike_id": "fc130012e69037055655794f1025bef3", "is_reserved": 0, "rental_uris": {"ios": "https://dc.lft.to/lastmile_qr_scan", "android": "https://dc.lft.to/lastmile_qr_scan"}, "is_disabled": 0, "lon": -77.05002633333334, "name": "fc130012e69037055655794f1025bef3", "fusion_lon": 0.0}, {"lat": 38.88743566666667, "fusion_lat": 0.0, "type": "electric_scooter", "bike_id": "2d55003847f8f7b33436cd5bfa9d4b42", "is_reserved": 0, "rental_uris": {"ios": "https://dc.lft.to/lastmile_qr_scan", "android": "https://dc.lft.to/lastmile_qr_scan"}, "is_disabled": 0, "lon": -77.02845, "name": "2d55003847f8f7b33436cd5bfa9d4b42", "fusion_lon": 0.0}, {"lat": 38.87177483333333, "fusion_lat": 0.0, "type": "electric_scooter", "bike_id": "af5f7438e2be191ab56b2e45475e4517", "is_reserved": 0, "rental_uris": {"ios": "https://dc.lft.to/lastmile_qr_scan", "android": "https://dc.lft.to/lastmile_qr_scan"}, "is_disabled": 0, "lon": -77.00615083333334, "name": "af5f7438e2be191ab56b2e45475e4517", "fusion_lon": 0.0}, {"lat": 38.92868166666667, "fusion_lat": 0.0, "type": "electric_scooter", "bike_id": "654416478898dc8516b76d41c16dad94", "is_reserved": 0, "rental_uris": {"ios": "https://dc.lft.to/lastmile_qr_scan", "android": "https://dc.lft.to/lastmile_qr_scan"}, "is_disabled": 0, "lon": -77.02851233333334, "name": "654416478898dc8516b76d41c16dad94", "fusion_lon": 0.0}, {"lat": 38.888502833333334, "fusion_lat": 0.0, "type": "electric_scooter", "bike_id": "095c3601b9bc0223b4498aa68644d651", "is_reserved": 0, "rental_uris": {"ios": "https://dc.lft.to/lastmile_qr_scan", "android": "https://dc.lft.to/lastmile_qr_scan"}, "is_disabled": 0, "lon": -76.92679833333334, "name": "095c3601b9bc0223b4498aa68644d651", "fusion_lon": 0.0}, {"lat": 38.907375333333334, "fusion_lat": 0.0, "type": "electric_scooter", "bike_id": "a0e69d6c907aafe1ebde63a218a699f5", "is_reserved": 0, "rental_uris": {"ios": "https://dc.lft.to/lastmile_qr_scan", "android": "https://dc.lft.to/lastmile_qr_scan"}, "is_disabled": 0, "lon": -77.00932266666666, "name": "a0e69d6c907aafe1ebde63a218a699f5", "fusion_lon": 0.0}, {"lat": 38.86937966666667, "fusion_lat": 0.0, "type": "electric_bike", "bike_id": "fdde4c92c8953ed8aee1286f1b528cac", "is_reserved": 0, "rental_uris": {"ios": "https://dc.lft.to/lastmile_qr_scan", "android": "https://dc.lft.to/lastmile_qr_scan"}, "is_disabled": 0, "lon": -77.09467466666666, "name": "fdde4c92c8953ed8aee1286f1b528cac", "fusion_lon": 0.0}, {"lat": 38.936515166666666, "fusion_lat": 0.0, "type": "electric_scooter", "bike_id": "d60ac68143d6a17d83dbaa11226f3b3a", "is_reserved": 0, "rental_uris": {"ios": "https://dc.lft.to/lastmile_qr_scan", "android": "https://dc.lft.to/lastmile_qr_scan"}, "is_disabled": 0, "lon": -77.02638766666666, "name": "d60ac68143d6a17d83dbaa11226f3b3a", "fusion_lon": 0.0}, {"lat": 38.884302, "fusion_lat": 0.0, "type": "electric_scooter", "bike_id": "3da95d696e184d2ac98d1c0dbab6b826", "is_reserved": 0, "rental_uris": {"ios": "https://dc.lft.to/lastmile_qr_scan", "android": "https://dc.lft.to/lastmile_qr_scan"}, "is_disabled": 0, "lon": -76.95750466666667, "name": "3da95d696e184d2ac98d1c0dbab6b826", "fusion_lon": 0.0}, {"lat": 38.935774333333335, "fusion_lat": 0.0, "type": "electric_scooter", "bike_id": "98c4ef30c9b82bd8497be4baea99d621", "is_reserved": 0, "rental_uris": {"ios": "https://dc.lft.to/lastmile_qr_scan", "android": "https://dc.lft.to/lastmile_qr_scan"}, "is_disabled": 0, "lon": -77.0212275, "name": "98c4ef30c9b82bd8497be4baea99d621", "fusion_lon": 0.0}, {"lat": 38.918397, "fusion_lat": 0.0, "type": "electric_scooter", "bike_id": "f4d2ff1f20b72124433c7fc57eb7876c", "is_reserved": 0, "rental_uris": {"ios": "https://dc.lft.to/lastmile_qr_scan", "android": "https://dc.lft.to/lastmile_qr_scan"}, "is_disabled": 0, "lon": -77.04004333333333, "name": "f4d2ff1f20b72124433c7fc57eb7876c", "fusion_lon": 0.0}, {"lat": 38.913373, "fusion_lat": 0.0, "type": "electric_scooter", "bike_id": "1d622096ebc90178d47896cea354c16b", "is_reserved": 0, "rental_uris": {"ios": "https://dc.lft.to/lastmile_qr_scan", "android": "https://dc.lft.to/lastmile_qr_scan"}, "is_disabled": 0, "lon": -77.031953, "name": "1d622096ebc90178d47896cea354c16b", "fusion_lon": 0.0}, {"lat": 38.924881666666664, "fusion_lat": 0.0, "type": "electric_scooter", "bike_id": "4cc5bac48e84b3474ea445fa95da68ee", "is_reserved": 0, "rental_uris": {"ios": "https://dc.lft.to/lastmile_qr_scan", "android": "https://dc.lft.to/lastmile_qr_scan"}, "is_disabled": 0, "lon": -77.0213685, "name": "4cc5bac48e84b3474ea445fa95da68ee", "fusion_lon": 0.0}, {"lat": 38.906994, "fusion_lat": 0.0, "type": "electric_scooter", "bike_id": "8e033ef50f36c4cbea29a9ad42626d31", "is_reserved": 0, "rental_uris": {"ios": "https://dc.lft.to/lastmile_qr_scan", "android": "https://dc.lft.to/lastmile_qr_scan"}, "is_disabled": 0, "lon": -77.0295235, "name": "8e033ef50f36c4cbea29a9ad42626d31", "fusion_lon": 0.0}, {"lat": 38.919729333333336, "fusion_lat": 0.0, "type": "electric_scooter", "bike_id": "91b5a08493d1f12e2f13aa36eac00f4d", "is_reserved": 0, "rental_uris": {"ios": "https://dc.lft.to/lastmile_qr_scan", "android": "https://dc.lft.to/lastmile_qr_scan"}, "is_disabled": 0, "lon": -77.01911983333333, "name": "91b5a08493d1f12e2f13aa36eac00f4d", "fusion_lon": 0.0}, {"lat": 38.88619216666667, "fusion_lat": 0.0, "type": "electric_scooter", "bike_id": "4bdff656bc0df07923ece38862eef6b7", "is_reserved": 0, "rental_uris": {"ios": "https://dc.lft.to/lastmile_qr_scan", "android": "https://dc.lft.to/lastmile_qr_scan"}, "is_disabled": 0, "lon": -77.019077, "name": "4bdff656bc0df07923ece38862eef6b7", "fusion_lon": 0.0}, {"lat": 38.9347695, "fusion_lat": 0.0, "type": "electric_scooter", "bike_id": "8418c9cfd5e64960f72910686496b8dc", "is_reserved": 0, "rental_uris": {"ios": "https://dc.lft.to/lastmile_qr_scan", "android": "https://dc.lft.to/lastmile_qr_scan"}, "is_disabled": 0, "lon": -77.0360225, "name": "8418c9cfd5e64960f72910686496b8dc", "fusion_lon": 0.0}, {"lat": 38.91415, "fusion_lat": 0.0, "type": "electric_scooter", "bike_id": "215d2924ae0da2009e7215138f55d3fc", "is_reserved": 0, "rental_uris": {"ios": "https://dc.lft.to/lastmile_qr_scan", "android": "https://dc.lft.to/lastmile_qr_scan"}, "is_disabled": 0, "lon": -77.02549933333333, "name": "215d2924ae0da2009e7215138f55d3fc", "fusion_lon": 0.0}, {"lat": 38.902588, "fusion_lat": 0.0, "type": "electric_bike", "bike_id": "ca0d633e4607feabed0e9fefaf5189b1", "is_reserved": 0, "rental_uris": {"ios": "https://dc.lft.to/lastmile_qr_scan", "android": "https://dc.lft.to/lastmile_qr_scan"}, "is_disabled": 0, "lon": -77.03272016666666, "name": "ca0d633e4607feabed0e9fefaf5189b1", "fusion_lon": 0.0}, {"lat": 38.919942166666665, "fusion_lat": 0.0, "type": "electric_scooter", "bike_id": "72f17c2ee93abeae36a2a69835be6dbd", "is_reserved": 0, "rental_uris": {"ios": "https://dc.lft.to/lastmile_qr_scan", "android": "https://dc.lft.to/lastmile_qr_scan"}, "is_disabled": 0, "lon": -77.03245566666666, "name": "72f17c2ee93abeae36a2a69835be6dbd", "fusion_lon": 0.0},