{"data": {"bikes": [{"bike_id": "92688516ddc4ce49c2d955fdd3300102", "lat": 38.892822833333334, "is_reserved": 0, "fusion_lat": 0.0, "rental_uris": {"android": "https://dc.lft.to/lastmile_qr_scan", "ios": "https://dc.lft.to/lastmile_qr_scan"}, "fusion_lon": 0.0, "name": "92688516ddc4ce49c2d955fdd3300102", "lon": -77.04477466666667, "is_disabled": 0, "type": "electric_scooter"}, {"bike_id": "6245b73d806ab490a099d0c2c81dd96c", "lat": 38.91898883333333, "is_reserved": 0, "fusion_lat": 0.0, "rental_uris": {"android": "https://dc.lft.to/lastmile_qr_scan", "ios": "https://dc.lft.to/lastmile_qr_scan"}, "fusion_lon": 0.0, "name": "6245b73d806ab490a099d0c2c81dd96c", "lon": -77.01686916666667, "is_disabled": 0, "type": "electric_scooter"}, {"bike_id": "54659c93fdd22edba40e50cbf4a2e2ed", "lat": 38.919991833333334, "is_reserved": 0, "fusion_lat": 0.0, "rental_uris": {"android": "https://dc.lft.to/lastmile_qr_scan", "ios": "https://dc.lft.to/lastmile_qr_scan"}, "fusion_lon": 0.0, "name": "54659c93fdd22edba40e50cbf4a2e2ed", "lon": -77.03205166666666, "is_disabled": 0, "type": "electric_scooter"}, {"bike_id": "0f4b6866eba338de3f571fd8843690ec", "lat": 38.94292033333333, "is_reserved": 0, "fusion_lat": 0.0, "rental_uris": {"android": "https://dc.lft.to/lastmile_qr_scan", "ios": "https://dc.lft.to/lastmile_qr_scan"}, "fusion_lon": 0.0, "name": "0f4b6866eba338de3f571fd8843690ec", "lon": -77.02173816666667, "is_disabled": 0, "type": "electric_scooter"}, {"bike_id": "3b9f8235ab4e4655ba4f4e5d769830d6", "lat": 38.933407833333334, "is_reserved": 0, "fusion_lat": 0.0, "rental_uris": {"android": "https://dc.lft.to/lastmile_qr_scan", "ios": "https://dc.lft.to/lastmile_qr_scan"}, "fusion_lon": 0.0, "name": "3b9f8235ab4e4655ba4f4e5d769830d6", "lon": -77.0398755, "is_disabled": 0, "type": "electric_scooter"}, {"bike_id": "29d1ebf58d1e4ba5a2af5d64a7148fbf", "lat": 38.92232166666667, "is_reserved": 0, "fusion_lat": 0.0, "rental_uris": {"android": "https://dc.lft.to/lastmile_qr_scan", "ios": "https://dc.lft.to/lastmile_qr_scan"}, "fusion_lon": 0.0, "name": "29d1ebf58d1e4ba5a2af5d64a7148fbf", "lon": -77.0426865, "is_disabled": 0, "type": "electric_scooter"}, {"bike_id": "191391b1d226ab4ca12ec642285ce4fa", "lat": 38.898359, "is_reserved": 0, "fusion_lat": 0.0, "rental_uris": {"android": "https://dc.lft.to/lastmile_qr_scan", "ios": "https://dc.lft.to/lastmile_qr_scan"}, "fusion_lon": 0.0, "name": "191391b1d226ab4ca12ec642285ce4fa", "lon": -77.02932733333333, "is_disabled": 0, "type": "electric_scooter"}, {"bike_id": "1a8a16debbd96baf2541254c0a42de86", "lat": 38.89739516666667, "is_reserved": 0, "fusion_lat": 0.0, "rental_uris": {"android": "https://dc.lft.to/lastmile_qr_scan", "ios": "https://dc.lft.to/lastmile_qr_scan"}, "fusion_lon": 0.0, "name": "1a8a16debbd96baf2541254c0a42de86", "lon": -77.02456166666667, "is_disabled": 0, "type": "electric_scooter"}, {"bike_id": "2c7c2dde9f14e2fbcdf744bd58e45b03", "lat": 38.9012075, "is_reserved": 0, "fusion_lat": 0.0, "rental_uris": {"android": "https://dc.lft.to/lastmile_qr_scan", "ios": "https://dc.lft.to/lastmile_qr_scan"}, "fusion_lon": 0.0, "name": "2c7c2dde9f14e2fbcdf744bd58e45b03", "lon": -77.04469133333333, "is_disabled": 0, "type": "electric_scooter"}, {"bike_id": "ec56ace7554e9918e83951ce3db6ca50", "lat": 38.873792, "is_reserved": 0, "fusion_lat": 0.0, "rental_uris": {"android": "https://dc.lft.to/lastmile_qr_scan", "ios": "https://dc.lft.to/lastmile_qr_scan"}, "fusion_lon": 0.0, "name": "ec56ace7554e9918e83951ce3db6ca50", "lon": -77.0010765, "is_disabled": 0, "type": "electric_scooter"}, {"bike_id": "b9de941bbcf617b326fa260456880a39", "lat": 38.84281216666667, "is_reserved": 0, "fusion_lat": 0.0, "rental_uris": {"android": "https://dc.lft.to/lastmile_qr_scan", "ios": "https://dc.lft.to/lastmile_qr_scan"}, "fusion_lon": 0.0, "name": "b9de941bbcf617b326fa260456880a39", "lon": -76.98845066666667, "is_disabled": 0, "type": "electric_bike"}, {"bike_id": "dbcdfbb7635c142c775f2c9c64436586", "lat": 38.898463166666666, "is_reserved": 0, "fusion_lat": 0.0, "rental_uris": {"android": "https://dc.lft.to/lastmile_qr_scan", "ios": "https://dc.lft.to/lastmile_qr_scan"}, "fusion_lon": 0.0, "name": "dbcdfbb7635c142c775f2c9c64436586", "lon": -77.031108, "is_disabled": 0, "type": "electric_scooter"}, {"bike_id": "c4a2dd8c87bac83b91da65f902ed41dc", "lat": 38.9163235, "is_reserved": 0, "fusion_lat": 0.0, "rental_uris": {"android": "https://dc.lft.to/lastmile_qr_scan", "ios": "https://dc.lft.to/lastmile_qr_scan"}, "fusion_lon": 0.0, "name": "c4a2dd8c87bac83b91da65f902ed41dc", "lon": -77.03207783333333, "is_disabled": 0, "type": "electric_scooter"}, {"bike_id": "aca3f53fd4fc04a88904dec3117d508a", "lat": 38.89912, "is_reserved": 0, "fusion_lat": 0.0, "rental_uris": {"android": "https://dc.lft.to/lastmile_qr_scan", "ios": "https://dc.lft.to/lastmile_qr_scan"}, "fusion_lon": 0.0, "name": "aca3f53fd4fc04a88904dec3117d508a", "lon": -76.93371766666667, "is_disabled": 0, "type": "electric_scooter"}, {"bike_id": "d0299d9ebed789573da7bb11aa3a6580", "lat": 38.8788305, "is_reserved": 0, "fusion_lat": 0.0, "rental_uris": {"android": "https://dc.lft.to/lastmile_qr_scan", "ios": "https://dc.lft.to/lastmile_qr_scan"}, "fusion_lon": 0.0, "name": "d0299d9ebed789573da7bb11aa3a6580", "lon": -77.022258, "is_disabled": 0, "type": "electric_scooter"}, {"bike_id": "4425830d3272e714a85c7c74fb1e46cb", "lat": 38.892850833333334, "is_reserved": 0, "fusion_lat": 0.0, "rental_uris": {"android": "https://dc.lft.to/lastmile_qr_scan", "ios": "https://dc.lft.to/lastmile_qr_scan"}, "fusion_lon": 0.0, "name": "4425830d3272e714a85c7c74fb1e46cb", "lon": -77.03350683333333, "is_disabled": 0, "type": "electric_scooter"}, {"bike_id": "593c86ce6a536c8935914a8b2be5d8e5", "lat": 38.93078233333333, "is_reserved": 0, "fusion_lat": 0.0, "rental_uris": {"android": "https://dc.lft.to/lastmile_qr_scan", "ios": "https://dc.lft.to/lastmile_qr_scan"}, "fusion_lon": 0.0, "name": "593c86ce6a536c8935914a8b2be5d8e5", "lon": -77.0279235, "is_disabled": 0, "type": "electric_scooter"}, {"bike_id": "f8adee81c06c8c0d68663d0ca6dcb230", "lat": 38.8938565, "is_reserved": 0, "fusion_lat": 0.0, "rental_uris": {"android": "https://dc.lft.to/lastmile_qr_scan", "ios": "https://dc.lft.to/lastmile_qr_scan"}, "fusion_lon": 0.0, "name": "f8adee81c06c8c0d68663d0ca6dcb230", "lon": -77.022691, "is_disabled": 0, "type": "electric_scooter"}, {"bike_id": "f2c4a6b087d696049baa0c49e2a8a45d", "lat": 38.93916566666667, "is_reserved": 0, "fusion_lat": 0.0, "rental_uris": {"android": "https://dc.lft.to/lastmile_qr_scan", "ios": "https://dc.lft.to/lastmile_qr_scan"}, "fusion_lon": 0.0, "name": "f2c4a6b087d696049baa0c49e2a8a45d", "lon": -77.06049183333333, "is_disabled": 0, "type": "electric_scooter"}, {"bike_id": "1137d8ac7198ad5aa5b08245e6864e31", "lat": 38.90524766666667, "is_reserved": 0, "fusion_lat": 0.0, "rental_uris": {"android": "https://dc.lft.to/lastmile_qr_scan", "ios": "https://dc.lft.to/lastmile_qr_scan"}, "fusion_lon": 0.0, "name": "1137d8ac7198ad5aa5b08245e6864e31", "lon": -77.0415545, "is_disabled": 0, "type": "electric_scooter"}, {"bike_id": "c05fe8750e83e52d90efd6c4afe5face", "lat": 38.89627633333333, "is_reserved": 0, "fusion_lat": 0.0, "rental_uris": {"android": "https://dc.lft.to/lastmile_qr_scan", "ios": "https://dc.lft.to/lastmile_qr_scan"}, "fusion_lon": 0.0, "name": "c05fe8750e83e52d90efd6c4afe5face", "lon": -77.04508216666666, "is_disabled": 0, "type": "electric_scooter"}, {"bike_id": "b0061842cbab929c591d425491989fc2", "lat": 38.91701066666667, "is_reserved": 0, "fusion_lat": 0.0, "rental_uris": {"android": "https://dc.lft.to/lastmile_qr_scan", "ios": "https://dc.lft.to/lastmile_qr_scan"}, "fusion_lon": 0.0, "name": "b0061842cbab929c591d425491989fc2", "lon": -77.02845716666667, "is_disabled": 0, "type": "electric_scooter"}, {"bike_id": "16470776f4b4c926b63b569e1d483ad6", "lat": 38.87362016666667, "is_reserved": 0, "fusion_lat": 0.0, "rental_uris": {"android": "https://dc.lft.to/lastmile_qr_scan", "ios": "https://dc.lft.to/lastmile_qr_scan"}, "fusion_lon": 0.0, "name": "16470776f4b4c926b63b569e1d483ad6", "lon": -76.97028066666667, "is_disabled": 0, "type": "electric_scooter"}, {"bike_id": "8fbf157165f257b706a4dc5254f4a2c0", "lat": 38.923435833333336, "is_reserved": 0, "fusion_lat": 0.0, "rental_uris": {"android": "https://dc.lft.to/lastmile_qr_scan", "ios": "https://dc.lft.to/lastmile_qr_scan"}, "fusion_lon": 0.0, "name": "8fbf157165f257b706a4dc5254f4a2c0", "lon": -77.05118483333334, "is_disabled": 0, "type": "electric_scooter"}, {"bike_id": "8d82f3b7e977fcdf5b1c5e83e1bbf933", "lat": 38.897496333333336, "is_reserved": 0, "fusion_lat": 0.0, "rental_uris": {"android": "https://dc.lft.to/lastmile_qr_scan", "ios": "https://dc.lft.to/lastmile_qr_scan"}, "fusion_lon": 0.0, "name": "8d82f3b7e977fcdf5b1c5e83e1bbf933", "lon": -77.04401, "is_disabled": 0, "type": "electric_scooter"}, {"bike_id": "43c1549f2244e66b236dadd8eaaa0fc3", "lat": 38.90591783333333, "is_reserved": 0, "fusion_lat": 0.0, "rental_uris": {"android": "https://dc.lft.to/lastmile_qr_scan", "ios": "https://dc.lft.to/lastmile_qr_scan"}, "fusion_lon": 0.0, "name": "43c1549f2244e66b236dadd8eaaa0fc3", "lon": -77.02184433333333, "is_disabled": 0, "type": "electric_scooter"}, {"bike_id": "3d2b33c3265538b87848e4ca76b984e6", "lat": 38.963929666666665, "is_reserved": 0, "fusion_lat": 0.0, "rental_uris": {"android": "https://dc.lft.to/lastmile_qr_scan", "ios": "https://dc.lft.to/lastmile_qr_scan"}, "fusion_lon": 0.0, "name": "3d2b33c3265538b87848e4ca76b984e6", "lon": -77.0258925, "is_disabled": 0, "type": "electric_scooter"}, {"bike_id": "c95a49187b0936dbc8c6c36669105596", "lat": 38.89478066666667, "is_reserved": 0, "fusion_lat": 0.0, "rental_uris": {"android": "https://dc.lft.to/lastmile_qr_scan", "ios": "https://dc.lft.to/lastmile_qr_scan"}, "fusion_lon": 0.0, "name": "c95a49187b0936dbc8c6c36669105596", "lon": -77.02184716666666, "is_disabled": 0, "type": "electric_scooter"}, {"bike_id": "4b93191a8237d8daa22ade079c15c1d1", "lat": 38.872985666666665, "is_reserved": 0, "fusion_lat": 0.0, "rental_uris": {"android": "https://dc.lft.to/lastmile_qr_scan", "ios": "https://dc.lft.to/lastmile_qr_scan"}, "fusion_lon": 0.0, "name": "4b93191a8237d8daa22ade079c15c1d1", "lon": -77.13937183333333, "is_disabled": 0, "type": "electric_bike"}, {"bike_id": "969c103cd3ab587d257a8eb6767e8421", "lat": 38.91000983333333, "is_reserved": 0, "fusion_lat": 0.0, "rental_uris": {"android": "https://dc.lft.to/lastmile_qr_scan", "ios": "https://dc.lft.to/lastmile_qr_scan"}, "fusion_lon": 0.0, "name": "969c103cd3ab587d257a8eb6767e8421", "lon": -77.04007266666666, "is_disabled": 0, "type": "electric_scooter"}, {"bike_id": "8e6f513950b53999212f3f3ae501dd5a", "lat": 38.9044275, "is_reserved": 0, "fusion_lat": 0.0, "rental_uris": {"android": "https://dc.lft.to/lastmile_qr_scan", "ios": "https://dc.lft.to/lastmile_qr_scan"}, "fusion_lon": 0.0, "name": "8e6f513950b53999212f3f3ae501dd5a", "lon": -76.98001833333333, "is_disabled": 0, "type": "electric_scooter"}, {"bike_id": "d51c2cdb68adb635f01a0463e8861d29", "lat": 38.9250855, "is_reserved": 0, "fusion_lat": 0.0, "rental_uris": {"android": "https://dc.lft.to/lastmile_qr_scan", "ios": "https://dc.lft.to/lastmile_qr_scan"}, "fusion_lon": 0.0, "name": "d51c2cdb68adb635f01a0463e8861d29", "lon": -77.03780683333333, "is_disabled": 0, "type": "electric_scooter"}, {"bike_id": "1cfdb6a191f33a5068e521a4a21ec820", "lat": 38.911075, "is_reserved": 0, "fusion_lat": 0.0, "rental_uris": {"android": "https://dc.lft.to/lastmile_qr_scan", "ios": "https://dc.lft.to/lastmile_qr_scan"}, "fusion_lon": 0.0, "name": "1cfdb6a191f33a5068e521a4a21ec820", "lon": -77.02236916666666, "is_disabled": 0, "type": "electric_scooter"}, {"bike_id": "0ef26fd63ba6bf8430503a9bf5f97d54", "lat": 38.892179, "is_reserved": 0, "fusion_lat": 0.0, "rental_uris": {"android": "https://dc.lft.to/lastmile_qr_scan", "ios": "https://dc.lft.to/lastmile_qr_scan"}, "fusion_lon": 0.0, "name": "0ef26fd63ba6bf8430503a9bf5f97d54", "lon": -77.0245415, "is_disabled": 0, "type": "electric_scooter"}, {"bike_id": "4c91c3885300cbd872f36aa6ceb8a45a", "lat": 38.91801516666666, "is_reserved": 0, "fusion_lat": 0.0, "rental_uris": {"android": "https://dc.lft.to/lastmile_qr_scan", "ios": "https://dc.lft.to/lastmile_qr_scan"}, "fusion_lon": 0.0, "name": "4c91c3885300cbd872f36aa6ceb8a45a", "lon": -77.0343745, "is_disabled": 0, "type": "electric_scooter"}, {"bike_id": "a6de9ef7e5369803012f61257250d482", "lat": 38.92893483333334, "is_reserved": 0, "fusion_lat": 0.0, "rental_uris": {"android": "https://dc.lft.to/lastmile_qr_scan", "ios": "https://dc.lft.to/lastmile_qr_scan"}, "fusion_lon": 0.0, "name": "a6de9ef7e5369803012f61257250d482", "lon": -77.0331285, "is_disabled": 0, "type": "electric_scooter"}, {"bike_id": "c1368c47e5d2c3120f96a596ae6f9d8a", "lat": 38.899113166666666, "is_reserved": 0, "fusion_lat": 0.0, "rental_uris": {"android": "https://dc.lft.to/lastmile_qr_scan", "ios": "https://dc.lft.to/lastmile_qr_scan"}, "fusion_lon": 0.0, "name": "c1368c47e5d2c3120f96a596ae6f9d8a", "lon": -76.93368, "is_disabled": 0, "type": "electric_scooter"}, {"bike_id": "793f504ca622c59ed5648ba3487f9120", "lat": 38.916797833333334, "is_reserved": 0, "fusion_lat": 0.0, "rental_uris": {"android": "https://dc.lft.to/lastmile_qr_scan", "ios": "https://dc.lft.to/lastmile_qr_scan"}, "fusion_lon": 0.0, "name": "793f504ca622c59ed5648ba3487f9120", "lon": -77.0231105, "is_disabled": 0, "type": "electric_scooter"}, {"bike_id": "e9708485bdbe4dec1f81621c63613869", "lat": 38.90589816666667, "is_reserved": 0, "fusion_lat": 0.0, "rental_uris": {"android": "https://dc.lft.to/lastmile_qr_scan", "ios": "https://dc.lft.to/lastmile_qr_scan"}, "fusion_lon": 0.0, "name": "e9708485bdbe4dec1f81621c63613869", "lon": -77.00298416666666, "is_disabled": 0, "type": "electric_scooter"}, {"bike_id": "5fcd5c5a105acd505ebdf22bb2c7acf5", "lat": 38.92328416666667, "is_reserved": 0, "fusion_lat": 0.0, "rental_uris": {"android": "https://dc.lft.to/lastmile_qr_scan", "ios": "https://dc.lft.to/lastmile_qr_scan"}, "fusion_lon": 0.0, "name": "5fcd5c5a105acd505ebdf22bb2c7acf5", "lon": -77.02969033333333, "is_disabled": 0, "type": "electric_scooter"}, {"bike_id": "332b2a4dd2491a940b8ed25e32d58011", "lat": 38.9110505, "is_reserved": 0, "fusion_lat": 0.0, "rental_uris": {"android": "https://dc.lft.to/lastmile_qr_scan", "ios": "https://dc.lft.to/lastmile_qr_scan"}, "fusion_lon": 0.0, "name": "332b2a4dd2491a940b8ed25e32d58011", "lon": -77.04466116666667, "is_disabled": 0, "type": "electric_scooter"}, {"bike_id": "6b18a392b149afa55a18c4e8ada6fd81", "lat": 38.834252, "is_reserved": 0, "fusion_lat": 0.0, "rental_uris": {"android": "https://dc.lft.to/lastmile_qr_scan", "ios": "https://dc.lft.to/lastmile_qr_scan"}, "fusion_lon": 0.0, "name": "6b18a392b149afa55a18c4e8ada6fd81", "lon": -77.058836, "is_disabled": 0, "type": "electric_bike"}, {"bike_id": "ef27be3e759fee3cd5c2ce06c2de0890", "lat": 38.901853, "is_reserved": 0, "fusion_lat": 0.0, "rental_uris": {"android": "https://dc.lft.to/lastmile_qr_scan", "ios": "https://dc.lft.to/lastmile_qr_scan"}, "fusion_lon": 0.0, "name": "ef27be3e759fee3cd5c2ce06c2de0890", "lon": -77.02174883333333, "is_disabled": 0, "type": "electric_scooter"}, {"bike_id": "82c8be9207689a4e883550cf1a0eb5f0", "lat": 38.9241815, "is_reserved": 0, "fusion_lat": 0.0, "rental_uris": {"android": "https://dc.lft.to/lastmile_qr_scan", "ios": "https://dc.lft.to/lastmile_qr_scan"}, "fusion_lon": 0.0, "name": "82c8be9207689a4e883550cf1a0eb5f0", "lon": -77.0203545, "is_disabled": 0, "type": "electric_scooter"}, {"bike_id": "ced4cf2fd800ede6109c70752800ef18", "lat": 38.92329183333333, "is_reserved": 0, "fusion_lat": 0.0, "rental_uris": {"android": "https://dc.lft.to/lastmile_qr_scan", "ios": "https://dc.lft.to/lastmile_qr_scan"}, "fusion_lon": 0.0, "name": "ced4cf2fd800ede6109c70752800ef18", "lon": -77.02443983333333, "is_disabled": 0, "type": "electric_scooter"}, {"bike_id": "cd45e78874436ec86e74c2718f835b1c", "lat": 38.90598883333333, "is_reserved": 0, "fusion_lat": 0.0, "rental_uris": {"android": "https://dc.lft.to/lastmile_qr_scan", "ios": "https://dc.lft.to/lastmile_qr_scan"}, "fusion_lon": 0.0, "name": "cd45e78874436ec86e74c2718f835b1c", "lon": -77.02568266666667, "is_disabled": 0, "type": "electric_scooter"}, {"bike_id": "e04563a4c5c2d92c7fda46f50f589fb2", "lat": 38.926832166666664, "is_reserved": 0, "fusion_lat": 0.0, "rental_uris": {"android": "https://dc.lft.to/lastmile_qr_scan", "ios": "https://dc.lft.to/lastmile_qr_scan"}, "fusion_lon": 0.0, "name": "e04563a4c5c2d92c7fda46f50f589fb2", "lon": -77.03562033333333, "is_disabled": 0, "type": "electric_scooter"}, {"bike_id": "6c38054692b4ac4127ae9b8f649ed45f", "lat": 38.89334516666667, "is_reserved": 0, "fusion_lat": 0.0, "rental_uris": {"android": "https://dc.lft.to/lastmile_qr_scan", "ios": "https://dc.lft.to/lastmile_qr_scan"}, "fusion_lon": 0.0, "name": "6c38054692b4ac4127ae9b8f649ed45f", "lon": -76.95054433333334, "is_disabled": 0, "type": "electric_scooter"}, {"bike_id": "e596ef794207ac01127ee60b1c0eb475", "lat": 38.901168166666665, "is_reserved": 0, "fusion_lat": 0.0, "rental_uris": {"android": "https://dc.lft.to/lastmile_qr_scan", "ios": "https://dc.lft.to/lastmile_qr_scan"}, "fusion_lon": 0.0, "name": "e596ef794207ac01127ee60b1c0eb475", "lon": -76.98628783333334, "is_disabled": 0, "type": "electric_scooter"}, {"bike_id": "a436fede6786eea20b32589ba6ac50c9", "lat": 38.877246166666666, "is_reserved": 0, "fusion_lat": 0.0, "rental_uris": {"android": "https://dc.lft.to/lastmile_qr_scan", "ios": "https://dc.lft.to/lastmile_qr_scan"}, "fusion_lon": 0.0, "name": "a436fede6786eea20b32589ba6ac50c9", "lon": -77.00332516666667, "is_disabled": 0, "type": "electric_scooter"}, {"bike_id": "3ffa509a195e6de8e74cd641735785df", "lat": 38.87382683333333, "is_reserved": 0, "fusion_lat": 0.0, "rental_uris": {"android": "https://dc.lft.to/lastmile_qr_scan", "ios": "https://dc.lft.to/lastmile_qr_scan"}, "fusion_lon": 0.0, "name": "3ffa509a195e6de8e74cd641735785df", "lon": -77.04328266666667, "is_disabled": 0, "type": "electric_scooter"}, {"bike_id": "016eb649f1ad88e36315d595e4d52420", "lat": 38.949961333333334, "is_reserved": 0, "fusion_lat": 0.0, "rental_uris": {"android": "https://dc.lft.to/lastmile_qr_scan", "ios": "https://dc.lft.to/lastmile_qr_scan"}, "fusion_lon": 0.0, "name": "016eb649f1ad88e36315d595e4d52420", "lon": -77.01830433333333, "is_disabled": 0, "type": "electric_scooter"}, {"bike_id": "830aaa236f6eab5554a785d9e6f54144", "lat": 38.9098065, "is_reserved": 0, "fusion_lat": 0.0, "rental_uris": {"android": "https://dc.lft.to/lastmile_qr_scan", "ios": "https://dc.lft.to/lastmile_qr_scan"}, "fusion_lon": 0.0, "name": "830aaa236f6eab5554a785d9e6f54144", "lon": -76.99506866666667, "is_disabled": 0, "type": "electric_scooter"}, {"bike_id": "7ea8cbaa3cef0c192eb49a8e75d77d31", "lat": 38.876462, "is_reserved": 0, "fusion_lat": 0.0, "rental_uris": {"android": "https://dc.lft.to/lastmile_qr_scan", "ios": "https://dc.lft.to/lastmile_qr_scan"}, "fusion_lon": 0.0, "name": "7ea8cbaa3cef0c192eb49a8e75d77d31", "lon": -77.00435066666667, "is_disabled": 0, "type": "electric_scooter"}, {"bike_id": "bc5fb06fda57aeb782935a99e5f83c13", "lat": 38.8834, "is_reserved": 0, "fusion_lat": 0.0, "rental_uris": {"android": "https://dc.lft.to/lastmile_qr_scan", "ios": "https://dc.lft.to/lastmile_qr_scan"}, "fusion_lon": 0.0, "name": "bc5fb06fda57aeb782935a99e5f83c13", "lon": -76.99493766666667, "is_disabled": 0, "type": "electric_scooter"}, {"bike_id": "cc51a3b20818f2d376980e599a68f8b1", "lat": 38.876214166666664, "is_reserved": 0, "fusion_lat": 0.0, "rental_uris": {"android": "https://dc.lft.to/lastmile_qr_scan", "ios": "https://dc.lft.to/lastmile_qr_scan"}, "fusion_lon": 0.0, "name": "cc51a3b20818f2d376980e599a68f8b1", "lon": -76.96530433333334, "is_disabled": 0, "type": "electric_scooter"}, {"bike_id": "390e49902e4f84b8859be916f293ab5d", "lat": 38.92672116666667, "is_reserved": 0, "fusion_lat": 0.0, "rental_uris": {"android": "https://dc.lft.to/lastmile_qr_scan", "ios": "https://dc.lft.to/lastmile_qr_scan"}, "fusion_lon": 0.0, "name": "390e49902e4f84b8859be916f293ab5d", "lon": -77.0150125, "is_disabled": 0, "type": "electric_scooter"}, {"bike_id": "62e6f3062cf3b46380b7b84f8d761a5f", "lat": 38.931592, "is_reserved": 0, "fusion_lat": 0.0, "rental_uris": {"android": "https://dc.lft.to/lastmile_qr_scan", "ios": "https://dc.lft.to/lastmile_qr_scan"}, "fusion_lon": 0.0, "name": "62e6f3062cf3b46380b7b84f8d761a5f", "lon": -77.02888166666666, "is_disabled": 0, "type": "electric_scooter"}, {"bike_id": "11cf2fd288cdb6367690ef4542a298b0", "lat": 38.90612633333333, "is_reserved": 0, "fusion_lat": 0.0, "rental_uris": {"android": "https://dc.lft.to/lastmile_qr_scan", "ios": "https://dc.lft.to/lastmile_qr_scan"}, "fusion_lon": 0.0, "name": "11cf2fd288cdb6367690ef4542a298b0", "lon": -77.07638766666666, "is_disabled": 0, "type": "electric_bike"}, {"bike_id": "cb0251f394adc01fd036bbeaabf77e5e", "lat": 38.90505516666666, "is_reserved": 0, "fusion_lat": 0.0, "rental_uris": {"android": "https://dc.lft.to/lastmile_qr_scan", "ios": "https://dc.lft.to/lastmile_qr_scan"}, "fusion_lon": 0.0, "name": "cb0251f394adc01fd036bbeaabf77e5e", "lon": -77.04333683333333, "is_disabled": 0, "type": "electric_scooter"}, {"bike_id": "d5bc54993f10d209a9759ca124a468fa", "lat": 38.900648833333335, "is_reserved": 0, "fusion_lat": 0.0, "rental_uris": {"android": "https://dc.lft.to/lastmile_qr_scan", "ios": "https://dc.lft.to/lastmile_qr_scan"}, "fusion_lon": 0.0, "name": "d5bc54993f10d209a9759ca124a468fa", "lon": -76.92740483333333, "is_disabled": 0, "type": "electric_scooter"}, {"bike_id": "c6571030340f85034a90ceddfb83de97", "lat": 38.901981, "is_reserved": 0, "fusion_lat": 0.0, "rental_uris": {"android": "https://dc.lft.to/lastmile_qr_scan", "ios": "https://dc.lft.to/lastmile_qr_scan"}, "fusion_lon": 0.0, "name": "c6571030340f85034a90ceddfb83de97", "lon": -77.02026366666666, "is_disabled": 0, "type": "electric_scooter"}, {"bike_id": "1355b82889e276839f578e546b6dccd8", "lat": 38.90777966666667, "is_reserved": 0, "fusion_lat": 0.0, "rental_uris": {"android": "https://dc.lft.to/lastmile_qr_scan", "ios": "https://dc.lft.to/lastmile_qr_scan"}, "fusion_lon": 0.0, "name": "1355b82889e276839f578e546b6dccd8", "lon": -77.071594, "is_disabled": 0, "type": "electric_bike"}, {"bike_id": "99dbd27585b2f41e071ee2ccffaa5ce4", "lat": 38.93195033333333, "is_reserved": 0, "fusion_lat": 0.0, "rental_uris": {"android": "https://dc.lft.to/lastmile_qr_scan", "ios": "https://dc.lft.to/lastmile_qr_scan"}, "fusion_lon": 0.0, "name": "99dbd27585b2f41e071ee2ccffaa5ce4", "lon": -77.0239875, "is_disabled": 0, "type": "electric_scooter"}, {"bike_id": "d077e7a2a6e0eb7039ff644988a4abe3", "lat": 38.8865805, "is_reserved": 0, "fusion_lat": 0.0, "rental_uris": {"android": "https://dc.lft.to/lastmile_qr_scan", "ios": "https://dc.lft.to/lastmile_qr_scan"}, "fusion_lon": 0.0, "name": "d077e7a2a6e0eb7039ff644988a4abe3", "lon": -77.16234283333333, "is_disabled": 0, "type": "electric_bike"}, {"bike_id": "93ab40b32cd6d6822da2c12f5a25bb02", "lat": 38.923206666666665, "is_reserved": 0, "fusion_lat": 0.0, "rental_uris": {"android": "https://dc.lft.to/lastmile_qr_scan", "ios": "https://dc.lft.to/lastmile_qr_scan"}, "fusion_lon": 0.0, "name": "93ab40b32cd6d6822da2c12f5a25bb02", "lon": -77.04444633333334, "is_disabled": 0, "type": "electric_scooter"}, {"bike_id": "78e3268f9c14f8d581360644b3dec990", "lat": 38.92252516666667, "is_reserved": 0, "fusion_lat": 0.0, "rental_uris": {"android": "https://dc.lft.to/lastmile_qr_scan", "ios": "https://dc.lft.to/lastmile_qr_scan"}, "fusion_lon": 0.0, "name": "78e3268f9c14f8d581360644b3dec990", "lon": -77.04214033333334, "is_disabled": 0, "type": "electric_scooter"}, {"bike_id": "e1ea2181a2de0f7b34ef8d06bec1262a", "lat": 38.90190916666667, "is_reserved": 0, "fusion_lat": 0.0, "rental_uris": {"android": "https://dc.lft.to/lastmile_qr_scan", "ios": "https://dc.lft.to/lastmile_qr_scan"}, "fusion_lon": 0.0, "name": "e1ea2181a2de0f7b34ef8d06bec1262a", "lon": -76.97882833333334, "is_disabled": 0, "type": "electric_scooter"}, {"bike_id": "841d9c0eaefbe17db8b4b1b2810c0d98", "lat": 38.893589166666665, "is_reserved": 0, "fusion_lat": 0.0, "rental_uris": {"android": "https://dc.lft.to/lastmile_qr_scan", "ios": "https://dc.lft.to/lastmile_qr_scan"}, "fusion_lon": 0.0, "name": "841d9c0eaefbe17db8b4b1b2810c0d98", "lon": -77.00340066666666, "is_disabled": 0, "type": "electric_scooter"}, {"bike_id": "9bc3dea0c4976589f2c80df76b31f68e", "lat": 38.89916216666667, "is_reserved": 0, "fusion_lat": 0.0, "rental_uris": {"android": "https://dc.lft.to/lastmile_qr_scan", "ios": "https://dc.lft.to/lastmile_qr_scan"}, "fusion_lon": 0.0, "name": "9bc3dea0c4976589f2c80df76b31f68e", "lon": -76.93366133333333, "is_disabled": 0, "type": "electric_scooter"}, {"bike_id": "737c1cacbade46d14423356130a666e0", "lat": 38.895594833333334, "is_reserved": 0, "fusion_lat": 0.0, "rental_uris": {"android": "https://dc.lft.to/lastmile_qr_scan", "ios": "https://dc.lft.to/lastmile_qr_scan"}, "fusion_lon": 0.0, "name": "737c1cacbade46d14423356130a666e0", "lon": -77.04680383333333, "is_disabled": 0, "type": "electric_scooter"}, {"bike_id": "31c96161056137ce9a8eb7cb22916d4a", "lat": 38.915621333333334, "is_reserved": 0, "fusion_lat": 0.0, "rental_uris": {"android": "https://dc.lft.to/lastmile_qr_scan", "ios": "https://dc.lft.to/lastmile_qr_scan"}, "fusion_lon": 0.0, "name": "31c96161056137ce9a8eb7cb22916d4a", "lon": -77.02592883333334, "is_disabled": 0, "type": "electric_scooter"}, {"bike_id": "f9c5f77cb3b4dea67fa55be06aba2393", "lat": 38.9663865, "is_reserved": 0, "fusion_lat": 0.0, "rental_uris": {"android": "https://dc.lft.to/lastmile_qr_scan", "ios": "https://dc.lft.to/lastmile_qr_scan"}, "fusion_lon": 0.0, "name": "f9c5f77cb3b4dea67fa55be06aba2393", "lon": -76.97674666666667, "is_disabled": 0, "type": "electric_bike"}, {"bike_id": "7437b6f997fb758bba765eaf94dddc99", "lat": 38.878773333333335, "is_reserved": 0, "fusion_lat": 0.0, "rental_uris": {"android": "https://dc.lft.to/lastmile_qr_scan", "ios": "https://dc.lft.to/lastmile_qr_scan"}, "fusion_lon": 0.0, "name": "7437b6f997fb758bba765eaf94dddc99", "lon": -77.017457, "is_disabled": 0, "type": "electric_scooter"}, {"bike_id": "c67aa90053fa8759e37838f6c99499eb", "lat": 38.91551416666667, "is_reserved": 0, "fusion_lat": 0.0, "rental_uris": {"android": "https://dc.lft.to/lastmile_qr_scan", "ios": "https://dc.lft.to/lastmile_qr_scan"}, "fusion_lon": 0.0, "name": "c67aa90053fa8759e37838f6c99499eb", "lon": -77.04447083333334, "is_disabled": 0, "type": "electric_scooter"}, {"bike_id": "423a9f2cf13dc7cd1933211ab3962953", "lat": 38.936905, "is_reserved": 0, "fusion_lat": 0.0, "rental_uris": {"android": "https://dc.lft.to/lastmile_qr_scan", "ios": "https://dc.lft.to/lastmile_qr_scan"}, "fusion_lon": 0.0, "name": "423a9f2cf13dc7cd1933211ab3962953", "lon": -76.99058416666666, "is_disabled": 0, "type": "electric_bike"}, {"bike_id": "0dd39232e9a7790c8279291cc9b300b0", "lat": 38.90276683333333, "is_reserved": 0, "fusion_lat": 0.0, "rental_uris": {"android": "https://dc.lft.to/lastmile_qr_scan", "ios": "https://dc.lft.to/lastmile_qr_scan"}, "fusion_lon": 0.0, "name": "0dd39232e9a7790c8279291cc9b300b0", "lon": -77.02994016666666, "is_disabled": 0, "type": "electric_scooter"}, {"bike_id": "023f2f55d742727cb517e4657fb74a52", "lat": 38.9352295, "is_reserved": 0, "fusion_lat": 0.0, "rental_uris": {"android": "https://dc.lft.to/lastmile_qr_scan", "ios": "https://dc.lft.to/lastmile_qr_scan"}, "fusion_lon": 0.0, "name": "023f2f55d742727cb517e4657fb74a52", "lon": -77.033533, "is_disabled": 0, "type": "electric_scooter"}, {"bike_id": "15a7c6b75411f1901e645091c2d01b26", "lat": 38.919069, "is_reserved": 0, "fusion_lat": 0.0, "rental_uris": {"android": "https://dc.lft.to/lastmile_qr_scan", "ios": "https://dc.lft.to/lastmile_qr_scan"}, "fusion_lon": 0.0, "name": "15a7c6b75411f1901e645091c2d01b26", "lon": -77.00214916666667, "is_disabled": 0, "type": "electric_scooter"}, {"bike_id": "f9b36d2ce84caed042d2220e34286590", "lat": 38.89946316666666, "is_reserved": 0, "fusion_lat": 0.0, "rental_uris": {"android": "https://dc.lft.to/lastmile_qr_scan", "ios": "https://dc.lft.to/lastmile_qr_scan"}, "fusion_lon": 0.0, "name": "f9b36d2ce84caed042d2220e34286590", "lon": -77.01449666666667, "is_disabled": 0, "type": "electric_scooter"}, {"bike_id": "a27c81afdb41847f94ff16bdc806c659", "lat": 38.907238166666666, "is_reserved": 0, "fusion_lat": 0.0, "rental_uris": {"android": "https://dc.lft.to/lastmile_qr_scan", "ios": "https://dc.lft.to/lastmile_qr_scan"}, "fusion_lon": 0.0, "name": "a27c81afdb41847f94ff16bdc806c659", "lon": -77.03195983333333, "is_disabled": 0, "type": "electric_scooter"}, {"bike_id": "005e1f2e6df398dd5a6a1210a51af9e4", "lat": 38.934647166666664, "is_reserved": 0, "fusion_lat": 0.0, "rental_uris": {"android": "https://dc.lft.to/lastmile_qr_scan", "ios": "https://dc.lft.to/lastmile_qr_scan"}, "fusion_lon": 0.0, "name": "005e1f2e6df398dd5a6a1210a51af9e4", "lon": -77.04536266666666, "is_disabled": 0, "type": "electric_scooter"}, {"bike_id": "6f5c887f1bf8144b4c43c4674ed6f482", "lat": 38.858899, "is_reserved": 0, "fusion_lat": 0.0, "rental_uris": {"android": "https://dc.lft.to/lastmile_qr_scan", "ios": "https://dc.lft.to/lastmile_qr_scan"}, "fusion_lon": 0.0, "name": "6f5c887f1bf8144b4c43c4674ed6f482", "lon": -76.99553666666667, "is_disabled": 0, "type": "electric_scooter"}, {"bike_id": "58b12cf1214fbe7eda49963126c39bfe", "lat": 38.88743916666667, "is_reserved": 0, "fusion_lat": 0.0, "rental_uris": {"android": "https://dc.lft.to/lastmile_qr_scan", "ios": "https://dc.lft.to/lastmile_qr_scan"}, "fusion_lon": 0.0, "name": "58b12cf1214fbe7eda49963126c39bfe", "lon": -77.03162716666667, "is_disabled": 0, "type": "electric_scooter"}, {"bike_id": "5ed1e2d0ca09bc9d276b34af046caa1e", "lat": 38.92463016666667, "is_reserved": 0, "fusion_lat": 0.0, "rental_uris": {"android": "https://dc.lft.to/lastmile_qr_scan", "ios": "https://dc.lft.to/lastmile_qr_scan"}, "fusion_lon": 0.0, "name": "5ed1e2d0ca09bc9d276b34af046caa1e", "lon": -77.05232883333333, "is_disabled": 0, "type": "electric_scooter"}, {"bike_id": "27ca50710b56ba26fe8b8062b156fb46", "lat": 38.93890583333334, "is_reserved": 0, "fusion_lat": 0.0, "rental_uris": {"android": "https://dc.lft.to/lastmile_qr_scan", "ios": "https://dc.lft.to/lastmile_qr_scan"}, "fusion_lon": 0.0, "name": "27ca50710b56ba26fe8b8062b156fb46", "lon": -77.03324133333334, "is_disabled": 0, "type": "electric_scooter"}, {"bike_id": "26d7ccebe1c95c2c814cdfff61ae968a", "lat": 38.8675575, "is_reserved": 0, "fusion_lat": 0.0, "rental_uris": {"android": "https://dc.lft.to/lastmile_qr_scan", "ios": "https://dc.lft.to/lastmile_qr_scan"}, "fusion_lon": 0.0, "name": "26d7ccebe1c95c2c814cdfff61ae968a", "lon": -76.94534216666666, "is_disabled": 0, "type": "electric_bike"}, {"bike_id": "41db1fb778f2f32a9765093a4914c15a", "lat": 38.929193166666664, "is_reserved": 0, "fusion_lat": 0.0, "rental_uris": {"android": "https://dc.lft.to/lastmile_qr_scan", "ios": "https://dc.lft.to/lastmile_qr_scan"}, "fusion_lon": 0.0, "name": "41db1fb778f2f32a9765093a4914c15a", "lon": -77.020906, "is_disabled": 0, "type": "electric_scooter"}, {"bike_id": "bf4cb1f094694e518741b64e6530ad4d", "lat": 38.9014615, "is_reserved": 0, "fusion_lat": 0.0, "rental_uris": {"android": "https://dc.lft.to/lastmile_qr_scan", "ios": "https://dc.lft.to/lastmile_qr_scan"}, "fusion_lon": 0.0, "name": "bf4cb1f094694e518741b64e6530ad4d", "lon": -77.02945583333333, "is_disabled": 0, "type": "electric_scooter"}, {"bike_id": "fcac5d8eac7f479e9bec96cf75eadd78", "lat": 38.90868866666667, "is_reserved": 0, "fusion_lat": 0.0, "rental_uris": {"android": "https://dc.lft.to/lastmile_qr_scan", "ios": "https://dc.lft.to/lastmile_qr_scan"}, "fusion_lon": 0.0, "name": "fcac5d8eac7f479e9bec96cf75eadd78", "lon": -76.99784216666667, "is_disabled": 0, "type": "electric_scooter"}, {"bike_id": "1f0848892ae0dc523b410ff81f17187f", "lat": 38.937308333333334, "is_reserved": 0, "fusion_lat": 0.0, "rental_uris": {"android": "https://dc.lft.to/lastmile_qr_scan", "ios": "https://dc.lft.to/lastmile_qr_scan"}, "fusion_lon": 0.0, "name": "1f0848892ae0dc523b410ff81f17187f", "lon": -77.03276266666667, "is_disabled": 0, "type": "electric_scooter"}, {"bike_id": "7f98594f33e5d66616720b64e1dcae29", "lat": 38.927730333333336, "is_reserved": 0, "fusion_lat": 0.0, "rental_uris": {"android": "https://dc.lft.to/lastmile_qr_scan", "ios": "https://dc.lft.to/lastmile_qr_scan"}, "fusion_lon": 0.0, "name": "7f98594f33e5d66616720b64e1dcae29", "lon": -77.02783616666666, "is_disabled": 0, "type": "electric_scooter"}, {"bike_id": "84f40502866e42fdeafad2a70acb21df", "lat": 38.903385666666665, "is_reserved": 0, "fusion_lat": 0.0, "rental_uris": {"android": "https://dc.lft.to/lastmile_qr_scan", "ios": "https://dc.lft.to/lastmile_qr_scan"}, "fusion_lon": 0.0, "name": "84f40502866e42fdeafad2a70acb21df", "lon": -77.06187283333334, "is_disabled": 0, "type": "electric_scooter"}, {"bike_id": "b08cad0257c4fb3ab2e404ddbaa32b2c", "lat": 38.8988575, "is_reserved": 0, "fusion_lat": 0.0, "rental_uris": {"android": "https://dc.lft.to/lastmile_qr_scan", "ios": "https://dc.lft.to/lastmile_qr_scan"}, "fusion_lon": 0.0, "name": "b08cad0257c4fb3ab2e404ddbaa32b2c", "lon": -76.93179033333334, "is_disabled": 0, "type": "electric_scooter"}, {"bike_id": "48ff63d1ae8a5fe87d9f4758d36bddfc", "lat": 38.88503633333333, "is_reserved": 0, "fusion_lat": 0.0, "rental_uris": {"android": "https://dc.lft.to/lastmile_qr_scan", "ios": "https://dc.lft.to/lastmile_qr_scan"}, "fusion_lon": 0.0, "name": "48ff63d1ae8a5fe87d9f4758d36bddfc", "lon": -77.00570083333334, "is_disabled": 0, "type": "electric_scooter"}, {"bike_id": "a3f0a7f013a896732fdbdd819034e515", "lat": 38.93873, "is_reserved": 0, "fusion_lat": 0.0, "rental_uris": {"android": "https://dc.lft.to/lastmile_qr_scan", "ios": "https://dc.lft.to/lastmile_qr_scan"}, "fusion_lon": 0.0, "name": "a3f0a7f013a896732fdbdd819034e515", "lon": -77.02481216666666, "is_disabled": 0, "type": "electric_scooter"}, {"bike_id": "474b3948fd33a042713c7b1253111264", "lat": 38.9230175, "is_reserved": 0, "fusion_lat": 0.0, "rental_uris": {"android": "https://dc.lft.to/lastmile_qr_scan", "ios": "https://dc.lft.to/lastmile_qr_scan"}, "fusion_lon": 0.0, "name": "474b3948fd33a042713c7b1253111264", "lon": -77.0418015, "is_disabled": 0, "type": "electric_scooter"}, {"bike_id": "bf243bd774716ccf48c53e21d2f87f42", "lat": 38.965588833333335, "is_reserved": 0, "fusion_lat": 0.0, "rental_uris": {"android": "https://dc.lft.to/lastmile_qr_scan", "ios": "https://dc.lft.to/lastmile_qr_scan"}, "fusion_lon": 0.0, "name": "bf243bd774716ccf48c53e21d2f87f42", "lon": -77.00205333333334, "is_disabled": 0, "type": "electric_scooter"}, {"bike_id": "03d586eb2eec6ce5da0d59f3e06b6f3d", "lat": 38.8922155, "is_reserved": 0, "fusion_lat": 0.0, "rental_uris": {"android": "https://dc.lft.to/lastmile_qr_scan", "ios": "https://dc.lft.to/lastmile_qr_scan"}, "fusion_lon": 0.0, "name": "03d586eb2eec6ce5da0d59f3e06b6f3d", "lon": -77.0436745, "is_disabled": 0, "type": "electric_scooter"}, {"bike_id": "0b93562d2ddb89b82af19ce2452b1646", "lat": 38.88744466666667, "is_reserved": 0, "fusion_lat": 0.0, "rental_uris": {"android": "https://dc.lft.to/lastmile_qr_scan", "ios": "https://dc.lft.to/lastmile_qr_scan"}, "fusion_lon": 0.0, "name": "0b93562d2ddb89b82af19ce2452b1646", "lon": -77.0256505, "is_disabled": 0, "type": "electric_scooter"}, {"bike_id": "2dcbaf4722ef4c8bbaf7e43c9a888770", "lat": 38.926041166666664, "is_reserved": 0, "fusion_lat": 0.0, "rental_uris": {"android": "https://dc.lft.to/lastmile_qr_scan", "ios": "https://dc.lft.to/lastmile_qr_scan"}, "fusion_lon": 0.0, "name": "2dcbaf4722ef4c8bbaf7e43c9a888770", "lon": -77.0215855, "is_disabled": 0, "type": "electric_scooter"}, {"bike_id": "d36d3e64c29febbf78fb09bb7e101d17", "lat": 38.905804, "is_reserved": 0, "fusion_lat": 0.0, "rental_uris": {"android": "https://dc.lft.to/lastmile_qr_scan", "ios": "https://dc.lft.to/lastmile_qr_scan"}, "fusion_lon": 0.0, "name": "d36d3e64c29febbf78fb09bb7e101d17", "lon": -77.046733, "is_disabled": 0, "type": "electric_scooter"}, {"bike_id": "62cee2747b06030760828c6608dee8ef", "lat": 38.93607183333334, "is_reserved": 0, "fusion_lat": 0.0, "rental_uris": {"android": "https://dc.lft.to/lastmile_qr_scan", "ios": "https://dc.lft.to/lastmile_qr_scan"}, "fusion_lon": 0.0, "name": "62cee2747b06030760828c6608dee8ef", "lon": -77.058926, "is_disabled": 0, "type": "electric_scooter"}, {"bike_id": "1a599f38ad9182f485c5c2805b414c9f", "lat": 38.93250783333333, "is_reserved": 0, "fusion_lat": 0.0, "rental_uris": {"android": "https://dc.lft.to/lastmile_qr_scan", "ios": "https://dc.lft.to/lastmile_qr_scan"}, "fusion_lon": 0.0, "name": "1a599f38ad9182f485c5c2805b414c9f", "lon": -77.03279716666667, "is_disabled": 0, "type": "electric_scooter"}, {"bike_id": "74b03ba92252b78250a5e9df813c1314", "lat": 38.89222433333333, "is_reserved": 0, "fusion_lat": 0.0, "rental_uris": {"android": "https://dc.lft.to/lastmile_qr_scan", "ios": "https://dc.lft.to/lastmile_qr_scan"}, "fusion_lon": 0.0, "name": "74b03ba92252b78250a5e9df813c1314", "lon": -77.0486805, "is_disabled": 0, "type": "electric_scooter"}, {"bike_id": "07eab0ac1f42c84ff26a37067c34c7fd", "lat": 38.88299416666667, "is_reserved": 0, "fusion_lat": 0.0, "rental_uris": {"android": "https://dc.lft.to/lastmile_qr_scan", "ios": "https://dc.lft.to/lastmile_qr_scan"}, "fusion_lon": 0.0, "name": "07eab0ac1f42c84ff26a37067c34c7fd", "lon": -76.942064, "is_disabled": 0, "type": "electric_scooter"}, {"bike_id": "d80b24750f08073f292bf490b35b38e1", "lat": 38.91598716666667, "is_reserved": 0, "fusion_lat": 0.0, "rental_uris": {"android": "https://dc.lft.to/lastmile_qr_scan", "ios": "https://dc.lft.to/lastmile_qr_scan"}, "fusion_lon": 0.0, "name": "d80b24750f08073f292bf490b35b38e1", "lon": -77.00198566666667, "is_disabled": 0, "type": "electric_scooter"}, {"bike_id": "28f159ea91ad21efb38f6ecaecb45cb1", "lat": 38.923218, "is_reserved": 0, "fusion_lat": 0.0, "rental_uris": {"android": "https://dc.lft.to/lastmile_qr_scan", "ios": "https://dc.lft.to/lastmile_qr_scan"}, "fusion_lon": 0.0, "name": "28f159ea91ad21efb38f6ecaecb45cb1", "lon": -77.02972883333334, "is_disabled": 0, "type": "electric_scooter"}, {"bike_id": "c326ef50853dda00adb73c1e7bf8e7ce", "lat": 38.921486, "is_reserved": 0, "fusion_lat": 0.0, "rental_uris": {"android": "https://dc.lft.to/lastmile_qr_scan", "ios": "https://dc.lft.to/lastmile_qr_scan"}, "fusion_lon": 0.0, "name": "c326ef50853dda00adb73c1e7bf8e7ce", "lon": -77.03443316666667, "is_disabled": 0, "type": "electric_scooter"}, {"bike_id": "f435de9610819f2969ff24a66cd9d77a", "lat": 38.915512166666666, "is_reserved": 0, "fusion_lat": 0.0, "rental_uris": {"android": "https://dc.lft.to/lastmile_qr_scan", "ios": "https://dc.lft.to/lastmile_qr_scan"}, "fusion_lon": 0.0, "name": "f435de9610819f2969ff24a66cd9d77a", "lon": -77.03326216666666, "is_disabled": 0, "type": "electric_scooter"}, {"bike_id": "f9024cfe43f2c1d75fe0ebcb16a66445", "lat": 38.935766, "is_reserved": 0, "fusion_lat": 0.0, "rental_uris": {"android": "https://dc.lft.to/lastmile_qr_scan", "ios": "https://dc.lft.to/lastmile_qr_scan"}, "fusion_lon": 0.0, "name": "f9024cfe43f2c1d75fe0ebcb16a66445", "lon": -77.01975683333333, "is_disabled": 0, "type": "electric_scooter"}, {"bike_id": "3bca7942024203525469f4d61f8c1dac", "lat": 38.9182795, "is_reserved": 0, "fusion_lat": 0.0, "rental_uris": {"android": "https://dc.lft.to/lastmile_qr_scan", "ios": "https://dc.lft.to/lastmile_qr_scan"}, "fusion_lon": 0.0, "name": "3bca7942024203525469f4d61f8c1dac", "lon": -77.04942183333333, "is_disabled": 0, "type": "electric_scooter"}, {"bike_id": "a1b52c35fd5bfbec87f4c21e371c1155", "lat": 38.90707283333333, "is_reserved": 0, "fusion_lat": 0.0, "rental_uris": {"android": "https://dc.lft.to/lastmile_qr_scan", "ios": "https://dc.lft.to/lastmile_qr_scan"}, "fusion_lon": 0.0, "name": "a1b52c35fd5bfbec87f4c21e371c1155", "lon": -77.03250083333333, "is_disabled": 0, "type": "electric_scooter"}, {"bike_id": "26e7102d845d4664d81b1a578655f370", "lat": 38.88118016666667, "is_reserved": 0, "fusion_lat": 0.0, "rental_uris": {"android": "https://dc.lft.to/lastmile_qr_scan", "ios": "https://dc.lft.to/lastmile_qr_scan"}, "fusion_lon": 0.0, "name": "26e7102d845d4664d81b1a578655f370", "lon": -77.00181066666667, "is_disabled": 0, "type": "electric_scooter"}, {"bike_id": "84b05854cec0d47799d26cfd071d1e93", "lat": 38.9050165, "is_reserved": 0, "fusion_lat": 0.0, "rental_uris": {"android": "https://dc.lft.to/lastmile_qr_scan", "ios": "https://dc.lft.to/lastmile_qr_scan"}, "fusion_lon": 0.0, "name": "84b05854cec0d47799d26cfd071d1e93", "lon": -77.06471733333333, "is_disabled": 0, "type": "electric_scooter"}, {"bike_id": "c68bc0fbd2854bd4513210bcdd91b008", "lat": 38.874659, "is_reserved": 0, "fusion_lat": 0.0, "rental_uris": {"android": "https://dc.lft.to/lastmile_qr_scan", "ios": "https://dc.lft.to/lastmile_qr_scan"}, "fusion_lon": 0.0, "name": "c68bc0fbd2854bd4513210bcdd91b008", "lon": -77.00491283333334, "is_disabled": 0, "type": "electric_scooter"}, {"bike_id": "8622bfdedf8abc86278bd11f21466443", "lat": 38.87361716666667, "is_reserved": 0, "fusion_lat": 0.0, "rental_uris": {"android": "https://dc.lft.to/lastmile_qr_scan", "ios": "https://dc.lft.to/lastmile_qr_scan"}, "fusion_lon": 0.0, "name": "8622bfdedf8abc86278bd11f21466443", "lon": -76.97026133333334, "is_disabled": 0, "type": "electric_scooter"}, {"bike_id": "208e6a4423620720a590b0d8db8535cf", "lat": 38.933385666666666, "is_reserved": 0, "fusion_lat": 0.0, "rental_uris": {"android": "https://dc.lft.to/lastmile_qr_scan", "ios": "https://dc.lft.to/lastmile_qr_scan"}, "fusion_lon": 0.0, "name": "208e6a4423620720a590b0d8db8535cf", "lon": -77.02054366666667, "is_disabled": 0, "type": "electric_scooter"}, {"bike_id": "953a8876a80a83b25653b4440ad197af", "lat": 38.9002945, "is_reserved": 0, "fusion_lat": 0.0, "rental_uris": {"android": "https://dc.lft.to/lastmile_qr_scan", "ios": "https://dc.lft.to/lastmile_qr_scan"}, "fusion_lon": 0.0, "name": "953a8876a80a83b25653b4440ad197af", "lon": -76.99860583333333, "is_disabled": 0, "type": "electric_scooter"}, {"bike_id": "af471333188d17aab04fbd0e4f146e2c", "lat": 38.86708183333333, "is_reserved": 0, "fusion_lat": 0.0, "rental_uris": {"android": "https://dc.lft.to/lastmile_qr_scan", "ios": "https://dc.lft.to/lastmile_qr_scan"}, "fusion_lon": 0.0, "name": "af471333188d17aab04fbd0e4f146e2c", "lon": -76.987146, "is_disabled": 0, "type": "electric_scooter"}, {"bike_id": "b74f5b9f21dbe1161b8c89217cde5890", "lat": 39.05279983333333, "is_reserved": 0, "fusion_lat": 0.0, "rental_uris": {"android": "https://dc.lft.to/lastmile_qr_scan", "ios": "https://dc.lft.to/lastmile_qr_scan"}, "fusion_lon": 0.0, "name": "b74f5b9f21dbe1161b8c89217cde5890", "lon": -77.08068233333333, "is_disabled": 0, "type": "electric_bike"}, {"bike_id": "5caaf4bd9974b3b457549d058af5c92e", "lat": 38.8949335, "is_reserved": 0, "fusion_lat": 0.0, "rental_uris": {"android": "https://dc.lft.to/lastmile_qr_scan", "ios": "https://dc.lft.to/lastmile_qr_scan"}, "fusion_lon": 0.0, "name": "5caaf4bd9974b3b457549d058af5c92e", "lon": -77.02295433333333, "is_disabled": 0, "type": "electric_scooter"}, {"bike_id": "2f50f6891143ec9f91c276016251d9a5", "lat": 38.8974105, "is_reserved": 0, "fusion_lat": 0.0, "rental_uris": {"android": "https://dc.lft.to/lastmile_qr_scan", "ios": "https://dc.lft.to/lastmile_qr_scan"}, "fusion_lon": 0.0, "name": "2f50f6891143ec9f91c276016251d9a5", "lon": -77.046774, "is_disabled": 0, "type": "electric_scooter"}, {"bike_id": "35da9ec3421304fcef33fb43cec86175", "lat": 38.9052015, "is_reserved": 0, "fusion_lat": 0.0, "rental_uris": {"android": "https://dc.lft.to/lastmile_qr_scan", "ios": "https://dc.lft.to/lastmile_qr_scan"}, "fusion_lon": 0.0, "name": "35da9ec3421304fcef33fb43cec86175", "lon": -77.05820833333334, "is_disabled": 0, "type": "electric_scooter"}, {"bike_id": "654ab0bb21cc3e0f1bc4dcdbd3d558b6", "lat": 38.89220916666667, "is_reserved": 0, "fusion_lat": 0.0, "rental_uris": {"android": "https://dc.lft.to/lastmile_qr_scan", "ios": "https://dc.lft.to/lastmile_qr_scan"}, "fusion_lon": 0.0, "name": "654ab0bb21cc3e0f1bc4dcdbd3d558b6", "lon": -77.03019433333333, "is_disabled": 0, "type": "electric_scooter"}, {"bike_id": "a9b5497815a2b90fec27eca3fa7d7425", "lat": 38.872933, "is_reserved": 0, "fusion_lat": 0.0, "rental_uris": {"android": "https://dc.lft.to/lastmile_qr_scan", "ios": "https://dc.lft.to/lastmile_qr_scan"}, "fusion_lon": 0.0, "name": "a9b5497815a2b90fec27eca3fa7d7425", "lon": -77.0098565, "is_disabled": 0, "type": "electric_scooter"}, {"bike_id": "73e487404b83e3934d343a0eab8ef165", "lat": 38.916144833333334, "is_reserved": 0, "fusion_lat": 0.0, "rental_uris": {"android": "https://dc.lft.to/lastmile_qr_scan", "ios": "https://dc.lft.to/lastmile_qr_scan"}, "fusion_lon": 0.0, "name": "73e487404b83e3934d343a0eab8ef165", "lon": -77.04879866666667, "is_disabled": 0, "type": "electric_scooter"}, {"bike_id": "8ec83e020c4ce1c23ba86fdfeb08ae5a", "lat": 38.90469066666667, "is_reserved": 0, "fusion_lat": 0.0, "rental_uris": {"android": "https://dc.lft.to/lastmile_qr_scan", "ios": "https://dc.lft.to/lastmile_qr_scan"}, "fusion_lon": 0.0, "name": "8ec83e020c4ce1c23ba86fdfeb08ae5a", "lon": -77.04356233333333, "is_disabled": 0, "type": "electric_scooter"}, {"bike_id": "ab7b709168ee77b10a528adbf8679de9", "lat": 38.90351416666667, "is_reserved": 0, "fusion_lat": 0.0, "rental_uris": {"android": "https://dc.lft.to/lastmile_qr_scan", "ios": "https://dc.lft.to/lastmile_qr_scan"}, "fusion_lon": 0.0, "name": "ab7b709168ee77b10a528adbf8679de9", "lon": -76.97478533333333, "is_disabled": 0, "type": "electric_scooter"}, {"bike_id": "1ce470a58e8462bda5bb69ce2f57e10e", "lat": 38.9046535, "is_reserved": 0, "fusion_lat": 0.0, "rental_uris": {"android": "https://dc.lft.to/lastmile_qr_scan", "ios": "https://dc.lft.to/lastmile_qr_scan"}, "fusion_lon": 0.0, "name": "1ce470a58e8462bda5bb69ce2f57e10e", "lon": -76.97612283333333, "is_disabled": 0, "type": "electric_scooter"}, {"bike_id": "c52c9848857e8013a9dcffaf35ddf481", "lat": 38.917118333333335, "is_reserved": 0, "fusion_lat": 0.0, "rental_uris": {"android": "https://dc.lft.to/lastmile_qr_scan", "ios": "https://dc.lft.to/lastmile_qr_scan"}, "fusion_lon": 0.0, "name": "c52c9848857e8013a9dcffaf35ddf481", "lon": -77.03209016666666, "is_disabled": 0, "type": "electric_scooter"}, {"bike_id": "aa4db8a6239d2bae626d338e586ee1e0", "lat": 38.8849185, "is_reserved": 0, "fusion_lat": 0.0, "rental_uris": {"android": "https://dc.lft.to/lastmile_qr_scan", "ios": "https://dc.lft.to/lastmile_qr_scan"}, "fusion_lon": 0.0, "name": "aa4db8a6239d2bae626d338e586ee1e0", "lon": -77.00718716666667, "is_disabled": 0, "type": "electric_scooter"}, {"bike_id": "99b49412feb2c74c2938b20df0af03df", "lat": 38.91684983333333, "is_reserved": 0, "fusion_lat": 0.0, "rental_uris": {"android": "https://dc.lft.to/lastmile_qr_scan", "ios": "https://dc.lft.to/lastmile_qr_scan"}, "fusion_lon": 0.0, "name": "99b49412feb2c74c2938b20df0af03df", "lon": -77.02377133333333, "is_disabled": 0, "type": "electric_scooter"}, {"bike_id": "fae2d8612a812717db35c1bb7cb97a42", "lat": 38.92874116666667, "is_reserved": 0, "fusion_lat": 0.0, "rental_uris": {"android": "https://dc.lft.to/lastmile_qr_scan", "ios": "https://dc.lft.to/lastmile_qr_scan"}, "fusion_lon": 0.0, "name": "fae2d8612a812717db35c1bb7cb97a42", "lon": -77.0277525, "is_disabled": 0, "type": "electric_scooter"}, {"bike_id": "4519501a2e03db3417192956b7bcfa37", "lat": 38.9215275, "is_reserved": 0, "fusion_lat": 0.0, "rental_uris": {"android": "https://dc.lft.to/lastmile_qr_scan", "ios": "https://dc.lft.to/lastmile_qr_scan"}, "fusion_lon": 0.0, "name": "4519501a2e03db3417192956b7bcfa37", "lon": -77.03391616666667, "is_disabled": 0, "type": "electric_scooter"}, {"bike_id": "710e69372e0a8ebbbd2c1e04ea4c97d6", "lat": 38.912052833333334, "is_reserved": 0, "fusion_lat": 0.0, "rental_uris": {"android": "https://dc.lft.to/lastmile_qr_scan", "ios": "https://dc.lft.to/lastmile_qr_scan"}, "fusion_lon": 0.0, "name": "710e69372e0a8ebbbd2c1e04ea4c97d6", "lon": -77.04479483333333, "is_disabled": 0, "type": "electric_scooter"}, {"bike_id": "e88400453665e0aa003a83bad6f16a30", "lat": 38.88514116666666, "is_reserved": 0, "fusion_lat": 0.0, "rental_uris": {"android": "https://dc.lft.to/lastmile_qr_scan", "ios": "https://dc.lft.to/lastmile_qr_scan"}, "fusion_lon": 0.0, "name": "e88400453665e0aa003a83bad6f16a30", "lon": -76.956331, "is_disabled": 0, "type": "electric_bike"}, {"bike_id": "ab50e468883124c5b6f2939cfd0d073d", "lat": 38.90677383333333, "is_reserved": 0, "fusion_lat": 0.0, "rental_uris": {"android": "https://dc.lft.to/lastmile_qr_scan", "ios": "https://dc.lft.to/lastmile_qr_scan"}, "fusion_lon": 0.0, "name": "ab50e468883124c5b6f2939cfd0d073d", "lon": -76.98004116666667, "is_disabled": 0, "type": "electric_scooter"}, {"bike_id": "95d9709533de82d867ff16391711b0b6", "lat": 38.89470416666666, "is_reserved": 0, "fusion_lat": 0.0, "rental_uris": {"android": "https://dc.lft.to/lastmile_qr_scan", "ios": "https://dc.lft.to/lastmile_qr_scan"}, "fusion_lon": 0.0, "name": "95d9709533de82d867ff16391711b0b6", "lon": -77.02193516666667, "is_disabled": 0, "type": "electric_scooter"}, {"bike_id": "c555581c6d8859825fdbb4c4f3102170", "lat": 38.873750666666666, "is_reserved": 0, "fusion_lat": 0.0, "rental_uris": {"android": "https://dc.lft.to/lastmile_qr_scan", "ios": "https://dc.lft.to/lastmile_qr_scan"}, "fusion_lon": 0.0, "name": "c555581c6d8859825fdbb4c4f3102170", "lon": -77.00111433333333, "is_disabled": 0, "type": "electric_scooter"}, {"bike_id": "52852f950fe6c23e37f13135e9de8eab", "lat": 38.91407183333333, "is_reserved": 0, "fusion_lat": 0.0, "rental_uris": {"android": "https://dc.lft.to/lastmile_qr_scan", "ios": "https://dc.lft.to/lastmile_qr_scan"}, "fusion_lon": 0.0, "name": "52852f950fe6c23e37f13135e9de8eab", "lon": -77.03221266666667, "is_disabled": 0, "type": "electric_scooter"}, {"bike_id": "648838d3b1aa8bd41dc94e2b2590a5a1", "lat": 38.93227533333334, "is_reserved": 0, "fusion_lat": 0.0, "rental_uris": {"android": "https://dc.lft.to/lastmile_qr_scan", "ios": "https://dc.lft.to/lastmile_qr_scan"}, "fusion_lon": 0.0, "name": "648838d3b1aa8bd41dc94e2b2590a5a1", "lon": -77.18122866666667, "is_disabled": 0, "type": "electric_bike"}, {"bike_id": "47b5069cd82267cd568b7aedc88f3078", "lat": 38.88119566666667, "is_reserved": 0, "fusion_lat": 0.0, "rental_uris": {"android": "https://dc.lft.to/lastmile_qr_scan", "ios": "https://dc.lft.to/lastmile_qr_scan"}, "fusion_lon": 0.0, "name": "47b5069cd82267cd568b7aedc88f3078", "lon": -77.01652433333334, "is_disabled": 0, "type": "electric_scooter"}, {"bike_id": "efbdc031fa618cfec365397c7553cee3", "lat": 38.90791183333333, "is_reserved": 0, "fusion_lat": 0.0, "rental_uris": {"android": "https://dc.lft.to/lastmile_qr_scan", "ios": "https://dc.lft.to/lastmile_qr_scan"}, "fusion_lon": 0.0, "name": "efbdc031fa618cfec365397c7553cee3", "lon": -77.0401275, "is_disabled": 0, "type": "electric_scooter"}, {"bike_id": "6a7d7732433739e9c6f1a3b11b81aecd", "lat": 38.91696433333333, "is_reserved": 0, "fusion_lat": 0.0, "rental_uris": {"android": "https://dc.lft.to/lastmile_qr_scan", "ios": "https://dc.lft.to/lastmile_qr_scan"}, "fusion_lon": 0.0, "name": "6a7d7732433739e9c6f1a3b11b81aecd", "lon": -77.02665183333333, "is_disabled": 0, "type": "electric_scooter"}, {"bike_id": "ca91232300a765dc3ad7a702d724d023", "lat": 38.809780833333335, "is_reserved": 0, "fusion_lat": 0.0, "rental_uris": {"android": "https://dc.lft.to/lastmile_qr_scan", "ios": "https://dc.lft.to/lastmile_qr_scan"}, "fusion_lon": 0.0, "name": "ca91232300a765dc3ad7a702d724d023", "lon": -77.08630783333334, "is_disabled": 0, "type": "electric_bike"}, {"bike_id": "25bd80f167003fa494fdbdf0da14c69c", "lat": 38.955749, "is_reserved": 0, "fusion_lat": 0.0, "rental_uris": {"android": "https://dc.lft.to/lastmile_qr_scan", "ios": "https://dc.lft.to/lastmile_qr_scan"}, "fusion_lon": 0.0, "name": "25bd80f167003fa494fdbdf0da14c69c", "lon": -77.0803855, "is_disabled": 0, "type": "electric_scooter"}, {"bike_id": "d49f25fe4a7ac3df397b67b5f01c5886", "lat": 38.89740883333333, "is_reserved": 0, "fusion_lat": 0.0, "rental_uris": {"android": "https://dc.lft.to/lastmile_qr_scan", "ios": "https://dc.lft.to/lastmile_qr_scan"}, "fusion_lon": 0.0, "name": "d49f25fe4a7ac3df397b67b5f01c5886", "lon": -77.0218985, "is_disabled": 0, "type": "electric_scooter"}, {"bike_id": "8fd9f709fe6f636ba0fbde875ead8bf2", "lat": 38.92152733333333, "is_reserved": 0, "fusion_lat": 0.0, "rental_uris": {"android": "https://dc.lft.to/lastmile_qr_scan", "ios": "https://dc.lft.to/lastmile_qr_scan"}, "fusion_lon": 0.0, "name": "8fd9f709fe6f636ba0fbde875ead8bf2", "lon": -77.03230633333334, "is_disabled": 0, "type": "electric_scooter"}, {"bike_id": "504fb2545e9b8b76cbf279b3651f601a", "lat": 38.924087166666666, "is_reserved": 0, "fusion_lat": 0.0, "rental_uris": {"android": "https://dc.lft.to/lastmile_qr_scan", "ios": "https://dc.lft.to/lastmile_qr_scan"}, "fusion_lon": 0.0, "name": "504fb2545e9b8b76cbf279b3651f601a", "lon": -77.02011533333334, "is_disabled": 0, "type": "electric_scooter"}, {"bike_id": "1d50581b9bd23ca3a04dfa9822681497", "lat": 38.92042333333333, "is_reserved": 0, "fusion_lat": 0.0, "rental_uris": {"android": "https://dc.lft.to/lastmile_qr_scan", "ios": "https://dc.lft.to/lastmile_qr_scan"}, "fusion_lon": 0.0, "name": "1d50581b9bd23ca3a04dfa9822681497", "lon": -77.02574666666666, "is_disabled": 0, "type": "electric_scooter"}, {"bike_id": "3b6f032a126e62f5dd82f17003e30b5d", "lat": 38.916870833333334, "is_reserved": 0, "fusion_lat": 0.0, "rental_uris": {"android": "https://dc.lft.to/lastmile_qr_scan", "ios": "https://dc.lft.to/lastmile_qr_scan"}, "fusion_lon": 0.0, "name": "3b6f032a126e62f5dd82f17003e30b5d", "lon": -77.02378783333333, "is_disabled": 0, "type": "electric_scooter"}, {"bike_id": "3da4ad2c153f4cba27047f196398d093", "lat": 38.993120833333336, "is_reserved": 0, "fusion_lat": 0.0, "rental_uris": {"android": "https://dc.lft.to/lastmile_qr_scan", "ios": "https://dc.lft.to/lastmile_qr_scan"}, "fusion_lon": 0.0, "name": "3da4ad2c153f4cba27047f196398d093", "lon": -77.02312116666667, "is_disabled": 0, "type": "electric_bike"}, {"bike_id": "af86c72eea49e932ed8f83529ea47a99", "lat": 38.922498833333336, "is_reserved": 0, "fusion_lat": 0.0, "rental_uris": {"android": "https://dc.lft.to/lastmile_qr_scan", "ios": "https://dc.lft.to/lastmile_qr_scan"}, "fusion_lon": 0.0, "name": "af86c72eea49e932ed8f83529ea47a99", "lon": -77.0413605, "is_disabled": 0, "type": "electric_scooter"}, {"bike_id": "9a79d2b123395445c3661867507fac00", "lat": 38.92485666666666, "is_reserved": 0, "fusion_lat": 0.0, "rental_uris": {"android": "https://dc.lft.to/lastmile_qr_scan", "ios": "https://dc.lft.to/lastmile_qr_scan"}, "fusion_lon": 0.0, "name": "9a79d2b123395445c3661867507fac00", "lon": -77.0318445, "is_disabled": 0, "type": "electric_scooter"}, {"bike_id": "a8e3d3d98c5f5caf8814fe3eceaf3d5f", "lat": 38.90472, "is_reserved": 0, "fusion_lat": 0.0, "rental_uris": {"android": "https://dc.lft.to/lastmile_qr_scan", "ios": "https://dc.lft.to/lastmile_qr_scan"}, "fusion_lon": 0.0, "name": "a8e3d3d98c5f5caf8814fe3eceaf3d5f", "lon": -77.04479566666667, "is_disabled": 0, "type": "electric_scooter"}, {"bike_id": "0ea6bbcc10897ea8c869ee10a9212d37", "lat": 38.91763666666667, "is_reserved": 0, "fusion_lat": 0.0, "rental_uris": {"android": "https://dc.lft.to/lastmile_qr_scan", "ios": "https://dc.lft.to/lastmile_qr_scan"}, "fusion_lon": 0.0, "name": "0ea6bbcc10897ea8c869ee10a9212d37", "lon": -77.04766866666667, "is_disabled": 0, "type": "electric_scooter"}, {"bike_id": "b8fe3e4277bf44fea9f5d904a14a5d5b", "lat": 38.903109666666666, "is_reserved": 0, "fusion_lat": 0.0, "rental_uris": {"android": "https://dc.lft.to/lastmile_qr_scan", "ios": "https://dc.lft.to/lastmile_qr_scan"}, "fusion_lon": 0.0, "name": "b8fe3e4277bf44fea9f5d904a14a5d5b", "lon": -76.99129266666667, "is_disabled": 0, "type": "electric_scooter"}, {"bike_id": "4398c7d75e24771b3c50a827bbf8c81b", "lat": 38.93524633333333, "is_reserved": 0, "fusion_lat": 0.0, "rental_uris": {"android": "https://dc.lft.to/lastmile_qr_scan", "ios": "https://dc.lft.to/lastmile_qr_scan"}, "fusion_lon": 0.0, "name": "4398c7d75e24771b3c50a827bbf8c81b", "lon": -76.96448416666667, "is_disabled": 0, "type": "electric_bike"}, {"bike_id": "268cf459bae120bf7a0a8a549a0fcb36", "lat": 38.9023635, "is_reserved": 0, "fusion_lat": 0.0, "rental_uris": {"android": "https://dc.lft.to/lastmile_qr_scan", "ios": "https://dc.lft.to/lastmile_qr_scan"}, "fusion_lon": 0.0, "name": "268cf459bae120bf7a0a8a549a0fcb36", "lon": -77.0236905, "is_disabled": 0, "type": "electric_scooter"}, {"bike_id": "62e76e65fc6b8567737d8cc8244d94e2", "lat": 38.8637095, "is_reserved": 0, "fusion_lat": 0.0, "rental_uris": {"android": "https://dc.lft.to/lastmile_qr_scan", "ios": "https://dc.lft.to/lastmile_qr_scan"}, "fusion_lon": 0.0, "name": "62e76e65fc6b8567737d8cc8244d94e2", "lon": -76.99054033333333, "is_disabled": 0, "type": "electric_scooter"}, {"bike_id": "651ac68e7453880f9f7331ec56099f9d", "lat": 38.8922295, "is_reserved": 0, "fusion_lat": 0.0, "rental_uris": {"android": "https://dc.lft.to/lastmile_qr_scan", "ios": "https://dc.lft.to/lastmile_qr_scan"}, "fusion_lon": 0.0, "name": "651ac68e7453880f9f7331ec56099f9d", "lon": -77.03029066666667, "is_disabled": 0, "type": "electric_scooter"}, {"bike_id": "05e4bdf6c1160a7c8df71bee0ec637c7", "lat": 38.886572666666666, "is_reserved": 0, "fusion_lat": 0.0, "rental_uris": {"android": "https://dc.lft.to/lastmile_qr_scan", "ios": "https://dc.lft.to/lastmile_qr_scan"}, "fusion_lon": 0.0, "name": "05e4bdf6c1160a7c8df71bee0ec637c7", "lon": -77.02832983333333, "is_disabled": 0, "type": "electric_scooter"}, {"bike_id": "cbe0824418e1e25531c2cf969565fc7d", "lat": 38.903698166666665, "is_reserved": 0, "fusion_lat": 0.0, "rental_uris": {"android": "https://dc.lft.to/lastmile_qr_scan", "ios": "https://dc.lft.to/lastmile_qr_scan"}, "fusion_lon": 0.0, "name": "cbe0824418e1e25531c2cf969565fc7d", "lon": -77.03203233333333, "is_disabled": 0, "type": "electric_scooter"}, {"bike_id": "6d740c02b831354e870e6e397b6efe27", "lat": 38.901429666666665, "is_reserved": 0, "fusion_lat": 0.0, "rental_uris": {"android": "https://dc.lft.to/lastmile_qr_scan", "ios": "https://dc.lft.to/lastmile_qr_scan"}, "fusion_lon": 0.0, "name": "6d740c02b831354e870e6e397b6efe27", "lon": -76.93091933333334, "is_disabled": 0, "type": "electric_scooter"}, {"bike_id": "49c59c5cf2fcfd882c070c7dc1910395", "lat": 38.89915233333333, "is_reserved": 0, "fusion_lat": 0.0, "rental_uris": {"android": "https://dc.lft.to/lastmile_qr_scan", "ios": "https://dc.lft.to/lastmile_qr_scan"}, "fusion_lon": 0.0, "name": "49c59c5cf2fcfd882c070c7dc1910395", "lon": -76.93368933333333, "is_disabled": 0, "type": "electric_scooter"}, {"bike_id": "4985aa6fca9754575c3ec9f911dfc7a6", "lat": 38.89221216666667, "is_reserved": 0, "fusion_lat": 0.0, "rental_uris": {"android": "https://dc.lft.to/lastmile_qr_scan", "ios": "https://dc.lft.to/lastmile_qr_scan"}, "fusion_lon": 0.0, "name": "4985aa6fca9754575c3ec9f911dfc7a6", "lon": -77.03214833333334, "is_disabled": 0, "type": "electric_scooter"}, {"bike_id": "ff11f74bfd06b9a6d5befdda855c7d4c", "lat": 38.905598166666664, "is_reserved": 0, "fusion_lat": 0.0, "rental_uris": {"android": "https://dc.lft.to/lastmile_qr_scan", "ios": "https://dc.lft.to/lastmile_qr_scan"}, "fusion_lon": 0.0, "name": "ff11f74bfd06b9a6d5befdda855c7d4c", "lon": -77.0221975, "is_disabled": 0, "type": "electric_scooter"}, {"bike_id": "a13f957d775d1602ed6622d1f4549ccb", "lat": 38.89226133333333, "is_reserved": 0, "fusion_lat": 0.0, "rental_uris": {"android": "https://dc.lft.to/lastmile_qr_scan", "ios": "https://dc.lft.to/lastmile_qr_scan"}, "fusion_lon": 0.0, "name": "a13f957d775d1602ed6622d1f4549ccb", "lon": -77.0316475, "is_disabled": 0, "type": "electric_scooter"}, {"bike_id": "5c84bd575f7dab6de3a85fba0c603f7d", "lat": 38.915894333333334, "is_reserved": 0, "fusion_lat": 0.0, "rental_uris": {"android": "https://dc.lft.to/lastmile_qr_scan", "ios": "https://dc.lft.to/lastmile_qr_scan"}, "fusion_lon": 0.0, "name": "5c84bd575f7dab6de3a85fba0c603f7d", "lon": -77.045829, "is_disabled": 0, "type": "electric_scooter"}, {"bike_id": "eaad7246088b85a7af2b1b1ced3f689c", "lat": 38.902784, "is_reserved": 0, "fusion_lat": 0.0, "rental_uris": {"android": "https://dc.lft.to/lastmile_qr_scan", "ios": "https://dc.lft.to/lastmile_qr_scan"}, "fusion_lon": 0.0, "name": "eaad7246088b85a7af2b1b1ced3f689c", "lon": -77.03348116666666, "is_disabled": 0, "type": "electric_scooter"}, {"bike_id": "4a2bbef7bcb5e258e01c766a45906fe4", "lat": 38.915577, "is_reserved": 0, "fusion_lat": 0.0, "rental_uris": {"android": "https://dc.lft.to/lastmile_qr_scan", "ios": "https://dc.lft.to/lastmile_qr_scan"}, "fusion_lon": 0.0, "name": "4a2bbef7bcb5e258e01c766a45906fe4", "lon": -77.035712, "is_disabled": 0, "type": "electric_scooter"}, {"bike_id": "5dcb8376b4081e7b453443d79dabdf93", "lat": 38.878813, "is_reserved": 0, "fusion_lat": 0.0, "rental_uris": {"android": "https://dc.lft.to/lastmile_qr_scan", "ios": "https://dc.lft.to/lastmile_qr_scan"}, "fusion_lon": 0.0, "name": "5dcb8376b4081e7b453443d79dabdf93", "lon": -77.02232183333334, "is_disabled": 0, "type": "electric_scooter"}, {"bike_id": "e473dc0c0bd390025cc731c2c0026fb9", "lat": 38.86334466666667, "is_reserved": 0, "fusion_lat": 0.0, "rental_uris": {"android": "https://dc.lft.to/lastmile_qr_scan", "ios": "https://dc.lft.to/lastmile_qr_scan"}, "fusion_lon": 0.0, "name": "e473dc0c0bd390025cc731c2c0026fb9", "lon": -76.98727716666667, "is_disabled": 0, "type": "electric_bike"}, {"bike_id": "994dddb640592eaea7caf39483515bbc", "lat": 38.921704166666665, "is_reserved": 0, "fusion_lat": 0.0, "rental_uris": {"android": "https://dc.lft.to/lastmile_qr_scan", "ios": "https://dc.lft.to/lastmile_qr_scan"}, "fusion_lon": 0.0, "name": "994dddb640592eaea7caf39483515bbc", "lon": -77.01918966666666, "is_disabled": 0, "type": "electric_scooter"}, {"bike_id": "dfa0ccb8f6c3e4a28d674abe899d6f6b", "lat": 38.897391999999996, "is_reserved": 0, "fusion_lat": 0.0, "rental_uris": {"android": "https://dc.lft.to/lastmile_qr_scan", "ios": "https://dc.lft.to/lastmile_qr_scan"}, "fusion_lon": 0.0, "name": "dfa0ccb8f6c3e4a28d674abe899d6f6b", "lon": -77.02755383333333, "is_disabled": 0, "type": "electric_scooter"}, {"bike_id": "965dc80d04c108b466ba56039e1afab0", "lat": 38.93653466666667, "is_reserved": 0, "fusion_lat": 0.0, "rental_uris": {"android": "https://dc.lft.to/lastmile_qr_scan", "ios": "https://dc.lft.to/lastmile_qr_scan"}, "fusion_lon": 0.0, "name": "965dc80d04c108b466ba56039e1afab0", "lon": -77.033497, "is_disabled": 0, "type": "electric_scooter"}, {"bike_id": "3f6dc5da5b26e657fcd454b8e945da92", "lat": 38.92621966666667, "is_reserved": 0, "fusion_lat": 0.0, "rental_uris": {"android": "https://dc.lft.to/lastmile_qr_scan", "ios": "https://dc.lft.to/lastmile_qr_scan"}, "fusion_lon": 0.0, "name": "3f6dc5da5b26e657fcd454b8e945da92", "lon": -77.04196016666667, "is_disabled": 0, "type": "electric_scooter"}, {"bike_id": "20e105f9956390a5d28b7d1a041e3cc3", "lat": 38.8960555, "is_reserved": 0, "fusion_lat": 0.0, "rental_uris": {"android": "https://dc.lft.to/lastmile_qr_scan", "ios": "https://dc.lft.to/lastmile_qr_scan"}, "fusion_lon": 0.0, "name": "20e105f9956390a5d28b7d1a041e3cc3", "lon": -77.02214416666666, "is_disabled": 0, "type": "electric_scooter"}, {"bike_id": "b4fe0e9288becc88908c1ec6860cacd4", "lat": 38.9029235, "is_reserved": 0, "fusion_lat": 0.0, "rental_uris": {"android": "https://dc.lft.to/lastmile_qr_scan", "ios": "https://dc.lft.to/lastmile_qr_scan"}, "fusion_lon": 0.0, "name": "b4fe0e9288becc88908c1ec6860cacd4", "lon": -77.0333105, "is_disabled": 0, "type": "electric_scooter"}, {"bike_id": "99ced0d94d7c0a8ce36b0a37abddff3f", "lat": 38.9224695, "is_reserved": 0, "fusion_lat": 0.0, "rental_uris": {"android": "https://dc.lft.to/lastmile_qr_scan", "ios": "https://dc.lft.to/lastmile_qr_scan"}, "fusion_lon": 0.0, "name": "99ced0d94d7c0a8ce36b0a37abddff3f", "lon": -77.02896733333333, "is_disabled": 0, "type": "electric_scooter"}, {"bike_id": "e54a6fc5139b91108484124c61cbf54e", "lat": 38.89292616666667, "is_reserved": 0, "fusion_lat": 0.0, "rental_uris": {"android": "https://dc.lft.to/lastmile_qr_scan", "ios": "https://dc.lft.to/lastmile_qr_scan"}, "fusion_lon": 0.0, "name": "e54a6fc5139b91108484124c61cbf54e", "lon": -77.01989733333333, "is_disabled": 0, "type": "electric_scooter"}, {"bike_id": "e54fe2200d6000104e9ce450c43bd6e9", "lat": 38.915637333333336, "is_reserved": 0, "fusion_lat": 0.0, "rental_uris": {"android": "https://dc.lft.to/lastmile_qr_scan", "ios": "https://dc.lft.to/lastmile_qr_scan"}, "fusion_lon": 0.0, "name": "e54fe2200d6000104e9ce450c43bd6e9", "lon": -77.03126083333333, "is_disabled": 0, "type": "electric_scooter"}, {"bike_id": "4c0ca67d21b696c8a2f20c43aa527b3b", "lat": 38.904125666666665, "is_reserved": 0, "fusion_lat": 0.0, "rental_uris": {"android": "https://dc.lft.to/lastmile_qr_scan", "ios": "https://dc.lft.to/lastmile_qr_scan"}, "fusion_lon": 0.0, "name": "4c0ca67d21b696c8a2f20c43aa527b3b", "lon": -76.97332166666666, "is_disabled": 0, "type": "electric_scooter"}, {"bike_id": "2f502e75ae744881bf0889e2406d1dd9", "lat": 38.9262385, "is_reserved": 0, "fusion_lat": 0.0, "rental_uris": {"android": "https://dc.lft.to/lastmile_qr_scan", "ios": "https://dc.lft.to/lastmile_qr_scan"}, "fusion_lon": 0.0, "name": "2f502e75ae744881bf0889e2406d1dd9", "lon": -77.03708633333333, "is_disabled": 0, "type": "electric_scooter"}, {"bike_id": "b2c4adb03a31bc399c35e4edd488e3e8", "lat": 38.89613416666667, "is_reserved": 0, "fusion_lat": 0.0, "rental_uris": {"android": "https://dc.lft.to/lastmile_qr_scan", "ios": "https://dc.lft.to/lastmile_qr_scan"}, "fusion_lon": 0.0, "name": "b2c4adb03a31bc399c35e4edd488e3e8", "lon": -76.90736733333334, "is_disabled": 0, "type": "electric_bike"}, {"bike_id": "03b701ba0ea96cdfd26ac657e8290afd", "lat": 38.900527333333336, "is_reserved": 0, "fusion_lat": 0.0, "rental_uris": {"android": "https://dc.lft.to/lastmile_qr_scan", "ios": "https://dc.lft.to/lastmile_qr_scan"}, "fusion_lon": 0.0, "name": "03b701ba0ea96cdfd26ac657e8290afd", "lon": -77.03640583333333, "is_disabled": 0, "type": "electric_scooter"}, {"bike_id": "8fc3f1b859fe22587a2127e09c7fc0ab", "lat": 38.90746516666667, "is_reserved": 0, "fusion_lat": 0.0, "rental_uris": {"android": "https://dc.lft.to/lastmile_qr_scan", "ios": "https://dc.lft.to/lastmile_qr_scan"}, "fusion_lon": 0.0, "name": "8fc3f1b859fe22587a2127e09c7fc0ab", "lon": -77.0419555, "is_disabled": 0, "type": "electric_scooter"}, {"bike_id": "96e55b27c16c816b8117293364de9fe0", "lat": 38.932448666666666, "is_reserved": 0, "fusion_lat": 0.0, "rental_uris": {"android": "https://dc.lft.to/lastmile_qr_scan", "ios": "https://dc.lft.to/lastmile_qr_scan"}, "fusion_lon": 0.0, "name": "96e55b27c16c816b8117293364de9fe0", "lon": -76.99510766666667, "is_disabled": 0, "type": "electric_scooter"}, {"bike_id": "d4c73336073a51fc0b4f85e3b12af7f4", "lat": 38.9072555, "is_reserved": 0, "fusion_lat": 0.0, "rental_uris": {"android": "https://dc.lft.to/lastmile_qr_scan", "ios": "https://dc.lft.to/lastmile_qr_scan"}, "fusion_lon": 0.0, "name": "d4c73336073a51fc0b4f85e3b12af7f4", "lon": -77.02254333333333, "is_disabled": 0, "type": "electric_scooter"}, {"bike_id": "f512757a75649494a2b5c89b1f610ca4", "lat": 38.89224433333333, "is_reserved": 0, "fusion_lat": 0.0, "rental_uris": {"android": "https://dc.lft.to/lastmile_qr_scan", "ios": "https://dc.lft.to/lastmile_qr_scan"}, "fusion_lon": 0.0, "name": "f512757a75649494a2b5c89b1f610ca4", "lon": -77.03168366666667, "is_disabled": 0, "type": "electric_scooter"}, {"bike_id": "63b1c6ba96458b3fd98a32b9a704519b", "lat": 38.917161, "is_reserved": 0, "fusion_lat": 0.0, "rental_uris": {"android": "https://dc.lft.to/lastmile_qr_scan", "ios": "https://dc.lft.to/lastmile_qr_scan"}, "fusion_lon": 0.0, "name": "63b1c6ba96458b3fd98a32b9a704519b", "lon": -77.03191816666667, "is_disabled": 0, "type": "electric_scooter"}, {"bike_id": "09f84923e80b1d546f025a6fac2fb2e7", "lat": 38.922173, "is_reserved": 0, "fusion_lat": 0.0, "rental_uris": {"android": "https://dc.lft.to/lastmile_qr_scan", "ios": "https://dc.lft.to/lastmile_qr_scan"}, "fusion_lon": 0.0, "name": "09f84923e80b1d546f025a6fac2fb2e7", "lon": -77.03457283333333, "is_disabled": 0, "type": "electric_scooter"}, {"bike_id": "b8fecc2cb458ff29a7df85fcc094b669", "lat": 38.9002735, "is_reserved": 0, "fusion_lat": 0.0, "rental_uris": {"android": "https://dc.lft.to/lastmile_qr_scan", "ios": "https://dc.lft.to/lastmile_qr_scan"}, "fusion_lon": 0.0, "name": "b8fecc2cb458ff29a7df85fcc094b669", "lon": -76.98834683333334, "is_disabled": 0, "type": "electric_scooter"}, {"bike_id": "a9337dc2eb458bad922b7d4379be2e2b", "lat": 39.03986866666666, "is_reserved": 0, "fusion_lat": 0.0, "rental_uris": {"android": "https://dc.lft.to/lastmile_qr_scan", "ios": "https://dc.lft.to/lastmile_qr_scan"}, "fusion_lon": 0.0, "name": "a9337dc2eb458bad922b7d4379be2e2b", "lon": -76.99923666666666, "is_disabled": 0, "type": "electric_bike"}, {"bike_id": "798bd88bb0cfd87161c99d33d4054b52", "lat": 38.902895666666666, "is_reserved": 0, "fusion_lat": 0.0, "rental_uris": {"android": "https://dc.lft.to/lastmile_qr_scan", "ios": "https://dc.lft.to/lastmile_qr_scan"}, "fusion_lon": 0.0, "name": "798bd88bb0cfd87161c99d33d4054b52", "lon": -76.97636766666666, "is_disabled": 0, "type": "electric_scooter"}, {"bike_id": "acf9f946165c2082b5ddf0d9e65d4c2b", "lat": 38.90027116666667, "is_reserved": 0, "fusion_lat": 0.0, "rental_uris": {"android": "https://dc.lft.to/lastmile_qr_scan", "ios": "https://dc.lft.to/lastmile_qr_scan"}, "fusion_lon": 0.0, "name": "acf9f946165c2082b5ddf0d9e65d4c2b", "lon": -76.998615, "is_disabled": 0, "type": "electric_scooter"}, {"bike_id": "68d2761256315b442684501b6a19392f", "lat": 38.903847999999996, "is_reserved": 0, "fusion_lat": 0.0, "rental_uris": {"android": "https://dc.lft.to/lastmile_qr_scan", "ios": "https://dc.lft.to/lastmile_qr_scan"}, "fusion_lon": 0.0, "name": "68d2761256315b442684501b6a19392f", "lon": -77.03886216666666, "is_disabled": 0, "type": "electric_scooter"}, {"bike_id": "20b87b3bda64332a83c0e5e835438bff", "lat": 38.845269, "is_reserved": 0, "fusion_lat": 0.0, "rental_uris": {"android": "https://dc.lft.to/lastmile_qr_scan", "ios": "https://dc.lft.to/lastmile_qr_scan"}, "fusion_lon": 0.0, "name": "20b87b3bda64332a83c0e5e835438bff", "lon": -76.97399033333333, "is_disabled": 0, "type": "electric_bike"}, {"bike_id": "a9aee14e5635d31eacb9713cd3d36227", "lat": 38.92038466666666, "is_reserved": 0, "fusion_lat": 0.0, "rental_uris": {"android": "https://dc.lft.to/lastmile_qr_scan", "ios": "https://dc.lft.to/lastmile_qr_scan"}, "fusion_lon": 0.0, "name": "a9aee14e5635d31eacb9713cd3d36227", "lon": -77.07153, "is_disabled": 0, "type": "electric_scooter"}, {"bike_id": "257a59ff8ef364e809d69eaccf539db9", "lat": 38.903913, "is_reserved": 0, "fusion_lat": 0.0, "rental_uris": {"android": "https://dc.lft.to/lastmile_qr_scan", "ios": "https://dc.lft.to/lastmile_qr_scan"}, "fusion_lon": 0.0, "name": "257a59ff8ef364e809d69eaccf539db9", "lon": -77.03651933333333, "is_disabled": 0, "type": "electric_scooter"}, {"bike_id": "f074a5b5335494a974806e90de7212b1", "lat": 38.91673866666667, "is_reserved": 0, "fusion_lat": 0.0, "rental_uris": {"android": "https://dc.lft.to/lastmile_qr_scan", "ios": "https://dc.lft.to/lastmile_qr_scan"}, "fusion_lon": 0.0, "name": "f074a5b5335494a974806e90de7212b1", "lon": -77.023193, "is_disabled": 0, "type": "electric_scooter"}, {"bike_id": "3afb819e5fde07a4b59ddf366aff430a", "lat": 38.91834033333333, "is_reserved": 0, "fusion_lat": 0.0, "rental_uris": {"android": "https://dc.lft.to/lastmile_qr_scan", "ios": "https://dc.lft.to/lastmile_qr_scan"}, "fusion_lon": 0.0, "name": "3afb819e5fde07a4b59ddf366aff430a", "lon": -77.0351335, "is_disabled": 0, "type": "electric_scooter"}, {"bike_id": "dbdbe0fcba61ee419e85d8fafed4e275", "lat": 38.89761083333333, "is_reserved": 0, "fusion_lat": 0.0, "rental_uris": {"android": "https://dc.lft.to/lastmile_qr_scan", "ios": "https://dc.lft.to/lastmile_qr_scan"}, "fusion_lon": 0.0, "name": "dbdbe0fcba61ee419e85d8fafed4e275", "lon": -77.03041916666666, "is_disabled": 0, "type": "electric_scooter"}, {"bike_id": "32703a52e612a219d3ce962ca778a739", "lat": 38.89330016666667, "is_reserved": 0, "fusion_lat": 0.0, "rental_uris": {"android": "https://dc.lft.to/lastmile_qr_scan", "ios": "https://dc.lft.to/lastmile_qr_scan"}, "fusion_lon": 0.0, "name": "32703a52e612a219d3ce962ca778a739", "lon": -77.03195016666666, "is_disabled": 0, "type": "electric_scooter"}, {"bike_id": "4b4a7cb1e32d21822c4cf6f6020aed83", "lat": 38.90261316666667, "is_reserved": 0, "fusion_lat": 0.0, "rental_uris": {"android": "https://dc.lft.to/lastmile_qr_scan", "ios": "https://dc.lft.to/lastmile_qr_scan"}, "fusion_lon": 0.0, "name": "4b4a7cb1e32d21822c4cf6f6020aed83", "lon": -77.05916266666667, "is_disabled": 0, "type": "electric_scooter"}, {"bike_id": "ee96d9184be6d62a769f146466633654", "lat": 38.920200666666666, "is_reserved": 0, "fusion_lat": 0.0, "rental_uris": {"android": "https://dc.lft.to/lastmile_qr_scan", "ios": "https://dc.lft.to/lastmile_qr_scan"}, "fusion_lon": 0.0, "name": "ee96d9184be6d62a769f146466633654", "lon": -77.03123466666666, "is_disabled": 0, "type": "electric_scooter"}, {"bike_id": "697df6283abdc42e4ce38ee545a2dc5d", "lat": 38.91527033333333, "is_reserved": 0, "fusion_lat": 0.0, "rental_uris": {"android": "https://dc.lft.to/lastmile_qr_scan", "ios": "https://dc.lft.to/lastmile_qr_scan"}, "fusion_lon": 0.0, "name": "697df6283abdc42e4ce38ee545a2dc5d", "lon": -76.983503, "is_disabled": 0, "type": "electric_scooter"}, {"bike_id": "7a86532d6f2de07f33970ab9ffdc2177", "lat": 38.94781733333333, "is_reserved": 0, "fusion_lat": 0.0, "rental_uris": {"android": "https://dc.lft.to/lastmile_qr_scan", "ios": "https://dc.lft.to/lastmile_qr_scan"}, "fusion_lon": 0.0, "name": "7a86532d6f2de07f33970ab9ffdc2177", "lon": -77.0213685, "is_disabled": 0, "type": "electric_scooter"}, {"bike_id": "f8138cf9869f25eb76b182d75f2df84b", "lat": 38.89223233333333, "is_reserved": 0, "fusion_lat": 0.0, "rental_uris": {"android": "https://dc.lft.to/lastmile_qr_scan", "ios": "https://dc.lft.to/lastmile_qr_scan"}, "fusion_lon": 0.0, "name": "f8138cf9869f25eb76b182d75f2df84b", "lon": -77.04009266666667, "is_disabled": 0, "type": "electric_scooter"}, {"bike_id": "d195d29788030022d58139d523898dd0", "lat": 38.92611516666667, "is_reserved": 0, "fusion_lat": 0.0, "rental_uris": {"android": "https://dc.lft.to/lastmile_qr_scan", "ios": "https://dc.lft.to/lastmile_qr_scan"}, "fusion_lon": 0.0, "name": "d195d29788030022d58139d523898dd0", "lon": -77.02161866666667, "is_disabled": 0, "type": "electric_scooter"}, {"bike_id": "8b8ccbff9ca01882b8fd0ce9baaf10aa", "lat": 38.900523, "is_reserved": 0, "fusion_lat": 0.0, "rental_uris": {"android": "https://dc.lft.to/lastmile_qr_scan", "ios": "https://dc.lft.to/lastmile_qr_scan"}, "fusion_lon": 0.0, "name": "8b8ccbff9ca01882b8fd0ce9baaf10aa", "lon": -77.00070416666667, "is_disabled": 0, "type": "electric_scooter"}, {"bike_id": "f44daee17a1470f1e9a49773fb2d209c", "lat": 38.9169255, "is_reserved": 0, "fusion_lat": 0.0, "rental_uris": {"android": "https://dc.lft.to/lastmile_qr_scan", "ios": "https://dc.lft.to/lastmile_qr_scan"}, "fusion_lon": 0.0, "name": "f44daee17a1470f1e9a49773fb2d209c", "lon": -77.02601016666667, "is_disabled": 0, "type": "electric_scooter"}, {"bike_id": "22522da7b2a173ccfca444858c30d346", "lat": 38.89195483333334, "is_reserved": 0, "fusion_lat": 0.0, "rental_uris": {"android": "https://dc.lft.to/lastmile_qr_scan", "ios": "https://dc.lft.to/lastmile_qr_scan"}, "fusion_lon": 0.0, "name": "22522da7b2a173ccfca444858c30d346", "lon": -77.02406866666666, "is_disabled": 0, "type": "electric_scooter"}, {"bike_id": "7825857975a343e3bf20455bc759d3aa", "lat": 38.89740316666666, "is_reserved": 0, "fusion_lat": 0.0, "rental_uris": {"android": "https://dc.lft.to/lastmile_qr_scan", "ios": "https://dc.lft.to/lastmile_qr_scan"}, "fusion_lon": 0.0, "name": "7825857975a343e3bf20455bc759d3aa", "lon": -76.94725516666666, "is_disabled": 0, "type": "electric_scooter"}, {"bike_id": "f82ce7ff34c561cd825645bd78c76196", "lat": 38.9155605, "is_reserved": 0, "fusion_lat": 0.0, "rental_uris": {"android": "https://dc.lft.to/lastmile_qr_scan", "ios": "https://dc.lft.to/lastmile_qr_scan"}, "fusion_lon": 0.0, "name": "f82ce7ff34c561cd825645bd78c76196", "lon": -77.021752, "is_disabled": 0, "type": "electric_scooter"}, {"bike_id": "5e563821f94ba670ec34550a71c3895a", "lat": 38.90565216666667, "is_reserved": 0, "fusion_lat": 0.0, "rental_uris": {"android": "https://dc.lft.to/lastmile_qr_scan", "ios": "https://dc.lft.to/lastmile_qr_scan"}, "fusion_lon": 0.0, "name": "5e563821f94ba670ec34550a71c3895a", "lon": -77.00576916666667, "is_disabled": 0, "type": "electric_scooter"}, {"bike_id": "47e7b937df089a2fd18637d0a6695658", "lat": 38.8904685, "is_reserved": 0, "fusion_lat": 0.0, "rental_uris": {"android": "https://dc.lft.to/lastmile_qr_scan", "ios": "https://dc.lft.to/lastmile_qr_scan"}, "fusion_lon": 0.0, "name": "47e7b937df089a2fd18637d0a6695658", "lon": -76.93752083333334, "is_disabled": 0, "type": "electric_scooter"}, {"bike_id": "5d61d0160b5ab2f2e5a2c86183854768", "lat": 38.93170383333333, "is_reserved": 0, "fusion_lat": 0.0, "rental_uris": {"android": "https://dc.lft.to/lastmile_qr_scan", "ios": "https://dc.lft.to/lastmile_qr_scan"}, "fusion_lon": 0.0, "name": "5d61d0160b5ab2f2e5a2c86183854768", "lon": -77.0367055, "is_disabled": 0, "type": "electric_scooter"}, {"bike_id": "afe40201cbb5f5708dd255b0b4f0acbf", "lat": 38.923359, "is_reserved": 0, "fusion_lat": 0.0, "rental_uris": {"android": "https://dc.lft.to/lastmile_qr_scan", "ios": "https://dc.lft.to/lastmile_qr_scan"}, "fusion_lon": 0.0, "name": "afe40201cbb5f5708dd255b0b4f0acbf", "lon": -77.05330433333333, "is_disabled": 0, "type": "electric_scooter"}, {"bike_id": "3d208db3fbef3c65273a37cfe0ffd33c", "lat": 38.92975533333333, "is_reserved": 0, "fusion_lat": 0.0, "rental_uris": {"android": "https://dc.lft.to/lastmile_qr_scan", "ios": "https://dc.lft.to/lastmile_qr_scan"}, "fusion_lon": 0.0, "name": "3d208db3fbef3c65273a37cfe0ffd33c", "lon": -77.01301583333333, "is_disabled": 0, "type": "electric_scooter"}, {"bike_id": "6873e8c3935c2d4d03ff367b780904b4", "lat": 38.90231633333333, "is_reserved": 0, "fusion_lat": 0.0, "rental_uris": {"android": "https://dc.lft.to/lastmile_qr_scan", "ios": "https://dc.lft.to/lastmile_qr_scan"}, "fusion_lon": 0.0, "name": "6873e8c3935c2d4d03ff367b780904b4", "lon": -77.01752116666667, "is_disabled": 0, "type": "electric_scooter"}, {"bike_id": "fd2e746340dea5cb3ff5ea8e9a5230d7", "lat": 38.90695316666667, "is_reserved": 0, "fusion_lat": 0.0, "rental_uris": {"android": "https://dc.lft.to/lastmile_qr_scan", "ios": "https://dc.lft.to/lastmile_qr_scan"}, "fusion_lon": 0.0, "name": "fd2e746340dea5cb3ff5ea8e9a5230d7", "lon": -77.03819566666667, "is_disabled": 0, "type": "electric_scooter"}, {"bike_id": "63631785c047500b8fbe5f031d552a52", "lat": 38.920478333333335, "is_reserved": 0, "fusion_lat": 0.0, "rental_uris": {"android": "https://dc.lft.to/lastmile_qr_scan", "ios": "https://dc.lft.to/lastmile_qr_scan"}, "fusion_lon": 0.0, "name": "63631785c047500b8fbe5f031d552a52", "lon": -77.01626, "is_disabled": 0, "type": "electric_scooter"}, {"bike_id": "496ee65a531664de8df9e8871ea0b0da", "lat": 38.901872166666664, "is_reserved": 0, "fusion_lat": 0.0, "rental_uris": {"android": "https://dc.lft.to/lastmile_qr_scan", "ios": "https://dc.lft.to/lastmile_qr_scan"}, "fusion_lon": 0.0, "name": "496ee65a531664de8df9e8871ea0b0da", "lon": -76.97882366666667, "is_disabled": 0, "type": "electric_scooter"}, {"bike_id": "7bbad2102517572ea153653bb7cbde48", "lat": 38.97201916666667, "is_reserved": 0, "fusion_lat": 0.0, "rental_uris": {"android": "https://dc.lft.to/lastmile_qr_scan", "ios": "https://dc.lft.to/lastmile_qr_scan"}, "fusion_lon": 0.0, "name": "7bbad2102517572ea153653bb7cbde48", "lon": -77.03336033333333, "is_disabled": 0, "type": "electric_bike"}, {"bike_id": "b6726270049093bee5b6364f5cb9a04e", "lat": 38.8960615, "is_reserved": 0, "fusion_lat": 0.0, "rental_uris": {"android": "https://dc.lft.to/lastmile_qr_scan", "ios": "https://dc.lft.to/lastmile_qr_scan"}, "fusion_lon": 0.0, "name": "b6726270049093bee5b6364f5cb9a04e", "lon": -77.0121445, "is_disabled": 0, "type": "electric_scooter"}, {"bike_id": "8a5e0687dcb293f815bf1687e1090844", "lat": 38.884903666666666, "is_reserved": 0, "fusion_lat": 0.0, "rental_uris": {"android": "https://dc.lft.to/lastmile_qr_scan", "ios": "https://dc.lft.to/lastmile_qr_scan"}, "fusion_lon": 0.0, "name": "8a5e0687dcb293f815bf1687e1090844", "lon": -77.03474633333333, "is_disabled": 0, "type": "electric_scooter"}, {"bike_id": "c0f9a415d6413ad71001b3f91b38022a", "lat": 38.920452166666664, "is_reserved": 0, "fusion_lat": 0.0, "rental_uris": {"android": "https://dc.lft.to/lastmile_qr_scan", "ios": "https://dc.lft.to/lastmile_qr_scan"}, "fusion_lon": 0.0, "name": "c0f9a415d6413ad71001b3f91b38022a", "lon": -77.02577, "is_disabled": 0, "type": "electric_scooter"}, {"bike_id": "d0ff6b26729c4886f5274c828aa81ab1", "lat": 38.90561983333333, "is_reserved": 0, "fusion_lat": 0.0, "rental_uris": {"android": "https://dc.lft.to/lastmile_qr_scan", "ios": "https://dc.lft.to/lastmile_qr_scan"}, "fusion_lon": 0.0, "name": "d0ff6b26729c4886f5274c828aa81ab1", "lon": -77.03422833333333, "is_disabled": 0, "type": "electric_scooter"}, {"bike_id": "386f0480a4c1890e0bdc44321bcf4c59", "lat": 38.84470733333333, "is_reserved": 0, "fusion_lat": 0.0, "rental_uris": {"android": "https://dc.lft.to/lastmile_qr_scan", "ios": "https://dc.lft.to/lastmile_qr_scan"}, "fusion_lon": 0.0, "name": "386f0480a4c1890e0bdc44321bcf4c59", "lon": -76.97858433333333, "is_disabled": 0, "type": "electric_bike"}, {"bike_id": "0fb384c44b9cc74a4fb4b37143751fb1", "lat": 38.93242816666667, "is_reserved": 0, "fusion_lat": 0.0, "rental_uris": {"android": "https://dc.lft.to/lastmile_qr_scan", "ios": "https://dc.lft.to/lastmile_qr_scan"}, "fusion_lon": 0.0, "name": "0fb384c44b9cc74a4fb4b37143751fb1", "lon": -76.995108, "is_disabled": 0, "type": "electric_scooter"}, {"bike_id": "8d903838f3284205482a7ff732784e0b", "lat": 38.8836775, "is_reserved": 0, "fusion_lat": 0.0, "rental_uris": {"android": "https://dc.lft.to/lastmile_qr_scan", "ios": "https://dc.lft.to/lastmile_qr_scan"}, "fusion_lon": 0.0, "name": "8d903838f3284205482a7ff732784e0b", "lon": -76.99544316666666, "is_disabled": 0, "type": "electric_scooter"}, {"bike_id": "ebaf4b6e2ea056e5258ae940c5f6f490", "lat": 38.90045333333333, "is_reserved": 0, "fusion_lat": 0.0, "rental_uris": {"android": "https://dc.lft.to/lastmile_qr_scan", "ios": "https://dc.lft.to/lastmile_qr_scan"}, "fusion_lon": 0.0, "name": "ebaf4b6e2ea056e5258ae940c5f6f490", "lon": -76.98287766666667, "is_disabled": 0, "type": "electric_scooter"}, {"bike_id": "12d89631d9115d33acc5dc825176ccaf", "lat": 38.8954165, "is_reserved": 0, "fusion_lat": 0.0, "rental_uris": {"android": "https://dc.lft.to/lastmile_qr_scan", "ios": "https://dc.lft.to/lastmile_qr_scan"}, "fusion_lon": 0.0, "name": "12d89631d9115d33acc5dc825176ccaf", "lon": -77.01093633333333, "is_disabled": 0, "type": "electric_scooter"}, {"bike_id": "fc553d7e2fd6579299a5e4626db8ed74", "lat": 38.892230166666664, "is_reserved": 0, "fusion_lat": 0.0, "rental_uris": {"android": "https://dc.lft.to/lastmile_qr_scan", "ios": "https://dc.lft.to/lastmile_qr_scan"}, "fusion_lon": 0.0, "name": "fc553d7e2fd6579299a5e4626db8ed74", "lon": -77.04371266666666, "is_disabled": 0, "type": "electric_scooter"}, {"bike_id": "f0a99341699443ccefef04ee10d27972", "lat": 38.90513266666667, "is_reserved": 0, "fusion_lat": 0.0, "rental_uris": {"android": "https://dc.lft.to/lastmile_qr_scan", "ios": "https://dc.lft.to/lastmile_qr_scan"}, "fusion_lon": 0.0, "name": "f0a99341699443ccefef04ee10d27972", "lon": -77.06406483333333, "is_disabled": 0, "type": "electric_scooter"}, {"bike_id": "d38f633d16310f4829aae697f9eaf7b9", "lat": 38.902006166666666, "is_reserved": 0, "fusion_lat": 0.0, "rental_uris": {"android": "https://dc.lft.to/lastmile_qr_scan", "ios": "https://dc.lft.to/lastmile_qr_scan"}, "fusion_lon": 0.0, "name": "d38f633d16310f4829aae697f9eaf7b9", "lon": -76.98213883333334, "is_disabled": 0, "type": "electric_scooter"}, {"bike_id": "811e467101818e450af7a380ce05633d", "lat": 38.90759516666667, "is_reserved": 0, "fusion_lat": 0.0, "rental_uris": {"android": "https://dc.lft.to/lastmile_qr_scan", "ios": "https://dc.lft.to/lastmile_qr_scan"}, "fusion_lon": 0.0, "name": "811e467101818e450af7a380ce05633d", "lon": -77.01697366666667, "is_disabled": 0, "type": "electric_scooter"}, {"bike_id": "b4d9fd1cfab6819577806cd295f858a1", "lat": 38.9018285, "is_reserved": 0, "fusion_lat": 0.0, "rental_uris": {"android": "https://dc.lft.to/lastmile_qr_scan", "ios": "https://dc.lft.to/lastmile_qr_scan"}, "fusion_lon": 0.0, "name": "b4d9fd1cfab6819577806cd295f858a1", "lon": -77.0217465, "is_disabled": 0, "type": "electric_scooter"}, {"bike_id": "09d84fa3cc0cd45a4a597d1df6212a20", "lat": 38.902217666666665, "is_reserved": 0, "fusion_lat": 0.0, "rental_uris": {"android": "https://dc.lft.to/lastmile_qr_scan", "ios": "https://dc.lft.to/lastmile_qr_scan"}, "fusion_lon": 0.0, "name": "09d84fa3cc0cd45a4a597d1df6212a20", "lon": -77.0341085, "is_disabled": 0, "type": "electric_scooter"}, {"bike_id": "ba45ad55f0493006509025fe8c36c1d9", "lat": 38.88746833333333, "is_reserved": 0, "fusion_lat": 0.0, "rental_uris": {"android": "https://dc.lft.to/lastmile_qr_scan", "ios": "https://dc.lft.to/lastmile_qr_scan"}, "fusion_lon": 0.0, "name": "ba45ad55f0493006509025fe8c36c1d9", "lon": -77.01728283333334, "is_disabled": 0, "type": "electric_scooter"}, {"bike_id": "37dd91fab3c479712ef6ed82c53fcf61", "lat": 38.93216283333334, "is_reserved": 0, "fusion_lat": 0.0, "rental_uris": {"android": "https://dc.lft.to/lastmile_qr_scan", "ios": "https://dc.lft.to/lastmile_qr_scan"}, "fusion_lon": 0.0, "name": "37dd91fab3c479712ef6ed82c53fcf61", "lon": -77.03267466666667, "is_disabled": 0, "type": "electric_scooter"}, {"bike_id": "000c6df71306ebb1f1e4b3ad98a1f43c", "lat": 38.91323366666667, "is_reserved": 0, "fusion_lat": 0.0, "rental_uris": {"android": "https://dc.lft.to/lastmile_qr_scan", "ios": "https://dc.lft.to/lastmile_qr_scan"}, "fusion_lon": 0.0, "name": "000c6df71306ebb1f1e4b3ad98a1f43c", "lon": -77.03184116666667, "is_disabled": 0, "type": "electric_scooter"}, {"bike_id": "212a592a161131c55e25044e2f279298", "lat": 38.91609316666667, "is_reserved": 0, "fusion_lat": 0.0, "rental_uris": {"android": "https://dc.lft.to/lastmile_qr_scan", "ios": "https://dc.lft.to/lastmile_qr_scan"}, "fusion_lon": 0.0, "name": "212a592a161131c55e25044e2f279298", "lon": -77.02296666666666, "is_disabled": 0, "type": "electric_scooter"}, {"bike_id": "a5f1b3d04d49cafae938f512da518b1a", "lat": 38.8986535, "is_reserved": 0, "fusion_lat": 0.0, "rental_uris": {"android": "https://dc.lft.to/lastmile_qr_scan", "ios": "https://dc.lft.to/lastmile_qr_scan"}, "fusion_lon": 0.0, "name": "a5f1b3d04d49cafae938f512da518b1a", "lon": -76.94638266666666, "is_disabled": 0, "type": "electric_scooter"}, {"bike_id": "8ff6abee0f76261529976dd5b4864bda", "lat": 38.8747975, "is_reserved": 0, "fusion_lat": 0.0, "rental_uris": {"android": "https://dc.lft.to/lastmile_qr_scan", "ios": "https://dc.lft.to/lastmile_qr_scan"}, "fusion_lon": 0.0, "name": "8ff6abee0f76261529976dd5b4864bda", "lon": -76.96526966666667, "is_disabled": 0, "type": "electric_bike"}, {"bike_id": "c46179ce72dbf7f0c88127af71ba4175", "lat": 38.89478916666667, "is_reserved": 0, "fusion_lat": 0.0, "rental_uris": {"android": "https://dc.lft.to/lastmile_qr_scan", "ios": "https://dc.lft.to/lastmile_qr_scan"}, "fusion_lon": 0.0, "name": "c46179ce72dbf7f0c88127af71ba4175", "lon": -76.94862233333333, "is_disabled": 0, "type": "electric_scooter"}, {"bike_id": "cb87cb0292ab25c5a8ece8aa3b8927ab", "lat": 38.892282333333334, "is_reserved": 0, "fusion_lat": 0.0, "rental_uris": {"android": "https://dc.lft.to/lastmile_qr_scan", "ios": "https://dc.lft.to/lastmile_qr_scan"}, "fusion_lon": 0.0, "name": "cb87cb0292ab25c5a8ece8aa3b8927ab", "lon": -77.03164716666667, "is_disabled": 0, "type": "electric_scooter"}, {"bike_id": "921bcfe3104a5005811940636c62212c", "lat": 38.892474666666665, "is_reserved": 0, "fusion_lat": 0.0, "rental_uris": {"android": "https://dc.lft.to/lastmile_qr_scan", "ios": "https://dc.lft.to/lastmile_qr_scan"}, "fusion_lon": 0.0, "name": "921bcfe3104a5005811940636c62212c", "lon": -77.05025766666667, "is_disabled": 0, "type": "electric_scooter"}, {"bike_id": "dbf6d072b228fbc357b7ccec562f47de", "lat": 38.9111745, "is_reserved": 0, "fusion_lat": 0.0, "rental_uris": {"android": "https://dc.lft.to/lastmile_qr_scan", "ios": "https://dc.lft.to/lastmile_qr_scan"}, "fusion_lon": 0.0, "name": "dbf6d072b228fbc357b7ccec562f47de", "lon": -77.02205033333334, "is_disabled": 0, "type": "electric_scooter"}, {"bike_id": "0c4adf97e5a0ce6109557671da5290e7", "lat": 38.95281583333333, "is_reserved": 0, "fusion_lat": 0.0, "rental_uris": {"android": "https://dc.lft.to/lastmile_qr_scan", "ios": "https://dc.lft.to/lastmile_qr_scan"}, "fusion_lon": 0.0, "name": "0c4adf97e5a0ce6109557671da5290e7", "lon": -77.01794883333334, "is_disabled": 0, "type": "electric_scooter"}, {"bike_id": "13475f719a00a814cc4e9e6a55fa52fb", "lat": 38.91565, "is_reserved": 0, "fusion_lat": 0.0, "rental_uris": {"android": "https://dc.lft.to/lastmile_qr_scan", "ios": "https://dc.lft.to/lastmile_qr_scan"}, "fusion_lon": 0.0, "name": "13475f719a00a814cc4e9e6a55fa52fb", "lon": -77.02002133333333, "is_disabled": 0, "type": "electric_scooter"}, {"bike_id": "8cbc2851ecedf13d36bf15edbd825ba0", "lat": 38.90521233333333, "is_reserved": 0, "fusion_lat": 0.0, "rental_uris": {"android": "https://dc.lft.to/lastmile_qr_scan", "ios": "https://dc.lft.to/lastmile_qr_scan"}, "fusion_lon": 0.0, "name": "8cbc2851ecedf13d36bf15edbd825ba0", "lon": -77.0468985, "is_disabled": 0, "type": "electric_scooter"}, {"bike_id": "bf078e85055d11717156500e755df120", "lat": 38.927366166666665, "is_reserved": 0, "fusion_lat": 0.0, "rental_uris": {"android": "https://dc.lft.to/lastmile_qr_scan", "ios": "https://dc.lft.to/lastmile_qr_scan"}, "fusion_lon": 0.0, "name": "bf078e85055d11717156500e755df120", "lon": -77.0356025, "is_disabled": 0, "type": "electric_scooter"}, {"bike_id": "0a8119d51df2947f9f11679411834e7c", "lat": 38.91118016666667, "is_reserved": 0, "fusion_lat": 0.0, "rental_uris": {"android": "https://dc.lft.to/lastmile_qr_scan", "ios": "https://dc.lft.to/lastmile_qr_scan"}, "fusion_lon": 0.0, "name": "0a8119d51df2947f9f11679411834e7c", "lon": -77.0422375, "is_disabled": 0, "type": "electric_scooter"}, {"bike_id": "63aaf2626e34bfe8ccea0d81106680dc", "lat": 38.9023895, "is_reserved": 0, "fusion_lat": 0.0, "rental_uris": {"android": "https://dc.lft.to/lastmile_qr_scan", "ios": "https://dc.lft.to/lastmile_qr_scan"}, "fusion_lon": 0.0, "name": "63aaf2626e34bfe8ccea0d81106680dc", "lon": -77.02691166666666, "is_disabled": 0, "type": "electric_scooter"}, {"bike_id": "5028f0de21e409b310aa0657f14ab81b", "lat": 38.892556166666665, "is_reserved": 0, "fusion_lat": 0.0, "rental_uris": {"android": "https://dc.lft.to/lastmile_qr_scan", "ios": "https://dc.lft.to/lastmile_qr_scan"}, "fusion_lon": 0.0, "name": "5028f0de21e409b310aa0657f14ab81b", "lon": -77.0127485, "is_disabled": 0, "type": "electric_scooter"}, {"bike_id": "edfde063734424e3c913c965fd9754a4", "lat": 38.9106055, "is_reserved": 0, "fusion_lat": 0.0, "rental_uris": {"android": "https://dc.lft.to/lastmile_qr_scan", "ios": "https://dc.lft.to/lastmile_qr_scan"}, "fusion_lon": 0.0, "name": "edfde063734424e3c913c965fd9754a4", "lon": -77.02200383333333, "is_disabled": 0, "type": "electric_scooter"}, {"bike_id": "264904e1aea28588dd86dcbd46c4633d", "lat": 38.84433583333333, "is_reserved": 0, "fusion_lat": 0.0, "rental_uris": {"android": "https://dc.lft.to/lastmile_qr_scan", "ios": "https://dc.lft.to/lastmile_qr_scan"}, "fusion_lon": 0.0, "name": "264904e1aea28588dd86dcbd46c4633d", "lon": -76.99869433333333, "is_disabled": 0, "type": "electric_scooter"}, {"bike_id": "c0ef8867f6bcb89f93759c89457764a0", "lat": 38.902695, "is_reserved": 0, "fusion_lat": 0.0, "rental_uris": {"android": "https://dc.lft.to/lastmile_qr_scan", "ios": "https://dc.lft.to/lastmile_qr_scan"}, "fusion_lon": 0.0, "name": "c0ef8867f6bcb89f93759c89457764a0", "lon": -77.036326, "is_disabled": 0, "type": "electric_scooter"}, {"bike_id": "bad15f6e1acf63ad242d7a4c1bae14e6", "lat": 38.917155, "is_reserved": 0, "fusion_lat": 0.0, "rental_uris": {"android": "https://dc.lft.to/lastmile_qr_scan", "ios": "https://dc.lft.to/lastmile_qr_scan"}, "fusion_lon": 0.0, "name": "bad15f6e1acf63ad242d7a4c1bae14e6", "lon": -77.046786, "is_disabled": 0, "type": "electric_scooter"}, {"bike_id": "4ea6bcee4b09994ecc3b41d7073d731f", "lat": 38.91462833333333, "is_reserved": 0, "fusion_lat": 0.0, "rental_uris": {"android": "https://dc.lft.to/lastmile_qr_scan", "ios": "https://dc.lft.to/lastmile_qr_scan"}, "fusion_lon": 0.0, "name": "4ea6bcee4b09994ecc3b41d7073d731f", "lon": -77.0454945, "is_disabled": 0, "type": "electric_scooter"}, {"bike_id": "e3b3b4b4daabd43b05b1369767711b62", "lat": 38.965053, "is_reserved": 0, "fusion_lat": 0.0, "rental_uris": {"android": "https://dc.lft.to/lastmile_qr_scan", "ios": "https://dc.lft.to/lastmile_qr_scan"}, "fusion_lon": 0.0, "name": "e3b3b4b4daabd43b05b1369767711b62", "lon": -77.00202966666667, "is_disabled": 0, "type": "electric_scooter"}, {"bike_id": "fdb6f3ce33da47789e82e69e731a4e44", "lat": 38.9181645, "is_reserved": 0, "fusion_lat": 0.0, "rental_uris": {"android": "https://dc.lft.to/lastmile_qr_scan", "ios": "https://dc.lft.to/lastmile_qr_scan"}, "fusion_lon": 0.0, "name": "fdb6f3ce33da47789e82e69e731a4e44", "lon": -77.02694533333333, "is_disabled": 0, "type": "electric_scooter"}, {"bike_id": "f3b5be2a09375b59f91ad4551e32d1b4", "lat": 38.93896516666667, "is_reserved": 0, "fusion_lat": 0.0, "rental_uris": {"android": "https://dc.lft.to/lastmile_qr_scan", "ios": "https://dc.lft.to/lastmile_qr_scan"}, "fusion_lon": 0.0, "name": "f3b5be2a09375b59f91ad4551e32d1b4", "lon": -77.06357583333333, "is_disabled": 0, "type": "electric_bike"}, {"bike_id": "3a1f38bf66d055d33a2326cda850e553", "lat": 38.884009, "is_reserved": 0, "fusion_lat": 0.0, "rental_uris": {"android": "https://dc.lft.to/lastmile_qr_scan", "ios": "https://dc.lft.to/lastmile_qr_scan"}, "fusion_lon": 0.0, "name": "3a1f38bf66d055d33a2326cda850e553", "lon": -77.01762066666667, "is_disabled": 0, "type": "electric_scooter"}, {"bike_id": "e4099dc9b58a89b966eea1f2b13114ca", "lat": 38.927726, "is_reserved": 0, "fusion_lat": 0.0, "rental_uris": {"android": "https://dc.lft.to/lastmile_qr_scan", "ios": "https://dc.lft.to/lastmile_qr_scan"}, "fusion_lon": 0.0, "name": "e4099dc9b58a89b966eea1f2b13114ca", "lon": -77.0274735, "is_disabled": 0, "type": "electric_scooter"}, {"bike_id": "d872620687642015fad99cb3e5f297d4", "lat": 38.8960905, "is_reserved": 0, "fusion_lat": 0.0, "rental_uris": {"android": "https://dc.lft.to/lastmile_qr_scan", "ios": "https://dc.lft.to/lastmile_qr_scan"}, "fusion_lon": 0.0, "name": "d872620687642015fad99cb3e5f297d4", "lon": -77.022127, "is_disabled": 0, "type": "electric_scooter"}, {"bike_id": "b2f5a6c446404ffeb956470c67eb747e", "lat": 38.89831616666667, "is_reserved": 0, "fusion_lat": 0.0, "rental_uris": {"android": "https://dc.lft.to/lastmile_qr_scan", "ios": "https://dc.lft.to/lastmile_qr_scan"}, "fusion_lon": 0.0, "name": "b2f5a6c446404ffeb956470c67eb747e", "lon": -77.04833983333333, "is_disabled": 0, "type": "electric_scooter"}, {"bike_id": "635cb94b02097c34a8fdfdc6a3079ee3", "lat": 38.91781616666667, "is_reserved": 0, "fusion_lat": 0.0, "rental_uris": {"android": "https://dc.lft.to/lastmile_qr_scan", "ios": "https://dc.lft.to/lastmile_qr_scan"}, "fusion_lon": 0.0, "name": "635cb94b02097c34a8fdfdc6a3079ee3", "lon": -77.02305983333333, "is_disabled": 0, "type": "electric_scooter"}, {"bike_id": "fa637c72432e7dded2be5bf957774740", "lat": 38.89981683333333, "is_reserved": 0, "fusion_lat": 0.0, "rental_uris": {"android": "https://dc.lft.to/lastmile_qr_scan", "ios": "https://dc.lft.to/lastmile_qr_scan"}, "fusion_lon": 0.0, "name": "fa637c72432e7dded2be5bf957774740", "lon": -76.9961445, "is_disabled": 0, "type": "electric_scooter"}, {"bike_id": "4c9a33da939e1ccc3ea54cb1439b1fa7", "lat": 38.909902, "is_reserved": 0, "fusion_lat": 0.0, "rental_uris": {"android": "https://dc.lft.to/lastmile_qr_scan", "ios": "https://dc.lft.to/lastmile_qr_scan"}, "fusion_lon": 0.0, "name": "4c9a33da939e1ccc3ea54cb1439b1fa7", "lon": -77.03188366666667, "is_disabled": 0, "type": "electric_scooter"}, {"bike_id": "091cc24f861a3d621c65aa2419fbf6df", "lat": 38.8717255, "is_reserved": 0, "fusion_lat": 0.0, "rental_uris": {"android": "https://dc.lft.to/lastmile_qr_scan", "ios": "https://dc.lft.to/lastmile_qr_scan"}, "fusion_lon": 0.0, "name": "091cc24f861a3d621c65aa2419fbf6df", "lon": -77.006247, "is_disabled": 0, "type": "electric_scooter"}, {"bike_id": "a709dfe904601f5b0733877c56c12288", "lat": 38.92312533333333, "is_reserved": 0, "fusion_lat": 0.0, "rental_uris": {"android": "https://dc.lft.to/lastmile_qr_scan", "ios": "https://dc.lft.to/lastmile_qr_scan"}, "fusion_lon": 0.0, "name": "a709dfe904601f5b0733877c56c12288", "lon": -77.02129716666667, "is_disabled": 0, "type": "electric_scooter"}, {"bike_id": "2ffdd782681234000e42756035cdbe55", "lat": 38.873018333333334, "is_reserved": 0, "fusion_lat": 0.0, "rental_uris": {"android": "https://dc.lft.to/lastmile_qr_scan", "ios": "https://dc.lft.to/lastmile_qr_scan"}, "fusion_lon": 0.0, "name": "2ffdd782681234000e42756035cdbe55", "lon": -77.13930316666666, "is_disabled": 0, "type": "electric_bike"}, {"bike_id": "e149b0d1e021cbf1b438a6a64179c995", "lat": 38.900322833333334, "is_reserved": 0, "fusion_lat": 0.0, "rental_uris": {"android": "https://dc.lft.to/lastmile_qr_scan", "ios": "https://dc.lft.to/lastmile_qr_scan"}, "fusion_lon": 0.0, "name": "e149b0d1e021cbf1b438a6a64179c995", "lon": -77.0439505, "is_disabled": 0, "type": "electric_scooter"}, {"bike_id": "ea540923b684c7ba22b4ba0f8b5158d2", "lat": 38.931602166666664, "is_reserved": 0, "fusion_lat": 0.0, "rental_uris": {"android": "https://dc.lft.to/lastmile_qr_scan", "ios": "https://dc.lft.to/lastmile_qr_scan"}, "fusion_lon": 0.0, "name": "ea540923b684c7ba22b4ba0f8b5158d2", "lon": -77.00117216666666, "is_disabled": 0, "type": "electric_bike"}, {"bike_id": "998d1fc33eaf51ce69b086ad5a45b057", "lat": 38.911411666666666, "is_reserved": 0, "fusion_lat": 0.0, "rental_uris": {"android": "https://dc.lft.to/lastmile_qr_scan", "ios": "https://dc.lft.to/lastmile_qr_scan"}, "fusion_lon": 0.0, "name": "998d1fc33eaf51ce69b086ad5a45b057", "lon": -76.99014083333333, "is_disabled": 0, "type": "electric_scooter"}, {"bike_id": "6ce35472d69a3ea35f07a7efebeffcf4", "lat": 38.89941183333333, "is_reserved": 0, "fusion_lat": 0.0, "rental_uris": {"android": "https://dc.lft.to/lastmile_qr_scan", "ios": "https://dc.lft.to/lastmile_qr_scan"}, "fusion_lon": 0.0, "name": "6ce35472d69a3ea35f07a7efebeffcf4", "lon": -77.03144633333334, "is_disabled": 0, "type": "electric_scooter"}, {"bike_id": "44888af2921e4f18904f33b7abde5eac", "lat": 38.907335333333336, "is_reserved": 0, "fusion_lat": 0.0, "rental_uris": {"android": "https://dc.lft.to/lastmile_qr_scan", "ios": "https://dc.lft.to/lastmile_qr_scan"}, "fusion_lon": 0.0, "name": "44888af2921e4f18904f33b7abde5eac", "lon": -77.03983433333333, "is_disabled": 0, "type": "electric_scooter"}, {"bike_id": "528e3c2c27250250441327f3afce37d9", "lat": 38.896647333333334, "is_reserved": 0, "fusion_lat": 0.0, "rental_uris": {"android": "https://dc.lft.to/lastmile_qr_scan", "ios": "https://dc.lft.to/lastmile_qr_scan"},