{"data": {"bikes": [{"name": "856386232599e3e7a76ec59a55961c8e", "type": "electric_scooter", "lat": 38.892222, "is_reserved": 0, "lon": -77.04640666666667, "fusion_lon": 0.0, "is_disabled": 0, "fusion_lat": 0.0, "bike_id": "856386232599e3e7a76ec59a55961c8e", "rental_uris": {"ios": "https://dc.lft.to/lastmile_qr_scan", "android": "https://dc.lft.to/lastmile_qr_scan"}}, {"name": "012bc206d0a36425285fe45bfd208180", "type": "electric_scooter", "lat": 38.9215745, "is_reserved": 0, "lon": -77.03658333333334, "fusion_lon": 0.0, "is_disabled": 0, "fusion_lat": 0.0, "bike_id": "012bc206d0a36425285fe45bfd208180", "rental_uris": {"ios": "https://dc.lft.to/lastmile_qr_scan", "android": "https://dc.lft.to/lastmile_qr_scan"}}, {"name": "d579b823668594dee7ff3905b2f0814e", "type": "electric_scooter", "lat": 38.89606583333333, "is_reserved": 0, "lon": -77.05082533333334, "fusion_lon": 0.0, "is_disabled": 0, "fusion_lat": 0.0, "bike_id": "d579b823668594dee7ff3905b2f0814e", "rental_uris": {"ios": "https://dc.lft.to/lastmile_qr_scan", "android": "https://dc.lft.to/lastmile_qr_scan"}}, {"name": "e0bd752fab54f1158edc6b03c2cd4cb1", "type": "electric_scooter", "lat": 38.92159383333333, "is_reserved": 0, "lon": -77.03458066666667, "fusion_lon": 0.0, "is_disabled": 0, "fusion_lat": 0.0, "bike_id": "e0bd752fab54f1158edc6b03c2cd4cb1", "rental_uris": {"ios": "https://dc.lft.to/lastmile_qr_scan", "android": "https://dc.lft.to/lastmile_qr_scan"}}, {"name": "6852e07bb49bbc5b076ac40bbb241b9b", "type": "electric_scooter", "lat": 38.949563833333336, "is_reserved": 0, "lon": -77.02720566666666, "fusion_lon": 0.0, "is_disabled": 0, "fusion_lat": 0.0, "bike_id": "6852e07bb49bbc5b076ac40bbb241b9b", "rental_uris": {"ios": "https://dc.lft.to/lastmile_qr_scan", "android": "https://dc.lft.to/lastmile_qr_scan"}}, {"name": "c9176902505568c0bd0018523ae2ba8b", "type": "electric_scooter", "lat": 38.927314, "is_reserved": 0, "lon": -77.025001, "fusion_lon": 0.0, "is_disabled": 0, "fusion_lat": 0.0, "bike_id": "c9176902505568c0bd0018523ae2ba8b", "rental_uris": {"ios": "https://dc.lft.to/lastmile_qr_scan", "android": "https://dc.lft.to/lastmile_qr_scan"}}, {"name": "85c0a7ee126a9b34102682168299f12c", "type": "electric_scooter", "lat": 38.9057305, "is_reserved": 0, "lon": -77.034318, "fusion_lon": 0.0, "is_disabled": 0, "fusion_lat": 0.0, "bike_id": "85c0a7ee126a9b34102682168299f12c", "rental_uris": {"ios": "https://dc.lft.to/lastmile_qr_scan", "android": "https://dc.lft.to/lastmile_qr_scan"}}, {"name": "2ea90baf3dcadf55e7dff3222d34fa75", "type": "electric_scooter", "lat": 38.92276066666667, "is_reserved": 0, "lon": -77.036651, "fusion_lon": 0.0, "is_disabled": 0, "fusion_lat": 0.0, "bike_id": "2ea90baf3dcadf55e7dff3222d34fa75", "rental_uris": {"ios": "https://dc.lft.to/lastmile_qr_scan", "android": "https://dc.lft.to/lastmile_qr_scan"}}, {"name": "c002bc64bb21846a850b11b6b67cbdc9", "type": "electric_scooter", "lat": 38.91816333333333, "is_reserved": 0, "lon": -77.02301916666667, "fusion_lon": 0.0, "is_disabled": 0, "fusion_lat": 0.0, "bike_id": "c002bc64bb21846a850b11b6b67cbdc9", "rental_uris": {"ios": "https://dc.lft.to/lastmile_qr_scan", "android": "https://dc.lft.to/lastmile_qr_scan"}}, {"name": "fd4c293072fd22c4786354330c5297c3", "type": "electric_scooter", "lat": 38.9219385, "is_reserved": 0, "lon": -77.04291383333333, "fusion_lon": 0.0, "is_disabled": 0, "fusion_lat": 0.0, "bike_id": "fd4c293072fd22c4786354330c5297c3", "rental_uris": {"ios": "https://dc.lft.to/lastmile_qr_scan", "android": "https://dc.lft.to/lastmile_qr_scan"}}, {"name": "dc7604d6680729413d766226292e5173", "type": "electric_bike", "lat": 38.83937616666667, "is_reserved": 0, "lon": -77.07900766666667, "fusion_lon": 0.0, "is_disabled": 0, "fusion_lat": 0.0, "bike_id": "dc7604d6680729413d766226292e5173", "rental_uris": {"ios": "https://dc.lft.to/lastmile_qr_scan", "android": "https://dc.lft.to/lastmile_qr_scan"}}, {"name": "0100768924ee3e619e461f5409a100b7", "type": "electric_scooter", "lat": 38.898233166666664, "is_reserved": 0, "lon": -76.92641983333333, "fusion_lon": 0.0, "is_disabled": 0, "fusion_lat": 0.0, "bike_id": "0100768924ee3e619e461f5409a100b7", "rental_uris": {"ios": "https://dc.lft.to/lastmile_qr_scan", "android": "https://dc.lft.to/lastmile_qr_scan"}}, {"name": "6603b231daa7eda0d35f6e62c7c822a0", "type": "electric_scooter", "lat": 38.899064333333335, "is_reserved": 0, "lon": -77.00702583333333, "fusion_lon": 0.0, "is_disabled": 0, "fusion_lat": 0.0, "bike_id": "6603b231daa7eda0d35f6e62c7c822a0", "rental_uris": {"ios": "https://dc.lft.to/lastmile_qr_scan", "android": "https://dc.lft.to/lastmile_qr_scan"}}, {"name": "57df48ff2dac3245b1a6126c47e4ddde", "type": "electric_bike", "lat": 38.905359, "is_reserved": 0, "lon": -76.99804683333333, "fusion_lon": 0.0, "is_disabled": 0, "fusion_lat": 0.0, "bike_id": "57df48ff2dac3245b1a6126c47e4ddde", "rental_uris": {"ios": "https://dc.lft.to/lastmile_qr_scan", "android": "https://dc.lft.to/lastmile_qr_scan"}}, {"name": "1a7edd2c9e932c597fc6350c80945d44", "type": "electric_bike", "lat": 38.99092, "is_reserved": 0, "lon": -76.87493416666666, "fusion_lon": 0.0, "is_disabled": 0, "fusion_lat": 0.0, "bike_id": "1a7edd2c9e932c597fc6350c80945d44", "rental_uris": {"ios": "https://dc.lft.to/lastmile_qr_scan", "android": "https://dc.lft.to/lastmile_qr_scan"}}, {"name": "463d29da099e1fcededec0b02086b0b9", "type": "electric_scooter", "lat": 38.86700666666667, "is_reserved": 0, "lon": -76.98715883333334, "fusion_lon": 0.0, "is_disabled": 0, "fusion_lat": 0.0, "bike_id": "463d29da099e1fcededec0b02086b0b9", "rental_uris": {"ios": "https://dc.lft.to/lastmile_qr_scan", "android": "https://dc.lft.to/lastmile_qr_scan"}}, {"name": "53a1dc10496e08bcf43c38c7c0c027ab", "type": "electric_scooter", "lat": 38.906791, "is_reserved": 0, "lon": -77.038297, "fusion_lon": 0.0, "is_disabled": 0, "fusion_lat": 0.0, "bike_id": "53a1dc10496e08bcf43c38c7c0c027ab", "rental_uris": {"ios": "https://dc.lft.to/lastmile_qr_scan", "android": "https://dc.lft.to/lastmile_qr_scan"}}, {"name": "febc300aec5f5243b153477eabd92ea9", "type": "electric_scooter", "lat": 38.937158833333335, "is_reserved": 0, "lon": -77.03652866666667, "fusion_lon": 0.0, "is_disabled": 0, "fusion_lat": 0.0, "bike_id": "febc300aec5f5243b153477eabd92ea9", "rental_uris": {"ios": "https://dc.lft.to/lastmile_qr_scan", "android": "https://dc.lft.to/lastmile_qr_scan"}}, {"name": "497c021929bf7f59961701c5466d8152", "type": "electric_scooter", "lat": 38.92290116666667, "is_reserved": 0, "lon": -77.020692, "fusion_lon": 0.0, "is_disabled": 0, "fusion_lat": 0.0, "bike_id": "497c021929bf7f59961701c5466d8152", "rental_uris": {"ios": "https://dc.lft.to/lastmile_qr_scan", "android": "https://dc.lft.to/lastmile_qr_scan"}}, {"name": "d95ba553c3f376f50c67e369174767fb", "type": "electric_scooter", "lat": 38.89673166666667, "is_reserved": 0, "lon": -77.05399783333333, "fusion_lon": 0.0, "is_disabled": 0, "fusion_lat": 0.0, "bike_id": "d95ba553c3f376f50c67e369174767fb", "rental_uris": {"ios": "https://dc.lft.to/lastmile_qr_scan", "android": "https://dc.lft.to/lastmile_qr_scan"}}, {"name": "176f41f2f7598dce1d6dae2b7cfa06ad", "type": "electric_scooter", "lat": 38.913362666666664, "is_reserved": 0, "lon": -77.03038016666666, "fusion_lon": 0.0, "is_disabled": 0, "fusion_lat": 0.0, "bike_id": "176f41f2f7598dce1d6dae2b7cfa06ad", "rental_uris": {"ios": "https://dc.lft.to/lastmile_qr_scan", "android": "https://dc.lft.to/lastmile_qr_scan"}}, {"name": "43a8023cef6d5b1975dc78396ae59cbb", "type": "electric_scooter", "lat": 38.931012833333334, "is_reserved": 0, "lon": -77.02665183333333, "fusion_lon": 0.0, "is_disabled": 0, "fusion_lat": 0.0, "bike_id": "43a8023cef6d5b1975dc78396ae59cbb", "rental_uris": {"ios": "https://dc.lft.to/lastmile_qr_scan", "android": "https://dc.lft.to/lastmile_qr_scan"}}, {"name": "a2f480f798f2d567c4a7c5661511a99c", "type": "electric_scooter", "lat": 38.94151983333333, "is_reserved": 0, "lon": -77.03649216666666, "fusion_lon": 0.0, "is_disabled": 0, "fusion_lat": 0.0, "bike_id": "a2f480f798f2d567c4a7c5661511a99c", "rental_uris": {"ios": "https://dc.lft.to/lastmile_qr_scan", "android": "https://dc.lft.to/lastmile_qr_scan"}}, {"name": "36e73df0bf926227998d9ad5a2aca9f1", "type": "electric_scooter", "lat": 38.917236, "is_reserved": 0, "lon": -77.018633, "fusion_lon": 0.0, "is_disabled": 0, "fusion_lat": 0.0, "bike_id": "36e73df0bf926227998d9ad5a2aca9f1", "rental_uris": {"ios": "https://dc.lft.to/lastmile_qr_scan", "android": "https://dc.lft.to/lastmile_qr_scan"}}, {"name": "d47c9b69e6dbb2742c649b639e4fd627", "type": "electric_scooter", "lat": 38.9001285, "is_reserved": 0, "lon": -76.990705, "fusion_lon": 0.0, "is_disabled": 0, "fusion_lat": 0.0, "bike_id": "d47c9b69e6dbb2742c649b639e4fd627", "rental_uris": {"ios": "https://dc.lft.to/lastmile_qr_scan", "android": "https://dc.lft.to/lastmile_qr_scan"}}, {"name": "2cfd768636b38f6a216aa5095713b9c6", "type": "electric_scooter", "lat": 38.90566916666667, "is_reserved": 0, "lon": -77.02171533333333, "fusion_lon": 0.0, "is_disabled": 0, "fusion_lat": 0.0, "bike_id": "2cfd768636b38f6a216aa5095713b9c6", "rental_uris": {"ios": "https://dc.lft.to/lastmile_qr_scan", "android": "https://dc.lft.to/lastmile_qr_scan"}}, {"name": "30c887a9ecde95a30607d54a61a103d4", "type": "electric_scooter", "lat": 38.91489966666666, "is_reserved": 0, "lon": -77.03240133333334, "fusion_lon": 0.0, "is_disabled": 0, "fusion_lat": 0.0, "bike_id": "30c887a9ecde95a30607d54a61a103d4", "rental_uris": {"ios": "https://dc.lft.to/lastmile_qr_scan", "android": "https://dc.lft.to/lastmile_qr_scan"}}, {"name": "d22af6fac03cbdbd4c786274ab2a15f7", "type": "electric_scooter", "lat": 38.955259, "is_reserved": 0, "lon": -77.02466116666666, "fusion_lon": 0.0, "is_disabled": 0, "fusion_lat": 0.0, "bike_id": "d22af6fac03cbdbd4c786274ab2a15f7", "rental_uris": {"ios": "https://dc.lft.to/lastmile_qr_scan", "android": "https://dc.lft.to/lastmile_qr_scan"}}, {"name": "27519800b1e726120410ed3510017068", "type": "electric_bike", "lat": 38.90293583333333, "is_reserved": 0, "lon": -76.944435, "fusion_lon": 0.0, "is_disabled": 0, "fusion_lat": 0.0, "bike_id": "27519800b1e726120410ed3510017068", "rental_uris": {"ios": "https://dc.lft.to/lastmile_qr_scan", "android": "https://dc.lft.to/lastmile_qr_scan"}}, {"name": "275037621bb92609d5bc3ce37dfa88c0", "type": "electric_bike", "lat": 38.85413666666667, "is_reserved": 0, "lon": -76.90962483333334, "fusion_lon": 0.0, "is_disabled": 0, "fusion_lat": 0.0, "bike_id": "275037621bb92609d5bc3ce37dfa88c0", "rental_uris": {"ios": "https://dc.lft.to/lastmile_qr_scan", "android": "https://dc.lft.to/lastmile_qr_scan"}}, {"name": "936425af980779f2b7d77ae4697e6101", "type": "electric_bike", "lat": 38.81048883333333, "is_reserved": 0, "lon": -77.08509366666667, "fusion_lon": 0.0, "is_disabled": 0, "fusion_lat": 0.0, "bike_id": "936425af980779f2b7d77ae4697e6101", "rental_uris": {"ios": "https://dc.lft.to/lastmile_qr_scan", "android": "https://dc.lft.to/lastmile_qr_scan"}}, {"name": "d24ab50bdc68db719462b4d4ab3dbf6b", "type": "electric_scooter", "lat": 38.883411833333334, "is_reserved": 0, "lon": -76.9948815, "fusion_lon": 0.0, "is_disabled": 0, "fusion_lat": 0.0, "bike_id": "d24ab50bdc68db719462b4d4ab3dbf6b", "rental_uris": {"ios": "https://dc.lft.to/lastmile_qr_scan", "android": "https://dc.lft.to/lastmile_qr_scan"}}, {"name": "841231f110d5e61e9d85c62caf07d435", "type": "electric_scooter", "lat": 38.8988915, "is_reserved": 0, "lon": -77.03290216666667, "fusion_lon": 0.0, "is_disabled": 0, "fusion_lat": 0.0, "bike_id": "841231f110d5e61e9d85c62caf07d435", "rental_uris": {"ios": "https://dc.lft.to/lastmile_qr_scan", "android": "https://dc.lft.to/lastmile_qr_scan"}}, {"name": "c622b54ab5a1bff66ef73664f62d6018", "type": "electric_scooter", "lat": 38.91675733333334, "is_reserved": 0, "lon": -77.02400266666666, "fusion_lon": 0.0, "is_disabled": 0, "fusion_lat": 0.0, "bike_id": "c622b54ab5a1bff66ef73664f62d6018", "rental_uris": {"ios": "https://dc.lft.to/lastmile_qr_scan", "android": "https://dc.lft.to/lastmile_qr_scan"}}, {"name": "0fc4d671298d2f4b8cc4bd86a2ed5b88", "type": "electric_scooter", "lat": 38.895328166666665, "is_reserved": 0, "lon": -76.9493335, "fusion_lon": 0.0, "is_disabled": 0, "fusion_lat": 0.0, "bike_id": "0fc4d671298d2f4b8cc4bd86a2ed5b88", "rental_uris": {"ios": "https://dc.lft.to/lastmile_qr_scan", "android": "https://dc.lft.to/lastmile_qr_scan"}}, {"name": "439aad1b99781d95f119475478efe264", "type": "electric_scooter", "lat": 38.885091333333335, "is_reserved": 0, "lon": -77.00572783333334, "fusion_lon": 0.0, "is_disabled": 0, "fusion_lat": 0.0, "bike_id": "439aad1b99781d95f119475478efe264", "rental_uris": {"ios": "https://dc.lft.to/lastmile_qr_scan", "android": "https://dc.lft.to/lastmile_qr_scan"}}, {"name": "d9066ab002b9d5e3d41033a7fcc72912", "type": "electric_bike", "lat": 39.0265175, "is_reserved": 0, "lon": -77.1252605, "fusion_lon": 0.0, "is_disabled": 0, "fusion_lat": 0.0, "bike_id": "d9066ab002b9d5e3d41033a7fcc72912", "rental_uris": {"ios": "https://dc.lft.to/lastmile_qr_scan", "android": "https://dc.lft.to/lastmile_qr_scan"}}, {"name": "97d34e1bd4a4585af1e0e1ce770df83e", "type": "electric_bike", "lat": 38.957537333333335, "is_reserved": 0, "lon": -77.02171466666667, "fusion_lon": 0.0, "is_disabled": 0, "fusion_lat": 0.0, "bike_id": "97d34e1bd4a4585af1e0e1ce770df83e", "rental_uris": {"ios": "https://dc.lft.to/lastmile_qr_scan", "android": "https://dc.lft.to/lastmile_qr_scan"}}, {"name": "40b3f9511452bc5b6697a49f9361e566", "type": "electric_scooter", "lat": 38.9006675, "is_reserved": 0, "lon": -77.0506255, "fusion_lon": 0.0, "is_disabled": 0, "fusion_lat": 0.0, "bike_id": "40b3f9511452bc5b6697a49f9361e566", "rental_uris": {"ios": "https://dc.lft.to/lastmile_qr_scan", "android": "https://dc.lft.to/lastmile_qr_scan"}}, {"name": "cdd5a5b94b02c6cc1361dbe394749282", "type": "electric_scooter", "lat": 38.93597283333333, "is_reserved": 0, "lon": -77.03782966666667, "fusion_lon": 0.0, "is_disabled": 0, "fusion_lat": 0.0, "bike_id": "cdd5a5b94b02c6cc1361dbe394749282", "rental_uris": {"ios": "https://dc.lft.to/lastmile_qr_scan", "android": "https://dc.lft.to/lastmile_qr_scan"}}, {"name": "7840d0ed34df53dfbe8b9295df10ff09", "type": "electric_scooter", "lat": 38.892247166666664, "is_reserved": 0, "lon": -77.04536783333333, "fusion_lon": 0.0, "is_disabled": 0, "fusion_lat": 0.0, "bike_id": "7840d0ed34df53dfbe8b9295df10ff09", "rental_uris": {"ios": "https://dc.lft.to/lastmile_qr_scan", "android": "https://dc.lft.to/lastmile_qr_scan"}}, {"name": "c1f1617bb4940e783c030423a88dbe2f", "type": "electric_scooter", "lat": 38.929050333333336, "is_reserved": 0, "lon": -77.0215875, "fusion_lon": 0.0, "is_disabled": 0, "fusion_lat": 0.0, "bike_id": "c1f1617bb4940e783c030423a88dbe2f", "rental_uris": {"ios": "https://dc.lft.to/lastmile_qr_scan", "android": "https://dc.lft.to/lastmile_qr_scan"}}, {"name": "bd04625f816bdb0df85a138cc5095e77", "type": "electric_scooter", "lat": 38.9349545, "is_reserved": 0, "lon": -77.02843566666667, "fusion_lon": 0.0, "is_disabled": 0, "fusion_lat": 0.0, "bike_id": "bd04625f816bdb0df85a138cc5095e77", "rental_uris": {"ios": "https://dc.lft.to/lastmile_qr_scan", "android": "https://dc.lft.to/lastmile_qr_scan"}}, {"name": "053d1c22bd417d7638de0e000eb4ef9f", "type": "electric_scooter", "lat": 38.90012133333333, "is_reserved": 0, "lon": -76.98701283333334, "fusion_lon": 0.0, "is_disabled": 0, "fusion_lat": 0.0, "bike_id": "053d1c22bd417d7638de0e000eb4ef9f", "rental_uris": {"ios": "https://dc.lft.to/lastmile_qr_scan", "android": "https://dc.lft.to/lastmile_qr_scan"}}, {"name": "7d4c6b0bb5830984efd629bf1966b95c", "type": "electric_scooter", "lat": 38.9353985, "is_reserved": 0, "lon": -77.03412683333333, "fusion_lon": 0.0, "is_disabled": 0, "fusion_lat": 0.0, "bike_id": "7d4c6b0bb5830984efd629bf1966b95c", "rental_uris": {"ios": "https://dc.lft.to/lastmile_qr_scan", "android": "https://dc.lft.to/lastmile_qr_scan"}}, {"name": "50bfba0d2d5f627fd5c155dca1aea32e", "type": "electric_scooter", "lat": 38.926657666666664, "is_reserved": 0, "lon": -76.99542433333333, "fusion_lon": 0.0, "is_disabled": 0, "fusion_lat": 0.0, "bike_id": "50bfba0d2d5f627fd5c155dca1aea32e", "rental_uris": {"ios": "https://dc.lft.to/lastmile_qr_scan", "android": "https://dc.lft.to/lastmile_qr_scan"}}, {"name": "1fda28d9feef0f795560ef75d76ad5f3", "type": "electric_scooter", "lat": 38.84428666666667, "is_reserved": 0, "lon": -76.99776666666666, "fusion_lon": 0.0, "is_disabled": 0, "fusion_lat": 0.0, "bike_id": "1fda28d9feef0f795560ef75d76ad5f3", "rental_uris": {"ios": "https://dc.lft.to/lastmile_qr_scan", "android": "https://dc.lft.to/lastmile_qr_scan"}}, {"name": "23e9baf6ce8c6bca72610b23b7f2a5bb", "type": "electric_scooter", "lat": 38.9105825, "is_reserved": 0, "lon": -77.030258, "fusion_lon": 0.0, "is_disabled": 0, "fusion_lat": 0.0, "bike_id": "23e9baf6ce8c6bca72610b23b7f2a5bb", "rental_uris": {"ios": "https://dc.lft.to/lastmile_qr_scan", "android": "https://dc.lft.to/lastmile_qr_scan"}}, {"name": "54ea853850599c70e18529d0766c9223", "type": "electric_scooter", "lat": 38.92683816666667, "is_reserved": 0, "lon": -77.02155916666666, "fusion_lon": 0.0, "is_disabled": 0, "fusion_lat": 0.0, "bike_id": "54ea853850599c70e18529d0766c9223", "rental_uris": {"ios": "https://dc.lft.to/lastmile_qr_scan", "android": "https://dc.lft.to/lastmile_qr_scan"}}, {"name": "d3a880c96432ce93cc3b8dcbe28b51fe", "type": "electric_scooter", "lat": 38.9207085, "is_reserved": 0, "lon": -77.03218133333333, "fusion_lon": 0.0, "is_disabled": 0, "fusion_lat": 0.0, "bike_id": "d3a880c96432ce93cc3b8dcbe28b51fe", "rental_uris": {"ios": "https://dc.lft.to/lastmile_qr_scan", "android": "https://dc.lft.to/lastmile_qr_scan"}}, {"name": "c9e2c507ac861d91f852f676ffb590c6", "type": "electric_scooter", "lat": 38.89521516666667, "is_reserved": 0, "lon": -77.01603066666667, "fusion_lon": 0.0, "is_disabled": 0, "fusion_lat": 0.0, "bike_id": "c9e2c507ac861d91f852f676ffb590c6", "rental_uris": {"ios": "https://dc.lft.to/lastmile_qr_scan", "android": "https://dc.lft.to/lastmile_qr_scan"}}, {"name": "2c6938e2e6224e2f4d79477e14545b26", "type": "electric_scooter", "lat": 38.907960833333334, "is_reserved": 0, "lon": -76.99701983333334, "fusion_lon": 0.0, "is_disabled": 0, "fusion_lat": 0.0, "bike_id": "2c6938e2e6224e2f4d79477e14545b26", "rental_uris": {"ios": "https://dc.lft.to/lastmile_qr_scan", "android": "https://dc.lft.to/lastmile_qr_scan"}}, {"name": "7e064dab4f6b483495d3bebcad604e4b", "type": "electric_bike", "lat": 38.9489655, "is_reserved": 0, "lon": -77.019312, "fusion_lon": 0.0, "is_disabled": 0, "fusion_lat": 0.0, "bike_id": "7e064dab4f6b483495d3bebcad604e4b", "rental_uris": {"ios": "https://dc.lft.to/lastmile_qr_scan", "android": "https://dc.lft.to/lastmile_qr_scan"}}, {"name": "9353260ec6f7bb87bc467b47595c7ff3", "type": "electric_bike", "lat": 38.918285, "is_reserved": 0, "lon": -77.033133, "fusion_lon": 0.0, "is_disabled": 0, "fusion_lat": 0.0, "bike_id": "9353260ec6f7bb87bc467b47595c7ff3", "rental_uris": {"ios": "https://dc.lft.to/lastmile_qr_scan", "android": "https://dc.lft.to/lastmile_qr_scan"}}, {"name": "18d6ca20c24e01729cc231b70d3106b7", "type": "electric_scooter", "lat": 38.907318333333336, "is_reserved": 0, "lon": -77.02513716666667, "fusion_lon": 0.0, "is_disabled": 0, "fusion_lat": 0.0, "bike_id": "18d6ca20c24e01729cc231b70d3106b7", "rental_uris": {"ios": "https://dc.lft.to/lastmile_qr_scan", "android": "https://dc.lft.to/lastmile_qr_scan"}}, {"name": "f6714b73bcb71d389c4e9e7991c97de3", "type": "electric_scooter", "lat": 38.93499583333333, "is_reserved": 0, "lon": -77.02847433333334, "fusion_lon": 0.0, "is_disabled": 0, "fusion_lat": 0.0, "bike_id": "f6714b73bcb71d389c4e9e7991c97de3", "rental_uris": {"ios": "https://dc.lft.to/lastmile_qr_scan", "android": "https://dc.lft.to/lastmile_qr_scan"}}, {"name": "af6d30c52bd540a67f262393fd660e9d", "type": "electric_scooter", "lat": 38.941809666666664, "is_reserved": 0, "lon": -77.030895, "fusion_lon": 0.0, "is_disabled": 0, "fusion_lat": 0.0, "bike_id": "af6d30c52bd540a67f262393fd660e9d", "rental_uris": {"ios": "https://dc.lft.to/lastmile_qr_scan", "android": "https://dc.lft.to/lastmile_qr_scan"}}, {"name": "505ae64846781e872d296a870db5186f", "type": "electric_scooter", "lat": 38.9060445, "is_reserved": 0, "lon": -77.01319583333333, "fusion_lon": 0.0, "is_disabled": 0, "fusion_lat": 0.0, "bike_id": "505ae64846781e872d296a870db5186f", "rental_uris": {"ios": "https://dc.lft.to/lastmile_qr_scan", "android": "https://dc.lft.to/lastmile_qr_scan"}}, {"name": "22c6e81a65f159e9f8e1df05574b7257", "type": "electric_bike", "lat": 38.854363166666666, "is_reserved": 0, "lon": -77.11706383333333, "fusion_lon": 0.0, "is_disabled": 0, "fusion_lat": 0.0, "bike_id": "22c6e81a65f159e9f8e1df05574b7257", "rental_uris": {"ios": "https://dc.lft.to/lastmile_qr_scan", "android": "https://dc.lft.to/lastmile_qr_scan"}}, {"name": "37c29e6d87c088d9508c339aa772ddd4", "type": "electric_scooter", "lat": 38.8974875, "is_reserved": 0, "lon": -77.04680866666666, "fusion_lon": 0.0, "is_disabled": 0, "fusion_lat": 0.0, "bike_id": "37c29e6d87c088d9508c339aa772ddd4", "rental_uris": {"ios": "https://dc.lft.to/lastmile_qr_scan", "android": "https://dc.lft.to/lastmile_qr_scan"}}, {"name": "339e86cddcd1cda00281f5d2613e74a8", "type": "electric_scooter", "lat": 38.878990333333334, "is_reserved": 0, "lon": -77.02204383333333, "fusion_lon": 0.0, "is_disabled": 0, "fusion_lat": 0.0, "bike_id": "339e86cddcd1cda00281f5d2613e74a8", "rental_uris": {"ios": "https://dc.lft.to/lastmile_qr_scan", "android": "https://dc.lft.to/lastmile_qr_scan"}}, {"name": "cd092d7e92f2b46e428ddb2139817c3b", "type": "electric_scooter", "lat": 38.8975235, "is_reserved": 0, "lon": -77.0468875, "fusion_lon": 0.0, "is_disabled": 0, "fusion_lat": 0.0, "bike_id": "cd092d7e92f2b46e428ddb2139817c3b", "rental_uris": {"ios": "https://dc.lft.to/lastmile_qr_scan", "android": "https://dc.lft.to/lastmile_qr_scan"}}, {"name": "2b2da599f8409f844c5414a3d82dcfae", "type": "electric_scooter", "lat": 38.90661716666666, "is_reserved": 0, "lon": -77.03848383333333, "fusion_lon": 0.0, "is_disabled": 0, "fusion_lat": 0.0, "bike_id": "2b2da599f8409f844c5414a3d82dcfae", "rental_uris": {"ios": "https://dc.lft.to/lastmile_qr_scan", "android": "https://dc.lft.to/lastmile_qr_scan"}}, {"name": "9754f5d3b86553834f97a8c01ee24ed2", "type": "electric_scooter", "lat": 38.91405983333333, "is_reserved": 0, "lon": -77.00805366666667, "fusion_lon": 0.0, "is_disabled": 0, "fusion_lat": 0.0, "bike_id": "9754f5d3b86553834f97a8c01ee24ed2", "rental_uris": {"ios": "https://dc.lft.to/lastmile_qr_scan", "android": "https://dc.lft.to/lastmile_qr_scan"}}, {"name": "77ffb29e95075d386e5fb256c5751c82", "type": "electric_scooter", "lat": 38.90234783333333, "is_reserved": 0, "lon": -76.974074, "fusion_lon": 0.0, "is_disabled": 0, "fusion_lat": 0.0, "bike_id": "77ffb29e95075d386e5fb256c5751c82", "rental_uris": {"ios": "https://dc.lft.to/lastmile_qr_scan", "android": "https://dc.lft.to/lastmile_qr_scan"}}, {"name": "f8f373624ac5bd4687a970adff868626", "type": "electric_scooter", "lat": 38.91720383333333, "is_reserved": 0, "lon": -77.0365775, "fusion_lon": 0.0, "is_disabled": 0, "fusion_lat": 0.0, "bike_id": "f8f373624ac5bd4687a970adff868626", "rental_uris": {"ios": "https://dc.lft.to/lastmile_qr_scan", "android": "https://dc.lft.to/lastmile_qr_scan"}}, {"name": "59d2f7ec9100c51d791c842453a78826", "type": "electric_bike", "lat": 38.861611, "is_reserved": 0, "lon": -77.13094066666666, "fusion_lon": 0.0, "is_disabled": 0, "fusion_lat": 0.0, "bike_id": "59d2f7ec9100c51d791c842453a78826", "rental_uris": {"ios": "https://dc.lft.to/lastmile_qr_scan", "android": "https://dc.lft.to/lastmile_qr_scan"}}, {"name": "5fcd656176ac5e8b5cc0bca838f7c825", "type": "electric_scooter", "lat": 38.929517833333335, "is_reserved": 0, "lon": -77.02314133333333, "fusion_lon": 0.0, "is_disabled": 0, "fusion_lat": 0.0, "bike_id": "5fcd656176ac5e8b5cc0bca838f7c825", "rental_uris": {"ios": "https://dc.lft.to/lastmile_qr_scan", "android": "https://dc.lft.to/lastmile_qr_scan"}}, {"name": "e628e70ff709c81cfeb0756afa8372b9", "type": "electric_scooter", "lat": 38.92579416666667, "is_reserved": 0, "lon": -77.02842383333333, "fusion_lon": 0.0, "is_disabled": 0, "fusion_lat": 0.0, "bike_id": "e628e70ff709c81cfeb0756afa8372b9", "rental_uris": {"ios": "https://dc.lft.to/lastmile_qr_scan", "android": "https://dc.lft.to/lastmile_qr_scan"}}, {"name": "27c4426a7fa1ba60d33ca7b2f6a9407e", "type": "electric_scooter", "lat": 38.891840333333334, "is_reserved": 0, "lon": -77.01531233333333, "fusion_lon": 0.0, "is_disabled": 0, "fusion_lat": 0.0, "bike_id": "27c4426a7fa1ba60d33ca7b2f6a9407e", "rental_uris": {"ios": "https://dc.lft.to/lastmile_qr_scan", "android": "https://dc.lft.to/lastmile_qr_scan"}}, {"name": "3d224a79b52857c21ee7ae97570e2a18", "type": "electric_scooter", "lat": 38.902751333333335, "is_reserved": 0, "lon": -77.05313416666667, "fusion_lon": 0.0, "is_disabled": 0, "fusion_lat": 0.0, "bike_id": "3d224a79b52857c21ee7ae97570e2a18", "rental_uris": {"ios": "https://dc.lft.to/lastmile_qr_scan", "android": "https://dc.lft.to/lastmile_qr_scan"}}, {"name": "e78e0a95ed8634682263f6d315e6d6f3", "type": "electric_scooter", "lat": 38.9349235, "is_reserved": 0, "lon": -77.03279583333334, "fusion_lon": 0.0, "is_disabled": 0, "fusion_lat": 0.0, "bike_id": "e78e0a95ed8634682263f6d315e6d6f3", "rental_uris": {"ios": "https://dc.lft.to/lastmile_qr_scan", "android": "https://dc.lft.to/lastmile_qr_scan"}}, {"name": "e9f7e896dfc03ae0047a4a866d7a5506", "type": "electric_bike", "lat": 38.898171, "is_reserved": 0, "lon": -77.00603066666666, "fusion_lon": 0.0, "is_disabled": 0, "fusion_lat": 0.0, "bike_id": "e9f7e896dfc03ae0047a4a866d7a5506", "rental_uris": {"ios": "https://dc.lft.to/lastmile_qr_scan", "android": "https://dc.lft.to/lastmile_qr_scan"}}, {"name": "0ab11a0ced260d9fdaa5d89936d5d289", "type": "electric_scooter", "lat": 38.917147, "is_reserved": 0, "lon": -77.0385735, "fusion_lon": 0.0, "is_disabled": 0, "fusion_lat": 0.0, "bike_id": "0ab11a0ced260d9fdaa5d89936d5d289", "rental_uris": {"ios": "https://dc.lft.to/lastmile_qr_scan", "android": "https://dc.lft.to/lastmile_qr_scan"}}, {"name": "6795a2d6537f63f7e06dc2a6cba567a7", "type": "electric_scooter", "lat": 38.9169385, "is_reserved": 0, "lon": -77.00920433333333, "fusion_lon": 0.0, "is_disabled": 0, "fusion_lat": 0.0, "bike_id": "6795a2d6537f63f7e06dc2a6cba567a7", "rental_uris": {"ios": "https://dc.lft.to/lastmile_qr_scan", "android": "https://dc.lft.to/lastmile_qr_scan"}}, {"name": "9fc9a3ae50e9ba4d39c20f2c8de6dab5", "type": "electric_scooter", "lat": 38.8962915, "is_reserved": 0, "lon": -77.02734166666667, "fusion_lon": 0.0, "is_disabled": 0, "fusion_lat": 0.0, "bike_id": "9fc9a3ae50e9ba4d39c20f2c8de6dab5", "rental_uris": {"ios": "https://dc.lft.to/lastmile_qr_scan", "android": "https://dc.lft.to/lastmile_qr_scan"}}, {"name": "09fc1364c08360bf0e6c84793e06da91", "type": "electric_scooter", "lat": 38.90030433333333, "is_reserved": 0, "lon": -76.99862216666666, "fusion_lon": 0.0, "is_disabled": 0, "fusion_lat": 0.0, "bike_id": "09fc1364c08360bf0e6c84793e06da91", "rental_uris": {"ios": "https://dc.lft.to/lastmile_qr_scan", "android": "https://dc.lft.to/lastmile_qr_scan"}}, {"name": "e4535ddb4e228ecf39bbb03a3d6b75da", "type": "electric_scooter", "lat": 38.90113216666666, "is_reserved": 0, "lon": -77.05169483333333, "fusion_lon": 0.0, "is_disabled": 0, "fusion_lat": 0.0, "bike_id": "e4535ddb4e228ecf39bbb03a3d6b75da", "rental_uris": {"ios": "https://dc.lft.to/lastmile_qr_scan", "android": "https://dc.lft.to/lastmile_qr_scan"}}, {"name": "5d0dd5bb5458baf812df9c188742f0e0", "type": "electric_scooter", "lat": 38.92344683333334, "is_reserved": 0, "lon": -77.050436, "fusion_lon": 0.0, "is_disabled": 0, "fusion_lat": 0.0, "bike_id": "5d0dd5bb5458baf812df9c188742f0e0", "rental_uris": {"ios": "https://dc.lft.to/lastmile_qr_scan", "android": "https://dc.lft.to/lastmile_qr_scan"}}, {"name": "eec74839ab63d89775107785541e470d", "type": "electric_scooter", "lat": 38.8980625, "is_reserved": 0, "lon": -76.99496166666667, "fusion_lon": 0.0, "is_disabled": 0, "fusion_lat": 0.0, "bike_id": "eec74839ab63d89775107785541e470d", "rental_uris": {"ios": "https://dc.lft.to/lastmile_qr_scan", "android": "https://dc.lft.to/lastmile_qr_scan"}}, {"name": "e8b92001352c7aa665d3192d33b14152", "type": "electric_scooter", "lat": 38.9033815, "is_reserved": 0, "lon": -77.0380785, "fusion_lon": 0.0, "is_disabled": 0, "fusion_lat": 0.0, "bike_id": "e8b92001352c7aa665d3192d33b14152", "rental_uris": {"ios": "https://dc.lft.to/lastmile_qr_scan", "android": "https://dc.lft.to/lastmile_qr_scan"}}, {"name": "64df0cc7bb65910a960d1fd5651da119", "type": "electric_scooter", "lat": 38.905811, "is_reserved": 0, "lon": -77.0399275, "fusion_lon": 0.0, "is_disabled": 0, "fusion_lat": 0.0, "bike_id": "64df0cc7bb65910a960d1fd5651da119", "rental_uris": {"ios": "https://dc.lft.to/lastmile_qr_scan", "android": "https://dc.lft.to/lastmile_qr_scan"}}, {"name": "82a7e1cfc6031bcb08d30342012472be", "type": "electric_scooter", "lat": 38.86215, "is_reserved": 0, "lon": -76.99478366666666, "fusion_lon": 0.0, "is_disabled": 0, "fusion_lat": 0.0, "bike_id": "82a7e1cfc6031bcb08d30342012472be", "rental_uris": {"ios": "https://dc.lft.to/lastmile_qr_scan", "android": "https://dc.lft.to/lastmile_qr_scan"}}, {"name": "c7072e7d99c108e6bbc504918bfdb01b", "type": "electric_scooter", "lat": 38.9004245, "is_reserved": 0, "lon": -76.91917383333333, "fusion_lon": 0.0, "is_disabled": 0, "fusion_lat": 0.0, "bike_id": "c7072e7d99c108e6bbc504918bfdb01b", "rental_uris": {"ios": "https://dc.lft.to/lastmile_qr_scan", "android": "https://dc.lft.to/lastmile_qr_scan"}}, {"name": "e56daa5b51a20197fa3256f616d8a934", "type": "electric_bike", "lat": 38.92914, "is_reserved": 0, "lon": -77.02380733333334, "fusion_lon": 0.0, "is_disabled": 0, "fusion_lat": 0.0, "bike_id": "e56daa5b51a20197fa3256f616d8a934", "rental_uris": {"ios": "https://dc.lft.to/lastmile_qr_scan", "android": "https://dc.lft.to/lastmile_qr_scan"}}, {"name": "3033f6d633909c00e1fa51f5473ea89d", "type": "electric_scooter", "lat": 38.9592395, "is_reserved": 0, "lon": -77.0332165, "fusion_lon": 0.0, "is_disabled": 0, "fusion_lat": 0.0, "bike_id": "3033f6d633909c00e1fa51f5473ea89d", "rental_uris": {"ios": "https://dc.lft.to/lastmile_qr_scan", "android": "https://dc.lft.to/lastmile_qr_scan"}}, {"name": "a15e040cdac6954be94dd6e461de22e8", "type": "electric_scooter", "lat": 38.927512166666666, "is_reserved": 0, "lon": -77.02426366666667, "fusion_lon": 0.0, "is_disabled": 0, "fusion_lat": 0.0, "bike_id": "a15e040cdac6954be94dd6e461de22e8", "rental_uris": {"ios": "https://dc.lft.to/lastmile_qr_scan", "android": "https://dc.lft.to/lastmile_qr_scan"}}, {"name": "e7c20c5d490aed7766f94af85de4c73f", "type": "electric_scooter", "lat": 38.919033, "is_reserved": 0, "lon": -77.04182533333334, "fusion_lon": 0.0, "is_disabled": 0, "fusion_lat": 0.0, "bike_id": "e7c20c5d490aed7766f94af85de4c73f", "rental_uris": {"ios": "https://dc.lft.to/lastmile_qr_scan", "android": "https://dc.lft.to/lastmile_qr_scan"}}, {"name": "1793d7b6549cfd0200b326670e99b053", "type": "electric_scooter", "lat": 38.9173835, "is_reserved": 0, "lon": -77.010224, "fusion_lon": 0.0, "is_disabled": 0, "fusion_lat": 0.0, "bike_id": "1793d7b6549cfd0200b326670e99b053", "rental_uris": {"ios": "https://dc.lft.to/lastmile_qr_scan", "android": "https://dc.lft.to/lastmile_qr_scan"}}, {"name": "b3d269d2d7b424ecec208b9a0980db4b", "type": "electric_scooter", "lat": 38.9244355, "is_reserved": 0, "lon": -76.99330216666667, "fusion_lon": 0.0, "is_disabled": 0, "fusion_lat": 0.0, "bike_id": "b3d269d2d7b424ecec208b9a0980db4b", "rental_uris": {"ios": "https://dc.lft.to/lastmile_qr_scan", "android": "https://dc.lft.to/lastmile_qr_scan"}}, {"name": "acf425a9ec264e3f6fdb0833175f203d", "type": "electric_scooter", "lat": 38.91555116666667, "is_reserved": 0, "lon": -77.04620733333333, "fusion_lon": 0.0, "is_disabled": 0, "fusion_lat": 0.0, "bike_id": "acf425a9ec264e3f6fdb0833175f203d", "rental_uris": {"ios": "https://dc.lft.to/lastmile_qr_scan", "android": "https://dc.lft.to/lastmile_qr_scan"}}, {"name": "099624bcb5b402bd2fe5bf8b606bf795", "type": "electric_scooter", "lat": 38.908855833333334, "is_reserved": 0, "lon": -77.0056715, "fusion_lon": 0.0, "is_disabled": 0, "fusion_lat": 0.0, "bike_id": "099624bcb5b402bd2fe5bf8b606bf795", "rental_uris": {"ios": "https://dc.lft.to/lastmile_qr_scan", "android": "https://dc.lft.to/lastmile_qr_scan"}}, {"name": "04fcb66a1cf507e52941c6792aa342a4", "type": "electric_scooter", "lat": 38.912731, "is_reserved": 0, "lon": -77.033246, "fusion_lon": 0.0, "is_disabled": 0, "fusion_lat": 0.0, "bike_id": "04fcb66a1cf507e52941c6792aa342a4", "rental_uris": {"ios": "https://dc.lft.to/lastmile_qr_scan", "android": "https://dc.lft.to/lastmile_qr_scan"}}, {"name": "50da413d8c008a8f42d6baa55c78118f", "type": "electric_scooter", "lat": 38.894972333333335, "is_reserved": 0, "lon": -77.02264916666667, "fusion_lon": 0.0, "is_disabled": 0, "fusion_lat": 0.0, "bike_id": "50da413d8c008a8f42d6baa55c78118f", "rental_uris": {"ios": "https://dc.lft.to/lastmile_qr_scan", "android": "https://dc.lft.to/lastmile_qr_scan"}}, {"name": "8fcadd58c8b62de2b5783ccec8a135c9", "type": "electric_scooter", "lat": 38.898752333333334, "is_reserved": 0, "lon": -76.9315805, "fusion_lon": 0.0, "is_disabled": 0, "fusion_lat": 0.0, "bike_id": "8fcadd58c8b62de2b5783ccec8a135c9", "rental_uris": {"ios": "https://dc.lft.to/lastmile_qr_scan", "android": "https://dc.lft.to/lastmile_qr_scan"}}, {"name": "2c717dd16302caf3f2370bc43e40cdb5", "type": "electric_scooter", "lat": 38.94391733333333, "is_reserved": 0, "lon": -77.03887116666667, "fusion_lon": 0.0, "is_disabled": 0, "fusion_lat": 0.0, "bike_id": "2c717dd16302caf3f2370bc43e40cdb5", "rental_uris": {"ios": "https://dc.lft.to/lastmile_qr_scan", "android": "https://dc.lft.to/lastmile_qr_scan"}}, {"name": "e15e7738486e2c35e5ab1f49cffe178e", "type": "electric_bike", "lat": 38.961250166666666, "is_reserved": 0, "lon": -77.0327125, "fusion_lon": 0.0, "is_disabled": 0, "fusion_lat": 0.0, "bike_id": "e15e7738486e2c35e5ab1f49cffe178e", "rental_uris": {"ios": "https://dc.lft.to/lastmile_qr_scan", "android": "https://dc.lft.to/lastmile_qr_scan"}}, {"name": "8842d2ea90260b0416fdd1d851e12d0f", "type": "electric_scooter", "lat": 38.90569333333333, "is_reserved": 0, "lon": -77.02818816666667, "fusion_lon": 0.0, "is_disabled": 0, "fusion_lat": 0.0, "bike_id": "8842d2ea90260b0416fdd1d851e12d0f", "rental_uris": {"ios": "https://dc.lft.to/lastmile_qr_scan", "android": "https://dc.lft.to/lastmile_qr_scan"}}, {"name": "736c5a5b217f18c812a9aa2bd2d4b7e5", "type": "electric_scooter", "lat": 38.8666415, "is_reserved": 0, "lon": -76.98888133333334, "fusion_lon": 0.0, "is_disabled": 0, "fusion_lat": 0.0, "bike_id": "736c5a5b217f18c812a9aa2bd2d4b7e5", "rental_uris": {"ios": "https://dc.lft.to/lastmile_qr_scan", "android": "https://dc.lft.to/lastmile_qr_scan"}}, {"name": "eb271243b7571f05b2b097d55c09d16a", "type": "electric_bike", "lat": 38.807477666666664, "is_reserved": 0, "lon": -77.0942995, "fusion_lon": 0.0, "is_disabled": 0, "fusion_lat": 0.0, "bike_id": "eb271243b7571f05b2b097d55c09d16a", "rental_uris": {"ios": "https://dc.lft.to/lastmile_qr_scan", "android": "https://dc.lft.to/lastmile_qr_scan"}}, {"name": "16d10b10c039a85c81e9f77a7a6cc268", "type": "electric_scooter", "lat": 38.90031183333333, "is_reserved": 0, "lon": -77.00204933333333, "fusion_lon": 0.0, "is_disabled": 0, "fusion_lat": 0.0, "bike_id": "16d10b10c039a85c81e9f77a7a6cc268", "rental_uris": {"ios": "https://dc.lft.to/lastmile_qr_scan", "android": "https://dc.lft.to/lastmile_qr_scan"}}, {"name": "e33aacada17f10724ebe9d9a5ed17771", "type": "electric_scooter", "lat": 38.905477833333336, "is_reserved": 0, "lon": -77.0218155, "fusion_lon": 0.0, "is_disabled": 0, "fusion_lat": 0.0, "bike_id": "e33aacada17f10724ebe9d9a5ed17771", "rental_uris": {"ios": "https://dc.lft.to/lastmile_qr_scan", "android": "https://dc.lft.to/lastmile_qr_scan"}}, {"name": "3caf0aafebd1ed14deb1165b69f76ac8", "type": "electric_bike", "lat": 38.839355, "is_reserved": 0, "lon": -77.079078, "fusion_lon": 0.0, "is_disabled": 0, "fusion_lat": 0.0, "bike_id": "3caf0aafebd1ed14deb1165b69f76ac8", "rental_uris": {"ios": "https://dc.lft.to/lastmile_qr_scan", "android": "https://dc.lft.to/lastmile_qr_scan"}}, {"name": "845cf96bb36f085de33fa270141e568d", "type": "electric_bike", "lat": 38.880403666666666, "is_reserved": 0, "lon": -77.01320233333334, "fusion_lon": 0.0, "is_disabled": 0, "fusion_lat": 0.0, "bike_id": "845cf96bb36f085de33fa270141e568d", "rental_uris": {"ios": "https://dc.lft.to/lastmile_qr_scan", "android": "https://dc.lft.to/lastmile_qr_scan"}}, {"name": "26454d2604fd68d3a960b5cbc5cbdb45", "type": "electric_scooter", "lat": 38.91580183333333, "is_reserved": 0, "lon": -77.02180883333334, "fusion_lon": 0.0, "is_disabled": 0, "fusion_lat": 0.0, "bike_id": "26454d2604fd68d3a960b5cbc5cbdb45", "rental_uris": {"ios": "https://dc.lft.to/lastmile_qr_scan", "android": "https://dc.lft.to/lastmile_qr_scan"}}, {"name": "45e7fc5496dcf39087a0e9b179666dc2", "type": "electric_scooter", "lat": 38.90593833333333, "is_reserved": 0, "lon": -77.01614316666667, "fusion_lon": 0.0, "is_disabled": 0, "fusion_lat": 0.0, "bike_id": "45e7fc5496dcf39087a0e9b179666dc2", "rental_uris": {"ios": "https://dc.lft.to/lastmile_qr_scan", "android": "https://dc.lft.to/lastmile_qr_scan"}}, {"name": "c9b44642a7602e84c54586739cf3f318", "type": "electric_bike", "lat": 38.842751166666666, "is_reserved": 0, "lon": -76.98841366666667, "fusion_lon": 0.0, "is_disabled": 0, "fusion_lat": 0.0, "bike_id": "c9b44642a7602e84c54586739cf3f318", "rental_uris": {"ios": "https://dc.lft.to/lastmile_qr_scan", "android": "https://dc.lft.to/lastmile_qr_scan"}}, {"name": "20d7d87d69d9457862cde7afaaaef8b8", "type": "electric_scooter", "lat": 38.91483783333334, "is_reserved": 0, "lon": -77.03918416666667, "fusion_lon": 0.0, "is_disabled": 0, "fusion_lat": 0.0, "bike_id": "20d7d87d69d9457862cde7afaaaef8b8", "rental_uris": {"ios": "https://dc.lft.to/lastmile_qr_scan", "android": "https://dc.lft.to/lastmile_qr_scan"}}, {"name": "8112c855455fee03646c73513e96bd13", "type": "electric_scooter", "lat": 38.9146525, "is_reserved": 0, "lon": -77.03841466666667, "fusion_lon": 0.0, "is_disabled": 0, "fusion_lat": 0.0, "bike_id": "8112c855455fee03646c73513e96bd13", "rental_uris": {"ios": "https://dc.lft.to/lastmile_qr_scan", "android": "https://dc.lft.to/lastmile_qr_scan"}}, {"name": "daa95188f3b712365b85b6ac2d62f8b2", "type": "electric_scooter", "lat": 38.9003, "is_reserved": 0, "lon": -77.01164333333334, "fusion_lon": 0.0, "is_disabled": 0, "fusion_lat": 0.0, "bike_id": "daa95188f3b712365b85b6ac2d62f8b2", "rental_uris": {"ios": "https://dc.lft.to/lastmile_qr_scan", "android": "https://dc.lft.to/lastmile_qr_scan"}}, {"name": "69a81c648705cfc3370386cbb0eebede", "type": "electric_scooter", "lat": 38.898241, "is_reserved": 0, "lon": -77.0332355, "fusion_lon": 0.0, "is_disabled": 0, "fusion_lat": 0.0, "bike_id": "69a81c648705cfc3370386cbb0eebede", "rental_uris": {"ios": "https://dc.lft.to/lastmile_qr_scan", "android": "https://dc.lft.to/lastmile_qr_scan"}}, {"name": "82b8d51829c14b82ecf9e335b47843cb", "type": "electric_scooter", "lat": 38.9031645, "is_reserved": 0, "lon": -77.03324366666666, "fusion_lon": 0.0, "is_disabled": 0, "fusion_lat": 0.0, "bike_id": "82b8d51829c14b82ecf9e335b47843cb", "rental_uris": {"ios": "https://dc.lft.to/lastmile_qr_scan", "android": "https://dc.lft.to/lastmile_qr_scan"}}, {"name": "5e56481ab56f1986b279351198008e83", "type": "electric_scooter", "lat": 38.939825666666664, "is_reserved": 0, "lon": -77.02595266666667, "fusion_lon": 0.0, "is_disabled": 0, "fusion_lat": 0.0, "bike_id": "5e56481ab56f1986b279351198008e83", "rental_uris": {"ios": "https://dc.lft.to/lastmile_qr_scan", "android": "https://dc.lft.to/lastmile_qr_scan"}}, {"name": "a8ce672ecf05a17f555c4ddbaa162501", "type": "electric_scooter", "lat": 38.91114066666667, "is_reserved": 0, "lon": -77.034712, "fusion_lon": 0.0, "is_disabled": 0, "fusion_lat": 0.0, "bike_id": "a8ce672ecf05a17f555c4ddbaa162501", "rental_uris": {"ios": "https://dc.lft.to/lastmile_qr_scan", "android": "https://dc.lft.to/lastmile_qr_scan"}}, {"name": "3dfb451733bf8e2144b4b0d523efdcb4", "type": "electric_scooter", "lat": 38.9096865, "is_reserved": 0, "lon": -77.03669, "fusion_lon": 0.0, "is_disabled": 0, "fusion_lat": 0.0, "bike_id": "3dfb451733bf8e2144b4b0d523efdcb4", "rental_uris": {"ios": "https://dc.lft.to/lastmile_qr_scan", "android": "https://dc.lft.to/lastmile_qr_scan"}}, {"name": "52cea148256c2dfb9277bc5584b23f63", "type": "electric_scooter", "lat": 38.90261366666667, "is_reserved": 0, "lon": -77.0364965, "fusion_lon": 0.0, "is_disabled": 0, "fusion_lat": 0.0, "bike_id": "52cea148256c2dfb9277bc5584b23f63", "rental_uris": {"ios": "https://dc.lft.to/lastmile_qr_scan", "android": "https://dc.lft.to/lastmile_qr_scan"}}, {"name": "a427521f05b40156c0e1cd8d0dc5ec07", "type": "electric_scooter", "lat": 38.9274515, "is_reserved": 0, "lon": -77.0248375, "fusion_lon": 0.0, "is_disabled": 0, "fusion_lat": 0.0, "bike_id": "a427521f05b40156c0e1cd8d0dc5ec07", "rental_uris": {"ios": "https://dc.lft.to/lastmile_qr_scan", "android": "https://dc.lft.to/lastmile_qr_scan"}}, {"name": "9d8f6287f7520ec2447ef15c483e852c", "type": "electric_scooter", "lat": 38.90270316666667, "is_reserved": 0, "lon": -77.05314133333333, "fusion_lon": 0.0, "is_disabled": 0, "fusion_lat": 0.0, "bike_id": "9d8f6287f7520ec2447ef15c483e852c", "rental_uris": {"ios": "https://dc.lft.to/lastmile_qr_scan", "android": "https://dc.lft.to/lastmile_qr_scan"}}, {"name": "28b9ba69f9a5708b6eed8ec1ff72b957", "type": "electric_scooter", "lat": 38.907970666666664, "is_reserved": 0, "lon": -77.04819316666666, "fusion_lon": 0.0, "is_disabled": 0, "fusion_lat": 0.0, "bike_id": "28b9ba69f9a5708b6eed8ec1ff72b957", "rental_uris": {"ios": "https://dc.lft.to/lastmile_qr_scan", "android": "https://dc.lft.to/lastmile_qr_scan"}}, {"name": "3a6e877302a997fdff186f11845315f2", "type": "electric_scooter", "lat": 38.898912333333335, "is_reserved": 0, "lon": -77.03913683333333, "fusion_lon": 0.0, "is_disabled": 0, "fusion_lat": 0.0, "bike_id": "3a6e877302a997fdff186f11845315f2", "rental_uris": {"ios": "https://dc.lft.to/lastmile_qr_scan", "android": "https://dc.lft.to/lastmile_qr_scan"}}, {"name": "efd5aec81237027de426bc8039431641", "type": "electric_bike", "lat": 38.89565483333333, "is_reserved": 0, "lon": -77.12737283333334, "fusion_lon": 0.0, "is_disabled": 0, "fusion_lat": 0.0, "bike_id": "efd5aec81237027de426bc8039431641", "rental_uris": {"ios": "https://dc.lft.to/lastmile_qr_scan", "android": "https://dc.lft.to/lastmile_qr_scan"}}, {"name": "743e8d4682d3f505c78c727e63d975c5", "type": "electric_scooter", "lat": 38.899918666666665, "is_reserved": 0, "lon": -77.05097133333334, "fusion_lon": 0.0, "is_disabled": 0, "fusion_lat": 0.0, "bike_id": "743e8d4682d3f505c78c727e63d975c5", "rental_uris": {"ios": "https://dc.lft.to/lastmile_qr_scan", "android": "https://dc.lft.to/lastmile_qr_scan"}}, {"name": "8ba48f6b0d9ef7e23c8cf4907ae3d976", "type": "electric_scooter", "lat": 38.95091383333333, "is_reserved": 0, "lon": -77.0286975, "fusion_lon": 0.0, "is_disabled": 0, "fusion_lat": 0.0, "bike_id": "8ba48f6b0d9ef7e23c8cf4907ae3d976", "rental_uris": {"ios": "https://dc.lft.to/lastmile_qr_scan", "android": "https://dc.lft.to/lastmile_qr_scan"}}, {"name": "45de31bf30496ff9da6002afd60056d9", "type": "electric_scooter", "lat": 38.898429666666665, "is_reserved": 0, "lon": -77.04356666666666, "fusion_lon": 0.0, "is_disabled": 0, "fusion_lat": 0.0, "bike_id": "45de31bf30496ff9da6002afd60056d9", "rental_uris": {"ios": "https://dc.lft.to/lastmile_qr_scan", "android": "https://dc.lft.to/lastmile_qr_scan"}}, {"name": "9d9c8764c9b611c14de63017ec8bd32c", "type": "electric_scooter", "lat": 38.92765166666667, "is_reserved": 0, "lon": -77.07017016666667, "fusion_lon": 0.0, "is_disabled": 0, "fusion_lat": 0.0, "bike_id": "9d9c8764c9b611c14de63017ec8bd32c", "rental_uris": {"ios": "https://dc.lft.to/lastmile_qr_scan", "android": "https://dc.lft.to/lastmile_qr_scan"}}, {"name": "fded70da92d1f6c2a067bc1c85d1534e", "type": "electric_bike", "lat": 38.869904, "is_reserved": 0, "lon": -76.95978683333334, "fusion_lon": 0.0, "is_disabled": 0, "fusion_lat": 0.0, "bike_id": "fded70da92d1f6c2a067bc1c85d1534e", "rental_uris": {"ios": "https://dc.lft.to/lastmile_qr_scan", "android": "https://dc.lft.to/lastmile_qr_scan"}}, {"name": "456dd1e47be172175ee6db82e53b3108", "type": "electric_scooter", "lat": 38.873473, "is_reserved": 0, "lon": -77.01854116666667, "fusion_lon": 0.0, "is_disabled": 0, "fusion_lat": 0.0, "bike_id": "456dd1e47be172175ee6db82e53b3108", "rental_uris": {"ios": "https://dc.lft.to/lastmile_qr_scan", "android": "https://dc.lft.to/lastmile_qr_scan"}}, {"name": "2fd6d3b535c7edc46ad8c619552ab45b", "type": "electric_scooter", "lat": 38.86241666666667, "is_reserved": 0, "lon": -76.9949115, "fusion_lon": 0.0, "is_disabled": 0, "fusion_lat": 0.0, "bike_id": "2fd6d3b535c7edc46ad8c619552ab45b", "rental_uris": {"ios": "https://dc.lft.to/lastmile_qr_scan", "android": "https://dc.lft.to/lastmile_qr_scan"}}, {"name": "3f0bae451f44a42c78bbcb4e2ce9388f", "type": "electric_bike", "lat": 38.9850925, "is_reserved": 0, "lon": -76.98211533333334, "fusion_lon": 0.0, "is_disabled": 0, "fusion_lat": 0.0, "bike_id": "3f0bae451f44a42c78bbcb4e2ce9388f", "rental_uris": {"ios": "https://dc.lft.to/lastmile_qr_scan", "android": "https://dc.lft.to/lastmile_qr_scan"}}, {"name": "032140b9e82540917695aa39fe1da714", "type": "electric_scooter", "lat": 38.87006483333333, "is_reserved": 0, "lon": -77.0122285, "fusion_lon": 0.0, "is_disabled": 0, "fusion_lat": 0.0, "bike_id": "032140b9e82540917695aa39fe1da714", "rental_uris": {"ios": "https://dc.lft.to/lastmile_qr_scan", "android": "https://dc.lft.to/lastmile_qr_scan"}}, {"name": "4d7b3e3fc8d857ca206f395964e6a534", "type": "electric_scooter", "lat": 38.879417, "is_reserved": 0, "lon": -77.0038475, "fusion_lon": 0.0, "is_disabled": 0, "fusion_lat": 0.0, "bike_id": "4d7b3e3fc8d857ca206f395964e6a534", "rental_uris": {"ios": "https://dc.lft.to/lastmile_qr_scan", "android": "https://dc.lft.to/lastmile_qr_scan"}}, {"name": "e00a19713db53e80bb1e64efebf4503d", "type": "electric_scooter", "lat": 38.93232366666667, "is_reserved": 0, "lon": -77.0382995, "fusion_lon": 0.0, "is_disabled": 0, "fusion_lat": 0.0, "bike_id": "e00a19713db53e80bb1e64efebf4503d", "rental_uris": {"ios": "https://dc.lft.to/lastmile_qr_scan", "android": "https://dc.lft.to/lastmile_qr_scan"}}, {"name": "08a613ab0ffc16b9b45ac567cf4ead43", "type": "electric_scooter", "lat": 38.903010333333334, "is_reserved": 0, "lon": -77.0318325, "fusion_lon": 0.0, "is_disabled": 0, "fusion_lat": 0.0, "bike_id": "08a613ab0ffc16b9b45ac567cf4ead43", "rental_uris": {"ios": "https://dc.lft.to/lastmile_qr_scan", "android": "https://dc.lft.to/lastmile_qr_scan"}}, {"name": "ebbf29cc2181b9a2399fbe5cc3b8245b", "type": "electric_scooter", "lat": 38.936114333333336, "is_reserved": 0, "lon": -77.02245766666667, "fusion_lon": 0.0, "is_disabled": 0, "fusion_lat": 0.0, "bike_id": "ebbf29cc2181b9a2399fbe5cc3b8245b", "rental_uris": {"ios": "https://dc.lft.to/lastmile_qr_scan", "android": "https://dc.lft.to/lastmile_qr_scan"}}, {"name": "9bd8be61af57845143a5c43799f52415", "type": "electric_bike", "lat": 38.82052933333333, "is_reserved": 0, "lon": -77.05312233333333, "fusion_lon": 0.0, "is_disabled": 0, "fusion_lat": 0.0, "bike_id": "9bd8be61af57845143a5c43799f52415", "rental_uris": {"ios": "https://dc.lft.to/lastmile_qr_scan", "android": "https://dc.lft.to/lastmile_qr_scan"}}, {"name": "c6d43f25cb6ca886bd13efd91949a572", "type": "electric_scooter", "lat": 38.932832, "is_reserved": 0, "lon": -77.034931, "fusion_lon": 0.0, "is_disabled": 0, "fusion_lat": 0.0, "bike_id": "c6d43f25cb6ca886bd13efd91949a572", "rental_uris": {"ios": "https://dc.lft.to/lastmile_qr_scan", "android": "https://dc.lft.to/lastmile_qr_scan"}}, {"name": "0e27c10c09408fc4235300c3ef1b9d20", "type": "electric_scooter", "lat": 38.94462033333333, "is_reserved": 0, "lon": -77.00657383333333, "fusion_lon": 0.0, "is_disabled": 0, "fusion_lat": 0.0, "bike_id": "0e27c10c09408fc4235300c3ef1b9d20", "rental_uris": {"ios": "https://dc.lft.to/lastmile_qr_scan", "android": "https://dc.lft.to/lastmile_qr_scan"}}, {"name": "c14bc78263c8e9d1719d14514c32b56f", "type": "electric_scooter", "lat": 38.90940366666667, "is_reserved": 0, "lon": -76.99976466666666, "fusion_lon": 0.0, "is_disabled": 0, "fusion_lat": 0.0, "bike_id": "c14bc78263c8e9d1719d14514c32b56f", "rental_uris": {"ios": "https://dc.lft.to/lastmile_qr_scan", "android": "https://dc.lft.to/lastmile_qr_scan"}}, {"name": "63950763e6c3667c88b08a3c3b533ccd", "type": "electric_scooter", "lat": 38.92648783333333, "is_reserved": 0, "lon": -77.03704, "fusion_lon": 0.0, "is_disabled": 0, "fusion_lat": 0.0, "bike_id": "63950763e6c3667c88b08a3c3b533ccd", "rental_uris": {"ios": "https://dc.lft.to/lastmile_qr_scan", "android": "https://dc.lft.to/lastmile_qr_scan"}}, {"name": "0abd6793a923935e00508ff27b8d9b7b", "type": "electric_scooter", "lat": 38.8656605, "is_reserved": 0, "lon": -76.98549483333333, "fusion_lon": 0.0, "is_disabled": 0, "fusion_lat": 0.0, "bike_id": "0abd6793a923935e00508ff27b8d9b7b", "rental_uris": {"ios": "https://dc.lft.to/lastmile_qr_scan", "android": "https://dc.lft.to/lastmile_qr_scan"}}, {"name": "f64f651cef3e5b2a9fa7dc05e2a5346a", "type": "electric_scooter", "lat": 38.930688833333335, "is_reserved": 0, "lon": -77.03389616666666, "fusion_lon": 0.0, "is_disabled": 0, "fusion_lat": 0.0, "bike_id": "f64f651cef3e5b2a9fa7dc05e2a5346a", "rental_uris": {"ios": "https://dc.lft.to/lastmile_qr_scan", "android": "https://dc.lft.to/lastmile_qr_scan"}}, {"name": "7bc79e4a75ab753f0411acc85d340923", "type": "electric_scooter", "lat": 38.94437533333333, "is_reserved": 0, "lon": -77.06351816666667, "fusion_lon": 0.0, "is_disabled": 0, "fusion_lat": 0.0, "bike_id": "7bc79e4a75ab753f0411acc85d340923", "rental_uris": {"ios": "https://dc.lft.to/lastmile_qr_scan", "android": "https://dc.lft.to/lastmile_qr_scan"}}, {"name": "959ae1e9a25c483e6cf4a6d908b406e4", "type": "electric_scooter", "lat": 38.900663, "is_reserved": 0, "lon": -76.98710383333334, "fusion_lon": 0.0, "is_disabled": 0, "fusion_lat": 0.0, "bike_id": "959ae1e9a25c483e6cf4a6d908b406e4", "rental_uris": {"ios": "https://dc.lft.to/lastmile_qr_scan", "android": "https://dc.lft.to/lastmile_qr_scan"}}, {"name": "47a29bf263a083792edbe168fe90d9e5", "type": "electric_scooter", "lat": 38.93966116666667, "is_reserved": 0, "lon": -77.05319533333333, "fusion_lon": 0.0, "is_disabled": 0, "fusion_lat": 0.0, "bike_id": "47a29bf263a083792edbe168fe90d9e5", "rental_uris": {"ios": "https://dc.lft.to/lastmile_qr_scan", "android": "https://dc.lft.to/lastmile_qr_scan"}}, {"name": "2f97b21df7887800d6d732b6537f2683", "type": "electric_scooter", "lat": 38.906051166666664, "is_reserved": 0, "lon": -77.0512615, "fusion_lon": 0.0, "is_disabled": 0, "fusion_lat": 0.0, "bike_id": "2f97b21df7887800d6d732b6537f2683", "rental_uris": {"ios": "https://dc.lft.to/lastmile_qr_scan", "android": "https://dc.lft.to/lastmile_qr_scan"}}, {"name": "ba00103fb29632112d966a3bf374c4af", "type": "electric_scooter", "lat": 38.89752766666667, "is_reserved": 0, "lon": -77.00159866666667, "fusion_lon": 0.0, "is_disabled": 0, "fusion_lat": 0.0, "bike_id": "ba00103fb29632112d966a3bf374c4af", "rental_uris": {"ios": "https://dc.lft.to/lastmile_qr_scan", "android": "https://dc.lft.to/lastmile_qr_scan"}}, {"name": "0a9ab5b4acb0fe938f838ff114b303b7", "type": "electric_scooter", "lat": 38.929870666666666, "is_reserved": 0, "lon": -77.0347405, "fusion_lon": 0.0, "is_disabled": 0, "fusion_lat": 0.0, "bike_id": "0a9ab5b4acb0fe938f838ff114b303b7", "rental_uris": {"ios": "https://dc.lft.to/lastmile_qr_scan", "android": "https://dc.lft.to/lastmile_qr_scan"}}, {"name": "5485a13875790b58649f6347214227e8", "type": "electric_scooter", "lat": 38.8792185, "is_reserved": 0, "lon": -77.01341816666667, "fusion_lon": 0.0, "is_disabled": 0, "fusion_lat": 0.0, "bike_id": "5485a13875790b58649f6347214227e8", "rental_uris": {"ios": "https://dc.lft.to/lastmile_qr_scan", "android": "https://dc.lft.to/lastmile_qr_scan"}}, {"name": "9e0a17b38a707ccc53a1c7d28db9dc4a", "type": "electric_scooter", "lat": 38.930667166666666, "is_reserved": 0, "lon": -77.037964, "fusion_lon": 0.0, "is_disabled": 0, "fusion_lat": 0.0, "bike_id": "9e0a17b38a707ccc53a1c7d28db9dc4a", "rental_uris": {"ios": "https://dc.lft.to/lastmile_qr_scan", "android": "https://dc.lft.to/lastmile_qr_scan"}}, {"name": "5e8c25b6971886c07881e22a9acc286a", "type": "electric_scooter", "lat": 38.90300916666666, "is_reserved": 0, "lon": -77.060145, "fusion_lon": 0.0, "is_disabled": 0, "fusion_lat": 0.0, "bike_id": "5e8c25b6971886c07881e22a9acc286a", "rental_uris": {"ios": "https://dc.lft.to/lastmile_qr_scan", "android": "https://dc.lft.to/lastmile_qr_scan"}}, {"name": "c70428e80de6f689bb35bec20773112e", "type": "electric_scooter", "lat": 38.93208116666667, "is_reserved": 0, "lon": -77.02384066666667, "fusion_lon": 0.0, "is_disabled": 0, "fusion_lat": 0.0, "bike_id": "c70428e80de6f689bb35bec20773112e", "rental_uris": {"ios": "https://dc.lft.to/lastmile_qr_scan", "android": "https://dc.lft.to/lastmile_qr_scan"}}, {"name": "d06483f87c5bfa6e7dae3cddf70f3795", "type": "electric_scooter", "lat": 38.911128, "is_reserved": 0, "lon": -77.00237833333334, "fusion_lon": 0.0, "is_disabled": 0, "fusion_lat": 0.0, "bike_id": "d06483f87c5bfa6e7dae3cddf70f3795", "rental_uris": {"ios": "https://dc.lft.to/lastmile_qr_scan", "android": "https://dc.lft.to/lastmile_qr_scan"}}, {"name": "ee3692e1b8e68e72b715811d447da798", "type": "electric_scooter", "lat": 38.912172, "is_reserved": 0, "lon": -77.02799483333334, "fusion_lon": 0.0, "is_disabled": 0, "fusion_lat": 0.0, "bike_id": "ee3692e1b8e68e72b715811d447da798", "rental_uris": {"ios": "https://dc.lft.to/lastmile_qr_scan", "android": "https://dc.lft.to/lastmile_qr_scan"}}, {"name": "29d86a2388391e750081477f93af144a", "type": "electric_bike", "lat": 38.877318333333335, "is_reserved": 0, "lon": -77.11847183333333, "fusion_lon": 0.0, "is_disabled": 0, "fusion_lat": 0.0, "bike_id": "29d86a2388391e750081477f93af144a", "rental_uris": {"ios": "https://dc.lft.to/lastmile_qr_scan", "android": "https://dc.lft.to/lastmile_qr_scan"}}, {"name": "e00d05fa1b051eb720626c42d6f0c6d7", "type": "electric_scooter", "lat": 38.883578166666666, "is_reserved": 0, "lon": -76.98563683333333, "fusion_lon": 0.0, "is_disabled": 0, "fusion_lat": 0.0, "bike_id": "e00d05fa1b051eb720626c42d6f0c6d7", "rental_uris": {"ios": "https://dc.lft.to/lastmile_qr_scan", "android": "https://dc.lft.to/lastmile_qr_scan"}}, {"name": "421dcf713e7b8e4cf17264d15e4fccf6", "type": "electric_bike", "lat": 38.89068666666667, "is_reserved": 0, "lon": -77.07903066666667, "fusion_lon": 0.0, "is_disabled": 0, "fusion_lat": 0.0, "bike_id": "421dcf713e7b8e4cf17264d15e4fccf6", "rental_uris": {"ios": "https://dc.lft.to/lastmile_qr_scan", "android": "https://dc.lft.to/lastmile_qr_scan"}}, {"name": "0f2214adcee0ece61081089c46b530dc", "type": "electric_scooter", "lat": 38.89233883333333, "is_reserved": 0, "lon": -77.05000816666667, "fusion_lon": 0.0, "is_disabled": 0, "fusion_lat": 0.0, "bike_id": "0f2214adcee0ece61081089c46b530dc", "rental_uris": {"ios": "https://dc.lft.to/lastmile_qr_scan", "android": "https://dc.lft.to/lastmile_qr_scan"}}, {"name": "286e463c8593d22b3c2497c188e0a7ec", "type": "electric_scooter", "lat": 38.91267033333333, "is_reserved": 0, "lon": -77.00964733333333, "fusion_lon": 0.0, "is_disabled": 0, "fusion_lat": 0.0, "bike_id": "286e463c8593d22b3c2497c188e0a7ec", "rental_uris": {"ios": "https://dc.lft.to/lastmile_qr_scan", "android": "https://dc.lft.to/lastmile_qr_scan"}}, {"name": "a7c24428d9cd3f0a0f0b56c3717edf6c", "type": "electric_scooter", "lat": 38.925949, "is_reserved": 0, "lon": -77.00475733333333, "fusion_lon": 0.0, "is_disabled": 0, "fusion_lat": 0.0, "bike_id": "a7c24428d9cd3f0a0f0b56c3717edf6c", "rental_uris": {"ios": "https://dc.lft.to/lastmile_qr_scan", "android": "https://dc.lft.to/lastmile_qr_scan"}}, {"name": "76fe6ccf25a73b0eb4f5ddbb37441066", "type": "electric_scooter", "lat": 38.93534566666666, "is_reserved": 0, "lon": -77.0285265, "fusion_lon": 0.0, "is_disabled": 0, "fusion_lat": 0.0, "bike_id": "76fe6ccf25a73b0eb4f5ddbb37441066", "rental_uris": {"ios": "https://dc.lft.to/lastmile_qr_scan", "android": "https://dc.lft.to/lastmile_qr_scan"}}, {"name": "50d21a7915162d40a05f43e1b4f2ce99", "type": "electric_scooter", "lat": 38.8923555, "is_reserved": 0, "lon": -77.02796366666666, "fusion_lon": 0.0, "is_disabled": 0, "fusion_lat": 0.0, "bike_id": "50d21a7915162d40a05f43e1b4f2ce99", "rental_uris": {"ios": "https://dc.lft.to/lastmile_qr_scan", "android": "https://dc.lft.to/lastmile_qr_scan"}}, {"name": "de704881ffaeb1e4cd2d2e96ed1461d3", "type": "electric_scooter", "lat": 38.88366666666667, "is_reserved": 0, "lon": -77.03174216666666, "fusion_lon": 0.0, "is_disabled": 0, "fusion_lat": 0.0, "bike_id": "de704881ffaeb1e4cd2d2e96ed1461d3", "rental_uris": {"ios": "https://dc.lft.to/lastmile_qr_scan", "android": "https://dc.lft.to/lastmile_qr_scan"}}, {"name": "4056aa4ff9cb2acab1d6a5d12e749fec", "type": "electric_scooter", "lat": 38.93154466666667, "is_reserved": 0, "lon": -77.03896133333333, "fusion_lon": 0.0, "is_disabled": 0, "fusion_lat": 0.0, "bike_id": "4056aa4ff9cb2acab1d6a5d12e749fec", "rental_uris": {"ios": "https://dc.lft.to/lastmile_qr_scan", "android": "https://dc.lft.to/lastmile_qr_scan"}}, {"name": "291e70c2802afca036b9d427defd354d", "type": "electric_scooter", "lat": 38.89833483333334, "is_reserved": 0, "lon": -76.94632933333334, "fusion_lon": 0.0, "is_disabled": 0, "fusion_lat": 0.0, "bike_id": "291e70c2802afca036b9d427defd354d", "rental_uris": {"ios": "https://dc.lft.to/lastmile_qr_scan", "android": "https://dc.lft.to/lastmile_qr_scan"}}, {"name": "02349c04b9e5c1680068f1bf50d59fa8", "type": "electric_scooter", "lat": 38.89222266666667, "is_reserved": 0, "lon": -77.043269, "fusion_lon": 0.0, "is_disabled": 0, "fusion_lat": 0.0, "bike_id": "02349c04b9e5c1680068f1bf50d59fa8", "rental_uris": {"ios": "https://dc.lft.to/lastmile_qr_scan", "android": "https://dc.lft.to/lastmile_qr_scan"}}, {"name": "25f405dbff22cc30b16e61274eed0b47", "type": "electric_scooter", "lat": 38.90685766666667, "is_reserved": 0, "lon": -77.0756835, "fusion_lon": 0.0, "is_disabled": 0, "fusion_lat": 0.0, "bike_id": "25f405dbff22cc30b16e61274eed0b47", "rental_uris": {"ios": "https://dc.lft.to/lastmile_qr_scan", "android": "https://dc.lft.to/lastmile_qr_scan"}}, {"name": "d98b8c552dafbfd90d9190924a0d24cb", "type": "electric_scooter", "lat": 38.8763395, "is_reserved": 0, "lon": -77.0092005, "fusion_lon": 0.0, "is_disabled": 0, "fusion_lat": 0.0, "bike_id": "d98b8c552dafbfd90d9190924a0d24cb", "rental_uris": {"ios": "https://dc.lft.to/lastmile_qr_scan", "android": "https://dc.lft.to/lastmile_qr_scan"}}, {"name": "23f17c87e16d7bbe07144297364dae3d", "type": "electric_scooter", "lat": 38.8770965, "is_reserved": 0, "lon": -77.01848133333333, "fusion_lon": 0.0, "is_disabled": 0, "fusion_lat": 0.0, "bike_id": "23f17c87e16d7bbe07144297364dae3d", "rental_uris": {"ios": "https://dc.lft.to/lastmile_qr_scan", "android": "https://dc.lft.to/lastmile_qr_scan"}}, {"name": "de1639265a7df2f5b7893d938cc0260b", "type": "electric_scooter", "lat": 38.92879283333333, "is_reserved": 0, "lon": -77.04051766666667, "fusion_lon": 0.0, "is_disabled": 0, "fusion_lat": 0.0, "bike_id": "de1639265a7df2f5b7893d938cc0260b", "rental_uris": {"ios": "https://dc.lft.to/lastmile_qr_scan", "android": "https://dc.lft.to/lastmile_qr_scan"}}, {"name": "13fef4450abcec50abc9a9c384ec1931", "type": "electric_bike", "lat": 38.93671966666667, "is_reserved": 0, "lon": -76.952068, "fusion_lon": 0.0, "is_disabled": 0, "fusion_lat": 0.0, "bike_id": "13fef4450abcec50abc9a9c384ec1931", "rental_uris": {"ios": "https://dc.lft.to/lastmile_qr_scan", "android": "https://dc.lft.to/lastmile_qr_scan"}}, {"name": "73506b2c44dbd7fea3c1ad6323f60eaa", "type": "electric_bike", "lat": 38.954680333333336, "is_reserved": 0, "lon": -76.9900835, "fusion_lon": 0.0, "is_disabled": 0, "fusion_lat": 0.0, "bike_id": "73506b2c44dbd7fea3c1ad6323f60eaa", "rental_uris": {"ios": "https://dc.lft.to/lastmile_qr_scan", "android": "https://dc.lft.to/lastmile_qr_scan"}}, {"name": "495ef0c065033adb41dc235885dad2de", "type": "electric_scooter", "lat": 38.911987, "is_reserved": 0, "lon": -77.03218866666667, "fusion_lon": 0.0, "is_disabled": 0, "fusion_lat": 0.0, "bike_id": "495ef0c065033adb41dc235885dad2de", "rental_uris": {"ios": "https://dc.lft.to/lastmile_qr_scan", "android": "https://dc.lft.to/lastmile_qr_scan"}}, {"name": "d9e3f4864d5147adabf8720b7a265e1c", "type": "electric_scooter", "lat": 38.9019845, "is_reserved": 0, "lon": -77.02184766666667, "fusion_lon": 0.0, "is_disabled": 0, "fusion_lat": 0.0, "bike_id": "d9e3f4864d5147adabf8720b7a265e1c", "rental_uris": {"ios": "https://dc.lft.to/lastmile_qr_scan", "android": "https://dc.lft.to/lastmile_qr_scan"}}, {"name": "2734e942a9cde99781ad55f5adb3dd76", "type": "electric_scooter", "lat": 38.92246866666667, "is_reserved": 0, "lon": -77.03085266666666, "fusion_lon": 0.0, "is_disabled": 0, "fusion_lat": 0.0, "bike_id": "2734e942a9cde99781ad55f5adb3dd76", "rental_uris": {"ios": "https://dc.lft.to/lastmile_qr_scan", "android": "https://dc.lft.to/lastmile_qr_scan"}}, {"name": "5b8dd419331aa303b37da5a72e902a2a", "type": "electric_scooter", "lat": 38.885180166666665, "is_reserved": 0, "lon": -77.03347833333333, "fusion_lon": 0.0, "is_disabled": 0, "fusion_lat": 0.0, "bike_id": "5b8dd419331aa303b37da5a72e902a2a", "rental_uris": {"ios": "https://dc.lft.to/lastmile_qr_scan", "android": "https://dc.lft.to/lastmile_qr_scan"}}, {"name": "4810bfd77e8edef9a21abc5f29cfe0dc", "type": "electric_scooter", "lat": 38.9041455, "is_reserved": 0, "lon": -76.973327, "fusion_lon": 0.0, "is_disabled": 0, "fusion_lat": 0.0, "bike_id": "4810bfd77e8edef9a21abc5f29cfe0dc", "rental_uris": {"ios": "https://dc.lft.to/lastmile_qr_scan", "android": "https://dc.lft.to/lastmile_qr_scan"}}, {"name": "bb75ce1e7c496e1068734c45a2371844", "type": "electric_scooter", "lat": 38.8852, "is_reserved": 0, "lon": -76.97706583333333, "fusion_lon": 0.0, "is_disabled": 0, "fusion_lat": 0.0, "bike_id": "bb75ce1e7c496e1068734c45a2371844", "rental_uris": {"ios": "https://dc.lft.to/lastmile_qr_scan", "android": "https://dc.lft.to/lastmile_qr_scan"}}, {"name": "169ff64df71347d7b50c2103d02fd2ed", "type": "electric_scooter", "lat": 38.904376666666664, "is_reserved": 0, "lon": -76.984907, "fusion_lon": 0.0, "is_disabled": 0, "fusion_lat": 0.0, "bike_id": "169ff64df71347d7b50c2103d02fd2ed", "rental_uris": {"ios": "https://dc.lft.to/lastmile_qr_scan", "android": "https://dc.lft.to/lastmile_qr_scan"}}, {"name": "9d521720d913b67f734cb84cc332cd62", "type": "electric_scooter", "lat": 38.89226083333333, "is_reserved": 0, "lon": -77.03214116666666, "fusion_lon": 0.0, "is_disabled": 0, "fusion_lat": 0.0, "bike_id": "9d521720d913b67f734cb84cc332cd62", "rental_uris": {"ios": "https://dc.lft.to/lastmile_qr_scan", "android": "https://dc.lft.to/lastmile_qr_scan"}}, {"name": "23ffac1f4d63bbca4b52bb6e2ee79da1", "type": "electric_scooter", "lat": 38.902686833333334, "is_reserved": 0, "lon": -77.0531365, "fusion_lon": 0.0, "is_disabled": 0, "fusion_lat": 0.0, "bike_id": "23ffac1f4d63bbca4b52bb6e2ee79da1", "rental_uris": {"ios": "https://dc.lft.to/lastmile_qr_scan", "android": "https://dc.lft.to/lastmile_qr_scan"}}, {"name": "752022698db36dd35772ffb6b8e20b10", "type": "electric_bike", "lat": 38.882664166666665, "is_reserved": 0, "lon": -76.99933933333334, "fusion_lon": 0.0, "is_disabled": 0, "fusion_lat": 0.0, "bike_id": "752022698db36dd35772ffb6b8e20b10", "rental_uris": {"ios": "https://dc.lft.to/lastmile_qr_scan", "android": "https://dc.lft.to/lastmile_qr_scan"}}, {"name": "f55ea6b0bdcd4f1fba7952d9401f07c1", "type": "electric_scooter", "lat": 38.9317095, "is_reserved": 0, "lon": -77.02848816666666, "fusion_lon": 0.0, "is_disabled": 0, "fusion_lat": 0.0, "bike_id": "f55ea6b0bdcd4f1fba7952d9401f07c1", "rental_uris": {"ios": "https://dc.lft.to/lastmile_qr_scan", "android": "https://dc.lft.to/lastmile_qr_scan"}}, {"name": "6b4d334cbe6e3e38dfdd38a95ed6b0cd", "type": "electric_scooter", "lat": 38.910133, "is_reserved": 0, "lon": -77.02198666666666, "fusion_lon": 0.0, "is_disabled": 0, "fusion_lat": 0.0, "bike_id": "6b4d334cbe6e3e38dfdd38a95ed6b0cd", "rental_uris": {"ios": "https://dc.lft.to/lastmile_qr_scan", "android": "https://dc.lft.to/lastmile_qr_scan"}}, {"name": "6690a21e453c919fbb790defba43526d", "type": "electric_scooter", "lat": 38.940135, "is_reserved": 0, "lon": -77.07168383333334, "fusion_lon": 0.0, "is_disabled": 0, "fusion_lat": 0.0, "bike_id": "6690a21e453c919fbb790defba43526d", "rental_uris": {"ios": "https://dc.lft.to/lastmile_qr_scan", "android": "https://dc.lft.to/lastmile_qr_scan"}}, {"name": "d7b1f4b68ece9b4114a78d4414b1723b", "type": "electric_scooter", "lat": 38.91691566666667, "is_reserved": 0, "lon": -77.01226, "fusion_lon": 0.0, "is_disabled": 0, "fusion_lat": 0.0, "bike_id": "d7b1f4b68ece9b4114a78d4414b1723b", "rental_uris": {"ios": "https://dc.lft.to/lastmile_qr_scan", "android": "https://dc.lft.to/lastmile_qr_scan"}}, {"name": "434a6311671a836cddd6ba618c6c04c5", "type": "electric_scooter", "lat": 38.90438616666667, "is_reserved": 0, "lon": -77.05146983333333, "fusion_lon": 0.0, "is_disabled": 0, "fusion_lat": 0.0, "bike_id": "434a6311671a836cddd6ba618c6c04c5", "rental_uris": {"ios": "https://dc.lft.to/lastmile_qr_scan", "android": "https://dc.lft.to/lastmile_qr_scan"}}, {"name": "ce4d1168e663ef674a6ac560b89cb98b", "type": "electric_scooter", "lat": 38.90896716666666, "is_reserved": 0, "lon": -77.0314565, "fusion_lon": 0.0, "is_disabled": 0, "fusion_lat": 0.0, "bike_id": "ce4d1168e663ef674a6ac560b89cb98b", "rental_uris": {"ios": "https://dc.lft.to/lastmile_qr_scan", "android": "https://dc.lft.to/lastmile_qr_scan"}}, {"name": "66f0d2205532bdd3dd224ae8aaa8b974", "type": "electric_scooter", "lat": 38.9192395, "is_reserved": 0, "lon": -77.03430333333333, "fusion_lon": 0.0, "is_disabled": 0, "fusion_lat": 0.0, "bike_id": "66f0d2205532bdd3dd224ae8aaa8b974", "rental_uris": {"ios": "https://dc.lft.to/lastmile_qr_scan", "android": "https://dc.lft.to/lastmile_qr_scan"}}, {"name": "4295f93b1ccfcc0e5996f3843cc5faf9", "type": "electric_scooter", "lat": 38.92013933333333, "is_reserved": 0, "lon": -77.03861933333333, "fusion_lon": 0.0, "is_disabled": 0, "fusion_lat": 0.0, "bike_id": "4295f93b1ccfcc0e5996f3843cc5faf9", "rental_uris": {"ios": "https://dc.lft.to/lastmile_qr_scan", "android": "https://dc.lft.to/lastmile_qr_scan"}}, {"name": "41aef1766f5d7a615868eebfab11a427", "type": "electric_scooter", "lat": 38.906678666666664, "is_reserved": 0, "lon": -77.038618, "fusion_lon": 0.0, "is_disabled": 0, "fusion_lat": 0.0, "bike_id": "41aef1766f5d7a615868eebfab11a427", "rental_uris": {"ios": "https://dc.lft.to/lastmile_qr_scan", "android": "https://dc.lft.to/lastmile_qr_scan"}}, {"name": "9fe418dc57eab5701e584182630b77fb", "type": "electric_scooter", "lat": 38.91628766666667, "is_reserved": 0, "lon": -77.01329616666666, "fusion_lon": 0.0, "is_disabled": 0, "fusion_lat": 0.0, "bike_id": "9fe418dc57eab5701e584182630b77fb", "rental_uris": {"ios": "https://dc.lft.to/lastmile_qr_scan", "android": "https://dc.lft.to/lastmile_qr_scan"}}, {"name": "733985433189e4723a02b95253c62dc7", "type": "electric_scooter", "lat": 38.91582583333334, "is_reserved": 0, "lon": -77.04508933333334, "fusion_lon": 0.0, "is_disabled": 0, "fusion_lat": 0.0, "bike_id": "733985433189e4723a02b95253c62dc7", "rental_uris": {"ios": "https://dc.lft.to/lastmile_qr_scan", "android": "https://dc.lft.to/lastmile_qr_scan"}}, {"name": "7917adb90403341f8f5bc9481eaa3461", "type": "electric_scooter", "lat": 38.906152, "is_reserved": 0, "lon": -77.07491516666667, "fusion_lon": 0.0, "is_disabled": 0, "fusion_lat": 0.0, "bike_id": "7917adb90403341f8f5bc9481eaa3461", "rental_uris": {"ios": "https://dc.lft.to/lastmile_qr_scan", "android": "https://dc.lft.to/lastmile_qr_scan"}}, {"name": "56a8e6ce0a48158dc2a7f3f51026d7e6", "type": "electric_bike", "lat": 39.03888466666667, "is_reserved": 0, "lon": -76.99044116666667, "fusion_lon": 0.0, "is_disabled": 0, "fusion_lat": 0.0, "bike_id": "56a8e6ce0a48158dc2a7f3f51026d7e6", "rental_uris": {"ios": "https://dc.lft.to/lastmile_qr_scan", "android": "https://dc.lft.to/lastmile_qr_scan"}}, {"name": "9dc7bc73bc6b2c39a9714f1fc132ed9d", "type": "electric_scooter", "lat": 38.9001215, "is_reserved": 0, "lon": -76.99118333333334, "fusion_lon": 0.0, "is_disabled": 0, "fusion_lat": 0.0, "bike_id": "9dc7bc73bc6b2c39a9714f1fc132ed9d", "rental_uris": {"ios": "https://dc.lft.to/lastmile_qr_scan", "android": "https://dc.lft.to/lastmile_qr_scan"}}, {"name": "3892de58899dccaecdf4fdd75a9c3930", "type": "electric_scooter", "lat": 38.90509616666667, "is_reserved": 0, "lon": -77.04351283333334, "fusion_lon": 0.0, "is_disabled": 0, "fusion_lat": 0.0, "bike_id": "3892de58899dccaecdf4fdd75a9c3930", "rental_uris": {"ios": "https://dc.lft.to/lastmile_qr_scan", "android": "https://dc.lft.to/lastmile_qr_scan"}}, {"name": "0792d970106af5870eb28298971769e6", "type": "electric_scooter", "lat": 38.90088866666667, "is_reserved": 0, "lon": -77.05018033333333, "fusion_lon": 0.0, "is_disabled": 0, "fusion_lat": 0.0, "bike_id": "0792d970106af5870eb28298971769e6", "rental_uris": {"ios": "https://dc.lft.to/lastmile_qr_scan", "android": "https://dc.lft.to/lastmile_qr_scan"}}, {"name": "902494a7698feb5b0c9fc06f8a35487c", "type": "electric_scooter", "lat": 38.921656666666664, "is_reserved": 0, "lon": -77.032559, "fusion_lon": 0.0, "is_disabled": 0, "fusion_lat": 0.0, "bike_id": "902494a7698feb5b0c9fc06f8a35487c", "rental_uris": {"ios": "https://dc.lft.to/lastmile_qr_scan", "android": "https://dc.lft.to/lastmile_qr_scan"}}, {"name": "15818ec5b4b8ce1ee39b04aac98eeef8", "type": "electric_scooter", "lat": 38.882977, "is_reserved": 0, "lon": -77.0173845, "fusion_lon": 0.0, "is_disabled": 0, "fusion_lat": 0.0, "bike_id": "15818ec5b4b8ce1ee39b04aac98eeef8", "rental_uris": {"ios": "https://dc.lft.to/lastmile_qr_scan", "android": "https://dc.lft.to/lastmile_qr_scan"}}, {"name": "4c400ba6acc660bb2c3e336994a43b86", "type": "electric_scooter", "lat": 38.943031166666664, "is_reserved": 0, "lon": -77.059233, "fusion_lon": 0.0, "is_disabled": 0, "fusion_lat": 0.0, "bike_id": "4c400ba6acc660bb2c3e336994a43b86", "rental_uris": {"ios": "https://dc.lft.to/lastmile_qr_scan", "android": "https://dc.lft.to/lastmile_qr_scan"}}, {"name": "a0aa7ac4a0905ec672156f7358650267", "type": "electric_scooter", "lat": 38.918178833333336, "is_reserved": 0, "lon": -77.03438666666666, "fusion_lon": 0.0, "is_disabled": 0, "fusion_lat": 0.0, "bike_id": "a0aa7ac4a0905ec672156f7358650267", "rental_uris": {"ios": "https://dc.lft.to/lastmile_qr_scan", "android": "https://dc.lft.to/lastmile_qr_scan"}}, {"name": "f64a4f0eae188334fbc97c5898ea13c2", "type": "electric_scooter", "lat": 38.90110833333333, "is_reserved": 0, "lon": -77.04150283333334, "fusion_lon": 0.0, "is_disabled": 0, "fusion_lat": 0.0, "bike_id": "f64a4f0eae188334fbc97c5898ea13c2", "rental_uris": {"ios": "https://dc.lft.to/lastmile_qr_scan", "android": "https://dc.lft.to/lastmile_qr_scan"}}, {"name": "8469a0e85119095ea14bed5218748749", "type": "electric_bike", "lat": 38.948335166666666, "is_reserved": 0, "lon": -77.0389745, "fusion_lon": 0.0, "is_disabled": 0, "fusion_lat": 0.0, "bike_id": "8469a0e85119095ea14bed5218748749", "rental_uris": {"ios": "https://dc.lft.to/lastmile_qr_scan", "android": "https://dc.lft.to/lastmile_qr_scan"}}, {"name": "040183a989aad34cb48a6cc3771d59ed", "type": "electric_scooter", "lat": 38.91218533333333, "is_reserved": 0, "lon": -77.04449683333333, "fusion_lon": 0.0, "is_disabled": 0, "fusion_lat": 0.0, "bike_id": "040183a989aad34cb48a6cc3771d59ed", "rental_uris": {"ios": "https://dc.lft.to/lastmile_qr_scan", "android": "https://dc.lft.to/lastmile_qr_scan"}}, {"name": "7d6bcf14ae07ff0c3cbcdf2deab50e23", "type": "electric_scooter", "lat": 38.927341, "is_reserved": 0, "lon": -77.02981516666667, "fusion_lon": 0.0, "is_disabled": 0, "fusion_lat": 0.0, "bike_id": "7d6bcf14ae07ff0c3cbcdf2deab50e23", "rental_uris": {"ios": "https://dc.lft.to/lastmile_qr_scan", "android": "https://dc.lft.to/lastmile_qr_scan"}}, {"name": "43e5181d4ee9d8e5e5a8548b46f92c96", "type": "electric_scooter", "lat": 38.89481766666667, "is_reserved": 0, "lon": -77.03052366666667, "fusion_lon": 0.0, "is_disabled": 0, "fusion_lat": 0.0, "bike_id": "43e5181d4ee9d8e5e5a8548b46f92c96", "rental_uris": {"ios": "https://dc.lft.to/lastmile_qr_scan", "android": "https://dc.lft.to/lastmile_qr_scan"}}, {"name": "b47c7c951ed6ef8f3e31046de9ae0477", "type": "electric_scooter", "lat": 38.934954166666664, "is_reserved": 0, "lon": -77.032778, "fusion_lon": 0.0, "is_disabled": 0, "fusion_lat": 0.0, "bike_id": "b47c7c951ed6ef8f3e31046de9ae0477", "rental_uris": {"ios": "https://dc.lft.to/lastmile_qr_scan", "android": "https://dc.lft.to/lastmile_qr_scan"}}, {"name": "9749dd4e7ef4a824af5c45ebbe8b554f", "type": "electric_scooter", "lat": 38.9390255, "is_reserved": 0, "lon": -77.07728633333333, "fusion_lon": 0.0, "is_disabled": 0, "fusion_lat": 0.0, "bike_id": "9749dd4e7ef4a824af5c45ebbe8b554f", "rental_uris": {"ios": "https://dc.lft.to/lastmile_qr_scan", "android": "https://dc.lft.to/lastmile_qr_scan"}}, {"name": "57135d9502a61e6e780371b39d44b463", "type": "electric_scooter", "lat": 38.91216, "is_reserved": 0, "lon": -77.0758775, "fusion_lon": 0.0, "is_disabled": 0, "fusion_lat": 0.0, "bike_id": "57135d9502a61e6e780371b39d44b463", "rental_uris": {"ios": "https://dc.lft.to/lastmile_qr_scan", "android": "https://dc.lft.to/lastmile_qr_scan"}}, {"name": "0bde86007fe6fb208212a5485f4d31b7", "type": "electric_scooter", "lat": 38.933859, "is_reserved": 0, "lon": -77.0346555, "fusion_lon": 0.0, "is_disabled": 0, "fusion_lat": 0.0, "bike_id": "0bde86007fe6fb208212a5485f4d31b7", "rental_uris": {"ios": "https://dc.lft.to/lastmile_qr_scan", "android": "https://dc.lft.to/lastmile_qr_scan"}}, {"name": "74556cddbbf80619de950afadee61459", "type": "electric_scooter", "lat": 38.88132066666667, "is_reserved": 0, "lon": -77.016556, "fusion_lon": 0.0, "is_disabled": 0, "fusion_lat": 0.0, "bike_id": "74556cddbbf80619de950afadee61459", "rental_uris": {"ios": "https://dc.lft.to/lastmile_qr_scan", "android": "https://dc.lft.to/lastmile_qr_scan"}}, {"name": "5a7b395edae218af172d4b6f1e8e3421", "type": "electric_scooter", "lat": 38.93507183333333, "is_reserved": 0, "lon": -77.01999083333334, "fusion_lon": 0.0, "is_disabled": 0, "fusion_lat": 0.0, "bike_id": "5a7b395edae218af172d4b6f1e8e3421", "rental_uris": {"ios": "https://dc.lft.to/lastmile_qr_scan", "android": "https://dc.lft.to/lastmile_qr_scan"}}, {"name": "b4de0fbfd2cf005effec62be8d4d7eed", "type": "electric_scooter", "lat": 38.918352, "is_reserved": 0, "lon": -77.03171566666667, "fusion_lon": 0.0, "is_disabled": 0, "fusion_lat": 0.0, "bike_id": "b4de0fbfd2cf005effec62be8d4d7eed", "rental_uris": {"ios": "https://dc.lft.to/lastmile_qr_scan", "android": "https://dc.lft.to/lastmile_qr_scan"}}, {"name": "bc5f2329d2219e076723c363e9843e73", "type": "electric_bike", "lat": 38.92212833333333, "is_reserved": 0, "lon": -76.98798116666667, "fusion_lon": 0.0, "is_disabled": 0, "fusion_lat": 0.0, "bike_id": "bc5f2329d2219e076723c363e9843e73", "rental_uris": {"ios": "https://dc.lft.to/lastmile_qr_scan", "android": "https://dc.lft.to/lastmile_qr_scan"}}, {"name": "82b6bc661ce7c117e685d0938bf830b5", "type": "electric_scooter", "lat": 38.90264066666667, "is_reserved": 0, "lon": -77.00328883333333, "fusion_lon": 0.0, "is_disabled": 0, "fusion_lat": 0.0, "bike_id": "82b6bc661ce7c117e685d0938bf830b5", "rental_uris": {"ios": "https://dc.lft.to/lastmile_qr_scan", "android": "https://dc.lft.to/lastmile_qr_scan"}}, {"name": "b6768e93d885d7df6c880f32f986b26f", "type": "electric_scooter", "lat": 38.90367916666667, "is_reserved": 0, "lon": -77.0165395, "fusion_lon": 0.0, "is_disabled": 0, "fusion_lat": 0.0, "bike_id": "b6768e93d885d7df6c880f32f986b26f", "rental_uris": {"ios": "https://dc.lft.to/lastmile_qr_scan", "android": "https://dc.lft.to/lastmile_qr_scan"}}, {"name": "0bd252978b0af4ca6a3f219f4768a64b", "type": "electric_bike", "lat": 38.875851833333336, "is_reserved": 0, "lon": -77.105707, "fusion_lon": 0.0, "is_disabled": 0, "fusion_lat": 0.0, "bike_id": "0bd252978b0af4ca6a3f219f4768a64b", "rental_uris": {"ios": "https://dc.lft.to/lastmile_qr_scan", "android": "https://dc.lft.to/lastmile_qr_scan"}}, {"name": "171568c59d40eab2c296107e0484f6b6", "type": "electric_scooter", "lat": 38.884008333333334, "is_reserved": 0, "lon": -76.93041933333333, "fusion_lon": 0.0, "is_disabled": 0, "fusion_lat": 0.0, "bike_id": "171568c59d40eab2c296107e0484f6b6", "rental_uris": {"ios": "https://dc.lft.to/lastmile_qr_scan", "android": "https://dc.lft.to/lastmile_qr_scan"}}, {"name": "91ef348fd99c6fb95f8a0dc56266168a", "type": "electric_scooter", "lat": 38.88757, "is_reserved": 0, "lon": -76.97981266666666, "fusion_lon": 0.0, "is_disabled": 0, "fusion_lat": 0.0, "bike_id": "91ef348fd99c6fb95f8a0dc56266168a", "rental_uris": {"ios": "https://dc.lft.to/lastmile_qr_scan", "android": "https://dc.lft.to/lastmile_qr_scan"}}, {"name": "19dbdf6953a74ff9cf8479dce28cc5c3", "type": "electric_scooter", "lat": 38.93359366666667, "is_reserved": 0, "lon": -77.02977116666666, "fusion_lon": 0.0, "is_disabled": 0, "fusion_lat": 0.0, "bike_id": "19dbdf6953a74ff9cf8479dce28cc5c3", "rental_uris": {"ios": "https://dc.lft.to/lastmile_qr_scan", "android": "https://dc.lft.to/lastmile_qr_scan"}}, {"name": "16d136f7a50e8de12a15e25b5fd3783d", "type": "electric_scooter", "lat": 38.94365, "is_reserved": 0, "lon": -77.0217835, "fusion_lon": 0.0, "is_disabled": 0, "fusion_lat": 0.0, "bike_id": "16d136f7a50e8de12a15e25b5fd3783d", "rental_uris": {"ios": "https://dc.lft.to/lastmile_qr_scan", "android": "https://dc.lft.to/lastmile_qr_scan"}}, {"name": "434d29805576eeb9c8e68591b52d3fa1", "type": "electric_scooter", "lat": 38.89635416666667, "is_reserved": 0, "lon": -77.03225966666666, "fusion_lon": 0.0, "is_disabled": 0, "fusion_lat": 0.0, "bike_id": "434d29805576eeb9c8e68591b52d3fa1", "rental_uris": {"ios": "https://dc.lft.to/lastmile_qr_scan", "android": "https://dc.lft.to/lastmile_qr_scan"}}, {"name": "fbea990d3b36d6ea32493921e53fb112", "type": "electric_scooter", "lat": 38.89503233333333, "is_reserved": 0, "lon": -77.010103, "fusion_lon": 0.0, "is_disabled": 0, "fusion_lat": 0.0, "bike_id": "fbea990d3b36d6ea32493921e53fb112", "rental_uris": {"ios": "https://dc.lft.to/lastmile_qr_scan", "android": "https://dc.lft.to/lastmile_qr_scan"}}, {"name": "abc0a7331704d7fafeac80e0de7ca442", "type": "electric_bike", "lat": 38.88003533333333, "is_reserved": 0, "lon": -76.91596533333333, "fusion_lon": 0.0, "is_disabled": 0, "fusion_lat": 0.0, "bike_id": "abc0a7331704d7fafeac80e0de7ca442", "rental_uris": {"ios": "https://dc.lft.to/lastmile_qr_scan", "android": "https://dc.lft.to/lastmile_qr_scan"}}, {"name": "71e569381300ff33d3e791c9ee1cc834", "type": "electric_scooter", "lat": 38.91886616666667, "is_reserved": 0, "lon": -77.04383366666667, "fusion_lon": 0.0, "is_disabled": 0, "fusion_lat": 0.0, "bike_id": "71e569381300ff33d3e791c9ee1cc834", "rental_uris": {"ios": "https://dc.lft.to/lastmile_qr_scan", "android": "https://dc.lft.to/lastmile_qr_scan"}}, {"name": "9bfdd32ea18588b0bbcbbdf19e19519e", "type": "electric_scooter", "lat": 38.93536483333333, "is_reserved": 0, "lon": -77.036932, "fusion_lon": 0.0, "is_disabled": 0, "fusion_lat": 0.0, "bike_id": "9bfdd32ea18588b0bbcbbdf19e19519e", "rental_uris": {"ios": "https://dc.lft.to/lastmile_qr_scan", "android": "https://dc.lft.to/lastmile_qr_scan"}}, {"name": "679fba4d27a1783483795fce273d9f99", "type": "electric_scooter", "lat": 38.92528933333333, "is_reserved": 0, "lon": -77.05554033333334, "fusion_lon": 0.0, "is_disabled": 0, "fusion_lat": 0.0, "bike_id": "679fba4d27a1783483795fce273d9f99", "rental_uris": {"ios": "https://dc.lft.to/lastmile_qr_scan", "android": "https://dc.lft.to/lastmile_qr_scan"}}, {"name": "c65b5e5c63742e890ff4806412f81103", "type": "electric_scooter", "lat": 38.90147266666666, "is_reserved": 0, "lon": -76.93061616666667, "fusion_lon": 0.0, "is_disabled": 0, "fusion_lat": 0.0, "bike_id": "c65b5e5c63742e890ff4806412f81103", "rental_uris": {"ios": "https://dc.lft.to/lastmile_qr_scan", "android": "https://dc.lft.to/lastmile_qr_scan"}}, {"name": "6d6d4ce8e92784ac1908b3c77ba1c1c0", "type": "electric_scooter", "lat": 38.91576883333333, "is_reserved": 0, "lon": -77.04464733333333, "fusion_lon": 0.0, "is_disabled": 0, "fusion_lat": 0.0, "bike_id": "6d6d4ce8e92784ac1908b3c77ba1c1c0", "rental_uris": {"ios": "https://dc.lft.to/lastmile_qr_scan", "android": "https://dc.lft.to/lastmile_qr_scan"}}, {"name": "e3d5dd30aecffd5ead660a2c73d42972", "type": "electric_scooter", "lat": 38.9357835, "is_reserved": 0, "lon": -76.99104033333333, "fusion_lon": 0.0, "is_disabled": 0, "fusion_lat": 0.0, "bike_id": "e3d5dd30aecffd5ead660a2c73d42972", "rental_uris": {"ios": "https://dc.lft.to/lastmile_qr_scan", "android": "https://dc.lft.to/lastmile_qr_scan"}}, {"name": "f3bda526906485ee0ad798e718c49f1d", "type": "electric_scooter", "lat": 38.922244166666665, "is_reserved": 0, "lon": -77.033545, "fusion_lon": 0.0, "is_disabled": 0, "fusion_lat": 0.0, "bike_id": "f3bda526906485ee0ad798e718c49f1d", "rental_uris": {"ios": "https://dc.lft.to/lastmile_qr_scan", "android": "https://dc.lft.to/lastmile_qr_scan"}}, {"name": "ca7e0ac899b236f391f3b77844072233", "type": "electric_scooter", "lat": 38.924736333333335, "is_reserved": 0, "lon": -77.03778466666667, "fusion_lon": 0.0, "is_disabled": 0, "fusion_lat": 0.0, "bike_id": "ca7e0ac899b236f391f3b77844072233", "rental_uris": {"ios": "https://dc.lft.to/lastmile_qr_scan", "android": "https://dc.lft.to/lastmile_qr_scan"}}, {"name": "6fd14e8871a84a528e8f5d380ff6b39f", "type": "electric_scooter", "lat": 38.926912, "is_reserved": 0, "lon": -77.09557666666667, "fusion_lon": 0.0, "is_disabled": 0, "fusion_lat": 0.0, "bike_id": "6fd14e8871a84a528e8f5d380ff6b39f", "rental_uris": {"ios": "https://dc.lft.to/lastmile_qr_scan", "android": "https://dc.lft.to/lastmile_qr_scan"}}, {"name": "d8e6abdbbaea0448b94a1367c2440440", "type": "electric_scooter", "lat": 38.92476, "is_reserved": 0, "lon": -77.02838983333334, "fusion_lon": 0.0, "is_disabled": 0, "fusion_lat": 0.0, "bike_id": "d8e6abdbbaea0448b94a1367c2440440", "rental_uris": {"ios": "https://dc.lft.to/lastmile_qr_scan", "android": "https://dc.lft.to/lastmile_qr_scan"}}, {"name": "ab20c0a0491eb12884b21568523b7b35", "type": "electric_scooter", "lat": 38.91087, "is_reserved": 0, "lon": -77.038447, "fusion_lon": 0.0, "is_disabled": 0, "fusion_lat": 0.0, "bike_id": "ab20c0a0491eb12884b21568523b7b35", "rental_uris": {"ios": "https://dc.lft.to/lastmile_qr_scan", "android": "https://dc.lft.to/lastmile_qr_scan"}}, {"name": "03ed4de9678ba611abe312384b0fe4da", "type": "electric_scooter", "lat": 38.908417666666665, "is_reserved": 0, "lon": -77.02693866666667, "fusion_lon": 0.0, "is_disabled": 0, "fusion_lat": 0.0, "bike_id": "03ed4de9678ba611abe312384b0fe4da", "rental_uris": {"ios": "https://dc.lft.to/lastmile_qr_scan", "android": "https://dc.lft.to/lastmile_qr_scan"}}, {"name": "8c332e5d1d6902d665962c22c4cda727", "type": "electric_scooter", "lat": 38.89404366666667, "is_reserved": 0, "lon": -76.9480055, "fusion_lon": 0.0, "is_disabled": 0, "fusion_lat": 0.0, "bike_id": "8c332e5d1d6902d665962c22c4cda727", "rental_uris": {"ios": "https://dc.lft.to/lastmile_qr_scan", "android": "https://dc.lft.to/lastmile_qr_scan"}}, {"name": "c5475a5e7d5d2bc845af4d5d543eb8fa", "type": "electric_bike", "lat": 38.99301, "is_reserved": 0, "lon": -77.025376, "fusion_lon": 0.0, "is_disabled": 0, "fusion_lat": 0.0, "bike_id": "c5475a5e7d5d2bc845af4d5d543eb8fa", "rental_uris": {"ios": "https://dc.lft.to/lastmile_qr_scan", "android": "https://dc.lft.to/lastmile_qr_scan"}}, {"name": "61f3a4560fba5a2c4743d20f6ee71c5a", "type": "electric_bike", "lat": 38.9990565, "is_reserved": 0, "lon": -77.04615283333334, "fusion_lon": 0.0, "is_disabled": 0, "fusion_lat": 0.0, "bike_id": "61f3a4560fba5a2c4743d20f6ee71c5a", "rental_uris": {"ios": "https://dc.lft.to/lastmile_qr_scan", "android": "https://dc.lft.to/lastmile_qr_scan"}}, {"name": "dcded67f810d9b1758d001f7b3499223", "type": "electric_scooter", "lat": 38.961127166666664, "is_reserved": 0, "lon": -77.02812733333333, "fusion_lon": 0.0, "is_disabled": 0, "fusion_lat": 0.0, "bike_id": "dcded67f810d9b1758d001f7b3499223", "rental_uris": {"ios": "https://dc.lft.to/lastmile_qr_scan", "android": "https://dc.lft.to/lastmile_qr_scan"}}, {"name": "0696b559119300683a4bba70a1f3e4fa", "type": "electric_scooter", "lat": 38.90728133333333, "is_reserved": 0, "lon": -77.04351166666666, "fusion_lon": 0.0, "is_disabled": 0, "fusion_lat": 0.0, "bike_id": "0696b559119300683a4bba70a1f3e4fa", "rental_uris": {"ios": "https://dc.lft.to/lastmile_qr_scan", "android": "https://dc.lft.to/lastmile_qr_scan"}}, {"name": "de4bdba7debd6ce3da4d56a848f124c5", "type": "electric_scooter", "lat": 38.919407, "is_reserved": 0, "lon": -77.044661, "fusion_lon": 0.0, "is_disabled": 0, "fusion_lat": 0.0, "bike_id": "de4bdba7debd6ce3da4d56a848f124c5", "rental_uris": {"ios": "https://dc.lft.to/lastmile_qr_scan", "android": "https://dc.lft.to/lastmile_qr_scan"}}, {"name": "5a0c011cbfbea3242b6b9db0b1e27200", "type": "electric_bike", "lat": 38.908650333333334, "is_reserved": 0, "lon": -76.931626, "fusion_lon": 0.0, "is_disabled": 0, "fusion_lat": 0.0, "bike_id": "5a0c011cbfbea3242b6b9db0b1e27200", "rental_uris": {"ios": "https://dc.lft.to/lastmile_qr_scan", "android": "https://dc.lft.to/lastmile_qr_scan"}}, {"name": "5b43f3d2eae2de645c5a6645f74dd5be", "type": "electric_scooter", "lat": 38.91335616666667, "is_reserved": 0, "lon": -77.01623266666667, "fusion_lon": 0.0, "is_disabled": 0, "fusion_lat": 0.0, "bike_id": "5b43f3d2eae2de645c5a6645f74dd5be", "rental_uris": {"ios": "https://dc.lft.to/lastmile_qr_scan", "android": "https://dc.lft.to/lastmile_qr_scan"}}, {"name": "b87dd4dee0a803d874ec3ef31af3d7f2", "type": "electric_scooter", "lat": 38.9068395, "is_reserved": 0, "lon": -77.02499983333334, "fusion_lon": 0.0, "is_disabled": 0, "fusion_lat": 0.0, "bike_id": "b87dd4dee0a803d874ec3ef31af3d7f2", "rental_uris": {"ios": "https://dc.lft.to/lastmile_qr_scan", "android": "https://dc.lft.to/lastmile_qr_scan"}}, {"name": "c5852f2e6ee826d18d04d9b228819d65", "type": "electric_scooter", "lat": 38.8934805, "is_reserved": 0, "lon": -76.993825, "fusion_lon": 0.0, "is_disabled": 0, "fusion_lat": 0.0, "bike_id": "c5852f2e6ee826d18d04d9b228819d65", "rental_uris": {"ios": "https://dc.lft.to/lastmile_qr_scan", "android": "https://dc.lft.to/lastmile_qr_scan"}}, {"name": "033e2d39514f1ad223be1c53602c3f00", "type": "electric_scooter", "lat": 38.86367116666667, "is_reserved": 0, "lon": -77.01361283333334, "fusion_lon": 0.0, "is_disabled": 0, "fusion_lat": 0.0, "bike_id": "033e2d39514f1ad223be1c53602c3f00", "rental_uris": {"ios": "https://dc.lft.to/lastmile_qr_scan", "android": "https://dc.lft.to/lastmile_qr_scan"}}, {"name": "0381fb01901ebc3e027d01b4fd19be8c", "type": "electric_scooter", "lat": 38.923029166666666, "is_reserved": 0, "lon": -77.01208216666667, "fusion_lon": 0.0, "is_disabled": 0, "fusion_lat": 0.0, "bike_id": "0381fb01901ebc3e027d01b4fd19be8c", "rental_uris": {"ios": "https://dc.lft.to/lastmile_qr_scan", "android": "https://dc.lft.to/lastmile_qr_scan"}}, {"name": "80fe260fe43943bfaa819a240f6fcffb", "type": "electric_scooter", "lat": 38.9027405, "is_reserved": 0, "lon": -77.01759383333334, "fusion_lon": 0.0, "is_disabled": 0, "fusion_lat": 0.0, "bike_id": "80fe260fe43943bfaa819a240f6fcffb", "rental_uris": {"ios": "https://dc.lft.to/lastmile_qr_scan", "android": "https://dc.lft.to/lastmile_qr_scan"}}, {"name": "9d5cd993e0d7fb670c515ffa3c5325b8", "type": "electric_bike", "lat": 38.845757666666664, "is_reserved": 0, "lon": -77.09625633333333, "fusion_lon": 0.0, "is_disabled": 0, "fusion_lat": 0.0, "bike_id": "9d5cd993e0d7fb670c515ffa3c5325b8", "rental_uris": {"ios": "https://dc.lft.to/lastmile_qr_scan", "android": "https://dc.lft.to/lastmile_qr_scan"}}, {"name": "e1ade2a934feb833adcb6858f8d42c55", "type": "electric_scooter", "lat": 38.902716833333336, "is_reserved": 0, "lon": -77.0316915, "fusion_lon": 0.0, "is_disabled": 0, "fusion_lat": 0.0, "bike_id": "e1ade2a934feb833adcb6858f8d42c55", "rental_uris": {"ios": "https://dc.lft.to/lastmile_qr_scan", "android": "https://dc.lft.to/lastmile_qr_scan"}}, {"name": "7cc1aa7c496290823b9b6021d56974e0", "type": "electric_scooter", "lat": 38.906594166666665, "is_reserved": 0, "lon": -77.03847183333333, "fusion_lon": 0.0, "is_disabled": 0, "fusion_lat": 0.0, "bike_id": "7cc1aa7c496290823b9b6021d56974e0", "rental_uris": {"ios": "https://dc.lft.to/lastmile_qr_scan", "android": "https://dc.lft.to/lastmile_qr_scan"}}, {"name": "4ab02536254db5be33eefcf80a0a161e", "type": "electric_scooter", "lat": 38.90644016666667, "is_reserved": 0, "lon": -77.01141583333333, "fusion_lon": 0.0, "is_disabled": 0, "fusion_lat": 0.0, "bike_id": "4ab02536254db5be33eefcf80a0a161e", "rental_uris": {"ios": "https://dc.lft.to/lastmile_qr_scan", "android": "https://dc.lft.to/lastmile_qr_scan"}}, {"name": "5d54e014e01dbf27f349ab7da8cf3733", "type": "electric_scooter", "lat": 38.892257, "is_reserved": 0, "lon": -77.04267066666667, "fusion_lon": 0.0, "is_disabled": 0, "fusion_lat": 0.0, "bike_id": "5d54e014e01dbf27f349ab7da8cf3733", "rental_uris": {"ios": "https://dc.lft.to/lastmile_qr_scan", "android": "https://dc.lft.to/lastmile_qr_scan"}}, {"name": "427cd7d96ab2ddbd59343946b6209ba0", "type": "electric_scooter", "lat": 38.9085475, "is_reserved": 0, "lon": -77.0442865, "fusion_lon": 0.0, "is_disabled": 0, "fusion_lat": 0.0, "bike_id": "427cd7d96ab2ddbd59343946b6209ba0", "rental_uris": {"ios": "https://dc.lft.to/lastmile_qr_scan", "android": "https://dc.lft.to/lastmile_qr_scan"}}, {"name": "3fc3fd2e53bbc412c3e920a19ee09edd", "type": "electric_scooter", "lat": 38.90726983333333, "is_reserved": 0, "lon": -77.04356233333333, "fusion_lon": 0.0, "is_disabled": 0, "fusion_lat": 0.0, "bike_id": "3fc3fd2e53bbc412c3e920a19ee09edd", "rental_uris": {"ios": "https://dc.lft.to/lastmile_qr_scan", "android": "https://dc.lft.to/lastmile_qr_scan"}}, {"name": "40dbaa8cac4c94acbd702cab517ea435", "type": "electric_scooter", "lat": 38.906844166666666, "is_reserved": 0, "lon": -77.01343916666667, "fusion_lon": 0.0, "is_disabled": 0, "fusion_lat": 0.0, "bike_id": "40dbaa8cac4c94acbd702cab517ea435", "rental_uris": {"ios": "https://dc.lft.to/lastmile_qr_scan", "android": "https://dc.lft.to/lastmile_qr_scan"}}, {"name": "e97cbaffc1248e699cd5f46405b36406", "type": "electric_bike", "lat": 38.86917166666667, "is_reserved": 0, "lon": -77.13184916666667, "fusion_lon": 0.0, "is_disabled": 0, "fusion_lat": 0.0, "bike_id": "e97cbaffc1248e699cd5f46405b36406", "rental_uris": {"ios": "https://dc.lft.to/lastmile_qr_scan", "android": "https://dc.lft.to/lastmile_qr_scan"}}, {"name": "6231e2fde67dce2c7c61b0c962487d0a", "type": "electric_scooter", "lat": 38.932542, "is_reserved": 0, "lon": -77.0329015, "fusion_lon": 0.0, "is_disabled": 0, "fusion_lat": 0.0, "bike_id": "6231e2fde67dce2c7c61b0c962487d0a", "rental_uris": {"ios": "https://dc.lft.to/lastmile_qr_scan", "android": "https://dc.lft.to/lastmile_qr_scan"}}, {"name": "1481dface32084eb1cc70db44ec2033e", "type": "electric_scooter", "lat": 38.92732516666667, "is_reserved": 0, "lon": -77.03079733333334, "fusion_lon": 0.0, "is_disabled": 0, "fusion_lat": 0.0, "bike_id": "1481dface32084eb1cc70db44ec2033e", "rental_uris": {"ios": "https://dc.lft.to/lastmile_qr_scan", "android": "https://dc.lft.to/lastmile_qr_scan"}}, {"name": "c12a2107944f13319499b968fc30346f", "type": "electric_scooter", "lat": 38.90646366666667, "is_reserved": 0, "lon": -76.98578016666667, "fusion_lon": 0.0, "is_disabled": 0, "fusion_lat": 0.0, "bike_id": "c12a2107944f13319499b968fc30346f", "rental_uris": {"ios": "https://dc.lft.to/lastmile_qr_scan", "android": "https://dc.lft.to/lastmile_qr_scan"}}, {"name": "4a2e1c1a170e5abc4c37c15c5a431bf6", "type": "electric_scooter", "lat": 38.921833666666664, "is_reserved": 0, "lon": -77.04021783333333, "fusion_lon": 0.0, "is_disabled": 0, "fusion_lat": 0.0, "bike_id": "4a2e1c1a170e5abc4c37c15c5a431bf6", "rental_uris": {"ios": "https://dc.lft.to/lastmile_qr_scan", "android": "https://dc.lft.to/lastmile_qr_scan"}}, {"name": "eb946d844b696c30d764bcc2f6c40933", "type": "electric_scooter", "lat": 38.918196333333334, "is_reserved": 0, "lon": -77.034413, "fusion_lon": 0.0, "is_disabled": 0, "fusion_lat": 0.0, "bike_id": "eb946d844b696c30d764bcc2f6c40933", "rental_uris": {"ios": "https://dc.lft.to/lastmile_qr_scan", "android": "https://dc.lft.to/lastmile_qr_scan"}}, {"name": "93cb8318382af69bbb0be2259193aacb", "type": "electric_scooter", "lat": 38.911052, "is_reserved": 0, "lon": -77.03620266666667, "fusion_lon": 0.0, "is_disabled": 0, "fusion_lat": 0.0, "bike_id": "93cb8318382af69bbb0be2259193aacb", "rental_uris": {"ios": "https://dc.lft.to/lastmile_qr_scan", "android": "https://dc.lft.to/lastmile_qr_scan"}}, {"name": "6e07f6959f63ddac77c60cac212bdd93", "type": "electric_scooter", "lat": 38.932507, "is_reserved": 0, "lon": -77.03275916666666, "fusion_lon": 0.0, "is_disabled": 0, "fusion_lat": 0.0, "bike_id": "6e07f6959f63ddac77c60cac212bdd93", "rental_uris": {"ios": "https://dc.lft.to/lastmile_qr_scan", "android": "https://dc.lft.to/lastmile_qr_scan"}}, {"name": "493b056604976257834c35060cecf140", "type": "electric_scooter", "lat": 38.922464, "is_reserved": 0, "lon": -77.0100745, "fusion_lon": 0.0, "is_disabled": 0, "fusion_lat": 0.0, "bike_id": "493b056604976257834c35060cecf140", "rental_uris": {"ios": "https://dc.lft.to/lastmile_qr_scan", "android": "https://dc.lft.to/lastmile_qr_scan"}}, {"name": "09381ca95b8f99dda9522c78f3846cb1", "type": "electric_scooter", "lat": 38.915473666666664, "is_reserved": 0, "lon": -77.0385775, "fusion_lon": 0.0, "is_disabled": 0, "fusion_lat": 0.0, "bike_id": "09381ca95b8f99dda9522c78f3846cb1", "rental_uris": {"ios": "https://dc.lft.to/lastmile_qr_scan", "android": "https://dc.lft.to/lastmile_qr_scan"}}, {"name": "a5bf211742faec04fa92f6f7a9e3373a", "type": "electric_scooter", "lat": 38.8963345, "is_reserved": 0, "lon": -77.0287455, "fusion_lon": 0.0, "is_disabled": 0, "fusion_lat": 0.0, "bike_id": "a5bf211742faec04fa92f6f7a9e3373a", "rental_uris": {"ios": "https://dc.lft.to/lastmile_qr_scan", "android": "https://dc.lft.to/lastmile_qr_scan"}}, {"name": "0db30f29b9ec560152e8181e84236823", "type": "electric_scooter", "lat": 38.90285766666667, "is_reserved": 0, "lon": -77.05925833333333, "fusion_lon": 0.0, "is_disabled": 0, "fusion_lat": 0.0, "bike_id": "0db30f29b9ec560152e8181e84236823", "rental_uris": {"ios": "https://dc.lft.to/lastmile_qr_scan", "android": "https://dc.lft.to/lastmile_qr_scan"}}, {"name": "475c43b669d8d22713bec9b70f92a686", "type": "electric_scooter", "lat": 38.91244283333333, "is_reserved": 0, "lon": -77.0011395, "fusion_lon": 0.0, "is_disabled": 0, "fusion_lat": 0.0, "bike_id": "475c43b669d8d22713bec9b70f92a686", "rental_uris": {"ios": "https://dc.lft.to/lastmile_qr_scan", "android": "https://dc.lft.to/lastmile_qr_scan"}}, {"name": "e2763705f3770bb7a26397a03699bcc3", "type": "electric_bike", "lat": 38.86370616666667, "is_reserved": 0, "lon": -76.97008766666667, "fusion_lon": 0.0, "is_disabled": 0, "fusion_lat": 0.0, "bike_id": "e2763705f3770bb7a26397a03699bcc3", "rental_uris": {"ios": "https://dc.lft.to/lastmile_qr_scan", "android": "https://dc.lft.to/lastmile_qr_scan"}}, {"name": "6a7ba7732a2482db8180bc926488303c", "type": "electric_scooter", "lat": 38.8821875, "is_reserved": 0, "lon": -76.94175816666667, "fusion_lon": 0.0, "is_disabled": 0, "fusion_lat": 0.0, "bike_id": "6a7ba7732a2482db8180bc926488303c", "rental_uris": {"ios": "https://dc.lft.to/lastmile_qr_scan", "android": "https://dc.lft.to/lastmile_qr_scan"}}, {"name": "2c3fec8f0dde48a98f37108318b69890", "type": "electric_scooter", "lat": 38.88612116666667, "is_reserved": 0, "lon": -76.99513833333333, "fusion_lon": 0.0, "is_disabled": 0, "fusion_lat": 0.0, "bike_id": "2c3fec8f0dde48a98f37108318b69890", "rental_uris": {"ios": "https://dc.lft.to/lastmile_qr_scan", "android": "https://dc.lft.to/lastmile_qr_scan"}}, {"name": "adb298260f7679689cf229f467efac70", "type": "electric_scooter", "lat": 38.90337616666667, "is_reserved": 0, "lon": -76.98971866666666, "fusion_lon": 0.0, "is_disabled": 0, "fusion_lat": 0.0, "bike_id": "adb298260f7679689cf229f467efac70", "rental_uris": {"ios": "https://dc.lft.to/lastmile_qr_scan", "android": "https://dc.lft.to/lastmile_qr_scan"}}, {"name": "09e8bf460a1a9bff6f685728f5e5d9a0", "type": "electric_scooter", "lat": 38.9221815, "is_reserved": 0, "lon": -77.042399, "fusion_lon": 0.0, "is_disabled": 0, "fusion_lat": 0.0, "bike_id": "09e8bf460a1a9bff6f685728f5e5d9a0", "rental_uris": {"ios": "https://dc.lft.to/lastmile_qr_scan", "android": "https://dc.lft.to/lastmile_qr_scan"}}, {"name": "39ac4a6afcc20f46dc9472cf3bc07223", "type": "electric_scooter", "lat": 38.905543, "is_reserved": 0, "lon": -77.00588783333333, "fusion_lon": 0.0, "is_disabled": 0, "fusion_lat": 0.0, "bike_id": "39ac4a6afcc20f46dc9472cf3bc07223", "rental_uris": {"ios": "https://dc.lft.to/lastmile_qr_scan", "android": "https://dc.lft.to/lastmile_qr_scan"}}, {"name": "ac95ad7baf173b5e5ae1764ea8644f3e", "type": "electric_scooter", "lat": 38.90262583333333, "is_reserved": 0, "lon": -77.03199133333334, "fusion_lon": 0.0, "is_disabled": 0, "fusion_lat": 0.0, "bike_id": "ac95ad7baf173b5e5ae1764ea8644f3e", "rental_uris": {"ios": "https://dc.lft.to/lastmile_qr_scan", "android": "https://dc.lft.to/lastmile_qr_scan"}}, {"name": "f4d0c464f2aef37707ceee9b9b8c3da3", "type": "electric_scooter", "lat": 38.902648166666665, "is_reserved": 0, "lon": -77.0175695, "fusion_lon": 0.0, "is_disabled": 0, "fusion_lat": 0.0, "bike_id": "f4d0c464f2aef37707ceee9b9b8c3da3", "rental_uris": {"ios": "https://dc.lft.to/lastmile_qr_scan", "android": "https://dc.lft.to/lastmile_qr_scan"}}, {"name": "f4a30f42082f9db5c458ac88ea636a61", "type": "electric_scooter", "lat": 38.90735733333333, "is_reserved": 0, "lon": -77.01130516666667, "fusion_lon": 0.0, "is_disabled": 0, "fusion_lat": 0.0, "bike_id": "f4a30f42082f9db5c458ac88ea636a61", "rental_uris": {"ios": "https://dc.lft.to/lastmile_qr_scan", "android": "https://dc.lft.to/lastmile_qr_scan"}}, {"name": "9ee0ffe2c6c4e48f2b6b0772d03faebf", "type": "electric_scooter", "lat": 38.921563, "is_reserved": 0, "lon": -77.03384216666667, "fusion_lon": 0.0, "is_disabled": 0, "fusion_lat": 0.0, "bike_id": "9ee0ffe2c6c4e48f2b6b0772d03faebf", "rental_uris": {"ios": "https://dc.lft.to/lastmile_qr_scan", "android": "https://dc.lft.to/lastmile_qr_scan"}}, {"name": "3f4f3ca364f69bafe0812a4a8fdb19e6", "type": "electric_scooter", "lat": 38.908214, "is_reserved": 0, "lon": -77.0435825, "fusion_lon": 0.0, "is_disabled": 0, "fusion_lat": 0.0, "bike_id": "3f4f3ca364f69bafe0812a4a8fdb19e6", "rental_uris": {"ios": "https://dc.lft.to/lastmile_qr_scan", "android": "https://dc.lft.to/lastmile_qr_scan"}}, {"name": "47f648a0f9c502f0e4a99793ab118433", "type": "electric_bike", "lat": 38.94623466666667, "is_reserved": 0, "lon": -76.94623116666666, "fusion_lon": 0.0, "is_disabled": 0, "fusion_lat": 0.0, "bike_id": "47f648a0f9c502f0e4a99793ab118433", "rental_uris": {"ios": "https://dc.lft.to/lastmile_qr_scan", "android": "https://dc.lft.to/lastmile_qr_scan"}},