{"data": {"bikes": [{"fusion_lat": 0.0, "lon": -77.08396566666667, "is_reserved": 0, "bike_id": "7fe2aa62e821a1914de87fe9317c41f1", "fusion_lon": 0.0, "rental_uris": {"android": "https://dc.lft.to/lastmile_qr_scan", "ios": "https://dc.lft.to/lastmile_qr_scan"}, "name": "7fe2aa62e821a1914de87fe9317c41f1", "type": "electric_scooter", "lat": 38.9080255, "is_disabled": 0}, {"fusion_lat": 0.0, "lon": -77.02667816666667, "is_reserved": 0, "bike_id": "688aa8643eb70bf7ee37db8747d8c95b", "fusion_lon": 0.0, "rental_uris": {"android": "https://dc.lft.to/lastmile_qr_scan", "ios": "https://dc.lft.to/lastmile_qr_scan"}, "name": "688aa8643eb70bf7ee37db8747d8c95b", "type": "electric_scooter", "lat": 38.9073145, "is_disabled": 0}, {"fusion_lat": 0.0, "lon": -77.03846066666667, "is_reserved": 0, "bike_id": "9163ac65d0df80654f6685841fdb6a67", "fusion_lon": 0.0, "rental_uris": {"android": "https://dc.lft.to/lastmile_qr_scan", "ios": "https://dc.lft.to/lastmile_qr_scan"}, "name": "9163ac65d0df80654f6685841fdb6a67", "type": "electric_scooter", "lat": 38.90442183333333, "is_disabled": 0}, {"fusion_lat": 0.0, "lon": -76.93642383333334, "is_reserved": 0, "bike_id": "493fee1616e5daa7f270465dc8ca5c55", "fusion_lon": 0.0, "rental_uris": {"android": "https://dc.lft.to/lastmile_qr_scan", "ios": "https://dc.lft.to/lastmile_qr_scan"}, "name": "493fee1616e5daa7f270465dc8ca5c55", "type": "electric_scooter", "lat": 38.900613, "is_disabled": 0}, {"fusion_lat": 0.0, "lon": -76.99505233333333, "is_reserved": 0, "bike_id": "4e79b256d715f1527443a3564b504cfa", "fusion_lon": 0.0, "rental_uris": {"android": "https://dc.lft.to/lastmile_qr_scan", "ios": "https://dc.lft.to/lastmile_qr_scan"}, "name": "4e79b256d715f1527443a3564b504cfa", "type": "electric_scooter", "lat": 38.880164666666666, "is_disabled": 0}, {"fusion_lat": 0.0, "lon": -76.93013366666666, "is_reserved": 0, "bike_id": "9b4d363986aa06779a49db9d66de1419", "fusion_lon": 0.0, "rental_uris": {"android": "https://dc.lft.to/lastmile_qr_scan", "ios": "https://dc.lft.to/lastmile_qr_scan"}, "name": "9b4d363986aa06779a49db9d66de1419", "type": "electric_bike", "lat": 38.8966045, "is_disabled": 0}, {"fusion_lat": 0.0, "lon": -77.0320865, "is_reserved": 0, "bike_id": "dc2d205d447612dedf1c6d162317e604", "fusion_lon": 0.0, "rental_uris": {"android": "https://dc.lft.to/lastmile_qr_scan", "ios": "https://dc.lft.to/lastmile_qr_scan"}, "name": "dc2d205d447612dedf1c6d162317e604", "type": "electric_scooter", "lat": 38.905427833333334, "is_disabled": 0}, {"fusion_lat": 0.0, "lon": -77.04233133333334, "is_reserved": 0, "bike_id": "75e4b5a87115cb95da05f373d3e5d418", "fusion_lon": 0.0, "rental_uris": {"android": "https://dc.lft.to/lastmile_qr_scan", "ios": "https://dc.lft.to/lastmile_qr_scan"}, "name": "75e4b5a87115cb95da05f373d3e5d418", "type": "electric_scooter", "lat": 38.911193, "is_disabled": 0}, {"fusion_lat": 0.0, "lon": -77.014538, "is_reserved": 0, "bike_id": "777c646dc2495ccb153442c4c39362e0", "fusion_lon": 0.0, "rental_uris": {"android": "https://dc.lft.to/lastmile_qr_scan", "ios": "https://dc.lft.to/lastmile_qr_scan"}, "name": "777c646dc2495ccb153442c4c39362e0", "type": "electric_scooter", "lat": 38.92990233333333, "is_disabled": 0}, {"fusion_lat": 0.0, "lon": -77.026599, "is_reserved": 0, "bike_id": "fab06e981ab77c10c06bf91ab0e83855", "fusion_lon": 0.0, "rental_uris": {"android": "https://dc.lft.to/lastmile_qr_scan", "ios": "https://dc.lft.to/lastmile_qr_scan"}, "name": "fab06e981ab77c10c06bf91ab0e83855", "type": "electric_scooter", "lat": 38.9756815, "is_disabled": 0}, {"fusion_lat": 0.0, "lon": -76.96903316666666, "is_reserved": 0, "bike_id": "89f5cd94591b853e7e08564182ad96b9", "fusion_lon": 0.0, "rental_uris": {"android": "https://dc.lft.to/lastmile_qr_scan", "ios": "https://dc.lft.to/lastmile_qr_scan"}, "name": "89f5cd94591b853e7e08564182ad96b9", "type": "electric_bike", "lat": 38.846328, "is_disabled": 0}, {"fusion_lat": 0.0, "lon": -77.04671766666667, "is_reserved": 0, "bike_id": "2b5403de99174bf4833c243a6bec210d", "fusion_lon": 0.0, "rental_uris": {"android": "https://dc.lft.to/lastmile_qr_scan", "ios": "https://dc.lft.to/lastmile_qr_scan"}, "name": "2b5403de99174bf4833c243a6bec210d", "type": "electric_scooter", "lat": 38.9073765, "is_disabled": 0}, {"fusion_lat": 0.0, "lon": -77.04752583333334, "is_reserved": 0, "bike_id": "071872a3a884a4211aa4481efcdd6c02", "fusion_lon": 0.0, "rental_uris": {"android": "https://dc.lft.to/lastmile_qr_scan", "ios": "https://dc.lft.to/lastmile_qr_scan"}, "name": "071872a3a884a4211aa4481efcdd6c02", "type": "electric_scooter", "lat": 38.900938, "is_disabled": 0}, {"fusion_lat": 0.0, "lon": -77.04671666666667, "is_reserved": 0, "bike_id": "6b320bbf994f3703df96c6a99ae9a6be", "fusion_lon": 0.0, "rental_uris": {"android": "https://dc.lft.to/lastmile_qr_scan", "ios": "https://dc.lft.to/lastmile_qr_scan"}, "name": "6b320bbf994f3703df96c6a99ae9a6be", "type": "electric_scooter", "lat": 38.90734416666667, "is_disabled": 0}, {"fusion_lat": 0.0, "lon": -76.94933416666667, "is_reserved": 0, "bike_id": "40c83e92b6b80f2e8434dd7fff88ae7c", "fusion_lon": 0.0, "rental_uris": {"android": "https://dc.lft.to/lastmile_qr_scan", "ios": "https://dc.lft.to/lastmile_qr_scan"}, "name": "40c83e92b6b80f2e8434dd7fff88ae7c", "type": "electric_scooter", "lat": 38.893481666666666, "is_disabled": 0}, {"fusion_lat": 0.0, "lon": -77.00203533333334, "is_reserved": 0, "bike_id": "1988a9b9eb54a9dbef6aa8d464024901", "fusion_lon": 0.0, "rental_uris": {"android": "https://dc.lft.to/lastmile_qr_scan", "ios": "https://dc.lft.to/lastmile_qr_scan"}, "name": "1988a9b9eb54a9dbef6aa8d464024901", "type": "electric_scooter", "lat": 38.90236733333333, "is_disabled": 0}, {"fusion_lat": 0.0, "lon": -76.99529716666666, "is_reserved": 0, "bike_id": "fa10240e310b5c4d300abf27eb128c93", "fusion_lon": 0.0, "rental_uris": {"android": "https://dc.lft.to/lastmile_qr_scan", "ios": "https://dc.lft.to/lastmile_qr_scan"}, "name": "fa10240e310b5c4d300abf27eb128c93", "type": "electric_scooter", "lat": 38.88373166666667, "is_disabled": 0}, {"fusion_lat": 0.0, "lon": -77.03775466666667, "is_reserved": 0, "bike_id": "98c9283bd7e4324ced6b2daef4a34ac6", "fusion_lon": 0.0, "rental_uris": {"android": "https://dc.lft.to/lastmile_qr_scan", "ios": "https://dc.lft.to/lastmile_qr_scan"}, "name": "98c9283bd7e4324ced6b2daef4a34ac6", "type": "electric_scooter", "lat": 38.922101, "is_disabled": 0}, {"fusion_lat": 0.0, "lon": -76.9808975, "is_reserved": 0, "bike_id": "c5e778d2cf08629303e3e13d714223b7", "fusion_lon": 0.0, "rental_uris": {"android": "https://dc.lft.to/lastmile_qr_scan", "ios": "https://dc.lft.to/lastmile_qr_scan"}, "name": "c5e778d2cf08629303e3e13d714223b7", "type": "electric_bike", "lat": 38.92107716666666, "is_disabled": 0}, {"fusion_lat": 0.0, "lon": -77.04737666666666, "is_reserved": 0, "bike_id": "afcdfd93129ab47018ce5a56603ee982", "fusion_lon": 0.0, "rental_uris": {"android": "https://dc.lft.to/lastmile_qr_scan", "ios": "https://dc.lft.to/lastmile_qr_scan"}, "name": "afcdfd93129ab47018ce5a56603ee982", "type": "electric_scooter", "lat": 38.90979766666667, "is_disabled": 0}, {"fusion_lat": 0.0, "lon": -77.03846783333333, "is_reserved": 0, "bike_id": "a183b0444c8966e67fc9e48cbb28d692", "fusion_lon": 0.0, "rental_uris": {"android": "https://dc.lft.to/lastmile_qr_scan", "ios": "https://dc.lft.to/lastmile_qr_scan"}, "name": "a183b0444c8966e67fc9e48cbb28d692", "type": "electric_scooter", "lat": 38.902730166666665, "is_disabled": 0}, {"fusion_lat": 0.0, "lon": -76.9979335, "is_reserved": 0, "bike_id": "8ed5d2b59e99a1069100bfb1ac8a1cfb", "fusion_lon": 0.0, "rental_uris": {"android": "https://dc.lft.to/lastmile_qr_scan", "ios": "https://dc.lft.to/lastmile_qr_scan"}, "name": "8ed5d2b59e99a1069100bfb1ac8a1cfb", "type": "electric_bike", "lat": 38.956434333333334, "is_disabled": 0}, {"fusion_lat": 0.0, "lon": -77.04323416666666, "is_reserved": 0, "bike_id": "0423d82a5a7da299b3e87a6e88d25bc5", "fusion_lon": 0.0, "rental_uris": {"android": "https://dc.lft.to/lastmile_qr_scan", "ios": "https://dc.lft.to/lastmile_qr_scan"}, "name": "0423d82a5a7da299b3e87a6e88d25bc5", "type": "electric_scooter", "lat": 38.89222866666667, "is_disabled": 0}, {"fusion_lat": 0.0, "lon": -76.9957885, "is_reserved": 0, "bike_id": "24b17c18f9ac7a63575b52c46f0d2169", "fusion_lon": 0.0, "rental_uris": {"android": "https://dc.lft.to/lastmile_qr_scan", "ios": "https://dc.lft.to/lastmile_qr_scan"}, "name": "24b17c18f9ac7a63575b52c46f0d2169", "type": "electric_bike", "lat": 38.852928166666665, "is_disabled": 0}, {"fusion_lat": 0.0, "lon": -77.0048465, "is_reserved": 0, "bike_id": "119acbdc44d5306bd3297f111ede855a", "fusion_lon": 0.0, "rental_uris": {"android": "https://dc.lft.to/lastmile_qr_scan", "ios": "https://dc.lft.to/lastmile_qr_scan"}, "name": "119acbdc44d5306bd3297f111ede855a", "type": "electric_scooter", "lat": 38.8747655, "is_disabled": 0}, {"fusion_lat": 0.0, "lon": -76.95537716666666, "is_reserved": 0, "bike_id": "e584b2b01a5c462a247cb3ee94a0d9dc", "fusion_lon": 0.0, "rental_uris": {"android": "https://dc.lft.to/lastmile_qr_scan", "ios": "https://dc.lft.to/lastmile_qr_scan"}, "name": "e584b2b01a5c462a247cb3ee94a0d9dc", "type": "electric_scooter", "lat": 38.887763166666666, "is_disabled": 0}, {"fusion_lat": 0.0, "lon": -77.0326285, "is_reserved": 0, "bike_id": "b2560ad26ee003af2dae7ca94b13513a", "fusion_lon": 0.0, "rental_uris": {"android": "https://dc.lft.to/lastmile_qr_scan", "ios": "https://dc.lft.to/lastmile_qr_scan"}, "name": "b2560ad26ee003af2dae7ca94b13513a", "type": "electric_scooter", "lat": 38.946274, "is_disabled": 0}, {"fusion_lat": 0.0, "lon": -77.04927116666667, "is_reserved": 0, "bike_id": "f20e4dde5c26802e4f56b84060c0eced", "fusion_lon": 0.0, "rental_uris": {"android": "https://dc.lft.to/lastmile_qr_scan", "ios": "https://dc.lft.to/lastmile_qr_scan"}, "name": "f20e4dde5c26802e4f56b84060c0eced", "type": "electric_scooter", "lat": 38.89535633333333, "is_disabled": 0}, {"fusion_lat": 0.0, "lon": -77.05335666666667, "is_reserved": 0, "bike_id": "a1e6b20180281514c98392a6a07f9801", "fusion_lon": 0.0, "rental_uris": {"android": "https://dc.lft.to/lastmile_qr_scan", "ios": "https://dc.lft.to/lastmile_qr_scan"}, "name": "a1e6b20180281514c98392a6a07f9801", "type": "electric_scooter", "lat": 38.9272665, "is_disabled": 0}, {"fusion_lat": 0.0, "lon": -77.0238635, "is_reserved": 0, "bike_id": "cd15d1655033804ffa06057c886371b8", "fusion_lon": 0.0, "rental_uris": {"android": "https://dc.lft.to/lastmile_qr_scan", "ios": "https://dc.lft.to/lastmile_qr_scan"}, "name": "cd15d1655033804ffa06057c886371b8", "type": "electric_scooter", "lat": 38.9074195, "is_disabled": 0}, {"fusion_lat": 0.0, "lon": -77.0035005, "is_reserved": 0, "bike_id": "8464db16844fa20420f8a56cd636eb24", "fusion_lon": 0.0, "rental_uris": {"android": "https://dc.lft.to/lastmile_qr_scan", "ios": "https://dc.lft.to/lastmile_qr_scan"}, "name": "8464db16844fa20420f8a56cd636eb24", "type": "electric_scooter", "lat": 38.88611383333333, "is_disabled": 0}, {"fusion_lat": 0.0, "lon": -77.02987433333334, "is_reserved": 0, "bike_id": "f71e4bcf5d5619e8569c7e51649af5fa", "fusion_lon": 0.0, "rental_uris": {"android": "https://dc.lft.to/lastmile_qr_scan", "ios": "https://dc.lft.to/lastmile_qr_scan"}, "name": "f71e4bcf5d5619e8569c7e51649af5fa", "type": "electric_scooter", "lat": 38.903813166666666, "is_disabled": 0}, {"fusion_lat": 0.0, "lon": -77.05194383333334, "is_reserved": 0, "bike_id": "b3986193137a8a7596ecf9dc1fd5f704", "fusion_lon": 0.0, "rental_uris": {"android": "https://dc.lft.to/lastmile_qr_scan", "ios": "https://dc.lft.to/lastmile_qr_scan"}, "name": "b3986193137a8a7596ecf9dc1fd5f704", "type": "electric_scooter", "lat": 38.92409766666667, "is_disabled": 0}, {"fusion_lat": 0.0, "lon": -77.01448616666667, "is_reserved": 0, "bike_id": "b1400373b01546386e2c8998fd8b968d", "fusion_lon": 0.0, "rental_uris": {"android": "https://dc.lft.to/lastmile_qr_scan", "ios": "https://dc.lft.to/lastmile_qr_scan"}, "name": "b1400373b01546386e2c8998fd8b968d", "type": "electric_bike", "lat": 38.87679033333333, "is_disabled": 0}, {"fusion_lat": 0.0, "lon": -77.03484033333334, "is_reserved": 0, "bike_id": "2525d1d56a58b48ff1d2477a42d921e3", "fusion_lon": 0.0, "rental_uris": {"android": "https://dc.lft.to/lastmile_qr_scan", "ios": "https://dc.lft.to/lastmile_qr_scan"}, "name": "2525d1d56a58b48ff1d2477a42d921e3", "type": "electric_scooter", "lat": 38.9215095, "is_disabled": 0}, {"fusion_lat": 0.0, "lon": -77.02186183333333, "is_reserved": 0, "bike_id": "5eea8926573837bc43c219d3d9c3bc03", "fusion_lon": 0.0, "rental_uris": {"android": "https://dc.lft.to/lastmile_qr_scan", "ios": "https://dc.lft.to/lastmile_qr_scan"}, "name": "5eea8926573837bc43c219d3d9c3bc03", "type": "electric_scooter", "lat": 38.90193416666666, "is_disabled": 0}, {"fusion_lat": 0.0, "lon": -76.97321783333334, "is_reserved": 0, "bike_id": "51b5ba4907599d0bb08b8dbd17a38058", "fusion_lon": 0.0, "rental_uris": {"android": "https://dc.lft.to/lastmile_qr_scan", "ios": "https://dc.lft.to/lastmile_qr_scan"}, "name": "51b5ba4907599d0bb08b8dbd17a38058", "type": "electric_scooter", "lat": 38.917801833333336, "is_disabled": 0}, {"fusion_lat": 0.0, "lon": -77.08575383333333, "is_reserved": 0, "bike_id": "d86813d4535775c18749b8927ea563dd", "fusion_lon": 0.0, "rental_uris": {"android": "https://dc.lft.to/lastmile_qr_scan", "ios": "https://dc.lft.to/lastmile_qr_scan"}, "name": "d86813d4535775c18749b8927ea563dd", "type": "electric_scooter", "lat": 38.93359366666667, "is_disabled": 0}, {"fusion_lat": 0.0, "lon": -76.9723755, "is_reserved": 0, "bike_id": "03de84baa492f086f1e66dd1afe2bc14", "fusion_lon": 0.0, "rental_uris": {"android": "https://dc.lft.to/lastmile_qr_scan", "ios": "https://dc.lft.to/lastmile_qr_scan"}, "name": "03de84baa492f086f1e66dd1afe2bc14", "type": "electric_bike", "lat": 38.949059166666665, "is_disabled": 0}, {"fusion_lat": 0.0, "lon": -77.00673733333333, "is_reserved": 0, "bike_id": "9693626e5e3693b22b7f37a9ee03dc07", "fusion_lon": 0.0, "rental_uris": {"android": "https://dc.lft.to/lastmile_qr_scan", "ios": "https://dc.lft.to/lastmile_qr_scan"}, "name": "9693626e5e3693b22b7f37a9ee03dc07", "type": "electric_scooter", "lat": 38.900196333333334, "is_disabled": 0}, {"fusion_lat": 0.0, "lon": -77.034333, "is_reserved": 0, "bike_id": "800aab59affae558f764d80aec29a0d3", "fusion_lon": 0.0, "rental_uris": {"android": "https://dc.lft.to/lastmile_qr_scan", "ios": "https://dc.lft.to/lastmile_qr_scan"}, "name": "800aab59affae558f764d80aec29a0d3", "type": "electric_scooter", "lat": 38.91936716666667, "is_disabled": 0}, {"fusion_lat": 0.0, "lon": -77.08588183333333, "is_reserved": 0, "bike_id": "9241f5a8f5a096e992321449415804fa", "fusion_lon": 0.0, "rental_uris": {"android": "https://dc.lft.to/lastmile_qr_scan", "ios": "https://dc.lft.to/lastmile_qr_scan"}, "name": "9241f5a8f5a096e992321449415804fa", "type": "electric_bike", "lat": 38.84439616666667, "is_disabled": 0}, {"fusion_lat": 0.0, "lon": -77.0385005, "is_reserved": 0, "bike_id": "65ae7a164860bbfe89e7bdc87d65f900", "fusion_lon": 0.0, "rental_uris": {"android": "https://dc.lft.to/lastmile_qr_scan", "ios": "https://dc.lft.to/lastmile_qr_scan"}, "name": "65ae7a164860bbfe89e7bdc87d65f900", "type": "electric_scooter", "lat": 38.915525833333334, "is_disabled": 0}, {"fusion_lat": 0.0, "lon": -76.93131533333333, "is_reserved": 0, "bike_id": "aa769c96b8f7772ddcd8efe13c59074a", "fusion_lon": 0.0, "rental_uris": {"android": "https://dc.lft.to/lastmile_qr_scan", "ios": "https://dc.lft.to/lastmile_qr_scan"}, "name": "aa769c96b8f7772ddcd8efe13c59074a", "type": "electric_scooter", "lat": 38.876145666666666, "is_disabled": 0}, {"fusion_lat": 0.0, "lon": -77.048695, "is_reserved": 0, "bike_id": "1547c24b4e2e6c304c9c0131d1ec9064", "fusion_lon": 0.0, "rental_uris": {"android": "https://dc.lft.to/lastmile_qr_scan", "ios": "https://dc.lft.to/lastmile_qr_scan"}, "name": "1547c24b4e2e6c304c9c0131d1ec9064", "type": "electric_scooter", "lat": 38.90976366666666, "is_disabled": 0}, {"fusion_lat": 0.0, "lon": -77.023637, "is_reserved": 0, "bike_id": "38b6d87aad51a0824b0160fe7537f7fd", "fusion_lon": 0.0, "rental_uris": {"android": "https://dc.lft.to/lastmile_qr_scan", "ios": "https://dc.lft.to/lastmile_qr_scan"}, "name": "38b6d87aad51a0824b0160fe7537f7fd", "type": "electric_scooter", "lat": 38.892189, "is_disabled": 0}, {"fusion_lat": 0.0, "lon": -77.02542566666666, "is_reserved": 0, "bike_id": "72e7fb43471fd5964b8472e38bece143", "fusion_lon": 0.0, "rental_uris": {"android": "https://dc.lft.to/lastmile_qr_scan", "ios": "https://dc.lft.to/lastmile_qr_scan"}, "name": "72e7fb43471fd5964b8472e38bece143", "type": "electric_scooter", "lat": 38.907273833333335, "is_disabled": 0}, {"fusion_lat": 0.0, "lon": -77.04882683333334, "is_reserved": 0, "bike_id": "5a4f1dadf517146f1162f38cadc6264a", "fusion_lon": 0.0, "rental_uris": {"android": "https://dc.lft.to/lastmile_qr_scan", "ios": "https://dc.lft.to/lastmile_qr_scan"}, "name": "5a4f1dadf517146f1162f38cadc6264a", "type": "electric_scooter", "lat": 38.9011345, "is_disabled": 0}, {"fusion_lat": 0.0, "lon": -77.0197625, "is_reserved": 0, "bike_id": "f87bad386f5e7cd2ed81804107ea08fb", "fusion_lon": 0.0, "rental_uris": {"android": "https://dc.lft.to/lastmile_qr_scan", "ios": "https://dc.lft.to/lastmile_qr_scan"}, "name": "f87bad386f5e7cd2ed81804107ea08fb", "type": "electric_scooter", "lat": 38.912760666666664, "is_disabled": 0}, {"fusion_lat": 0.0, "lon": -77.019846, "is_reserved": 0, "bike_id": "3ea76ddb9b9e9bbaf072943a2bf20c49", "fusion_lon": 0.0, "rental_uris": {"android": "https://dc.lft.to/lastmile_qr_scan", "ios": "https://dc.lft.to/lastmile_qr_scan"}, "name": "3ea76ddb9b9e9bbaf072943a2bf20c49", "type": "electric_scooter", "lat": 38.910996833333336, "is_disabled": 0}, {"fusion_lat": 0.0, "lon": -77.03131916666666, "is_reserved": 0, "bike_id": "9ce812bee826f01bbca47fec7839c6f9", "fusion_lon": 0.0, "rental_uris": {"android": "https://dc.lft.to/lastmile_qr_scan", "ios": "https://dc.lft.to/lastmile_qr_scan"}, "name": "9ce812bee826f01bbca47fec7839c6f9", "type": "electric_scooter", "lat": 38.92573866666667, "is_disabled": 0}, {"fusion_lat": 0.0, "lon": -77.02617733333334, "is_reserved": 0, "bike_id": "a4f72b51cc6ed5dcc39ddef65f3c4849", "fusion_lon": 0.0, "rental_uris": {"android": "https://dc.lft.to/lastmile_qr_scan", "ios": "https://dc.lft.to/lastmile_qr_scan"}, "name": "a4f72b51cc6ed5dcc39ddef65f3c4849", "type": "electric_scooter", "lat": 38.90859066666667, "is_disabled": 0}, {"fusion_lat": 0.0, "lon": -76.99543583333333, "is_reserved": 0, "bike_id": "42be32cbd55dc9be961313067d593374", "fusion_lon": 0.0, "rental_uris": {"android": "https://dc.lft.to/lastmile_qr_scan", "ios": "https://dc.lft.to/lastmile_qr_scan"}, "name": "42be32cbd55dc9be961313067d593374", "type": "electric_scooter", "lat": 38.926718666666666, "is_disabled": 0}, {"fusion_lat": 0.0, "lon": -77.0351625, "is_reserved": 0, "bike_id": "1f96bcc8a2be665423f29adf22a6568c", "fusion_lon": 0.0, "rental_uris": {"android": "https://dc.lft.to/lastmile_qr_scan", "ios": "https://dc.lft.to/lastmile_qr_scan"}, "name": "1f96bcc8a2be665423f29adf22a6568c", "type": "electric_scooter", "lat": 38.921547833333335, "is_disabled": 0}, {"fusion_lat": 0.0, "lon": -77.0210965, "is_reserved": 0, "bike_id": "3020ee1b4414f47fd8fd5f82e3156ced", "fusion_lon": 0.0, "rental_uris": {"android": "https://dc.lft.to/lastmile_qr_scan", "ios": "https://dc.lft.to/lastmile_qr_scan"}, "name": "3020ee1b4414f47fd8fd5f82e3156ced", "type": "electric_scooter", "lat": 38.92464566666666, "is_disabled": 0}, {"fusion_lat": 0.0, "lon": -77.01683233333333, "is_reserved": 0, "bike_id": "06bae631e4f97141963e73347c49bb18", "fusion_lon": 0.0, "rental_uris": {"android": "https://dc.lft.to/lastmile_qr_scan", "ios": "https://dc.lft.to/lastmile_qr_scan"}, "name": "06bae631e4f97141963e73347c49bb18", "type": "electric_scooter", "lat": 38.929046166666666, "is_disabled": 0}, {"fusion_lat": 0.0, "lon": -77.0134605, "is_reserved": 0, "bike_id": "63d8e18e9a7b7d2969c548dabe5b170d", "fusion_lon": 0.0, "rental_uris": {"android": "https://dc.lft.to/lastmile_qr_scan", "ios": "https://dc.lft.to/lastmile_qr_scan"}, "name": "63d8e18e9a7b7d2969c548dabe5b170d", "type": "electric_scooter", "lat": 38.86976, "is_disabled": 0}, {"fusion_lat": 0.0, "lon": -76.98092716666666, "is_reserved": 0, "bike_id": "77d052156b02c9cbda44102b1e3171a5", "fusion_lon": 0.0, "rental_uris": {"android": "https://dc.lft.to/lastmile_qr_scan", "ios": "https://dc.lft.to/lastmile_qr_scan"}, "name": "77d052156b02c9cbda44102b1e3171a5", "type": "electric_bike", "lat": 38.9536, "is_disabled": 0}, {"fusion_lat": 0.0, "lon": -77.03913866666667, "is_reserved": 0, "bike_id": "129dbfa4d9f0881cbbf7d7fa7832d6c6", "fusion_lon": 0.0, "rental_uris": {"android": "https://dc.lft.to/lastmile_qr_scan", "ios": "https://dc.lft.to/lastmile_qr_scan"}, "name": "129dbfa4d9f0881cbbf7d7fa7832d6c6", "type": "electric_scooter", "lat": 38.923180333333335, "is_disabled": 0}, {"fusion_lat": 0.0, "lon": -77.021637, "is_reserved": 0, "bike_id": "96830a75e10df0b78b4d64a528b47d69", "fusion_lon": 0.0, "rental_uris": {"android": "https://dc.lft.to/lastmile_qr_scan", "ios": "https://dc.lft.to/lastmile_qr_scan"}, "name": "96830a75e10df0b78b4d64a528b47d69", "type": "electric_scooter", "lat": 38.926134, "is_disabled": 0}, {"fusion_lat": 0.0, "lon": -76.99547383333334, "is_reserved": 0, "bike_id": "aea0ecb93003f494fd73ea94f2ae0fa5", "fusion_lon": 0.0, "rental_uris": {"android": "https://dc.lft.to/lastmile_qr_scan", "ios": "https://dc.lft.to/lastmile_qr_scan"}, "name": "aea0ecb93003f494fd73ea94f2ae0fa5", "type": "electric_scooter", "lat": 38.86263783333333, "is_disabled": 0}, {"fusion_lat": 0.0, "lon": -77.003531, "is_reserved": 0, "bike_id": "518110bbac8a9ad0a36ce59d8617d066", "fusion_lon": 0.0, "rental_uris": {"android": "https://dc.lft.to/lastmile_qr_scan", "ios": "https://dc.lft.to/lastmile_qr_scan"}, "name": "518110bbac8a9ad0a36ce59d8617d066", "type": "electric_scooter", "lat": 38.898863166666665, "is_disabled": 0}, {"fusion_lat": 0.0, "lon": -77.04601383333333, "is_reserved": 0, "bike_id": "eb602664473daeaaa108f8147288ce17", "fusion_lon": 0.0, "rental_uris": {"android": "https://dc.lft.to/lastmile_qr_scan", "ios": "https://dc.lft.to/lastmile_qr_scan"}, "name": "eb602664473daeaaa108f8147288ce17", "type": "electric_scooter", "lat": 38.9160805, "is_disabled": 0}, {"fusion_lat": 0.0, "lon": -77.05595716666667, "is_reserved": 0, "bike_id": "b30cbcfa929349dff564cb260cf009d5", "fusion_lon": 0.0, "rental_uris": {"android": "https://dc.lft.to/lastmile_qr_scan", "ios": "https://dc.lft.to/lastmile_qr_scan"}, "name": "b30cbcfa929349dff564cb260cf009d5", "type": "electric_scooter", "lat": 38.936089333333335, "is_disabled": 0}, {"fusion_lat": 0.0, "lon": -77.0395595, "is_reserved": 0, "bike_id": "35a1d6ba824ded86607490a47d2fc96a", "fusion_lon": 0.0, "rental_uris": {"android": "https://dc.lft.to/lastmile_qr_scan", "ios": "https://dc.lft.to/lastmile_qr_scan"}, "name": "35a1d6ba824ded86607490a47d2fc96a", "type": "electric_scooter", "lat": 38.8924145, "is_disabled": 0}, {"fusion_lat": 0.0, "lon": -77.0344265, "is_reserved": 0, "bike_id": "cdb82ec4e93a45c13defec0856be93d6", "fusion_lon": 0.0, "rental_uris": {"android": "https://dc.lft.to/lastmile_qr_scan", "ios": "https://dc.lft.to/lastmile_qr_scan"}, "name": "cdb82ec4e93a45c13defec0856be93d6", "type": "electric_scooter", "lat": 38.905563666666666, "is_disabled": 0}, {"fusion_lat": 0.0, "lon": -77.0123855, "is_reserved": 0, "bike_id": "71a39abd2ba2fafaf557a9b0fb603c96", "fusion_lon": 0.0, "rental_uris": {"android": "https://dc.lft.to/lastmile_qr_scan", "ios": "https://dc.lft.to/lastmile_qr_scan"}, "name": "71a39abd2ba2fafaf557a9b0fb603c96", "type": "electric_scooter", "lat": 38.83047883333333, "is_disabled": 0}, {"fusion_lat": 0.0, "lon": -77.02723433333334, "is_reserved": 0, "bike_id": "6540c87bc16f3a0d9d04c3ea2400bf30", "fusion_lon": 0.0, "rental_uris": {"android": "https://dc.lft.to/lastmile_qr_scan", "ios": "https://dc.lft.to/lastmile_qr_scan"}, "name": "6540c87bc16f3a0d9d04c3ea2400bf30", "type": "electric_scooter", "lat": 38.94083633333334, "is_disabled": 0}, {"fusion_lat": 0.0, "lon": -77.04199183333333, "is_reserved": 0, "bike_id": "2421ce27f96379fd174d8c07b0e8f5b4", "fusion_lon": 0.0, "rental_uris": {"android": "https://dc.lft.to/lastmile_qr_scan", "ios": "https://dc.lft.to/lastmile_qr_scan"}, "name": "2421ce27f96379fd174d8c07b0e8f5b4", "type": "electric_scooter", "lat": 38.9039, "is_disabled": 0}, {"fusion_lat": 0.0, "lon": -77.03997283333334, "is_reserved": 0, "bike_id": "18a3746dff83462c754ed7c2d0933335", "fusion_lon": 0.0, "rental_uris": {"android": "https://dc.lft.to/lastmile_qr_scan", "ios": "https://dc.lft.to/lastmile_qr_scan"}, "name": "18a3746dff83462c754ed7c2d0933335", "type": "electric_bike", "lat": 38.93436533333333, "is_disabled": 0}, {"fusion_lat": 0.0, "lon": -77.04479716666667, "is_reserved": 0, "bike_id": "e1603d544289d0e8e6916871783ea33a", "fusion_lon": 0.0, "rental_uris": {"android": "https://dc.lft.to/lastmile_qr_scan", "ios": "https://dc.lft.to/lastmile_qr_scan"}, "name": "e1603d544289d0e8e6916871783ea33a", "type": "electric_scooter", "lat": 38.92407, "is_disabled": 0}, {"fusion_lat": 0.0, "lon": -77.01768516666667, "is_reserved": 0, "bike_id": "70d6de0ba95c336092bca91606fd726b", "fusion_lon": 0.0, "rental_uris": {"android": "https://dc.lft.to/lastmile_qr_scan", "ios": "https://dc.lft.to/lastmile_qr_scan"}, "name": "70d6de0ba95c336092bca91606fd726b", "type": "electric_scooter", "lat": 38.917399333333336, "is_disabled": 0}, {"fusion_lat": 0.0, "lon": -77.02206533333333, "is_reserved": 0, "bike_id": "501656aed284cf8f1e919f48d652bb36", "fusion_lon": 0.0, "rental_uris": {"android": "https://dc.lft.to/lastmile_qr_scan", "ios": "https://dc.lft.to/lastmile_qr_scan"}, "name": "501656aed284cf8f1e919f48d652bb36", "type": "electric_scooter", "lat": 38.90209316666667, "is_disabled": 0}, {"fusion_lat": 0.0, "lon": -77.03442, "is_reserved": 0, "bike_id": "32d74bc7211b84c2d6d7d64c5b4fb476", "fusion_lon": 0.0, "rental_uris": {"android": "https://dc.lft.to/lastmile_qr_scan", "ios": "https://dc.lft.to/lastmile_qr_scan"}, "name": "32d74bc7211b84c2d6d7d64c5b4fb476", "type": "electric_scooter", "lat": 38.93085133333334, "is_disabled": 0}, {"fusion_lat": 0.0, "lon": -77.00341033333333, "is_reserved": 0, "bike_id": "6fa2fbcda29d51eff3e205d04ee51739", "fusion_lon": 0.0, "rental_uris": {"android": "https://dc.lft.to/lastmile_qr_scan", "ios": "https://dc.lft.to/lastmile_qr_scan"}, "name": "6fa2fbcda29d51eff3e205d04ee51739", "type": "electric_scooter", "lat": 38.91612716666667, "is_disabled": 0}, {"fusion_lat": 0.0, "lon": -77.0020915, "is_reserved": 0, "bike_id": "8674058a19e53a8cf864e3aa92476dfd", "fusion_lon": 0.0, "rental_uris": {"android": "https://dc.lft.to/lastmile_qr_scan", "ios": "https://dc.lft.to/lastmile_qr_scan"}, "name": "8674058a19e53a8cf864e3aa92476dfd", "type": "electric_scooter", "lat": 38.9001765, "is_disabled": 0}, {"fusion_lat": 0.0, "lon": -77.04403666666667, "is_reserved": 0, "bike_id": "40a5ba3c74dfc71edeac8e1e393ef968", "fusion_lon": 0.0, "rental_uris": {"android": "https://dc.lft.to/lastmile_qr_scan", "ios": "https://dc.lft.to/lastmile_qr_scan"}, "name": "40a5ba3c74dfc71edeac8e1e393ef968", "type": "electric_scooter", "lat": 38.9245155, "is_disabled": 0}, {"fusion_lat": 0.0, "lon": -77.03333733333334, "is_reserved": 0, "bike_id": "bc4ab974baa5a68ac0f2b84702a7302c", "fusion_lon": 0.0, "rental_uris": {"android": "https://dc.lft.to/lastmile_qr_scan", "ios": "https://dc.lft.to/lastmile_qr_scan"}, "name": "bc4ab974baa5a68ac0f2b84702a7302c", "type": "electric_scooter", "lat": 38.92873983333333, "is_disabled": 0}, {"fusion_lat": 0.0, "lon": -77.02223583333334, "is_reserved": 0, "bike_id": "f678b9c278c4fcb5d0532665789c3fbc", "fusion_lon": 0.0, "rental_uris": {"android": "https://dc.lft.to/lastmile_qr_scan", "ios": "https://dc.lft.to/lastmile_qr_scan"}, "name": "f678b9c278c4fcb5d0532665789c3fbc", "type": "electric_scooter", "lat": 38.926195, "is_disabled": 0}, {"fusion_lat": 0.0, "lon": -76.98091216666667, "is_reserved": 0, "bike_id": "ce71592659487a3e5d00ad1953697a3d", "fusion_lon": 0.0, "rental_uris": {"android": "https://dc.lft.to/lastmile_qr_scan", "ios": "https://dc.lft.to/lastmile_qr_scan"}, "name": "ce71592659487a3e5d00ad1953697a3d", "type": "electric_bike", "lat": 38.953611333333335, "is_disabled": 0}, {"fusion_lat": 0.0, "lon": -77.03857066666667, "is_reserved": 0, "bike_id": "dc66eacb06c3d21bd63fd7eecec32a87", "fusion_lon": 0.0, "rental_uris": {"android": "https://dc.lft.to/lastmile_qr_scan", "ios": "https://dc.lft.to/lastmile_qr_scan"}, "name": "dc66eacb06c3d21bd63fd7eecec32a87", "type": "electric_scooter", "lat": 38.903626, "is_disabled": 0}, {"fusion_lat": 0.0, "lon": -77.0218195, "is_reserved": 0, "bike_id": "0106c6f463f6cc0e46f83b8b837eb571", "fusion_lon": 0.0, "rental_uris": {"android": "https://dc.lft.to/lastmile_qr_scan", "ios": "https://dc.lft.to/lastmile_qr_scan"}, "name": "0106c6f463f6cc0e46f83b8b837eb571", "type": "electric_scooter", "lat": 38.90954716666667, "is_disabled": 0}, {"fusion_lat": 0.0, "lon": -76.9903375, "is_reserved": 0, "bike_id": "f4df7687014eff73bf5819c120dd3b4e", "fusion_lon": 0.0, "rental_uris": {"android": "https://dc.lft.to/lastmile_qr_scan", "ios": "https://dc.lft.to/lastmile_qr_scan"}, "name": "f4df7687014eff73bf5819c120dd3b4e", "type": "electric_scooter", "lat": 38.8985375, "is_disabled": 0}, {"fusion_lat": 0.0, "lon": -77.01985183333333, "is_reserved": 0, "bike_id": "99c8ef33b7fd82ac3afbf27ae48f9dae", "fusion_lon": 0.0, "rental_uris": {"android": "https://dc.lft.to/lastmile_qr_scan", "ios": "https://dc.lft.to/lastmile_qr_scan"}, "name": "99c8ef33b7fd82ac3afbf27ae48f9dae", "type": "electric_bike", "lat": 38.9227035, "is_disabled": 0}, {"fusion_lat": 0.0, "lon": -76.989246, "is_reserved": 0, "bike_id": "41de09d6a18c2a8814f9aede8ef65231", "fusion_lon": 0.0, "rental_uris": {"android": "https://dc.lft.to/lastmile_qr_scan", "ios": "https://dc.lft.to/lastmile_qr_scan"}, "name": "41de09d6a18c2a8814f9aede8ef65231", "type": "electric_scooter", "lat": 38.858140666666664, "is_disabled": 0}, {"fusion_lat": 0.0, "lon": -77.0155475, "is_reserved": 0, "bike_id": "64593342144f2bb949216ed0b11217d9", "fusion_lon": 0.0, "rental_uris": {"android": "https://dc.lft.to/lastmile_qr_scan", "ios": "https://dc.lft.to/lastmile_qr_scan"}, "name": "64593342144f2bb949216ed0b11217d9", "type": "electric_bike", "lat": 38.975023166666666, "is_disabled": 0}, {"fusion_lat": 0.0, "lon": -77.06981016666667, "is_reserved": 0, "bike_id": "c1980690f65c832bfee6a4a01d62e912", "fusion_lon": 0.0, "rental_uris": {"android": "https://dc.lft.to/lastmile_qr_scan", "ios": "https://dc.lft.to/lastmile_qr_scan"}, "name": "c1980690f65c832bfee6a4a01d62e912", "type": "electric_scooter", "lat": 38.95257633333333, "is_disabled": 0}, {"fusion_lat": 0.0, "lon": -77.02114916666666, "is_reserved": 0, "bike_id": "42e80c8676c4836f6864c864cfd77a7a", "fusion_lon": 0.0, "rental_uris": {"android": "https://dc.lft.to/lastmile_qr_scan", "ios": "https://dc.lft.to/lastmile_qr_scan"}, "name": "42e80c8676c4836f6864c864cfd77a7a", "type": "electric_scooter", "lat": 38.90574633333333, "is_disabled": 0}, {"fusion_lat": 0.0, "lon": -77.03397566666666, "is_reserved": 0, "bike_id": "59dce80bbbdf278bebebc67cb5046034", "fusion_lon": 0.0, "rental_uris": {"android": "https://dc.lft.to/lastmile_qr_scan", "ios": "https://dc.lft.to/lastmile_qr_scan"}, "name": "59dce80bbbdf278bebebc67cb5046034", "type": "electric_scooter", "lat": 38.9095385, "is_disabled": 0}, {"fusion_lat": 0.0, "lon": -76.9008125, "is_reserved": 0, "bike_id": "9e55ea9642dac669d02286aeed68dbb8", "fusion_lon": 0.0, "rental_uris": {"android": "https://dc.lft.to/lastmile_qr_scan", "ios": "https://dc.lft.to/lastmile_qr_scan"}, "name": "9e55ea9642dac669d02286aeed68dbb8", "type": "electric_bike", "lat": 38.8875095, "is_disabled": 0}, {"fusion_lat": 0.0, "lon": -76.9882295, "is_reserved": 0, "bike_id": "a35f90a0738b86aa986863852342268a", "fusion_lon": 0.0, "rental_uris": {"android": "https://dc.lft.to/lastmile_qr_scan", "ios": "https://dc.lft.to/lastmile_qr_scan"}, "name": "a35f90a0738b86aa986863852342268a", "type": "electric_scooter", "lat": 38.890792, "is_disabled": 0}, {"fusion_lat": 0.0, "lon": -76.96838483333333, "is_reserved": 0, "bike_id": "5789d0a89e0c9ee09ffc2abc094bb288", "fusion_lon": 0.0, "rental_uris": {"android": "https://dc.lft.to/lastmile_qr_scan", "ios": "https://dc.lft.to/lastmile_qr_scan"}, "name": "5789d0a89e0c9ee09ffc2abc094bb288", "type": "electric_bike", "lat": 38.943231, "is_disabled": 0}, {"fusion_lat": 0.0, "lon": -77.03246216666666, "is_reserved": 0, "bike_id": "3970e3738060925120e6892c96db0760", "fusion_lon": 0.0, "rental_uris": {"android": "https://dc.lft.to/lastmile_qr_scan", "ios": "https://dc.lft.to/lastmile_qr_scan"}, "name": "3970e3738060925120e6892c96db0760", "type": "electric_scooter", "lat": 38.9288575, "is_disabled": 0}, {"fusion_lat": 0.0, "lon": -76.956568, "is_reserved": 0, "bike_id": "4e5a8808c6631517b85f02173a0f97f6", "fusion_lon": 0.0, "rental_uris": {"android": "https://dc.lft.to/lastmile_qr_scan", "ios": "https://dc.lft.to/lastmile_qr_scan"}, "name": "4e5a8808c6631517b85f02173a0f97f6", "type": "electric_scooter", "lat": 38.8960985, "is_disabled": 0}, {"fusion_lat": 0.0, "lon": -77.03472866666667, "is_reserved": 0, "bike_id": "168556ba884fe4b62bbf99d84c4d39b0", "fusion_lon": 0.0, "rental_uris": {"android": "https://dc.lft.to/lastmile_qr_scan", "ios": "https://dc.lft.to/lastmile_qr_scan"}, "name": "168556ba884fe4b62bbf99d84c4d39b0", "type": "electric_scooter", "lat": 38.91709916666667, "is_disabled": 0}, {"fusion_lat": 0.0, "lon": -77.0399525, "is_reserved": 0, "bike_id": "9c56793582b456c6772a5d46f98d56e6", "fusion_lon": 0.0, "rental_uris": {"android": "https://dc.lft.to/lastmile_qr_scan", "ios": "https://dc.lft.to/lastmile_qr_scan"}, "name": "9c56793582b456c6772a5d46f98d56e6", "type": "electric_scooter", "lat": 38.90567516666667, "is_disabled": 0}, {"fusion_lat": 0.0, "lon": -76.88402566666667, "is_reserved": 0, "bike_id": "bf1549d89da5a361dec82e9f11550339", "fusion_lon": 0.0, "rental_uris": {"android": "https://dc.lft.to/lastmile_qr_scan", "ios": "https://dc.lft.to/lastmile_qr_scan"}, "name": "bf1549d89da5a361dec82e9f11550339", "type": "electric_bike", "lat": 38.93169066666667, "is_disabled": 0}, {"fusion_lat": 0.0, "lon": -77.02711083333334, "is_reserved": 0, "bike_id": "d6495fc7c665da667675c3e226b46713", "fusion_lon": 0.0, "rental_uris": {"android": "https://dc.lft.to/lastmile_qr_scan", "ios": "https://dc.lft.to/lastmile_qr_scan"}, "name": "d6495fc7c665da667675c3e226b46713", "type": "electric_scooter", "lat": 38.924694, "is_disabled": 0}, {"fusion_lat": 0.0, "lon": -76.93167016666666, "is_reserved": 0, "bike_id": "128c938a586263b38131c98a635208bc", "fusion_lon": 0.0, "rental_uris": {"android": "https://dc.lft.to/lastmile_qr_scan", "ios": "https://dc.lft.to/lastmile_qr_scan"}, "name": "128c938a586263b38131c98a635208bc", "type": "electric_bike", "lat": 38.90864583333333, "is_disabled": 0}, {"fusion_lat": 0.0, "lon": -77.04660183333333, "is_reserved": 0, "bike_id": "03f3f7eb4f87bd6446fd7a63bdc86915", "fusion_lon": 0.0, "rental_uris": {"android": "https://dc.lft.to/lastmile_qr_scan", "ios": "https://dc.lft.to/lastmile_qr_scan"}, "name": "03f3f7eb4f87bd6446fd7a63bdc86915", "type": "electric_scooter", "lat": 38.90380283333333, "is_disabled": 0}, {"fusion_lat": 0.0, "lon": -77.01757016666667, "is_reserved": 0, "bike_id": "e8df4784c9a31c4cb3f922e7c02ac9b7", "fusion_lon": 0.0, "rental_uris": {"android": "https://dc.lft.to/lastmile_qr_scan", "ios": "https://dc.lft.to/lastmile_qr_scan"}, "name": "e8df4784c9a31c4cb3f922e7c02ac9b7", "type": "electric_scooter", "lat": 38.877254666666666, "is_disabled": 0}, {"fusion_lat": 0.0, "lon": -77.0181105, "is_reserved": 0, "bike_id": "fb9770bfc0e3b0502e4935133e345de0", "fusion_lon": 0.0, "rental_uris": {"android": "https://dc.lft.to/lastmile_qr_scan", "ios": "https://dc.lft.to/lastmile_qr_scan"}, "name": "fb9770bfc0e3b0502e4935133e345de0", "type": "electric_scooter", "lat": 38.96484316666667, "is_disabled": 0}, {"fusion_lat": 0.0, "lon": -77.044782, "is_reserved": 0, "bike_id": "9fe90a9d8b8e575d7ea47f53588ab4db", "fusion_lon": 0.0, "rental_uris": {"android": "https://dc.lft.to/lastmile_qr_scan", "ios": "https://dc.lft.to/lastmile_qr_scan"}, "name": "9fe90a9d8b8e575d7ea47f53588ab4db", "type": "electric_scooter", "lat": 38.91083783333333, "is_disabled": 0}, {"fusion_lat": 0.0, "lon": -77.04655866666667, "is_reserved": 0, "bike_id": "8547557e3666e50d12420db5a908ab1a", "fusion_lon": 0.0, "rental_uris": {"android": "https://dc.lft.to/lastmile_qr_scan", "ios": "https://dc.lft.to/lastmile_qr_scan"}, "name": "8547557e3666e50d12420db5a908ab1a", "type": "electric_bike", "lat": 39.055044333333335, "is_disabled": 0}, {"fusion_lat": 0.0, "lon": -77.0074295, "is_reserved": 0, "bike_id": "02bf51d56b757e7c1c32465be5057887", "fusion_lon": 0.0, "rental_uris": {"android": "https://dc.lft.to/lastmile_qr_scan", "ios": "https://dc.lft.to/lastmile_qr_scan"}, "name": "02bf51d56b757e7c1c32465be5057887", "type": "electric_scooter", "lat": 38.87644133333333, "is_disabled": 0}, {"fusion_lat": 0.0, "lon": -76.95017866666667, "is_reserved": 0, "bike_id": "cbccbae6751ece27f5e65cb58543fd0b", "fusion_lon": 0.0, "rental_uris": {"android": "https://dc.lft.to/lastmile_qr_scan", "ios": "https://dc.lft.to/lastmile_qr_scan"}, "name": "cbccbae6751ece27f5e65cb58543fd0b", "type": "electric_scooter", "lat": 38.89388866666667, "is_disabled": 0}, {"fusion_lat": 0.0, "lon": -76.9646705, "is_reserved": 0, "bike_id": "61a6265ce55bd91c8274d3002301d1a1", "fusion_lon": 0.0, "rental_uris": {"android": "https://dc.lft.to/lastmile_qr_scan", "ios": "https://dc.lft.to/lastmile_qr_scan"}, "name": "61a6265ce55bd91c8274d3002301d1a1", "type": "electric_scooter", "lat": 38.93449316666667, "is_disabled": 0}, {"fusion_lat": 0.0, "lon": -77.00598516666666, "is_reserved": 0, "bike_id": "c415a238439f53a5c1e89b953058add8", "fusion_lon": 0.0, "rental_uris": {"android": "https://dc.lft.to/lastmile_qr_scan", "ios": "https://dc.lft.to/lastmile_qr_scan"}, "name": "c415a238439f53a5c1e89b953058add8", "type": "electric_bike", "lat": 38.89816183333333, "is_disabled": 0}, {"fusion_lat": 0.0, "lon": -76.9853205, "is_reserved": 0, "bike_id": "5ccb0b3d98ea967a7e102daac4c8cad0", "fusion_lon": 0.0, "rental_uris": {"android": "https://dc.lft.to/lastmile_qr_scan", "ios": "https://dc.lft.to/lastmile_qr_scan"}, "name": "5ccb0b3d98ea967a7e102daac4c8cad0", "type": "electric_scooter", "lat": 38.91027316666667, "is_disabled": 0}, {"fusion_lat": 0.0, "lon": -77.05195333333333, "is_reserved": 0, "bike_id": "6b707accf4ac9850e01db890031e93a5", "fusion_lon": 0.0, "rental_uris": {"android": "https://dc.lft.to/lastmile_qr_scan", "ios": "https://dc.lft.to/lastmile_qr_scan"}, "name": "6b707accf4ac9850e01db890031e93a5", "type": "electric_scooter", "lat": 38.924634833333336, "is_disabled": 0}, {"fusion_lat": 0.0, "lon": -76.9919195, "is_reserved": 0, "bike_id": "1863d1cd087282c1f33f3f50ac196ae7", "fusion_lon": 0.0, "rental_uris": {"android": "https://dc.lft.to/lastmile_qr_scan", "ios": "https://dc.lft.to/lastmile_qr_scan"}, "name": "1863d1cd087282c1f33f3f50ac196ae7", "type": "electric_scooter", "lat": 38.90027033333333, "is_disabled": 0}, {"fusion_lat": 0.0, "lon": -77.0268205, "is_reserved": 0, "bike_id": "5712b2341347790440732ea60db1d6de", "fusion_lon": 0.0, "rental_uris": {"android": "https://dc.lft.to/lastmile_qr_scan", "ios": "https://dc.lft.to/lastmile_qr_scan"}, "name": "5712b2341347790440732ea60db1d6de", "type": "electric_scooter", "lat": 38.9277775, "is_disabled": 0}, {"fusion_lat": 0.0, "lon": -77.02682516666667, "is_reserved": 0, "bike_id": "7003601ce20a209deb9470dc50073092", "fusion_lon": 0.0, "rental_uris": {"android": "https://dc.lft.to/lastmile_qr_scan", "ios": "https://dc.lft.to/lastmile_qr_scan"}, "name": "7003601ce20a209deb9470dc50073092", "type": "electric_scooter", "lat": 38.984885166666665, "is_disabled": 0}, {"fusion_lat": 0.0, "lon": -76.9921525, "is_reserved": 0, "bike_id": "e032c83582db86e6310c48956cbec463", "fusion_lon": 0.0, "rental_uris": {"android": "https://dc.lft.to/lastmile_qr_scan", "ios": "https://dc.lft.to/lastmile_qr_scan"}, "name": "e032c83582db86e6310c48956cbec463", "type": "electric_scooter", "lat": 38.8952285, "is_disabled": 0}, {"fusion_lat": 0.0, "lon": -77.018126, "is_reserved": 0, "bike_id": "9ec08b8f3d99eb0c375778001c5a7d01", "fusion_lon": 0.0, "rental_uris": {"android": "https://dc.lft.to/lastmile_qr_scan", "ios": "https://dc.lft.to/lastmile_qr_scan"}, "name": "9ec08b8f3d99eb0c375778001c5a7d01", "type": "electric_scooter", "lat": 38.893165333333336, "is_disabled": 0}, {"fusion_lat": 0.0, "lon": -77.023967, "is_reserved": 0, "bike_id": "a303d223b11d216823e978087577ec94", "fusion_lon": 0.0, "rental_uris": {"android": "https://dc.lft.to/lastmile_qr_scan", "ios": "https://dc.lft.to/lastmile_qr_scan"}, "name": "a303d223b11d216823e978087577ec94", "type": "electric_scooter", "lat": 38.91960566666667, "is_disabled": 0}, {"fusion_lat": 0.0, "lon": -77.03166266666666, "is_reserved": 0, "bike_id": "d0751b8a2b737b4f5808f6d4e48fd1a7", "fusion_lon": 0.0, "rental_uris": {"android": "https://dc.lft.to/lastmile_qr_scan", "ios": "https://dc.lft.to/lastmile_qr_scan"}, "name": "d0751b8a2b737b4f5808f6d4e48fd1a7", "type": "electric_scooter", "lat": 38.884159, "is_disabled": 0}, {"fusion_lat": 0.0, "lon": -76.996981, "is_reserved": 0, "bike_id": "2b4bbed4c73f7d0053730bd424c7212c", "fusion_lon": 0.0, "rental_uris": {"android": "https://dc.lft.to/lastmile_qr_scan", "ios": "https://dc.lft.to/lastmile_qr_scan"}, "name": "2b4bbed4c73f7d0053730bd424c7212c", "type": "electric_scooter", "lat": 38.90835783333333, "is_disabled": 0}, {"fusion_lat": 0.0, "lon": -77.01470516666667, "is_reserved": 0, "bike_id": "23a4668a92beaabbaeb0886caba56d48", "fusion_lon": 0.0, "rental_uris": {"android": "https://dc.lft.to/lastmile_qr_scan", "ios": "https://dc.lft.to/lastmile_qr_scan"}, "name": "23a4668a92beaabbaeb0886caba56d48", "type": "electric_scooter", "lat": 38.926879666666665, "is_disabled": 0}, {"fusion_lat": 0.0, "lon": -77.02691933333334, "is_reserved": 0, "bike_id": "4322fd137927eaa98116c814ecf69285", "fusion_lon": 0.0, "rental_uris": {"android": "https://dc.lft.to/lastmile_qr_scan", "ios": "https://dc.lft.to/lastmile_qr_scan"}, "name": "4322fd137927eaa98116c814ecf69285", "type": "electric_scooter", "lat": 38.9489015, "is_disabled": 0}, {"fusion_lat": 0.0, "lon": -77.06374583333333, "is_reserved": 0, "bike_id": "42c442d69d6b14209be822ae93f4444a", "fusion_lon": 0.0, "rental_uris": {"android": "https://dc.lft.to/lastmile_qr_scan", "ios": "https://dc.lft.to/lastmile_qr_scan"}, "name": "42c442d69d6b14209be822ae93f4444a", "type": "electric_scooter", "lat": 38.908213833333335, "is_disabled": 0}, {"fusion_lat": 0.0, "lon": -77.04352616666667, "is_reserved": 0, "bike_id": "dfac7651d0730241a2e838ba8f5d2ae9", "fusion_lon": 0.0, "rental_uris": {"android": "https://dc.lft.to/lastmile_qr_scan", "ios": "https://dc.lft.to/lastmile_qr_scan"}, "name": "dfac7651d0730241a2e838ba8f5d2ae9", "type": "electric_scooter", "lat": 38.90294016666667, "is_disabled": 0}, {"fusion_lat": 0.0, "lon": -77.03248766666667, "is_reserved": 0, "bike_id": "1deef3863a1419f1c23570e2a011f315", "fusion_lon": 0.0, "rental_uris": {"android": "https://dc.lft.to/lastmile_qr_scan", "ios": "https://dc.lft.to/lastmile_qr_scan"}, "name": "1deef3863a1419f1c23570e2a011f315", "type": "electric_scooter", "lat": 38.929158666666666, "is_disabled": 0}, {"fusion_lat": 0.0, "lon": -76.98746616666666, "is_reserved": 0, "bike_id": "991ce9d71c9c283bf136ec826719dcdf", "fusion_lon": 0.0, "rental_uris": {"android": "https://dc.lft.to/lastmile_qr_scan", "ios": "https://dc.lft.to/lastmile_qr_scan"}, "name": "991ce9d71c9c283bf136ec826719dcdf", "type": "electric_scooter", "lat": 38.844875333333334, "is_disabled": 0}, {"fusion_lat": 0.0, "lon": -77.00333966666666, "is_reserved": 0, "bike_id": "228c5e968694264d5475a04d54f37698", "fusion_lon": 0.0, "rental_uris": {"android": "https://dc.lft.to/lastmile_qr_scan", "ios": "https://dc.lft.to/lastmile_qr_scan"}, "name": "228c5e968694264d5475a04d54f37698", "type": "electric_scooter", "lat": 38.889883, "is_disabled": 0}, {"fusion_lat": 0.0, "lon": -76.99803216666666, "is_reserved": 0, "bike_id": "633e0ccf69ce22aef7122dcce7f6a63b", "fusion_lon": 0.0, "rental_uris": {"android": "https://dc.lft.to/lastmile_qr_scan", "ios": "https://dc.lft.to/lastmile_qr_scan"}, "name": "633e0ccf69ce22aef7122dcce7f6a63b", "type": "electric_scooter", "lat": 38.885671333333335, "is_disabled": 0}, {"fusion_lat": 0.0, "lon": -77.0416675, "is_reserved": 0, "bike_id": "b501f823e03a9b225e22d71d00af34f6", "fusion_lon": 0.0, "rental_uris": {"android": "https://dc.lft.to/lastmile_qr_scan", "ios": "https://dc.lft.to/lastmile_qr_scan"}, "name": "b501f823e03a9b225e22d71d00af34f6", "type": "electric_scooter", "lat": 38.919805833333335, "is_disabled": 0}, {"fusion_lat": 0.0, "lon": -77.02054166666667, "is_reserved": 0, "bike_id": "b0b9932c0684ab1dde4d86d5e749734e", "fusion_lon": 0.0, "rental_uris": {"android": "https://dc.lft.to/lastmile_qr_scan", "ios": "https://dc.lft.to/lastmile_qr_scan"}, "name": "b0b9932c0684ab1dde4d86d5e749734e", "type": "electric_bike", "lat": 38.957586166666665, "is_disabled": 0}, {"fusion_lat": 0.0, "lon": -77.02741883333333, "is_reserved": 0, "bike_id": "7b0dbb13f18e42e3bb5417310b47e331", "fusion_lon": 0.0, "rental_uris": {"android": "https://dc.lft.to/lastmile_qr_scan", "ios": "https://dc.lft.to/lastmile_qr_scan"}, "name": "7b0dbb13f18e42e3bb5417310b47e331", "type": "electric_scooter", "lat": 38.9277285, "is_disabled": 0}, {"fusion_lat": 0.0, "lon": -77.04823783333333, "is_reserved": 0, "bike_id": "b87a074b02029eb9762ad5d714680911", "fusion_lon": 0.0, "rental_uris": {"android": "https://dc.lft.to/lastmile_qr_scan", "ios": "https://dc.lft.to/lastmile_qr_scan"}, "name": "b87a074b02029eb9762ad5d714680911", "type": "electric_scooter", "lat": 38.9105495, "is_disabled": 0}, {"fusion_lat": 0.0, "lon": -77.00607, "is_reserved": 0, "bike_id": "0aa10ec9bb20dd42c326e64beb7c4af4", "fusion_lon": 0.0, "rental_uris": {"android": "https://dc.lft.to/lastmile_qr_scan", "ios": "https://dc.lft.to/lastmile_qr_scan"}, "name": "0aa10ec9bb20dd42c326e64beb7c4af4", "type": "electric_scooter", "lat": 38.875483833333334, "is_disabled": 0}, {"fusion_lat": 0.0, "lon": -77.00213516666666, "is_reserved": 0, "bike_id": "8bb12ab8b3b2f9e9f4127d9afb5610a5", "fusion_lon": 0.0, "rental_uris": {"android": "https://dc.lft.to/lastmile_qr_scan", "ios": "https://dc.lft.to/lastmile_qr_scan"}, "name": "8bb12ab8b3b2f9e9f4127d9afb5610a5", "type": "electric_scooter", "lat": 38.900521166666664, "is_disabled": 0}, {"fusion_lat": 0.0, "lon": -76.99570316666667, "is_reserved": 0, "bike_id": "d72cfce228c5f2dba8c0f060fcffad76", "fusion_lon": 0.0, "rental_uris": {"android": "https://dc.lft.to/lastmile_qr_scan", "ios": "https://dc.lft.to/lastmile_qr_scan"}, "name": "d72cfce228c5f2dba8c0f060fcffad76", "type": "electric_scooter", "lat": 38.884272, "is_disabled": 0}, {"fusion_lat": 0.0, "lon": -77.01985016666667, "is_reserved": 0, "bike_id": "caf0d8d52d90b3c27ed74ad68b631023", "fusion_lon": 0.0, "rental_uris": {"android": "https://dc.lft.to/lastmile_qr_scan", "ios": "https://dc.lft.to/lastmile_qr_scan"}, "name": "caf0d8d52d90b3c27ed74ad68b631023", "type": "electric_scooter", "lat": 38.895566333333335, "is_disabled": 0}, {"fusion_lat": 0.0, "lon": -76.994924, "is_reserved": 0, "bike_id": "e7cce966da90c5799f463c1de968cb09", "fusion_lon": 0.0, "rental_uris": {"android": "https://dc.lft.to/lastmile_qr_scan", "ios": "https://dc.lft.to/lastmile_qr_scan"}, "name": "e7cce966da90c5799f463c1de968cb09", "type": "electric_scooter", "lat": 38.881524, "is_disabled": 0}, {"fusion_lat": 0.0, "lon": -77.0194715, "is_reserved": 0, "bike_id": "80c124dc83ee9455051efb857c2aa585", "fusion_lon": 0.0, "rental_uris": {"android": "https://dc.lft.to/lastmile_qr_scan", "ios": "https://dc.lft.to/lastmile_qr_scan"}, "name": "80c124dc83ee9455051efb857c2aa585", "type": "electric_scooter", "lat": 38.92419533333333, "is_disabled": 0}, {"fusion_lat": 0.0, "lon": -77.043284, "is_reserved": 0, "bike_id": "df6389d9af00f0d01ab1ed674056761f", "fusion_lon": 0.0, "rental_uris": {"android": "https://dc.lft.to/lastmile_qr_scan", "ios": "https://dc.lft.to/lastmile_qr_scan"}, "name": "df6389d9af00f0d01ab1ed674056761f", "type": "electric_bike", "lat": 38.92431966666667, "is_disabled": 0}, {"fusion_lat": 0.0, "lon": -77.00922566666667, "is_reserved": 0, "bike_id": "88a945170505d1005eab4a87e8962105", "fusion_lon": 0.0, "rental_uris": {"android": "https://dc.lft.to/lastmile_qr_scan", "ios": "https://dc.lft.to/lastmile_qr_scan"}, "name": "88a945170505d1005eab4a87e8962105", "type": "electric_scooter", "lat": 38.89607866666667, "is_disabled": 0}, {"fusion_lat": 0.0, "lon": -77.02156583333333, "is_reserved": 0, "bike_id": "8bb93ebdfcb7207ff3cabadac7b7f4c6", "fusion_lon": 0.0, "rental_uris": {"android": "https://dc.lft.to/lastmile_qr_scan", "ios": "https://dc.lft.to/lastmile_qr_scan"}, "name": "8bb93ebdfcb7207ff3cabadac7b7f4c6", "type": "electric_scooter", "lat": 38.92604816666667, "is_disabled": 0}, {"fusion_lat": 0.0, "lon": -76.99705583333333, "is_reserved": 0, "bike_id": "d2a2bb1530533840e5034976855c4f32", "fusion_lon": 0.0, "rental_uris": {"android": "https://dc.lft.to/lastmile_qr_scan", "ios": "https://dc.lft.to/lastmile_qr_scan"}, "name": "d2a2bb1530533840e5034976855c4f32", "type": "electric_scooter", "lat": 38.844321666666666, "is_disabled": 0}, {"fusion_lat": 0.0, "lon": -77.07603916666666, "is_reserved": 0, "bike_id": "24569dbdcdefd4be121bbf7808932940", "fusion_lon": 0.0, "rental_uris": {"android": "https://dc.lft.to/lastmile_qr_scan", "ios": "https://dc.lft.to/lastmile_qr_scan"}, "name": "24569dbdcdefd4be121bbf7808932940", "type": "electric_scooter", "lat": 38.920589166666666, "is_disabled": 0}, {"fusion_lat": 0.0, "lon": -76.9876395, "is_reserved": 0, "bike_id": "f856b8b64891b7aa291038f8158db071", "fusion_lon": 0.0, "rental_uris": {"android": "https://dc.lft.to/lastmile_qr_scan", "ios": "https://dc.lft.to/lastmile_qr_scan"}, "name": "f856b8b64891b7aa291038f8158db071", "type": "electric_scooter", "lat": 38.90028133333333, "is_disabled": 0}, {"fusion_lat": 0.0, "lon": -76.97603633333334, "is_reserved": 0, "bike_id": "0ed9d50549aa3feb709bd9cf5d77a472", "fusion_lon": 0.0, "rental_uris": {"android": "https://dc.lft.to/lastmile_qr_scan", "ios": "https://dc.lft.to/lastmile_qr_scan"}, "name": "0ed9d50549aa3feb709bd9cf5d77a472", "type": "electric_scooter", "lat": 38.897518833333336, "is_disabled": 0}, {"fusion_lat": 0.0, "lon": -77.02742883333333, "is_reserved": 0, "bike_id": "b2a220d985689bc9a113576fe2ef5696", "fusion_lon": 0.0, "rental_uris": {"android": "https://dc.lft.to/lastmile_qr_scan", "ios": "https://dc.lft.to/lastmile_qr_scan"}, "name": "b2a220d985689bc9a113576fe2ef5696", "type": "electric_scooter", "lat": 38.9239015, "is_disabled": 0}, {"fusion_lat": 0.0, "lon": -77.03095733333333, "is_reserved": 0, "bike_id": "02d8e060689a3c4ebdac5ff0613ac6a2", "fusion_lon": 0.0, "rental_uris": {"android": "https://dc.lft.to/lastmile_qr_scan", "ios": "https://dc.lft.to/lastmile_qr_scan"}, "name": "02d8e060689a3c4ebdac5ff0613ac6a2", "type": "electric_scooter", "lat": 38.923832833333336, "is_disabled": 0}, {"fusion_lat": 0.0, "lon": -77.02495066666667, "is_reserved": 0, "bike_id": "38128ffe52fd1778e59abb8e0c056491", "fusion_lon": 0.0, "rental_uris": {"android": "https://dc.lft.to/lastmile_qr_scan", "ios": "https://dc.lft.to/lastmile_qr_scan"}, "name": "38128ffe52fd1778e59abb8e0c056491", "type": "electric_scooter", "lat": 38.9418635, "is_disabled": 0}, {"fusion_lat": 0.0, "lon": -77.02875866666666, "is_reserved": 0, "bike_id": "7eee8b04b6888c1da895de703821bdcc", "fusion_lon": 0.0, "rental_uris": {"android": "https://dc.lft.to/lastmile_qr_scan", "ios": "https://dc.lft.to/lastmile_qr_scan"}, "name": "7eee8b04b6888c1da895de703821bdcc", "type": "electric_scooter", "lat": 38.9282435, "is_disabled": 0}, {"fusion_lat": 0.0, "lon": -77.02947866666666, "is_reserved": 0, "bike_id": "9d757ce5cd19d324335d757be4f2af4e", "fusion_lon": 0.0, "rental_uris": {"android": "https://dc.lft.to/lastmile_qr_scan", "ios": "https://dc.lft.to/lastmile_qr_scan"}, "name": "9d757ce5cd19d324335d757be4f2af4e", "type": "electric_scooter", "lat": 38.89760833333333, "is_disabled": 0}, {"fusion_lat": 0.0, "lon": -77.02698316666667, "is_reserved": 0, "bike_id": "51bf3083a9c24cb9420761722f9b0a8a", "fusion_lon": 0.0, "rental_uris": {"android": "https://dc.lft.to/lastmile_qr_scan", "ios": "https://dc.lft.to/lastmile_qr_scan"}, "name": "51bf3083a9c24cb9420761722f9b0a8a", "type": "electric_scooter", "lat": 38.926614, "is_disabled": 0}, {"fusion_lat": 0.0, "lon": -77.00924766666667, "is_reserved": 0, "bike_id": "c18d48317994eb9cbd6a155112a115ae", "fusion_lon": 0.0, "rental_uris": {"android": "https://dc.lft.to/lastmile_qr_scan", "ios": "https://dc.lft.to/lastmile_qr_scan"}, "name": "c18d48317994eb9cbd6a155112a115ae", "type": "electric_scooter", "lat": 38.89606333333333, "is_disabled": 0}, {"fusion_lat": 0.0, "lon": -77.04156483333334, "is_reserved": 0, "bike_id": "c9bb40974f6f2e06e41f23dda1e14803", "fusion_lon": 0.0, "rental_uris": {"android": "https://dc.lft.to/lastmile_qr_scan", "ios": "https://dc.lft.to/lastmile_qr_scan"}, "name": "c9bb40974f6f2e06e41f23dda1e14803", "type": "electric_bike", "lat": 38.907319333333334, "is_disabled": 0}, {"fusion_lat": 0.0, "lon": -77.0333055, "is_reserved": 0, "bike_id": "727bbe0dce02dfd099103bd504e8a695", "fusion_lon": 0.0, "rental_uris": {"android": "https://dc.lft.to/lastmile_qr_scan", "ios": "https://dc.lft.to/lastmile_qr_scan"}, "name": "727bbe0dce02dfd099103bd504e8a695", "type": "electric_scooter", "lat": 38.91714783333333, "is_disabled": 0}, {"fusion_lat": 0.0, "lon": -77.0076435, "is_reserved": 0, "bike_id": "0de59fb938809a22fde3b7c78162bb43", "fusion_lon": 0.0, "rental_uris": {"android": "https://dc.lft.to/lastmile_qr_scan", "ios": "https://dc.lft.to/lastmile_qr_scan"}, "name": "0de59fb938809a22fde3b7c78162bb43", "type": "electric_bike", "lat": 38.983949, "is_disabled": 0}, {"fusion_lat": 0.0, "lon": -77.0107015, "is_reserved": 0, "bike_id": "a55ce324a87474ca99a0a61d40aac3e0", "fusion_lon": 0.0, "rental_uris": {"android": "https://dc.lft.to/lastmile_qr_scan", "ios": "https://dc.lft.to/lastmile_qr_scan"}, "name": "a55ce324a87474ca99a0a61d40aac3e0", "type": "electric_scooter", "lat": 38.9126695, "is_disabled": 0}, {"fusion_lat": 0.0, "lon": -77.0227875, "is_reserved": 0, "bike_id": "f80d07ca0827a65c7fe12ae397662b52", "fusion_lon": 0.0, "rental_uris": {"android": "https://dc.lft.to/lastmile_qr_scan", "ios": "https://dc.lft.to/lastmile_qr_scan"}, "name": "f80d07ca0827a65c7fe12ae397662b52", "type": "electric_scooter", "lat": 38.90237883333333, "is_disabled": 0}, {"fusion_lat": 0.0, "lon": -77.04546083333334, "is_reserved": 0, "bike_id": "bbe6df800c2e82a6191ab63f16887429", "fusion_lon": 0.0, "rental_uris": {"android": "https://dc.lft.to/lastmile_qr_scan", "ios": "https://dc.lft.to/lastmile_qr_scan"}, "name": "bbe6df800c2e82a6191ab63f16887429", "type": "electric_scooter", "lat": 38.896128166666664, "is_disabled": 0}, {"fusion_lat": 0.0, "lon": -76.99456, "is_reserved": 0, "bike_id": "56d9d2f0d2d486b3f3b02fc4f7d95c9c", "fusion_lon": 0.0, "rental_uris": {"android": "https://dc.lft.to/lastmile_qr_scan", "ios": "https://dc.lft.to/lastmile_qr_scan"}, "name": "56d9d2f0d2d486b3f3b02fc4f7d95c9c", "type": "electric_scooter", "lat": 38.86219833333333, "is_disabled": 0}, {"fusion_lat": 0.0, "lon": -77.08036816666667, "is_reserved": 0, "bike_id": "c58291cdffe1fd5e0895e7a186329498", "fusion_lon": 0.0, "rental_uris": {"android": "https://dc.lft.to/lastmile_qr_scan", "ios": "https://dc.lft.to/lastmile_qr_scan"}, "name": "c58291cdffe1fd5e0895e7a186329498", "type": "electric_scooter", "lat": 38.9239095, "is_disabled": 0}, {"fusion_lat": 0.0, "lon": -77.04231816666666, "is_reserved": 0, "bike_id": "717125220e98aeb3e2b25ebf05671374", "fusion_lon": 0.0, "rental_uris": {"android": "https://dc.lft.to/lastmile_qr_scan", "ios": "https://dc.lft.to/lastmile_qr_scan"}, "name": "717125220e98aeb3e2b25ebf05671374", "type": "electric_scooter", "lat": 38.921538166666664, "is_disabled": 0}, {"fusion_lat": 0.0, "lon": -77.044996, "is_reserved": 0, "bike_id": "e5b0a49f472120ce3931c0441ce3e8cc", "fusion_lon": 0.0, "rental_uris": {"android": "https://dc.lft.to/lastmile_qr_scan", "ios": "https://dc.lft.to/lastmile_qr_scan"}, "name": "e5b0a49f472120ce3931c0441ce3e8cc", "type": "electric_scooter", "lat": 38.905140833333334, "is_disabled": 0}, {"fusion_lat": 0.0, "lon": -77.02904216666667, "is_reserved": 0, "bike_id": "88b962b4a7816444d7cd7501ef79930b", "fusion_lon": 0.0, "rental_uris": {"android": "https://dc.lft.to/lastmile_qr_scan", "ios": "https://dc.lft.to/lastmile_qr_scan"}, "name": "88b962b4a7816444d7cd7501ef79930b", "type": "electric_scooter", "lat": 38.928138833333335, "is_disabled": 0}, {"fusion_lat": 0.0, "lon": -76.99874416666667, "is_reserved": 0, "bike_id": "b086222f2c5032d2c81770dac00e3cdf", "fusion_lon": 0.0, "rental_uris": {"android": "https://dc.lft.to/lastmile_qr_scan", "ios": "https://dc.lft.to/lastmile_qr_scan"}, "name": "b086222f2c5032d2c81770dac00e3cdf", "type": "electric_scooter", "lat": 38.9012865, "is_disabled": 0}, {"fusion_lat": 0.0, "lon": -77.02201916666667, "is_reserved": 0, "bike_id": "3597e675eed15acc349fa5e9b54fc8cf", "fusion_lon": 0.0, "rental_uris": {"android": "https://dc.lft.to/lastmile_qr_scan", "ios": "https://dc.lft.to/lastmile_qr_scan"}, "name": "3597e675eed15acc349fa5e9b54fc8cf", "type": "electric_scooter", "lat": 38.925927, "is_disabled": 0}, {"fusion_lat": 0.0, "lon": -76.98019733333334, "is_reserved": 0, "bike_id": "42dcd32a88216871bafa592ab0be5735", "fusion_lon": 0.0, "rental_uris": {"android": "https://dc.lft.to/lastmile_qr_scan", "ios": "https://dc.lft.to/lastmile_qr_scan"}, "name": "42dcd32a88216871bafa592ab0be5735", "type": "electric_scooter", "lat": 38.90288983333333, "is_disabled": 0}, {"fusion_lat": 0.0, "lon": -77.00203233333333, "is_reserved": 0, "bike_id": "a3f4587f664be997546fed853632e97e", "fusion_lon": 0.0, "rental_uris": {"android": "https://dc.lft.to/lastmile_qr_scan", "ios": "https://dc.lft.to/lastmile_qr_scan"}, "name": "a3f4587f664be997546fed853632e97e", "type": "electric_scooter", "lat": 38.90236733333333, "is_disabled": 0}, {"fusion_lat": 0.0, "lon": -77.04653716666667, "is_reserved": 0, "bike_id": "7091fc703a8069b1d54d8946cea2776e", "fusion_lon": 0.0, "rental_uris": {"android": "https://dc.lft.to/lastmile_qr_scan", "ios": "https://dc.lft.to/lastmile_qr_scan"}, "name": "7091fc703a8069b1d54d8946cea2776e", "type": "electric_scooter", "lat": 38.900117333333334, "is_disabled": 0}, {"fusion_lat": 0.0, "lon": -77.02712333333334, "is_reserved": 0, "bike_id": "e8a0b3d2793ecac02a09c404210a7f95", "fusion_lon": 0.0, "rental_uris": {"android": "https://dc.lft.to/lastmile_qr_scan", "ios": "https://dc.lft.to/lastmile_qr_scan"}, "name": "e8a0b3d2793ecac02a09c404210a7f95", "type": "electric_scooter", "lat": 38.90671233333333, "is_disabled": 0}, {"fusion_lat": 0.0, "lon": -77.019025, "is_reserved": 0, "bike_id": "fd043c2caa762ebb846ad098db7826ec", "fusion_lon": 0.0, "rental_uris": {"android": "https://dc.lft.to/lastmile_qr_scan", "ios": "https://dc.lft.to/lastmile_qr_scan"}, "name": "fd043c2caa762ebb846ad098db7826ec", "type": "electric_scooter", "lat": 38.895619333333336, "is_disabled": 0}, {"fusion_lat": 0.0, "lon": -76.937591, "is_reserved": 0, "bike_id": "775d85390673afe7ee406e1bc6eb86f8", "fusion_lon": 0.0, "rental_uris": {"android": "https://dc.lft.to/lastmile_qr_scan", "ios": "https://dc.lft.to/lastmile_qr_scan"}, "name": "775d85390673afe7ee406e1bc6eb86f8", "type": "electric_scooter", "lat": 38.890452833333335, "is_disabled": 0}, {"fusion_lat": 0.0, "lon": -77.03897283333333, "is_reserved": 0, "bike_id": "b1188e40b92b344944c520760947d995", "fusion_lon": 0.0, "rental_uris": {"android": "https://dc.lft.to/lastmile_qr_scan", "ios": "https://dc.lft.to/lastmile_qr_scan"}, "name": "b1188e40b92b344944c520760947d995", "type": "electric_scooter", "lat": 38.91471033333333, "is_disabled": 0}, {"fusion_lat": 0.0, "lon": -77.00974383333333, "is_reserved": 0, "bike_id": "495277a10aa0bdb49ca24ed71080405a", "fusion_lon": 0.0, "rental_uris": {"android": "https://dc.lft.to/lastmile_qr_scan", "ios": "https://dc.lft.to/lastmile_qr_scan"}, "name": "495277a10aa0bdb49ca24ed71080405a", "type": "electric_scooter", "lat": 38.91417083333333, "is_disabled": 0}, {"fusion_lat": 0.0, "lon": -77.04436516666667, "is_reserved": 0, "bike_id": "2cfefcfe75bfee71bd357b4ef7d98bf6", "fusion_lon": 0.0, "rental_uris": {"android": "https://dc.lft.to/lastmile_qr_scan", "ios": "https://dc.lft.to/lastmile_qr_scan"}, "name": "2cfefcfe75bfee71bd357b4ef7d98bf6", "type": "electric_scooter", "lat": 38.90987366666667, "is_disabled": 0}, {"fusion_lat": 0.0, "lon": -77.01904283333333, "is_reserved": 0, "bike_id": "eda6819c805cec30190c23cd4aca27c7", "fusion_lon": 0.0, "rental_uris": {"android": "https://dc.lft.to/lastmile_qr_scan", "ios": "https://dc.lft.to/lastmile_qr_scan"}, "name": "eda6819c805cec30190c23cd4aca27c7", "type": "electric_scooter", "lat": 38.903106333333334, "is_disabled": 0}, {"fusion_lat": 0.0, "lon": -77.070727, "is_reserved": 0, "bike_id": "b4e366440e6ec15b1099377b3de9f60a", "fusion_lon": 0.0, "rental_uris": {"android": "https://dc.lft.to/lastmile_qr_scan", "ios": "https://dc.lft.to/lastmile_qr_scan"}, "name": "b4e366440e6ec15b1099377b3de9f60a", "type": "electric_scooter", "lat": 38.93168466666667, "is_disabled": 0}, {"fusion_lat": 0.0, "lon": -77.02697466666666, "is_reserved": 0, "bike_id": "91e869f534ec5f9508c7f26eb8274ded", "fusion_lon": 0.0, "rental_uris": {"android": "https://dc.lft.to/lastmile_qr_scan", "ios": "https://dc.lft.to/lastmile_qr_scan"}, "name": "91e869f534ec5f9508c7f26eb8274ded", "type": "electric_scooter", "lat": 38.92373083333333, "is_disabled": 0}, {"fusion_lat": 0.0, "lon": -77.04854766666666, "is_reserved": 0, "bike_id": "43672634a84cc907777f0aa4f6e0209d", "fusion_lon": 0.0, "rental_uris": {"android": "https://dc.lft.to/lastmile_qr_scan", "ios": "https://dc.lft.to/lastmile_qr_scan"}, "name": "43672634a84cc907777f0aa4f6e0209d", "type": "electric_scooter", "lat": 38.905291166666665, "is_disabled": 0}, {"fusion_lat": 0.0, "lon": -77.052704, "is_reserved": 0, "bike_id": "f3b6c8a5b3adba5e5d7ff0ada72054bc", "fusion_lon": 0.0, "rental_uris": {"android": "https://dc.lft.to/lastmile_qr_scan", "ios": "https://dc.lft.to/lastmile_qr_scan"}, "name": "f3b6c8a5b3adba5e5d7ff0ada72054bc", "type": "electric_scooter", "lat": 38.9277625, "is_disabled": 0}, {"fusion_lat": 0.0, "lon": -77.03840833333334, "is_reserved": 0, "bike_id": "76080009138747c093de2461fd2e2ecd", "fusion_lon": 0.0, "rental_uris": {"android": "https://dc.lft.to/lastmile_qr_scan", "ios": "https://dc.lft.to/lastmile_qr_scan"}, "name": "76080009138747c093de2461fd2e2ecd", "type": "electric_scooter", "lat": 38.902801, "is_disabled": 0}, {"fusion_lat": 0.0, "lon": -76.99832566666667, "is_reserved": 0, "bike_id": "6523d824def877e537dca15b09b324d3", "fusion_lon": 0.0, "rental_uris": {"android": "https://dc.lft.to/lastmile_qr_scan", "ios": "https://dc.lft.to/lastmile_qr_scan"}, "name": "6523d824def877e537dca15b09b324d3", "type": "electric_scooter", "lat": 38.88320483333333, "is_disabled": 0}, {"fusion_lat": 0.0, "lon": -77.02409483333334, "is_reserved": 0, "bike_id": "0c92c66d36889e11b211ea1fb2deb789", "fusion_lon": 0.0, "rental_uris": {"android": "https://dc.lft.to/lastmile_qr_scan", "ios": "https://dc.lft.to/lastmile_qr_scan"}, "name": "0c92c66d36889e11b211ea1fb2deb789", "type": "electric_scooter", "lat": 38.9309215, "is_disabled": 0}, {"fusion_lat": 0.0, "lon": -76.9440165, "is_reserved": 0, "bike_id": "ac221f504c50d41ed9ae30fa664fb9b8", "fusion_lon": 0.0, "rental_uris": {"android": "https://dc.lft.to/lastmile_qr_scan", "ios": "https://dc.lft.to/lastmile_qr_scan"}, "name": "ac221f504c50d41ed9ae30fa664fb9b8", "type": "electric_scooter", "lat": 38.881416333333334, "is_disabled": 0}, {"fusion_lat": 0.0, "lon": -77.0452715, "is_reserved": 0, "bike_id": "0749996ccb69ae65946ea1a1839a467c", "fusion_lon": 0.0, "rental_uris": {"android": "https://dc.lft.to/lastmile_qr_scan", "ios": "https://dc.lft.to/lastmile_qr_scan"}, "name": "0749996ccb69ae65946ea1a1839a467c", "type": "electric_bike", "lat": 38.85822783333333, "is_disabled": 0}, {"fusion_lat": 0.0, "lon": -77.03866366666666, "is_reserved": 0, "bike_id": "25cf5abf111f77e281cf06a56ff350a5", "fusion_lon": 0.0, "rental_uris": {"android": "https://dc.lft.to/lastmile_qr_scan", "ios": "https://dc.lft.to/lastmile_qr_scan"}, "name": "25cf5abf111f77e281cf06a56ff350a5", "type": "electric_scooter", "lat": 38.90791216666667, "is_disabled": 0}, {"fusion_lat": 0.0, "lon": -76.99354433333333, "is_reserved": 0, "bike_id": "e32a1054b032c0ede60c0b7734971745", "fusion_lon": 0.0, "rental_uris": {"android": "https://dc.lft.to/lastmile_qr_scan", "ios": "https://dc.lft.to/lastmile_qr_scan"}, "name": "e32a1054b032c0ede60c0b7734971745", "type": "electric_bike", "lat": 38.845073166666666, "is_disabled": 0}, {"fusion_lat": 0.0, "lon": -77.03856183333333, "is_reserved": 0, "bike_id": "f8acb58d634ee8d02dddba2fbbe785fd", "fusion_lon": 0.0, "rental_uris": {"android": "https://dc.lft.to/lastmile_qr_scan", "ios": "https://dc.lft.to/lastmile_qr_scan"}, "name": "f8acb58d634ee8d02dddba2fbbe785fd", "type": "electric_scooter", "lat": 38.903954666666664, "is_disabled": 0}, {"fusion_lat": 0.0, "lon": -77.00659033333334, "is_reserved": 0, "bike_id": "73d65071247e72a911508e780626b5eb", "fusion_lon": 0.0, "rental_uris": {"android": "https://dc.lft.to/lastmile_qr_scan", "ios": "https://dc.lft.to/lastmile_qr_scan"}, "name": "73d65071247e72a911508e780626b5eb", "type": "electric_scooter", "lat": 38.90033066666667, "is_disabled": 0}, {"fusion_lat": 0.0, "lon": -77.04584666666666, "is_reserved": 0, "bike_id": "d8a38e31957e3c2d309b224c9283774e", "fusion_lon": 0.0, "rental_uris": {"android": "https://dc.lft.to/lastmile_qr_scan", "ios": "https://dc.lft.to/lastmile_qr_scan"}, "name": "d8a38e31957e3c2d309b224c9283774e", "type": "electric_scooter", "lat": 38.921328333333335, "is_disabled": 0}, {"fusion_lat": 0.0, "lon": -77.01760683333333, "is_reserved": 0, "bike_id": "f5fe3b90b8f1957f3094aa0938269a54", "fusion_lon": 0.0, "rental_uris": {"android": "https://dc.lft.to/lastmile_qr_scan", "ios": "https://dc.lft.to/lastmile_qr_scan"}, "name": "f5fe3b90b8f1957f3094aa0938269a54", "type": "electric_scooter", "lat": 38.902652333333336, "is_disabled": 0}, {"fusion_lat": 0.0, "lon": -77.1009075, "is_reserved": 0, "bike_id": "3cf030cfc584d43201258a556a0c23c7", "fusion_lon": 0.0, "rental_uris": {"android": "https://dc.lft.to/lastmile_qr_scan", "ios": "https://dc.lft.to/lastmile_qr_scan"}, "name": "3cf030cfc584d43201258a556a0c23c7", "type": "electric_bike", "lat": 38.95958916666667, "is_disabled": 0}, {"fusion_lat": 0.0, "lon": -77.03241583333333, "is_reserved": 0, "bike_id": "a10291f7c9afea5ea83345ba0d826830", "fusion_lon": 0.0, "rental_uris": {"android": "https://dc.lft.to/lastmile_qr_scan", "ios": "https://dc.lft.to/lastmile_qr_scan"}, "name": "a10291f7c9afea5ea83345ba0d826830", "type": "electric_scooter", "lat": 38.90971716666667, "is_disabled": 0}, {"fusion_lat": 0.0, "lon": -77.0116505, "is_reserved": 0, "bike_id": "95389ad12888262ae3ce0cf512ec3d42", "fusion_lon": 0.0, "rental_uris": {"android": "https://dc.lft.to/lastmile_qr_scan", "ios": "https://dc.lft.to/lastmile_qr_scan"}, "name": "95389ad12888262ae3ce0cf512ec3d42", "type": "electric_scooter", "lat": 38.900297, "is_disabled": 0}, {"fusion_lat": 0.0, "lon": -77.05756016666666, "is_reserved": 0, "bike_id": "2ceca5c117c50d17c1799f5bdab230e0", "fusion_lon": 0.0, "rental_uris": {"android": "https://dc.lft.to/lastmile_qr_scan", "ios": "https://dc.lft.to/lastmile_qr_scan"}, "name": "2ceca5c117c50d17c1799f5bdab230e0", "type": "electric_scooter", "lat": 38.924656166666665, "is_disabled": 0}, {"fusion_lat": 0.0, "lon": -77.0273495, "is_reserved": 0, "bike_id": "8723072cb72f2b0d31e50f0ab81c4f6d", "fusion_lon": 0.0, "rental_uris": {"android": "https://dc.lft.to/lastmile_qr_scan", "ios": "https://dc.lft.to/lastmile_qr_scan"}, "name": "8723072cb72f2b0d31e50f0ab81c4f6d", "type": "electric_scooter", "lat": 38.89759983333333, "is_disabled": 0}, {"fusion_lat": 0.0, "lon": -77.041977, "is_reserved": 0, "bike_id": "0ea2de5637528237f300b0c655c4efb0", "fusion_lon": 0.0, "rental_uris": {"android": "https://dc.lft.to/lastmile_qr_scan", "ios": "https://dc.lft.to/lastmile_qr_scan"}, "name": "0ea2de5637528237f300b0c655c4efb0", "type": "electric_scooter", "lat": 38.909133833333335, "is_disabled": 0}, {"fusion_lat": 0.0, "lon": -76.980722, "is_reserved": 0, "bike_id": "03804621acdbbbc26fb90abcaa5ddff5", "fusion_lon": 0.0, "rental_uris": {"android": "https://dc.lft.to/lastmile_qr_scan", "ios": "https://dc.lft.to/lastmile_qr_scan"}, "name": "03804621acdbbbc26fb90abcaa5ddff5", "type": "electric_scooter", "lat": 38.901772666666666, "is_disabled": 0}, {"fusion_lat": 0.0, "lon": -77.03798866666666, "is_reserved": 0, "bike_id": "1b19bc1352093db907af82c8e846abdf", "fusion_lon": 0.0, "rental_uris": {"android": "https://dc.lft.to/lastmile_qr_scan", "ios": "https://dc.lft.to/lastmile_qr_scan"}, "name": "1b19bc1352093db907af82c8e846abdf", "type": "electric_scooter", "lat": 38.91036033333334, "is_disabled": 0}, {"fusion_lat": 0.0, "lon": -77.01095566666666, "is_reserved": 0, "bike_id": "e56f6853dfb1e9c92d5ed425a1242dfd", "fusion_lon": 0.0, "rental_uris": {"android": "https://dc.lft.to/lastmile_qr_scan", "ios": "https://dc.lft.to/lastmile_qr_scan"}, "name": "e56f6853dfb1e9c92d5ed425a1242dfd", "type": "electric_bike", "lat": 38.8729805, "is_disabled": 0}, {"fusion_lat": 0.0, "lon": -77.001967, "is_reserved": 0, "bike_id": "2678609a823db470e7750317dea5d722", "fusion_lon": 0.0, "rental_uris": {"android": "https://dc.lft.to/lastmile_qr_scan", "ios": "https://dc.lft.to/lastmile_qr_scan"}, "name": "2678609a823db470e7750317dea5d722", "type": "electric_scooter", "lat": 38.90031466666667, "is_disabled": 0}, {"fusion_lat": 0.0, "lon": -77.0263925, "is_reserved": 0, "bike_id": "8fc5d7b77a4744bf562d4997fd40e4df", "fusion_lon": 0.0, "rental_uris": {"android": "https://dc.lft.to/lastmile_qr_scan", "ios": "https://dc.lft.to/lastmile_qr_scan"}, "name": "8fc5d7b77a4744bf562d4997fd40e4df", "type": "electric_scooter", "lat": 38.8921915, "is_disabled": 0}, {"fusion_lat": 0.0, "lon": -77.04202433333333, "is_reserved": 0, "bike_id": "0c4da8999c51f0441313ad69ee8c2f80", "fusion_lon": 0.0, "rental_uris": {"android": "https://dc.lft.to/lastmile_qr_scan", "ios": "https://dc.lft.to/lastmile_qr_scan"}, "name": "0c4da8999c51f0441313ad69ee8c2f80", "type": "electric_scooter", "lat": 38.903949, "is_disabled": 0}, {"fusion_lat": 0.0, "lon": -76.99407983333333, "is_reserved": 0, "bike_id": "046b048f67dda96fc00a126effd347ec", "fusion_lon": 0.0, "rental_uris": {"android": "https://dc.lft.to/lastmile_qr_scan", "ios": "https://dc.lft.to/lastmile_qr_scan"}, "name": "046b048f67dda96fc00a126effd347ec", "type": "electric_bike", "lat": 38.83137166666667, "is_disabled": 0}, {"fusion_lat": 0.0, "lon": -77.01646433333333, "is_reserved": 0, "bike_id": "937590de1842f540d349486e301ec078", "fusion_lon": 0.0, "rental_uris": {"android": "https://dc.lft.to/lastmile_qr_scan", "ios": "https://dc.lft.to/lastmile_qr_scan"}, "name": "937590de1842f540d349486e301ec078", "type": "electric_scooter", "lat": 38.881264333333334, "is_disabled": 0}, {"fusion_lat": 0.0, "lon": -77.021319, "is_reserved": 0, "bike_id": "ee75c64a317c3ee7bdbf9fd63abe5140", "fusion_lon": 0.0, "rental_uris": {"android": "https://dc.lft.to/lastmile_qr_scan", "ios": "https://dc.lft.to/lastmile_qr_scan"}, "name": "ee75c64a317c3ee7bdbf9fd63abe5140", "type": "electric_scooter", "lat": 38.923263166666665, "is_disabled": 0}, {"fusion_lat": 0.0, "lon": -77.04512583333333, "is_reserved": 0, "bike_id": "362fad72d3a39fb9567ef09b8ea4a061", "fusion_lon": 0.0, "rental_uris": {"android": "https://dc.lft.to/lastmile_qr_scan", "ios": "https://dc.lft.to/lastmile_qr_scan"}, "name": "362fad72d3a39fb9567ef09b8ea4a061", "type": "electric_scooter", "lat": 38.903745666666666, "is_disabled": 0}, {"fusion_lat": 0.0, "lon": -76.93363366666667, "is_reserved": 0, "bike_id": "372205b025209fc409ddfd3727d81254", "fusion_lon": 0.0, "rental_uris": {"android": "https://dc.lft.to/lastmile_qr_scan", "ios": "https://dc.lft.to/lastmile_qr_scan"}, "name": "372205b025209fc409ddfd3727d81254", "type": "electric_scooter", "lat": 38.89916566666667, "is_disabled": 0}, {"fusion_lat": 0.0, "lon": -77.02537516666666, "is_reserved": 0, "bike_id": "f9ad19802645795ad27d71ac1a9156b2", "fusion_lon": 0.0, "rental_uris": {"android": "https://dc.lft.to/lastmile_qr_scan", "ios": "https://dc.lft.to/lastmile_qr_scan"}, "name": "f9ad19802645795ad27d71ac1a9156b2", "type": "electric_scooter", "lat": 38.9274725, "is_disabled": 0}, {"fusion_lat": 0.0, "lon": -77.0431155, "is_reserved": 0, "bike_id": "b63d8376f3315f2fe796dfaf68e82b41", "fusion_lon": 0.0, "rental_uris": {"android": "https://dc.lft.to/lastmile_qr_scan", "ios": "https://dc.lft.to/lastmile_qr_scan"}, "name": "b63d8376f3315f2fe796dfaf68e82b41", "type": "electric_scooter", "lat": 38.923300833333336, "is_disabled": 0}, {"fusion_lat": 0.0, "lon": -77.02906633333333, "is_reserved": 0, "bike_id": "35eaecf5c9ea9057a522872b0dfb2ac0", "fusion_lon": 0.0, "rental_uris": {"android": "https://dc.lft.to/lastmile_qr_scan", "ios": "https://dc.lft.to/lastmile_qr_scan"}, "name": "35eaecf5c9ea9057a522872b0dfb2ac0", "type": "electric_scooter", "lat": 38.94037683333333, "is_disabled": 0}, {"fusion_lat": 0.0, "lon": -77.18561933333334, "is_reserved": 0, "bike_id": "2429fd61f96adc8ddc2c08cb606f5bfe", "fusion_lon": 0.0, "rental_uris": {"android": "https://dc.lft.to/lastmile_qr_scan", "ios": "https://dc.lft.to/lastmile_qr_scan"}, "name": "2429fd61f96adc8ddc2c08cb606f5bfe", "type": "electric_bike", "lat": 39.0997585, "is_disabled": 0}, {"fusion_lat": 0.0, "lon": -76.9961035, "is_reserved": 0, "bike_id": "2ae5fb5eb0f78830ff7763fa4d70a1d7", "fusion_lon": 0.0, "rental_uris": {"android": "https://dc.lft.to/lastmile_qr_scan", "ios": "https://dc.lft.to/lastmile_qr_scan"}, "name": "2ae5fb5eb0f78830ff7763fa4d70a1d7", "type": "electric_scooter", "lat": 38.887034166666666, "is_disabled": 0}, {"fusion_lat": 0.0, "lon": -77.031771, "is_reserved": 0, "bike_id": "5edea7cc7a2d2c0d4dc0c6fa5560d737", "fusion_lon": 0.0, "rental_uris": {"android": "https://dc.lft.to/lastmile_qr_scan", "ios": "https://dc.lft.to/lastmile_qr_scan"}, "name": "5edea7cc7a2d2c0d4dc0c6fa5560d737", "type": "electric_bike", "lat": 38.92097966666667, "is_disabled": 0}, {"fusion_lat": 0.0, "lon": -77.04433066666667, "is_reserved": 0, "bike_id": "b73ab33f416b6254bea2f76d52125606", "fusion_lon": 0.0, "rental_uris": {"android": "https://dc.lft.to/lastmile_qr_scan", "ios": "https://dc.lft.to/lastmile_qr_scan"}, "name": "b73ab33f416b6254bea2f76d52125606", "type": "electric_bike", "lat": 38.92329933333333, "is_disabled": 0}, {"fusion_lat": 0.0, "lon": -77.02309666666666, "is_reserved": 0, "bike_id": "8514ac1d799c2e4b6c6910f3f26a1903", "fusion_lon": 0.0, "rental_uris": {"android": "https://dc.lft.to/lastmile_qr_scan", "ios": "https://dc.lft.to/lastmile_qr_scan"}, "name": "8514ac1d799c2e4b6c6910f3f26a1903", "type": "electric_scooter", "lat": 38.9096245, "is_disabled": 0}, {"fusion_lat": 0.0, "lon": -77.04873683333334, "is_reserved": 0, "bike_id": "0cc716200acdc9c1499e36aa4d57b0cb", "fusion_lon": 0.0, "rental_uris": {"android": "https://dc.lft.to/lastmile_qr_scan", "ios": "https://dc.lft.to/lastmile_qr_scan"}, "name": "0cc716200acdc9c1499e36aa4d57b0cb", "type": "electric_scooter", "lat": 38.909785, "is_disabled": 0}, {"fusion_lat": 0.0, "lon": -77.023347, "is_reserved": 0, "bike_id": "f65ce66b897d42d6108bef6d52db169e", "fusion_lon": 0.0, "rental_uris": {"android": "https://dc.lft.to/lastmile_qr_scan", "ios": "https://dc.lft.to/lastmile_qr_scan"}, "name": "f65ce66b897d42d6108bef6d52db169e", "type": "electric_scooter", "lat": 38.924797833333336, "is_disabled": 0}, {"fusion_lat": 0.0, "lon": -77.0404215, "is_reserved": 0, "bike_id": "6a739b1fa78f9af47ff221608f975293", "fusion_lon": 0.0, "rental_uris": {"android": "https://dc.lft.to/lastmile_qr_scan", "ios": "https://dc.lft.to/lastmile_qr_scan"}, "name": "6a739b1fa78f9af47ff221608f975293", "type": "electric_scooter", "lat": 38.9186215, "is_disabled": 0}, {"fusion_lat": 0.0, "lon": -77.08065633333334, "is_reserved": 0, "bike_id": "3f00a7a708184a8a7f228c3d501226d9", "fusion_lon": 0.0, "rental_uris": {"android": "https://dc.lft.to/lastmile_qr_scan", "ios": "https://dc.lft.to/lastmile_qr_scan"}, "name": "3f00a7a708184a8a7f228c3d501226d9", "type": "electric_bike", "lat": 39.05281, "is_disabled": 0}, {"fusion_lat": 0.0, "lon": -76.9901525, "is_reserved": 0, "bike_id": "7505c4bec054fa473280f8f80c236076", "fusion_lon": 0.0, "rental_uris": {"android": "https://dc.lft.to/lastmile_qr_scan", "ios": "https://dc.lft.to/lastmile_qr_scan"}, "name": "7505c4bec054fa473280f8f80c236076", "type": "electric_scooter", "lat": 38.8664335, "is_disabled": 0}, {"fusion_lat": 0.0, "lon": -77.02489333333334, "is_reserved": 0, "bike_id": "251f421dce271c273272355114cf9c22", "fusion_lon": 0.0, "rental_uris": {"android": "https://dc.lft.to/lastmile_qr_scan", "ios": "https://dc.lft.to/lastmile_qr_scan"}, "name": "251f421dce271c273272355114cf9c22", "type": "electric_scooter", "lat": 38.93864516666667, "is_disabled": 0}, {"fusion_lat": 0.0, "lon": -77.02808233333333, "is_reserved": 0, "bike_id": "cdf36c143f54a086029445886b16e4d9", "fusion_lon": 0.0, "rental_uris": {"android": "https://dc.lft.to/lastmile_qr_scan", "ios": "https://dc.lft.to/lastmile_qr_scan"}, "name": "cdf36c143f54a086029445886b16e4d9", "type": "electric_scooter", "lat": 38.895211833333335, "is_disabled": 0}, {"fusion_lat": 0.0, "lon": -77.0688995, "is_reserved": 0, "bike_id": "1dad0c2870c340e2c1fedb32b20dd87b", "fusion_lon": 0.0, "rental_uris": {"android": "https://dc.lft.to/lastmile_qr_scan", "ios": "https://dc.lft.to/lastmile_qr_scan"}, "name": "1dad0c2870c340e2c1fedb32b20dd87b", "type": "electric_scooter", "lat": 38.91833466666667, "is_disabled": 0}, {"fusion_lat": 0.0, "lon": -76.98770066666667, "is_reserved": 0, "bike_id": "b936cc3b3e56387b7140d50ee5f9aaaa", "fusion_lon": 0.0, "rental_uris": {"android": "https://dc.lft.to/lastmile_qr_scan", "ios": "https://dc.lft.to/lastmile_qr_scan"}, "name": "b936cc3b3e56387b7140d50ee5f9aaaa", "type": "electric_bike", "lat": 38.8577275, "is_disabled": 0}, {"fusion_lat": 0.0, "lon": -77.02910016666667, "is_reserved": 0, "bike_id": "38ca0741261c79c7da3f4d77442d1eb3", "fusion_lon": 0.0, "rental_uris": {"android": "https://dc.lft.to/lastmile_qr_scan", "ios": "https://dc.lft.to/lastmile_qr_scan"}, "name": "38ca0741261c79c7da3f4d77442d1eb3", "type": "electric_scooter", "lat": 39.037496, "is_disabled": 0}, {"fusion_lat": 0.0, "lon": -77.0419505, "is_reserved": 0, "bike_id": "70034b19cef7bca85a36b419afcb9089", "fusion_lon": 0.0, "rental_uris": {"android": "https://dc.lft.to/lastmile_qr_scan", "ios": "https://dc.lft.to/lastmile_qr_scan"}, "name": "70034b19cef7bca85a36b419afcb9089", "type": "electric_scooter", "lat": 38.9066475, "is_disabled": 0}, {"fusion_lat": 0.0, "lon": -76.974783, "is_reserved": 0, "bike_id": "1b9e64148d58f259ab4a908be9c3d0ce", "fusion_lon": 0.0, "rental_uris": {"android": "https://dc.lft.to/lastmile_qr_scan", "ios": "https://dc.lft.to/lastmile_qr_scan"}, "name": "1b9e64148d58f259ab4a908be9c3d0ce", "type": "electric_scooter", "lat": 38.903507166666664, "is_disabled": 0}, {"fusion_lat": 0.0, "lon": -77.03863933333334, "is_reserved": 0, "bike_id": "9910a982466b586865431170560ac5bb", "fusion_lon": 0.0, "rental_uris": {"android": "https://dc.lft.to/lastmile_qr_scan", "ios": "https://dc.lft.to/lastmile_qr_scan"}, "name": "9910a982466b586865431170560ac5bb", "type": "electric_scooter", "lat": 38.907882666666666, "is_disabled": 0}, {"fusion_lat": 0.0, "lon": -77.00678633333334, "is_reserved": 0, "bike_id": "2884ecae44ddd42f64aed0ff7f58cd60", "fusion_lon": 0.0, "rental_uris": {"android": "https://dc.lft.to/lastmile_qr_scan", "ios": "https://dc.lft.to/lastmile_qr_scan"}, "name": "2884ecae44ddd42f64aed0ff7f58cd60", "type": "electric_scooter", "lat": 38.900162, "is_disabled": 0}, {"fusion_lat": 0.0, "lon": -76.94877633333333, "is_reserved": 0, "bike_id": "15a387889b162cd45a967addd14be38f", "fusion_lon": 0.0, "rental_uris": {"android": "https://dc.lft.to/lastmile_qr_scan", "ios": "https://dc.lft.to/lastmile_qr_scan"}, "name": "15a387889b162cd45a967addd14be38f", "type": "electric_scooter", "lat": 38.89551633333333, "is_disabled": 0}, {"fusion_lat": 0.0, "lon": -77.00735566666667, "is_reserved": 0, "bike_id": "8f00532cf3f8041aaaf68276608d1ac1", "fusion_lon": 0.0, "rental_uris": {"android": "https://dc.lft.to/lastmile_qr_scan", "ios": "https://dc.lft.to/lastmile_qr_scan"}, "name": "8f00532cf3f8041aaaf68276608d1ac1", "type": "electric_scooter", "lat": 38.8765025, "is_disabled": 0}, {"fusion_lat": 0.0, "lon": -76.99714633333333, "is_reserved": 0, "bike_id": "a66d5bfa2544c3b1b1dc06f0bbba1b76", "fusion_lon": 0.0, "rental_uris": {"android": "https://dc.lft.to/lastmile_qr_scan", "ios": "https://dc.lft.to/lastmile_qr_scan"}, "name": "a66d5bfa2544c3b1b1dc06f0bbba1b76", "type": "electric_scooter", "lat": 38.907819833333335, "is_disabled": 0}, {"fusion_lat": 0.0, "lon": -76.99064766666666, "is_reserved": 0, "bike_id": "cb52024f188da05656c4d8398c7e1a70", "fusion_lon": 0.0, "rental_uris": {"android": "https://dc.lft.to/lastmile_qr_scan", "ios": "https://dc.lft.to/lastmile_qr_scan"}, "name": "cb52024f188da05656c4d8398c7e1a70", "type": "electric_scooter", "lat": 38.8636505, "is_disabled": 0}, {"fusion_lat": 0.0, "lon": -76.987219, "is_reserved": 0, "bike_id": "95f3ee0aa2cfdb0ba7598e214732ac18", "fusion_lon": 0.0, "rental_uris": {"android": "https://dc.lft.to/lastmile_qr_scan", "ios": "https://dc.lft.to/lastmile_qr_scan"}, "name": "95f3ee0aa2cfdb0ba7598e214732ac18", "type": "electric_scooter", "lat": 38.866853166666665, "is_disabled": 0}, {"fusion_lat": 0.0, "lon": -77.03866383333333, "is_reserved": 0, "bike_id": "162fb6ea725440719484727dba4479d5", "fusion_lon": 0.0, "rental_uris": {"android": "https://dc.lft.to/lastmile_qr_scan", "ios": "https://dc.lft.to/lastmile_qr_scan"}, "name": "162fb6ea725440719484727dba4479d5", "type": "electric_scooter", "lat": 38.94503133333333, "is_disabled": 0}, {"fusion_lat": 0.0, "lon": -76.98647133333333, "is_reserved": 0, "bike_id": "ffdef7c145359a8060b4d340701abb0c", "fusion_lon": 0.0, "rental_uris": {"android": "https://dc.lft.to/lastmile_qr_scan", "ios": "https://dc.lft.to/lastmile_qr_scan"}, "name": "ffdef7c145359a8060b4d340701abb0c", "type": "electric_scooter", "lat": 38.9016475, "is_disabled": 0}, {"fusion_lat": 0.0, "lon": -76.95018383333333, "is_reserved": 0, "bike_id": "bb6e9a3a58bcc07b84380e260d240fdf", "fusion_lon": 0.0, "rental_uris": {"android": "https://dc.lft.to/lastmile_qr_scan", "ios": "https://dc.lft.to/lastmile_qr_scan"}, "name": "bb6e9a3a58bcc07b84380e260d240fdf", "type": "electric_scooter", "lat": 38.89389166666667, "is_disabled": 0}, {"fusion_lat": 0.0, "lon": -77.04657066666667, "is_reserved": 0, "bike_id": "7faa9fff1564da7b9d8e1ce0c5ca41f3", "fusion_lon": 0.0, "rental_uris": {"android": "https://dc.lft.to/lastmile_qr_scan", "ios": "https://dc.lft.to/lastmile_qr_scan"}, "name": "7faa9fff1564da7b9d8e1ce0c5ca41f3", "type": "electric_scooter", "lat": 38.8964325, "is_disabled": 0}, {"fusion_lat": 0.0, "lon": -77.04882916666666, "is_reserved": 0, "bike_id": "92db7a7c7a5ae482790e38ab2b49e927", "fusion_lon": 0.0, "rental_uris": {"android": "https://dc.lft.to/lastmile_qr_scan", "ios": "https://dc.lft.to/lastmile_qr_scan"}, "name": "92db7a7c7a5ae482790e38ab2b49e927", "type": "electric_scooter", "lat": 38.91211966666667, "is_disabled": 0}, {"fusion_lat": 0.0, "lon": -77.00383916666667, "is_reserved": 0, "bike_id": "752952f259614093d8d84520122ac5a2", "fusion_lon": 0.0, "rental_uris": {"android": "https://dc.lft.to/lastmile_qr_scan", "ios": "https://dc.lft.to/lastmile_qr_scan"}, "name": "752952f259614093d8d84520122ac5a2", "type": "electric_scooter", "lat": 38.8763645, "is_disabled": 0}, {"fusion_lat": 0.0, "lon": -77.06909583333334, "is_reserved": 0, "bike_id": "61e4c081a64092bfd46b6d5db5a01d86", "fusion_lon": 0.0, "rental_uris": {"android": "https://dc.lft.to/lastmile_qr_scan", "ios": "https://dc.lft.to/lastmile_qr_scan"}, "name": "61e4c081a64092bfd46b6d5db5a01d86", "type": "electric_bike", "lat": 38.908376, "is_disabled": 0}, {"fusion_lat": 0.0, "lon": -77.04499, "is_reserved": 0, "bike_id": "766bebef24eca811064a408e5bb30c24", "fusion_lon": 0.0, "rental_uris": {"android": "https://dc.lft.to/lastmile_qr_scan", "ios": "https://dc.lft.to/lastmile_qr_scan"}, "name": "766bebef24eca811064a408e5bb30c24", "type": "electric_scooter", "lat": 38.905085666666665, "is_disabled": 0}, {"fusion_lat": 0.0, "lon": -76.941997, "is_reserved": 0, "bike_id": "21fc77cb4b5d2846d33042481e8d5a2b", "fusion_lon": 0.0, "rental_uris": {"android": "https://dc.lft.to/lastmile_qr_scan", "ios": "https://dc.lft.to/lastmile_qr_scan"}, "name": "21fc77cb4b5d2846d33042481e8d5a2b", "type": "electric_scooter", "lat": 38.893763166666666, "is_disabled": 0}, {"fusion_lat": 0.0, "lon": -77.02401966666666, "is_reserved": 0, "bike_id": "5708934d5c135071e1bff657163c0c98", "fusion_lon": 0.0, "rental_uris": {"android": "https://dc.lft.to/lastmile_qr_scan", "ios": "https://dc.lft.to/lastmile_qr_scan"}, "name": "5708934d5c135071e1bff657163c0c98", "type": "electric_scooter", "lat": 38.89605666666667, "is_disabled": 0}, {"fusion_lat": 0.0, "lon": -77.01894866666666, "is_reserved": 0, "bike_id": "7357016dbf21f923159d01aed371d5c5", "fusion_lon": 0.0, "rental_uris": {"android": "https://dc.lft.to/lastmile_qr_scan", "ios": "https://dc.lft.to/lastmile_qr_scan"}, "name": "7357016dbf21f923159d01aed371d5c5", "type": "electric_scooter", "lat": 38.9234425, "is_disabled": 0}, {"fusion_lat": 0.0, "lon": -77.0380675, "is_reserved": 0, "bike_id": "a6bf87d4d156fdcbbbaa34afe481d239", "fusion_lon": 0.0, "rental_uris": {"android": "https://dc.lft.to/lastmile_qr_scan", "ios": "https://dc.lft.to/lastmile_qr_scan"}, "name": "a6bf87d4d156fdcbbbaa34afe481d239", "type": "electric_scooter", "lat": 38.930696166666664, "is_disabled": 0}, {"fusion_lat": 0.0, "lon": -76.99758683333333, "is_reserved": 0, "bike_id": "08f4424cb2f40b8cb77851220832d470", "fusion_lon": 0.0, "rental_uris": {"android": "https://dc.lft.to/lastmile_qr_scan", "ios": "https://dc.lft.to/lastmile_qr_scan"}, "name": "08f4424cb2f40b8cb77851220832d470", "type": "electric_scooter", "lat": 38.887676, "is_disabled": 0}, {"fusion_lat": 0.0, "lon": -77.02182983333333, "is_reserved": 0, "bike_id": "9f631e52b50874a0d6d851012d7f4742", "fusion_lon": 0.0, "rental_uris": {"android": "https://dc.lft.to/lastmile_qr_scan", "ios": "https://dc.lft.to/lastmile_qr_scan"}, "name": "9f631e52b50874a0d6d851012d7f4742", "type": "electric_scooter", "lat": 38.9057425, "is_disabled": 0}, {"fusion_lat": 0.0, "lon": -76.94686116666666, "is_reserved": 0, "bike_id": "e8c0d9a32ae1272de06ad41a774b4b2b", "fusion_lon": 0.0, "rental_uris": {"android": "https://dc.lft.to/lastmile_qr_scan", "ios": "https://dc.lft.to/lastmile_qr_scan"}, "name": "e8c0d9a32ae1272de06ad41a774b4b2b", "type": "electric_scooter", "lat": 38.886307333333335, "is_disabled": 0}, {"fusion_lat": 0.0, "lon": -77.0435755, "is_reserved": 0, "bike_id": "1cd72c30785fccb60b7f8075a486e18d", "fusion_lon": 0.0, "rental_uris": {"android": "https://dc.lft.to/lastmile_qr_scan", "ios": "https://dc.lft.to/lastmile_qr_scan"}, "name": "1cd72c30785fccb60b7f8075a486e18d", "type": "electric_scooter", "lat": 38.8923335, "is_disabled": 0}, {"fusion_lat": 0.0, "lon": -77.00337633333334, "is_reserved": 0, "bike_id": "42f48d35d72607480d042fe43306cea1", "fusion_lon": 0.0, "rental_uris": {"android": "https://dc.lft.to/lastmile_qr_scan", "ios": "https://dc.lft.to/lastmile_qr_scan"}, "name": "42f48d35d72607480d042fe43306cea1", "type": "electric_scooter", "lat": 38.903633666666664, "is_disabled": 0}, {"fusion_lat": 0.0, "lon": -77.0271505, "is_reserved": 0, "bike_id": "8c7c0b9c4525fd09425a0949a9855065", "fusion_lon": 0.0, "rental_uris": {"android": "https://dc.lft.to/lastmile_qr_scan", "ios": "https://dc.lft.to/lastmile_qr_scan"}, "name": "8c7c0b9c4525fd09425a0949a9855065", "type": "electric_scooter", "lat": 38.9246615, "is_disabled": 0}, {"fusion_lat": 0.0, "lon": -77.000587, "is_reserved": 0, "bike_id": "c57b91577f822a64a0dab66b0e1afa69", "fusion_lon": 0.0, "rental_uris": {"android": "https://dc.lft.to/lastmile_qr_scan", "ios": "https://dc.lft.to/lastmile_qr_scan"}, "name": "c57b91577f822a64a0dab66b0e1afa69", "type": "electric_scooter", "lat": 38.891634833333335, "is_disabled": 0}, {"fusion_lat": 0.0, "lon": -77.02094533333333, "is_reserved": 0, "bike_id": "3ba2b74684b827651311f966c5433c72", "fusion_lon": 0.0, "rental_uris": {"android": "https://dc.lft.to/lastmile_qr_scan", "ios": "https://dc.lft.to/lastmile_qr_scan"}, "name": "3ba2b74684b827651311f966c5433c72", "type": "electric_scooter", "lat": 38.921460833333335, "is_disabled": 0}, {"fusion_lat": 0.0, "lon": -76.98551883333333, "is_reserved": 0, "bike_id": "9508e8345cddc77f360563474382f6ca", "fusion_lon": 0.0, "rental_uris": {"android": "https://dc.lft.to/lastmile_qr_scan", "ios": "https://dc.lft.to/lastmile_qr_scan"}, "name": "9508e8345cddc77f360563474382f6ca", "type": "electric_scooter", "lat": 38.910328166666666, "is_disabled": 0}, {"fusion_lat": 0.0, "lon": -77.04347016666667, "is_reserved": 0, "bike_id": "051753a4132bd5252127cb95164956ae", "fusion_lon": 0.0, "rental_uris": {"android": "https://dc.lft.to/lastmile_qr_scan", "ios": "https://dc.lft.to/lastmile_qr_scan"}, "name": "051753a4132bd5252127cb95164956ae", "type": "electric_scooter", "lat": 38.90592483333333, "is_disabled": 0}, {"fusion_lat": 0.0, "lon": -77.03604283333334, "is_reserved": 0, "bike_id": "4547038549850c65b1610087a9487fc0", "fusion_lon": 0.0, "rental_uris": {"android": "https://dc.lft.to/lastmile_qr_scan", "ios": "https://dc.lft.to/lastmile_qr_scan"}, "name": "4547038549850c65b1610087a9487fc0", "type": "electric_scooter", "lat": 38.92323966666667, "is_disabled": 0}, {"fusion_lat": 0.0, "lon": -77.0121135, "is_reserved": 0, "bike_id": "c2145bdfde6e9d5a9a2d86320bbb8505", "fusion_lon": 0.0, "rental_uris": {"android": "https://dc.lft.to/lastmile_qr_scan", "ios": "https://dc.lft.to/lastmile_qr_scan"}, "name": "c2145bdfde6e9d5a9a2d86320bbb8505", "type": "electric_scooter", "lat": 38.9212015, "is_disabled": 0}, {"fusion_lat": 0.0, "lon": -77.03435033333334, "is_reserved": 0, "bike_id": "c5c8dfd9d4e7d8feb6af4285b3ec1dd2", "fusion_lon": 0.0, "rental_uris": {"android": "https://dc.lft.to/lastmile_qr_scan", "ios": "https://dc.lft.to/lastmile_qr_scan"}, "name": "c5c8dfd9d4e7d8feb6af4285b3ec1dd2", "type": "electric_scooter", "lat": 38.904370166666666, "is_disabled": 0}, {"fusion_lat": 0.0, "lon": -77.05255016666666, "is_reserved": 0, "bike_id": "9dbe53fc7ec028685d48b0172747c854", "fusion_lon": 0.0, "rental_uris": {"android": "https://dc.lft.to/lastmile_qr_scan", "ios": "https://dc.lft.to/lastmile_qr_scan"}, "name": "9dbe53fc7ec028685d48b0172747c854", "type": "electric_scooter", "lat": 38.92378333333333, "is_disabled": 0}, {"fusion_lat": 0.0, "lon": -77.047521, "is_reserved": 0, "bike_id": "4c9c4b50f3f7f508ff086f76a0c11005", "fusion_lon": 0.0, "rental_uris": {"android": "https://dc.lft.to/lastmile_qr_scan", "ios": "https://dc.lft.to/lastmile_qr_scan"}, "name": "4c9c4b50f3f7f508ff086f76a0c11005", "type": "electric_scooter", "lat": 38.9232065, "is_disabled": 0}, {"fusion_lat": 0.0, "lon": -76.98105516666666, "is_reserved": 0, "bike_id": "7856a8d00db283caaf0d1acdc897cb9a", "fusion_lon": 0.0, "rental_uris": {"android": "https://dc.lft.to/lastmile_qr_scan", "ios": "https://dc.lft.to/lastmile_qr_scan"}, "name": "7856a8d00db283caaf0d1acdc897cb9a", "type": "electric_bike", "lat": 38.877293, "is_disabled": 0}, {"fusion_lat": 0.0, "lon": -77.026926, "is_reserved": 0, "bike_id": "e096989b40de33f62c586f9c9be45d40", "fusion_lon": 0.0, "rental_uris": {"android": "https://dc.lft.to/lastmile_qr_scan", "ios": "https://dc.lft.to/lastmile_qr_scan"}, "name": "e096989b40de33f62c586f9c9be45d40", "type": "electric_scooter", "lat": 38.909315166666666, "is_disabled": 0}, {"fusion_lat": 0.0, "lon": -77.03640566666667, "is_reserved": 0, "bike_id": "29b6868d139cf8a2d511a771668fb9e4", "fusion_lon": 0.0, "rental_uris": {"android": "https://dc.lft.to/lastmile_qr_scan", "ios": "https://dc.lft.to/lastmile_qr_scan"}, "name": "29b6868d139cf8a2d511a771668fb9e4", "type": "electric_scooter", "lat": 38.92264933333333, "is_disabled": 0}, {"fusion_lat": 0.0, "lon": -77.03858783333334, "is_reserved": 0, "bike_id": "e402a8a3cca41d73604dab28c6337422", "fusion_lon": 0.0, "rental_uris": {"android": "https://dc.lft.to/lastmile_qr_scan", "ios": "https://dc.lft.to/lastmile_qr_scan"}, "name": "e402a8a3cca41d73604dab28c6337422", "type": "electric_scooter", "lat": 38.903954666666664, "is_disabled": 0}, {"fusion_lat": 0.0, "lon": -77.00561383333333, "is_reserved": 0, "bike_id": "35b8626e64417be1463f01e2e0007592", "fusion_lon": 0.0, "rental_uris": {"android": "https://dc.lft.to/lastmile_qr_scan", "ios": "https://dc.lft.to/lastmile_qr_scan"}, "name": "35b8626e64417be1463f01e2e0007592", "type": "electric_scooter", "lat": 38.900312166666666, "is_disabled": 0}, {"fusion_lat": 0.0, "lon": -77.02537883333333, "is_reserved": 0, "bike_id": "97e2c242e35fbdb8c8162fe3c260f75a", "fusion_lon": 0.0, "rental_uris": {"android": "https://dc.lft.to/lastmile_qr_scan", "ios": "https://dc.lft.to/lastmile_qr_scan"}, "name": "97e2c242e35fbdb8c8162fe3c260f75a", "type": "electric_scooter", "lat": 38.92751766666667, "is_disabled": 0}, {"fusion_lat": 0.0, "lon": -77.0402905, "is_reserved": 0, "bike_id": "706c867e3f877c69529ae47e60964965", "fusion_lon": 0.0, "rental_uris": {"android": "https://dc.lft.to/lastmile_qr_scan", "ios": "https://dc.lft.to/lastmile_qr_scan"}, "name": "706c867e3f877c69529ae47e60964965", "type": "electric_scooter", "lat": 38.917064833333335, "is_disabled": 0}, {"fusion_lat": 0.0, "lon": -76.983144, "is_reserved": 0, "bike_id": "d1a7ae67f09d41cb1dbd5aa176b49be4", "fusion_lon": 0.0, "rental_uris": {"android": "https://dc.lft.to/lastmile_qr_scan", "ios": "https://dc.lft.to/lastmile_qr_scan"}, "name": "d1a7ae67f09d41cb1dbd5aa176b49be4", "type": "electric_scooter", "lat": 38.868913666666664, "is_disabled": 0}, {"fusion_lat": 0.0, "lon": -77.01594783333333, "is_reserved": 0, "bike_id": "3b8b49a7d1d7b4de9cc9bcfdee6ba7a7", "fusion_lon": 0.0, "rental_uris": {"android": "https://dc.lft.to/lastmile_qr_scan", "ios": "https://dc.lft.to/lastmile_qr_scan"}, "name": "3b8b49a7d1d7b4de9cc9bcfdee6ba7a7", "type": "electric_scooter", "lat": 38.949386833333335, "is_disabled": 0}, {"fusion_lat": 0.0, "lon": -76.99646083333333, "is_reserved": 0, "bike_id": "55d746ec3f57bbc2b21f65b04fdbfc39", "fusion_lon": 0.0, "rental_uris": {"android": "https://dc.lft.to/lastmile_qr_scan", "ios": "https://dc.lft.to/lastmile_qr_scan"}, "name": "55d746ec3f57bbc2b21f65b04fdbfc39", "type": "electric_scooter", "lat": 38.887222, "is_disabled": 0}, {"fusion_lat": 0.0, "lon": -76.99503966666667, "is_reserved": 0, "bike_id": "d39fbe42d0bf1d775ad1e8be386c2f71", "fusion_lon": 0.0, "rental_uris": {"android": "https://dc.lft.to/lastmile_qr_scan", "ios": "https://dc.lft.to/lastmile_qr_scan"}, "name": "d39fbe42d0bf1d775ad1e8be386c2f71", "type": "electric_scooter", "lat": 38.909780166666664, "is_disabled": 0}, {"fusion_lat": 0.0, "lon": -77.02386316666667, "is_reserved": 0, "bike_id": "f834f114a5db6024ae6e936e10025db6", "fusion_lon": 0.0, "rental_uris": {"android": "https://dc.lft.to/lastmile_qr_scan", "ios": "https://dc.lft.to/lastmile_qr_scan"}, "name": "f834f114a5db6024ae6e936e10025db6", "type": "electric_scooter", "lat": 38.8981895, "is_disabled": 0}, {"fusion_lat": 0.0, "lon": -76.99790833333333, "is_reserved": 0, "bike_id": "0fd0390cde7b3b48a6a38167219855b1", "fusion_lon": 0.0, "rental_uris": {"android": "https://dc.lft.to/lastmile_qr_scan", "ios": "https://dc.lft.to/lastmile_qr_scan"}, "name": "0fd0390cde7b3b48a6a38167219855b1", "type": "electric_scooter", "lat": 38.89094216666667, "is_disabled": 0}, {"fusion_lat": 0.0, "lon": -76.983751, "is_reserved": 0, "bike_id": "493d9721b5459bbf4cb1059d78e93a46", "fusion_lon": 0.0, "rental_uris": {"android": "https://dc.lft.to/lastmile_qr_scan", "ios": "https://dc.lft.to/lastmile_qr_scan"}, "name": "493d9721b5459bbf4cb1059d78e93a46", "type": "electric_scooter", "lat": 38.9065015, "is_disabled": 0}, {"fusion_lat": 0.0, "lon": -77.00345583333333, "is_reserved": 0, "bike_id": "f102cba57c14e6f62aeb9cd0ee5dee82", "fusion_lon": 0.0, "rental_uris": {"android": "https://dc.lft.to/lastmile_qr_scan", "ios": "https://dc.lft.to/lastmile_qr_scan"}, "name": "f102cba57c14e6f62aeb9cd0ee5dee82", "type": "electric_scooter", "lat": 38.88703433333333, "is_disabled": 0}, {"fusion_lat": 0.0, "lon": -77.043774, "is_reserved": 0, "bike_id": "528f6127cf2de68ea18d07c4ffc0158a", "fusion_lon": 0.0, "rental_uris": {"android": "https://dc.lft.to/lastmile_qr_scan", "ios": "https://dc.lft.to/lastmile_qr_scan"}, "name": "528f6127cf2de68ea18d07c4ffc0158a", "type": "electric_scooter", "lat": 38.892208833333335, "is_disabled": 0}, {"fusion_lat": 0.0, "lon": -76.95187983333334, "is_reserved": 0, "bike_id": "6e5c8cde81d078642e1b2a42eeb7ff6c", "fusion_lon": 0.0, "rental_uris": {"android": "https://dc.lft.to/lastmile_qr_scan", "ios": "https://dc.lft.to/lastmile_qr_scan"}, "name": "6e5c8cde81d078642e1b2a42eeb7ff6c", "type": "electric_scooter", "lat": 38.907407166666665, "is_disabled": 0}, {"fusion_lat": 0.0, "lon": -76.987144, "is_reserved": 0, "bike_id": "24525b51a39e22ed4f3017b8c6d6f039", "fusion_lon": 0.0, "rental_uris": {"android": "https://dc.lft.to/lastmile_qr_scan", "ios": "https://dc.lft.to/lastmile_qr_scan"}, "name": "24525b51a39e22ed4f3017b8c6d6f039", "type": "electric_scooter", "lat": 38.866266, "is_disabled": 0}, {"fusion_lat": 0.0, "lon": -76.98968616666667, "is_reserved": 0, "bike_id": "e8ab5b936822876cc39ff8d48552e584", "fusion_lon": 0.0, "rental_uris": {"android": "https://dc.lft.to/lastmile_qr_scan", "ios": "https://dc.lft.to/lastmile_qr_scan"}, "name": "e8ab5b936822876cc39ff8d48552e584", "type": "electric_scooter", "lat": 38.856903, "is_disabled": 0}, {"fusion_lat": 0.0, "lon": -77.02950366666667, "is_reserved": 0, "bike_id": "3afe82206a06a520e64d01625f92f18c", "fusion_lon": 0.0, "rental_uris": {"android": "https://dc.lft.to/lastmile_qr_scan", "ios": "https://dc.lft.to/lastmile_qr_scan"}, "name": "3afe82206a06a520e64d01625f92f18c", "type": "electric_scooter", "lat": 38.9050005, "is_disabled": 0}, {"fusion_lat": 0.0, "lon": -77.0091985, "is_reserved": 0, "bike_id": "7ac9708ece3d4808123220eb2d1e7a19", "fusion_lon": 0.0, "rental_uris": {"android": "https://dc.lft.to/lastmile_qr_scan", "ios": "https://dc.lft.to/lastmile_qr_scan"}, "name": "7ac9708ece3d4808123220eb2d1e7a19", "type": "electric_scooter", "lat": 38.90025116666666, "is_disabled": 0}, {"fusion_lat": 0.0, "lon": -77.019682, "is_reserved": 0, "bike_id": "884c426193b69063fbeb26d5e5c6649a", "fusion_lon": 0.0, "rental_uris": {"android": "https://dc.lft.to/lastmile_qr_scan", "ios": "https://dc.lft.to/lastmile_qr_scan"}, "name": "884c426193b69063fbeb26d5e5c6649a", "type": "electric_scooter", "lat": 38.87845866666667, "is_disabled": 0}, {"fusion_lat": 0.0, "lon": -76.99804916666666, "is_reserved": 0, "bike_id": "3e34942b4dad7fdc66ad89ff3e2b2fe9", "fusion_lon": 0.0, "rental_uris": {"android": "https://dc.lft.to/lastmile_qr_scan", "ios": "https://dc.lft.to/lastmile_qr_scan"}, "name": "3e34942b4dad7fdc66ad89ff3e2b2fe9", "type": "electric_scooter", "lat": 38.900183, "is_disabled": 0},