{"data": {"bikes": [{"lon": -76.99642666666666, "rental_uris": {"android": "https://dc.lft.to/lastmile_qr_scan", "ios": "https://dc.lft.to/lastmile_qr_scan"}, "fusion_lon": 0.0, "is_reserved": 0, "is_disabled": 0, "fusion_lat": 0.0, "type": "electric_bike", "name": "b1bc5ce98e5b2ea70f963a3de442eb64", "lat": 38.98822933333334, "bike_id": "b1bc5ce98e5b2ea70f963a3de442eb64"}, {"lon": -77.03122316666666, "rental_uris": {"android": "https://dc.lft.to/lastmile_qr_scan", "ios": "https://dc.lft.to/lastmile_qr_scan"}, "fusion_lon": 0.0, "is_reserved": 0, "is_disabled": 0, "fusion_lat": 0.0, "type": "electric_scooter", "name": "5f93b65c1e5ef20918f1c071e0688cfc", "lat": 38.91047616666667, "bike_id": "5f93b65c1e5ef20918f1c071e0688cfc"}, {"lon": -77.04489166666667, "rental_uris": {"android": "https://dc.lft.to/lastmile_qr_scan", "ios": "https://dc.lft.to/lastmile_qr_scan"}, "fusion_lon": 0.0, "is_reserved": 0, "is_disabled": 0, "fusion_lat": 0.0, "type": "electric_scooter", "name": "3622a7396cb9d1addd349eecc94374c2", "lat": 38.89951383333333, "bike_id": "3622a7396cb9d1addd349eecc94374c2"}, {"lon": -77.021123, "rental_uris": {"android": "https://dc.lft.to/lastmile_qr_scan", "ios": "https://dc.lft.to/lastmile_qr_scan"}, "fusion_lon": 0.0, "is_reserved": 0, "is_disabled": 0, "fusion_lat": 0.0, "type": "electric_scooter", "name": "fcd7e096caea7c6c11cd61e33b0fe518", "lat": 38.92432016666667, "bike_id": "fcd7e096caea7c6c11cd61e33b0fe518"}, {"lon": -77.05351816666666, "rental_uris": {"android": "https://dc.lft.to/lastmile_qr_scan", "ios": "https://dc.lft.to/lastmile_qr_scan"}, "fusion_lon": 0.0, "is_reserved": 0, "is_disabled": 0, "fusion_lat": 0.0, "type": "electric_scooter", "name": "efc6e241d4b44e6b03e4177423f40a75", "lat": 38.9279375, "bike_id": "efc6e241d4b44e6b03e4177423f40a75"}, {"lon": -77.0329525, "rental_uris": {"android": "https://dc.lft.to/lastmile_qr_scan", "ios": "https://dc.lft.to/lastmile_qr_scan"}, "fusion_lon": 0.0, "is_reserved": 0, "is_disabled": 0, "fusion_lat": 0.0, "type": "electric_scooter", "name": "23cfe084034fe90ceabf5685cff33923", "lat": 38.899285, "bike_id": "23cfe084034fe90ceabf5685cff33923"}, {"lon": -77.0179495, "rental_uris": {"android": "https://dc.lft.to/lastmile_qr_scan", "ios": "https://dc.lft.to/lastmile_qr_scan"}, "fusion_lon": 0.0, "is_reserved": 0, "is_disabled": 0, "fusion_lat": 0.0, "type": "electric_scooter", "name": "9d78093815352e88be7df167f3a93c09", "lat": 38.913964666666665, "bike_id": "9d78093815352e88be7df167f3a93c09"}, {"lon": -76.967894, "rental_uris": {"android": "https://dc.lft.to/lastmile_qr_scan", "ios": "https://dc.lft.to/lastmile_qr_scan"}, "fusion_lon": 0.0, "is_reserved": 0, "is_disabled": 0, "fusion_lat": 0.0, "type": "electric_scooter", "name": "803c14533c9e2726e2987773cc72c52d", "lat": 38.87339016666667, "bike_id": "803c14533c9e2726e2987773cc72c52d"}, {"lon": -77.0335145, "rental_uris": {"android": "https://dc.lft.to/lastmile_qr_scan", "ios": "https://dc.lft.to/lastmile_qr_scan"}, "fusion_lon": 0.0, "is_reserved": 0, "is_disabled": 0, "fusion_lat": 0.0, "type": "electric_bike", "name": "9416ad84fd73129707423a9da644afc8", "lat": 38.972296, "bike_id": "9416ad84fd73129707423a9da644afc8"}, {"lon": -77.044719, "rental_uris": {"android": "https://dc.lft.to/lastmile_qr_scan", "ios": "https://dc.lft.to/lastmile_qr_scan"}, "fusion_lon": 0.0, "is_reserved": 0, "is_disabled": 0, "fusion_lat": 0.0, "type": "electric_scooter", "name": "57663314c8b14396cdffd06e7101e8eb", "lat": 38.89219083333333, "bike_id": "57663314c8b14396cdffd06e7101e8eb"}, {"lon": -76.98844466666667, "rental_uris": {"android": "https://dc.lft.to/lastmile_qr_scan", "ios": "https://dc.lft.to/lastmile_qr_scan"}, "fusion_lon": 0.0, "is_reserved": 0, "is_disabled": 0, "fusion_lat": 0.0, "type": "electric_bike", "name": "e8b9ce9a082fc65a314e2a182b8a7b98", "lat": 38.842710833333335, "bike_id": "e8b9ce9a082fc65a314e2a182b8a7b98"}, {"lon": -77.06938966666667, "rental_uris": {"android": "https://dc.lft.to/lastmile_qr_scan", "ios": "https://dc.lft.to/lastmile_qr_scan"}, "fusion_lon": 0.0, "is_reserved": 0, "is_disabled": 0, "fusion_lat": 0.0, "type": "electric_scooter", "name": "1b02e42141db6c3e0bd0c3757ed088f2", "lat": 38.917418166666664, "bike_id": "1b02e42141db6c3e0bd0c3757ed088f2"}, {"lon": -77.09520966666666, "rental_uris": {"android": "https://dc.lft.to/lastmile_qr_scan", "ios": "https://dc.lft.to/lastmile_qr_scan"}, "fusion_lon": 0.0, "is_reserved": 0, "is_disabled": 0, "fusion_lat": 0.0, "type": "electric_bike", "name": "db34805c58c9964c76eb535ac9b6b18a", "lat": 38.838092333333336, "bike_id": "db34805c58c9964c76eb535ac9b6b18a"}, {"lon": -77.03863816666667, "rental_uris": {"android": "https://dc.lft.to/lastmile_qr_scan", "ios": "https://dc.lft.to/lastmile_qr_scan"}, "fusion_lon": 0.0, "is_reserved": 0, "is_disabled": 0, "fusion_lat": 0.0, "type": "electric_scooter", "name": "71023b3e845aa0c3eef7b3c35730f813", "lat": 38.90657683333333, "bike_id": "71023b3e845aa0c3eef7b3c35730f813"}, {"lon": -77.0467615, "rental_uris": {"android": "https://dc.lft.to/lastmile_qr_scan", "ios": "https://dc.lft.to/lastmile_qr_scan"}, "fusion_lon": 0.0, "is_reserved": 0, "is_disabled": 0, "fusion_lat": 0.0, "type": "electric_scooter", "name": "c9d80abdaa4a6d12093c187306348b72", "lat": 38.900239666666664, "bike_id": "c9d80abdaa4a6d12093c187306348b72"}, {"lon": -77.04686516666666, "rental_uris": {"android": "https://dc.lft.to/lastmile_qr_scan", "ios": "https://dc.lft.to/lastmile_qr_scan"}, "fusion_lon": 0.0, "is_reserved": 0, "is_disabled": 0, "fusion_lat": 0.0, "type": "electric_scooter", "name": "332cff984c04ea32d80aec12a680e968", "lat": 38.921188, "bike_id": "332cff984c04ea32d80aec12a680e968"}, {"lon": -77.032818, "rental_uris": {"android": "https://dc.lft.to/lastmile_qr_scan", "ios": "https://dc.lft.to/lastmile_qr_scan"}, "fusion_lon": 0.0, "is_reserved": 0, "is_disabled": 0, "fusion_lat": 0.0, "type": "electric_scooter", "name": "a86bb9ae4cc977d346a83bf0f7779310", "lat": 38.939570333333336, "bike_id": "a86bb9ae4cc977d346a83bf0f7779310"}, {"lon": -77.04206783333333, "rental_uris": {"android": "https://dc.lft.to/lastmile_qr_scan", "ios": "https://dc.lft.to/lastmile_qr_scan"}, "fusion_lon": 0.0, "is_reserved": 0, "is_disabled": 0, "fusion_lat": 0.0, "type": "electric_scooter", "name": "daef4d1f92eeaea6debee4e5780fba36", "lat": 38.90725833333333, "bike_id": "daef4d1f92eeaea6debee4e5780fba36"}, {"lon": -77.03211233333333, "rental_uris": {"android": "https://dc.lft.to/lastmile_qr_scan", "ios": "https://dc.lft.to/lastmile_qr_scan"}, "fusion_lon": 0.0, "is_reserved": 0, "is_disabled": 0, "fusion_lat": 0.0, "type": "electric_scooter", "name": "ccf532d4f43031d44ce3324ea7fdd23e", "lat": 38.91402316666667, "bike_id": "ccf532d4f43031d44ce3324ea7fdd23e"}, {"lon": -76.99486783333333, "rental_uris": {"android": "https://dc.lft.to/lastmile_qr_scan", "ios": "https://dc.lft.to/lastmile_qr_scan"}, "fusion_lon": 0.0, "is_reserved": 0, "is_disabled": 0, "fusion_lat": 0.0, "type": "electric_scooter", "name": "ebc4fcf5901877307846f60d3493d256", "lat": 38.87730783333333, "bike_id": "ebc4fcf5901877307846f60d3493d256"}, {"lon": -77.04192583333334, "rental_uris": {"android": "https://dc.lft.to/lastmile_qr_scan", "ios": "https://dc.lft.to/lastmile_qr_scan"}, "fusion_lon": 0.0, "is_reserved": 0, "is_disabled": 0, "fusion_lat": 0.0, "type": "electric_scooter", "name": "f7135ee79e9633f2bd0b42dd17b8d76f", "lat": 38.907455166666665, "bike_id": "f7135ee79e9633f2bd0b42dd17b8d76f"}, {"lon": -77.02212283333333, "rental_uris": {"android": "https://dc.lft.to/lastmile_qr_scan", "ios": "https://dc.lft.to/lastmile_qr_scan"}, "fusion_lon": 0.0, "is_reserved": 0, "is_disabled": 0, "fusion_lat": 0.0, "type": "electric_scooter", "name": "242c9f8ac51a9598b082bc1b1f8fec33", "lat": 38.90349166666667, "bike_id": "242c9f8ac51a9598b082bc1b1f8fec33"}, {"lon": -77.024776, "rental_uris": {"android": "https://dc.lft.to/lastmile_qr_scan", "ios": "https://dc.lft.to/lastmile_qr_scan"}, "fusion_lon": 0.0, "is_reserved": 0, "is_disabled": 0, "fusion_lat": 0.0, "type": "electric_scooter", "name": "5a8f14e48dcef2fd0d087b54183fdaea", "lat": 38.94195283333333, "bike_id": "5a8f14e48dcef2fd0d087b54183fdaea"}, {"lon": -77.0385855, "rental_uris": {"android": "https://dc.lft.to/lastmile_qr_scan", "ios": "https://dc.lft.to/lastmile_qr_scan"}, "fusion_lon": 0.0, "is_reserved": 0, "is_disabled": 0, "fusion_lat": 0.0, "type": "electric_scooter", "name": "76db856fdeddcdbbde20b73ca51cd36a", "lat": 38.90763533333333, "bike_id": "76db856fdeddcdbbde20b73ca51cd36a"}, {"lon": -77.01348483333334, "rental_uris": {"android": "https://dc.lft.to/lastmile_qr_scan", "ios": "https://dc.lft.to/lastmile_qr_scan"}, "fusion_lon": 0.0, "is_reserved": 0, "is_disabled": 0, "fusion_lat": 0.0, "type": "electric_scooter", "name": "cca1a3a8d2e37b96d5028a75e527ba7e", "lat": 38.91858033333333, "bike_id": "cca1a3a8d2e37b96d5028a75e527ba7e"}, {"lon": -77.03532116666666, "rental_uris": {"android": "https://dc.lft.to/lastmile_qr_scan", "ios": "https://dc.lft.to/lastmile_qr_scan"}, "fusion_lon": 0.0, "is_reserved": 0, "is_disabled": 0, "fusion_lat": 0.0, "type": "electric_scooter", "name": "8bd34078d9d02e1da1d4e026ae0ee561", "lat": 38.923353, "bike_id": "8bd34078d9d02e1da1d4e026ae0ee561"}, {"lon": -77.04657, "rental_uris": {"android": "https://dc.lft.to/lastmile_qr_scan", "ios": "https://dc.lft.to/lastmile_qr_scan"}, "fusion_lon": 0.0, "is_reserved": 0, "is_disabled": 0, "fusion_lat": 0.0, "type": "electric_scooter", "name": "f80c4a2e6a996cecf72977afd57b4a53", "lat": 38.89464733333333, "bike_id": "f80c4a2e6a996cecf72977afd57b4a53"}, {"lon": -76.991234, "rental_uris": {"android": "https://dc.lft.to/lastmile_qr_scan", "ios": "https://dc.lft.to/lastmile_qr_scan"}, "fusion_lon": 0.0, "is_reserved": 0, "is_disabled": 0, "fusion_lat": 0.0, "type": "electric_scooter", "name": "7580b85ff2f6556447abd577678713e0", "lat": 38.86382916666667, "bike_id": "7580b85ff2f6556447abd577678713e0"}, {"lon": -77.02433083333334, "rental_uris": {"android": "https://dc.lft.to/lastmile_qr_scan", "ios": "https://dc.lft.to/lastmile_qr_scan"}, "fusion_lon": 0.0, "is_reserved": 0, "is_disabled": 0, "fusion_lat": 0.0, "type": "electric_scooter", "name": "e5a41e99143efc4c3df4cf6fc7da5489", "lat": 38.91707616666667, "bike_id": "e5a41e99143efc4c3df4cf6fc7da5489"}, {"lon": -76.91063083333333, "rental_uris": {"android": "https://dc.lft.to/lastmile_qr_scan", "ios": "https://dc.lft.to/lastmile_qr_scan"}, "fusion_lon": 0.0, "is_reserved": 0, "is_disabled": 0, "fusion_lat": 0.0, "type": "electric_bike", "name": "c2c85d232c02fa57aa22255c8d25f007", "lat": 39.01072, "bike_id": "c2c85d232c02fa57aa22255c8d25f007"}, {"lon": -76.97445916666666, "rental_uris": {"android": "https://dc.lft.to/lastmile_qr_scan", "ios": "https://dc.lft.to/lastmile_qr_scan"}, "fusion_lon": 0.0, "is_reserved": 0, "is_disabled": 0, "fusion_lat": 0.0, "type": "electric_scooter", "name": "192b91d84c160e33e2da9f1e7d9431a9", "lat": 38.9025885, "bike_id": "192b91d84c160e33e2da9f1e7d9431a9"}, {"lon": -77.0317895, "rental_uris": {"android": "https://dc.lft.to/lastmile_qr_scan", "ios": "https://dc.lft.to/lastmile_qr_scan"}, "fusion_lon": 0.0, "is_reserved": 0, "is_disabled": 0, "fusion_lat": 0.0, "type": "electric_scooter", "name": "590dac10ad84cff54b14bdfc8a46a4e5", "lat": 38.8918555, "bike_id": "590dac10ad84cff54b14bdfc8a46a4e5"}, {"lon": -76.96466633333333, "rental_uris": {"android": "https://dc.lft.to/lastmile_qr_scan", "ios": "https://dc.lft.to/lastmile_qr_scan"}, "fusion_lon": 0.0, "is_reserved": 0, "is_disabled": 0, "fusion_lat": 0.0, "type": "electric_bike", "name": "5fe50cc799e93602a10f81af230c0884", "lat": 38.918721833333336, "bike_id": "5fe50cc799e93602a10f81af230c0884"}, {"lon": -77.046691, "rental_uris": {"android": "https://dc.lft.to/lastmile_qr_scan", "ios": "https://dc.lft.to/lastmile_qr_scan"}, "fusion_lon": 0.0, "is_reserved": 0, "is_disabled": 0, "fusion_lat": 0.0, "type": "electric_scooter", "name": "27b95f823dc0a910cdd0e6e9a22f96b5", "lat": 38.90953783333333, "bike_id": "27b95f823dc0a910cdd0e6e9a22f96b5"}, {"lon": -77.00336916666667, "rental_uris": {"android": "https://dc.lft.to/lastmile_qr_scan", "ios": "https://dc.lft.to/lastmile_qr_scan"}, "fusion_lon": 0.0, "is_reserved": 0, "is_disabled": 0, "fusion_lat": 0.0, "type": "electric_scooter", "name": "39ec665dc6c4f9303fc927018615c393", "lat": 38.896206666666664, "bike_id": "39ec665dc6c4f9303fc927018615c393"}, {"lon": -76.99509233333333, "rental_uris": {"android": "https://dc.lft.to/lastmile_qr_scan", "ios": "https://dc.lft.to/lastmile_qr_scan"}, "fusion_lon": 0.0, "is_reserved": 0, "is_disabled": 0, "fusion_lat": 0.0, "type": "electric_scooter", "name": "b114ff0f4c106372c958311ed5975744", "lat": 38.8836295, "bike_id": "b114ff0f4c106372c958311ed5975744"}, {"lon": -77.03431133333333, "rental_uris": {"android": "https://dc.lft.to/lastmile_qr_scan", "ios": "https://dc.lft.to/lastmile_qr_scan"}, "fusion_lon": 0.0, "is_reserved": 0, "is_disabled": 0, "fusion_lat": 0.0, "type": "electric_scooter", "name": "0ae472810e5d33e7cb7d98fceaf78f8f", "lat": 38.905497, "bike_id": "0ae472810e5d33e7cb7d98fceaf78f8f"}, {"lon": -77.03844116666667, "rental_uris": {"android": "https://dc.lft.to/lastmile_qr_scan", "ios": "https://dc.lft.to/lastmile_qr_scan"}, "fusion_lon": 0.0, "is_reserved": 0, "is_disabled": 0, "fusion_lat": 0.0, "type": "electric_scooter", "name": "5bf2d6f98b770ebef7b4d8207a4facb5", "lat": 38.907755, "bike_id": "5bf2d6f98b770ebef7b4d8207a4facb5"}, {"lon": -77.02569983333333, "rental_uris": {"android": "https://dc.lft.to/lastmile_qr_scan", "ios": "https://dc.lft.to/lastmile_qr_scan"}, "fusion_lon": 0.0, "is_reserved": 0, "is_disabled": 0, "fusion_lat": 0.0, "type": "electric_scooter", "name": "3e8ccb259b87cd68542b5014aa00469a", "lat": 38.88740816666667, "bike_id": "3e8ccb259b87cd68542b5014aa00469a"}, {"lon": -77.02340233333334, "rental_uris": {"android": "https://dc.lft.to/lastmile_qr_scan", "ios": "https://dc.lft.to/lastmile_qr_scan"}, "fusion_lon": 0.0, "is_reserved": 0, "is_disabled": 0, "fusion_lat": 0.0, "type": "electric_scooter", "name": "a535adaca0f5bf361953dd80e1904ec2", "lat": 38.94509016666667, "bike_id": "a535adaca0f5bf361953dd80e1904ec2"}, {"lon": -77.0174735, "rental_uris": {"android": "https://dc.lft.to/lastmile_qr_scan", "ios": "https://dc.lft.to/lastmile_qr_scan"}, "fusion_lon": 0.0, "is_reserved": 0, "is_disabled": 0, "fusion_lat": 0.0, "type": "electric_scooter", "name": "1ffff30d529084a9d3f8d77a9549a458", "lat": 38.975107333333334, "bike_id": "1ffff30d529084a9d3f8d77a9549a458"}, {"lon": -77.03941616666667, "rental_uris": {"android": "https://dc.lft.to/lastmile_qr_scan", "ios": "https://dc.lft.to/lastmile_qr_scan"}, "fusion_lon": 0.0, "is_reserved": 0, "is_disabled": 0, "fusion_lat": 0.0, "type": "electric_scooter", "name": "03a35360e5cdf06fc5866f2b01c9a9f2", "lat": 38.93060233333333, "bike_id": "03a35360e5cdf06fc5866f2b01c9a9f2"}, {"lon": -77.034647, "rental_uris": {"android": "https://dc.lft.to/lastmile_qr_scan", "ios": "https://dc.lft.to/lastmile_qr_scan"}, "fusion_lon": 0.0, "is_reserved": 0, "is_disabled": 0, "fusion_lat": 0.0, "type": "electric_scooter", "name": "fd9b618913ee4cc85c31bb2f2a137cd4", "lat": 38.908260166666665, "bike_id": "fd9b618913ee4cc85c31bb2f2a137cd4"}, {"lon": -77.04357516666667, "rental_uris": {"android": "https://dc.lft.to/lastmile_qr_scan", "ios": "https://dc.lft.to/lastmile_qr_scan"}, "fusion_lon": 0.0, "is_reserved": 0, "is_disabled": 0, "fusion_lat": 0.0, "type": "electric_scooter", "name": "6ad3479bc651f191ea105e43c3d0a54c", "lat": 38.92136983333333, "bike_id": "6ad3479bc651f191ea105e43c3d0a54c"}, {"lon": -77.00306416666666, "rental_uris": {"android": "https://dc.lft.to/lastmile_qr_scan", "ios": "https://dc.lft.to/lastmile_qr_scan"}, "fusion_lon": 0.0, "is_reserved": 0, "is_disabled": 0, "fusion_lat": 0.0, "type": "electric_scooter", "name": "1144db6ba01d28fa424fd2b5a3cac71a", "lat": 38.892251, "bike_id": "1144db6ba01d28fa424fd2b5a3cac71a"}, {"lon": -77.06947266666667, "rental_uris": {"android": "https://dc.lft.to/lastmile_qr_scan", "ios": "https://dc.lft.to/lastmile_qr_scan"}, "fusion_lon": 0.0, "is_reserved": 0, "is_disabled": 0, "fusion_lat": 0.0, "type": "electric_bike", "name": "b9ec6ca60be468929dcfa70885f8c87e", "lat": 38.83624733333333, "bike_id": "b9ec6ca60be468929dcfa70885f8c87e"}, {"lon": -77.02868266666667, "rental_uris": {"android": "https://dc.lft.to/lastmile_qr_scan", "ios": "https://dc.lft.to/lastmile_qr_scan"}, "fusion_lon": 0.0, "is_reserved": 0, "is_disabled": 0, "fusion_lat": 0.0, "type": "electric_scooter", "name": "9ddcf397780e93260adbc0471072a3dd", "lat": 38.93274316666667, "bike_id": "9ddcf397780e93260adbc0471072a3dd"}, {"lon": -77.019517, "rental_uris": {"android": "https://dc.lft.to/lastmile_qr_scan", "ios": "https://dc.lft.to/lastmile_qr_scan"}, "fusion_lon": 0.0, "is_reserved": 0, "is_disabled": 0, "fusion_lat": 0.0, "type": "electric_scooter", "name": "b2d7e1a1b16a6b11cf08ef8d6451d4de", "lat": 38.92318933333333, "bike_id": "b2d7e1a1b16a6b11cf08ef8d6451d4de"}, {"lon": -77.00165733333333, "rental_uris": {"android": "https://dc.lft.to/lastmile_qr_scan", "ios": "https://dc.lft.to/lastmile_qr_scan"}, "fusion_lon": 0.0, "is_reserved": 0, "is_disabled": 0, "fusion_lat": 0.0, "type": "electric_scooter", "name": "7dc484480b5fc2bd8579bacb68c1b087", "lat": 38.87360266666666, "bike_id": "7dc484480b5fc2bd8579bacb68c1b087"}, {"lon": -77.01230733333334, "rental_uris": {"android": "https://dc.lft.to/lastmile_qr_scan", "ios": "https://dc.lft.to/lastmile_qr_scan"}, "fusion_lon": 0.0, "is_reserved": 0, "is_disabled": 0, "fusion_lat": 0.0, "type": "electric_scooter", "name": "d826a614e05c89af6d7963219c81178e", "lat": 38.893376333333336, "bike_id": "d826a614e05c89af6d7963219c81178e"}, {"lon": -77.01678566666666, "rental_uris": {"android": "https://dc.lft.to/lastmile_qr_scan", "ios": "https://dc.lft.to/lastmile_qr_scan"}, "fusion_lon": 0.0, "is_reserved": 0, "is_disabled": 0, "fusion_lat": 0.0, "type": "electric_scooter", "name": "3bcc08e43d4b0bdb65a8f9a1be9d6851", "lat": 38.92044116666667, "bike_id": "3bcc08e43d4b0bdb65a8f9a1be9d6851"}, {"lon": -77.05162283333334, "rental_uris": {"android": "https://dc.lft.to/lastmile_qr_scan", "ios": "https://dc.lft.to/lastmile_qr_scan"}, "fusion_lon": 0.0, "is_reserved": 0, "is_disabled": 0, "fusion_lat": 0.0, "type": "electric_scooter", "name": "8afef7f1858d5490cb685522c27fa5b4", "lat": 38.90620416666667, "bike_id": "8afef7f1858d5490cb685522c27fa5b4"}, {"lon": -77.02381066666666, "rental_uris": {"android": "https://dc.lft.to/lastmile_qr_scan", "ios": "https://dc.lft.to/lastmile_qr_scan"}, "fusion_lon": 0.0, "is_reserved": 0, "is_disabled": 0, "fusion_lat": 0.0, "type": "electric_scooter", "name": "2262b65b919fa5731d6b7ce49313a9ca", "lat": 38.89938683333333, "bike_id": "2262b65b919fa5731d6b7ce49313a9ca"}, {"lon": -77.02000666666666, "rental_uris": {"android": "https://dc.lft.to/lastmile_qr_scan", "ios": "https://dc.lft.to/lastmile_qr_scan"}, "fusion_lon": 0.0, "is_reserved": 0, "is_disabled": 0, "fusion_lat": 0.0, "type": "electric_scooter", "name": "f3202a004b1347d3650de994ee7b1a5a", "lat": 38.964377666666664, "bike_id": "f3202a004b1347d3650de994ee7b1a5a"}, {"lon": -77.021746, "rental_uris": {"android": "https://dc.lft.to/lastmile_qr_scan", "ios": "https://dc.lft.to/lastmile_qr_scan"}, "fusion_lon": 0.0, "is_reserved": 0, "is_disabled": 0, "fusion_lat": 0.0, "type": "electric_scooter", "name": "e672271a7b2b05abe0cf8fcf94fc7819", "lat": 38.94286366666667, "bike_id": "e672271a7b2b05abe0cf8fcf94fc7819"}, {"lon": -77.0471455, "rental_uris": {"android": "https://dc.lft.to/lastmile_qr_scan", "ios": "https://dc.lft.to/lastmile_qr_scan"}, "fusion_lon": 0.0, "is_reserved": 0, "is_disabled": 0, "fusion_lat": 0.0, "type": "electric_scooter", "name": "e6a3c890c60536d0600cbaaa58572cc8", "lat": 38.90174716666667, "bike_id": "e6a3c890c60536d0600cbaaa58572cc8"}, {"lon": -77.0418135, "rental_uris": {"android": "https://dc.lft.to/lastmile_qr_scan", "ios": "https://dc.lft.to/lastmile_qr_scan"}, "fusion_lon": 0.0, "is_reserved": 0, "is_disabled": 0, "fusion_lat": 0.0, "type": "electric_scooter", "name": "725c11385b914f9041c3f43088497e71", "lat": 38.89943916666667, "bike_id": "725c11385b914f9041c3f43088497e71"}, {"lon": -77.00973916666666, "rental_uris": {"android": "https://dc.lft.to/lastmile_qr_scan", "ios": "https://dc.lft.to/lastmile_qr_scan"}, "fusion_lon": 0.0, "is_reserved": 0, "is_disabled": 0, "fusion_lat": 0.0, "type": "electric_scooter", "name": "591ad98469069b7c463f63ae4579c2f3", "lat": 38.95238333333333, "bike_id": "591ad98469069b7c463f63ae4579c2f3"}, {"lon": -77.02177816666666, "rental_uris": {"android": "https://dc.lft.to/lastmile_qr_scan", "ios": "https://dc.lft.to/lastmile_qr_scan"}, "fusion_lon": 0.0, "is_reserved": 0, "is_disabled": 0, "fusion_lat": 0.0, "type": "electric_scooter", "name": "3ebe916718a0e659cbb398c77f9e926c", "lat": 38.887276166666666, "bike_id": "3ebe916718a0e659cbb398c77f9e926c"}, {"lon": -77.0283805, "rental_uris": {"android": "https://dc.lft.to/lastmile_qr_scan", "ios": "https://dc.lft.to/lastmile_qr_scan"}, "fusion_lon": 0.0, "is_reserved": 0, "is_disabled": 0, "fusion_lat": 0.0, "type": "electric_bike", "name": "ed03e6337a654583a049f294fff5834a", "lat": 38.94257483333333, "bike_id": "ed03e6337a654583a049f294fff5834a"}, {"lon": -77.01553133333333, "rental_uris": {"android": "https://dc.lft.to/lastmile_qr_scan", "ios": "https://dc.lft.to/lastmile_qr_scan"}, "fusion_lon": 0.0, "is_reserved": 0, "is_disabled": 0, "fusion_lat": 0.0, "type": "electric_scooter", "name": "bbb03c25a12fae65bfe542312dec23cb", "lat": 38.91468783333333, "bike_id": "bbb03c25a12fae65bfe542312dec23cb"}, {"lon": -76.95709883333333, "rental_uris": {"android": "https://dc.lft.to/lastmile_qr_scan", "ios": "https://dc.lft.to/lastmile_qr_scan"}, "fusion_lon": 0.0, "is_reserved": 0, "is_disabled": 0, "fusion_lat": 0.0, "type": "electric_bike", "name": "817142a0ccd3cc7be89cb1bef92e5c60", "lat": 38.85082233333333, "bike_id": "817142a0ccd3cc7be89cb1bef92e5c60"}, {"lon": -77.05038233333333, "rental_uris": {"android": "https://dc.lft.to/lastmile_qr_scan", "ios": "https://dc.lft.to/lastmile_qr_scan"}, "fusion_lon": 0.0, "is_reserved": 0, "is_disabled": 0, "fusion_lat": 0.0, "type": "electric_scooter", "name": "3ec76e2b1dc918038d1fc22dbc4f8dc5", "lat": 38.90599483333333, "bike_id": "3ec76e2b1dc918038d1fc22dbc4f8dc5"}, {"lon": -77.0124595, "rental_uris": {"android": "https://dc.lft.to/lastmile_qr_scan", "ios": "https://dc.lft.to/lastmile_qr_scan"}, "fusion_lon": 0.0, "is_reserved": 0, "is_disabled": 0, "fusion_lat": 0.0, "type": "electric_scooter", "name": "98ea6e10e4203a04295a4171e635b300", "lat": 38.898435166666665, "bike_id": "98ea6e10e4203a04295a4171e635b300"}, {"lon": -77.0435, "rental_uris": {"android": "https://dc.lft.to/lastmile_qr_scan", "ios": "https://dc.lft.to/lastmile_qr_scan"}, "fusion_lon": 0.0, "is_reserved": 0, "is_disabled": 0, "fusion_lat": 0.0, "type": "electric_scooter", "name": "d05cda9ab0edcce7a7664f8b0d967f0a", "lat": 38.907947, "bike_id": "d05cda9ab0edcce7a7664f8b0d967f0a"}, {"lon": -77.05831166666667, "rental_uris": {"android": "https://dc.lft.to/lastmile_qr_scan", "ios": "https://dc.lft.to/lastmile_qr_scan"}, "fusion_lon": 0.0, "is_reserved": 0, "is_disabled": 0, "fusion_lat": 0.0, "type": "electric_scooter", "name": "5e829378e7d4234776125dd106e79425", "lat": 38.935618166666664, "bike_id": "5e829378e7d4234776125dd106e79425"}, {"lon": -77.0278375, "rental_uris": {"android": "https://dc.lft.to/lastmile_qr_scan", "ios": "https://dc.lft.to/lastmile_qr_scan"}, "fusion_lon": 0.0, "is_reserved": 0, "is_disabled": 0, "fusion_lat": 0.0, "type": "electric_scooter", "name": "9438dbcaabf020295cbf3646dece5152", "lat": 38.973459, "bike_id": "9438dbcaabf020295cbf3646dece5152"}, {"lon": -77.03833866666666, "rental_uris": {"android": "https://dc.lft.to/lastmile_qr_scan", "ios": "https://dc.lft.to/lastmile_qr_scan"}, "fusion_lon": 0.0, "is_reserved": 0, "is_disabled": 0, "fusion_lat": 0.0, "type": "electric_scooter", "name": "5f61be8351b479f0fa5dff1dce81a5e1", "lat": 38.9449915, "bike_id": "5f61be8351b479f0fa5dff1dce81a5e1"}, {"lon": -77.02369483333334, "rental_uris": {"android": "https://dc.lft.to/lastmile_qr_scan", "ios": "https://dc.lft.to/lastmile_qr_scan"}, "fusion_lon": 0.0, "is_reserved": 0, "is_disabled": 0, "fusion_lat": 0.0, "type": "electric_scooter", "name": "d47699d5b679414016d59373d1cf038d", "lat": 38.892156666666665, "bike_id": "d47699d5b679414016d59373d1cf038d"}, {"lon": -77.0471205, "rental_uris": {"android": "https://dc.lft.to/lastmile_qr_scan", "ios": "https://dc.lft.to/lastmile_qr_scan"}, "fusion_lon": 0.0, "is_reserved": 0, "is_disabled": 0, "fusion_lat": 0.0, "type": "electric_scooter", "name": "e7272cdaf7913cfbe74145294bd24e2d", "lat": 38.89958383333333, "bike_id": "e7272cdaf7913cfbe74145294bd24e2d"}, {"lon": -77.03850916666667, "rental_uris": {"android": "https://dc.lft.to/lastmile_qr_scan", "ios": "https://dc.lft.to/lastmile_qr_scan"}, "fusion_lon": 0.0, "is_reserved": 0, "is_disabled": 0, "fusion_lat": 0.0, "type": "electric_scooter", "name": "241a1d38c927ffc95e8076784dae77e7", "lat": 38.90281433333333, "bike_id": "241a1d38c927ffc95e8076784dae77e7"}, {"lon": -77.01963616666667, "rental_uris": {"android": "https://dc.lft.to/lastmile_qr_scan", "ios": "https://dc.lft.to/lastmile_qr_scan"}, "fusion_lon": 0.0, "is_reserved": 0, "is_disabled": 0, "fusion_lat": 0.0, "type": "electric_scooter", "name": "b21b89c5f94efd12ecb61de0736a12ba", "lat": 38.919009333333335, "bike_id": "b21b89c5f94efd12ecb61de0736a12ba"}, {"lon": -77.0215825, "rental_uris": {"android": "https://dc.lft.to/lastmile_qr_scan", "ios": "https://dc.lft.to/lastmile_qr_scan"}, "fusion_lon": 0.0, "is_reserved": 0, "is_disabled": 0, "fusion_lat": 0.0, "type": "electric_scooter", "name": "0858b0d8e3198e4d1e1268e2fe7721d5", "lat": 38.924581833333335, "bike_id": "0858b0d8e3198e4d1e1268e2fe7721d5"}, {"lon": -77.02987666666667, "rental_uris": {"android": "https://dc.lft.to/lastmile_qr_scan", "ios": "https://dc.lft.to/lastmile_qr_scan"}, "fusion_lon": 0.0, "is_reserved": 0, "is_disabled": 0, "fusion_lat": 0.0, "type": "electric_scooter", "name": "03becc4120be1fbde101244f49c2ce1b", "lat": 38.92236416666667, "bike_id": "03becc4120be1fbde101244f49c2ce1b"}, {"lon": -77.02371233333334, "rental_uris": {"android": "https://dc.lft.to/lastmile_qr_scan", "ios": "https://dc.lft.to/lastmile_qr_scan"}, "fusion_lon": 0.0, "is_reserved": 0, "is_disabled": 0, "fusion_lat": 0.0, "type": "electric_scooter", "name": "20a140c54dba76b6e6ff2967547b4964", "lat": 38.90204583333333, "bike_id": "20a140c54dba76b6e6ff2967547b4964"}, {"lon": -77.036705, "rental_uris": {"android": "https://dc.lft.to/lastmile_qr_scan", "ios": "https://dc.lft.to/lastmile_qr_scan"}, "fusion_lon": 0.0, "is_reserved": 0, "is_disabled": 0, "fusion_lat": 0.0, "type": "electric_scooter", "name": "99d979c829085b5c42a7a96c04cff20f", "lat": 38.93204983333333, "bike_id": "99d979c829085b5c42a7a96c04cff20f"}, {"lon": -77.00716266666667, "rental_uris": {"android": "https://dc.lft.to/lastmile_qr_scan", "ios": "https://dc.lft.to/lastmile_qr_scan"}, "fusion_lon": 0.0, "is_reserved": 0, "is_disabled": 0, "fusion_lat": 0.0, "type": "electric_scooter", "name": "1e1eb5193eb803236f7132410df59c66", "lat": 38.9055975, "bike_id": "1e1eb5193eb803236f7132410df59c66"}, {"lon": -77.021824, "rental_uris": {"android": "https://dc.lft.to/lastmile_qr_scan", "ios": "https://dc.lft.to/lastmile_qr_scan"}, "fusion_lon": 0.0, "is_reserved": 0, "is_disabled": 0, "fusion_lat": 0.0, "type": "electric_scooter", "name": "ec6b23411421ed74e86f3e4ece44ec91", "lat": 38.885958333333335, "bike_id": "ec6b23411421ed74e86f3e4ece44ec91"}, {"lon": -76.994639, "rental_uris": {"android": "https://dc.lft.to/lastmile_qr_scan", "ios": "https://dc.lft.to/lastmile_qr_scan"}, "fusion_lon": 0.0, "is_reserved": 0, "is_disabled": 0, "fusion_lat": 0.0, "type": "electric_scooter", "name": "9d0ddb12dacc0d0d7f1737f604eb507a", "lat": 38.90549516666667, "bike_id": "9d0ddb12dacc0d0d7f1737f604eb507a"}, {"lon": -77.0344885, "rental_uris": {"android": "https://dc.lft.to/lastmile_qr_scan", "ios": "https://dc.lft.to/lastmile_qr_scan"}, "fusion_lon": 0.0, "is_reserved": 0, "is_disabled": 0, "fusion_lat": 0.0, "type": "electric_scooter", "name": "b6ee1575c5b329906cb44b5a67a86126", "lat": 38.905531833333335, "bike_id": "b6ee1575c5b329906cb44b5a67a86126"}, {"lon": -76.98660283333334, "rental_uris": {"android": "https://dc.lft.to/lastmile_qr_scan", "ios": "https://dc.lft.to/lastmile_qr_scan"}, "fusion_lon": 0.0, "is_reserved": 0, "is_disabled": 0, "fusion_lat": 0.0, "type": "electric_scooter", "name": "1d3312f57de700b9efc8d7626794de31", "lat": 38.906038333333335, "bike_id": "1d3312f57de700b9efc8d7626794de31"}, {"lon": -77.0079675, "rental_uris": {"android": "https://dc.lft.to/lastmile_qr_scan", "ios": "https://dc.lft.to/lastmile_qr_scan"}, "fusion_lon": 0.0, "is_reserved": 0, "is_disabled": 0, "fusion_lat": 0.0, "type": "electric_scooter", "name": "0eb566e7f7c70f90450a94b5da918971", "lat": 38.89718766666667, "bike_id": "0eb566e7f7c70f90450a94b5da918971"}, {"lon": -77.0265425, "rental_uris": {"android": "https://dc.lft.to/lastmile_qr_scan", "ios": "https://dc.lft.to/lastmile_qr_scan"}, "fusion_lon": 0.0, "is_reserved": 0, "is_disabled": 0, "fusion_lat": 0.0, "type": "electric_scooter", "name": "553021f2c8d2b8c1e475ae4e9bbd9df3", "lat": 38.892197, "bike_id": "553021f2c8d2b8c1e475ae4e9bbd9df3"}, {"lon": -76.94191516666666, "rental_uris": {"android": "https://dc.lft.to/lastmile_qr_scan", "ios": "https://dc.lft.to/lastmile_qr_scan"}, "fusion_lon": 0.0, "is_reserved": 0, "is_disabled": 0, "fusion_lat": 0.0, "type": "electric_scooter", "name": "6d108812822be5a674da41fd90dd3348", "lat": 38.9021695, "bike_id": "6d108812822be5a674da41fd90dd3348"}, {"lon": -76.980577, "rental_uris": {"android": "https://dc.lft.to/lastmile_qr_scan", "ios": "https://dc.lft.to/lastmile_qr_scan"}, "fusion_lon": 0.0, "is_reserved": 0, "is_disabled": 0, "fusion_lat": 0.0, "type": "electric_scooter", "name": "e5fb2cf2d55d9255f97110842ba07419", "lat": 38.88491033333333, "bike_id": "e5fb2cf2d55d9255f97110842ba07419"}, {"lon": -77.03140033333334, "rental_uris": {"android": "https://dc.lft.to/lastmile_qr_scan", "ios": "https://dc.lft.to/lastmile_qr_scan"}, "fusion_lon": 0.0, "is_reserved": 0, "is_disabled": 0, "fusion_lat": 0.0, "type": "electric_bike", "name": "089844e85c939ad6a779a18eba376506", "lat": 38.9162665, "bike_id": "089844e85c939ad6a779a18eba376506"}, {"lon": -77.07552183333334, "rental_uris": {"android": "https://dc.lft.to/lastmile_qr_scan", "ios": "https://dc.lft.to/lastmile_qr_scan"}, "fusion_lon": 0.0, "is_reserved": 0, "is_disabled": 0, "fusion_lat": 0.0, "type": "electric_scooter", "name": "4ef08eaa9861dcad5fbe41b774fa5851", "lat": 38.9209175, "bike_id": "4ef08eaa9861dcad5fbe41b774fa5851"}, {"lon": -77.0070775, "rental_uris": {"android": "https://dc.lft.to/lastmile_qr_scan", "ios": "https://dc.lft.to/lastmile_qr_scan"}, "fusion_lon": 0.0, "is_reserved": 0, "is_disabled": 0, "fusion_lat": 0.0, "type": "electric_scooter", "name": "4390c5b5be51047accc538bb03dbecb3", "lat": 38.88489216666667, "bike_id": "4390c5b5be51047accc538bb03dbecb3"}, {"lon": -77.03094966666667, "rental_uris": {"android": "https://dc.lft.to/lastmile_qr_scan", "ios": "https://dc.lft.to/lastmile_qr_scan"}, "fusion_lon": 0.0, "is_reserved": 0, "is_disabled": 0, "fusion_lat": 0.0, "type": "electric_scooter", "name": "40f478b490ad2e13dfc21a3e29ebba99", "lat": 38.9238505, "bike_id": "40f478b490ad2e13dfc21a3e29ebba99"}, {"lon": -77.05078016666667, "rental_uris": {"android": "https://dc.lft.to/lastmile_qr_scan", "ios": "https://dc.lft.to/lastmile_qr_scan"}, "fusion_lon": 0.0, "is_reserved": 0, "is_disabled": 0, "fusion_lat": 0.0, "type": "electric_scooter", "name": "945e1bd821a7f6fd8a51446dfc22a14a", "lat": 38.89961183333333, "bike_id": "945e1bd821a7f6fd8a51446dfc22a14a"}, {"lon": -77.0318055, "rental_uris": {"android": "https://dc.lft.to/lastmile_qr_scan", "ios": "https://dc.lft.to/lastmile_qr_scan"}, "fusion_lon": 0.0, "is_reserved": 0, "is_disabled": 0, "fusion_lat": 0.0, "type": "electric_scooter", "name": "f0cd0716f82590665882f6d7a97a6abf", "lat": 38.93611533333333, "bike_id": "f0cd0716f82590665882f6d7a97a6abf"}, {"lon": -76.99969433333334, "rental_uris": {"android": "https://dc.lft.to/lastmile_qr_scan", "ios": "https://dc.lft.to/lastmile_qr_scan"}, "fusion_lon": 0.0, "is_reserved": 0, "is_disabled": 0, "fusion_lat": 0.0, "type": "electric_scooter", "name": "166a40a8a0b79c07275f61549aab262f", "lat": 38.9091705, "bike_id": "166a40a8a0b79c07275f61549aab262f"}, {"lon": -76.9615915, "rental_uris": {"android": "https://dc.lft.to/lastmile_qr_scan", "ios": "https://dc.lft.to/lastmile_qr_scan"}, "fusion_lon": 0.0, "is_reserved": 0, "is_disabled": 0, "fusion_lat": 0.0, "type": "electric_bike", "name": "08e1f2739e4dfcc5f1968b585289a7aa", "lat": 38.856141, "bike_id": "08e1f2739e4dfcc5f1968b585289a7aa"}, {"lon": -77.05002733333333, "rental_uris": {"android": "https://dc.lft.to/lastmile_qr_scan", "ios": "https://dc.lft.to/lastmile_qr_scan"}, "fusion_lon": 0.0, "is_reserved": 0, "is_disabled": 0, "fusion_lat": 0.0, "type": "electric_scooter", "name": "56ca56de74766c1a3f9b249a1cc61402", "lat": 38.89227233333333, "bike_id": "56ca56de74766c1a3f9b249a1cc61402"}, {"lon": -77.01189766666667, "rental_uris": {"android": "https://dc.lft.to/lastmile_qr_scan", "ios": "https://dc.lft.to/lastmile_qr_scan"}, "fusion_lon": 0.0, "is_reserved": 0, "is_disabled": 0, "fusion_lat": 0.0, "type": "electric_scooter", "name": "f43b86aff4eed3baad2dac2945b4f2fc", "lat": 38.89793816666667, "bike_id": "f43b86aff4eed3baad2dac2945b4f2fc"}, {"lon": -77.02951316666666, "rental_uris": {"android": "https://dc.lft.to/lastmile_qr_scan", "ios": "https://dc.lft.to/lastmile_qr_scan"}, "fusion_lon": 0.0, "is_reserved": 0, "is_disabled": 0, "fusion_lat": 0.0, "type": "electric_scooter", "name": "b9d9fb74d1e0d925e746ba42f89a714f", "lat": 38.916813, "bike_id": "b9d9fb74d1e0d925e746ba42f89a714f"}, {"lon": -77.04866366666667, "rental_uris": {"android": "https://dc.lft.to/lastmile_qr_scan", "ios": "https://dc.lft.to/lastmile_qr_scan"}, "fusion_lon": 0.0, "is_reserved": 0, "is_disabled": 0, "fusion_lat": 0.0, "type": "electric_scooter", "name": "d2bd9744a662d8ca76849f88a4d55c5c", "lat": 38.892200333333335, "bike_id": "d2bd9744a662d8ca76849f88a4d55c5c"}, {"lon": -76.99407866666667, "rental_uris": {"android": "https://dc.lft.to/lastmile_qr_scan", "ios": "https://dc.lft.to/lastmile_qr_scan"}, "fusion_lon": 0.0, "is_reserved": 0, "is_disabled": 0, "fusion_lat": 0.0, "type": "electric_scooter", "name": "2e1f1c2bd08879136e7298451e5f0524", "lat": 38.8778535, "bike_id": "2e1f1c2bd08879136e7298451e5f0524"}, {"lon": -77.0486705, "rental_uris": {"android": "https://dc.lft.to/lastmile_qr_scan", "ios": "https://dc.lft.to/lastmile_qr_scan"}, "fusion_lon": 0.0, "is_reserved": 0, "is_disabled": 0, "fusion_lat": 0.0, "type": "electric_scooter", "name": "67edabccd36d675b9793ace19684808a", "lat": 38.8922135, "bike_id": "67edabccd36d675b9793ace19684808a"}, {"lon": -77.0343115, "rental_uris": {"android": "https://dc.lft.to/lastmile_qr_scan", "ios": "https://dc.lft.to/lastmile_qr_scan"}, "fusion_lon": 0.0, "is_reserved": 0, "is_disabled": 0, "fusion_lat": 0.0, "type": "electric_bike", "name": "d533cbfb55dd07c87a654d32faecf05a", "lat": 38.96623116666667, "bike_id": "d533cbfb55dd07c87a654d32faecf05a"}, {"lon": -76.99778816666667, "rental_uris": {"android": "https://dc.lft.to/lastmile_qr_scan", "ios": "https://dc.lft.to/lastmile_qr_scan"}, "fusion_lon": 0.0, "is_reserved": 0, "is_disabled": 0, "fusion_lat": 0.0, "type": "electric_scooter", "name": "94957d58815d679189760b2dc9990341", "lat": 38.84428283333333, "bike_id": "94957d58815d679189760b2dc9990341"}, {"lon": -77.03474066666666, "rental_uris": {"android": "https://dc.lft.to/lastmile_qr_scan", "ios": "https://dc.lft.to/lastmile_qr_scan"}, "fusion_lon": 0.0, "is_reserved": 0, "is_disabled": 0, "fusion_lat": 0.0, "type": "electric_scooter", "name": "bccb21e77b3ed1865246ccaee856a4bb", "lat": 38.88488666666667, "bike_id": "bccb21e77b3ed1865246ccaee856a4bb"}, {"lon": -77.04590166666667, "rental_uris": {"android": "https://dc.lft.to/lastmile_qr_scan", "ios": "https://dc.lft.to/lastmile_qr_scan"}, "fusion_lon": 0.0, "is_reserved": 0, "is_disabled": 0, "fusion_lat": 0.0, "type": "electric_scooter", "name": "6ca2242b2cb61c60135af44a249dbd40", "lat": 38.9025155, "bike_id": "6ca2242b2cb61c60135af44a249dbd40"}, {"lon": -77.03280266666667, "rental_uris": {"android": "https://dc.lft.to/lastmile_qr_scan", "ios": "https://dc.lft.to/lastmile_qr_scan"}, "fusion_lon": 0.0, "is_reserved": 0, "is_disabled": 0, "fusion_lat": 0.0, "type": "electric_scooter", "name": "ac6e9d6a28758c0e0f5276b22265d2ca", "lat": 38.9375115, "bike_id": "ac6e9d6a28758c0e0f5276b22265d2ca"}, {"lon": -77.02316633333334, "rental_uris": {"android": "https://dc.lft.to/lastmile_qr_scan", "ios": "https://dc.lft.to/lastmile_qr_scan"}, "fusion_lon": 0.0, "is_reserved": 0, "is_disabled": 0, "fusion_lat": 0.0, "type": "electric_scooter", "name": "79bb3b9f85ddb24e85c1b8c22dca79ea", "lat": 38.878807333333334, "bike_id": "79bb3b9f85ddb24e85c1b8c22dca79ea"}, {"lon": -77.1525875, "rental_uris": {"android": "https://dc.lft.to/lastmile_qr_scan", "ios": "https://dc.lft.to/lastmile_qr_scan"}, "fusion_lon": 0.0, "is_reserved": 0, "is_disabled": 0, "fusion_lat": 0.0, "type": "electric_bike", "name": "9bb7a185d95604576b5e725b87a096db", "lat": 39.0860625, "bike_id": "9bb7a185d95604576b5e725b87a096db"}, {"lon": -77.04485716666667, "rental_uris": {"android": "https://dc.lft.to/lastmile_qr_scan", "ios": "https://dc.lft.to/lastmile_qr_scan"}, "fusion_lon": 0.0, "is_reserved": 0, "is_disabled": 0, "fusion_lat": 0.0, "type": "electric_scooter", "name": "199fc3e6ec810d52fa4a0d8c830d5d92", "lat": 38.908672333333335, "bike_id": "199fc3e6ec810d52fa4a0d8c830d5d92"}, {"lon": -76.98760466666667, "rental_uris": {"android": "https://dc.lft.to/lastmile_qr_scan", "ios": "https://dc.lft.to/lastmile_qr_scan"}, "fusion_lon": 0.0, "is_reserved": 0, "is_disabled": 0, "fusion_lat": 0.0, "type": "electric_bike", "name": "e6c7dc87c12f571d51dd59b42b956420", "lat": 38.857596666666666, "bike_id": "e6c7dc87c12f571d51dd59b42b956420"}, {"lon": -77.038653, "rental_uris": {"android": "https://dc.lft.to/lastmile_qr_scan", "ios": "https://dc.lft.to/lastmile_qr_scan"}, "fusion_lon": 0.0, "is_reserved": 0, "is_disabled": 0, "fusion_lat": 0.0, "type": "electric_scooter", "name": "52f0f104262cfcb2bf3f751cc2fd740c", "lat": 38.9036015, "bike_id": "52f0f104262cfcb2bf3f751cc2fd740c"}, {"lon": -77.0409585, "rental_uris": {"android": "https://dc.lft.to/lastmile_qr_scan", "ios": "https://dc.lft.to/lastmile_qr_scan"}, "fusion_lon": 0.0, "is_reserved": 0, "is_disabled": 0, "fusion_lat": 0.0, "type": "electric_scooter", "name": "022a58d05f71ef4df1efcd7d0643b51e", "lat": 38.899314833333335, "bike_id": "022a58d05f71ef4df1efcd7d0643b51e"}, {"lon": -77.01818483333334, "rental_uris": {"android": "https://dc.lft.to/lastmile_qr_scan", "ios": "https://dc.lft.to/lastmile_qr_scan"}, "fusion_lon": 0.0, "is_reserved": 0, "is_disabled": 0, "fusion_lat": 0.0, "type": "electric_scooter", "name": "0159fd3fb603b414a92b897795dde01c", "lat": 38.92037916666666, "bike_id": "0159fd3fb603b414a92b897795dde01c"}, {"lon": -77.0587295, "rental_uris": {"android": "https://dc.lft.to/lastmile_qr_scan", "ios": "https://dc.lft.to/lastmile_qr_scan"}, "fusion_lon": 0.0, "is_reserved": 0, "is_disabled": 0, "fusion_lat": 0.0, "type": "electric_scooter", "name": "32c0c7c143a6053e2c4906cc290a8596", "lat": 38.936211166666666, "bike_id": "32c0c7c143a6053e2c4906cc290a8596"}, {"lon": -77.01531416666667, "rental_uris": {"android": "https://dc.lft.to/lastmile_qr_scan", "ios": "https://dc.lft.to/lastmile_qr_scan"}, "fusion_lon": 0.0, "is_reserved": 0, "is_disabled": 0, "fusion_lat": 0.0, "type": "electric_scooter", "name": "97eb69a0b0adf6099d4fc126fc95e5cf", "lat": 38.8873135, "bike_id": "97eb69a0b0adf6099d4fc126fc95e5cf"}, {"lon": -77.0727495, "rental_uris": {"android": "https://dc.lft.to/lastmile_qr_scan", "ios": "https://dc.lft.to/lastmile_qr_scan"}, "fusion_lon": 0.0, "is_reserved": 0, "is_disabled": 0, "fusion_lat": 0.0, "type": "electric_scooter", "name": "0b0f2589b22021ce250094364991f237", "lat": 38.93470283333333, "bike_id": "0b0f2589b22021ce250094364991f237"}, {"lon": -77.0415345, "rental_uris": {"android": "https://dc.lft.to/lastmile_qr_scan", "ios": "https://dc.lft.to/lastmile_qr_scan"}, "fusion_lon": 0.0, "is_reserved": 0, "is_disabled": 0, "fusion_lat": 0.0, "type": "electric_scooter", "name": "aba6f09bc9d3334d51d2a48430453751", "lat": 38.905127, "bike_id": "aba6f09bc9d3334d51d2a48430453751"}, {"lon": -77.0363, "rental_uris": {"android": "https://dc.lft.to/lastmile_qr_scan", "ios": "https://dc.lft.to/lastmile_qr_scan"}, "fusion_lon": 0.0, "is_reserved": 0, "is_disabled": 0, "fusion_lat": 0.0, "type": "electric_scooter", "name": "cbd2ec732a9ee67248ef99861619fa87", "lat": 38.93928433333333, "bike_id": "cbd2ec732a9ee67248ef99861619fa87"}, {"lon": -77.0208685, "rental_uris": {"android": "https://dc.lft.to/lastmile_qr_scan", "ios": "https://dc.lft.to/lastmile_qr_scan"}, "fusion_lon": 0.0, "is_reserved": 0, "is_disabled": 0, "fusion_lat": 0.0, "type": "electric_scooter", "name": "0912f6f211de985a169be2af943030ce", "lat": 38.92115016666666, "bike_id": "0912f6f211de985a169be2af943030ce"}, {"lon": -77.0328145, "rental_uris": {"android": "https://dc.lft.to/lastmile_qr_scan", "ios": "https://dc.lft.to/lastmile_qr_scan"}, "fusion_lon": 0.0, "is_reserved": 0, "is_disabled": 0, "fusion_lat": 0.0, "type": "electric_scooter", "name": "4b9c4f85c0a740b3967a610e734f4b9c", "lat": 38.93958883333333, "bike_id": "4b9c4f85c0a740b3967a610e734f4b9c"}, {"lon": -77.05562466666667, "rental_uris": {"android": "https://dc.lft.to/lastmile_qr_scan", "ios": "https://dc.lft.to/lastmile_qr_scan"}, "fusion_lon": 0.0, "is_reserved": 0, "is_disabled": 0, "fusion_lat": 0.0, "type": "electric_scooter", "name": "dd0193866469bf60323326e8735bc192", "lat": 38.92527366666667, "bike_id": "dd0193866469bf60323326e8735bc192"}, {"lon": -77.0206165, "rental_uris": {"android": "https://dc.lft.to/lastmile_qr_scan", "ios": "https://dc.lft.to/lastmile_qr_scan"}, "fusion_lon": 0.0, "is_reserved": 0, "is_disabled": 0, "fusion_lat": 0.0, "type": "electric_scooter", "name": "dac6128c22b077d1d707c73c0763dafd", "lat": 38.927664, "bike_id": "dac6128c22b077d1d707c73c0763dafd"}, {"lon": -77.0945145, "rental_uris": {"android": "https://dc.lft.to/lastmile_qr_scan", "ios": "https://dc.lft.to/lastmile_qr_scan"}, "fusion_lon": 0.0, "is_reserved": 0, "is_disabled": 0, "fusion_lat": 0.0, "type": "electric_bike", "name": "b6da84b48caa37bfa49a1f00c4402509", "lat": 38.80752, "bike_id": "b6da84b48caa37bfa49a1f00c4402509"}, {"lon": -77.00490316666667, "rental_uris": {"android": "https://dc.lft.to/lastmile_qr_scan", "ios": "https://dc.lft.to/lastmile_qr_scan"}, "fusion_lon": 0.0, "is_reserved": 0, "is_disabled": 0, "fusion_lat": 0.0, "type": "electric_scooter", "name": "ee51936f930e0e1441067d66bd98e623", "lat": 38.9169605, "bike_id": "ee51936f930e0e1441067d66bd98e623"}, {"lon": -77.03162633333334, "rental_uris": {"android": "https://dc.lft.to/lastmile_qr_scan", "ios": "https://dc.lft.to/lastmile_qr_scan"}, "fusion_lon": 0.0, "is_reserved": 0, "is_disabled": 0, "fusion_lat": 0.0, "type": "electric_scooter", "name": "a4e9c1dc6f6079b4d0399cde504a78fc", "lat": 38.89220433333333, "bike_id": "a4e9c1dc6f6079b4d0399cde504a78fc"}, {"lon": -77.05548433333334, "rental_uris": {"android": "https://dc.lft.to/lastmile_qr_scan", "ios": "https://dc.lft.to/lastmile_qr_scan"}, "fusion_lon": 0.0, "is_reserved": 0, "is_disabled": 0, "fusion_lat": 0.0, "type": "electric_bike", "name": "22db7307f03ce6bb3bc03c8715a3623a", "lat": 39.0360315, "bike_id": "22db7307f03ce6bb3bc03c8715a3623a"}, {"lon": -77.0487135, "rental_uris": {"android": "https://dc.lft.to/lastmile_qr_scan", "ios": "https://dc.lft.to/lastmile_qr_scan"}, "fusion_lon": 0.0, "is_reserved": 0, "is_disabled": 0, "fusion_lat": 0.0, "type": "electric_scooter", "name": "56b7c97014588c0925e936eaa4460714", "lat": 38.905128, "bike_id": "56b7c97014588c0925e936eaa4460714"}, {"lon": -77.0383835, "rental_uris": {"android": "https://dc.lft.to/lastmile_qr_scan", "ios": "https://dc.lft.to/lastmile_qr_scan"}, "fusion_lon": 0.0, "is_reserved": 0, "is_disabled": 0, "fusion_lat": 0.0, "type": "electric_scooter", "name": "6b8ea14ad55d89d556f25c63869675f6", "lat": 38.9095985, "bike_id": "6b8ea14ad55d89d556f25c63869675f6"}, {"lon": -77.04247566666666, "rental_uris": {"android": "https://dc.lft.to/lastmile_qr_scan", "ios": "https://dc.lft.to/lastmile_qr_scan"}, "fusion_lon": 0.0, "is_reserved": 0, "is_disabled": 0, "fusion_lat": 0.0, "type": "electric_scooter", "name": "15b6c1cc4a0a043518458c90d7cb0da2", "lat": 38.92432566666667, "bike_id": "15b6c1cc4a0a043518458c90d7cb0da2"}, {"lon": -76.98362183333333, "rental_uris": {"android": "https://dc.lft.to/lastmile_qr_scan", "ios": "https://dc.lft.to/lastmile_qr_scan"}, "fusion_lon": 0.0, "is_reserved": 0, "is_disabled": 0, "fusion_lat": 0.0, "type": "electric_scooter", "name": "cad359fbada2c808c2bdb56faf68be04", "lat": 38.9154175, "bike_id": "cad359fbada2c808c2bdb56faf68be04"}, {"lon": -77.12973966666667, "rental_uris": {"android": "https://dc.lft.to/lastmile_qr_scan", "ios": "https://dc.lft.to/lastmile_qr_scan"}, "fusion_lon": 0.0, "is_reserved": 0, "is_disabled": 0, "fusion_lat": 0.0, "type": "electric_bike", "name": "9383d1d3b399d3f17736e3fe3be5f843", "lat": 38.799848833333336, "bike_id": "9383d1d3b399d3f17736e3fe3be5f843"}, {"lon": -77.04191766666666, "rental_uris": {"android": "https://dc.lft.to/lastmile_qr_scan", "ios": "https://dc.lft.to/lastmile_qr_scan"}, "fusion_lon": 0.0, "is_reserved": 0, "is_disabled": 0, "fusion_lat": 0.0, "type": "electric_scooter", "name": "bb0416a30b8b491bde8325a49310bd5e", "lat": 38.926202833333335, "bike_id": "bb0416a30b8b491bde8325a49310bd5e"}, {"lon": -77.04403116666667, "rental_uris": {"android": "https://dc.lft.to/lastmile_qr_scan", "ios": "https://dc.lft.to/lastmile_qr_scan"}, "fusion_lon": 0.0, "is_reserved": 0, "is_disabled": 0, "fusion_lat": 0.0, "type": "electric_scooter", "name": "51609e2f8de2c34434e0e4c2cea20ac0", "lat": 38.92016233333333, "bike_id": "51609e2f8de2c34434e0e4c2cea20ac0"}, {"lon": -77.04185366666667, "rental_uris": {"android": "https://dc.lft.to/lastmile_qr_scan", "ios": "https://dc.lft.to/lastmile_qr_scan"}, "fusion_lon": 0.0, "is_reserved": 0, "is_disabled": 0, "fusion_lat": 0.0, "type": "electric_scooter", "name": "ab8d7ef7daf6a900d99b5ccc2f31aa57", "lat": 38.91135383333334, "bike_id": "ab8d7ef7daf6a900d99b5ccc2f31aa57"}, {"lon": -77.1177265, "rental_uris": {"android": "https://dc.lft.to/lastmile_qr_scan", "ios": "https://dc.lft.to/lastmile_qr_scan"}, "fusion_lon": 0.0, "is_reserved": 0, "is_disabled": 0, "fusion_lat": 0.0, "type": "electric_bike", "name": "c90f14590495d9b6824fc09370c9e659", "lat": 38.81245116666667, "bike_id": "c90f14590495d9b6824fc09370c9e659"}, {"lon": -77.03146583333333, "rental_uris": {"android": "https://dc.lft.to/lastmile_qr_scan", "ios": "https://dc.lft.to/lastmile_qr_scan"}, "fusion_lon": 0.0, "is_reserved": 0, "is_disabled": 0, "fusion_lat": 0.0, "type": "electric_scooter", "name": "911cf5b88ca2d2e93d3a2adf1287ddf4", "lat": 38.91104716666667, "bike_id": "911cf5b88ca2d2e93d3a2adf1287ddf4"}, {"lon": -77.00710566666666, "rental_uris": {"android": "https://dc.lft.to/lastmile_qr_scan", "ios": "https://dc.lft.to/lastmile_qr_scan"}, "fusion_lon": 0.0, "is_reserved": 0, "is_disabled": 0, "fusion_lat": 0.0, "type": "electric_scooter", "name": "06e419279899e8e3df1a1058682f63c1", "lat": 38.8718145, "bike_id": "06e419279899e8e3df1a1058682f63c1"}, {"lon": -77.0212855, "rental_uris": {"android": "https://dc.lft.to/lastmile_qr_scan", "ios": "https://dc.lft.to/lastmile_qr_scan"}, "fusion_lon": 0.0, "is_reserved": 0, "is_disabled": 0, "fusion_lat": 0.0, "type": "electric_scooter", "name": "4961bf92975350aa2ce33e06287c87bd", "lat": 38.924142333333336, "bike_id": "4961bf92975350aa2ce33e06287c87bd"}, {"lon": -77.03737533333333, "rental_uris": {"android": "https://dc.lft.to/lastmile_qr_scan", "ios": "https://dc.lft.to/lastmile_qr_scan"}, "fusion_lon": 0.0, "is_reserved": 0, "is_disabled": 0, "fusion_lat": 0.0, "type": "electric_scooter", "name": "19bf54923db6183693d7694226d8e312", "lat": 38.90764583333333, "bike_id": "19bf54923db6183693d7694226d8e312"}, {"lon": -77.03420766666666, "rental_uris": {"android": "https://dc.lft.to/lastmile_qr_scan", "ios": "https://dc.lft.to/lastmile_qr_scan"}, "fusion_lon": 0.0, "is_reserved": 0, "is_disabled": 0, "fusion_lat": 0.0, "type": "electric_scooter", "name": "83cd9c79f8adf48d84ffb12c076914ec", "lat": 38.90261866666667, "bike_id": "83cd9c79f8adf48d84ffb12c076914ec"}, {"lon": -76.970107, "rental_uris": {"android": "https://dc.lft.to/lastmile_qr_scan", "ios": "https://dc.lft.to/lastmile_qr_scan"}, "fusion_lon": 0.0, "is_reserved": 0, "is_disabled": 0, "fusion_lat": 0.0, "type": "electric_bike", "name": "3f98800b21268d549452271a18e87a17", "lat": 38.863684, "bike_id": "3f98800b21268d549452271a18e87a17"}, {"lon": -76.99945733333334, "rental_uris": {"android": "https://dc.lft.to/lastmile_qr_scan", "ios": "https://dc.lft.to/lastmile_qr_scan"}, "fusion_lon": 0.0, "is_reserved": 0, "is_disabled": 0, "fusion_lat": 0.0, "type": "electric_scooter", "name": "a6a7569bc4f4f921d71c2f28f8243804", "lat": 38.904240333333334, "bike_id": "a6a7569bc4f4f921d71c2f28f8243804"}, {"lon": -77.03382733333333, "rental_uris": {"android": "https://dc.lft.to/lastmile_qr_scan", "ios": "https://dc.lft.to/lastmile_qr_scan"}, "fusion_lon": 0.0, "is_reserved": 0, "is_disabled": 0, "fusion_lat": 0.0, "type": "electric_scooter", "name": "39a085f904cf104ada3578b3fa568f3d", "lat": 38.938422333333335, "bike_id": "39a085f904cf104ada3578b3fa568f3d"}, {"lon": -77.022037, "rental_uris": {"android": "https://dc.lft.to/lastmile_qr_scan", "ios": "https://dc.lft.to/lastmile_qr_scan"}, "fusion_lon": 0.0, "is_reserved": 0, "is_disabled": 0, "fusion_lat": 0.0, "type": "electric_scooter", "name": "63cc06d7fbe73afc8be0da9028e471b0", "lat": 38.9052645, "bike_id": "63cc06d7fbe73afc8be0da9028e471b0"}, {"lon": -77.02650416666667, "rental_uris": {"android": "https://dc.lft.to/lastmile_qr_scan", "ios": "https://dc.lft.to/lastmile_qr_scan"}, "fusion_lon": 0.0, "is_reserved": 0, "is_disabled": 0, "fusion_lat": 0.0, "type": "electric_scooter", "name": "8dae0609803915b8cb6fdcec0da81e8f", "lat": 38.89223416666667, "bike_id": "8dae0609803915b8cb6fdcec0da81e8f"}, {"lon": -77.02093833333333, "rental_uris": {"android": "https://dc.lft.to/lastmile_qr_scan", "ios": "https://dc.lft.to/lastmile_qr_scan"}, "fusion_lon": 0.0, "is_reserved": 0, "is_disabled": 0, "fusion_lat": 0.0, "type": "electric_scooter", "name": "32e29e1864c752b62a099758b588bbcc", "lat": 38.93432383333333, "bike_id": "32e29e1864c752b62a099758b588bbcc"}, {"lon": -77.21009883333333, "rental_uris": {"android": "https://dc.lft.to/lastmile_qr_scan", "ios": "https://dc.lft.to/lastmile_qr_scan"}, "fusion_lon": 0.0, "is_reserved": 0, "is_disabled": 0, "fusion_lat": 0.0, "type": "electric_bike", "name": "9471684401201e47cc0b0ffe28701a3f", "lat": 38.925867333333336, "bike_id": "9471684401201e47cc0b0ffe28701a3f"}, {"lon": -77.01570433333333, "rental_uris": {"android": "https://dc.lft.to/lastmile_qr_scan", "ios": "https://dc.lft.to/lastmile_qr_scan"}, "fusion_lon": 0.0, "is_reserved": 0, "is_disabled": 0, "fusion_lat": 0.0, "type": "electric_scooter", "name": "069189a58c868f90dec8119f3f5b3092", "lat": 38.9150245, "bike_id": "069189a58c868f90dec8119f3f5b3092"}, {"lon": -77.04677416666667, "rental_uris": {"android": "https://dc.lft.to/lastmile_qr_scan", "ios": "https://dc.lft.to/lastmile_qr_scan"}, "fusion_lon": 0.0, "is_reserved": 0, "is_disabled": 0, "fusion_lat": 0.0, "type": "electric_scooter", "name": "e62d5a7a9e2f8169985e4af62dffdaff", "lat": 38.89214466666667, "bike_id": "e62d5a7a9e2f8169985e4af62dffdaff"}, {"lon": -77.0203075, "rental_uris": {"android": "https://dc.lft.to/lastmile_qr_scan", "ios": "https://dc.lft.to/lastmile_qr_scan"}, "fusion_lon": 0.0, "is_reserved": 0, "is_disabled": 0, "fusion_lat": 0.0, "type": "electric_scooter", "name": "3e4d70f5a9162b4d4f0bc114df41348e", "lat": 38.92433616666667, "bike_id": "3e4d70f5a9162b4d4f0bc114df41348e"}, {"lon": -77.04356033333333, "rental_uris": {"android": "https://dc.lft.to/lastmile_qr_scan", "ios": "https://dc.lft.to/lastmile_qr_scan"}, "fusion_lon": 0.0, "is_reserved": 0, "is_disabled": 0, "fusion_lat": 0.0, "type": "electric_scooter", "name": "db1a4228cf6e8b285199e53350908aae", "lat": 38.90394533333333, "bike_id": "db1a4228cf6e8b285199e53350908aae"}, {"lon": -77.06373783333333, "rental_uris": {"android": "https://dc.lft.to/lastmile_qr_scan", "ios": "https://dc.lft.to/lastmile_qr_scan"}, "fusion_lon": 0.0, "is_reserved": 0, "is_disabled": 0, "fusion_lat": 0.0, "type": "electric_scooter", "name": "bc1ae2c2108c66332b5215d07c74b659", "lat": 38.906052, "bike_id": "bc1ae2c2108c66332b5215d07c74b659"}, {"lon": -77.01350916666667, "rental_uris": {"android": "https://dc.lft.to/lastmile_qr_scan", "ios": "https://dc.lft.to/lastmile_qr_scan"}, "fusion_lon": 0.0, "is_reserved": 0, "is_disabled": 0, "fusion_lat": 0.0, "type": "electric_scooter", "name": "aae99305ae953f1d0118427cf1de1e54", "lat": 38.871608, "bike_id": "aae99305ae953f1d0118427cf1de1e54"}, {"lon": -77.04536166666666, "rental_uris": {"android": "https://dc.lft.to/lastmile_qr_scan", "ios": "https://dc.lft.to/lastmile_qr_scan"}, "fusion_lon": 0.0, "is_reserved": 0, "is_disabled": 0, "fusion_lat": 0.0, "type": "electric_scooter", "name": "ade4287783f6f8bb8ff56d6663e17d9e", "lat": 38.91108633333333, "bike_id": "ade4287783f6f8bb8ff56d6663e17d9e"}, {"lon": -76.9690955, "rental_uris": {"android": "https://dc.lft.to/lastmile_qr_scan", "ios": "https://dc.lft.to/lastmile_qr_scan"}, "fusion_lon": 0.0, "is_reserved": 0, "is_disabled": 0, "fusion_lat": 0.0, "type": "electric_bike", "name": "a8f93d0c2c734c23a70eda1c38f74e78", "lat": 38.846110333333336, "bike_id": "a8f93d0c2c734c23a70eda1c38f74e78"}, {"lon": -77.04323533333333, "rental_uris": {"android": "https://dc.lft.to/lastmile_qr_scan", "ios": "https://dc.lft.to/lastmile_qr_scan"}, "fusion_lon": 0.0, "is_reserved": 0, "is_disabled": 0, "fusion_lat": 0.0, "type": "electric_scooter", "name": "1ec999d92e8f7d178ee6668d38b9c7f8", "lat": 38.892209666666666, "bike_id": "1ec999d92e8f7d178ee6668d38b9c7f8"}, {"lon": -77.0209995, "rental_uris": {"android": "https://dc.lft.to/lastmile_qr_scan", "ios": "https://dc.lft.to/lastmile_qr_scan"}, "fusion_lon": 0.0, "is_reserved": 0, "is_disabled": 0, "fusion_lat": 0.0, "type": "electric_scooter", "name": "18301ac178cd05644e2c2071ec770e3a", "lat": 38.894119, "bike_id": "18301ac178cd05644e2c2071ec770e3a"}, {"lon": -77.03326383333334, "rental_uris": {"android": "https://dc.lft.to/lastmile_qr_scan", "ios": "https://dc.lft.to/lastmile_qr_scan"}, "fusion_lon": 0.0, "is_reserved": 0, "is_disabled": 0, "fusion_lat": 0.0, "type": "electric_scooter", "name": "b602ac5401ca97b1c604aaf1312d378f", "lat": 38.9027235, "bike_id": "b602ac5401ca97b1c604aaf1312d378f"}, {"lon": -76.98597033333333, "rental_uris": {"android": "https://dc.lft.to/lastmile_qr_scan", "ios": "https://dc.lft.to/lastmile_qr_scan"}, "fusion_lon": 0.0, "is_reserved": 0, "is_disabled": 0, "fusion_lat": 0.0, "type": "electric_scooter", "name": "52bd14f0ce1775064756d7ba66fceaf7", "lat": 38.89468733333333, "bike_id": "52bd14f0ce1775064756d7ba66fceaf7"}, {"lon": -77.00571566666666, "rental_uris": {"android": "https://dc.lft.to/lastmile_qr_scan", "ios": "https://dc.lft.to/lastmile_qr_scan"}, "fusion_lon": 0.0, "is_reserved": 0, "is_disabled": 0, "fusion_lat": 0.0, "type": "electric_scooter", "name": "e23b93dc0da5a8fdeee1b96955da5f8e", "lat": 38.87232, "bike_id": "e23b93dc0da5a8fdeee1b96955da5f8e"}, {"lon": -77.018523, "rental_uris": {"android": "https://dc.lft.to/lastmile_qr_scan", "ios": "https://dc.lft.to/lastmile_qr_scan"}, "fusion_lon": 0.0, "is_reserved": 0, "is_disabled": 0, "fusion_lat": 0.0, "type": "electric_scooter", "name": "3151cb7ed938b21b23c42e383ed941e5", "lat": 38.95425566666667, "bike_id": "3151cb7ed938b21b23c42e383ed941e5"}, {"lon": -77.04862133333333, "rental_uris": {"android": "https://dc.lft.to/lastmile_qr_scan", "ios": "https://dc.lft.to/lastmile_qr_scan"}, "fusion_lon": 0.0, "is_reserved": 0, "is_disabled": 0, "fusion_lat": 0.0, "type": "electric_scooter", "name": "c3654b7efe8d3b63094efa97c44f4d82", "lat": 38.8993685, "bike_id": "c3654b7efe8d3b63094efa97c44f4d82"}, {"lon": -77.07790883333334, "rental_uris": {"android": "https://dc.lft.to/lastmile_qr_scan", "ios": "https://dc.lft.to/lastmile_qr_scan"}, "fusion_lon": 0.0, "is_reserved": 0, "is_disabled": 0, "fusion_lat": 0.0, "type": "electric_bike", "name": "71d7212745b754b2521add934e316dd3", "lat": 38.994931333333334, "bike_id": "71d7212745b754b2521add934e316dd3"}, {"lon": -77.04346083333333, "rental_uris": {"android": "https://dc.lft.to/lastmile_qr_scan", "ios": "https://dc.lft.to/lastmile_qr_scan"}, "fusion_lon": 0.0, "is_reserved": 0, "is_disabled": 0, "fusion_lat": 0.0, "type": "electric_scooter", "name": "b27849b44d7bb46b13dae36d1d878ee8", "lat": 38.921442166666665, "bike_id": "b27849b44d7bb46b13dae36d1d878ee8"}, {"lon": -77.03872933333334, "rental_uris": {"android": "https://dc.lft.to/lastmile_qr_scan", "ios": "https://dc.lft.to/lastmile_qr_scan"}, "fusion_lon": 0.0, "is_reserved": 0, "is_disabled": 0, "fusion_lat": 0.0, "type": "electric_scooter", "name": "1ccb294bdc5e424a9c26ef2127f3a38b", "lat": 38.90274316666667, "bike_id": "1ccb294bdc5e424a9c26ef2127f3a38b"}, {"lon": -77.04250566666667, "rental_uris": {"android": "https://dc.lft.to/lastmile_qr_scan", "ios": "https://dc.lft.to/lastmile_qr_scan"}, "fusion_lon": 0.0, "is_reserved": 0, "is_disabled": 0, "fusion_lat": 0.0, "type": "electric_scooter", "name": "f29351a1ae79bf556741211313556742", "lat": 38.92366883333333, "bike_id": "f29351a1ae79bf556741211313556742"}, {"lon": -77.02642066666667, "rental_uris": {"android": "https://dc.lft.to/lastmile_qr_scan", "ios": "https://dc.lft.to/lastmile_qr_scan"}, "fusion_lon": 0.0, "is_reserved": 0, "is_disabled": 0, "fusion_lat": 0.0, "type": "electric_scooter", "name": "ceac86b0cdaf0eca2119e2e21a43e74b", "lat": 38.94096483333333, "bike_id": "ceac86b0cdaf0eca2119e2e21a43e74b"}, {"lon": -77.04099416666666, "rental_uris": {"android": "https://dc.lft.to/lastmile_qr_scan", "ios": "https://dc.lft.to/lastmile_qr_scan"}, "fusion_lon": 0.0, "is_reserved": 0, "is_disabled": 0, "fusion_lat": 0.0, "type": "electric_scooter", "name": "7b8fdaa699c3a584563cd65b29dc6db4", "lat": 38.89839333333333, "bike_id": "7b8fdaa699c3a584563cd65b29dc6db4"}, {"lon": -77.03060233333333, "rental_uris": {"android": "https://dc.lft.to/lastmile_qr_scan", "ios": "https://dc.lft.to/lastmile_qr_scan"}, "fusion_lon": 0.0, "is_reserved": 0, "is_disabled": 0, "fusion_lat": 0.0, "type": "electric_scooter", "name": "d0e2de15a0ed88a1436fd9576ec25e67", "lat": 38.92248633333333, "bike_id": "d0e2de15a0ed88a1436fd9576ec25e67"}, {"lon": -76.9855065, "rental_uris": {"android": "https://dc.lft.to/lastmile_qr_scan", "ios": "https://dc.lft.to/lastmile_qr_scan"}, "fusion_lon": 0.0, "is_reserved": 0, "is_disabled": 0, "fusion_lat": 0.0, "type": "electric_scooter", "name": "bc5347b20071c4b31cb36942aafe396f", "lat": 38.89761416666666, "bike_id": "bc5347b20071c4b31cb36942aafe396f"}, {"lon": -77.03194983333333, "rental_uris": {"android": "https://dc.lft.to/lastmile_qr_scan", "ios": "https://dc.lft.to/lastmile_qr_scan"}, "fusion_lon": 0.0, "is_reserved": 0, "is_disabled": 0, "fusion_lat": 0.0, "type": "electric_scooter", "name": "926f1bfe226e041fc14063b95445d1ff", "lat": 38.907825833333334, "bike_id": "926f1bfe226e041fc14063b95445d1ff"}, {"lon": -76.95882, "rental_uris": {"android": "https://dc.lft.to/lastmile_qr_scan", "ios": "https://dc.lft.to/lastmile_qr_scan"}, "fusion_lon": 0.0, "is_reserved": 0, "is_disabled": 0, "fusion_lat": 0.0, "type": "electric_scooter", "name": "b41e927d230577b38699909322c240bb", "lat": 38.85944166666667, "bike_id": "b41e927d230577b38699909322c240bb"}, {"lon": -77.02132216666666, "rental_uris": {"android": "https://dc.lft.to/lastmile_qr_scan", "ios": "https://dc.lft.to/lastmile_qr_scan"}, "fusion_lon": 0.0, "is_reserved": 0, "is_disabled": 0, "fusion_lat": 0.0, "type": "electric_scooter", "name": "8ba47fc2e79c66b126e5f048ae1a8ad8", "lat": 38.923188833333334, "bike_id": "8ba47fc2e79c66b126e5f048ae1a8ad8"}, {"lon": -77.036356, "rental_uris": {"android": "https://dc.lft.to/lastmile_qr_scan", "ios": "https://dc.lft.to/lastmile_qr_scan"}, "fusion_lon": 0.0, "is_reserved": 0, "is_disabled": 0, "fusion_lat": 0.0, "type": "electric_scooter", "name": "7827a5b1c95d940e0cce92bfed64afd6", "lat": 38.92808266666667, "bike_id": "7827a5b1c95d940e0cce92bfed64afd6"}, {"lon": -77.02589933333333, "rental_uris": {"android": "https://dc.lft.to/lastmile_qr_scan", "ios": "https://dc.lft.to/lastmile_qr_scan"}, "fusion_lon": 0.0, "is_reserved": 0, "is_disabled": 0, "fusion_lat": 0.0, "type": "electric_scooter", "name": "0705f299f2cb81ea7f34b4de3db42dc7", "lat": 38.96392, "bike_id": "0705f299f2cb81ea7f34b4de3db42dc7"}, {"lon": -76.93575483333333, "rental_uris": {"android": "https://dc.lft.to/lastmile_qr_scan", "ios": "https://dc.lft.to/lastmile_qr_scan"}, "fusion_lon": 0.0, "is_reserved": 0, "is_disabled": 0, "fusion_lat": 0.0, "type": "electric_scooter", "name": "a80df96f3df61e826c1d63690031f4cf", "lat": 38.897013, "bike_id": "a80df96f3df61e826c1d63690031f4cf"}, {"lon": -77.00060716666667, "rental_uris": {"android": "https://dc.lft.to/lastmile_qr_scan", "ios": "https://dc.lft.to/lastmile_qr_scan"}, "fusion_lon": 0.0, "is_reserved": 0, "is_disabled": 0, "fusion_lat": 0.0, "type": "electric_scooter", "name": "25d605c7a498f99b76236265b7c18492", "lat": 38.87378233333333, "bike_id": "25d605c7a498f99b76236265b7c18492"}, {"lon": -76.95796583333333, "rental_uris": {"android": "https://dc.lft.to/lastmile_qr_scan", "ios": "https://dc.lft.to/lastmile_qr_scan"}, "fusion_lon": 0.0, "is_reserved": 0, "is_disabled": 0, "fusion_lat": 0.0, "type": "electric_bike", "name": "3b741f4969d08766dee2975498653510", "lat": 38.98037016666667, "bike_id": "3b741f4969d08766dee2975498653510"}, {"lon": -77.01529066666667, "rental_uris": {"android": "https://dc.lft.to/lastmile_qr_scan", "ios": "https://dc.lft.to/lastmile_qr_scan"}, "fusion_lon": 0.0, "is_reserved": 0, "is_disabled": 0, "fusion_lat": 0.0, "type": "electric_scooter", "name": "af4ef6f87e2d4b2c36525799af664cba", "lat": 38.88730483333333, "bike_id": "af4ef6f87e2d4b2c36525799af664cba"}, {"lon": -77.03214983333334, "rental_uris": {"android": "https://dc.lft.to/lastmile_qr_scan", "ios": "https://dc.lft.to/lastmile_qr_scan"}, "fusion_lon": 0.0, "is_reserved": 0, "is_disabled": 0, "fusion_lat": 0.0, "type": "electric_scooter", "name": "ef2d5fde5b8d422be80662388f599438", "lat": 38.916158, "bike_id": "ef2d5fde5b8d422be80662388f599438"}, {"lon": -77.0702655, "rental_uris": {"android": "https://dc.lft.to/lastmile_qr_scan", "ios": "https://dc.lft.to/lastmile_qr_scan"}, "fusion_lon": 0.0, "is_reserved": 0, "is_disabled": 0, "fusion_lat": 0.0, "type": "electric_scooter", "name": "42f3490984498b76b3411fd010bcf46e", "lat": 38.9560545, "bike_id": "42f3490984498b76b3411fd010bcf46e"}, {"lon": -77.02809516666666, "rental_uris": {"android": "https://dc.lft.to/lastmile_qr_scan", "ios": "https://dc.lft.to/lastmile_qr_scan"}, "fusion_lon": 0.0, "is_reserved": 0, "is_disabled": 0, "fusion_lat": 0.0, "type": "electric_scooter", "name": "f4bcf97c6c87c1b57f880457b58f9491", "lat": 38.961301, "bike_id": "f4bcf97c6c87c1b57f880457b58f9491"}, {"lon": -77.0126415, "rental_uris": {"android": "https://dc.lft.to/lastmile_qr_scan", "ios": "https://dc.lft.to/lastmile_qr_scan"}, "fusion_lon": 0.0, "is_reserved": 0, "is_disabled": 0, "fusion_lat": 0.0, "type": "electric_scooter", "name": "3ca74191d60292a2987ad29e05071de5", "lat": 38.89920333333333, "bike_id": "3ca74191d60292a2987ad29e05071de5"}, {"lon": -77.04440816666667, "rental_uris": {"android": "https://dc.lft.to/lastmile_qr_scan", "ios": "https://dc.lft.to/lastmile_qr_scan"}, "fusion_lon": 0.0, "is_reserved": 0, "is_disabled": 0, "fusion_lat": 0.0, "type": "electric_scooter", "name": "79cd4eb0f8a9c87c034059b15c12758a", "lat": 38.905748, "bike_id": "79cd4eb0f8a9c87c034059b15c12758a"}, {"lon": -77.0742795, "rental_uris": {"android": "https://dc.lft.to/lastmile_qr_scan", "ios": "https://dc.lft.to/lastmile_qr_scan"}, "fusion_lon": 0.0, "is_reserved": 0, "is_disabled": 0, "fusion_lat": 0.0, "type": "electric_scooter", "name": "b7b9e7b22fce455e0a87b290cd7c9f1f", "lat": 38.91264783333333, "bike_id": "b7b9e7b22fce455e0a87b290cd7c9f1f"}, {"lon": -77.02829616666666, "rental_uris": {"android": "https://dc.lft.to/lastmile_qr_scan", "ios": "https://dc.lft.to/lastmile_qr_scan"}, "fusion_lon": 0.0, "is_reserved": 0, "is_disabled": 0, "fusion_lat": 0.0, "type": "electric_scooter", "name": "ba7a0886c294e94cd13ee852627def5e", "lat": 38.8870705, "bike_id": "ba7a0886c294e94cd13ee852627def5e"}, {"lon": -77.01141333333334, "rental_uris": {"android": "https://dc.lft.to/lastmile_qr_scan", "ios": "https://dc.lft.to/lastmile_qr_scan"}, "fusion_lon": 0.0, "is_reserved": 0, "is_disabled": 0, "fusion_lat": 0.0, "type": "electric_scooter", "name": "96588975ffaebca46a4ec3ae1ebaafcc", "lat": 38.883324, "bike_id": "96588975ffaebca46a4ec3ae1ebaafcc"}, {"lon": -77.04499716666666, "rental_uris": {"android": "https://dc.lft.to/lastmile_qr_scan", "ios": "https://dc.lft.to/lastmile_qr_scan"}, "fusion_lon": 0.0, "is_reserved": 0, "is_disabled": 0, "fusion_lat": 0.0, "type": "electric_bike", "name": "b078d68c680dcd6d8c6058fedaa38ee4", "lat": 39.01412783333333, "bike_id": "b078d68c680dcd6d8c6058fedaa38ee4"}, {"lon": -77.03912366666667, "rental_uris": {"android": "https://dc.lft.to/lastmile_qr_scan", "ios": "https://dc.lft.to/lastmile_qr_scan"}, "fusion_lon": 0.0, "is_reserved": 0, "is_disabled": 0, "fusion_lat": 0.0, "type": "electric_scooter", "name": "c517f673056cfbe099ad247cb1fe3e2a", "lat": 38.916911166666665, "bike_id": "c517f673056cfbe099ad247cb1fe3e2a"}, {"lon": -77.0366265, "rental_uris": {"android": "https://dc.lft.to/lastmile_qr_scan", "ios": "https://dc.lft.to/lastmile_qr_scan"}, "fusion_lon": 0.0, "is_reserved": 0, "is_disabled": 0, "fusion_lat": 0.0, "type": "electric_scooter", "name": "76ed9df23a2509541565bdbd91594960", "lat": 38.90266066666667, "bike_id": "76ed9df23a2509541565bdbd91594960"}, {"lon": -77.04489716666667, "rental_uris": {"android": "https://dc.lft.to/lastmile_qr_scan", "ios": "https://dc.lft.to/lastmile_qr_scan"}, "fusion_lon": 0.0, "is_reserved": 0, "is_disabled": 0, "fusion_lat": 0.0, "type": "electric_bike", "name": "03799772f9d8c23efc52339eec7594aa", "lat": 38.89713916666667, "bike_id": "03799772f9d8c23efc52339eec7594aa"}, {"lon": -77.03759333333333, "rental_uris": {"android": "https://dc.lft.to/lastmile_qr_scan", "ios": "https://dc.lft.to/lastmile_qr_scan"}, "fusion_lon": 0.0, "is_reserved": 0, "is_disabled": 0, "fusion_lat": 0.0, "type": "electric_bike", "name": "b671a2fd5fbfc957d8b1afb0b3807080", "lat": 38.906886, "bike_id": "b671a2fd5fbfc957d8b1afb0b3807080"}, {"lon": -77.03967083333333, "rental_uris": {"android": "https://dc.lft.to/lastmile_qr_scan", "ios": "https://dc.lft.to/lastmile_qr_scan"}, "fusion_lon": 0.0, "is_reserved": 0, "is_disabled": 0, "fusion_lat": 0.0, "type": "electric_scooter", "name": "f6886f6154c70121e1b2772ed2a52d64", "lat": 38.901377333333336, "bike_id": "f6886f6154c70121e1b2772ed2a52d64"}, {"lon": -77.01580433333334, "rental_uris": {"android": "https://dc.lft.to/lastmile_qr_scan", "ios": "https://dc.lft.to/lastmile_qr_scan"}, "fusion_lon": 0.0, "is_reserved": 0, "is_disabled": 0, "fusion_lat": 0.0, "type": "electric_scooter", "name": "6bf78f4eb10a9073c67919b10f1d022b", "lat": 38.87662316666667, "bike_id": "6bf78f4eb10a9073c67919b10f1d022b"}, {"lon": -76.99574833333334, "rental_uris": {"android": "https://dc.lft.to/lastmile_qr_scan", "ios": "https://dc.lft.to/lastmile_qr_scan"}, "fusion_lon": 0.0, "is_reserved": 0, "is_disabled": 0, "fusion_lat": 0.0, "type": "electric_scooter", "name": "b5f0358cc9abdfdfc842f2b081c80baf", "lat": 38.8627035, "bike_id": "b5f0358cc9abdfdfc842f2b081c80baf"}, {"lon": -77.076711, "rental_uris": {"android": "https://dc.lft.to/lastmile_qr_scan", "ios": "https://dc.lft.to/lastmile_qr_scan"}, "fusion_lon": 0.0, "is_reserved": 0, "is_disabled": 0, "fusion_lat": 0.0, "type": "electric_bike", "name": "4ac30ab6e48494f4f09316455fe51622", "lat": 38.864908666666665, "bike_id": "4ac30ab6e48494f4f09316455fe51622"}, {"lon": -77.01904533333334, "rental_uris": {"android": "https://dc.lft.to/lastmile_qr_scan", "ios": "https://dc.lft.to/lastmile_qr_scan"}, "fusion_lon": 0.0, "is_reserved": 0, "is_disabled": 0, "fusion_lat": 0.0, "type": "electric_scooter", "name": "df359911fe6b6b61d8b94339fa9b2172", "lat": 38.923345, "bike_id": "df359911fe6b6b61d8b94339fa9b2172"}, {"lon": -77.072764, "rental_uris": {"android": "https://dc.lft.to/lastmile_qr_scan", "ios": "https://dc.lft.to/lastmile_qr_scan"}, "fusion_lon": 0.0, "is_reserved": 0, "is_disabled": 0, "fusion_lat": 0.0, "type": "electric_scooter", "name": "82d48bc220e2d0f524c5a53552d89cbb", "lat": 38.93469983333333, "bike_id": "82d48bc220e2d0f524c5a53552d89cbb"}, {"lon": -77.0897835, "rental_uris": {"android": "https://dc.lft.to/lastmile_qr_scan", "ios": "https://dc.lft.to/lastmile_qr_scan"}, "fusion_lon": 0.0, "is_reserved": 0, "is_disabled": 0, "fusion_lat": 0.0, "type": "electric_scooter", "name": "e8446919b9ab098eeba7ecf44bb1db96", "lat": 38.9370785, "bike_id": "e8446919b9ab098eeba7ecf44bb1db96"}, {"lon": -77.0278575, "rental_uris": {"android": "https://dc.lft.to/lastmile_qr_scan", "ios": "https://dc.lft.to/lastmile_qr_scan"}, "fusion_lon": 0.0, "is_reserved": 0, "is_disabled": 0, "fusion_lat": 0.0, "type": "electric_scooter", "name": "2be42c1bff8e9cda249dfd736b04d277", "lat": 38.898063666666665, "bike_id": "2be42c1bff8e9cda249dfd736b04d277"}, {"lon": -77.12652916666667, "rental_uris": {"android": "https://dc.lft.to/lastmile_qr_scan", "ios": "https://dc.lft.to/lastmile_qr_scan"}, "fusion_lon": 0.0, "is_reserved": 0, "is_disabled": 0, "fusion_lat": 0.0, "type": "electric_bike", "name": "3804ca89b2a84409349611068103a3b2", "lat": 38.81905416666667, "bike_id": "3804ca89b2a84409349611068103a3b2"}, {"lon": -77.02389483333333, "rental_uris": {"android": "https://dc.lft.to/lastmile_qr_scan", "ios": "https://dc.lft.to/lastmile_qr_scan"}, "fusion_lon": 0.0, "is_reserved": 0, "is_disabled": 0, "fusion_lat": 0.0, "type": "electric_scooter", "name": "0f6f87bcd6e624dd18fbb7f2f5eaba63", "lat": 38.91951916666667, "bike_id": "0f6f87bcd6e624dd18fbb7f2f5eaba63"}, {"lon": -76.99854433333333, "rental_uris": {"android": "https://dc.lft.to/lastmile_qr_scan", "ios": "https://dc.lft.to/lastmile_qr_scan"}, "fusion_lon": 0.0, "is_reserved": 0, "is_disabled": 0, "fusion_lat": 0.0, "type": "electric_scooter", "name": "715acaf38997da6cc6f2549ab7eb874d", "lat": 38.89188266666667, "bike_id": "715acaf38997da6cc6f2549ab7eb874d"}, {"lon": -77.03553016666666, "rental_uris": {"android": "https://dc.lft.to/lastmile_qr_scan", "ios": "https://dc.lft.to/lastmile_qr_scan"}, "fusion_lon": 0.0, "is_reserved": 0, "is_disabled": 0, "fusion_lat": 0.0, "type": "electric_scooter", "name": "bd471ad2c92f9b61d2aa47721dc15ca5", "lat": 38.91865333333333, "bike_id": "bd471ad2c92f9b61d2aa47721dc15ca5"}, {"lon": -77.04146283333333, "rental_uris": {"android": "https://dc.lft.to/lastmile_qr_scan", "ios": "https://dc.lft.to/lastmile_qr_scan"}, "fusion_lon": 0.0, "is_reserved": 0, "is_disabled": 0, "fusion_lat": 0.0, "type": "electric_scooter", "name": "a1138bb38d3908150ef498747187ef29", "lat": 38.92333216666667, "bike_id": "a1138bb38d3908150ef498747187ef29"}, {"lon": -77.02930216666667, "rental_uris": {"android": "https://dc.lft.to/lastmile_qr_scan", "ios": "https://dc.lft.to/lastmile_qr_scan"}, "fusion_lon": 0.0, "is_reserved": 0, "is_disabled": 0, "fusion_lat": 0.0, "type": "electric_scooter", "name": "613f7c7fda953f7d518c68e058833ae0", "lat": 38.91672766666667, "bike_id": "613f7c7fda953f7d518c68e058833ae0"}, {"lon": -77.02622683333334, "rental_uris": {"android": "https://dc.lft.to/lastmile_qr_scan", "ios": "https://dc.lft.to/lastmile_qr_scan"}, "fusion_lon": 0.0, "is_reserved": 0, "is_disabled": 0, "fusion_lat": 0.0, "type": "electric_scooter", "name": "ab09136187926d8762c89825c258494f", "lat": 38.89470416666666, "bike_id": "ab09136187926d8762c89825c258494f"}, {"lon": -77.0435805, "rental_uris": {"android": "https://dc.lft.to/lastmile_qr_scan", "ios": "https://dc.lft.to/lastmile_qr_scan"}, "fusion_lon": 0.0, "is_reserved": 0, "is_disabled": 0, "fusion_lat": 0.0, "type": "electric_scooter", "name": "20708dbd647f98ef54f4fcf1f3d4758b", "lat": 38.9037645, "bike_id": "20708dbd647f98ef54f4fcf1f3d4758b"}, {"lon": -77.03827333333334, "rental_uris": {"android": "https://dc.lft.to/lastmile_qr_scan", "ios": "https://dc.lft.to/lastmile_qr_scan"}, "fusion_lon": 0.0, "is_reserved": 0, "is_disabled": 0, "fusion_lat": 0.0, "type": "electric_scooter", "name": "81e7e0abfb00b0140b34b6e61aee6699", "lat": 38.9003035, "bike_id": "81e7e0abfb00b0140b34b6e61aee6699"}, {"lon": -77.06086183333333, "rental_uris": {"android": "https://dc.lft.to/lastmile_qr_scan", "ios": "https://dc.lft.to/lastmile_qr_scan"}, "fusion_lon": 0.0, "is_reserved": 0, "is_disabled": 0, "fusion_lat": 0.0, "type": "electric_scooter", "name": "4c168d4a7ac5ec5fe845b8659c6ddeff", "lat": 38.9022455, "bike_id": "4c168d4a7ac5ec5fe845b8659c6ddeff"}, {"lon": -76.95097866666667, "rental_uris": {"android": "https://dc.lft.to/lastmile_qr_scan", "ios": "https://dc.lft.to/lastmile_qr_scan"}, "fusion_lon": 0.0, "is_reserved": 0, "is_disabled": 0, "fusion_lat": 0.0, "type": "electric_scooter", "name": "0bf49640b56c55af9b6b44c7dce6def9", "lat": 38.88445083333333, "bike_id": "0bf49640b56c55af9b6b44c7dce6def9"}, {"lon": -77.02844266666666, "rental_uris": {"android": "https://dc.lft.to/lastmile_qr_scan", "ios": "https://dc.lft.to/lastmile_qr_scan"}, "fusion_lon": 0.0, "is_reserved": 0, "is_disabled": 0, "fusion_lat": 0.0, "type": "electric_scooter", "name": "b6dea04d920c9ec02ae6734d24aa6cce", "lat": 38.935857666666664, "bike_id": "b6dea04d920c9ec02ae6734d24aa6cce"}, {"lon": -77.03677666666667, "rental_uris": {"android": "https://dc.lft.to/lastmile_qr_scan", "ios": "https://dc.lft.to/lastmile_qr_scan"}, "fusion_lon": 0.0, "is_reserved": 0, "is_disabled": 0, "fusion_lat": 0.0, "type": "electric_scooter", "name": "5629fd7f5ff6017cb7a686592d72263f", "lat": 38.9002765, "bike_id": "5629fd7f5ff6017cb7a686592d72263f"}, {"lon": -77.04747833333333, "rental_uris": {"android": "https://dc.lft.to/lastmile_qr_scan", "ios": "https://dc.lft.to/lastmile_qr_scan"}, "fusion_lon": 0.0, "is_reserved": 0, "is_disabled": 0, "fusion_lat": 0.0, "type": "electric_scooter", "name": "d56d6315c06be38fb2efa1b82f97e85f", "lat": 38.90534483333333, "bike_id": "d56d6315c06be38fb2efa1b82f97e85f"}, {"lon": -77.0103345, "rental_uris": {"android": "https://dc.lft.to/lastmile_qr_scan", "ios": "https://dc.lft.to/lastmile_qr_scan"}, "fusion_lon": 0.0, "is_reserved": 0, "is_disabled": 0, "fusion_lat": 0.0, "type": "electric_scooter", "name": "9cacf45c2836173a638fb7efccdbac92", "lat": 38.89748483333333, "bike_id": "9cacf45c2836173a638fb7efccdbac92"}, {"lon": -77.04998983333333, "rental_uris": {"android": "https://dc.lft.to/lastmile_qr_scan", "ios": "https://dc.lft.to/lastmile_qr_scan"}, "fusion_lon": 0.0, "is_reserved": 0, "is_disabled": 0, "fusion_lat": 0.0, "type": "electric_scooter", "name": "74441d1162cc75830374efb63ca78e1c", "lat": 38.90116866666666, "bike_id": "74441d1162cc75830374efb63ca78e1c"}, {"lon": -77.0318785, "rental_uris": {"android": "https://dc.lft.to/lastmile_qr_scan", "ios": "https://dc.lft.to/lastmile_qr_scan"}, "fusion_lon": 0.0, "is_reserved": 0, "is_disabled": 0, "fusion_lat": 0.0, "type": "electric_scooter", "name": "8c66ebef965ae09b90e753858f482120", "lat": 38.90114283333333, "bike_id": "8c66ebef965ae09b90e753858f482120"}, {"lon": -77.00540283333333, "rental_uris": {"android": "https://dc.lft.to/lastmile_qr_scan", "ios": "https://dc.lft.to/lastmile_qr_scan"}, "fusion_lon": 0.0, "is_reserved": 0, "is_disabled": 0, "fusion_lat": 0.0, "type": "electric_scooter", "name": "37ce6985d2932ed0872a8247eb393fce", "lat": 38.9001955, "bike_id": "37ce6985d2932ed0872a8247eb393fce"}, {"lon": -77.01056466666667, "rental_uris": {"android": "https://dc.lft.to/lastmile_qr_scan", "ios": "https://dc.lft.to/lastmile_qr_scan"}, "fusion_lon": 0.0, "is_reserved": 0, "is_disabled": 0, "fusion_lat": 0.0, "type": "electric_scooter", "name": "fa6521056b2e70b7cd6fe7203f352eeb", "lat": 38.897901833333336, "bike_id": "fa6521056b2e70b7cd6fe7203f352eeb"}, {"lon": -76.95755116666666, "rental_uris": {"android": "https://dc.lft.to/lastmile_qr_scan", "ios": "https://dc.lft.to/lastmile_qr_scan"}, "fusion_lon": 0.0, "is_reserved": 0, "is_disabled": 0, "fusion_lat": 0.0, "type": "electric_scooter", "name": "6b312818eed6ded3ddb4fae7a2a59aaf", "lat": 38.88424883333333, "bike_id": "6b312818eed6ded3ddb4fae7a2a59aaf"}, {"lon": -77.02382433333334, "rental_uris": {"android": "https://dc.lft.to/lastmile_qr_scan", "ios": "https://dc.lft.to/lastmile_qr_scan"}, "fusion_lon": 0.0, "is_reserved": 0, "is_disabled": 0, "fusion_lat": 0.0, "type": "electric_scooter", "name": "9baba38dde6d6e8b4599717975f8ba40", "lat": 38.88733716666667, "bike_id": "9baba38dde6d6e8b4599717975f8ba40"}, {"lon": -77.01257883333334, "rental_uris": {"android": "https://dc.lft.to/lastmile_qr_scan", "ios": "https://dc.lft.to/lastmile_qr_scan"}, "fusion_lon": 0.0, "is_reserved": 0, "is_disabled": 0, "fusion_lat": 0.0, "type": "electric_scooter", "name": "643ccbf784e9403686b28f4c9e95ecdb", "lat": 38.908362833333335, "bike_id": "643ccbf784e9403686b28f4c9e95ecdb"}, {"lon": -77.03839366666666, "rental_uris": {"android": "https://dc.lft.to/lastmile_qr_scan", "ios": "https://dc.lft.to/lastmile_qr_scan"}, "fusion_lon": 0.0, "is_reserved": 0, "is_disabled": 0, "fusion_lat": 0.0, "type": "electric_scooter", "name": "3e2d52c5a76af1941e99c568ea2983fe", "lat": 38.94193666666666, "bike_id": "3e2d52c5a76af1941e99c568ea2983fe"}, {"lon": -77.02162083333333, "rental_uris": {"android": "https://dc.lft.to/lastmile_qr_scan", "ios": "https://dc.lft.to/lastmile_qr_scan"}, "fusion_lon": 0.0, "is_reserved": 0, "is_disabled": 0, "fusion_lat": 0.0, "type": "electric_scooter", "name": "ad947065808caec2c462ba48725214b3", "lat": 38.94288683333333, "bike_id": "ad947065808caec2c462ba48725214b3"}, {"lon": -77.0220765, "rental_uris": {"android": "https://dc.lft.to/lastmile_qr_scan", "ios": "https://dc.lft.to/lastmile_qr_scan"}, "fusion_lon": 0.0, "is_reserved": 0, "is_disabled": 0, "fusion_lat": 0.0, "type": "electric_scooter", "name": "8784962fc9f08ee4bc7e7b5287d45fad", "lat": 38.915382666666666, "bike_id": "8784962fc9f08ee4bc7e7b5287d45fad"}, {"lon": -77.02048, "rental_uris": {"android": "https://dc.lft.to/lastmile_qr_scan", "ios": "https://dc.lft.to/lastmile_qr_scan"}, "fusion_lon": 0.0, "is_reserved": 0, "is_disabled": 0, "fusion_lat": 0.0, "type": "electric_scooter", "name": "413945feb6257fdb48d6af60a7904056", "lat": 38.9190165, "bike_id": "413945feb6257fdb48d6af60a7904056"}, {"lon": -76.983582, "rental_uris": {"android": "https://dc.lft.to/lastmile_qr_scan", "ios": "https://dc.lft.to/lastmile_qr_scan"}, "fusion_lon": 0.0, "is_reserved": 0, "is_disabled": 0, "fusion_lat": 0.0, "type": "electric_scooter", "name": "625b92c3ed5561864abd09e076820121", "lat": 38.88725066666667, "bike_id": "625b92c3ed5561864abd09e076820121"}, {"lon": -77.02938883333333, "rental_uris": {"android": "https://dc.lft.to/lastmile_qr_scan", "ios": "https://dc.lft.to/lastmile_qr_scan"}, "fusion_lon": 0.0, "is_reserved": 0, "is_disabled": 0, "fusion_lat": 0.0, "type": "electric_scooter", "name": "ee95ce1533d00faa0bef11df597af44e", "lat": 38.942776333333335, "bike_id": "ee95ce1533d00faa0bef11df597af44e"}, {"lon": -76.98430316666666, "rental_uris": {"android": "https://dc.lft.to/lastmile_qr_scan", "ios": "https://dc.lft.to/lastmile_qr_scan"}, "fusion_lon": 0.0, "is_reserved": 0, "is_disabled": 0, "fusion_lat": 0.0, "type": "electric_bike", "name": "28c077b02de41d104639b154d2c61d27", "lat": 38.85520366666667, "bike_id": "28c077b02de41d104639b154d2c61d27"}, {"lon": -77.040514, "rental_uris": {"android": "https://dc.lft.to/lastmile_qr_scan", "ios": "https://dc.lft.to/lastmile_qr_scan"}, "fusion_lon": 0.0, "is_reserved": 0, "is_disabled": 0, "fusion_lat": 0.0, "type": "electric_scooter", "name": "189340bff9004a3bd1957f844a7b8cfe", "lat": 38.9087145, "bike_id": "189340bff9004a3bd1957f844a7b8cfe"}, {"lon": -77.06916216666667, "rental_uris": {"android": "https://dc.lft.to/lastmile_qr_scan", "ios": "https://dc.lft.to/lastmile_qr_scan"}, "fusion_lon": 0.0, "is_reserved": 0, "is_disabled": 0, "fusion_lat": 0.0, "type": "electric_bike", "name": "502f9f5980d90d13816711eb1a89b01e", "lat": 38.80667283333333, "bike_id": "502f9f5980d90d13816711eb1a89b01e"}, {"lon": -77.03799583333333, "rental_uris": {"android": "https://dc.lft.to/lastmile_qr_scan", "ios": "https://dc.lft.to/lastmile_qr_scan"}, "fusion_lon": 0.0, "is_reserved": 0, "is_disabled": 0, "fusion_lat": 0.0, "type": "electric_scooter", "name": "aad67e66c1b3df1f1ec9936fe293b8d7", "lat": 38.917998, "bike_id": "aad67e66c1b3df1f1ec9936fe293b8d7"}, {"lon": -77.02179583333333, "rental_uris": {"android": "https://dc.lft.to/lastmile_qr_scan", "ios": "https://dc.lft.to/lastmile_qr_scan"}, "fusion_lon": 0.0, "is_reserved": 0, "is_disabled": 0, "fusion_lat": 0.0, "type": "electric_scooter", "name": "6ad9b58a4d55894fb12bc42ef8f43273", "lat": 38.93943133333333, "bike_id": "6ad9b58a4d55894fb12bc42ef8f43273"}, {"lon": -77.03237283333333, "rental_uris": {"android": "https://dc.lft.to/lastmile_qr_scan", "ios": "https://dc.lft.to/lastmile_qr_scan"}, "fusion_lon": 0.0, "is_reserved": 0, "is_disabled": 0, "fusion_lat": 0.0, "type": "electric_scooter", "name": "5e2cef847d024bf75d29cec9dda313ad", "lat": 38.96149783333333, "bike_id": "5e2cef847d024bf75d29cec9dda313ad"}, {"lon": -77.01030683333333, "rental_uris": {"android": "https://dc.lft.to/lastmile_qr_scan", "ios": "https://dc.lft.to/lastmile_qr_scan"}, "fusion_lon": 0.0, "is_reserved": 0, "is_disabled": 0, "fusion_lat": 0.0, "type": "electric_scooter", "name": "660098612de8472053cfafb72ff2b919", "lat": 38.920327, "bike_id": "660098612de8472053cfafb72ff2b919"}, {"lon": -77.0394385, "rental_uris": {"android": "https://dc.lft.to/lastmile_qr_scan", "ios": "https://dc.lft.to/lastmile_qr_scan"}, "fusion_lon": 0.0, "is_reserved": 0, "is_disabled": 0, "fusion_lat": 0.0, "type": "electric_scooter", "name": "d0b29fd49b838d5124e945a2bf36b9a1", "lat": 38.90133466666666, "bike_id": "d0b29fd49b838d5124e945a2bf36b9a1"}, {"lon": -77.043554, "rental_uris": {"android": "https://dc.lft.to/lastmile_qr_scan", "ios": "https://dc.lft.to/lastmile_qr_scan"}, "fusion_lon": 0.0, "is_reserved": 0, "is_disabled": 0, "fusion_lat": 0.0, "type": "electric_scooter", "name": "61ea1dbfd3cd4f5d2fee98fee53438ea", "lat": 38.90264883333333, "bike_id": "61ea1dbfd3cd4f5d2fee98fee53438ea"}, {"lon": -77.021592, "rental_uris": {"android": "https://dc.lft.to/lastmile_qr_scan", "ios": "https://dc.lft.to/lastmile_qr_scan"}, "fusion_lon": 0.0, "is_reserved": 0, "is_disabled": 0, "fusion_lat": 0.0, "type": "electric_scooter", "name": "53d5b6477f932e589af1624fa3fbca9e", "lat": 38.92608833333333, "bike_id": "53d5b6477f932e589af1624fa3fbca9e"}, {"lon": -76.99059366666667, "rental_uris": {"android": "https://dc.lft.to/lastmile_qr_scan", "ios": "https://dc.lft.to/lastmile_qr_scan"}, "fusion_lon": 0.0, "is_reserved": 0, "is_disabled": 0, "fusion_lat": 0.0, "type": "electric_bike", "name": "0c6ec0b3e92f81d087b2bccdc0d0dc36", "lat": 38.93685416666667, "bike_id": "0c6ec0b3e92f81d087b2bccdc0d0dc36"}, {"lon": -77.01180516666666, "rental_uris": {"android": "https://dc.lft.to/lastmile_qr_scan", "ios": "https://dc.lft.to/lastmile_qr_scan"}, "fusion_lon": 0.0, "is_reserved": 0, "is_disabled": 0, "fusion_lat": 0.0, "type": "electric_scooter", "name": "6bb1541df01a4a657a7b83b7333915ca", "lat": 38.89796233333333, "bike_id": "6bb1541df01a4a657a7b83b7333915ca"}, {"lon": -76.9805215, "rental_uris": {"android": "https://dc.lft.to/lastmile_qr_scan", "ios": "https://dc.lft.to/lastmile_qr_scan"}, "fusion_lon": 0.0, "is_reserved": 0, "is_disabled": 0, "fusion_lat": 0.0, "type": "electric_scooter", "name": "f1fd577b55140939107e9946ab7a16df", "lat": 38.884882833333336, "bike_id": "f1fd577b55140939107e9946ab7a16df"}, {"lon": -77.02242233333334, "rental_uris": {"android": "https://dc.lft.to/lastmile_qr_scan", "ios": "https://dc.lft.to/lastmile_qr_scan"}, "fusion_lon": 0.0, "is_reserved": 0, "is_disabled": 0, "fusion_lat": 0.0, "type": "electric_scooter", "name": "4587d740a3bb91ff93feb0970ae86699", "lat": 38.924664666666665, "bike_id": "4587d740a3bb91ff93feb0970ae86699"}, {"lon": -76.933842, "rental_uris": {"android": "https://dc.lft.to/lastmile_qr_scan", "ios": "https://dc.lft.to/lastmile_qr_scan"}, "fusion_lon": 0.0, "is_reserved": 0, "is_disabled": 0, "fusion_lat": 0.0, "type": "electric_scooter", "name": "9a6c82298738a53d221b85943610fdf5", "lat": 38.89909183333333, "bike_id": "9a6c82298738a53d221b85943610fdf5"}, {"lon": -77.02305083333333, "rental_uris": {"android": "https://dc.lft.to/lastmile_qr_scan", "ios": "https://dc.lft.to/lastmile_qr_scan"}, "fusion_lon": 0.0, "is_reserved": 0, "is_disabled": 0, "fusion_lat": 0.0, "type": "electric_scooter", "name": "012ae2dbbfdef7f1457ba0234b3e6d0a", "lat": 38.9178305, "bike_id": "012ae2dbbfdef7f1457ba0234b3e6d0a"}, {"lon": -77.04364983333333, "rental_uris": {"android": "https://dc.lft.to/lastmile_qr_scan", "ios": "https://dc.lft.to/lastmile_qr_scan"}, "fusion_lon": 0.0, "is_reserved": 0, "is_disabled": 0, "fusion_lat": 0.0, "type": "electric_scooter", "name": "74a09ebf924be0fb7c556bcfa339dc50", "lat": 38.90607683333333, "bike_id": "74a09ebf924be0fb7c556bcfa339dc50"}, {"lon": -77.07169366666666, "rental_uris": {"android": "https://dc.lft.to/lastmile_qr_scan", "ios": "https://dc.lft.to/lastmile_qr_scan"}, "fusion_lon": 0.0, "is_reserved": 0, "is_disabled": 0, "fusion_lat": 0.0, "type": "electric_scooter", "name": "47caa750b40a1cf0456396b2aa878090", "lat": 38.907731166666665, "bike_id": "47caa750b40a1cf0456396b2aa878090"}, {"lon": -77.01141933333334, "rental_uris": {"android": "https://dc.lft.to/lastmile_qr_scan", "ios": "https://dc.lft.to/lastmile_qr_scan"}, "fusion_lon": 0.0, "is_reserved": 0, "is_disabled": 0, "fusion_lat": 0.0, "type": "electric_scooter", "name": "e503d3d5bff483f9b113d3b4009cee5c", "lat": 38.906338166666664, "bike_id": "e503d3d5bff483f9b113d3b4009cee5c"}, {"lon": -77.03331866666667, "rental_uris": {"android": "https://dc.lft.to/lastmile_qr_scan", "ios": "https://dc.lft.to/lastmile_qr_scan"}, "fusion_lon": 0.0, "is_reserved": 0, "is_disabled": 0, "fusion_lat": 0.0, "type": "electric_bike", "name": "c61b7d63687eb24994156508d0f73487", "lat": 38.97201666666667, "bike_id": "c61b7d63687eb24994156508d0f73487"}, {"lon": -77.00336066666667, "rental_uris": {"android": "https://dc.lft.to/lastmile_qr_scan", "ios": "https://dc.lft.to/lastmile_qr_scan"}, "fusion_lon": 0.0, "is_reserved": 0, "is_disabled": 0, "fusion_lat": 0.0, "type": "electric_scooter", "name": "f192756b1407698ce62b17cbbd57879d", "lat": 38.89933533333333, "bike_id": "f192756b1407698ce62b17cbbd57879d"}, {"lon": -76.96254883333333, "rental_uris": {"android": "https://dc.lft.to/lastmile_qr_scan", "ios": "https://dc.lft.to/lastmile_qr_scan"}, "fusion_lon": 0.0, "is_reserved": 0, "is_disabled": 0, "fusion_lat": 0.0, "type": "electric_bike", "name": "505814a1b66b59d40c02d756b3a5362c", "lat": 38.882394166666664, "bike_id": "505814a1b66b59d40c02d756b3a5362c"}, {"lon": -77.08176316666666, "rental_uris": {"android": "https://dc.lft.to/lastmile_qr_scan", "ios": "https://dc.lft.to/lastmile_qr_scan"}, "fusion_lon": 0.0, "is_reserved": 0, "is_disabled": 0, "fusion_lat": 0.0, "type": "electric_bike", "name": "88ecdffba9cbc0b95e76b2f64ee0460e", "lat": 38.888679, "bike_id": "88ecdffba9cbc0b95e76b2f64ee0460e"}, {"lon": -76.99760633333334, "rental_uris": {"android": "https://dc.lft.to/lastmile_qr_scan", "ios": "https://dc.lft.to/lastmile_qr_scan"}, "fusion_lon": 0.0, "is_reserved": 0, "is_disabled": 0, "fusion_lat": 0.0, "type": "electric_scooter", "name": "67b74e195c0ac45e0929b7e6c99847cf", "lat": 38.92695, "bike_id": "67b74e195c0ac45e0929b7e6c99847cf"}, {"lon": -77.0284575, "rental_uris": {"android": "https://dc.lft.to/lastmile_qr_scan", "ios": "https://dc.lft.to/lastmile_qr_scan"}, "fusion_lon": 0.0, "is_reserved": 0, "is_disabled": 0, "fusion_lat": 0.0, "type": "electric_scooter", "name": "27bbdf7fddcaaf5dd2b7da47bb0e8472", "lat": 38.935833, "bike_id": "27bbdf7fddcaaf5dd2b7da47bb0e8472"}, {"lon": -77.033464, "rental_uris": {"android": "https://dc.lft.to/lastmile_qr_scan", "ios": "https://dc.lft.to/lastmile_qr_scan"}, "fusion_lon": 0.0, "is_reserved": 0, "is_disabled": 0, "fusion_lat": 0.0, "type": "electric_scooter", "name": "a7da7c8e2ea7f9e78c19781148323c65", "lat": 38.927434833333336, "bike_id": "a7da7c8e2ea7f9e78c19781148323c65"}, {"lon": -77.019935, "rental_uris": {"android": "https://dc.lft.to/lastmile_qr_scan", "ios": "https://dc.lft.to/lastmile_qr_scan"}, "fusion_lon": 0.0, "is_reserved": 0, "is_disabled": 0, "fusion_lat": 0.0, "type": "electric_scooter", "name": "cc2772646b1f2bb8c02c8fee280bda25", "lat": 38.910454666666666, "bike_id": "cc2772646b1f2bb8c02c8fee280bda25"}, {"lon": -77.02591866666667, "rental_uris": {"android": "https://dc.lft.to/lastmile_qr_scan", "ios": "https://dc.lft.to/lastmile_qr_scan"}, "fusion_lon": 0.0, "is_reserved": 0, "is_disabled": 0, "fusion_lat": 0.0, "type": "electric_scooter", "name": "6a3690ddcd949138ef38cff1ec421a2a", "lat": 38.9419875, "bike_id": "6a3690ddcd949138ef38cff1ec421a2a"}, {"lon": -77.07300116666667, "rental_uris": {"android": "https://dc.lft.to/lastmile_qr_scan", "ios": "https://dc.lft.to/lastmile_qr_scan"}, "fusion_lon": 0.0, "is_reserved": 0, "is_disabled": 0, "fusion_lat": 0.0, "type": "electric_bike", "name": "3189bae133e707bb714381d58e7bdc13", "lat": 38.93545366666667, "bike_id": "3189bae133e707bb714381d58e7bdc13"}, {"lon": -77.051786, "rental_uris": {"android": "https://dc.lft.to/lastmile_qr_scan", "ios": "https://dc.lft.to/lastmile_qr_scan"}, "fusion_lon": 0.0, "is_reserved": 0, "is_disabled": 0, "fusion_lat": 0.0, "type": "electric_scooter", "name": "87f64399cb38541e59b0c96e8b57262d", "lat": 38.9242235, "bike_id": "87f64399cb38541e59b0c96e8b57262d"}, {"lon": -77.04489633333333, "rental_uris": {"android": "https://dc.lft.to/lastmile_qr_scan", "ios": "https://dc.lft.to/lastmile_qr_scan"}, "fusion_lon": 0.0, "is_reserved": 0, "is_disabled": 0, "fusion_lat": 0.0, "type": "electric_scooter", "name": "b4a0a797974d4fa034cbf329fbd98375", "lat": 38.90373666666667, "bike_id": "b4a0a797974d4fa034cbf329fbd98375"}, {"lon": -77.23955583333333, "rental_uris": {"android": "https://dc.lft.to/lastmile_qr_scan", "ios": "https://dc.lft.to/lastmile_qr_scan"}, "fusion_lon": 0.0, "is_reserved": 0, "is_disabled": 0, "fusion_lat": 0.0, "type": "electric_bike", "name": "f9c056f77345a5b26d2cadb8a8d57c5e", "lat": 38.924717, "bike_id": "f9c056f77345a5b26d2cadb8a8d57c5e"}, {"lon": -77.030559, "rental_uris": {"android": "https://dc.lft.to/lastmile_qr_scan", "ios": "https://dc.lft.to/lastmile_qr_scan"}, "fusion_lon": 0.0, "is_reserved": 0, "is_disabled": 0, "fusion_lat": 0.0, "type": "electric_scooter", "name": "885227b36166ba009d9e35a2dff3f2bb", "lat": 38.919155833333335, "bike_id": "885227b36166ba009d9e35a2dff3f2bb"}, {"lon": -77.027321, "rental_uris": {"android": "https://dc.lft.to/lastmile_qr_scan", "ios": "https://dc.lft.to/lastmile_qr_scan"}, "fusion_lon": 0.0, "is_reserved": 0, "is_disabled": 0, "fusion_lat": 0.0, "type": "electric_scooter", "name": "652e4eb1fdf5868826b0c3e7ba0bd2fd", "lat": 38.897974, "bike_id": "652e4eb1fdf5868826b0c3e7ba0bd2fd"}, {"lon": -77.032891, "rental_uris": {"android": "https://dc.lft.to/lastmile_qr_scan", "ios": "https://dc.lft.to/lastmile_qr_scan"}, "fusion_lon": 0.0, "is_reserved": 0, "is_disabled": 0, "fusion_lat": 0.0, "type": "electric_bike", "name": "7c819544d62f268f6194179c7f07e1f4", "lat": 38.95646516666667, "bike_id": "7c819544d62f268f6194179c7f07e1f4"}, {"lon": -77.07345116666667, "rental_uris": {"android": "https://dc.lft.to/lastmile_qr_scan", "ios": "https://dc.lft.to/lastmile_qr_scan"}, "fusion_lon": 0.0, "is_reserved": 0, "is_disabled": 0, "fusion_lat": 0.0, "type": "electric_scooter", "name": "3e4d1a3c562af6c8db4ad16ee03efc32", "lat": 38.922483166666666, "bike_id": "3e4d1a3c562af6c8db4ad16ee03efc32"}, {"lon": -77.02775616666666, "rental_uris": {"android": "https://dc.lft.to/lastmile_qr_scan", "ios": "https://dc.lft.to/lastmile_qr_scan"}, "fusion_lon": 0.0, "is_reserved": 0, "is_disabled": 0, "fusion_lat": 0.0, "type": "electric_scooter", "name": "ec0520618f5198f79f33c6452429bc7c", "lat": 38.91707683333333, "bike_id": "ec0520618f5198f79f33c6452429bc7c"}, {"lon": -77.041461, "rental_uris": {"android": "https://dc.lft.to/lastmile_qr_scan", "ios": "https://dc.lft.to/lastmile_qr_scan"}, "fusion_lon": 0.0, "is_reserved": 0, "is_disabled": 0, "fusion_lat": 0.0, "type": "electric_scooter", "name": "78be62c649128c581517c5d0a7055959", "lat": 38.91704433333334, "bike_id": "78be62c649128c581517c5d0a7055959"}, {"lon": -77.0074505, "rental_uris": {"android": "https://dc.lft.to/lastmile_qr_scan", "ios": "https://dc.lft.to/lastmile_qr_scan"}, "fusion_lon": 0.0, "is_reserved": 0, "is_disabled": 0, "fusion_lat": 0.0, "type": "electric_bike", "name": "59d00b4a93de13a9c82dc171dc9df2b4", "lat": 38.898161333333334, "bike_id": "59d00b4a93de13a9c82dc171dc9df2b4"}, {"lon": -76.99412683333334, "rental_uris": {"android": "https://dc.lft.to/lastmile_qr_scan", "ios": "https://dc.lft.to/lastmile_qr_scan"}, "fusion_lon": 0.0, "is_reserved": 0, "is_disabled": 0, "fusion_lat": 0.0, "type": "electric_scooter", "name": "9ac9fff507bcbabf595bf930c103e2c0", "lat": 38.87780733333334, "bike_id": "9ac9fff507bcbabf595bf930c103e2c0"}, {"lon": -77.03234783333333, "rental_uris": {"android": "https://dc.lft.to/lastmile_qr_scan", "ios": "https://dc.lft.to/lastmile_qr_scan"}, "fusion_lon": 0.0, "is_reserved": 0, "is_disabled": 0, "fusion_lat": 0.0, "type": "electric_scooter", "name": "daeb15ccac6c9634f5fb672af6a4e760", "lat": 38.917007, "bike_id": "daeb15ccac6c9634f5fb672af6a4e760"}, {"lon": -77.02412416666667, "rental_uris": {"android": "https://dc.lft.to/lastmile_qr_scan", "ios": "https://dc.lft.to/lastmile_qr_scan"}, "fusion_lon": 0.0, "is_reserved": 0, "is_disabled": 0, "fusion_lat": 0.0, "type": "electric_scooter", "name": "9b4f0388a42b7bbc0034fd92025c0963", "lat": 38.9004725, "bike_id": "9b4f0388a42b7bbc0034fd92025c0963"}, {"lon": -77.03936766666666, "rental_uris": {"android": "https://dc.lft.to/lastmile_qr_scan", "ios": "https://dc.lft.to/lastmile_qr_scan"}, "fusion_lon": 0.0, "is_reserved": 0, "is_disabled": 0, "fusion_lat": 0.0, "type": "electric_scooter", "name": "64bede58052cc2738443f01cdbe91cca", "lat": 38.91596833333333, "bike_id": "64bede58052cc2738443f01cdbe91cca"}, {"lon": -76.99839883333334, "rental_uris": {"android": "https://dc.lft.to/lastmile_qr_scan", "ios": "https://dc.lft.to/lastmile_qr_scan"}, "fusion_lon": 0.0, "is_reserved": 0, "is_disabled": 0, "fusion_lat": 0.0, "type": "electric_scooter", "name": "725205c983e445f9985b18d6749dcb44", "lat": 38.953692, "bike_id": "725205c983e445f9985b18d6749dcb44"}, {"lon": -77.00605316666666, "rental_uris": {"android": "https://dc.lft.to/lastmile_qr_scan", "ios": "https://dc.lft.to/lastmile_qr_scan"}, "fusion_lon": 0.0, "is_reserved": 0, "is_disabled": 0, "fusion_lat": 0.0, "type": "electric_scooter", "name": "34affe8d7356c5f2864edd5ecb13d092", "lat": 38.91110416666667, "bike_id": "34affe8d7356c5f2864edd5ecb13d092"}, {"lon": -77.01949266666666, "rental_uris": {"android": "https://dc.lft.to/lastmile_qr_scan", "ios": "https://dc.lft.to/lastmile_qr_scan"}, "fusion_lon": 0.0, "is_reserved": 0, "is_disabled": 0, "fusion_lat": 0.0, "type": "electric_scooter", "name": "5117cffde4f70baabd38360850f47fa0", "lat": 38.92243666666667, "bike_id": "5117cffde4f70baabd38360850f47fa0"}, {"lon": -77.01822583333333, "rental_uris": {"android": "https://dc.lft.to/lastmile_qr_scan", "ios": "https://dc.lft.to/lastmile_qr_scan"}, "fusion_lon": 0.0, "is_reserved": 0, "is_disabled": 0, "fusion_lat": 0.0, "type": "electric_scooter", "name": "4a0a6cec6f8d1dc08b89d6693cf559a3", "lat": 38.921313, "bike_id": "4a0a6cec6f8d1dc08b89d6693cf559a3"}, {"lon": -77.0092115, "rental_uris": {"android": "https://dc.lft.to/lastmile_qr_scan", "ios": "https://dc.lft.to/lastmile_qr_scan"}, "fusion_lon": 0.0, "is_reserved": 0, "is_disabled": 0, "fusion_lat": 0.0, "type": "electric_scooter", "name": "63908bbd2069c4f2fef66c30971a5bdb", "lat": 38.89790133333333, "bike_id": "63908bbd2069c4f2fef66c30971a5bdb"}, {"lon": -77.03458, "rental_uris": {"android": "https://dc.lft.to/lastmile_qr_scan", "ios": "https://dc.lft.to/lastmile_qr_scan"}, "fusion_lon": 0.0, "is_reserved": 0, "is_disabled": 0, "fusion_lat": 0.0, "type": "electric_scooter", "name": "ea3c356d0d9cab001335335d5f7c12e0", "lat": 38.902378166666665, "bike_id": "ea3c356d0d9cab001335335d5f7c12e0"}, {"lon": -77.02051633333333, "rental_uris": {"android": "https://dc.lft.to/lastmile_qr_scan", "ios": "https://dc.lft.to/lastmile_qr_scan"}, "fusion_lon": 0.0, "is_reserved": 0, "is_disabled": 0, "fusion_lat": 0.0, "type": "electric_scooter", "name": "3a09280f30fefb90cd88709662a71b86", "lat": 38.91362183333333, "bike_id": "3a09280f30fefb90cd88709662a71b86"}, {"lon": -77.0383495, "rental_uris": {"android": "https://dc.lft.to/lastmile_qr_scan", "ios": "https://dc.lft.to/lastmile_qr_scan"}, "fusion_lon": 0.0, "is_reserved": 0, "is_disabled": 0, "fusion_lat": 0.0, "type": "electric_scooter", "name": "dc33a751c2922197f7e8799d6e7954cf", "lat": 38.90327466666667, "bike_id": "dc33a751c2922197f7e8799d6e7954cf"}, {"lon": -77.04074566666667, "rental_uris": {"android": "https://dc.lft.to/lastmile_qr_scan", "ios": "https://dc.lft.to/lastmile_qr_scan"}, "fusion_lon": 0.0, "is_reserved": 0, "is_disabled": 0, "fusion_lat": 0.0, "type": "electric_scooter", "name": "a639018833ce4302773906a222d5a0f1", "lat": 38.898439833333335, "bike_id": "a639018833ce4302773906a222d5a0f1"}, {"lon": -77.035667, "rental_uris": {"android": "https://dc.lft.to/lastmile_qr_scan", "ios": "https://dc.lft.to/lastmile_qr_scan"}, "fusion_lon": 0.0, "is_reserved": 0, "is_disabled": 0, "fusion_lat": 0.0, "type": "electric_bike", "name": "a7b1c78cf99293eb0ef040ebdd332b4b", "lat": 38.964673, "bike_id": "a7b1c78cf99293eb0ef040ebdd332b4b"}, {"lon": -76.9907915, "rental_uris": {"android": "https://dc.lft.to/lastmile_qr_scan", "ios": "https://dc.lft.to/lastmile_qr_scan"}, "fusion_lon": 0.0, "is_reserved": 0, "is_disabled": 0, "fusion_lat": 0.0, "type": "electric_bike", "name": "42d450deedc14308b00e0fef285e1002", "lat": 38.89810966666667, "bike_id": "42d450deedc14308b00e0fef285e1002"}, {"lon": -77.03869533333334, "rental_uris": {"android": "https://dc.lft.to/lastmile_qr_scan", "ios": "https://dc.lft.to/lastmile_qr_scan"}, "fusion_lon": 0.0, "is_reserved": 0, "is_disabled": 0, "fusion_lat": 0.0, "type": "electric_scooter", "name": "30373cfc3c0eab545e8e83837208f6aa", "lat": 38.9254525, "bike_id": "30373cfc3c0eab545e8e83837208f6aa"}, {"lon": -77.03512866666667, "rental_uris": {"android": "https://dc.lft.to/lastmile_qr_scan", "ios": "https://dc.lft.to/lastmile_qr_scan"}, "fusion_lon": 0.0, "is_reserved": 0, "is_disabled": 0, "fusion_lat": 0.0, "type": "electric_scooter", "name": "f82be57480a753b9d5b7e753df9ebc51", "lat": 38.92638766666666, "bike_id": "f82be57480a753b9d5b7e753df9ebc51"}, {"lon": -77.02644933333333, "rental_uris": {"android": "https://dc.lft.to/lastmile_qr_scan", "ios": "https://dc.lft.to/lastmile_qr_scan"},