{"data": {"bikes": [{"type": "electric_scooter", "fusion_lon": 0.0, "name": "820af503df8d45f91d6b5569748a2c44", "lon": -76.9904145, "fusion_lat": 0.0, "is_disabled": 0, "is_reserved": 0, "rental_uris": {"ios": "https://dc.lft.to/lastmile_qr_scan", "android": "https://dc.lft.to/lastmile_qr_scan"}, "bike_id": "820af503df8d45f91d6b5569748a2c44", "lat": 38.8974335}, {"type": "electric_scooter", "fusion_lon": 0.0, "name": "fab869ec6e45e8865472c0ad81536709", "lon": -77.04178633333333, "fusion_lat": 0.0, "is_disabled": 0, "is_reserved": 0, "rental_uris": {"ios": "https://dc.lft.to/lastmile_qr_scan", "android": "https://dc.lft.to/lastmile_qr_scan"}, "bike_id": "fab869ec6e45e8865472c0ad81536709", "lat": 38.909963166666664}, {"type": "electric_scooter", "fusion_lon": 0.0, "name": "cc62665aaffd7844da4ae8bc7eee8295", "lon": -77.0433445, "fusion_lat": 0.0, "is_disabled": 0, "is_reserved": 0, "rental_uris": {"ios": "https://dc.lft.to/lastmile_qr_scan", "android": "https://dc.lft.to/lastmile_qr_scan"}, "bike_id": "cc62665aaffd7844da4ae8bc7eee8295", "lat": 38.908872833333334}, {"type": "electric_scooter", "fusion_lon": 0.0, "name": "8303e34472b7ae6f4faeb52307443abe", "lon": -77.0364685, "fusion_lat": 0.0, "is_disabled": 0, "is_reserved": 0, "rental_uris": {"ios": "https://dc.lft.to/lastmile_qr_scan", "android": "https://dc.lft.to/lastmile_qr_scan"}, "bike_id": "8303e34472b7ae6f4faeb52307443abe", "lat": 38.908403666666665}, {"type": "electric_scooter", "fusion_lon": 0.0, "name": "8548077b7e2f6d53fc0dfd429608a7ab", "lon": -77.05009383333334, "fusion_lat": 0.0, "is_disabled": 0, "is_reserved": 0, "rental_uris": {"ios": "https://dc.lft.to/lastmile_qr_scan", "android": "https://dc.lft.to/lastmile_qr_scan"}, "bike_id": "8548077b7e2f6d53fc0dfd429608a7ab", "lat": 38.904516}, {"type": "electric_scooter", "fusion_lon": 0.0, "name": "6495c4489919e6b01c5cafb8a6b7076c", "lon": -77.02152516666666, "fusion_lat": 0.0, "is_disabled": 0, "is_reserved": 0, "rental_uris": {"ios": "https://dc.lft.to/lastmile_qr_scan", "android": "https://dc.lft.to/lastmile_qr_scan"}, "bike_id": "6495c4489919e6b01c5cafb8a6b7076c", "lat": 38.9200405}, {"type": "electric_scooter", "fusion_lon": 0.0, "name": "4d659b9e214b2d0f5190241924a6c9ab", "lon": -77.0201735, "fusion_lat": 0.0, "is_disabled": 0, "is_reserved": 0, "rental_uris": {"ios": "https://dc.lft.to/lastmile_qr_scan", "android": "https://dc.lft.to/lastmile_qr_scan"}, "bike_id": "4d659b9e214b2d0f5190241924a6c9ab", "lat": 38.9244755}, {"type": "electric_scooter", "fusion_lon": 0.0, "name": "a20abf9823b50e016b1b73057ca6d700", "lon": -77.01564766666667, "fusion_lat": 0.0, "is_disabled": 0, "is_reserved": 0, "rental_uris": {"ios": "https://dc.lft.to/lastmile_qr_scan", "android": "https://dc.lft.to/lastmile_qr_scan"}, "bike_id": "a20abf9823b50e016b1b73057ca6d700", "lat": 38.891801666666666}, {"type": "electric_scooter", "fusion_lon": 0.0, "name": "95c9571df47e014e6e02591b1de0e234", "lon": -77.0371015, "fusion_lat": 0.0, "is_disabled": 0, "is_reserved": 0, "rental_uris": {"ios": "https://dc.lft.to/lastmile_qr_scan", "android": "https://dc.lft.to/lastmile_qr_scan"}, "bike_id": "95c9571df47e014e6e02591b1de0e234", "lat": 38.903596666666665}, {"type": "electric_scooter", "fusion_lon": 0.0, "name": "1c57b464c03980256a85d9d9f24ed651", "lon": -77.03988866666667, "fusion_lat": 0.0, "is_disabled": 0, "is_reserved": 0, "rental_uris": {"ios": "https://dc.lft.to/lastmile_qr_scan", "android": "https://dc.lft.to/lastmile_qr_scan"}, "bike_id": "1c57b464c03980256a85d9d9f24ed651", "lat": 38.9082925}, {"type": "electric_scooter", "fusion_lon": 0.0, "name": "07751a4bb4015efb7a79bea9c19f8273", "lon": -77.0156025, "fusion_lat": 0.0, "is_disabled": 0, "is_reserved": 0, "rental_uris": {"ios": "https://dc.lft.to/lastmile_qr_scan", "android": "https://dc.lft.to/lastmile_qr_scan"}, "bike_id": "07751a4bb4015efb7a79bea9c19f8273", "lat": 38.891779166666666}, {"type": "electric_scooter", "fusion_lon": 0.0, "name": "cc7dea3044efd201a8627a79a7f7183b", "lon": -76.93241, "fusion_lat": 0.0, "is_disabled": 0, "is_reserved": 0, "rental_uris": {"ios": "https://dc.lft.to/lastmile_qr_scan", "android": "https://dc.lft.to/lastmile_qr_scan"}, "bike_id": "cc7dea3044efd201a8627a79a7f7183b", "lat": 38.89878266666667}, {"type": "electric_scooter", "fusion_lon": 0.0, "name": "042f9f2a8a0f3f1e3cedc783d9b7c8e0", "lon": -77.03191166666667, "fusion_lat": 0.0, "is_disabled": 0, "is_reserved": 0, "rental_uris": {"ios": "https://dc.lft.to/lastmile_qr_scan", "android": "https://dc.lft.to/lastmile_qr_scan"}, "bike_id": "042f9f2a8a0f3f1e3cedc783d9b7c8e0", "lat": 38.900629333333335}, {"type": "electric_scooter", "fusion_lon": 0.0, "name": "068fe30ffe51a403ea0aef5017c94dd2", "lon": -77.02976533333333, "fusion_lat": 0.0, "is_disabled": 0, "is_reserved": 0, "rental_uris": {"ios": "https://dc.lft.to/lastmile_qr_scan", "android": "https://dc.lft.to/lastmile_qr_scan"}, "bike_id": "068fe30ffe51a403ea0aef5017c94dd2", "lat": 38.9404665}, {"type": "electric_scooter", "fusion_lon": 0.0, "name": "06cae1239dc232d52e8ebf008e613ea9", "lon": -76.99961916666666, "fusion_lat": 0.0, "is_disabled": 0, "is_reserved": 0, "rental_uris": {"ios": "https://dc.lft.to/lastmile_qr_scan", "android": "https://dc.lft.to/lastmile_qr_scan"}, "bike_id": "06cae1239dc232d52e8ebf008e613ea9", "lat": 38.89302466666667}, {"type": "electric_scooter", "fusion_lon": 0.0, "name": "37c771471e1fb9421e797fe33561607d", "lon": -76.92602966666666, "fusion_lat": 0.0, "is_disabled": 0, "is_reserved": 0, "rental_uris": {"ios": "https://dc.lft.to/lastmile_qr_scan", "android": "https://dc.lft.to/lastmile_qr_scan"}, "bike_id": "37c771471e1fb9421e797fe33561607d", "lat": 38.8983345}, {"type": "electric_scooter", "fusion_lon": 0.0, "name": "3c6e73b1f6a5dd8974157747c7d9d35f", "lon": -77.0415345, "fusion_lat": 0.0, "is_disabled": 0, "is_reserved": 0, "rental_uris": {"ios": "https://dc.lft.to/lastmile_qr_scan", "android": "https://dc.lft.to/lastmile_qr_scan"}, "bike_id": "3c6e73b1f6a5dd8974157747c7d9d35f", "lat": 38.91956883333334}, {"type": "electric_scooter", "fusion_lon": 0.0, "name": "581d381f7e6b6044b2f58b99a7db2dcd", "lon": -77.00457183333333, "fusion_lat": 0.0, "is_disabled": 0, "is_reserved": 0, "rental_uris": {"ios": "https://dc.lft.to/lastmile_qr_scan", "android": "https://dc.lft.to/lastmile_qr_scan"}, "bike_id": "581d381f7e6b6044b2f58b99a7db2dcd", "lat": 38.90907883333333}, {"type": "electric_scooter", "fusion_lon": 0.0, "name": "20c4f649b405f8e70629b31fed27431e", "lon": -77.0375275, "fusion_lat": 0.0, "is_disabled": 0, "is_reserved": 0, "rental_uris": {"ios": "https://dc.lft.to/lastmile_qr_scan", "android": "https://dc.lft.to/lastmile_qr_scan"}, "bike_id": "20c4f649b405f8e70629b31fed27431e", "lat": 38.9169015}, {"type": "electric_scooter", "fusion_lon": 0.0, "name": "433405ab8b92fdfad12a310d76afc5a6", "lon": -77.00584533333334, "fusion_lat": 0.0, "is_disabled": 0, "is_reserved": 0, "rental_uris": {"ios": "https://dc.lft.to/lastmile_qr_scan", "android": "https://dc.lft.to/lastmile_qr_scan"}, "bike_id": "433405ab8b92fdfad12a310d76afc5a6", "lat": 38.907025}, {"type": "electric_scooter", "fusion_lon": 0.0, "name": "015f0758108cc1fe1dbfa94c8ab5829e", "lon": -77.04014566666666, "fusion_lat": 0.0, "is_disabled": 0, "is_reserved": 0, "rental_uris": {"ios": "https://dc.lft.to/lastmile_qr_scan", "android": "https://dc.lft.to/lastmile_qr_scan"}, "bike_id": "015f0758108cc1fe1dbfa94c8ab5829e", "lat": 38.922415}, {"type": "electric_scooter", "fusion_lon": 0.0, "name": "c062ff3ad02ee29cb320e358bf41b8e1", "lon": -77.03511433333334, "fusion_lat": 0.0, "is_disabled": 0, "is_reserved": 0, "rental_uris": {"ios": "https://dc.lft.to/lastmile_qr_scan", "android": "https://dc.lft.to/lastmile_qr_scan"}, "bike_id": "c062ff3ad02ee29cb320e358bf41b8e1", "lat": 38.92155916666667}, {"type": "electric_scooter", "fusion_lon": 0.0, "name": "cab9c5157f8a03be2ff2e630300993b0", "lon": -77.00086733333333, "fusion_lat": 0.0, "is_disabled": 0, "is_reserved": 0, "rental_uris": {"ios": "https://dc.lft.to/lastmile_qr_scan", "android": "https://dc.lft.to/lastmile_qr_scan"}, "bike_id": "cab9c5157f8a03be2ff2e630300993b0", "lat": 38.921339833333334}, {"type": "electric_scooter", "fusion_lon": 0.0, "name": "535e02937df2b4da7f6ebd7f2b196339", "lon": -77.03622916666667, "fusion_lat": 0.0, "is_disabled": 0, "is_reserved": 0, "rental_uris": {"ios": "https://dc.lft.to/lastmile_qr_scan", "android": "https://dc.lft.to/lastmile_qr_scan"}, "bike_id": "535e02937df2b4da7f6ebd7f2b196339", "lat": 38.912668333333336}, {"type": "electric_scooter", "fusion_lon": 0.0, "name": "0a23c724dcfe643ef7929db133951b7e", "lon": -77.0480395, "fusion_lat": 0.0, "is_disabled": 0, "is_reserved": 0, "rental_uris": {"ios": "https://dc.lft.to/lastmile_qr_scan", "android": "https://dc.lft.to/lastmile_qr_scan"}, "bike_id": "0a23c724dcfe643ef7929db133951b7e", "lat": 38.909717666666666}, {"type": "electric_scooter", "fusion_lon": 0.0, "name": "2ccfff25bc73633eb83b56cc6f570dcc", "lon": -77.01859133333333, "fusion_lat": 0.0, "is_disabled": 0, "is_reserved": 0, "rental_uris": {"ios": "https://dc.lft.to/lastmile_qr_scan", "android": "https://dc.lft.to/lastmile_qr_scan"}, "bike_id": "2ccfff25bc73633eb83b56cc6f570dcc", "lat": 38.932018666666664}, {"type": "electric_scooter", "fusion_lon": 0.0, "name": "dc31077afbd0ec24ff13a0b358f33e05", "lon": -77.03630066666666, "fusion_lat": 0.0, "is_disabled": 0, "is_reserved": 0, "rental_uris": {"ios": "https://dc.lft.to/lastmile_qr_scan", "android": "https://dc.lft.to/lastmile_qr_scan"}, "bike_id": "dc31077afbd0ec24ff13a0b358f33e05", "lat": 38.956373666666664}, {"type": "electric_bike", "fusion_lon": 0.0, "name": "e9ba24b75e732a8cc25cded53a5fda7d", "lon": -76.95478083333333, "fusion_lat": 0.0, "is_disabled": 0, "is_reserved": 0, "rental_uris": {"ios": "https://dc.lft.to/lastmile_qr_scan", "android": "https://dc.lft.to/lastmile_qr_scan"}, "bike_id": "e9ba24b75e732a8cc25cded53a5fda7d", "lat": 38.8907865}, {"type": "electric_scooter", "fusion_lon": 0.0, "name": "d9651dca52d9cc7f11b18bb555de1351", "lon": -77.04251233333333, "fusion_lat": 0.0, "is_disabled": 0, "is_reserved": 0, "rental_uris": {"ios": "https://dc.lft.to/lastmile_qr_scan", "android": "https://dc.lft.to/lastmile_qr_scan"}, "bike_id": "d9651dca52d9cc7f11b18bb555de1351", "lat": 38.92240416666667}, {"type": "electric_scooter", "fusion_lon": 0.0, "name": "a092e7837fcb59f4a68ca4065d9db67d", "lon": -77.02606316666666, "fusion_lat": 0.0, "is_disabled": 0, "is_reserved": 0, "rental_uris": {"ios": "https://dc.lft.to/lastmile_qr_scan", "android": "https://dc.lft.to/lastmile_qr_scan"}, "bike_id": "a092e7837fcb59f4a68ca4065d9db67d", "lat": 38.88356433333333}, {"type": "electric_scooter", "fusion_lon": 0.0, "name": "ebfdeda5b5f54ee54f37df140179dc80", "lon": -77.03402533333333, "fusion_lat": 0.0, "is_disabled": 0, "is_reserved": 0, "rental_uris": {"ios": "https://dc.lft.to/lastmile_qr_scan", "android": "https://dc.lft.to/lastmile_qr_scan"}, "bike_id": "ebfdeda5b5f54ee54f37df140179dc80", "lat": 38.90197166666667}, {"type": "electric_bike", "fusion_lon": 0.0, "name": "f42e82b20bb44ee1369c4cce9e242a57", "lon": -77.13332633333333, "fusion_lat": 0.0, "is_disabled": 0, "is_reserved": 0, "rental_uris": {"ios": "https://dc.lft.to/lastmile_qr_scan", "android": "https://dc.lft.to/lastmile_qr_scan"}, "bike_id": "f42e82b20bb44ee1369c4cce9e242a57", "lat": 38.87087566666667}, {"type": "electric_scooter", "fusion_lon": 0.0, "name": "23f0c2ef50ae14e55fad9977fa3b3acc", "lon": -77.00604783333333, "fusion_lat": 0.0, "is_disabled": 0, "is_reserved": 0, "rental_uris": {"ios": "https://dc.lft.to/lastmile_qr_scan", "android": "https://dc.lft.to/lastmile_qr_scan"}, "bike_id": "23f0c2ef50ae14e55fad9977fa3b3acc", "lat": 38.91121733333333}, {"type": "electric_scooter", "fusion_lon": 0.0, "name": "c2c8c74634cd9740a54b07ad4130c4f8", "lon": -77.0215095, "fusion_lat": 0.0, "is_disabled": 0, "is_reserved": 0, "rental_uris": {"ios": "https://dc.lft.to/lastmile_qr_scan", "android": "https://dc.lft.to/lastmile_qr_scan"}, "bike_id": "c2c8c74634cd9740a54b07ad4130c4f8", "lat": 38.924999666666665}, {"type": "electric_scooter", "fusion_lon": 0.0, "name": "65f532dbfe64b51c37a0c1d9a67995fd", "lon": -77.03581716666666, "fusion_lat": 0.0, "is_disabled": 0, "is_reserved": 0, "rental_uris": {"ios": "https://dc.lft.to/lastmile_qr_scan", "android": "https://dc.lft.to/lastmile_qr_scan"}, "bike_id": "65f532dbfe64b51c37a0c1d9a67995fd", "lat": 38.902555666666665}, {"type": "electric_scooter", "fusion_lon": 0.0, "name": "989bea3d0f9ad60a56c0cce689e24728", "lon": -76.98341366666666, "fusion_lat": 0.0, "is_disabled": 0, "is_reserved": 0, "rental_uris": {"ios": "https://dc.lft.to/lastmile_qr_scan", "android": "https://dc.lft.to/lastmile_qr_scan"}, "bike_id": "989bea3d0f9ad60a56c0cce689e24728", "lat": 38.88709583333333}, {"type": "electric_scooter", "fusion_lon": 0.0, "name": "f2b8fa8f838fffb0d4f8270e9f5424e5", "lon": -77.00366633333333, "fusion_lat": 0.0, "is_disabled": 0, "is_reserved": 0, "rental_uris": {"ios": "https://dc.lft.to/lastmile_qr_scan", "android": "https://dc.lft.to/lastmile_qr_scan"}, "bike_id": "f2b8fa8f838fffb0d4f8270e9f5424e5", "lat": 38.84647066666667}, {"type": "electric_scooter", "fusion_lon": 0.0, "name": "43f5a8eff58810ecebd158dfcc23d412", "lon": -77.03325, "fusion_lat": 0.0, "is_disabled": 0, "is_reserved": 0, "rental_uris": {"ios": "https://dc.lft.to/lastmile_qr_scan", "android": "https://dc.lft.to/lastmile_qr_scan"}, "bike_id": "43f5a8eff58810ecebd158dfcc23d412", "lat": 38.92850816666667}, {"type": "electric_scooter", "fusion_lon": 0.0, "name": "3f5681f3419a386821c4221c8df00c01", "lon": -77.02053616666667, "fusion_lat": 0.0, "is_disabled": 0, "is_reserved": 0, "rental_uris": {"ios": "https://dc.lft.to/lastmile_qr_scan", "android": "https://dc.lft.to/lastmile_qr_scan"}, "bike_id": "3f5681f3419a386821c4221c8df00c01", "lat": 38.9136295}, {"type": "electric_scooter", "fusion_lon": 0.0, "name": "98db9fd6c22b06146710a5ee480214f0", "lon": -77.047159, "fusion_lat": 0.0, "is_disabled": 0, "is_reserved": 0, "rental_uris": {"ios": "https://dc.lft.to/lastmile_qr_scan", "android": "https://dc.lft.to/lastmile_qr_scan"}, "bike_id": "98db9fd6c22b06146710a5ee480214f0", "lat": 38.89963783333334}, {"type": "electric_scooter", "fusion_lon": 0.0, "name": "a0f2510ce8c2496cbf3abbc31f034be1", "lon": -77.01199083333333, "fusion_lat": 0.0, "is_disabled": 0, "is_reserved": 0, "rental_uris": {"ios": "https://dc.lft.to/lastmile_qr_scan", "android": "https://dc.lft.to/lastmile_qr_scan"}, "bike_id": "a0f2510ce8c2496cbf3abbc31f034be1", "lat": 38.897962}, {"type": "electric_scooter", "fusion_lon": 0.0, "name": "97cdafbd1b5d951e11599626b010a4fe", "lon": -76.94323933333334, "fusion_lat": 0.0, "is_disabled": 0, "is_reserved": 0, "rental_uris": {"ios": "https://dc.lft.to/lastmile_qr_scan", "android": "https://dc.lft.to/lastmile_qr_scan"}, "bike_id": "97cdafbd1b5d951e11599626b010a4fe", "lat": 38.880257}, {"type": "electric_bike", "fusion_lon": 0.0, "name": "6faf5257bcae6d95042fd5ba70ac3021", "lon": -76.97594083333334, "fusion_lat": 0.0, "is_disabled": 0, "is_reserved": 0, "rental_uris": {"ios": "https://dc.lft.to/lastmile_qr_scan", "android": "https://dc.lft.to/lastmile_qr_scan"}, "bike_id": "6faf5257bcae6d95042fd5ba70ac3021", "lat": 38.8406225}, {"type": "electric_scooter", "fusion_lon": 0.0, "name": "ecfd44921599d939ab73e1308618b8c9", "lon": -77.03184266666666, "fusion_lat": 0.0, "is_disabled": 0, "is_reserved": 0, "rental_uris": {"ios": "https://dc.lft.to/lastmile_qr_scan", "android": "https://dc.lft.to/lastmile_qr_scan"}, "bike_id": "ecfd44921599d939ab73e1308618b8c9", "lat": 38.913197333333336}, {"type": "electric_scooter", "fusion_lon": 0.0, "name": "c3367145a9a88938a0ccb5a4cbb67b53", "lon": -77.0177805, "fusion_lat": 0.0, "is_disabled": 0, "is_reserved": 0, "rental_uris": {"ios": "https://dc.lft.to/lastmile_qr_scan", "android": "https://dc.lft.to/lastmile_qr_scan"}, "bike_id": "c3367145a9a88938a0ccb5a4cbb67b53", "lat": 38.900511}, {"type": "electric_scooter", "fusion_lon": 0.0, "name": "f789709111a357513ecd5a7f40c40b74", "lon": -77.03902716666667, "fusion_lat": 0.0, "is_disabled": 0, "is_reserved": 0, "rental_uris": {"ios": "https://dc.lft.to/lastmile_qr_scan", "android": "https://dc.lft.to/lastmile_qr_scan"}, "bike_id": "f789709111a357513ecd5a7f40c40b74", "lat": 38.9224105}, {"type": "electric_scooter", "fusion_lon": 0.0, "name": "722f5450db4570172e8bf76bedb8cef3", "lon": -77.02951316666666, "fusion_lat": 0.0, "is_disabled": 0, "is_reserved": 0, "rental_uris": {"ios": "https://dc.lft.to/lastmile_qr_scan", "android": "https://dc.lft.to/lastmile_qr_scan"}, "bike_id": "722f5450db4570172e8bf76bedb8cef3", "lat": 38.91767466666667}, {"type": "electric_scooter", "fusion_lon": 0.0, "name": "298f8a08189742b131df72242b91e719", "lon": -77.06014966666666, "fusion_lat": 0.0, "is_disabled": 0, "is_reserved": 0, "rental_uris": {"ios": "https://dc.lft.to/lastmile_qr_scan", "android": "https://dc.lft.to/lastmile_qr_scan"}, "bike_id": "298f8a08189742b131df72242b91e719", "lat": 38.926701}, {"type": "electric_scooter", "fusion_lon": 0.0, "name": "d3a3d233c5d0634ad760a97b1225a4f0", "lon": -77.05007166666667, "fusion_lat": 0.0, "is_disabled": 0, "is_reserved": 0, "rental_uris": {"ios": "https://dc.lft.to/lastmile_qr_scan", "android": "https://dc.lft.to/lastmile_qr_scan"}, "bike_id": "d3a3d233c5d0634ad760a97b1225a4f0", "lat": 38.89729}, {"type": "electric_scooter", "fusion_lon": 0.0, "name": "635b86d158b5560eafbeea42f23c064d", "lon": -77.036385, "fusion_lat": 0.0, "is_disabled": 0, "is_reserved": 0, "rental_uris": {"ios": "https://dc.lft.to/lastmile_qr_scan", "android": "https://dc.lft.to/lastmile_qr_scan"}, "bike_id": "635b86d158b5560eafbeea42f23c064d", "lat": 38.91762166666667}, {"type": "electric_bike", "fusion_lon": 0.0, "name": "38984cb858986eeceec6e77324d3168b", "lon": -77.09584516666666, "fusion_lat": 0.0, "is_disabled": 0, "is_reserved": 0, "rental_uris": {"ios": "https://dc.lft.to/lastmile_qr_scan", "android": "https://dc.lft.to/lastmile_qr_scan"}, "bike_id": "38984cb858986eeceec6e77324d3168b", "lat": 38.974438166666665}, {"type": "electric_scooter", "fusion_lon": 0.0, "name": "5854083dcf62c222baf0d23622586482", "lon": -77.03976183333333, "fusion_lat": 0.0, "is_disabled": 0, "is_reserved": 0, "rental_uris": {"ios": "https://dc.lft.to/lastmile_qr_scan", "android": "https://dc.lft.to/lastmile_qr_scan"}, "bike_id": "5854083dcf62c222baf0d23622586482", "lat": 38.90560216666667}, {"type": "electric_scooter", "fusion_lon": 0.0, "name": "6a874b37e7c7a4f10cbc13280b7788de", "lon": -77.0378, "fusion_lat": 0.0, "is_disabled": 0, "is_reserved": 0, "rental_uris": {"ios": "https://dc.lft.to/lastmile_qr_scan", "android": "https://dc.lft.to/lastmile_qr_scan"}, "bike_id": "6a874b37e7c7a4f10cbc13280b7788de", "lat": 38.916995}, {"type": "electric_scooter", "fusion_lon": 0.0, "name": "98f7c93deb6cf81f142c6ebd65548ad8", "lon": -77.034132, "fusion_lat": 0.0, "is_disabled": 0, "is_reserved": 0, "rental_uris": {"ios": "https://dc.lft.to/lastmile_qr_scan", "android": "https://dc.lft.to/lastmile_qr_scan"}, "bike_id": "98f7c93deb6cf81f142c6ebd65548ad8", "lat": 38.92299583333333}, {"type": "electric_scooter", "fusion_lon": 0.0, "name": "51b0ff00212f03f396d3c392ca429bd9", "lon": -77.07464216666666, "fusion_lat": 0.0, "is_disabled": 0, "is_reserved": 0, "rental_uris": {"ios": "https://dc.lft.to/lastmile_qr_scan", "android": "https://dc.lft.to/lastmile_qr_scan"}, "bike_id": "51b0ff00212f03f396d3c392ca429bd9", "lat": 38.93559366666667}, {"type": "electric_bike", "fusion_lon": 0.0, "name": "b9d2b871f969abdca522a5444e2878df", "lon": -76.93209483333334, "fusion_lat": 0.0, "is_disabled": 0, "is_reserved": 0, "rental_uris": {"ios": "https://dc.lft.to/lastmile_qr_scan", "android": "https://dc.lft.to/lastmile_qr_scan"}, "bike_id": "b9d2b871f969abdca522a5444e2878df", "lat": 38.8966845}, {"type": "electric_scooter", "fusion_lon": 0.0, "name": "187460e4dd2081ed7bfc6059102ecbd8", "lon": -77.05022966666667, "fusion_lat": 0.0, "is_disabled": 0, "is_reserved": 0, "rental_uris": {"ios": "https://dc.lft.to/lastmile_qr_scan", "android": "https://dc.lft.to/lastmile_qr_scan"}, "bike_id": "187460e4dd2081ed7bfc6059102ecbd8", "lat": 38.901936666666664}, {"type": "electric_scooter", "fusion_lon": 0.0, "name": "c3ed2d2229cdd51d6fd0d936d1d9cc0f", "lon": -77.0271365, "fusion_lat": 0.0, "is_disabled": 0, "is_reserved": 0, "rental_uris": {"ios": "https://dc.lft.to/lastmile_qr_scan", "android": "https://dc.lft.to/lastmile_qr_scan"}, "bike_id": "c3ed2d2229cdd51d6fd0d936d1d9cc0f", "lat": 38.924666}, {"type": "electric_scooter", "fusion_lon": 0.0, "name": "1c96d2635cbc4bec97de153f76ed6f7f", "lon": -77.02901766666666, "fusion_lat": 0.0, "is_disabled": 0, "is_reserved": 0, "rental_uris": {"ios": "https://dc.lft.to/lastmile_qr_scan", "android": "https://dc.lft.to/lastmile_qr_scan"}, "bike_id": "1c96d2635cbc4bec97de153f76ed6f7f", "lat": 38.92322866666667}, {"type": "electric_scooter", "fusion_lon": 0.0, "name": "0643363b503ff1044a5610fa2de889ac", "lon": -77.037982, "fusion_lat": 0.0, "is_disabled": 0, "is_reserved": 0, "rental_uris": {"ios": "https://dc.lft.to/lastmile_qr_scan", "android": "https://dc.lft.to/lastmile_qr_scan"}, "bike_id": "0643363b503ff1044a5610fa2de889ac", "lat": 38.92195366666667}, {"type": "electric_scooter", "fusion_lon": 0.0, "name": "7b1f0ffdbbce8fb7cb7d68d6d9a08e54", "lon": -77.03094316666666, "fusion_lat": 0.0, "is_disabled": 0, "is_reserved": 0, "rental_uris": {"ios": "https://dc.lft.to/lastmile_qr_scan", "android": "https://dc.lft.to/lastmile_qr_scan"}, "bike_id": "7b1f0ffdbbce8fb7cb7d68d6d9a08e54", "lat": 38.919144}, {"type": "electric_scooter", "fusion_lon": 0.0, "name": "84950a79f2fcce21eae51eba13eb3f79", "lon": -77.02208016666667, "fusion_lat": 0.0, "is_disabled": 0, "is_reserved": 0, "rental_uris": {"ios": "https://dc.lft.to/lastmile_qr_scan", "android": "https://dc.lft.to/lastmile_qr_scan"}, "bike_id": "84950a79f2fcce21eae51eba13eb3f79", "lat": 38.887387}, {"type": "electric_scooter", "fusion_lon": 0.0, "name": "7ba028c64d27ad5021b57f44fd598dd5", "lon": -77.03968633333334, "fusion_lat": 0.0, "is_disabled": 0, "is_reserved": 0, "rental_uris": {"ios": "https://dc.lft.to/lastmile_qr_scan", "android": "https://dc.lft.to/lastmile_qr_scan"}, "bike_id": "7ba028c64d27ad5021b57f44fd598dd5", "lat": 38.9014935}, {"type": "electric_bike", "fusion_lon": 0.0, "name": "72e8861dca8f5bd9ee4759108bf6de1d", "lon": -76.98752383333333, "fusion_lat": 0.0, "is_disabled": 0, "is_reserved": 0, "rental_uris": {"ios": "https://dc.lft.to/lastmile_qr_scan", "android": "https://dc.lft.to/lastmile_qr_scan"}, "bike_id": "72e8861dca8f5bd9ee4759108bf6de1d", "lat": 38.85789483333333}, {"type": "electric_scooter", "fusion_lon": 0.0, "name": "702fb4bc3253d8bd8c1ed9e25359ca7b", "lon": -77.0465075, "fusion_lat": 0.0, "is_disabled": 0, "is_reserved": 0, "rental_uris": {"ios": "https://dc.lft.to/lastmile_qr_scan", "android": "https://dc.lft.to/lastmile_qr_scan"}, "bike_id": "702fb4bc3253d8bd8c1ed9e25359ca7b", "lat": 38.89344333333333}, {"type": "electric_scooter", "fusion_lon": 0.0, "name": "70206a71e69b41b3eeb7528195fb8d5a", "lon": -77.0348315, "fusion_lat": 0.0, "is_disabled": 0, "is_reserved": 0, "rental_uris": {"ios": "https://dc.lft.to/lastmile_qr_scan", "android": "https://dc.lft.to/lastmile_qr_scan"}, "bike_id": "70206a71e69b41b3eeb7528195fb8d5a", "lat": 38.92346083333333}, {"type": "electric_scooter", "fusion_lon": 0.0, "name": "9e0e0d7c9b9c3f19510dcc5963c0db1b", "lon": -77.01791933333334, "fusion_lat": 0.0, "is_disabled": 0, "is_reserved": 0, "rental_uris": {"ios": "https://dc.lft.to/lastmile_qr_scan", "android": "https://dc.lft.to/lastmile_qr_scan"}, "bike_id": "9e0e0d7c9b9c3f19510dcc5963c0db1b", "lat": 38.87760516666667}, {"type": "electric_scooter", "fusion_lon": 0.0, "name": "dfed657a98977d7a290379bad66c048f", "lon": -77.03220516666667, "fusion_lat": 0.0, "is_disabled": 0, "is_reserved": 0, "rental_uris": {"ios": "https://dc.lft.to/lastmile_qr_scan", "android": "https://dc.lft.to/lastmile_qr_scan"}, "bike_id": "dfed657a98977d7a290379bad66c048f", "lat": 38.89224216666667}, {"type": "electric_bike", "fusion_lon": 0.0, "name": "1dff21663177f6ebe2b3f7e328b81817", "lon": -77.02821033333333, "fusion_lat": 0.0, "is_disabled": 0, "is_reserved": 0, "rental_uris": {"ios": "https://dc.lft.to/lastmile_qr_scan", "android": "https://dc.lft.to/lastmile_qr_scan"}, "bike_id": "1dff21663177f6ebe2b3f7e328b81817", "lat": 38.9656475}, {"type": "electric_scooter", "fusion_lon": 0.0, "name": "94010207e0091c60bc9f9dbc50016b6a", "lon": -77.04873, "fusion_lat": 0.0, "is_disabled": 0, "is_reserved": 0, "rental_uris": {"ios": "https://dc.lft.to/lastmile_qr_scan", "android": "https://dc.lft.to/lastmile_qr_scan"}, "bike_id": "94010207e0091c60bc9f9dbc50016b6a", "lat": 38.904806}, {"type": "electric_scooter", "fusion_lon": 0.0, "name": "6ac995620c580025bdfcd8779d2addf7", "lon": -77.04808166666666, "fusion_lat": 0.0, "is_disabled": 0, "is_reserved": 0, "rental_uris": {"ios": "https://dc.lft.to/lastmile_qr_scan", "android": "https://dc.lft.to/lastmile_qr_scan"}, "bike_id": "6ac995620c580025bdfcd8779d2addf7", "lat": 38.895959833333336}, {"type": "electric_scooter", "fusion_lon": 0.0, "name": "b4f62b974557cf6c59ced9deb32d0cde", "lon": -77.02801433333333, "fusion_lat": 0.0, "is_disabled": 0, "is_reserved": 0, "rental_uris": {"ios": "https://dc.lft.to/lastmile_qr_scan", "android": "https://dc.lft.to/lastmile_qr_scan"}, "bike_id": "b4f62b974557cf6c59ced9deb32d0cde", "lat": 38.8923145}, {"type": "electric_scooter", "fusion_lon": 0.0, "name": "396d2c69df5c3c6060b4f3cef6d3652f", "lon": -77.02226266666666, "fusion_lat": 0.0, "is_disabled": 0, "is_reserved": 0, "rental_uris": {"ios": "https://dc.lft.to/lastmile_qr_scan", "android": "https://dc.lft.to/lastmile_qr_scan"}, "bike_id": "396d2c69df5c3c6060b4f3cef6d3652f", "lat": 38.887495}, {"type": "electric_bike", "fusion_lon": 0.0, "name": "e131b008727a7cce543b7cb9a86ebc99", "lon": -77.10401533333334, "fusion_lat": 0.0, "is_disabled": 0, "is_reserved": 0, "rental_uris": {"ios": "https://dc.lft.to/lastmile_qr_scan", "android": "https://dc.lft.to/lastmile_qr_scan"}, "bike_id": "e131b008727a7cce543b7cb9a86ebc99", "lat": 39.00535266666667}, {"type": "electric_bike", "fusion_lon": 0.0, "name": "1653087094c7af8a53b1a6d027b86eb1", "lon": -77.08300233333334, "fusion_lat": 0.0, "is_disabled": 0, "is_reserved": 0, "rental_uris": {"ios": "https://dc.lft.to/lastmile_qr_scan", "android": "https://dc.lft.to/lastmile_qr_scan"}, "bike_id": "1653087094c7af8a53b1a6d027b86eb1", "lat": 38.93039}, {"type": "electric_scooter", "fusion_lon": 0.0, "name": "e0e32ccfefa4a5d31c7206b5fb94d762", "lon": -76.99619116666666, "fusion_lat": 0.0, "is_disabled": 0, "is_reserved": 0, "rental_uris": {"ios": "https://dc.lft.to/lastmile_qr_scan", "android": "https://dc.lft.to/lastmile_qr_scan"}, "bike_id": "e0e32ccfefa4a5d31c7206b5fb94d762", "lat": 38.88533366666667}, {"type": "electric_scooter", "fusion_lon": 0.0, "name": "181dc56fa29e027ce58eea06d5c42dd2", "lon": -77.048716, "fusion_lat": 0.0, "is_disabled": 0, "is_reserved": 0, "rental_uris": {"ios": "https://dc.lft.to/lastmile_qr_scan", "android": "https://dc.lft.to/lastmile_qr_scan"}, "bike_id": "181dc56fa29e027ce58eea06d5c42dd2", "lat": 38.90530616666667}, {"type": "electric_scooter", "fusion_lon": 0.0, "name": "009d8fd164fc42b230f14a568db44f57", "lon": -77.009349, "fusion_lat": 0.0, "is_disabled": 0, "is_reserved": 0, "rental_uris": {"ios": "https://dc.lft.to/lastmile_qr_scan", "android": "https://dc.lft.to/lastmile_qr_scan"}, "bike_id": "009d8fd164fc42b230f14a568db44f57", "lat": 38.905634666666664}, {"type": "electric_scooter", "fusion_lon": 0.0, "name": "231afcfae1301c1247f14fc9c49ba081", "lon": -77.01864616666667, "fusion_lat": 0.0, "is_disabled": 0, "is_reserved": 0, "rental_uris": {"ios": "https://dc.lft.to/lastmile_qr_scan", "android": "https://dc.lft.to/lastmile_qr_scan"}, "bike_id": "231afcfae1301c1247f14fc9c49ba081", "lat": 38.97371183333333}, {"type": "electric_bike", "fusion_lon": 0.0, "name": "41f32d308515d934a29a16e52edafe8b", "lon": -76.97477383333333, "fusion_lat": 0.0, "is_disabled": 0, "is_reserved": 0, "rental_uris": {"ios": "https://dc.lft.to/lastmile_qr_scan", "android": "https://dc.lft.to/lastmile_qr_scan"}, "bike_id": "41f32d308515d934a29a16e52edafe8b", "lat": 38.86561566666666}, {"type": "electric_scooter", "fusion_lon": 0.0, "name": "ef26b6d2f8a7328a495b4ec5e9a51b3a", "lon": -77.0390435, "fusion_lat": 0.0, "is_disabled": 0, "is_reserved": 0, "rental_uris": {"ios": "https://dc.lft.to/lastmile_qr_scan", "android": "https://dc.lft.to/lastmile_qr_scan"}, "bike_id": "ef26b6d2f8a7328a495b4ec5e9a51b3a", "lat": 38.899279166666666}, {"type": "electric_scooter", "fusion_lon": 0.0, "name": "cee68b706535f1a6f6c11dc5cbcf5319", "lon": -77.043047, "fusion_lat": 0.0, "is_disabled": 0, "is_reserved": 0, "rental_uris": {"ios": "https://dc.lft.to/lastmile_qr_scan", "android": "https://dc.lft.to/lastmile_qr_scan"}, "bike_id": "cee68b706535f1a6f6c11dc5cbcf5319", "lat": 38.92335083333333}, {"type": "electric_scooter", "fusion_lon": 0.0, "name": "a252bbfedb13fca9319272b97d4e0d24", "lon": -77.02630933333333, "fusion_lat": 0.0, "is_disabled": 0, "is_reserved": 0, "rental_uris": {"ios": "https://dc.lft.to/lastmile_qr_scan", "android": "https://dc.lft.to/lastmile_qr_scan"}, "bike_id": "a252bbfedb13fca9319272b97d4e0d24", "lat": 38.898453833333335}, {"type": "electric_bike", "fusion_lon": 0.0, "name": "c13731dbe363e0e3aeda604f9288ce8e", "lon": -77.12043466666667, "fusion_lat": 0.0, "is_disabled": 0, "is_reserved": 0, "rental_uris": {"ios": "https://dc.lft.to/lastmile_qr_scan", "android": "https://dc.lft.to/lastmile_qr_scan"}, "bike_id": "c13731dbe363e0e3aeda604f9288ce8e", "lat": 38.824328333333334}, {"type": "electric_scooter", "fusion_lon": 0.0, "name": "355ad8715b444316133ab718d4ed81c1", "lon": -77.03832533333333, "fusion_lat": 0.0, "is_disabled": 0, "is_reserved": 0, "rental_uris": {"ios": "https://dc.lft.to/lastmile_qr_scan", "android": "https://dc.lft.to/lastmile_qr_scan"}, "bike_id": "355ad8715b444316133ab718d4ed81c1", "lat": 38.900836166666664}, {"type": "electric_scooter", "fusion_lon": 0.0, "name": "955636355742e059e99b73bfa0d567ba", "lon": -77.06481166666667, "fusion_lat": 0.0, "is_disabled": 0, "is_reserved": 0, "rental_uris": {"ios": "https://dc.lft.to/lastmile_qr_scan", "android": "https://dc.lft.to/lastmile_qr_scan"}, "bike_id": "955636355742e059e99b73bfa0d567ba", "lat": 38.905157}, {"type": "electric_scooter", "fusion_lon": 0.0, "name": "7ab3145d3954c134a30107f3965fe5b4", "lon": -77.04231, "fusion_lat": 0.0, "is_disabled": 0, "is_reserved": 0, "rental_uris": {"ios": "https://dc.lft.to/lastmile_qr_scan", "android": "https://dc.lft.to/lastmile_qr_scan"}, "bike_id": "7ab3145d3954c134a30107f3965fe5b4", "lat": 38.921709666666665}, {"type": "electric_bike", "fusion_lon": 0.0, "name": "010dd7cc94f5047271345d8e69cfd7db", "lon": -77.06835866666667, "fusion_lat": 0.0, "is_disabled": 0, "is_reserved": 0, "rental_uris": {"ios": "https://dc.lft.to/lastmile_qr_scan", "android": "https://dc.lft.to/lastmile_qr_scan"}, "bike_id": "010dd7cc94f5047271345d8e69cfd7db", "lat": 38.85643133333333}, {"type": "electric_scooter", "fusion_lon": 0.0, "name": "00a7985dc289bab5dbcd63213a2c0e9b", "lon": -77.02221183333333, "fusion_lat": 0.0, "is_disabled": 0, "is_reserved": 0, "rental_uris": {"ios": "https://dc.lft.to/lastmile_qr_scan", "android": "https://dc.lft.to/lastmile_qr_scan"}, "bike_id": "00a7985dc289bab5dbcd63213a2c0e9b", "lat": 38.8922465}, {"type": "electric_scooter", "fusion_lon": 0.0, "name": "9bf6bf6ea59f83eb982ce60c875f0a3e", "lon": -77.0200565, "fusion_lat": 0.0, "is_disabled": 0, "is_reserved": 0, "rental_uris": {"ios": "https://dc.lft.to/lastmile_qr_scan", "android": "https://dc.lft.to/lastmile_qr_scan"}, "bike_id": "9bf6bf6ea59f83eb982ce60c875f0a3e", "lat": 38.92420833333333}, {"type": "electric_scooter", "fusion_lon": 0.0, "name": "58bb0f45e3dbe7e98a89a553f71eba8d", "lon": -76.99741766666666, "fusion_lat": 0.0, "is_disabled": 0, "is_reserved": 0, "rental_uris": {"ios": "https://dc.lft.to/lastmile_qr_scan", "android": "https://dc.lft.to/lastmile_qr_scan"}, "bike_id": "58bb0f45e3dbe7e98a89a553f71eba8d", "lat": 38.88220533333333}, {"type": "electric_scooter", "fusion_lon": 0.0, "name": "8649cfe8dd1debd048cf0887bbe966d5", "lon": -77.00352633333334, "fusion_lat": 0.0, "is_disabled": 0, "is_reserved": 0, "rental_uris": {"ios": "https://dc.lft.to/lastmile_qr_scan", "android": "https://dc.lft.to/lastmile_qr_scan"}, "bike_id": "8649cfe8dd1debd048cf0887bbe966d5", "lat": 38.91108416666667}, {"type": "electric_scooter", "fusion_lon": 0.0, "name": "1e464154e20fa51937d405a1ae0a7ab8", "lon": -77.03351616666667, "fusion_lat": 0.0, "is_disabled": 0, "is_reserved": 0, "rental_uris": {"ios": "https://dc.lft.to/lastmile_qr_scan", "android": "https://dc.lft.to/lastmile_qr_scan"}, "bike_id": "1e464154e20fa51937d405a1ae0a7ab8", "lat": 38.897335166666664}, {"type": "electric_scooter", "fusion_lon": 0.0, "name": "9180b356c668c2cb9615672ac4f0cbf9", "lon": -77.02178033333334, "fusion_lat": 0.0, "is_disabled": 0, "is_reserved": 0, "rental_uris": {"ios": "https://dc.lft.to/lastmile_qr_scan", "android": "https://dc.lft.to/lastmile_qr_scan"}, "bike_id": "9180b356c668c2cb9615672ac4f0cbf9", "lat": 38.91459483333333}, {"type": "electric_scooter", "fusion_lon": 0.0, "name": "08f3e4a75acc1387f2dc26be52de9a52", "lon": -77.027927, "fusion_lat": 0.0, "is_disabled": 0, "is_reserved": 0, "rental_uris": {"ios": "https://dc.lft.to/lastmile_qr_scan", "android": "https://dc.lft.to/lastmile_qr_scan"}, "bike_id": "08f3e4a75acc1387f2dc26be52de9a52", "lat": 38.90394}, {"type": "electric_scooter", "fusion_lon": 0.0, "name": "ec862c89cb224e6b74e93b42f036a838", "lon": -77.0433535, "fusion_lat": 0.0, "is_disabled": 0, "is_reserved": 0, "rental_uris": {"ios": "https://dc.lft.to/lastmile_qr_scan", "android": "https://dc.lft.to/lastmile_qr_scan"}, "bike_id": "ec862c89cb224e6b74e93b42f036a838", "lat": 38.89640466666667}, {"type": "electric_scooter", "fusion_lon": 0.0, "name": "51a80455ad590ab02bea5d720ceebf67", "lon": -76.98107233333333, "fusion_lat": 0.0, "is_disabled": 0, "is_reserved": 0, "rental_uris": {"ios": "https://dc.lft.to/lastmile_qr_scan", "android": "https://dc.lft.to/lastmile_qr_scan"}, "bike_id": "51a80455ad590ab02bea5d720ceebf67", "lat": 38.898374833333335}, {"type": "electric_scooter", "fusion_lon": 0.0, "name": "2f9d31966749f4904c46d6e91e35cc9a", "lon": -77.04356983333334, "fusion_lat": 0.0, "is_disabled": 0, "is_reserved": 0, "rental_uris": {"ios": "https://dc.lft.to/lastmile_qr_scan", "android": "https://dc.lft.to/lastmile_qr_scan"}, "bike_id": "2f9d31966749f4904c46d6e91e35cc9a", "lat": 38.9112365}, {"type": "electric_scooter", "fusion_lon": 0.0, "name": "6601903589d41f36d8ba8b24ceae4f05", "lon": -77.01332983333333, "fusion_lat": 0.0, "is_disabled": 0, "is_reserved": 0, "rental_uris": {"ios": "https://dc.lft.to/lastmile_qr_scan", "android": "https://dc.lft.to/lastmile_qr_scan"}, "bike_id": "6601903589d41f36d8ba8b24ceae4f05", "lat": 38.896147166666665}, {"type": "electric_bike", "fusion_lon": 0.0, "name": "6935ccd000c7a6b5791140e6c4a91449", "lon": -77.01667866666666, "fusion_lat": 0.0, "is_disabled": 0, "is_reserved": 0, "rental_uris": {"ios": "https://dc.lft.to/lastmile_qr_scan", "android": "https://dc.lft.to/lastmile_qr_scan"}, "bike_id": "6935ccd000c7a6b5791140e6c4a91449", "lat": 38.88122716666667}, {"type": "electric_scooter", "fusion_lon": 0.0, "name": "7c9495ec5e03d27173447b9dedca6f10", "lon": -76.93746716666666, "fusion_lat": 0.0, "is_disabled": 0, "is_reserved": 0, "rental_uris": {"ios": "https://dc.lft.to/lastmile_qr_scan", "android": "https://dc.lft.to/lastmile_qr_scan"}, "bike_id": "7c9495ec5e03d27173447b9dedca6f10", "lat": 38.912790666666666}, {"type": "electric_scooter", "fusion_lon": 0.0, "name": "fcb51840f96a94b30d0016e4322e1a63", "lon": -77.02226333333333, "fusion_lat": 0.0, "is_disabled": 0, "is_reserved": 0, "rental_uris": {"ios": "https://dc.lft.to/lastmile_qr_scan", "android": "https://dc.lft.to/lastmile_qr_scan"}, "bike_id": "fcb51840f96a94b30d0016e4322e1a63", "lat": 38.88748283333334}, {"type": "electric_scooter", "fusion_lon": 0.0, "name": "ba66c48eaf52d6792a525436bdbafad6", "lon": -77.02387716666667, "fusion_lat": 0.0, "is_disabled": 0, "is_reserved": 0, "rental_uris": {"ios": "https://dc.lft.to/lastmile_qr_scan", "android": "https://dc.lft.to/lastmile_qr_scan"}, "bike_id": "ba66c48eaf52d6792a525436bdbafad6", "lat": 38.9193265}, {"type": "electric_bike", "fusion_lon": 0.0, "name": "91c213d6341c72842797f04a65791bf4", "lon": -77.0390495, "fusion_lat": 0.0, "is_disabled": 0, "is_reserved": 0, "rental_uris": {"ios": "https://dc.lft.to/lastmile_qr_scan", "android": "https://dc.lft.to/lastmile_qr_scan"}, "bike_id": "91c213d6341c72842797f04a65791bf4", "lat": 38.9326705}, {"type": "electric_scooter", "fusion_lon": 0.0, "name": "d6ac3352b83bde9493ce0cfb3b27c8a2", "lon": -77.02703333333334, "fusion_lat": 0.0, "is_disabled": 0, "is_reserved": 0, "rental_uris": {"ios": "https://dc.lft.to/lastmile_qr_scan", "android": "https://dc.lft.to/lastmile_qr_scan"}, "bike_id": "d6ac3352b83bde9493ce0cfb3b27c8a2", "lat": 38.900112166666666}, {"type": "electric_scooter", "fusion_lon": 0.0, "name": "2fa88f0fc1f8724d6c0f350cc3044ecb", "lon": -77.024939, "fusion_lat": 0.0, "is_disabled": 0, "is_reserved": 0, "rental_uris": {"ios": "https://dc.lft.to/lastmile_qr_scan", "android": "https://dc.lft.to/lastmile_qr_scan"}, "bike_id": "2fa88f0fc1f8724d6c0f350cc3044ecb", "lat": 38.91809716666667}, {"type": "electric_scooter", "fusion_lon": 0.0, "name": "7842e2946a09ea61a6ed5c0459b3fc7a", "lon": -77.05098333333333, "fusion_lat": 0.0, "is_disabled": 0, "is_reserved": 0, "rental_uris": {"ios": "https://dc.lft.to/lastmile_qr_scan", "android": "https://dc.lft.to/lastmile_qr_scan"}, "bike_id": "7842e2946a09ea61a6ed5c0459b3fc7a", "lat": 38.923627}, {"type": "electric_scooter", "fusion_lon": 0.0, "name": "50fda010783250fd5bf9714bd53a6454", "lon": -77.0627215, "fusion_lat": 0.0, "is_disabled": 0, "is_reserved": 0, "rental_uris": {"ios": "https://dc.lft.to/lastmile_qr_scan", "android": "https://dc.lft.to/lastmile_qr_scan"}, "bike_id": "50fda010783250fd5bf9714bd53a6454", "lat": 38.90569416666666}, {"type": "electric_scooter", "fusion_lon": 0.0, "name": "eb03fea90bf7ea0a79410efdeca7a3da", "lon": -77.03251666666667, "fusion_lat": 0.0, "is_disabled": 0, "is_reserved": 0, "rental_uris": {"ios": "https://dc.lft.to/lastmile_qr_scan", "android": "https://dc.lft.to/lastmile_qr_scan"}, "bike_id": "eb03fea90bf7ea0a79410efdeca7a3da", "lat": 38.91129766666667}, {"type": "electric_scooter", "fusion_lon": 0.0, "name": "5d7489fbed194defa445340bed0bfef4", "lon": -77.07261516666667, "fusion_lat": 0.0, "is_disabled": 0, "is_reserved": 0, "rental_uris": {"ios": "https://dc.lft.to/lastmile_qr_scan", "android": "https://dc.lft.to/lastmile_qr_scan"}, "bike_id": "5d7489fbed194defa445340bed0bfef4", "lat": 38.90788383333334}, {"type": "electric_scooter", "fusion_lon": 0.0, "name": "a12ca81a762aba5d9d3f640ea35d5818", "lon": -77.0450905, "fusion_lat": 0.0, "is_disabled": 0, "is_reserved": 0, "rental_uris": {"ios": "https://dc.lft.to/lastmile_qr_scan", "android": "https://dc.lft.to/lastmile_qr_scan"}, "bike_id": "a12ca81a762aba5d9d3f640ea35d5818", "lat": 38.89957966666667}, {"type": "electric_scooter", "fusion_lon": 0.0, "name": "26d3fc0f994ff0d25552973e9caffad8", "lon": -77.0502845, "fusion_lat": 0.0, "is_disabled": 0, "is_reserved": 0, "rental_uris": {"ios": "https://dc.lft.to/lastmile_qr_scan", "android": "https://dc.lft.to/lastmile_qr_scan"}, "bike_id": "26d3fc0f994ff0d25552973e9caffad8", "lat": 38.92366616666666}, {"type": "electric_scooter", "fusion_lon": 0.0, "name": "3f7ea0b28c14fe9564177b1d7c40ec70", "lon": -77.0373745, "fusion_lat": 0.0, "is_disabled": 0, "is_reserved": 0, "rental_uris": {"ios": "https://dc.lft.to/lastmile_qr_scan", "android": "https://dc.lft.to/lastmile_qr_scan"}, "bike_id": "3f7ea0b28c14fe9564177b1d7c40ec70", "lat": 38.9025675}, {"type": "electric_scooter", "fusion_lon": 0.0, "name": "12382b98a5e3d1491d1d85079a221462", "lon": -76.928036, "fusion_lat": 0.0, "is_disabled": 0, "is_reserved": 0, "rental_uris": {"ios": "https://dc.lft.to/lastmile_qr_scan", "android": "https://dc.lft.to/lastmile_qr_scan"}, "bike_id": "12382b98a5e3d1491d1d85079a221462", "lat": 38.89643933333333}, {"type": "electric_scooter", "fusion_lon": 0.0, "name": "7406f04452267c6286d8927f696ba14c", "lon": -77.0322175, "fusion_lat": 0.0, "is_disabled": 0, "is_reserved": 0, "rental_uris": {"ios": "https://dc.lft.to/lastmile_qr_scan", "android": "https://dc.lft.to/lastmile_qr_scan"}, "bike_id": "7406f04452267c6286d8927f696ba14c", "lat": 38.91649783333333}, {"type": "electric_scooter", "fusion_lon": 0.0, "name": "78874da05ee00a44ed22fbc3a1bdc077", "lon": -77.0295565, "fusion_lat": 0.0, "is_disabled": 0, "is_reserved": 0, "rental_uris": {"ios": "https://dc.lft.to/lastmile_qr_scan", "android": "https://dc.lft.to/lastmile_qr_scan"}, "bike_id": "78874da05ee00a44ed22fbc3a1bdc077", "lat": 38.91711566666667}, {"type": "electric_bike", "fusion_lon": 0.0, "name": "a78b8a75b843c34758e22496bd9fde7d", "lon": -77.05992883333333, "fusion_lat": 0.0, "is_disabled": 0, "is_reserved": 0, "rental_uris": {"ios": "https://dc.lft.to/lastmile_qr_scan", "android": "https://dc.lft.to/lastmile_qr_scan"}, "bike_id": "a78b8a75b843c34758e22496bd9fde7d", "lat": 38.92716333333333}, {"type": "electric_scooter", "fusion_lon": 0.0, "name": "7ed7509e21250b39ebaf25733bd2d610", "lon": -77.02641933333334, "fusion_lat": 0.0, "is_disabled": 0, "is_reserved": 0, "rental_uris": {"ios": "https://dc.lft.to/lastmile_qr_scan", "android": "https://dc.lft.to/lastmile_qr_scan"}, "bike_id": "7ed7509e21250b39ebaf25733bd2d610", "lat": 38.8960515}, {"type": "electric_scooter", "fusion_lon": 0.0, "name": "5253ebe84c44455c84227216c9ff6dd0", "lon": -77.04809283333333, "fusion_lat": 0.0, "is_disabled": 0, "is_reserved": 0, "rental_uris": {"ios": "https://dc.lft.to/lastmile_qr_scan", "android": "https://dc.lft.to/lastmile_qr_scan"}, "bike_id": "5253ebe84c44455c84227216c9ff6dd0", "lat": 38.9163105}, {"type": "electric_scooter", "fusion_lon": 0.0, "name": "57cd56a2f5406e4b1b3008d832338581", "lon": -76.98179933333333, "fusion_lat": 0.0, "is_disabled": 0, "is_reserved": 0, "rental_uris": {"ios": "https://dc.lft.to/lastmile_qr_scan", "android": "https://dc.lft.to/lastmile_qr_scan"}, "bike_id": "57cd56a2f5406e4b1b3008d832338581", "lat": 38.88976683333333}, {"type": "electric_scooter", "fusion_lon": 0.0, "name": "fb1d849b18bf1d3a55d3ca14bdd06cde", "lon": -77.066463, "fusion_lat": 0.0, "is_disabled": 0, "is_reserved": 0, "rental_uris": {"ios": "https://dc.lft.to/lastmile_qr_scan", "android": "https://dc.lft.to/lastmile_qr_scan"}, "bike_id": "fb1d849b18bf1d3a55d3ca14bdd06cde", "lat": 38.94971916666667}, {"type": "electric_scooter", "fusion_lon": 0.0, "name": "e00300a4956656c321a500df4509342c", "lon": -77.03198733333333, "fusion_lat": 0.0, "is_disabled": 0, "is_reserved": 0, "rental_uris": {"ios": "https://dc.lft.to/lastmile_qr_scan", "android": "https://dc.lft.to/lastmile_qr_scan"}, "bike_id": "e00300a4956656c321a500df4509342c", "lat": 38.921065666666664}, {"type": "electric_scooter", "fusion_lon": 0.0, "name": "8669101b467462ad814485579278478e", "lon": -77.041516, "fusion_lat": 0.0, "is_disabled": 0, "is_reserved": 0, "rental_uris": {"ios": "https://dc.lft.to/lastmile_qr_scan", "android": "https://dc.lft.to/lastmile_qr_scan"}, "bike_id": "8669101b467462ad814485579278478e", "lat": 38.9075415}, {"type": "electric_scooter", "fusion_lon": 0.0, "name": "56c04b4cbe7b92b8207ba04ce76d4c8f", "lon": -76.98680316666666, "fusion_lat": 0.0, "is_disabled": 0, "is_reserved": 0, "rental_uris": {"ios": "https://dc.lft.to/lastmile_qr_scan", "android": "https://dc.lft.to/lastmile_qr_scan"}, "bike_id": "56c04b4cbe7b92b8207ba04ce76d4c8f", "lat": 38.8988565}, {"type": "electric_scooter", "fusion_lon": 0.0, "name": "b12c186ca3197fd5ea61e8a6517af5f7", "lon": -77.04453566666666, "fusion_lat": 0.0, "is_disabled": 0, "is_reserved": 0, "rental_uris": {"ios": "https://dc.lft.to/lastmile_qr_scan", "android": "https://dc.lft.to/lastmile_qr_scan"}, "bike_id": "b12c186ca3197fd5ea61e8a6517af5f7", "lat": 38.905533}, {"type": "electric_scooter", "fusion_lon": 0.0, "name": "ab68faa3b46535d17a634a9c842b7393", "lon": -77.0366555, "fusion_lat": 0.0, "is_disabled": 0, "is_reserved": 0, "rental_uris": {"ios": "https://dc.lft.to/lastmile_qr_scan", "android": "https://dc.lft.to/lastmile_qr_scan"}, "bike_id": "ab68faa3b46535d17a634a9c842b7393", "lat": 38.91831716666667}, {"type": "electric_scooter", "fusion_lon": 0.0, "name": "1486e5569f0399aea4d036ac545b64b8", "lon": -77.044178, "fusion_lat": 0.0, "is_disabled": 0, "is_reserved": 0, "rental_uris": {"ios": "https://dc.lft.to/lastmile_qr_scan", "android": "https://dc.lft.to/lastmile_qr_scan"}, "bike_id": "1486e5569f0399aea4d036ac545b64b8", "lat": 38.8961865}, {"type": "electric_scooter", "fusion_lon": 0.0, "name": "86c7db236b71e0e62a11bc2108aa35c2", "lon": -77.037098, "fusion_lat": 0.0, "is_disabled": 0, "is_reserved": 0, "rental_uris": {"ios": "https://dc.lft.to/lastmile_qr_scan", "android": "https://dc.lft.to/lastmile_qr_scan"}, "bike_id": "86c7db236b71e0e62a11bc2108aa35c2", "lat": 38.926398}, {"type": "electric_scooter", "fusion_lon": 0.0, "name": "95db7160b03ca96b5d43f9027d26ac33", "lon": -77.026086, "fusion_lat": 0.0, "is_disabled": 0, "is_reserved": 0, "rental_uris": {"ios": "https://dc.lft.to/lastmile_qr_scan", "android": "https://dc.lft.to/lastmile_qr_scan"}, "bike_id": "95db7160b03ca96b5d43f9027d26ac33", "lat": 38.89618383333333}, {"type": "electric_scooter", "fusion_lon": 0.0, "name": "d51488019a6e9645a6fd86989083a73f", "lon": -76.99156766666667, "fusion_lat": 0.0, "is_disabled": 0, "is_reserved": 0, "rental_uris": {"ios": "https://dc.lft.to/lastmile_qr_scan", "android": "https://dc.lft.to/lastmile_qr_scan"}, "bike_id": "d51488019a6e9645a6fd86989083a73f", "lat": 38.900507166666664}, {"type": "electric_scooter", "fusion_lon": 0.0, "name": "7f2af5fa578bcd81a9955ec8d67bae47", "lon": -77.01790033333333, "fusion_lat": 0.0, "is_disabled": 0, "is_reserved": 0, "rental_uris": {"ios": "https://dc.lft.to/lastmile_qr_scan", "android": "https://dc.lft.to/lastmile_qr_scan"}, "bike_id": "7f2af5fa578bcd81a9955ec8d67bae47", "lat": 38.919945}, {"type": "electric_scooter", "fusion_lon": 0.0, "name": "f4faca26038dd447d7ea098cc0c2f986", "lon": -77.03203966666666, "fusion_lat": 0.0, "is_disabled": 0, "is_reserved": 0, "rental_uris": {"ios": "https://dc.lft.to/lastmile_qr_scan", "android": "https://dc.lft.to/lastmile_qr_scan"}, "bike_id": "f4faca26038dd447d7ea098cc0c2f986", "lat": 38.89226566666667}, {"type": "electric_scooter", "fusion_lon": 0.0, "name": "a944afc701d6c5011cf5ad23c414280d", "lon": -77.03500533333333, "fusion_lat": 0.0, "is_disabled": 0, "is_reserved": 0, "rental_uris": {"ios": "https://dc.lft.to/lastmile_qr_scan", "android": "https://dc.lft.to/lastmile_qr_scan"}, "bike_id": "a944afc701d6c5011cf5ad23c414280d", "lat": 38.928589833333334}, {"type": "electric_scooter", "fusion_lon": 0.0, "name": "dcdeb4c544452b9570e5b368f00daeb4", "lon": -77.07248916666667, "fusion_lat": 0.0, "is_disabled": 0, "is_reserved": 0, "rental_uris": {"ios": "https://dc.lft.to/lastmile_qr_scan", "android": "https://dc.lft.to/lastmile_qr_scan"}, "bike_id": "dcdeb4c544452b9570e5b368f00daeb4", "lat": 38.93933633333333}, {"type": "electric_scooter", "fusion_lon": 0.0, "name": "40b897c6780b089b9522f395e8ab2452", "lon": -77.04337283333334, "fusion_lat": 0.0, "is_disabled": 0, "is_reserved": 0, "rental_uris": {"ios": "https://dc.lft.to/lastmile_qr_scan", "android": "https://dc.lft.to/lastmile_qr_scan"}, "bike_id": "40b897c6780b089b9522f395e8ab2452", "lat": 38.90471683333333}, {"type": "electric_scooter", "fusion_lon": 0.0, "name": "d80dd2a679225ee13f373209d73ff8be", "lon": -77.0092395, "fusion_lat": 0.0, "is_disabled": 0, "is_reserved": 0, "rental_uris": {"ios": "https://dc.lft.to/lastmile_qr_scan", "android": "https://dc.lft.to/lastmile_qr_scan"}, "bike_id": "d80dd2a679225ee13f373209d73ff8be", "lat": 38.898862333333334}, {"type": "electric_scooter", "fusion_lon": 0.0, "name": "382905c930c7752fd444c49856e9879c", "lon": -77.0215695, "fusion_lat": 0.0, "is_disabled": 0, "is_reserved": 0, "rental_uris": {"ios": "https://dc.lft.to/lastmile_qr_scan", "android": "https://dc.lft.to/lastmile_qr_scan"}, "bike_id": "382905c930c7752fd444c49856e9879c", "lat": 38.92609783333333}, {"type": "electric_scooter", "fusion_lon": 0.0, "name": "c581c30fa3577b6a5c7e08c372882001", "lon": -77.00092033333334, "fusion_lat": 0.0, "is_disabled": 0, "is_reserved": 0, "rental_uris": {"ios": "https://dc.lft.to/lastmile_qr_scan", "android": "https://dc.lft.to/lastmile_qr_scan"}, "bike_id": "c581c30fa3577b6a5c7e08c372882001", "lat": 38.886422}, {"type": "electric_scooter", "fusion_lon": 0.0, "name": "5e715c86e51b9006923fae87bdce3419", "lon": -77.03636316666666, "fusion_lat": 0.0, "is_disabled": 0, "is_reserved": 0, "rental_uris": {"ios": "https://dc.lft.to/lastmile_qr_scan", "android": "https://dc.lft.to/lastmile_qr_scan"}, "bike_id": "5e715c86e51b9006923fae87bdce3419", "lat": 38.935039833333335}, {"type": "electric_scooter", "fusion_lon": 0.0, "name": "9a1edbf0ab9ffe7c2ca74f5f6b03ee1f", "lon": -77.02154733333333, "fusion_lat": 0.0, "is_disabled": 0, "is_reserved": 0, "rental_uris": {"ios": "https://dc.lft.to/lastmile_qr_scan", "android": "https://dc.lft.to/lastmile_qr_scan"}, "bike_id": "9a1edbf0ab9ffe7c2ca74f5f6b03ee1f", "lat": 38.926067}, {"type": "electric_scooter", "fusion_lon": 0.0, "name": "4f558d5efc5f2baf6146d4b5c4aeeed0", "lon": -77.04358983333333, "fusion_lat": 0.0, "is_disabled": 0, "is_reserved": 0, "rental_uris": {"ios": "https://dc.lft.to/lastmile_qr_scan", "android": "https://dc.lft.to/lastmile_qr_scan"}, "bike_id": "4f558d5efc5f2baf6146d4b5c4aeeed0", "lat": 38.900236666666665}, {"type": "electric_bike", "fusion_lon": 0.0, "name": "473cbd8a4d7f7fadd68bd44e76ec3cbf", "lon": -77.11409416666666, "fusion_lat": 0.0, "is_disabled": 0, "is_reserved": 0, "rental_uris": {"ios": "https://dc.lft.to/lastmile_qr_scan", "android": "https://dc.lft.to/lastmile_qr_scan"}, "bike_id": "473cbd8a4d7f7fadd68bd44e76ec3cbf", "lat": 38.852479333333335}, {"type": "electric_scooter", "fusion_lon": 0.0, "name": "85a6efddfdba2907e7f050e8d2126158", "lon": -77.048744, "fusion_lat": 0.0, "is_disabled": 0, "is_reserved": 0, "rental_uris": {"ios": "https://dc.lft.to/lastmile_qr_scan", "android": "https://dc.lft.to/lastmile_qr_scan"}, "bike_id": "85a6efddfdba2907e7f050e8d2126158", "lat": 38.8923505}, {"type": "electric_scooter", "fusion_lon": 0.0, "name": "85928f7c06b35751133ebad0a5b4169b", "lon": -77.06353733333333, "fusion_lat": 0.0, "is_disabled": 0, "is_reserved": 0, "rental_uris": {"ios": "https://dc.lft.to/lastmile_qr_scan", "android": "https://dc.lft.to/lastmile_qr_scan"}, "bike_id": "85928f7c06b35751133ebad0a5b4169b", "lat": 38.944413}, {"type": "electric_scooter", "fusion_lon": 0.0, "name": "3d870aa37b0d3fc282bf8ee48836f3c3", "lon": -76.93501766666667, "fusion_lat": 0.0, "is_disabled": 0, "is_reserved": 0, "rental_uris": {"ios": "https://dc.lft.to/lastmile_qr_scan", "android": "https://dc.lft.to/lastmile_qr_scan"}, "bike_id": "3d870aa37b0d3fc282bf8ee48836f3c3", "lat": 38.88299933333333}, {"type": "electric_scooter", "fusion_lon": 0.0, "name": "b74b05d165df98855c55db78e57e2bce", "lon": -77.022645, "fusion_lat": 0.0, "is_disabled": 0, "is_reserved": 0, "rental_uris": {"ios": "https://dc.lft.to/lastmile_qr_scan", "android": "https://dc.lft.to/lastmile_qr_scan"}, "bike_id": "b74b05d165df98855c55db78e57e2bce", "lat": 38.9273955}, {"type": "electric_scooter", "fusion_lon": 0.0, "name": "24a055399033a5a6775c05dac3f6effc", "lon": -77.03836083333333, "fusion_lat": 0.0, "is_disabled": 0, "is_reserved": 0, "rental_uris": {"ios": "https://dc.lft.to/lastmile_qr_scan", "android": "https://dc.lft.to/lastmile_qr_scan"}, "bike_id": "24a055399033a5a6775c05dac3f6effc", "lat": 38.92050316666667}, {"type": "electric_scooter", "fusion_lon": 0.0, "name": "f6907e5be3a5cfc8a532d3693943b2e2", "lon": -77.05676183333334, "fusion_lat": 0.0, "is_disabled": 0, "is_reserved": 0, "rental_uris": {"ios": "https://dc.lft.to/lastmile_qr_scan", "android": "https://dc.lft.to/lastmile_qr_scan"}, "bike_id": "f6907e5be3a5cfc8a532d3693943b2e2", "lat": 38.923406}, {"type": "electric_scooter", "fusion_lon": 0.0, "name": "b6caafecbc53bcb69c2ef287d873e33b", "lon": -77.032433, "fusion_lat": 0.0, "is_disabled": 0, "is_reserved": 0, "rental_uris": {"ios": "https://dc.lft.to/lastmile_qr_scan", "android": "https://dc.lft.to/lastmile_qr_scan"}, "bike_id": "b6caafecbc53bcb69c2ef287d873e33b", "lat": 38.90260033333333}, {"type": "electric_scooter", "fusion_lon": 0.0, "name": "22d0a38b5abbd954317f1cb377e7bc31", "lon": -77.06455866666667, "fusion_lat": 0.0, "is_disabled": 0, "is_reserved": 0, "rental_uris": {"ios": "https://dc.lft.to/lastmile_qr_scan", "android": "https://dc.lft.to/lastmile_qr_scan"}, "bike_id": "22d0a38b5abbd954317f1cb377e7bc31", "lat": 38.90889466666667}, {"type": "electric_scooter", "fusion_lon": 0.0, "name": "6f4d17f7b36d86d39381216d40a7c7c2", "lon": -77.0190885, "fusion_lat": 0.0, "is_disabled": 0, "is_reserved": 0, "rental_uris": {"ios": "https://dc.lft.to/lastmile_qr_scan", "android": "https://dc.lft.to/lastmile_qr_scan"}, "bike_id": "6f4d17f7b36d86d39381216d40a7c7c2", "lat": 38.921847166666666}, {"type": "electric_bike", "fusion_lon": 0.0, "name": "57c0dc68581149f56ce1d7d4c7054e75", "lon": -76.96259866666666, "fusion_lat": 0.0, "is_disabled": 0, "is_reserved": 0, "rental_uris": {"ios": "https://dc.lft.to/lastmile_qr_scan", "android": "https://dc.lft.to/lastmile_qr_scan"}, "bike_id": "57c0dc68581149f56ce1d7d4c7054e75", "lat": 38.8824825}, {"type": "electric_scooter", "fusion_lon": 0.0, "name": "36277d105f20ea8b091438ffdcfbef3d", "lon": -77.04408583333333, "fusion_lat": 0.0, "is_disabled": 0, "is_reserved": 0, "rental_uris": {"ios": "https://dc.lft.to/lastmile_qr_scan", "android": "https://dc.lft.to/lastmile_qr_scan"}, "bike_id": "36277d105f20ea8b091438ffdcfbef3d", "lat": 38.8961215}, {"type": "electric_scooter", "fusion_lon": 0.0, "name": "18ddb687b04d42068f34a92ffeed6e00", "lon": -76.9916455, "fusion_lat": 0.0, "is_disabled": 0, "is_reserved": 0, "rental_uris": {"ios": "https://dc.lft.to/lastmile_qr_scan", "android": "https://dc.lft.to/lastmile_qr_scan"}, "bike_id": "18ddb687b04d42068f34a92ffeed6e00", "lat": 38.873396166666666}, {"type": "electric_scooter", "fusion_lon": 0.0, "name": "bf439a6472b1a0c2aa395d9af234b647", "lon": -77.04323866666667, "fusion_lat": 0.0, "is_disabled": 0, "is_reserved": 0, "rental_uris": {"ios": "https://dc.lft.to/lastmile_qr_scan", "android": "https://dc.lft.to/lastmile_qr_scan"}, "bike_id": "bf439a6472b1a0c2aa395d9af234b647", "lat": 38.901442833333334}, {"type": "electric_scooter", "fusion_lon": 0.0, "name": "57ad0d39354930596cd23d30be142745", "lon": -77.0221865, "fusion_lat": 0.0, "is_disabled": 0, "is_reserved": 0, "rental_uris": {"ios": "https://dc.lft.to/lastmile_qr_scan", "android": "https://dc.lft.to/lastmile_qr_scan"}, "bike_id": "57ad0d39354930596cd23d30be142745", "lat": 38.892247166666664}, {"type": "electric_scooter", "fusion_lon": 0.0, "name": "3c9585f517eac4fc3dbd9c777dde5233", "lon": -77.02445866666666, "fusion_lat": 0.0, "is_disabled": 0, "is_reserved": 0, "rental_uris": {"ios": "https://dc.lft.to/lastmile_qr_scan", "android": "https://dc.lft.to/lastmile_qr_scan"}, "bike_id": "3c9585f517eac4fc3dbd9c777dde5233", "lat": 38.9375385}, {"type": "electric_scooter", "fusion_lon": 0.0, "name": "dc074e3f7ab2469d24da76f1ab8d6f2f", "lon": -77.00541666666666, "fusion_lat": 0.0, "is_disabled": 0, "is_reserved": 0, "rental_uris": {"ios": "https://dc.lft.to/lastmile_qr_scan", "android": "https://dc.lft.to/lastmile_qr_scan"}, "bike_id": "dc074e3f7ab2469d24da76f1ab8d6f2f", "lat": 38.927491333333336}, {"type": "electric_scooter", "fusion_lon": 0.0, "name": "ecaf7bb69f6fd8eafcae2e9a6d376a5f", "lon": -77.00714566666667, "fusion_lat": 0.0, "is_disabled": 0, "is_reserved": 0, "rental_uris": {"ios": "https://dc.lft.to/lastmile_qr_scan", "android": "https://dc.lft.to/lastmile_qr_scan"}, "bike_id": "ecaf7bb69f6fd8eafcae2e9a6d376a5f", "lat": 38.88492316666667}, {"type": "electric_bike", "fusion_lon": 0.0, "name": "701cb0d5e7577c6d8885135dbd429d7a", "lon": -77.03256316666666, "fusion_lat": 0.0, "is_disabled": 0, "is_reserved": 0, "rental_uris": {"ios": "https://dc.lft.to/lastmile_qr_scan", "android": "https://dc.lft.to/lastmile_qr_scan"}, "bike_id": "701cb0d5e7577c6d8885135dbd429d7a", "lat": 38.88077216666667}, {"type": "electric_scooter", "fusion_lon": 0.0, "name": "6f5d5507666d16d9ce3f1efdc19fa1d1", "lon": -77.00742366666667, "fusion_lat": 0.0, "is_disabled": 0, "is_reserved": 0, "rental_uris": {"ios": "https://dc.lft.to/lastmile_qr_scan", "android": "https://dc.lft.to/lastmile_qr_scan"}, "bike_id": "6f5d5507666d16d9ce3f1efdc19fa1d1", "lat": 38.876460333333334}, {"type": "electric_scooter", "fusion_lon": 0.0, "name": "f84d843619c2d20e578c1b66c3409379", "lon": -76.99626816666667, "fusion_lat": 0.0, "is_disabled": 0, "is_reserved": 0, "rental_uris": {"ios": "https://dc.lft.to/lastmile_qr_scan", "android": "https://dc.lft.to/lastmile_qr_scan"}, "bike_id": "f84d843619c2d20e578c1b66c3409379", "lat": 38.921854}, {"type": "electric_scooter", "fusion_lon": 0.0, "name": "a0ec0f678151ec2d261135513213d18c", "lon": -77.0286135, "fusion_lat": 0.0, "is_disabled": 0, "is_reserved": 0, "rental_uris": {"ios": "https://dc.lft.to/lastmile_qr_scan", "android": "https://dc.lft.to/lastmile_qr_scan"}, "bike_id": "a0ec0f678151ec2d261135513213d18c", "lat": 38.881974666666665}, {"type": "electric_scooter", "fusion_lon": 0.0, "name": "ba53a61adaed2c0e645d221b533f3d73", "lon": -77.02612966666666, "fusion_lat": 0.0, "is_disabled": 0, "is_reserved": 0, "rental_uris": {"ios": "https://dc.lft.to/lastmile_qr_scan", "android": "https://dc.lft.to/lastmile_qr_scan"}, "bike_id": "ba53a61adaed2c0e645d221b533f3d73", "lat": 38.92582083333333}, {"type": "electric_scooter", "fusion_lon": 0.0, "name": "28f15a0b459f19c3bb63cde218fdf7ac", "lon": -77.00733966666667, "fusion_lat": 0.0, "is_disabled": 0, "is_reserved": 0, "rental_uris": {"ios": "https://dc.lft.to/lastmile_qr_scan", "android": "https://dc.lft.to/lastmile_qr_scan"}, "bike_id": "28f15a0b459f19c3bb63cde218fdf7ac", "lat": 38.90073483333333}, {"type": "electric_bike", "fusion_lon": 0.0, "name": "d8abdc5468b9be1de3b9e99d10e480ff", "lon": -77.0969, "fusion_lat": 0.0, "is_disabled": 0, "is_reserved": 0, "rental_uris": {"ios": "https://dc.lft.to/lastmile_qr_scan", "android": "https://dc.lft.to/lastmile_qr_scan"}, "bike_id": "d8abdc5468b9be1de3b9e99d10e480ff", "lat": 38.807390166666664}, {"type": "electric_scooter", "fusion_lon": 0.0, "name": "8d528ceda08c3717c9d8f6342ba20e78", "lon": -77.02816533333333, "fusion_lat": 0.0, "is_disabled": 0, "is_reserved": 0, "rental_uris": {"ios": "https://dc.lft.to/lastmile_qr_scan", "android": "https://dc.lft.to/lastmile_qr_scan"}, "bike_id": "8d528ceda08c3717c9d8f6342ba20e78", "lat": 38.8959315}, {"type": "electric_scooter", "fusion_lon": 0.0, "name": "8f074608142047d249f8920c39879fe8", "lon": -77.03285483333333, "fusion_lat": 0.0, "is_disabled": 0, "is_reserved": 0, "rental_uris": {"ios": "https://dc.lft.to/lastmile_qr_scan", "android": "https://dc.lft.to/lastmile_qr_scan"}, "bike_id": "8f074608142047d249f8920c39879fe8", "lat": 38.905693166666666}, {"type": "electric_scooter", "fusion_lon": 0.0, "name": "2e0be7eb006db2b1873ec5b7ecd82fa7", "lon": -76.92791416666667, "fusion_lat": 0.0, "is_disabled": 0, "is_reserved": 0, "rental_uris": {"ios": "https://dc.lft.to/lastmile_qr_scan", "android": "https://dc.lft.to/lastmile_qr_scan"}, "bike_id": "2e0be7eb006db2b1873ec5b7ecd82fa7", "lat": 38.883616}, {"type": "electric_scooter", "fusion_lon": 0.0, "name": "f28226a061906e60fd1934109dfa3418", "lon": -77.0435995, "fusion_lat": 0.0, "is_disabled": 0, "is_reserved": 0, "rental_uris": {"ios": "https://dc.lft.to/lastmile_qr_scan", "android": "https://dc.lft.to/lastmile_qr_scan"}, "bike_id": "f28226a061906e60fd1934109dfa3418", "lat": 38.90721883333333}, {"type": "electric_scooter", "fusion_lon": 0.0, "name": "13a3f5ba847f148ad2261c4ace83005d", "lon": -77.04382183333334, "fusion_lat": 0.0, "is_disabled": 0, "is_reserved": 0, "rental_uris": {"ios": "https://dc.lft.to/lastmile_qr_scan", "android": "https://dc.lft.to/lastmile_qr_scan"}, "bike_id": "13a3f5ba847f148ad2261c4ace83005d", "lat": 38.90144016666667}, {"type": "electric_scooter", "fusion_lon": 0.0, "name": "e48ba3545d621a4668eab1746563cf7f", "lon": -77.07890533333334, "fusion_lat": 0.0, "is_disabled": 0, "is_reserved": 0, "rental_uris": {"ios": "https://dc.lft.to/lastmile_qr_scan", "android": "https://dc.lft.to/lastmile_qr_scan"}, "bike_id": "e48ba3545d621a4668eab1746563cf7f", "lat": 38.92866716666666}, {"type": "electric_scooter", "fusion_lon": 0.0, "name": "d21cf343eee791480e3f671f853d224e", "lon": -77.02982966666667, "fusion_lat": 0.0, "is_disabled": 0, "is_reserved": 0, "rental_uris": {"ios": "https://dc.lft.to/lastmile_qr_scan", "android": "https://dc.lft.to/lastmile_qr_scan"}, "bike_id": "d21cf343eee791480e3f671f853d224e", "lat": 38.9018655}, {"type": "electric_scooter", "fusion_lon": 0.0, "name": "6938c217dd4b5351083ab50d996491cb", "lon": -77.056864, "fusion_lat": 0.0, "is_disabled": 0, "is_reserved": 0, "rental_uris": {"ios": "https://dc.lft.to/lastmile_qr_scan", "android": "https://dc.lft.to/lastmile_qr_scan"}, "bike_id": "6938c217dd4b5351083ab50d996491cb", "lat": 38.923343833333334}, {"type": "electric_scooter", "fusion_lon": 0.0, "name": "ca11d0526bbf272a0233c50304dc9248", "lon": -77.05040633333333, "fusion_lat": 0.0, "is_disabled": 0, "is_reserved": 0, "rental_uris": {"ios": "https://dc.lft.to/lastmile_qr_scan", "android": "https://dc.lft.to/lastmile_qr_scan"}, "bike_id": "ca11d0526bbf272a0233c50304dc9248", "lat": 38.915735833333336}, {"type": "electric_scooter", "fusion_lon": 0.0, "name": "a1ab373ebe5f8dc4b57e3bd7c89b3161", "lon": -77.00921033333333, "fusion_lat": 0.0, "is_disabled": 0, "is_reserved": 0, "rental_uris": {"ios": "https://dc.lft.to/lastmile_qr_scan", "android": "https://dc.lft.to/lastmile_qr_scan"}, "bike_id": "a1ab373ebe5f8dc4b57e3bd7c89b3161", "lat": 38.895559}, {"type": "electric_scooter", "fusion_lon": 0.0, "name": "645179d7eb1b9b4e6c9ba647e3a55d30", "lon": -77.02845233333333, "fusion_lat": 0.0, "is_disabled": 0, "is_reserved": 0, "rental_uris": {"ios": "https://dc.lft.to/lastmile_qr_scan", "android": "https://dc.lft.to/lastmile_qr_scan"}, "bike_id": "645179d7eb1b9b4e6c9ba647e3a55d30", "lat": 38.886574}, {"type": "electric_scooter", "fusion_lon": 0.0, "name": "205b8eaa210034956102846bfccf6318", "lon": -76.98999116666667, "fusion_lat": 0.0, "is_disabled": 0, "is_reserved": 0, "rental_uris": {"ios": "https://dc.lft.to/lastmile_qr_scan", "android": "https://dc.lft.to/lastmile_qr_scan"}, "bike_id": "205b8eaa210034956102846bfccf6318", "lat": 38.8689335}, {"type": "electric_scooter", "fusion_lon": 0.0, "name": "083d2fca87a45ad95d7ac411285bcd7d", "lon": -76.98321966666667, "fusion_lat": 0.0, "is_disabled": 0, "is_reserved": 0, "rental_uris": {"ios": "https://dc.lft.to/lastmile_qr_scan", "android": "https://dc.lft.to/lastmile_qr_scan"}, "bike_id": "083d2fca87a45ad95d7ac411285bcd7d", "lat": 38.89602416666666}, {"type": "electric_scooter", "fusion_lon": 0.0, "name": "9255aafe7f5fd24215439684ace89a2d", "lon": -77.03136266666667, "fusion_lat": 0.0, "is_disabled": 0, "is_reserved": 0, "rental_uris": {"ios": "https://dc.lft.to/lastmile_qr_scan", "android": "https://dc.lft.to/lastmile_qr_scan"}, "bike_id": "9255aafe7f5fd24215439684ace89a2d", "lat": 38.916298}, {"type": "electric_bike", "fusion_lon": 0.0, "name": "c914cbd4031f912959eb4fcf4426ca1e", "lon": -76.91122483333334, "fusion_lat": 0.0, "is_disabled": 0, "is_reserved": 0, "rental_uris": {"ios": "https://dc.lft.to/lastmile_qr_scan", "android": "https://dc.lft.to/lastmile_qr_scan"}, "bike_id": "c914cbd4031f912959eb4fcf4426ca1e", "lat": 38.998817833333334}, {"type": "electric_scooter", "fusion_lon": 0.0, "name": "5efab33fcd653283e2a43ec757ad7339", "lon": -77.066259, "fusion_lat": 0.0, "is_disabled": 0, "is_reserved": 0, "rental_uris": {"ios": "https://dc.lft.to/lastmile_qr_scan", "android": "https://dc.lft.to/lastmile_qr_scan"}, "bike_id": "5efab33fcd653283e2a43ec757ad7339", "lat": 38.943570333333334}, {"type": "electric_scooter", "fusion_lon": 0.0, "name": "ad275820a50b413196a760032e75a8a1", "lon": -77.0461355, "fusion_lat": 0.0, "is_disabled": 0, "is_reserved": 0, "rental_uris": {"ios": "https://dc.lft.to/lastmile_qr_scan", "android": "https://dc.lft.to/lastmile_qr_scan"}, "bike_id": "ad275820a50b413196a760032e75a8a1", "lat": 38.91887416666667}, {"type": "electric_scooter", "fusion_lon": 0.0, "name": "1b0d540a3def8675031583fa533d7b0f", "lon": -77.0230065, "fusion_lat": 0.0, "is_disabled": 0, "is_reserved": 0, "rental_uris": {"ios": "https://dc.lft.to/lastmile_qr_scan", "android": "https://dc.lft.to/lastmile_qr_scan"}, "bike_id": "1b0d540a3def8675031583fa533d7b0f", "lat": 38.92687183333334}, {"type": "electric_scooter", "fusion_lon": 0.0, "name": "430db43acf3296485add13df3cd8caeb", "lon": -77.04349433333333, "fusion_lat": 0.0, "is_disabled": 0, "is_reserved": 0, "rental_uris": {"ios": "https://dc.lft.to/lastmile_qr_scan", "android": "https://dc.lft.to/lastmile_qr_scan"}, "bike_id": "430db43acf3296485add13df3cd8caeb", "lat": 38.89810116666666}, {"type": "electric_scooter", "fusion_lon": 0.0, "name": "5b8717d7975d24806cea64352d2d0437", "lon": -77.039688, "fusion_lat": 0.0, "is_disabled": 0, "is_reserved": 0, "rental_uris": {"ios": "https://dc.lft.to/lastmile_qr_scan", "android": "https://dc.lft.to/lastmile_qr_scan"}, "bike_id": "5b8717d7975d24806cea64352d2d0437", "lat": 38.90031033333333}, {"type": "electric_bike", "fusion_lon": 0.0, "name": "69a28cb2b9c5a047480135e48879ba1a", "lon": -76.97238166666666, "fusion_lat": 0.0, "is_disabled": 0, "is_reserved": 0, "rental_uris": {"ios": "https://dc.lft.to/lastmile_qr_scan", "android": "https://dc.lft.to/lastmile_qr_scan"}, "bike_id": "69a28cb2b9c5a047480135e48879ba1a", "lat": 38.90434233333333}, {"type": "electric_scooter", "fusion_lon": 0.0, "name": "4f2a31c6460c6badd8dfba7d004f82e5", "lon": -77.03792533333333, "fusion_lat": 0.0, "is_disabled": 0, "is_reserved": 0, "rental_uris": {"ios": "https://dc.lft.to/lastmile_qr_scan", "android": "https://dc.lft.to/lastmile_qr_scan"}, "bike_id": "4f2a31c6460c6badd8dfba7d004f82e5", "lat": 38.9181545}, {"type": "electric_scooter", "fusion_lon": 0.0, "name": "ebba24824c6a780c9d54895c14f76e4a", "lon": -77.03718783333333, "fusion_lat": 0.0, "is_disabled": 0, "is_reserved": 0, "rental_uris": {"ios": "https://dc.lft.to/lastmile_qr_scan", "android": "https://dc.lft.to/lastmile_qr_scan"}, "bike_id": "ebba24824c6a780c9d54895c14f76e4a", "lat": 38.9266345}, {"type": "electric_scooter", "fusion_lon": 0.0, "name": "9bc889c160769d96f9b2f60799b3f4ca", "lon": -77.01509666666666, "fusion_lat": 0.0, "is_disabled": 0, "is_reserved": 0, "rental_uris": {"ios": "https://dc.lft.to/lastmile_qr_scan", "android": "https://dc.lft.to/lastmile_qr_scan"}, "bike_id": "9bc889c160769d96f9b2f60799b3f4ca", "lat": 38.926777666666666}, {"type": "electric_scooter", "fusion_lon": 0.0, "name": "f3ad7a477592d6efc1093b8c0a6dbcd2", "lon": -77.048651, "fusion_lat": 0.0, "is_disabled": 0, "is_reserved": 0, "rental_uris": {"ios": "https://dc.lft.to/lastmile_qr_scan", "android": "https://dc.lft.to/lastmile_qr_scan"}, "bike_id": "f3ad7a477592d6efc1093b8c0a6dbcd2", "lat": 38.911357}, {"type": "electric_scooter", "fusion_lon": 0.0, "name": "c207c93d20b7c1e715948310d366c003", "lon": -77.055983, "fusion_lat": 0.0, "is_disabled": 0, "is_reserved": 0, "rental_uris": {"ios": "https://dc.lft.to/lastmile_qr_scan", "android": "https://dc.lft.to/lastmile_qr_scan"}, "bike_id": "c207c93d20b7c1e715948310d366c003", "lat": 38.93702533333333}, {"type": "electric_scooter", "fusion_lon": 0.0, "name": "915a89229956d397c9fc3e9c086bc4f5", "lon": -77.04361216666666, "fusion_lat": 0.0, "is_disabled": 0, "is_reserved": 0, "rental_uris": {"ios": "https://dc.lft.to/lastmile_qr_scan", "android": "https://dc.lft.to/lastmile_qr_scan"}, "bike_id": "915a89229956d397c9fc3e9c086bc4f5", "lat": 38.89626483333333}, {"type": "electric_scooter", "fusion_lon": 0.0, "name": "40e75c7bf5ab5ea43c1f02b60995e215", "lon": -77.04770166666667, "fusion_lat": 0.0, "is_disabled": 0, "is_reserved": 0, "rental_uris": {"ios": "https://dc.lft.to/lastmile_qr_scan", "android": "https://dc.lft.to/lastmile_qr_scan"}, "bike_id": "40e75c7bf5ab5ea43c1f02b60995e215", "lat": 38.900948166666666}, {"type": "electric_scooter", "fusion_lon": 0.0, "name": "4dbe9b964a81f5332c762b232a7b3ed5", "lon": -77.02224266666667, "fusion_lat": 0.0, "is_disabled": 0, "is_reserved": 0, "rental_uris": {"ios": "https://dc.lft.to/lastmile_qr_scan", "android": "https://dc.lft.to/lastmile_qr_scan"}, "bike_id": "4dbe9b964a81f5332c762b232a7b3ed5", "lat": 38.921161166666664}, {"type": "electric_scooter", "fusion_lon": 0.0, "name": "ba5ccffbc58c4d8991bf39b997e7b265", "lon": -77.04219533333334, "fusion_lat": 0.0, "is_disabled": 0, "is_reserved": 0, "rental_uris": {"ios": "https://dc.lft.to/lastmile_qr_scan", "android": "https://dc.lft.to/lastmile_qr_scan"}, "bike_id": "ba5ccffbc58c4d8991bf39b997e7b265", "lat": 38.90908}, {"type": "electric_scooter", "fusion_lon": 0.0, "name": "6fe420e3ffaa1dd1596d20318caaad99", "lon": -77.0216485, "fusion_lat": 0.0, "is_disabled": 0, "is_reserved": 0, "rental_uris": {"ios": "https://dc.lft.to/lastmile_qr_scan", "android": "https://dc.lft.to/lastmile_qr_scan"}, "bike_id": "6fe420e3ffaa1dd1596d20318caaad99", "lat": 38.92616966666667}, {"type": "electric_scooter", "fusion_lon": 0.0, "name": "aba96de388bca60cf1de5b49a4ef4bd7", "lon": -77.04385083333334, "fusion_lat": 0.0, "is_disabled": 0, "is_reserved": 0, "rental_uris": {"ios": "https://dc.lft.to/lastmile_qr_scan", "android": "https://dc.lft.to/lastmile_qr_scan"}, "bike_id": "aba96de388bca60cf1de5b49a4ef4bd7", "lat": 38.8920055}, {"type": "electric_bike", "fusion_lon": 0.0, "name": "584daf194bef9b2b8abf22e0499dd84a", "lon": -76.98351283333334, "fusion_lat": 0.0, "is_disabled": 0, "is_reserved": 0, "rental_uris": {"ios": "https://dc.lft.to/lastmile_qr_scan", "android": "https://dc.lft.to/lastmile_qr_scan"}, "bike_id": "584daf194bef9b2b8abf22e0499dd84a", "lat": 38.862647}, {"type": "electric_scooter", "fusion_lon": 0.0, "name": "4e80c2bdba69f735c35cfb1af15b06bd", "lon": -76.93275616666666, "fusion_lat": 0.0, "is_disabled": 0, "is_reserved": 0, "rental_uris": {"ios": "https://dc.lft.to/lastmile_qr_scan", "android": "https://dc.lft.to/lastmile_qr_scan"}, "bike_id": "4e80c2bdba69f735c35cfb1af15b06bd", "lat": 38.904557833333335}, {"type": "electric_scooter", "fusion_lon": 0.0, "name": "4d21a96e41199168a37debe904b9d057", "lon": -77.03256233333333, "fusion_lat": 0.0, "is_disabled": 0, "is_reserved": 0, "rental_uris": {"ios": "https://dc.lft.to/lastmile_qr_scan", "android": "https://dc.lft.to/lastmile_qr_scan"}, "bike_id": "4d21a96e41199168a37debe904b9d057", "lat": 38.911953833333335}, {"type": "electric_scooter", "fusion_lon": 0.0, "name": "2a508a1d8a17695bb4a92a77557d8274", "lon": -77.04144816666667, "fusion_lat": 0.0, "is_disabled": 0, "is_reserved": 0, "rental_uris": {"ios": "https://dc.lft.to/lastmile_qr_scan", "android": "https://dc.lft.to/lastmile_qr_scan"}, "bike_id": "2a508a1d8a17695bb4a92a77557d8274", "lat": 38.923007}, {"type": "electric_scooter", "fusion_lon": 0.0, "name": "e19433cfc7f5fbc0de27db93b0ef4177", "lon": -77.02763683333333, "fusion_lat": 0.0, "is_disabled": 0, "is_reserved": 0, "rental_uris": {"ios": "https://dc.lft.to/lastmile_qr_scan", "android": "https://dc.lft.to/lastmile_qr_scan"}, "bike_id": "e19433cfc7f5fbc0de27db93b0ef4177", "lat": 38.965700166666664}, {"type": "electric_scooter", "fusion_lon": 0.0, "name": "11975a0f49378d9d6608f6d4c1010efb", "lon": -77.05157283333334, "fusion_lat": 0.0, "is_disabled": 0, "is_reserved": 0, "rental_uris": {"ios": "https://dc.lft.to/lastmile_qr_scan", "android": "https://dc.lft.to/lastmile_qr_scan"}, "bike_id": "11975a0f49378d9d6608f6d4c1010efb", "lat": 38.92138816666667}, {"type": "electric_scooter", "fusion_lon": 0.0, "name": "c7550bb8b1ddc4b7a9c15aaaf41e5fba", "lon": -77.04341216666667, "fusion_lat": 0.0, "is_disabled": 0, "is_reserved": 0, "rental_uris": {"ios": "https://dc.lft.to/lastmile_qr_scan", "android": "https://dc.lft.to/lastmile_qr_scan"}, "bike_id": "c7550bb8b1ddc4b7a9c15aaaf41e5fba", "lat": 38.892221166666666}, {"type": "electric_bike", "fusion_lon": 0.0, "name": "a1f560428d522a2a2fb682279f8fcf1a", "lon": -76.97703666666666, "fusion_lat": 0.0, "is_disabled": 0, "is_reserved": 0, "rental_uris": {"ios": "https://dc.lft.to/lastmile_qr_scan", "android": "https://dc.lft.to/lastmile_qr_scan"}, "bike_id": "a1f560428d522a2a2fb682279f8fcf1a", "lat": 38.82206733333334}, {"type": "electric_bike", "fusion_lon": 0.0, "name": "d02a58ebc85e3ff38b7763bc71450f80", "lon": -77.0102915, "fusion_lat": 0.0, "is_disabled": 0, "is_reserved": 0, "rental_uris": {"ios": "https://dc.lft.to/lastmile_qr_scan", "android": "https://dc.lft.to/lastmile_qr_scan"}, "bike_id": "d02a58ebc85e3ff38b7763bc71450f80", "lat": 38.9560065}, {"type": "electric_scooter", "fusion_lon": 0.0, "name": "71048cc71291b48870b4ccc602f71d1d", "lon": -77.03435866666666, "fusion_lat": 0.0, "is_disabled": 0, "is_reserved": 0, "rental_uris": {"ios": "https://dc.lft.to/lastmile_qr_scan", "android": "https://dc.lft.to/lastmile_qr_scan"}, "bike_id": "71048cc71291b48870b4ccc602f71d1d", "lat": 38.91025583333333}, {"type": "electric_bike", "fusion_lon": 0.0, "name": "3790343a70069b6e565ee9c10c02dd10", "lon": -76.952531, "fusion_lat": 0.0, "is_disabled": 0, "is_reserved": 0, "rental_uris": {"ios": "https://dc.lft.to/lastmile_qr_scan", "android": "https://dc.lft.to/lastmile_qr_scan"}, "bike_id": "3790343a70069b6e565ee9c10c02dd10", "lat": 38.906931666666665}, {"type": "electric_scooter", "fusion_lon": 0.0, "name": "ebc3d535d1adb414a4ccb1a428811850", "lon": -77.02676616666666, "fusion_lat": 0.0, "is_disabled": 0, "is_reserved": 0, "rental_uris": {"ios": "https://dc.lft.to/lastmile_qr_scan", "android": "https://dc.lft.to/lastmile_qr_scan"}, "bike_id": "ebc3d535d1adb414a4ccb1a428811850", "lat": 38.8947545}, {"type": "electric_scooter", "fusion_lon": 0.0, "name": "4bd29026ec77cafad326208b1534b2f8", "lon": -77.03430233333333, "fusion_lat": 0.0, "is_disabled": 0, "is_reserved": 0, "rental_uris": {"ios": "https://dc.lft.to/lastmile_qr_scan", "android": "https://dc.lft.to/lastmile_qr_scan"}, "bike_id": "4bd29026ec77cafad326208b1534b2f8", "lat": 38.91917816666667}, {"type": "electric_scooter", "fusion_lon": 0.0, "name": "79940c2de24fc425efb4668b384d902c", "lon": -77.00058583333333, "fusion_lat": 0.0, "is_disabled": 0, "is_reserved": 0, "rental_uris": {"ios": "https://dc.lft.to/lastmile_qr_scan", "android": "https://dc.lft.to/lastmile_qr_scan"}, "bike_id": "79940c2de24fc425efb4668b384d902c", "lat": 38.919036}, {"type": "electric_scooter", "fusion_lon": 0.0, "name": "bf4f3cf14fea6a2a237b9f16465a3585", "lon": -77.03711683333333, "fusion_lat": 0.0, "is_disabled": 0, "is_reserved": 0, "rental_uris": {"ios": "https://dc.lft.to/lastmile_qr_scan", "android": "https://dc.lft.to/lastmile_qr_scan"}, "bike_id": "bf4f3cf14fea6a2a237b9f16465a3585", "lat": 38.91337716666666}, {"type": "electric_scooter", "fusion_lon": 0.0, "name": "1f40d410c6d31dd024ceaa48b54add2b", "lon": -77.03185766666667, "fusion_lat": 0.0, "is_disabled": 0, "is_reserved": 0, "rental_uris": {"ios": "https://dc.lft.to/lastmile_qr_scan", "android": "https://dc.lft.to/lastmile_qr_scan"}, "bike_id": "1f40d410c6d31dd024ceaa48b54add2b", "lat": 38.915462}, {"type": "electric_scooter", "fusion_lon": 0.0, "name": "779d909505f5c82923c4b9e783639718", "lon": -77.004116, "fusion_lat": 0.0, "is_disabled": 0, "is_reserved": 0, "rental_uris": {"ios": "https://dc.lft.to/lastmile_qr_scan", "android": "https://dc.lft.to/lastmile_qr_scan"}, "bike_id": "779d909505f5c82923c4b9e783639718", "lat": 38.87673366666667}, {"type": "electric_scooter", "fusion_lon": 0.0, "name": "5ecaeda5df1c575c67f8dab31f372b34", "lon": -76.94856633333333, "fusion_lat": 0.0, "is_disabled": 0, "is_reserved": 0, "rental_uris": {"ios": "https://dc.lft.to/lastmile_qr_scan", "android": "https://dc.lft.to/lastmile_qr_scan"}, "bike_id": "5ecaeda5df1c575c67f8dab31f372b34", "lat": 38.86683}, {"type": "electric_scooter", "fusion_lon": 0.0, "name": "a9ea0700701e308f7bf7c4baf350c595", "lon": -77.02638066666667, "fusion_lat": 0.0, "is_disabled": 0, "is_reserved": 0, "rental_uris": {"ios": "https://dc.lft.to/lastmile_qr_scan", "android": "https://dc.lft.to/lastmile_qr_scan"}, "bike_id": "a9ea0700701e308f7bf7c4baf350c595", "lat": 38.8849775}, {"type": "electric_scooter", "fusion_lon": 0.0, "name": "186b17787c3d2c29f5d69e6512ba10b4", "lon": -76.98226783333334, "fusion_lat": 0.0, "is_disabled": 0, "is_reserved": 0, "rental_uris": {"ios": "https://dc.lft.to/lastmile_qr_scan", "android": "https://dc.lft.to/lastmile_qr_scan"}, "bike_id": "186b17787c3d2c29f5d69e6512ba10b4", "lat": 38.85625566666667}, {"type": "electric_scooter", "fusion_lon": 0.0, "name": "69ee06ced34cba14c873ad6e0c29a03e", "lon": -77.04245066666667, "fusion_lat": 0.0, "is_disabled": 0, "is_reserved": 0, "rental_uris": {"ios": "https://dc.lft.to/lastmile_qr_scan", "android": "https://dc.lft.to/lastmile_qr_scan"}, "bike_id": "69ee06ced34cba14c873ad6e0c29a03e", "lat": 38.907649}, {"type": "electric_scooter", "fusion_lon": 0.0, "name": "28ce4d5691f238a9d3460acc2db8d5a3", "lon": -77.0366475, "fusion_lat": 0.0, "is_disabled": 0, "is_reserved": 0, "rental_uris": {"ios": "https://dc.lft.to/lastmile_qr_scan", "android": "https://dc.lft.to/lastmile_qr_scan"}, "bike_id": "28ce4d5691f238a9d3460acc2db8d5a3", "lat": 38.92121933333333}, {"type": "electric_scooter", "fusion_lon": 0.0, "name": "5bf286cdcb5a869211628c8772fdacce", "lon": -77.023685, "fusion_lat": 0.0, "is_disabled": 0, "is_reserved": 0, "rental_uris": {"ios": "https://dc.lft.to/lastmile_qr_scan", "android": "https://dc.lft.to/lastmile_qr_scan"}, "bike_id": "5bf286cdcb5a869211628c8772fdacce", "lat": 38.89225733333333}, {"type": "electric_bike", "fusion_lon": 0.0, "name": "de11f0404cdfa64a2ff8d8beb868bf4a", "lon": -77.02400866666666, "fusion_lat": 0.0, "is_disabled": 0, "is_reserved": 0, "rental_uris": {"ios": "https://dc.lft.to/lastmile_qr_scan", "android": "https://dc.lft.to/lastmile_qr_scan"}, "bike_id": "de11f0404cdfa64a2ff8d8beb868bf4a", "lat": 38.91605533333333}, {"type": "electric_bike", "fusion_lon": 0.0, "name": "b7b8680f925eefa937ad01b5011c1a62", "lon": -77.057417, "fusion_lat": 0.0, "is_disabled": 0, "is_reserved": 0, "rental_uris": {"ios": "https://dc.lft.to/lastmile_qr_scan", "android": "https://dc.lft.to/lastmile_qr_scan"}, "bike_id": "b7b8680f925eefa937ad01b5011c1a62", "lat": 38.8076785}, {"type": "electric_scooter", "fusion_lon": 0.0, "name": "3c7592afdb4540701623ddf896cea10c", "lon": -77.04514366666666, "fusion_lat": 0.0, "is_disabled": 0, "is_reserved": 0, "rental_uris": {"ios": "https://dc.lft.to/lastmile_qr_scan", "android": "https://dc.lft.to/lastmile_qr_scan"}, "bike_id": "3c7592afdb4540701623ddf896cea10c", "lat": 38.9078345}, {"type": "electric_scooter", "fusion_lon": 0.0, "name": "4ea5140c9329db68f978b2b8ead088a4", "lon": -77.0400865, "fusion_lat": 0.0, "is_disabled": 0, "is_reserved": 0, "rental_uris": {"ios": "https://dc.lft.to/lastmile_qr_scan", "android": "https://dc.lft.to/lastmile_qr_scan"}, "bike_id": "4ea5140c9329db68f978b2b8ead088a4", "lat": 38.90157383333333}, {"type": "electric_scooter", "fusion_lon": 0.0, "name": "6718ba20e9a5e8b0e99dcead78f64db6", "lon": -77.045197, "fusion_lat": 0.0, "is_disabled": 0, "is_reserved": 0, "rental_uris": {"ios": "https://dc.lft.to/lastmile_qr_scan", "android": "https://dc.lft.to/lastmile_qr_scan"}, "bike_id": "6718ba20e9a5e8b0e99dcead78f64db6", "lat": 38.907819833333335}, {"type": "electric_scooter", "fusion_lon": 0.0, "name": "742baa3f9383e38bfd4b79c526d456a3", "lon": -76.94970516666666, "fusion_lat": 0.0, "is_disabled": 0, "is_reserved": 0, "rental_uris": {"ios": "https://dc.lft.to/lastmile_qr_scan", "android": "https://dc.lft.to/lastmile_qr_scan"}, "bike_id": "742baa3f9383e38bfd4b79c526d456a3", "lat": 38.90487733333333}, {"type": "electric_scooter", "fusion_lon": 0.0, "name": "ff4b5e6f502ae36cdccac1ab13fd3b09", "lon": -77.02086516666667, "fusion_lat": 0.0, "is_disabled": 0, "is_reserved": 0, "rental_uris": {"ios": "https://dc.lft.to/lastmile_qr_scan", "android": "https://dc.lft.to/lastmile_qr_scan"}, "bike_id": "ff4b5e6f502ae36cdccac1ab13fd3b09", "lat": 38.922577833333335}, {"type": "electric_scooter", "fusion_lon": 0.0, "name": "c72e6c01273d74aa258affa8a0224b24", "lon": -76.997994, "fusion_lat": 0.0, "is_disabled": 0, "is_reserved": 0, "rental_uris": {"ios": "https://dc.lft.to/lastmile_qr_scan", "android": "https://dc.lft.to/lastmile_qr_scan"}, "bike_id": "c72e6c01273d74aa258affa8a0224b24", "lat": 38.908554}, {"type": "electric_scooter", "fusion_lon": 0.0, "name": "dca40c298620211d47099599cb310c51", "lon": -77.02316033333334, "fusion_lat": 0.0, "is_disabled": 0, "is_reserved": 0, "rental_uris": {"ios": "https://dc.lft.to/lastmile_qr_scan", "android": "https://dc.lft.to/lastmile_qr_scan"}, "bike_id": "dca40c298620211d47099599cb310c51", "lat": 38.94924666666667}, {"type": "electric_scooter", "fusion_lon": 0.0, "name": "9cdfdd458771dfbf6297eb21246471fb", "lon": -77.03864016666667, "fusion_lat": 0.0, "is_disabled": 0, "is_reserved": 0, "rental_uris": {"ios": "https://dc.lft.to/lastmile_qr_scan", "android": "https://dc.lft.to/lastmile_qr_scan"}, "bike_id": "9cdfdd458771dfbf6297eb21246471fb", "lat": 38.912586166666664}, {"type": "electric_scooter", "fusion_lon": 0.0, "name": "89a5f7a5385aa8aeb6d5807e1f6e8f39", "lon": -77.04510283333333, "fusion_lat": 0.0, "is_disabled": 0, "is_reserved": 0, "rental_uris": {"ios": "https://dc.lft.to/lastmile_qr_scan", "android": "https://dc.lft.to/lastmile_qr_scan"}, "bike_id": "89a5f7a5385aa8aeb6d5807e1f6e8f39", "lat": 38.90949166666667}, {"type": "electric_scooter", "fusion_lon": 0.0, "name": "e0832683932c4d395a46c3101748ada6", "lon": -77.01243416666667, "fusion_lat": 0.0, "is_disabled": 0, "is_reserved": 0, "rental_uris": {"ios": "https://dc.lft.to/lastmile_qr_scan", "android": "https://dc.lft.to/lastmile_qr_scan"}, "bike_id": "e0832683932c4d395a46c3101748ada6", "lat": 38.89846883333333}, {"type": "electric_scooter", "fusion_lon": 0.0, "name": "22b67c597ec392eb522d01d83ca71c75", "lon": -77.0108995, "fusion_lat": 0.0, "is_disabled": 0, "is_reserved": 0, "rental_uris": {"ios": "https://dc.lft.to/lastmile_qr_scan", "android": "https://dc.lft.to/lastmile_qr_scan"}, "bike_id": "22b67c597ec392eb522d01d83ca71c75", "lat": 38.895499666666666}, {"type": "electric_scooter", "fusion_lon": 0.0, "name": "3c0587a2162a1f418727ff6fadd0fd49", "lon": -77.03665183333334, "fusion_lat": 0.0, "is_disabled": 0, "is_reserved": 0, "rental_uris": {"ios": "https://dc.lft.to/lastmile_qr_scan", "android": "https://dc.lft.to/lastmile_qr_scan"}, "bike_id": "3c0587a2162a1f418727ff6fadd0fd49", "lat": 38.9182855}, {"type": "electric_bike", "fusion_lon": 0.0, "name": "1f069a829b7615468b9e97900007f70d", "lon": -77.23413266666667, "fusion_lat": 0.0, "is_disabled": 0, "is_reserved": 0, "rental_uris": {"ios": "https://dc.lft.to/lastmile_qr_scan", "android": "https://dc.lft.to/lastmile_qr_scan"}, "bike_id": "1f069a829b7615468b9e97900007f70d", "lat": 38.875806}, {"type": "electric_scooter", "fusion_lon": 0.0, "name": "b4e8f73a7d066282ef0e45a112c4b5f2", "lon": -76.979727, "fusion_lat": 0.0, "is_disabled": 0, "is_reserved": 0, "rental_uris": {"ios": "https://dc.lft.to/lastmile_qr_scan", "android": "https://dc.lft.to/lastmile_qr_scan"}, "bike_id": "b4e8f73a7d066282ef0e45a112c4b5f2", "lat": 38.87072033333333}, {"type": "electric_scooter", "fusion_lon": 0.0, "name": "350d1c76320e8d911b4276e634714e71", "lon": -77.04246183333333, "fusion_lat": 0.0, "is_disabled": 0, "is_reserved": 0, "rental_uris": {"ios": "https://dc.lft.to/lastmile_qr_scan", "android": "https://dc.lft.to/lastmile_qr_scan"}, "bike_id": "350d1c76320e8d911b4276e634714e71", "lat": 38.9224135}, {"type": "electric_scooter", "fusion_lon": 0.0, "name": "5a111a72a1d2e331b14c1f282ee5d4f1", "lon": -76.9272435, "fusion_lat": 0.0, "is_disabled": 0, "is_reserved": 0, "rental_uris": {"ios": "https://dc.lft.to/lastmile_qr_scan", "android": "https://dc.lft.to/lastmile_qr_scan"}, "bike_id": "5a111a72a1d2e331b14c1f282ee5d4f1", "lat": 38.8803915}, {"type": "electric_scooter", "fusion_lon": 0.0, "name": "38b6455c20ca896bbd5daf5de1124633", "lon": -77.06303266666667, "fusion_lat": 0.0, "is_disabled": 0, "is_reserved": 0, "rental_uris": {"ios": "https://dc.lft.to/lastmile_qr_scan", "android": "https://dc.lft.to/lastmile_qr_scan"}, "bike_id": "38b6455c20ca896bbd5daf5de1124633", "lat": 38.906917666666665}, {"type": "electric_scooter", "fusion_lon": 0.0, "name": "3da2aef653eb9618177dc05be512f0fa", "lon": -77.03170466666667, "fusion_lat": 0.0, "is_disabled": 0, "is_reserved": 0, "rental_uris": {"ios": "https://dc.lft.to/lastmile_qr_scan", "android": "https://dc.lft.to/lastmile_qr_scan"}, "bike_id": "3da2aef653eb9618177dc05be512f0fa", "lat": 38.92030233333333}, {"type": "electric_scooter", "fusion_lon": 0.0, "name": "f380fbdb9d021e8d0393a0a219e9a96b", "lon": -77.03439766666666, "fusion_lat": 0.0, "is_disabled": 0, "is_reserved": 0, "rental_uris": {"ios": "https://dc.lft.to/lastmile_qr_scan", "android": "https://dc.lft.to/lastmile_qr_scan"}, "bike_id": "f380fbdb9d021e8d0393a0a219e9a96b", "lat": 38.918099833333336}, {"type": "electric_scooter", "fusion_lon": 0.0, "name": "408fcdea31873d390143f0b27274cb89", "lon": -77.01990783333333, "fusion_lat": 0.0, "is_disabled": 0, "is_reserved": 0, "rental_uris": {"ios": "https://dc.lft.to/lastmile_qr_scan", "android": "https://dc.lft.to/lastmile_qr_scan"}, "bike_id": "408fcdea31873d390143f0b27274cb89", "lat": 38.89513733333333}, {"type": "electric_scooter", "fusion_lon": 0.0, "name": "f9df6b371345d3762821056fe441b292", "lon": -77.005651, "fusion_lat": 0.0, "is_disabled": 0, "is_reserved": 0, "rental_uris": {"ios": "https://dc.lft.to/lastmile_qr_scan", "android": "https://dc.lft.to/lastmile_qr_scan"}, "bike_id": "f9df6b371345d3762821056fe441b292", "lat": 38.885021333333334}, {"type": "electric_scooter", "fusion_lon": 0.0, "name": "3cd15b2faaf15537887f6e8cbfb0b9ce", "lon": -77.0443575, "fusion_lat": 0.0, "is_disabled": 0, "is_reserved": 0, "rental_uris": {"ios": "https://dc.lft.to/lastmile_qr_scan", "android": "https://dc.lft.to/lastmile_qr_scan"}, "bike_id": "3cd15b2faaf15537887f6e8cbfb0b9ce", "lat": 38.901489833333336}, {"type": "electric_bike", "fusion_lon": 0.0, "name": "1f9a083d68b3cec8e1bea7ba13180039", "lon": -77.12886533333334, "fusion_lat": 0.0, "is_disabled": 0, "is_reserved": 0, "rental_uris": {"ios": "https://dc.lft.to/lastmile_qr_scan", "android": "https://dc.lft.to/lastmile_qr_scan"}, "bike_id": "1f9a083d68b3cec8e1bea7ba13180039", "lat": 38.905969166666665}, {"type": "electric_scooter", "fusion_lon": 0.0, "name": "5357c5f4bd6b6ee822b7efa9800daf9f", "lon": -77.02798216666666, "fusion_lat": 0.0, "is_disabled": 0, "is_reserved": 0, "rental_uris": {"ios": "https://dc.lft.to/lastmile_qr_scan", "android": "https://dc.lft.to/lastmile_qr_scan"}, "bike_id": "5357c5f4bd6b6ee822b7efa9800daf9f", "lat": 38.9071855}, {"type": "electric_scooter", "fusion_lon": 0.0, "name": "6a8995e404ae42e1b7b7ad214354089a", "lon": -77.00191466666666, "fusion_lat": 0.0, "is_disabled": 0, "is_reserved": 0, "rental_uris": {"ios": "https://dc.lft.to/lastmile_qr_scan", "android": "https://dc.lft.to/lastmile_qr_scan"}, "bike_id": "6a8995e404ae42e1b7b7ad214354089a", "lat": 38.887652833333334}, {"type": "electric_scooter", "fusion_lon": 0.0, "name": "d1b8fb11bce99aac5016174a8e969e68", "lon": -77.0282155, "fusion_lat": 0.0, "is_disabled": 0, "is_reserved": 0, "rental_uris": {"ios": "https://dc.lft.to/lastmile_qr_scan", "android": "https://dc.lft.to/lastmile_qr_scan"}, "bike_id": "d1b8fb11bce99aac5016174a8e969e68", "lat": 38.903518166666665}, {"type": "electric_scooter", "fusion_lon": 0.0, "name": "2baf3af22060c5c6e4b75c4b55602e58", "lon": -77.0298195, "fusion_lat": 0.0, "is_disabled": 0, "is_reserved": 0, "rental_uris": {"ios": "https://dc.lft.to/lastmile_qr_scan", "android": "https://dc.lft.to/lastmile_qr_scan"}, "bike_id": "2baf3af22060c5c6e4b75c4b55602e58", "lat": 38.934507833333335}, {"type": "electric_scooter", "fusion_lon": 0.0, "name": "ced154bba7ee2c941d7b1665ef0aef39", "lon": -77.02423133333333, "fusion_lat": 0.0, "is_disabled": 0, "is_reserved": 0, "rental_uris": {"ios": "https://dc.lft.to/lastmile_qr_scan", "android": "https://dc.lft.to/lastmile_qr_scan"}, "bike_id": "ced154bba7ee2c941d7b1665ef0aef39", "lat": 38.892205833333335}, {"type": "electric_scooter", "fusion_lon": 0.0, "name": "690e5ca45d349c103999a2231e9ca1e7", "lon": -77.05146983333333, "fusion_lat": 0.0, "is_disabled": 0, "is_reserved": 0, "rental_uris": {"ios": "https://dc.lft.to/lastmile_qr_scan", "android": "https://dc.lft.to/lastmile_qr_scan"}, "bike_id": "690e5ca45d349c103999a2231e9ca1e7", "lat": 38.905082666666665}, {"type": "electric_scooter", "fusion_lon": 0.0, "name": "227f7a9d7445ebb8e37492772b7748fe", "lon": -77.02618633333333, "fusion_lat": 0.0, "is_disabled": 0, "is_reserved": 0, "rental_uris": {"ios": "https://dc.lft.to/lastmile_qr_scan", "android": "https://dc.lft.to/lastmile_qr_scan"}, "bike_id": "227f7a9d7445ebb8e37492772b7748fe", "lat": 38.892243666666666}, {"type": "electric_scooter", "fusion_lon": 0.0, "name": "72b6e45462c9e611bd6d78e9a5164b69", "lon": -77.05422566666667, "fusion_lat": 0.0, "is_disabled": 0, "is_reserved": 0, "rental_uris": {"ios": "https://dc.lft.to/lastmile_qr_scan", "android": "https://dc.lft.to/lastmile_qr_scan"}, "bike_id": "72b6e45462c9e611bd6d78e9a5164b69", "lat": 38.928439166666664}, {"type": "electric_scooter", "fusion_lon": 0.0, "name": "350837a09efe12dc787b6f4ba5311a91", "lon": -76.9803175, "fusion_lat": 0.0, "is_disabled": 0, "is_reserved": 0, "rental_uris": {"ios": "https://dc.lft.to/lastmile_qr_scan", "android": "https://dc.lft.to/lastmile_qr_scan"}, "bike_id": "350837a09efe12dc787b6f4ba5311a91", "lat": 38.889722666666664}, {"type": "electric_scooter", "fusion_lon": 0.0, "name": "49f1d141f2f61f0b46199f85d0ccd981", "lon": -77.02279783333333, "fusion_lat": 0.0, "is_disabled": 0, "is_reserved": 0, "rental_uris": {"ios": "https://dc.lft.to/lastmile_qr_scan", "android": "https://dc.lft.to/lastmile_qr_scan"}, "bike_id": "49f1d141f2f61f0b46199f85d0ccd981", "lat": 38.887406}, {"type": "electric_scooter", "fusion_lon": 0.0, "name": "27ff9b6cfd6aee97b5445ee3f99037d5", "lon": -77.051027, "fusion_lat": 0.0, "is_disabled": 0, "is_reserved": 0, "rental_uris": {"ios": "https://dc.lft.to/lastmile_qr_scan", "android": "https://dc.lft.to/lastmile_qr_scan"}, "bike_id": "27ff9b6cfd6aee97b5445ee3f99037d5", "lat": 38.91565133333334}, {"type": "electric_scooter", "fusion_lon": 0.0, "name": "beb90ab32bdd21e23ca87fd5a5d7f41d", "lon": -77.02695033333333, "fusion_lat": 0.0, "is_disabled": 0, "is_reserved": 0, "rental_uris": {"ios": "https://dc.lft.to/lastmile_qr_scan", "android": "https://dc.lft.to/lastmile_qr_scan"}, "bike_id": "beb90ab32bdd21e23ca87fd5a5d7f41d", "lat": 38.9137875}, {"type": "electric_scooter", "fusion_lon": 0.0, "name": "7e42a9a2c6eec5820de9eebf842b7481", "lon": -77.01001766666667, "fusion_lat": 0.0, "is_disabled": 0, "is_reserved": 0, "rental_uris": {"ios": "https://dc.lft.to/lastmile_qr_scan", "android": "https://dc.lft.to/lastmile_qr_scan"}, "bike_id": "7e42a9a2c6eec5820de9eebf842b7481", "lat": 38.9104345}, {"type": "electric_scooter", "fusion_lon": 0.0, "name": "1bb7dea336490e05c4cdd88c28405d45", "lon": -77.03447916666667, "fusion_lat": 0.0, "is_disabled": 0, "is_reserved": 0, "rental_uris": {"ios": "https://dc.lft.to/lastmile_qr_scan", "android": "https://dc.lft.to/lastmile_qr_scan"}, "bike_id": "1bb7dea336490e05c4cdd88c28405d45", "lat": 38.91909033333334}, {"type": "electric_bike", "fusion_lon": 0.0, "name": "4d9439d5064c4ceade78a14cebdf37c0", "lon": -77.13937266666667, "fusion_lat": 0.0, "is_disabled": 0, "is_reserved": 0, "rental_uris": {"ios": "https://dc.lft.to/lastmile_qr_scan", "android": "https://dc.lft.to/lastmile_qr_scan"}, "bike_id": "4d9439d5064c4ceade78a14cebdf37c0", "lat": 38.846766333333335}, {"type": "electric_scooter", "fusion_lon": 0.0, "name": "b9bdab01e66519dd30d9d7cd11d7b236", "lon": -77.02266616666667, "fusion_lat": 0.0, "is_disabled": 0, "is_reserved": 0, "rental_uris": {"ios": "https://dc.lft.to/lastmile_qr_scan", "android": "https://dc.lft.to/lastmile_qr_scan"}, "bike_id": "b9bdab01e66519dd30d9d7cd11d7b236", "lat": 38.9248985}, {"type": "electric_scooter", "fusion_lon": 0.0, "name": "6463c1f13ba07aad22af4954c6d6f80d", "lon": -77.01805583333334, "fusion_lat": 0.0, "is_disabled": 0, "is_reserved": 0, "rental_uris": {"ios": "https://dc.lft.to/lastmile_qr_scan", "android": "https://dc.lft.to/lastmile_qr_scan"}, "bike_id": "6463c1f13ba07aad22af4954c6d6f80d", "lat": 38.91422883333333}, {"type": "electric_scooter", "fusion_lon": 0.0, "name": "3ad334d989cb2c3c3a195692dca13148", "lon": -76.9950155, "fusion_lat": 0.0, "is_disabled": 0, "is_reserved": 0, "rental_uris": {"ios": "https://dc.lft.to/lastmile_qr_scan", "android": "https://dc.lft.to/lastmile_qr_scan"}, "bike_id": "3ad334d989cb2c3c3a195692dca13148", "lat": 38.89518016666667}, {"type": "electric_scooter", "fusion_lon": 0.0, "name": "0d65f46a34b644142aeb25dfe51053fc", "lon": -77.02834866666667, "fusion_lat": 0.0, "is_disabled": 0, "is_reserved": 0, "rental_uris": {"ios": "https://dc.lft.to/lastmile_qr_scan", "android": "https://dc.lft.to/lastmile_qr_scan"}, "bike_id": "0d65f46a34b644142aeb25dfe51053fc", "lat": 38.93452766666667}, {"type": "electric_scooter", "fusion_lon": 0.0, "name": "3dd0a47cf77e744522b590ce065b3ff0", "lon": -77.072965, "fusion_lat": 0.0, "is_disabled": 0, "is_reserved": 0, "rental_uris": {"ios": "https://dc.lft.to/lastmile_qr_scan", "android": "https://dc.lft.to/lastmile_qr_scan"}, "bike_id": "3dd0a47cf77e744522b590ce065b3ff0", "lat": 38.90841666666667}, {"type": "electric_scooter", "fusion_lon": 0.0, "name": "375415d98477055a58c69c996a6651b0", "lon": -77.02406783333333, "fusion_lat": 0.0, "is_disabled": 0, "is_reserved": 0, "rental_uris": {"ios": "https://dc.lft.to/lastmile_qr_scan", "android": "https://dc.lft.to/lastmile_qr_scan"}, "bike_id": "375415d98477055a58c69c996a6651b0", "lat": 38.896998333333336}, {"type": "electric_scooter", "fusion_lon": 0.0, "name": "44ef2602c749c229dcc3f01f9c7fac5b", "lon": -77.02600516666666, "fusion_lat": 0.0, "is_disabled": 0, "is_reserved": 0, "rental_uris": {"ios": "https://dc.lft.to/lastmile_qr_scan", "android": "https://dc.lft.to/lastmile_qr_scan"}, "bike_id": "44ef2602c749c229dcc3f01f9c7fac5b", "lat": 38.91691183333333}, {"type": "electric_scooter", "fusion_lon": 0.0, "name": "3e4ff8ce77b5e5d05842cbd8915d1785", "lon": -77.02052433333333, "fusion_lat": 0.0, "is_disabled": 0, "is_reserved": 0, "rental_uris": {"ios": "https://dc.lft.to/lastmile_qr_scan", "android": "https://dc.lft.to/lastmile_qr_scan"}, "bike_id": "3e4ff8ce77b5e5d05842cbd8915d1785", "lat": 38.913616}, {"type": "electric_scooter", "fusion_lon": 0.0, "name": "3d42cb1ea07c6d7ac103b7f548f166ef", "lon": -77.023631, "fusion_lat": 0.0, "is_disabled": 0, "is_reserved": 0, "rental_uris": {"ios": "https://dc.lft.to/lastmile_qr_scan", "android": "https://dc.lft.to/lastmile_qr_scan"}, "bike_id": "3d42cb1ea07c6d7ac103b7f548f166ef", "lat": 38.92512116666666}, {"type": "electric_scooter", "fusion_lon": 0.0, "name": "a58f03ee12863d153e1da7e62d5cd2cb", "lon": -77.02617716666667, "fusion_lat": 0.0, "is_disabled": 0, "is_reserved": 0, "rental_uris": {"ios": "https://dc.lft.to/lastmile_qr_scan", "android": "https://dc.lft.to/lastmile_qr_scan"}, "bike_id": "a58f03ee12863d153e1da7e62d5cd2cb", "lat": 38.892206333333334}, {"type": "electric_scooter", "fusion_lon": 0.0, "name": "b2d2948acc151fbd4ead2ffcbfe6b3a8", "lon": -77.014997, "fusion_lat": 0.0, "is_disabled": 0, "is_reserved": 0, "rental_uris": {"ios": "https://dc.lft.to/lastmile_qr_scan", "android": "https://dc.lft.to/lastmile_qr_scan"}, "bike_id": "b2d2948acc151fbd4ead2ffcbfe6b3a8", "lat": 38.9015335}, {"type": "electric_scooter", "fusion_lon": 0.0, "name": "84bb878acdee805618660e606f8fc063", "lon": -76.98140683333334, "fusion_lat": 0.0, "is_disabled": 0, "is_reserved": 0, "rental_uris": {"ios": "https://dc.lft.to/lastmile_qr_scan", "android": "https://dc.lft.to/lastmile_qr_scan"}, "bike_id": "84bb878acdee805618660e606f8fc063", "lat": 38.90570833333334}, {"type": "electric_scooter", "fusion_lon": 0.0, "name": "b1680ff11a069992b98b6c27cd89e3d9", "lon": -77.02706733333333, "fusion_lat": 0.0, "is_disabled": 0, "is_reserved": 0, "rental_uris": {"ios": "https://dc.lft.to/lastmile_qr_scan", "android": "https://dc.lft.to/lastmile_qr_scan"}, "bike_id": "b1680ff11a069992b98b6c27cd89e3d9", "lat": 38.89715283333334}, {"type": "electric_scooter", "fusion_lon": 0.0, "name": "551cfecb7bc6d242120b8cef43ba6036", "lon": -77.0612285, "fusion_lat": 0.0, "is_disabled": 0, "is_reserved": 0, "rental_uris": {"ios": "https://dc.lft.to/lastmile_qr_scan", "android": "https://dc.lft.to/lastmile_qr_scan"}, "bike_id": "551cfecb7bc6d242120b8cef43ba6036", "lat": 38.9045595}, {"type": "electric_scooter", "fusion_lon": 0.0, "name": "6fa05dfd792aba8ec06e32eb5851f1e7", "lon": -77.04177333333334, "fusion_lat": 0.0, "is_disabled": 0, "is_reserved": 0, "rental_uris": {"ios": "https://dc.lft.to/lastmile_qr_scan", "android": "https://dc.lft.to/lastmile_qr_scan"}, "bike_id": "6fa05dfd792aba8ec06e32eb5851f1e7", "lat": 38.90540633333333}, {"type": "electric_bike", "fusion_lon": 0.0, "name": "0740ca0713fa31a24178cbbd4ce8724a", "lon": -77.101832, "fusion_lat": 0.0, "is_disabled": 0, "is_reserved": 0, "rental_uris": {"ios": "https://dc.lft.to/lastmile_qr_scan", "android": "https://dc.lft.to/lastmile_qr_scan"}, "bike_id": "0740ca0713fa31a24178cbbd4ce8724a", "lat": 38.91908516666667}, {"type": "electric_scooter", "fusion_lon": 0.0, "name": "760023415fc45f862307041c1e93cd6d", "lon": -77.0466635, "fusion_lat": 0.0, "is_disabled": 0, "is_reserved": 0, "rental_uris": {"ios": "https://dc.lft.to/lastmile_qr_scan", "android": "https://dc.lft.to/lastmile_qr_scan"}, "bike_id": "760023415fc45f862307041c1e93cd6d", "lat": 38.90775583333333}, {"type": "electric_scooter", "fusion_lon": 0.0, "name": "1d9ff582227441266f7e30d748c559cc", "lon": -77.01566666666666, "fusion_lat": 0.0, "is_disabled": 0, "is_reserved": 0, "rental_uris": {"ios": "https://dc.lft.to/lastmile_qr_scan", "android": "https://dc.lft.to/lastmile_qr_scan"}, "bike_id": "1d9ff582227441266f7e30d748c559cc", "lat": 38.891794833333336}, {"type": "electric_scooter", "fusion_lon": 0.0, "name": "e134e343330235b99da4ce6091c3065e", "lon": -77.07013016666667, "fusion_lat": 0.0, "is_disabled": 0, "is_reserved": 0, "rental_uris": {"ios": "https://dc.lft.to/lastmile_qr_scan", "android": "https://dc.lft.to/lastmile_qr_scan"}, "bike_id": "e134e343330235b99da4ce6091c3065e", "lat": 38.90511816666667}, {"type": "electric_scooter", "fusion_lon": 0.0, "name": "cc9ef731f0de5c9d78da5ccdf340e19b", "lon": -77.00785483333334, "fusion_lat": 0.0, "is_disabled": 0, "is_reserved": 0, "rental_uris": {"ios": "https://dc.lft.to/lastmile_qr_scan", "android": "https://dc.lft.to/lastmile_qr_scan"}, "bike_id": "cc9ef731f0de5c9d78da5ccdf340e19b", "lat": 38.898965833333335}, {"type": "electric_bike", "fusion_lon": 0.0, "name": "feaad23a1e83fbab8d37329af45e31d0", "lon": -76.990268, "fusion_lat": 0.0, "is_disabled": 0, "is_reserved": 0, "rental_uris": {"ios": "https://dc.lft.to/lastmile_qr_scan", "android": "https://dc.lft.to/lastmile_qr_scan"}, "bike_id": "feaad23a1e83fbab8d37329af45e31d0", "lat": 38.83586116666667},