{"data": {"bikes": [{"fusion_lat": 0.0, "name": "651b0c650fb7fd17d706cbe75196929d", "is_disabled": 0, "rental_uris": {"android": "https://dc.lft.to/lastmile_qr_scan", "ios": "https://dc.lft.to/lastmile_qr_scan"}, "fusion_lon": 0.0, "lat": 38.9737895, "bike_id": "651b0c650fb7fd17d706cbe75196929d", "type": "electric_scooter", "is_reserved": 0, "lon": -77.01282933333333}, {"fusion_lat": 0.0, "name": "95871b56935d04546f59640a51b7d6d2", "is_disabled": 0, "rental_uris": {"android": "https://dc.lft.to/lastmile_qr_scan", "ios": "https://dc.lft.to/lastmile_qr_scan"}, "fusion_lon": 0.0, "lat": 38.92437983333333, "bike_id": "95871b56935d04546f59640a51b7d6d2", "type": "electric_scooter", "is_reserved": 0, "lon": -77.04439366666666}, {"fusion_lat": 0.0, "name": "1f3552f796f0d17872f0f268d2965a1e", "is_disabled": 0, "rental_uris": {"android": "https://dc.lft.to/lastmile_qr_scan", "ios": "https://dc.lft.to/lastmile_qr_scan"}, "fusion_lon": 0.0, "lat": 38.90856516666667, "bike_id": "1f3552f796f0d17872f0f268d2965a1e", "type": "electric_scooter", "is_reserved": 0, "lon": -77.00365033333334}, {"fusion_lat": 0.0, "name": "843f33f9adf1fc7d78da6f47b944ddbe", "is_disabled": 0, "rental_uris": {"android": "https://dc.lft.to/lastmile_qr_scan", "ios": "https://dc.lft.to/lastmile_qr_scan"}, "fusion_lon": 0.0, "lat": 38.96187316666666, "bike_id": "843f33f9adf1fc7d78da6f47b944ddbe", "type": "electric_bike", "is_reserved": 0, "lon": -77.05267533333334}, {"fusion_lat": 0.0, "name": "5631f899beb7f8346b1b616bb7484f82", "is_disabled": 0, "rental_uris": {"android": "https://dc.lft.to/lastmile_qr_scan", "ios": "https://dc.lft.to/lastmile_qr_scan"}, "fusion_lon": 0.0, "lat": 38.91253, "bike_id": "5631f899beb7f8346b1b616bb7484f82", "type": "electric_scooter", "is_reserved": 0, "lon": -77.02952433333333}, {"fusion_lat": 0.0, "name": "3549410d4010160275153f2ac113775c", "is_disabled": 0, "rental_uris": {"android": "https://dc.lft.to/lastmile_qr_scan", "ios": "https://dc.lft.to/lastmile_qr_scan"}, "fusion_lon": 0.0, "lat": 38.8971425, "bike_id": "3549410d4010160275153f2ac113775c", "type": "electric_scooter", "is_reserved": 0, "lon": -77.01317716666667}, {"fusion_lat": 0.0, "name": "1108fe72358a84afb7ec6898b3626f8b", "is_disabled": 0, "rental_uris": {"android": "https://dc.lft.to/lastmile_qr_scan", "ios": "https://dc.lft.to/lastmile_qr_scan"}, "fusion_lon": 0.0, "lat": 38.891261166666666, "bike_id": "1108fe72358a84afb7ec6898b3626f8b", "type": "electric_scooter", "is_reserved": 0, "lon": -76.943824}, {"fusion_lat": 0.0, "name": "942942eaa65774a1897f0254103e6e4c", "is_disabled": 0, "rental_uris": {"android": "https://dc.lft.to/lastmile_qr_scan", "ios": "https://dc.lft.to/lastmile_qr_scan"}, "fusion_lon": 0.0, "lat": 38.90412666666667, "bike_id": "942942eaa65774a1897f0254103e6e4c", "type": "electric_scooter", "is_reserved": 0, "lon": -77.0190705}, {"fusion_lat": 0.0, "name": "4560802f189a3edead44ef7b56daadff", "is_disabled": 0, "rental_uris": {"android": "https://dc.lft.to/lastmile_qr_scan", "ios": "https://dc.lft.to/lastmile_qr_scan"}, "fusion_lon": 0.0, "lat": 38.945248666666664, "bike_id": "4560802f189a3edead44ef7b56daadff", "type": "electric_scooter", "is_reserved": 0, "lon": -77.02273216666667}, {"fusion_lat": 0.0, "name": "b237395a2876f42f22570a1f138d60f7", "is_disabled": 0, "rental_uris": {"android": "https://dc.lft.to/lastmile_qr_scan", "ios": "https://dc.lft.to/lastmile_qr_scan"}, "fusion_lon": 0.0, "lat": 38.916813, "bike_id": "b237395a2876f42f22570a1f138d60f7", "type": "electric_scooter", "is_reserved": 0, "lon": -77.03214683333333}, {"fusion_lat": 0.0, "name": "242f47ee0f0beacdf7e3ca0631c558d1", "is_disabled": 0, "rental_uris": {"android": "https://dc.lft.to/lastmile_qr_scan", "ios": "https://dc.lft.to/lastmile_qr_scan"}, "fusion_lon": 0.0, "lat": 38.915189833333336, "bike_id": "242f47ee0f0beacdf7e3ca0631c558d1", "type": "electric_scooter", "is_reserved": 0, "lon": -77.027005}, {"fusion_lat": 0.0, "name": "e9a3bf31426be51ead0d086b9ec35a47", "is_disabled": 0, "rental_uris": {"android": "https://dc.lft.to/lastmile_qr_scan", "ios": "https://dc.lft.to/lastmile_qr_scan"}, "fusion_lon": 0.0, "lat": 38.87709783333333, "bike_id": "e9a3bf31426be51ead0d086b9ec35a47", "type": "electric_scooter", "is_reserved": 0, "lon": -76.9938545}, {"fusion_lat": 0.0, "name": "6a06c4c661d0f90cb49d4bf5f928e97d", "is_disabled": 0, "rental_uris": {"android": "https://dc.lft.to/lastmile_qr_scan", "ios": "https://dc.lft.to/lastmile_qr_scan"}, "fusion_lon": 0.0, "lat": 38.923099666666666, "bike_id": "6a06c4c661d0f90cb49d4bf5f928e97d", "type": "electric_scooter", "is_reserved": 0, "lon": -77.036618}, {"fusion_lat": 0.0, "name": "15e01c93612d6c81bfd76cf5ee023ea8", "is_disabled": 0, "rental_uris": {"android": "https://dc.lft.to/lastmile_qr_scan", "ios": "https://dc.lft.to/lastmile_qr_scan"}, "fusion_lon": 0.0, "lat": 38.94500516666667, "bike_id": "15e01c93612d6c81bfd76cf5ee023ea8", "type": "electric_scooter", "is_reserved": 0, "lon": -77.03873716666666}, {"fusion_lat": 0.0, "name": "02669e805b61eeede2e237ad60bbb90e", "is_disabled": 0, "rental_uris": {"android": "https://dc.lft.to/lastmile_qr_scan", "ios": "https://dc.lft.to/lastmile_qr_scan"}, "fusion_lon": 0.0, "lat": 38.98391633333333, "bike_id": "02669e805b61eeede2e237ad60bbb90e", "type": "electric_scooter", "is_reserved": 0, "lon": -77.02628316666667}, {"fusion_lat": 0.0, "name": "9c5251b0b47dbf04e6dfc3206b9a3da4", "is_disabled": 0, "rental_uris": {"android": "https://dc.lft.to/lastmile_qr_scan", "ios": "https://dc.lft.to/lastmile_qr_scan"}, "fusion_lon": 0.0, "lat": 38.8957655, "bike_id": "9c5251b0b47dbf04e6dfc3206b9a3da4", "type": "electric_scooter", "is_reserved": 0, "lon": -76.94890766666667}, {"fusion_lat": 0.0, "name": "d713f80e55cec78697618885a2a58b28", "is_disabled": 0, "rental_uris": {"android": "https://dc.lft.to/lastmile_qr_scan", "ios": "https://dc.lft.to/lastmile_qr_scan"}, "fusion_lon": 0.0, "lat": 38.93584933333333, "bike_id": "d713f80e55cec78697618885a2a58b28", "type": "electric_scooter", "is_reserved": 0, "lon": -77.0825465}, {"fusion_lat": 0.0, "name": "63e8680371785abaacb1dc824027d211", "is_disabled": 0, "rental_uris": {"android": "https://dc.lft.to/lastmile_qr_scan", "ios": "https://dc.lft.to/lastmile_qr_scan"}, "fusion_lon": 0.0, "lat": 38.917840166666664, "bike_id": "63e8680371785abaacb1dc824027d211", "type": "electric_scooter", "is_reserved": 0, "lon": -77.04103066666667}, {"fusion_lat": 0.0, "name": "6ab59190002bef388b4f743de8b2dbfd", "is_disabled": 0, "rental_uris": {"android": "https://dc.lft.to/lastmile_qr_scan", "ios": "https://dc.lft.to/lastmile_qr_scan"}, "fusion_lon": 0.0, "lat": 38.949835666666665, "bike_id": "6ab59190002bef388b4f743de8b2dbfd", "type": "electric_scooter", "is_reserved": 0, "lon": -77.02695233333333}, {"fusion_lat": 0.0, "name": "b16feae1751e350ccad411a827035d5a", "is_disabled": 0, "rental_uris": {"android": "https://dc.lft.to/lastmile_qr_scan", "ios": "https://dc.lft.to/lastmile_qr_scan"}, "fusion_lon": 0.0, "lat": 38.9186125, "bike_id": "b16feae1751e350ccad411a827035d5a", "type": "electric_scooter", "is_reserved": 0, "lon": -77.045837}, {"fusion_lat": 0.0, "name": "968f9fedb95355a7cae99c57462e1a6d", "is_disabled": 0, "rental_uris": {"android": "https://dc.lft.to/lastmile_qr_scan", "ios": "https://dc.lft.to/lastmile_qr_scan"}, "fusion_lon": 0.0, "lat": 38.928790666666664, "bike_id": "968f9fedb95355a7cae99c57462e1a6d", "type": "electric_scooter", "is_reserved": 0, "lon": -77.032714}, {"fusion_lat": 0.0, "name": "d0fa7a695255f829032c194c2660efcb", "is_disabled": 0, "rental_uris": {"android": "https://dc.lft.to/lastmile_qr_scan", "ios": "https://dc.lft.to/lastmile_qr_scan"}, "fusion_lon": 0.0, "lat": 38.91175333333333, "bike_id": "d0fa7a695255f829032c194c2660efcb", "type": "electric_scooter", "is_reserved": 0, "lon": -77.06863983333334}, {"fusion_lat": 0.0, "name": "56d809cbd19060b9812b28426ebdccb7", "is_disabled": 0, "rental_uris": {"android": "https://dc.lft.to/lastmile_qr_scan", "ios": "https://dc.lft.to/lastmile_qr_scan"}, "fusion_lon": 0.0, "lat": 38.861405166666664, "bike_id": "56d809cbd19060b9812b28426ebdccb7", "type": "electric_bike", "is_reserved": 0, "lon": -76.97169316666667}, {"fusion_lat": 0.0, "name": "1d14e039b6e7a9d848ea03955b358182", "is_disabled": 0, "rental_uris": {"android": "https://dc.lft.to/lastmile_qr_scan", "ios": "https://dc.lft.to/lastmile_qr_scan"}, "fusion_lon": 0.0, "lat": 38.9449805, "bike_id": "1d14e039b6e7a9d848ea03955b358182", "type": "electric_bike", "is_reserved": 0, "lon": -77.00543333333333}, {"fusion_lat": 0.0, "name": "25ee7d84fa1675749dee9149537e06d1", "is_disabled": 0, "rental_uris": {"android": "https://dc.lft.to/lastmile_qr_scan", "ios": "https://dc.lft.to/lastmile_qr_scan"}, "fusion_lon": 0.0, "lat": 38.876461166666665, "bike_id": "25ee7d84fa1675749dee9149537e06d1", "type": "electric_scooter", "is_reserved": 0, "lon": -77.008331}, {"fusion_lat": 0.0, "name": "d1a3affe2721e351b33f36965638c75c", "is_disabled": 0, "rental_uris": {"android": "https://dc.lft.to/lastmile_qr_scan", "ios": "https://dc.lft.to/lastmile_qr_scan"}, "fusion_lon": 0.0, "lat": 38.93407366666667, "bike_id": "d1a3affe2721e351b33f36965638c75c", "type": "electric_scooter", "is_reserved": 0, "lon": -77.0326205}, {"fusion_lat": 0.0, "name": "b0de3fa785983c654eed410316ee1c13", "is_disabled": 0, "rental_uris": {"android": "https://dc.lft.to/lastmile_qr_scan", "ios": "https://dc.lft.to/lastmile_qr_scan"}, "fusion_lon": 0.0, "lat": 38.927267, "bike_id": "b0de3fa785983c654eed410316ee1c13", "type": "electric_scooter", "is_reserved": 0, "lon": -77.02078266666666}, {"fusion_lat": 0.0, "name": "bf4f499f2ae82cefea36138cbb8cc596", "is_disabled": 0, "rental_uris": {"android": "https://dc.lft.to/lastmile_qr_scan", "ios": "https://dc.lft.to/lastmile_qr_scan"}, "fusion_lon": 0.0, "lat": 38.9311665, "bike_id": "bf4f499f2ae82cefea36138cbb8cc596", "type": "electric_scooter", "is_reserved": 0, "lon": -77.03531616666666}, {"fusion_lat": 0.0, "name": "8c2eeede8b80b5e3c141de2bbc2f4630", "is_disabled": 0, "rental_uris": {"android": "https://dc.lft.to/lastmile_qr_scan", "ios": "https://dc.lft.to/lastmile_qr_scan"}, "fusion_lon": 0.0, "lat": 38.904572, "bike_id": "8c2eeede8b80b5e3c141de2bbc2f4630", "type": "electric_scooter", "is_reserved": 0, "lon": -76.9826035}, {"fusion_lat": 0.0, "name": "cd6481f01de1ab4a180a92570964b359", "is_disabled": 0, "rental_uris": {"android": "https://dc.lft.to/lastmile_qr_scan", "ios": "https://dc.lft.to/lastmile_qr_scan"}, "fusion_lon": 0.0, "lat": 38.89312116666667, "bike_id": "cd6481f01de1ab4a180a92570964b359", "type": "electric_scooter", "is_reserved": 0, "lon": -77.05584483333334}, {"fusion_lat": 0.0, "name": "c8e253a771861f2426aff1382721c0e0", "is_disabled": 0, "rental_uris": {"android": "https://dc.lft.to/lastmile_qr_scan", "ios": "https://dc.lft.to/lastmile_qr_scan"}, "fusion_lon": 0.0, "lat": 38.91997816666667, "bike_id": "c8e253a771861f2426aff1382721c0e0", "type": "electric_scooter", "is_reserved": 0, "lon": -77.017873}, {"fusion_lat": 0.0, "name": "35f1aa1b98abd018118f21be5b817a06", "is_disabled": 0, "rental_uris": {"android": "https://dc.lft.to/lastmile_qr_scan", "ios": "https://dc.lft.to/lastmile_qr_scan"}, "fusion_lon": 0.0, "lat": 38.9072655, "bike_id": "35f1aa1b98abd018118f21be5b817a06", "type": "electric_scooter", "is_reserved": 0, "lon": -77.04737133333333}, {"fusion_lat": 0.0, "name": "b5fe452e75219789b0bb005d58605fc6", "is_disabled": 0, "rental_uris": {"android": "https://dc.lft.to/lastmile_qr_scan", "ios": "https://dc.lft.to/lastmile_qr_scan"}, "fusion_lon": 0.0, "lat": 38.901521333333335, "bike_id": "b5fe452e75219789b0bb005d58605fc6", "type": "electric_scooter", "is_reserved": 0, "lon": -77.06112616666667}, {"fusion_lat": 0.0, "name": "d4f6232aacf4f88c0a7d30b9135c7624", "is_disabled": 0, "rental_uris": {"android": "https://dc.lft.to/lastmile_qr_scan", "ios": "https://dc.lft.to/lastmile_qr_scan"}, "fusion_lon": 0.0, "lat": 38.92068583333333, "bike_id": "d4f6232aacf4f88c0a7d30b9135c7624", "type": "electric_scooter", "is_reserved": 0, "lon": -77.04382433333333}, {"fusion_lat": 0.0, "name": "39afdcb2a9e346edde735d0bab06af8c", "is_disabled": 0, "rental_uris": {"android": "https://dc.lft.to/lastmile_qr_scan", "ios": "https://dc.lft.to/lastmile_qr_scan"}, "fusion_lon": 0.0, "lat": 38.92290216666667, "bike_id": "39afdcb2a9e346edde735d0bab06af8c", "type": "electric_scooter", "is_reserved": 0, "lon": -77.02525266666666}, {"fusion_lat": 0.0, "name": "52cce719a9c50947d1781772ae88dfde", "is_disabled": 0, "rental_uris": {"android": "https://dc.lft.to/lastmile_qr_scan", "ios": "https://dc.lft.to/lastmile_qr_scan"}, "fusion_lon": 0.0, "lat": 38.878988666666665, "bike_id": "52cce719a9c50947d1781772ae88dfde", "type": "electric_scooter", "is_reserved": 0, "lon": -77.01361283333334}, {"fusion_lat": 0.0, "name": "ccb24399f823fd9c8dc252c7a64bf5dc", "is_disabled": 0, "rental_uris": {"android": "https://dc.lft.to/lastmile_qr_scan", "ios": "https://dc.lft.to/lastmile_qr_scan"}, "fusion_lon": 0.0, "lat": 38.89528116666666, "bike_id": "ccb24399f823fd9c8dc252c7a64bf5dc", "type": "electric_scooter", "is_reserved": 0, "lon": -76.93410516666667}, {"fusion_lat": 0.0, "name": "9285241d4d9a2e998506273b94c2900c", "is_disabled": 0, "rental_uris": {"android": "https://dc.lft.to/lastmile_qr_scan", "ios": "https://dc.lft.to/lastmile_qr_scan"}, "fusion_lon": 0.0, "lat": 38.92477566666667, "bike_id": "9285241d4d9a2e998506273b94c2900c", "type": "electric_scooter", "is_reserved": 0, "lon": -77.02680116666667}, {"fusion_lat": 0.0, "name": "6dcfbf798269b38c3bba7a953af784c0", "is_disabled": 0, "rental_uris": {"android": "https://dc.lft.to/lastmile_qr_scan", "ios": "https://dc.lft.to/lastmile_qr_scan"}, "fusion_lon": 0.0, "lat": 38.8984625, "bike_id": "6dcfbf798269b38c3bba7a953af784c0", "type": "electric_scooter", "is_reserved": 0, "lon": -77.04068216666667}, {"fusion_lat": 0.0, "name": "d11f1a44e56f0ef246b268877fea4467", "is_disabled": 0, "rental_uris": {"android": "https://dc.lft.to/lastmile_qr_scan", "ios": "https://dc.lft.to/lastmile_qr_scan"}, "fusion_lon": 0.0, "lat": 38.924906166666666, "bike_id": "d11f1a44e56f0ef246b268877fea4467", "type": "electric_scooter", "is_reserved": 0, "lon": -77.05757516666667}, {"fusion_lat": 0.0, "name": "90e551fb4ec51bc84544f75c0f3e213d", "is_disabled": 0, "rental_uris": {"android": "https://dc.lft.to/lastmile_qr_scan", "ios": "https://dc.lft.to/lastmile_qr_scan"}, "fusion_lon": 0.0, "lat": 38.90879783333333, "bike_id": "90e551fb4ec51bc84544f75c0f3e213d", "type": "electric_scooter", "is_reserved": 0, "lon": -77.0346455}, {"fusion_lat": 0.0, "name": "bbcad0d3c0cff7eb0beddaece7b2b8cc", "is_disabled": 0, "rental_uris": {"android": "https://dc.lft.to/lastmile_qr_scan", "ios": "https://dc.lft.to/lastmile_qr_scan"}, "fusion_lon": 0.0, "lat": 38.89598383333333, "bike_id": "bbcad0d3c0cff7eb0beddaece7b2b8cc", "type": "electric_scooter", "is_reserved": 0, "lon": -77.02526316666666}, {"fusion_lat": 0.0, "name": "52ad815a29c59e2c3b04fc0d919633cb", "is_disabled": 0, "rental_uris": {"android": "https://dc.lft.to/lastmile_qr_scan", "ios": "https://dc.lft.to/lastmile_qr_scan"}, "fusion_lon": 0.0, "lat": 38.926154, "bike_id": "52ad815a29c59e2c3b04fc0d919633cb", "type": "electric_scooter", "is_reserved": 0, "lon": -77.0395735}, {"fusion_lat": 0.0, "name": "23dc6605ef8100f04066f2f0e0a2773b", "is_disabled": 0, "rental_uris": {"android": "https://dc.lft.to/lastmile_qr_scan", "ios": "https://dc.lft.to/lastmile_qr_scan"}, "fusion_lon": 0.0, "lat": 38.904589, "bike_id": "23dc6605ef8100f04066f2f0e0a2773b", "type": "electric_scooter", "is_reserved": 0, "lon": -77.00162666666667}, {"fusion_lat": 0.0, "name": "83824cb306e46120b3bce1ca7b0dd458", "is_disabled": 0, "rental_uris": {"android": "https://dc.lft.to/lastmile_qr_scan", "ios": "https://dc.lft.to/lastmile_qr_scan"}, "fusion_lon": 0.0, "lat": 38.904258166666665, "bike_id": "83824cb306e46120b3bce1ca7b0dd458", "type": "electric_scooter", "is_reserved": 0, "lon": -76.949746}, {"fusion_lat": 0.0, "name": "7b733010b2c933127562c77ed2328740", "is_disabled": 0, "rental_uris": {"android": "https://dc.lft.to/lastmile_qr_scan", "ios": "https://dc.lft.to/lastmile_qr_scan"}, "fusion_lon": 0.0, "lat": 38.909630666666665, "bike_id": "7b733010b2c933127562c77ed2328740", "type": "electric_scooter", "is_reserved": 0, "lon": -77.0103915}, {"fusion_lat": 0.0, "name": "36c1c2fdeef98aa0d152e2c03b2911ba", "is_disabled": 0, "rental_uris": {"android": "https://dc.lft.to/lastmile_qr_scan", "ios": "https://dc.lft.to/lastmile_qr_scan"}, "fusion_lon": 0.0, "lat": 38.9280755, "bike_id": "36c1c2fdeef98aa0d152e2c03b2911ba", "type": "electric_scooter", "is_reserved": 0, "lon": -77.0435845}, {"fusion_lat": 0.0, "name": "e8922a3f4750afb9753fce634620a2d3", "is_disabled": 0, "rental_uris": {"android": "https://dc.lft.to/lastmile_qr_scan", "ios": "https://dc.lft.to/lastmile_qr_scan"}, "fusion_lon": 0.0, "lat": 38.88748183333333, "bike_id": "e8922a3f4750afb9753fce634620a2d3", "type": "electric_scooter", "is_reserved": 0, "lon": -77.02372966666667}, {"fusion_lat": 0.0, "name": "564f9abf5bdeab48e09e93bbc7699b80", "is_disabled": 0, "rental_uris": {"android": "https://dc.lft.to/lastmile_qr_scan", "ios": "https://dc.lft.to/lastmile_qr_scan"}, "fusion_lon": 0.0, "lat": 38.940790166666666, "bike_id": "564f9abf5bdeab48e09e93bbc7699b80", "type": "electric_scooter", "is_reserved": 0, "lon": -77.02390783333334}, {"fusion_lat": 0.0, "name": "67e347dc43c4207deec91ef45de26844", "is_disabled": 0, "rental_uris": {"android": "https://dc.lft.to/lastmile_qr_scan", "ios": "https://dc.lft.to/lastmile_qr_scan"}, "fusion_lon": 0.0, "lat": 38.92823883333333, "bike_id": "67e347dc43c4207deec91ef45de26844", "type": "electric_scooter", "is_reserved": 0, "lon": -77.0225365}, {"fusion_lat": 0.0, "name": "2457d240688619a6587c26c0b3c3c797", "is_disabled": 0, "rental_uris": {"android": "https://dc.lft.to/lastmile_qr_scan", "ios": "https://dc.lft.to/lastmile_qr_scan"}, "fusion_lon": 0.0, "lat": 38.9311945, "bike_id": "2457d240688619a6587c26c0b3c3c797", "type": "electric_scooter", "is_reserved": 0, "lon": -77.0208745}, {"fusion_lat": 0.0, "name": "fe9bc90308e59473bdefc474bb48b9a0", "is_disabled": 0, "rental_uris": {"android": "https://dc.lft.to/lastmile_qr_scan", "ios": "https://dc.lft.to/lastmile_qr_scan"}, "fusion_lon": 0.0, "lat": 38.915257833333335, "bike_id": "fe9bc90308e59473bdefc474bb48b9a0", "type": "electric_scooter", "is_reserved": 0, "lon": -77.0727275}, {"fusion_lat": 0.0, "name": "1ca0c79ee745f85a1fca13742521abe6", "is_disabled": 0, "rental_uris": {"android": "https://dc.lft.to/lastmile_qr_scan", "ios": "https://dc.lft.to/lastmile_qr_scan"}, "fusion_lon": 0.0, "lat": 38.93966783333333, "bike_id": "1ca0c79ee745f85a1fca13742521abe6", "type": "electric_scooter", "is_reserved": 0, "lon": -77.03285566666666}, {"fusion_lat": 0.0, "name": "def51280d88a574b59f5bf90b22f621a", "is_disabled": 0, "rental_uris": {"android": "https://dc.lft.to/lastmile_qr_scan", "ios": "https://dc.lft.to/lastmile_qr_scan"}, "fusion_lon": 0.0, "lat": 38.90935, "bike_id": "def51280d88a574b59f5bf90b22f621a", "type": "electric_scooter", "is_reserved": 0, "lon": -77.0626995}, {"fusion_lat": 0.0, "name": "702b2f86ef60dfd25e3ca011ec879833", "is_disabled": 0, "rental_uris": {"android": "https://dc.lft.to/lastmile_qr_scan", "ios": "https://dc.lft.to/lastmile_qr_scan"}, "fusion_lon": 0.0, "lat": 38.89668966666667, "bike_id": "702b2f86ef60dfd25e3ca011ec879833", "type": "electric_scooter", "is_reserved": 0, "lon": -76.93207883333334}, {"fusion_lat": 0.0, "name": "95b9f24c65f7a578b0b6afce7eb51800", "is_disabled": 0, "rental_uris": {"android": "https://dc.lft.to/lastmile_qr_scan", "ios": "https://dc.lft.to/lastmile_qr_scan"}, "fusion_lon": 0.0, "lat": 38.936591, "bike_id": "95b9f24c65f7a578b0b6afce7eb51800", "type": "electric_scooter", "is_reserved": 0, "lon": -77.036599}, {"fusion_lat": 0.0, "name": "053d604569f510e3c55b6189d5ac6b0e", "is_disabled": 0, "rental_uris": {"android": "https://dc.lft.to/lastmile_qr_scan", "ios": "https://dc.lft.to/lastmile_qr_scan"}, "fusion_lon": 0.0, "lat": 38.9250155, "bike_id": "053d604569f510e3c55b6189d5ac6b0e", "type": "electric_bike", "is_reserved": 0, "lon": -77.23339633333333}, {"fusion_lat": 0.0, "name": "e23bd34076c0248ad6d51b3c0b09b3f2", "is_disabled": 0, "rental_uris": {"android": "https://dc.lft.to/lastmile_qr_scan", "ios": "https://dc.lft.to/lastmile_qr_scan"}, "fusion_lon": 0.0, "lat": 38.887141666666665, "bike_id": "e23bd34076c0248ad6d51b3c0b09b3f2", "type": "electric_scooter", "is_reserved": 0, "lon": -77.01772533333333}, {"fusion_lat": 0.0, "name": "7beb91717d441fb672e19e31ff6030df", "is_disabled": 0, "rental_uris": {"android": "https://dc.lft.to/lastmile_qr_scan", "ios": "https://dc.lft.to/lastmile_qr_scan"}, "fusion_lon": 0.0, "lat": 38.93259233333333, "bike_id": "7beb91717d441fb672e19e31ff6030df", "type": "electric_scooter", "is_reserved": 0, "lon": -77.01911666666666}, {"fusion_lat": 0.0, "name": "cc6da6e18c14e531a3f22d3d47512798", "is_disabled": 0, "rental_uris": {"android": "https://dc.lft.to/lastmile_qr_scan", "ios": "https://dc.lft.to/lastmile_qr_scan"}, "fusion_lon": 0.0, "lat": 38.92711633333333, "bike_id": "cc6da6e18c14e531a3f22d3d47512798", "type": "electric_scooter", "is_reserved": 0, "lon": -77.0209895}, {"fusion_lat": 0.0, "name": "d2be0b752665cb9dd6a0e8985ebc7d20", "is_disabled": 0, "rental_uris": {"android": "https://dc.lft.to/lastmile_qr_scan", "ios": "https://dc.lft.to/lastmile_qr_scan"}, "fusion_lon": 0.0, "lat": 38.879968, "bike_id": "d2be0b752665cb9dd6a0e8985ebc7d20", "type": "electric_scooter", "is_reserved": 0, "lon": -76.9854185}, {"fusion_lat": 0.0, "name": "0f4c37e5416abde43d551eccd077991a", "is_disabled": 0, "rental_uris": {"android": "https://dc.lft.to/lastmile_qr_scan", "ios": "https://dc.lft.to/lastmile_qr_scan"}, "fusion_lon": 0.0, "lat": 38.92663966666667, "bike_id": "0f4c37e5416abde43d551eccd077991a", "type": "electric_scooter", "is_reserved": 0, "lon": -77.05154183333333}, {"fusion_lat": 0.0, "name": "11a0c234590523d29b14ac750a88fdc2", "is_disabled": 0, "rental_uris": {"android": "https://dc.lft.to/lastmile_qr_scan", "ios": "https://dc.lft.to/lastmile_qr_scan"}, "fusion_lon": 0.0, "lat": 38.90734366666667, "bike_id": "11a0c234590523d29b14ac750a88fdc2", "type": "electric_scooter", "is_reserved": 0, "lon": -77.02941666666666}, {"fusion_lat": 0.0, "name": "6dce87459d1fd7d15aa2c19be9eb4cd3", "is_disabled": 0, "rental_uris": {"android": "https://dc.lft.to/lastmile_qr_scan", "ios": "https://dc.lft.to/lastmile_qr_scan"}, "fusion_lon": 0.0, "lat": 38.898421666666664, "bike_id": "6dce87459d1fd7d15aa2c19be9eb4cd3", "type": "electric_scooter", "is_reserved": 0, "lon": -77.02223266666667}, {"fusion_lat": 0.0, "name": "86df9402431d222810e30b1b95f898ba", "is_disabled": 0, "rental_uris": {"android": "https://dc.lft.to/lastmile_qr_scan", "ios": "https://dc.lft.to/lastmile_qr_scan"}, "fusion_lon": 0.0, "lat": 38.90646183333333, "bike_id": "86df9402431d222810e30b1b95f898ba", "type": "electric_scooter", "is_reserved": 0, "lon": -77.04871283333334}, {"fusion_lat": 0.0, "name": "a08eef11ce129ea84405d70f2cd06505", "is_disabled": 0, "rental_uris": {"android": "https://dc.lft.to/lastmile_qr_scan", "ios": "https://dc.lft.to/lastmile_qr_scan"}, "fusion_lon": 0.0, "lat": 38.92408566666667, "bike_id": "a08eef11ce129ea84405d70f2cd06505", "type": "electric_scooter", "is_reserved": 0, "lon": -77.025414}, {"fusion_lat": 0.0, "name": "6e8d49b2d117cc1325a9066df120a6ba", "is_disabled": 0, "rental_uris": {"android": "https://dc.lft.to/lastmile_qr_scan", "ios": "https://dc.lft.to/lastmile_qr_scan"}, "fusion_lon": 0.0, "lat": 38.896370833333336, "bike_id": "6e8d49b2d117cc1325a9066df120a6ba", "type": "electric_scooter", "is_reserved": 0, "lon": -77.02682666666666}, {"fusion_lat": 0.0, "name": "a76dada26ed1e0b0237e73943092ada0", "is_disabled": 0, "rental_uris": {"android": "https://dc.lft.to/lastmile_qr_scan", "ios": "https://dc.lft.to/lastmile_qr_scan"}, "fusion_lon": 0.0, "lat": 38.91153833333333, "bike_id": "a76dada26ed1e0b0237e73943092ada0", "type": "electric_scooter", "is_reserved": 0, "lon": -76.9872235}, {"fusion_lat": 0.0, "name": "aade857a936322a64ae61326474408ac", "is_disabled": 0, "rental_uris": {"android": "https://dc.lft.to/lastmile_qr_scan", "ios": "https://dc.lft.to/lastmile_qr_scan"}, "fusion_lon": 0.0, "lat": 38.91488916666667, "bike_id": "aade857a936322a64ae61326474408ac", "type": "electric_scooter", "is_reserved": 0, "lon": -77.01419433333334}, {"fusion_lat": 0.0, "name": "cb6256239b7e6ac187af16808e8b92fd", "is_disabled": 0, "rental_uris": {"android": "https://dc.lft.to/lastmile_qr_scan", "ios": "https://dc.lft.to/lastmile_qr_scan"}, "fusion_lon": 0.0, "lat": 38.91657983333333, "bike_id": "cb6256239b7e6ac187af16808e8b92fd", "type": "electric_scooter", "is_reserved": 0, "lon": -77.02798666666666}, {"fusion_lat": 0.0, "name": "8084aadb7726dcb4b80181305d888467", "is_disabled": 0, "rental_uris": {"android": "https://dc.lft.to/lastmile_qr_scan", "ios": "https://dc.lft.to/lastmile_qr_scan"}, "fusion_lon": 0.0, "lat": 38.8739775, "bike_id": "8084aadb7726dcb4b80181305d888467", "type": "electric_scooter", "is_reserved": 0, "lon": -77.000642}, {"fusion_lat": 0.0, "name": "3dd0131b0c2279651ea3c7dfb54a4183", "is_disabled": 0, "rental_uris": {"android": "https://dc.lft.to/lastmile_qr_scan", "ios": "https://dc.lft.to/lastmile_qr_scan"}, "fusion_lon": 0.0, "lat": 38.901974, "bike_id": "3dd0131b0c2279651ea3c7dfb54a4183", "type": "electric_scooter", "is_reserved": 0, "lon": -76.978594}, {"fusion_lat": 0.0, "name": "29b982dcf822ecce29d7582924872695", "is_disabled": 0, "rental_uris": {"android": "https://dc.lft.to/lastmile_qr_scan", "ios": "https://dc.lft.to/lastmile_qr_scan"}, "fusion_lon": 0.0, "lat": 38.91630083333333, "bike_id": "29b982dcf822ecce29d7582924872695", "type": "electric_scooter", "is_reserved": 0, "lon": -77.03138166666666}, {"fusion_lat": 0.0, "name": "1a826a771ee9847e170e831818a97ba0", "is_disabled": 0, "rental_uris": {"android": "https://dc.lft.to/lastmile_qr_scan", "ios": "https://dc.lft.to/lastmile_qr_scan"}, "fusion_lon": 0.0, "lat": 38.9229495, "bike_id": "1a826a771ee9847e170e831818a97ba0", "type": "electric_scooter", "is_reserved": 0, "lon": -77.041484}, {"fusion_lat": 0.0, "name": "6e87fd04bd2a2c1b361037073f050ab4", "is_disabled": 0, "rental_uris": {"android": "https://dc.lft.to/lastmile_qr_scan", "ios": "https://dc.lft.to/lastmile_qr_scan"}, "fusion_lon": 0.0, "lat": 38.8864015, "bike_id": "6e87fd04bd2a2c1b361037073f050ab4", "type": "electric_scooter", "is_reserved": 0, "lon": -77.01954566666667}, {"fusion_lat": 0.0, "name": "df966bb6b963564f12bc7707b6bd26b8", "is_disabled": 0, "rental_uris": {"android": "https://dc.lft.to/lastmile_qr_scan", "ios": "https://dc.lft.to/lastmile_qr_scan"}, "fusion_lon": 0.0, "lat": 38.892302, "bike_id": "df966bb6b963564f12bc7707b6bd26b8", "type": "electric_scooter", "is_reserved": 0, "lon": -77.05003683333334}, {"fusion_lat": 0.0, "name": "6ef0583bda3f1fab773f4f819daad000", "is_disabled": 0, "rental_uris": {"android": "https://dc.lft.to/lastmile_qr_scan", "ios": "https://dc.lft.to/lastmile_qr_scan"}, "fusion_lon": 0.0, "lat": 38.902755666666664, "bike_id": "6ef0583bda3f1fab773f4f819daad000", "type": "electric_scooter", "is_reserved": 0, "lon": -77.0274095}, {"fusion_lat": 0.0, "name": "dfbbb25467460f37098786b93345514c", "is_disabled": 0, "rental_uris": {"android": "https://dc.lft.to/lastmile_qr_scan", "ios": "https://dc.lft.to/lastmile_qr_scan"}, "fusion_lon": 0.0, "lat": 38.92874666666667, "bike_id": "dfbbb25467460f37098786b93345514c", "type": "electric_scooter", "is_reserved": 0, "lon": -77.01355383333333}, {"fusion_lat": 0.0, "name": "659266b855a698f5cf2d5c22f58b33c5", "is_disabled": 0, "rental_uris": {"android": "https://dc.lft.to/lastmile_qr_scan", "ios": "https://dc.lft.to/lastmile_qr_scan"}, "fusion_lon": 0.0, "lat": 38.9332235, "bike_id": "659266b855a698f5cf2d5c22f58b33c5", "type": "electric_scooter", "is_reserved": 0, "lon": -77.02752533333333}, {"fusion_lat": 0.0, "name": "174064c12cf5c346a7a30677a7aaba20", "is_disabled": 0, "rental_uris": {"android": "https://dc.lft.to/lastmile_qr_scan", "ios": "https://dc.lft.to/lastmile_qr_scan"}, "fusion_lon": 0.0, "lat": 38.925525, "bike_id": "174064c12cf5c346a7a30677a7aaba20", "type": "electric_scooter", "is_reserved": 0, "lon": -77.07767066666666}, {"fusion_lat": 0.0, "name": "2383fcebd3d82fbd254a2a909510afd6", "is_disabled": 0, "rental_uris": {"android": "https://dc.lft.to/lastmile_qr_scan", "ios": "https://dc.lft.to/lastmile_qr_scan"}, "fusion_lon": 0.0, "lat": 38.91941583333333, "bike_id": "2383fcebd3d82fbd254a2a909510afd6", "type": "electric_scooter", "is_reserved": 0, "lon": -77.07047483333334}, {"fusion_lat": 0.0, "name": "943ac692f4f47e45a2e7028662e80e3c", "is_disabled": 0, "rental_uris": {"android": "https://dc.lft.to/lastmile_qr_scan", "ios": "https://dc.lft.to/lastmile_qr_scan"}, "fusion_lon": 0.0, "lat": 38.913066, "bike_id": "943ac692f4f47e45a2e7028662e80e3c", "type": "electric_scooter", "is_reserved": 0, "lon": -77.04875783333334}, {"fusion_lat": 0.0, "name": "ed8e45d9a969889985766bc7d9f9e67c", "is_disabled": 0, "rental_uris": {"android": "https://dc.lft.to/lastmile_qr_scan", "ios": "https://dc.lft.to/lastmile_qr_scan"}, "fusion_lon": 0.0, "lat": 38.908178166666666, "bike_id": "ed8e45d9a969889985766bc7d9f9e67c", "type": "electric_scooter", "is_reserved": 0, "lon": -77.04159083333333}, {"fusion_lat": 0.0, "name": "3b24740fcb02d40fbe591dc7eb6406d5", "is_disabled": 0, "rental_uris": {"android": "https://dc.lft.to/lastmile_qr_scan", "ios": "https://dc.lft.to/lastmile_qr_scan"}, "fusion_lon": 0.0, "lat": 38.910845, "bike_id": "3b24740fcb02d40fbe591dc7eb6406d5", "type": "electric_scooter", "is_reserved": 0, "lon": -77.06503283333333}, {"fusion_lat": 0.0, "name": "bcb973c395a8accd2c4ccd3db6246ae2", "is_disabled": 0, "rental_uris": {"android": "https://dc.lft.to/lastmile_qr_scan", "ios": "https://dc.lft.to/lastmile_qr_scan"}, "fusion_lon": 0.0, "lat": 38.80495633333334, "bike_id": "bcb973c395a8accd2c4ccd3db6246ae2", "type": "electric_bike", "is_reserved": 0, "lon": -77.10163666666666}, {"fusion_lat": 0.0, "name": "077f7580e706ea5795914a33f9be7554", "is_disabled": 0, "rental_uris": {"android": "https://dc.lft.to/lastmile_qr_scan", "ios": "https://dc.lft.to/lastmile_qr_scan"}, "fusion_lon": 0.0, "lat": 38.920413333333336, "bike_id": "077f7580e706ea5795914a33f9be7554", "type": "electric_scooter", "is_reserved": 0, "lon": -77.01725683333333}, {"fusion_lat": 0.0, "name": "d8369d4780375235d926b8910dc64fbd", "is_disabled": 0, "rental_uris": {"android": "https://dc.lft.to/lastmile_qr_scan", "ios": "https://dc.lft.to/lastmile_qr_scan"}, "fusion_lon": 0.0, "lat": 38.89285183333333, "bike_id": "d8369d4780375235d926b8910dc64fbd", "type": "electric_scooter", "is_reserved": 0, "lon": -76.98307633333333}, {"fusion_lat": 0.0, "name": "aa8cd73946cbfbc69d1dbf7f721b1a12", "is_disabled": 0, "rental_uris": {"android": "https://dc.lft.to/lastmile_qr_scan", "ios": "https://dc.lft.to/lastmile_qr_scan"}, "fusion_lon": 0.0, "lat": 38.937666166666666, "bike_id": "aa8cd73946cbfbc69d1dbf7f721b1a12", "type": "electric_scooter", "is_reserved": 0, "lon": -77.03256083333333}, {"fusion_lat": 0.0, "name": "71ed6f848a671decfcddb9fc81505c5d", "is_disabled": 0, "rental_uris": {"android": "https://dc.lft.to/lastmile_qr_scan", "ios": "https://dc.lft.to/lastmile_qr_scan"}, "fusion_lon": 0.0, "lat": 38.927905, "bike_id": "71ed6f848a671decfcddb9fc81505c5d", "type": "electric_scooter", "is_reserved": 0, "lon": -77.032192}, {"fusion_lat": 0.0, "name": "77ef77813333e1eaeb2ed96fab989ec5", "is_disabled": 0, "rental_uris": {"android": "https://dc.lft.to/lastmile_qr_scan", "ios": "https://dc.lft.to/lastmile_qr_scan"}, "fusion_lon": 0.0, "lat": 38.8783255, "bike_id": "77ef77813333e1eaeb2ed96fab989ec5", "type": "electric_scooter", "is_reserved": 0, "lon": -76.9631975}, {"fusion_lat": 0.0, "name": "8c3d8b18d2486bfbcc49e73b22215f80", "is_disabled": 0, "rental_uris": {"android": "https://dc.lft.to/lastmile_qr_scan", "ios": "https://dc.lft.to/lastmile_qr_scan"}, "fusion_lon": 0.0, "lat": 38.82458316666666, "bike_id": "8c3d8b18d2486bfbcc49e73b22215f80", "type": "electric_bike", "is_reserved": 0, "lon": -77.00786733333334}, {"fusion_lat": 0.0, "name": "e00129ff7100b89beffb5a04dc675b9a", "is_disabled": 0, "rental_uris": {"android": "https://dc.lft.to/lastmile_qr_scan", "ios": "https://dc.lft.to/lastmile_qr_scan"}, "fusion_lon": 0.0, "lat": 38.910859, "bike_id": "e00129ff7100b89beffb5a04dc675b9a", "type": "electric_scooter", "is_reserved": 0, "lon": -77.065027}, {"fusion_lat": 0.0, "name": "a2cb205e7dd364bbbc1d80465363ccf6", "is_disabled": 0, "rental_uris": {"android": "https://dc.lft.to/lastmile_qr_scan", "ios": "https://dc.lft.to/lastmile_qr_scan"}, "fusion_lon": 0.0, "lat": 38.8430245, "bike_id": "a2cb205e7dd364bbbc1d80465363ccf6", "type": "electric_bike", "is_reserved": 0, "lon": -77.10863433333333}, {"fusion_lat": 0.0, "name": "41ad5be917eb83f1986fa9d09ebe7b28", "is_disabled": 0, "rental_uris": {"android": "https://dc.lft.to/lastmile_qr_scan", "ios": "https://dc.lft.to/lastmile_qr_scan"}, "fusion_lon": 0.0, "lat": 38.91096733333333, "bike_id": "41ad5be917eb83f1986fa9d09ebe7b28", "type": "electric_bike", "is_reserved": 0, "lon": -76.98477666666666}, {"fusion_lat": 0.0, "name": "a0e7bc329f194dfd124cf9bc2d2d190e", "is_disabled": 0, "rental_uris": {"android": "https://dc.lft.to/lastmile_qr_scan", "ios": "https://dc.lft.to/lastmile_qr_scan"}, "fusion_lon": 0.0, "lat": 38.909524833333336, "bike_id": "a0e7bc329f194dfd124cf9bc2d2d190e", "type": "electric_scooter", "is_reserved": 0, "lon": -76.98539183333334}, {"fusion_lat": 0.0, "name": "54691dd57fe4e32e9c34b6b301822f45", "is_disabled": 0, "rental_uris": {"android": "https://dc.lft.to/lastmile_qr_scan", "ios": "https://dc.lft.to/lastmile_qr_scan"}, "fusion_lon": 0.0, "lat": 38.92359966666667, "bike_id": "54691dd57fe4e32e9c34b6b301822f45", "type": "electric_scooter", "is_reserved": 0, "lon": -77.0438345}, {"fusion_lat": 0.0, "name": "66df30dfe2d21fefcc61ff08978ea24a", "is_disabled": 0, "rental_uris": {"android": "https://dc.lft.to/lastmile_qr_scan", "ios": "https://dc.lft.to/lastmile_qr_scan"}, "fusion_lon": 0.0, "lat": 38.9162145, "bike_id": "66df30dfe2d21fefcc61ff08978ea24a", "type": "electric_scooter", "is_reserved": 0, "lon": -77.038554}, {"fusion_lat": 0.0, "name": "63c00e282af9dd0a8d0c4fd08353b318", "is_disabled": 0, "rental_uris": {"android": "https://dc.lft.to/lastmile_qr_scan", "ios": "https://dc.lft.to/lastmile_qr_scan"}, "fusion_lon": 0.0, "lat": 38.9021265, "bike_id": "63c00e282af9dd0a8d0c4fd08353b318", "type": "electric_scooter", "is_reserved": 0, "lon": -77.06113683333334}, {"fusion_lat": 0.0, "name": "ef668fad4282a19ef234236cfe8fdb0c", "is_disabled": 0, "rental_uris": {"android": "https://dc.lft.to/lastmile_qr_scan", "ios": "https://dc.lft.to/lastmile_qr_scan"}, "fusion_lon": 0.0, "lat": 38.892268, "bike_id": "ef668fad4282a19ef234236cfe8fdb0c", "type": "electric_scooter", "is_reserved": 0, "lon": -77.03179533333333}, {"fusion_lat": 0.0, "name": "fe51ce0f5590b8fb53e364ea3c7950d2", "is_disabled": 0, "rental_uris": {"android": "https://dc.lft.to/lastmile_qr_scan", "ios": "https://dc.lft.to/lastmile_qr_scan"}, "fusion_lon": 0.0, "lat": 38.874703833333335, "bike_id": "fe51ce0f5590b8fb53e364ea3c7950d2", "type": "electric_scooter", "is_reserved": 0, "lon": -77.01898116666666}, {"fusion_lat": 0.0, "name": "eaddc5d4d78f152748700a771594bbcb", "is_disabled": 0, "rental_uris": {"android": "https://dc.lft.to/lastmile_qr_scan", "ios": "https://dc.lft.to/lastmile_qr_scan"}, "fusion_lon": 0.0, "lat": 38.88767716666667, "bike_id": "eaddc5d4d78f152748700a771594bbcb", "type": "electric_scooter", "is_reserved": 0, "lon": -76.97751933333333}, {"fusion_lat": 0.0, "name": "e8b7e80754d718a77795954845936601", "is_disabled": 0, "rental_uris": {"android": "https://dc.lft.to/lastmile_qr_scan", "ios": "https://dc.lft.to/lastmile_qr_scan"}, "fusion_lon": 0.0, "lat": 38.910130333333335, "bike_id": "e8b7e80754d718a77795954845936601", "type": "electric_scooter", "is_reserved": 0, "lon": -77.0071475}, {"fusion_lat": 0.0, "name": "b6f5a2357453d222c3a6bb75112bab6c", "is_disabled": 0, "rental_uris": {"android": "https://dc.lft.to/lastmile_qr_scan", "ios": "https://dc.lft.to/lastmile_qr_scan"}, "fusion_lon": 0.0, "lat": 38.899015, "bike_id": "b6f5a2357453d222c3a6bb75112bab6c", "type": "electric_scooter", "is_reserved": 0, "lon": -76.94547933333334}, {"fusion_lat": 0.0, "name": "ca8a93de35ed620c46533fadacbde673", "is_disabled": 0, "rental_uris": {"android": "https://dc.lft.to/lastmile_qr_scan", "ios": "https://dc.lft.to/lastmile_qr_scan"}, "fusion_lon": 0.0, "lat": 38.9288415, "bike_id": "ca8a93de35ed620c46533fadacbde673", "type": "electric_scooter", "is_reserved": 0, "lon": -77.033604}, {"fusion_lat": 0.0, "name": "2d78f9fe32b7e67d6b7c647530a5dde4", "is_disabled": 0, "rental_uris": {"android": "https://dc.lft.to/lastmile_qr_scan", "ios": "https://dc.lft.to/lastmile_qr_scan"}, "fusion_lon": 0.0, "lat": 38.87927533333333, "bike_id": "2d78f9fe32b7e67d6b7c647530a5dde4", "type": "electric_scooter", "is_reserved": 0, "lon": -77.00810516666667}, {"fusion_lat": 0.0, "name": "65d93f1e6f4f16190e3235c982f6fb96", "is_disabled": 0, "rental_uris": {"android": "https://dc.lft.to/lastmile_qr_scan", "ios": "https://dc.lft.to/lastmile_qr_scan"}, "fusion_lon": 0.0, "lat": 38.90740783333333, "bike_id": "65d93f1e6f4f16190e3235c982f6fb96", "type": "electric_scooter", "is_reserved": 0, "lon": -77.02943833333333}, {"fusion_lat": 0.0, "name": "e53fd65e9c2f32feb1244bfa446516ab", "is_disabled": 0, "rental_uris": {"android": "https://dc.lft.to/lastmile_qr_scan", "ios": "https://dc.lft.to/lastmile_qr_scan"}, "fusion_lon": 0.0, "lat": 38.9170815, "bike_id": "e53fd65e9c2f32feb1244bfa446516ab", "type": "electric_scooter", "is_reserved": 0, "lon": -77.03470466666667}, {"fusion_lat": 0.0, "name": "d30f2297f7143332b5cb5e15da4fe8c5", "is_disabled": 0, "rental_uris": {"android": "https://dc.lft.to/lastmile_qr_scan", "ios": "https://dc.lft.to/lastmile_qr_scan"}, "fusion_lon": 0.0, "lat": 38.88764233333333, "bike_id": "d30f2297f7143332b5cb5e15da4fe8c5", "type": "electric_scooter", "is_reserved": 0, "lon": -76.97747333333334}, {"fusion_lat": 0.0, "name": "de9f43fe6cf1d5c785bd7866f862e4cb", "is_disabled": 0, "rental_uris": {"android": "https://dc.lft.to/lastmile_qr_scan", "ios": "https://dc.lft.to/lastmile_qr_scan"}, "fusion_lon": 0.0, "lat": 38.90287766666667, "bike_id": "de9f43fe6cf1d5c785bd7866f862e4cb", "type": "electric_scooter", "is_reserved": 0, "lon": -77.044835}, {"fusion_lat": 0.0, "name": "02eefcf398ff1685bbdea100b1a40080", "is_disabled": 0, "rental_uris": {"android": "https://dc.lft.to/lastmile_qr_scan", "ios": "https://dc.lft.to/lastmile_qr_scan"}, "fusion_lon": 0.0, "lat": 38.89222566666667, "bike_id": "02eefcf398ff1685bbdea100b1a40080", "type": "electric_scooter", "is_reserved": 0, "lon": -77.0313455}, {"fusion_lat": 0.0, "name": "94dfdee994987a49baf998fdb7351a81", "is_disabled": 0, "rental_uris": {"android": "https://dc.lft.to/lastmile_qr_scan", "ios": "https://dc.lft.to/lastmile_qr_scan"}, "fusion_lon": 0.0, "lat": 38.91094066666667, "bike_id": "94dfdee994987a49baf998fdb7351a81", "type": "electric_scooter", "is_reserved": 0, "lon": -77.03857066666667}, {"fusion_lat": 0.0, "name": "cfc36734104da5f61811813ce8bae30b", "is_disabled": 0, "rental_uris": {"android": "https://dc.lft.to/lastmile_qr_scan", "ios": "https://dc.lft.to/lastmile_qr_scan"}, "fusion_lon": 0.0, "lat": 38.89744, "bike_id": "cfc36734104da5f61811813ce8bae30b", "type": "electric_scooter", "is_reserved": 0, "lon": -77.026094}, {"fusion_lat": 0.0, "name": "e270422cd1e8163d6573a463ef43e6fc", "is_disabled": 0, "rental_uris": {"android": "https://dc.lft.to/lastmile_qr_scan", "ios": "https://dc.lft.to/lastmile_qr_scan"}, "fusion_lon": 0.0, "lat": 38.911289833333335, "bike_id": "e270422cd1e8163d6573a463ef43e6fc", "type": "electric_scooter", "is_reserved": 0, "lon": -77.03179366666667}, {"fusion_lat": 0.0, "name": "1b9e17cc374206acc9bdb3442d6e6699", "is_disabled": 0, "rental_uris": {"android": "https://dc.lft.to/lastmile_qr_scan", "ios": "https://dc.lft.to/lastmile_qr_scan"}, "fusion_lon": 0.0, "lat": 38.85458083333333, "bike_id": "1b9e17cc374206acc9bdb3442d6e6699", "type": "electric_scooter", "is_reserved": 0, "lon": -76.97224966666667}, {"fusion_lat": 0.0, "name": "32bfe007c205d8c47cb298f2bb110a5c", "is_disabled": 0, "rental_uris": {"android": "https://dc.lft.to/lastmile_qr_scan", "ios": "https://dc.lft.to/lastmile_qr_scan"}, "fusion_lon": 0.0, "lat": 38.926544666666665, "bike_id": "32bfe007c205d8c47cb298f2bb110a5c", "type": "electric_scooter", "is_reserved": 0, "lon": -77.02423566666667}, {"fusion_lat": 0.0, "name": "00ada83e14626b4c4c7237f420900a25", "is_disabled": 0, "rental_uris": {"android": "https://dc.lft.to/lastmile_qr_scan", "ios": "https://dc.lft.to/lastmile_qr_scan"}, "fusion_lon": 0.0, "lat": 38.92973033333333, "bike_id": "00ada83e14626b4c4c7237f420900a25", "type": "electric_scooter", "is_reserved": 0, "lon": -77.03238383333333}, {"fusion_lat": 0.0, "name": "de6f481021e3e053e4bd70104adf077f", "is_disabled": 0, "rental_uris": {"android": "https://dc.lft.to/lastmile_qr_scan", "ios": "https://dc.lft.to/lastmile_qr_scan"}, "fusion_lon": 0.0, "lat": 38.90253833333333, "bike_id": "de6f481021e3e053e4bd70104adf077f", "type": "electric_scooter", "is_reserved": 0, "lon": -77.0193835}, {"fusion_lat": 0.0, "name": "728bcd409cb939582bb5a51105449f17", "is_disabled": 0, "rental_uris": {"android": "https://dc.lft.to/lastmile_qr_scan", "ios": "https://dc.lft.to/lastmile_qr_scan"}, "fusion_lon": 0.0, "lat": 38.89282716666666, "bike_id": "728bcd409cb939582bb5a51105449f17", "type": "electric_scooter", "is_reserved": 0, "lon": -77.01227466666667}, {"fusion_lat": 0.0, "name": "9d3f0f3ea8fae72c5f9be6368e2ca498", "is_disabled": 0, "rental_uris": {"android": "https://dc.lft.to/lastmile_qr_scan", "ios": "https://dc.lft.to/lastmile_qr_scan"}, "fusion_lon": 0.0, "lat": 38.928528, "bike_id": "9d3f0f3ea8fae72c5f9be6368e2ca498", "type": "electric_scooter", "is_reserved": 0, "lon": -77.03278733333333}, {"fusion_lat": 0.0, "name": "e53fb2f20a5d8adb6156aebe42550ae5", "is_disabled": 0, "rental_uris": {"android": "https://dc.lft.to/lastmile_qr_scan", "ios": "https://dc.lft.to/lastmile_qr_scan"}, "fusion_lon": 0.0, "lat": 38.91995633333333, "bike_id": "e53fb2f20a5d8adb6156aebe42550ae5", "type": "electric_scooter", "is_reserved": 0, "lon": -77.03278816666666}, {"fusion_lat": 0.0, "name": "9e302ac998a6b04eca68dbc29c30495a", "is_disabled": 0, "rental_uris": {"android": "https://dc.lft.to/lastmile_qr_scan", "ios": "https://dc.lft.to/lastmile_qr_scan"}, "fusion_lon": 0.0, "lat": 38.90021766666667, "bike_id": "9e302ac998a6b04eca68dbc29c30495a", "type": "electric_scooter", "is_reserved": 0, "lon": -77.000239}, {"fusion_lat": 0.0, "name": "70757bafd0d5b6d930db75df1fb231d8", "is_disabled": 0, "rental_uris": {"android": "https://dc.lft.to/lastmile_qr_scan", "ios": "https://dc.lft.to/lastmile_qr_scan"}, "fusion_lon": 0.0, "lat": 38.91996666666667, "bike_id": "70757bafd0d5b6d930db75df1fb231d8", "type": "electric_scooter", "is_reserved": 0, "lon": -77.07139533333333}, {"fusion_lat": 0.0, "name": "59a32c6187564bf99abfb064fdaa0cde", "is_disabled": 0, "rental_uris": {"android": "https://dc.lft.to/lastmile_qr_scan", "ios": "https://dc.lft.to/lastmile_qr_scan"}, "fusion_lon": 0.0, "lat": 38.897095, "bike_id": "59a32c6187564bf99abfb064fdaa0cde", "type": "electric_scooter", "is_reserved": 0, "lon": -77.0238005}, {"fusion_lat": 0.0, "name": "70c0ac62573c65acee988947002111ad", "is_disabled": 0, "rental_uris": {"android": "https://dc.lft.to/lastmile_qr_scan", "ios": "https://dc.lft.to/lastmile_qr_scan"}, "fusion_lon": 0.0, "lat": 38.96667083333333, "bike_id": "70c0ac62573c65acee988947002111ad", "type": "electric_bike", "is_reserved": 0, "lon": -76.97439383333334}, {"fusion_lat": 0.0, "name": "edb7c4817704265a3f0d323304e623b5", "is_disabled": 0, "rental_uris": {"android": "https://dc.lft.to/lastmile_qr_scan", "ios": "https://dc.lft.to/lastmile_qr_scan"}, "fusion_lon": 0.0, "lat": 38.915984333333334, "bike_id": "edb7c4817704265a3f0d323304e623b5", "type": "electric_scooter", "is_reserved": 0, "lon": -77.049066}, {"fusion_lat": 0.0, "name": "323fe312ab2d97f7492596c9f1f25fa7", "is_disabled": 0, "rental_uris": {"android": "https://dc.lft.to/lastmile_qr_scan", "ios": "https://dc.lft.to/lastmile_qr_scan"}, "fusion_lon": 0.0, "lat": 38.93844266666667, "bike_id": "323fe312ab2d97f7492596c9f1f25fa7", "type": "electric_scooter", "is_reserved": 0, "lon": -77.06241666666666}, {"fusion_lat": 0.0, "name": "547789064891b819625fa9de47c6332b", "is_disabled": 0, "rental_uris": {"android": "https://dc.lft.to/lastmile_qr_scan", "ios": "https://dc.lft.to/lastmile_qr_scan"}, "fusion_lon": 0.0, "lat": 38.925486166666666, "bike_id": "547789064891b819625fa9de47c6332b", "type": "electric_scooter", "is_reserved": 0, "lon": -77.0429695}, {"fusion_lat": 0.0, "name": "2c29b67a49df8790fe3eff4cee9f8c2b", "is_disabled": 0, "rental_uris": {"android": "https://dc.lft.to/lastmile_qr_scan", "ios": "https://dc.lft.to/lastmile_qr_scan"}, "fusion_lon": 0.0, "lat": 38.93113916666667, "bike_id": "2c29b67a49df8790fe3eff4cee9f8c2b", "type": "electric_scooter", "is_reserved": 0, "lon": -77.02096166666666}, {"fusion_lat": 0.0, "name": "6b8d6128984f2ee925eaf0af8e1e107f", "is_disabled": 0, "rental_uris": {"android": "https://dc.lft.to/lastmile_qr_scan", "ios": "https://dc.lft.to/lastmile_qr_scan"}, "fusion_lon": 0.0, "lat": 38.90482633333333, "bike_id": "6b8d6128984f2ee925eaf0af8e1e107f", "type": "electric_bike", "is_reserved": 0, "lon": -77.06111966666667}, {"fusion_lat": 0.0, "name": "346ee8dca141d7e15ec6bd71bed79a10", "is_disabled": 0, "rental_uris": {"android": "https://dc.lft.to/lastmile_qr_scan", "ios": "https://dc.lft.to/lastmile_qr_scan"}, "fusion_lon": 0.0, "lat": 38.926250833333334, "bike_id": "346ee8dca141d7e15ec6bd71bed79a10", "type": "electric_scooter", "is_reserved": 0, "lon": -77.0432365}, {"fusion_lat": 0.0, "name": "b7763fbe8424b333b12ffee96ec8a32a", "is_disabled": 0, "rental_uris": {"android": "https://dc.lft.to/lastmile_qr_scan", "ios": "https://dc.lft.to/lastmile_qr_scan"}, "fusion_lon": 0.0, "lat": 38.9246175, "bike_id": "b7763fbe8424b333b12ffee96ec8a32a", "type": "electric_scooter", "is_reserved": 0, "lon": -76.99332133333333}, {"fusion_lat": 0.0, "name": "20732fb47d2f638e6dee96c478bd0980", "is_disabled": 0, "rental_uris": {"android": "https://dc.lft.to/lastmile_qr_scan", "ios": "https://dc.lft.to/lastmile_qr_scan"}, "fusion_lon": 0.0, "lat": 38.92269016666667, "bike_id": "20732fb47d2f638e6dee96c478bd0980", "type": "electric_scooter", "is_reserved": 0, "lon": -77.03640666666666}, {"fusion_lat": 0.0, "name": "93906fd382b4f76915e94444068b9c1e", "is_disabled": 0, "rental_uris": {"android": "https://dc.lft.to/lastmile_qr_scan", "ios": "https://dc.lft.to/lastmile_qr_scan"}, "fusion_lon": 0.0, "lat": 38.90516983333333, "bike_id": "93906fd382b4f76915e94444068b9c1e", "type": "electric_scooter", "is_reserved": 0, "lon": -77.03457166666666}, {"fusion_lat": 0.0, "name": "4ec922775555560cfdf7d840a8fd56a1", "is_disabled": 0, "rental_uris": {"android": "https://dc.lft.to/lastmile_qr_scan", "ios": "https://dc.lft.to/lastmile_qr_scan"}, "fusion_lon": 0.0, "lat": 38.897661166666666, "bike_id": "4ec922775555560cfdf7d840a8fd56a1", "type": "electric_scooter", "is_reserved": 0, "lon": -77.026598}, {"fusion_lat": 0.0, "name": "9ebd801e0296ebe73ee33d9fecb87704", "is_disabled": 0, "rental_uris": {"android": "https://dc.lft.to/lastmile_qr_scan", "ios": "https://dc.lft.to/lastmile_qr_scan"}, "fusion_lon": 0.0, "lat": 38.920288666666664, "bike_id": "9ebd801e0296ebe73ee33d9fecb87704", "type": "electric_scooter", "is_reserved": 0, "lon": -76.99559966666666}, {"fusion_lat": 0.0, "name": "0d66c6606c992cd8d6030819b815c2e9", "is_disabled": 0, "rental_uris": {"android": "https://dc.lft.to/lastmile_qr_scan", "ios": "https://dc.lft.to/lastmile_qr_scan"}, "fusion_lon": 0.0, "lat": 38.9173175, "bike_id": "0d66c6606c992cd8d6030819b815c2e9", "type": "electric_scooter", "is_reserved": 0, "lon": -77.04173433333334}, {"fusion_lat": 0.0, "name": "d263d049dbaf1489d1fe23cbfbc31496", "is_disabled": 0, "rental_uris": {"android": "https://dc.lft.to/lastmile_qr_scan", "ios": "https://dc.lft.to/lastmile_qr_scan"}, "fusion_lon": 0.0, "lat": 38.86258683333333, "bike_id": "d263d049dbaf1489d1fe23cbfbc31496", "type": "electric_bike", "is_reserved": 0, "lon": -76.98351483333333}, {"fusion_lat": 0.0, "name": "9d823a3c6011e213f80165571d089b05", "is_disabled": 0, "rental_uris": {"android": "https://dc.lft.to/lastmile_qr_scan", "ios": "https://dc.lft.to/lastmile_qr_scan"}, "fusion_lon": 0.0, "lat": 38.894795, "bike_id": "9d823a3c6011e213f80165571d089b05", "type": "electric_scooter", "is_reserved": 0, "lon": -77.02178266666667}, {"fusion_lat": 0.0, "name": "a6a915010b506223888b31aeb31dc645", "is_disabled": 0, "rental_uris": {"android": "https://dc.lft.to/lastmile_qr_scan", "ios": "https://dc.lft.to/lastmile_qr_scan"}, "fusion_lon": 0.0, "lat": 38.90095783333334, "bike_id": "a6a915010b506223888b31aeb31dc645", "type": "electric_scooter", "is_reserved": 0, "lon": -77.019449}, {"fusion_lat": 0.0, "name": "17ee47b1e7f477a211fed6f84eb1c936", "is_disabled": 0, "rental_uris": {"android": "https://dc.lft.to/lastmile_qr_scan", "ios": "https://dc.lft.to/lastmile_qr_scan"}, "fusion_lon": 0.0, "lat": 38.85801166666667, "bike_id": "17ee47b1e7f477a211fed6f84eb1c936", "type": "electric_bike", "is_reserved": 0, "lon": -76.98727833333334}, {"fusion_lat": 0.0, "name": "bc7469d2b180f241f4747e7080e1c7ad", "is_disabled": 0, "rental_uris": {"android": "https://dc.lft.to/lastmile_qr_scan", "ios": "https://dc.lft.to/lastmile_qr_scan"}, "fusion_lon": 0.0, "lat": 38.90598216666667, "bike_id": "bc7469d2b180f241f4747e7080e1c7ad", "type": "electric_bike", "is_reserved": 0, "lon": -77.06342866666667}, {"fusion_lat": 0.0, "name": "df63e0ad93ced6a48d3d0dc85bf8bfde", "is_disabled": 0, "rental_uris": {"android": "https://dc.lft.to/lastmile_qr_scan", "ios": "https://dc.lft.to/lastmile_qr_scan"}, "fusion_lon": 0.0, "lat": 38.920624, "bike_id": "df63e0ad93ced6a48d3d0dc85bf8bfde", "type": "electric_scooter", "is_reserved": 0, "lon": -76.99863166666667}, {"fusion_lat": 0.0, "name": "212f19c6db2d795ff79c3cf2649c5a76", "is_disabled": 0, "rental_uris": {"android": "https://dc.lft.to/lastmile_qr_scan", "ios": "https://dc.lft.to/lastmile_qr_scan"}, "fusion_lon": 0.0, "lat": 38.92360733333334, "bike_id": "212f19c6db2d795ff79c3cf2649c5a76", "type": "electric_scooter", "is_reserved": 0, "lon": -77.042376}, {"fusion_lat": 0.0, "name": "3abb283a1fbf04469e5e716a453e71e7", "is_disabled": 0, "rental_uris": {"android": "https://dc.lft.to/lastmile_qr_scan", "ios": "https://dc.lft.to/lastmile_qr_scan"}, "fusion_lon": 0.0, "lat": 38.917238, "bike_id": "3abb283a1fbf04469e5e716a453e71e7", "type": "electric_scooter", "is_reserved": 0, "lon": -77.00811066666667}, {"fusion_lat": 0.0, "name": "b2bc5a43a1c1a143fe02780413b8cf18", "is_disabled": 0, "rental_uris": {"android": "https://dc.lft.to/lastmile_qr_scan", "ios": "https://dc.lft.to/lastmile_qr_scan"}, "fusion_lon": 0.0, "lat": 38.91023333333333, "bike_id": "b2bc5a43a1c1a143fe02780413b8cf18", "type": "electric_scooter", "is_reserved": 0, "lon": -77.00757233333333}, {"fusion_lat": 0.0, "name": "9b2533aabe976f4003bd00232f051acc", "is_disabled": 0, "rental_uris": {"android": "https://dc.lft.to/lastmile_qr_scan", "ios": "https://dc.lft.to/lastmile_qr_scan"}, "fusion_lon": 0.0, "lat": 38.9206055, "bike_id": "9b2533aabe976f4003bd00232f051acc", "type": "electric_scooter", "is_reserved": 0, "lon": -77.04406033333333}, {"fusion_lat": 0.0, "name": "d0373b225d473b651638b4f8b0115f6d", "is_disabled": 0, "rental_uris": {"android": "https://dc.lft.to/lastmile_qr_scan", "ios": "https://dc.lft.to/lastmile_qr_scan"}, "fusion_lon": 0.0, "lat": 38.87534016666667, "bike_id": "d0373b225d473b651638b4f8b0115f6d", "type": "electric_scooter", "is_reserved": 0, "lon": -77.005056}, {"fusion_lat": 0.0, "name": "5427b94fc7126bcb085c01382dc5c2f3", "is_disabled": 0, "rental_uris": {"android": "https://dc.lft.to/lastmile_qr_scan", "ios": "https://dc.lft.to/lastmile_qr_scan"}, "fusion_lon": 0.0, "lat": 38.91991, "bike_id": "5427b94fc7126bcb085c01382dc5c2f3", "type": "electric_scooter", "is_reserved": 0, "lon": -77.02520683333333}, {"fusion_lat": 0.0, "name": "2f59426d1010e0323c34791106c19e32", "is_disabled": 0, "rental_uris": {"android": "https://dc.lft.to/lastmile_qr_scan", "ios": "https://dc.lft.to/lastmile_qr_scan"}, "fusion_lon": 0.0, "lat": 38.916111666666666, "bike_id": "2f59426d1010e0323c34791106c19e32", "type": "electric_scooter", "is_reserved": 0, "lon": -77.0455195}, {"fusion_lat": 0.0, "name": "afab28bffc4571fe7f139268cdef4fb1", "is_disabled": 0, "rental_uris": {"android": "https://dc.lft.to/lastmile_qr_scan", "ios": "https://dc.lft.to/lastmile_qr_scan"}, "fusion_lon": 0.0, "lat": 38.916304, "bike_id": "afab28bffc4571fe7f139268cdef4fb1", "type": "electric_scooter", "is_reserved": 0, "lon": -77.02252033333333}, {"fusion_lat": 0.0, "name": "62ca70caa1c91ff20d2d8a1075413618", "is_disabled": 0, "rental_uris": {"android": "https://dc.lft.to/lastmile_qr_scan", "ios": "https://dc.lft.to/lastmile_qr_scan"}, "fusion_lon": 0.0, "lat": 38.922928166666665, "bike_id": "62ca70caa1c91ff20d2d8a1075413618", "type": "electric_scooter", "is_reserved": 0, "lon": -77.04250416666666}, {"fusion_lat": 0.0, "name": "4df191f0335e86a82e6bedc10e303485", "is_disabled": 0, "rental_uris": {"android": "https://dc.lft.to/lastmile_qr_scan", "ios": "https://dc.lft.to/lastmile_qr_scan"}, "fusion_lon": 0.0, "lat": 38.87753466666667, "bike_id": "4df191f0335e86a82e6bedc10e303485", "type": "electric_scooter", "is_reserved": 0, "lon": -77.00345883333334}, {"fusion_lat": 0.0, "name": "31a54f328cb92fe4e22f732c62d80d50", "is_disabled": 0, "rental_uris": {"android": "https://dc.lft.to/lastmile_qr_scan", "ios": "https://dc.lft.to/lastmile_qr_scan"}, "fusion_lon": 0.0, "lat": 38.89673033333333, "bike_id": "31a54f328cb92fe4e22f732c62d80d50", "type": "electric_scooter", "is_reserved": 0, "lon": -77.05113766666666}, {"fusion_lat": 0.0, "name": "eb25aa562a7c7011e07cecb7e7567936", "is_disabled": 0, "rental_uris": {"android": "https://dc.lft.to/lastmile_qr_scan", "ios": "https://dc.lft.to/lastmile_qr_scan"}, "fusion_lon": 0.0, "lat": 38.89543966666667, "bike_id": "eb25aa562a7c7011e07cecb7e7567936", "type": "electric_scooter", "is_reserved": 0, "lon": -76.9496745}, {"fusion_lat": 0.0, "name": "175d0f1cedd9e307fb645dbc64574c56", "is_disabled": 0, "rental_uris": {"android": "https://dc.lft.to/lastmile_qr_scan", "ios": "https://dc.lft.to/lastmile_qr_scan"}, "fusion_lon": 0.0, "lat": 38.905303, "bike_id": "175d0f1cedd9e307fb645dbc64574c56", "type": "electric_scooter", "is_reserved": 0, "lon": -77.0587985}, {"fusion_lat": 0.0, "name": "4e06e6be35bf2af743adeeb32bee6aa3", "is_disabled": 0, "rental_uris": {"android": "https://dc.lft.to/lastmile_qr_scan", "ios": "https://dc.lft.to/lastmile_qr_scan"}, "fusion_lon": 0.0, "lat": 38.92483816666667, "bike_id": "4e06e6be35bf2af743adeeb32bee6aa3", "type": "electric_scooter", "is_reserved": 0, "lon": -77.03916783333334}, {"fusion_lat": 0.0, "name": "e49f7f5a4643790ca75a2876c491b95d", "is_disabled": 0, "rental_uris": {"android": "https://dc.lft.to/lastmile_qr_scan", "ios": "https://dc.lft.to/lastmile_qr_scan"}, "fusion_lon": 0.0, "lat": 38.876636, "bike_id": "e49f7f5a4643790ca75a2876c491b95d", "type": "electric_scooter", "is_reserved": 0, "lon": -76.99625566666667}, {"fusion_lat": 0.0, "name": "584b1a55d5702a41477358b1717176a1", "is_disabled": 0, "rental_uris": {"android": "https://dc.lft.to/lastmile_qr_scan", "ios": "https://dc.lft.to/lastmile_qr_scan"}, "fusion_lon": 0.0, "lat": 38.917886, "bike_id": "584b1a55d5702a41477358b1717176a1", "type": "electric_scooter", "is_reserved": 0, "lon": -77.0402635}, {"fusion_lat": 0.0, "name": "fabb66c57a0dc310a94b02595460c621", "is_disabled": 0, "rental_uris": {"android": "https://dc.lft.to/lastmile_qr_scan", "ios": "https://dc.lft.to/lastmile_qr_scan"}, "fusion_lon": 0.0, "lat": 38.90068266666667, "bike_id": "fabb66c57a0dc310a94b02595460c621", "type": "electric_scooter", "is_reserved": 0, "lon": -76.92741983333333}, {"fusion_lat": 0.0, "name": "6171dcc5e914ad8e32297efb5ef27b77", "is_disabled": 0, "rental_uris": {"android": "https://dc.lft.to/lastmile_qr_scan", "ios": "https://dc.lft.to/lastmile_qr_scan"}, "fusion_lon": 0.0, "lat": 38.9062875, "bike_id": "6171dcc5e914ad8e32297efb5ef27b77", "type": "electric_scooter", "is_reserved": 0, "lon": -77.06278166666667}, {"fusion_lat": 0.0, "name": "f4fd1b54723a2ae69b59ebc4789280fc", "is_disabled": 0, "rental_uris": {"android": "https://dc.lft.to/lastmile_qr_scan", "ios": "https://dc.lft.to/lastmile_qr_scan"}, "fusion_lon": 0.0, "lat": 38.8775365, "bike_id": "f4fd1b54723a2ae69b59ebc4789280fc", "type": "electric_scooter", "is_reserved": 0, "lon": -77.014295}, {"fusion_lat": 0.0, "name": "d2d9fc0620ed79ce73961f8fb6fbf7b1", "is_disabled": 0, "rental_uris": {"android": "https://dc.lft.to/lastmile_qr_scan", "ios": "https://dc.lft.to/lastmile_qr_scan"}, "fusion_lon": 0.0, "lat": 38.908515333333334, "bike_id": "d2d9fc0620ed79ce73961f8fb6fbf7b1", "type": "electric_scooter", "is_reserved": 0, "lon": -77.06398433333334}, {"fusion_lat": 0.0, "name": "424ce34b5c26f5302aca304b47225a16", "is_disabled": 0, "rental_uris": {"android": "https://dc.lft.to/lastmile_qr_scan", "ios": "https://dc.lft.to/lastmile_qr_scan"}, "fusion_lon": 0.0, "lat": 38.96074733333333, "bike_id": "424ce34b5c26f5302aca304b47225a16", "type": "electric_scooter", "is_reserved": 0, "lon": -77.0009255}, {"fusion_lat": 0.0, "name": "49bfee88984def89a894221ee7b41001", "is_disabled": 0, "rental_uris": {"android": "https://dc.lft.to/lastmile_qr_scan", "ios": "https://dc.lft.to/lastmile_qr_scan"}, "fusion_lon": 0.0, "lat": 38.85565016666666, "bike_id": "49bfee88984def89a894221ee7b41001", "type": "electric_bike", "is_reserved": 0, "lon": -77.1131405}, {"fusion_lat": 0.0, "name": "1f8b863f3a2ddc1450ccc9ce1ad8ff07", "is_disabled": 0, "rental_uris": {"android": "https://dc.lft.to/lastmile_qr_scan", "ios": "https://dc.lft.to/lastmile_qr_scan"}, "fusion_lon": 0.0, "lat": 38.90088683333333, "bike_id": "1f8b863f3a2ddc1450ccc9ce1ad8ff07", "type": "electric_scooter", "is_reserved": 0, "lon": -77.02702783333334}, {"fusion_lat": 0.0, "name": "d2d28bbf1d1675773cb6b58468576271", "is_disabled": 0, "rental_uris": {"android": "https://dc.lft.to/lastmile_qr_scan", "ios": "https://dc.lft.to/lastmile_qr_scan"}, "fusion_lon": 0.0, "lat": 38.897293, "bike_id": "d2d28bbf1d1675773cb6b58468576271", "type": "electric_scooter", "is_reserved": 0, "lon": -76.9470195}, {"fusion_lat": 0.0, "name": "61bfc8a9ad76ac5edabd0b3b1b227bc9", "is_disabled": 0, "rental_uris": {"android": "https://dc.lft.to/lastmile_qr_scan", "ios": "https://dc.lft.to/lastmile_qr_scan"}, "fusion_lon": 0.0, "lat": 38.89559966666667, "bike_id": "61bfc8a9ad76ac5edabd0b3b1b227bc9", "type": "electric_scooter", "is_reserved": 0, "lon": -76.994279}, {"fusion_lat": 0.0, "name": "21f5a76aaf27664f85c45c759d4742d9", "is_disabled": 0, "rental_uris": {"android": "https://dc.lft.to/lastmile_qr_scan", "ios": "https://dc.lft.to/lastmile_qr_scan"}, "fusion_lon": 0.0, "lat": 39.05679266666667, "bike_id": "21f5a76aaf27664f85c45c759d4742d9", "type": "electric_bike", "is_reserved": 0, "lon": -77.11483433333333}, {"fusion_lat": 0.0, "name": "ce906f58d6ba91ccd6fb8f35bde4c649", "is_disabled": 0, "rental_uris": {"android": "https://dc.lft.to/lastmile_qr_scan", "ios": "https://dc.lft.to/lastmile_qr_scan"}, "fusion_lon": 0.0, "lat": 38.8792395, "bike_id": "ce906f58d6ba91ccd6fb8f35bde4c649", "type": "electric_scooter", "is_reserved": 0, "lon": -77.00537116666666}, {"fusion_lat": 0.0, "name": "3012b95c86568b1a854549d94f37e975", "is_disabled": 0, "rental_uris": {"android": "https://dc.lft.to/lastmile_qr_scan", "ios": "https://dc.lft.to/lastmile_qr_scan"}, "fusion_lon": 0.0, "lat": 38.91720433333333, "bike_id": "3012b95c86568b1a854549d94f37e975", "type": "electric_scooter", "is_reserved": 0, "lon": -77.02797883333334}, {"fusion_lat": 0.0, "name": "d321cc5f053490f1ffaa68c2e40dad2c", "is_disabled": 0, "rental_uris": {"android": "https://dc.lft.to/lastmile_qr_scan", "ios": "https://dc.lft.to/lastmile_qr_scan"}, "fusion_lon": 0.0, "lat": 39.0141955, "bike_id": "d321cc5f053490f1ffaa68c2e40dad2c", "type": "electric_bike", "is_reserved": 0, "lon": -77.04496666666667}, {"fusion_lat": 0.0, "name": "31e435fa7845c37e9e9efcd9a20e23c4", "is_disabled": 0, "rental_uris": {"android": "https://dc.lft.to/lastmile_qr_scan", "ios": "https://dc.lft.to/lastmile_qr_scan"}, "fusion_lon": 0.0, "lat": 38.91462516666667, "bike_id": "31e435fa7845c37e9e9efcd9a20e23c4", "type": "electric_scooter", "is_reserved": 0, "lon": -77.04164233333333}, {"fusion_lat": 0.0, "name": "3459117703098f7643937524a758f4e8", "is_disabled": 0, "rental_uris": {"android": "https://dc.lft.to/lastmile_qr_scan", "ios": "https://dc.lft.to/lastmile_qr_scan"}, "fusion_lon": 0.0, "lat": 38.917013, "bike_id": "3459117703098f7643937524a758f4e8", "type": "electric_scooter", "is_reserved": 0, "lon": -77.03156816666667}, {"fusion_lat": 0.0, "name": "0a1d4919426eb6de1068796c8dff8fbc", "is_disabled": 0, "rental_uris": {"android": "https://dc.lft.to/lastmile_qr_scan", "ios": "https://dc.lft.to/lastmile_qr_scan"}, "fusion_lon": 0.0, "lat": 38.89706533333333, "bike_id": "0a1d4919426eb6de1068796c8dff8fbc", "type": "electric_scooter", "is_reserved": 0, "lon": -77.023846}, {"fusion_lat": 0.0, "name": "80867e8c38b95150065e062f701b38a9", "is_disabled": 0, "rental_uris": {"android": "https://dc.lft.to/lastmile_qr_scan", "ios": "https://dc.lft.to/lastmile_qr_scan"}, "fusion_lon": 0.0, "lat": 38.92165516666667, "bike_id": "80867e8c38b95150065e062f701b38a9", "type": "electric_scooter", "is_reserved": 0, "lon": -77.0207715}, {"fusion_lat": 0.0, "name": "1c85dbd8b7d0d6a1c9d178966b6e8546", "is_disabled": 0, "rental_uris": {"android": "https://dc.lft.to/lastmile_qr_scan", "ios": "https://dc.lft.to/lastmile_qr_scan"}, "fusion_lon": 0.0, "lat": 38.92350316666667, "bike_id": "1c85dbd8b7d0d6a1c9d178966b6e8546", "type": "electric_scooter", "is_reserved": 0, "lon": -77.03396333333333}, {"fusion_lat": 0.0, "name": "09d5bb26229d63e361657328f9d09289", "is_disabled": 0, "rental_uris": {"android": "https://dc.lft.to/lastmile_qr_scan", "ios": "https://dc.lft.to/lastmile_qr_scan"}, "fusion_lon": 0.0, "lat": 38.89874733333333, "bike_id": "09d5bb26229d63e361657328f9d09289", "type": "electric_scooter", "is_reserved": 0, "lon": -77.04001466666666}, {"fusion_lat": 0.0, "name": "ed91a35cf5290be3cba4d909996ccc11", "is_disabled": 0, "rental_uris": {"android": "https://dc.lft.to/lastmile_qr_scan", "ios": "https://dc.lft.to/lastmile_qr_scan"}, "fusion_lon": 0.0, "lat": 38.907681333333336, "bike_id": "ed91a35cf5290be3cba4d909996ccc11", "type": "electric_scooter", "is_reserved": 0, "lon": -77.07108183333334}, {"fusion_lat": 0.0, "name": "797f04cb4e36170633493d5e4d5e8c81", "is_disabled": 0, "rental_uris": {"android": "https://dc.lft.to/lastmile_qr_scan", "ios": "https://dc.lft.to/lastmile_qr_scan"}, "fusion_lon": 0.0, "lat": 38.90410583333333, "bike_id": "797f04cb4e36170633493d5e4d5e8c81", "type": "electric_scooter", "is_reserved": 0, "lon": -76.97334866666667}, {"fusion_lat": 0.0, "name": "50c2b5587d8acddb1f7a6dbdeb9b924b", "is_disabled": 0, "rental_uris": {"android": "https://dc.lft.to/lastmile_qr_scan", "ios": "https://dc.lft.to/lastmile_qr_scan"}, "fusion_lon": 0.0, "lat": 38.90530416666667, "bike_id": "50c2b5587d8acddb1f7a6dbdeb9b924b", "type": "electric_scooter", "is_reserved": 0, "lon": -77.06137566666666}, {"fusion_lat": 0.0, "name": "43880756121c451d49b089d69d38069d", "is_disabled": 0, "rental_uris": {"android": "https://dc.lft.to/lastmile_qr_scan", "ios": "https://dc.lft.to/lastmile_qr_scan"}, "fusion_lon": 0.0, "lat": 38.9140585, "bike_id": "43880756121c451d49b089d69d38069d", "type": "electric_scooter", "is_reserved": 0, "lon": -77.03171116666667}, {"fusion_lat": 0.0, "name": "41218003a4da56c9751fc1c9a05de0b2", "is_disabled": 0, "rental_uris": {"android": "https://dc.lft.to/lastmile_qr_scan", "ios": "https://dc.lft.to/lastmile_qr_scan"}, "fusion_lon": 0.0, "lat": 38.94133766666667, "bike_id": "41218003a4da56c9751fc1c9a05de0b2", "type": "electric_scooter", "is_reserved": 0, "lon": -77.02631033333333}, {"fusion_lat": 0.0, "name": "e2d6e58ebf25cad6f76e7a19eb8e5e43", "is_disabled": 0, "rental_uris": {"android": "https://dc.lft.to/lastmile_qr_scan", "ios": "https://dc.lft.to/lastmile_qr_scan"}, "fusion_lon": 0.0, "lat": 38.99783683333333, "bike_id": "e2d6e58ebf25cad6f76e7a19eb8e5e43", "type": "electric_bike", "is_reserved": 0, "lon": -77.047211}, {"fusion_lat": 0.0, "name": "0ae3cdfb6c16fb0bbbe9df76db979de4", "is_disabled": 0, "rental_uris": {"android": "https://dc.lft.to/lastmile_qr_scan", "ios": "https://dc.lft.to/lastmile_qr_scan"}, "fusion_lon": 0.0, "lat": 38.899978, "bike_id": "0ae3cdfb6c16fb0bbbe9df76db979de4", "type": "electric_scooter", "is_reserved": 0, "lon": -77.01134833333333}, {"fusion_lat": 0.0, "name": "b05b1d7b98365973180cd988876310e9", "is_disabled": 0, "rental_uris": {"android": "https://dc.lft.to/lastmile_qr_scan", "ios": "https://dc.lft.to/lastmile_qr_scan"}, "fusion_lon": 0.0, "lat": 38.916469, "bike_id": "b05b1d7b98365973180cd988876310e9", "type": "electric_scooter", "is_reserved": 0, "lon": -77.03166566666667}, {"fusion_lat": 0.0, "name": "72345828416f5bc4beccebc50d023900", "is_disabled": 0, "rental_uris": {"android": "https://dc.lft.to/lastmile_qr_scan", "ios": "https://dc.lft.to/lastmile_qr_scan"}, "fusion_lon": 0.0, "lat": 38.9025325, "bike_id": "72345828416f5bc4beccebc50d023900", "type": "electric_scooter", "is_reserved": 0, "lon": -76.98673566666666}, {"fusion_lat": 0.0, "name": "4d173184ad3c35286a57d3b73af1b27e", "is_disabled": 0, "rental_uris": {"android": "https://dc.lft.to/lastmile_qr_scan", "ios": "https://dc.lft.to/lastmile_qr_scan"}, "fusion_lon": 0.0, "lat": 38.89234966666667, "bike_id": "4d173184ad3c35286a57d3b73af1b27e", "type": "electric_scooter", "is_reserved": 0, "lon": -77.0241395}, {"fusion_lat": 0.0, "name": "d70abc65808fc44f9f26ed4020633232", "is_disabled": 0, "rental_uris": {"android": "https://dc.lft.to/lastmile_qr_scan", "ios": "https://dc.lft.to/lastmile_qr_scan"}, "fusion_lon": 0.0, "lat": 38.92412616666667, "bike_id": "d70abc65808fc44f9f26ed4020633232", "type": "electric_scooter", "is_reserved": 0, "lon": -77.02105}, {"fusion_lat": 0.0, "name": "2b4cb6057a2fbb75c9478e211dc64242", "is_disabled": 0, "rental_uris": {"android": "https://dc.lft.to/lastmile_qr_scan", "ios": "https://dc.lft.to/lastmile_qr_scan"}, "fusion_lon": 0.0, "lat": 38.90046383333333, "bike_id": "2b4cb6057a2fbb75c9478e211dc64242", "type": "electric_scooter", "is_reserved": 0, "lon": -77.04485333333334}, {"fusion_lat": 0.0, "name": "dc24759c688c6a0e35cd2232f5db9486", "is_disabled": 0, "rental_uris": {"android": "https://dc.lft.to/lastmile_qr_scan", "ios": "https://dc.lft.to/lastmile_qr_scan"}, "fusion_lon": 0.0, "lat": 38.93862466666667, "bike_id": "dc24759c688c6a0e35cd2232f5db9486", "type": "electric_scooter", "is_reserved": 0, "lon": -77.03208466666666}, {"fusion_lat": 0.0, "name": "fc9099ae3605df0ccef263d04c3ee60c", "is_disabled": 0, "rental_uris": {"android": "https://dc.lft.to/lastmile_qr_scan", "ios": "https://dc.lft.to/lastmile_qr_scan"}, "fusion_lon": 0.0, "lat": 38.920346333333335, "bike_id": "fc9099ae3605df0ccef263d04c3ee60c", "type": "electric_scooter", "is_reserved": 0, "lon": -77.01219733333333}, {"fusion_lat": 0.0, "name": "6f189b09e032ad9919f51deb82722823", "is_disabled": 0, "rental_uris": {"android": "https://dc.lft.to/lastmile_qr_scan", "ios": "https://dc.lft.to/lastmile_qr_scan"}, "fusion_lon": 0.0, "lat": 38.923649166666664, "bike_id": "6f189b09e032ad9919f51deb82722823", "type": "electric_scooter", "is_reserved": 0, "lon": -77.0512405}, {"fusion_lat": 0.0, "name": "84d3c5d86fc28bd5baffedee1cdb240d", "is_disabled": 0, "rental_uris": {"android": "https://dc.lft.to/lastmile_qr_scan", "ios": "https://dc.lft.to/lastmile_qr_scan"}, "fusion_lon": 0.0, "lat": 38.93142866666667, "bike_id": "84d3c5d86fc28bd5baffedee1cdb240d", "type": "electric_scooter", "is_reserved": 0, "lon": -77.03240416666667}, {"fusion_lat": 0.0, "name": "ea0c4f0df4e835e6316489e76ea7e2f2", "is_disabled": 0, "rental_uris": {"android": "https://dc.lft.to/lastmile_qr_scan", "ios": "https://dc.lft.to/lastmile_qr_scan"}, "fusion_lon": 0.0, "lat": 38.878303, "bike_id": "ea0c4f0df4e835e6316489e76ea7e2f2", "type": "electric_scooter", "is_reserved": 0, "lon": -76.99011116666667}, {"fusion_lat": 0.0, "name": "2f1d0ab5f097fa7ea5babfd75a1f8bad", "is_disabled": 0, "rental_uris": {"android": "https://dc.lft.to/lastmile_qr_scan", "ios": "https://dc.lft.to/lastmile_qr_scan"}, "fusion_lon": 0.0, "lat": 38.90006266666666, "bike_id": "2f1d0ab5f097fa7ea5babfd75a1f8bad", "type": "electric_scooter", "is_reserved": 0, "lon": -76.9984005}, {"fusion_lat": 0.0, "name": "4eec357bcfcd29754a3beaba0edc2551", "is_disabled": 0, "rental_uris": {"android": "https://dc.lft.to/lastmile_qr_scan", "ios": "https://dc.lft.to/lastmile_qr_scan"}, "fusion_lon": 0.0, "lat": 39.038984666666664, "bike_id": "4eec357bcfcd29754a3beaba0edc2551", "type": "electric_bike", "is_reserved": 0, "lon": -77.05033083333333}, {"fusion_lat": 0.0, "name": "878e3883f928deb57bee43f5a4722378", "is_disabled": 0, "rental_uris": {"android": "https://dc.lft.to/lastmile_qr_scan", "ios": "https://dc.lft.to/lastmile_qr_scan"}, "fusion_lon": 0.0, "lat": 38.909758833333335, "bike_id": "878e3883f928deb57bee43f5a4722378", "type": "electric_scooter", "is_reserved": 0, "lon": -77.04730083333334}, {"fusion_lat": 0.0, "name": "bd4faae7047b8584b40fd09c4705df27", "is_disabled": 0, "rental_uris": {"android": "https://dc.lft.to/lastmile_qr_scan", "ios": "https://dc.lft.to/lastmile_qr_scan"}, "fusion_lon": 0.0, "lat": 38.896386, "bike_id": "bd4faae7047b8584b40fd09c4705df27", "type": "electric_scooter", "is_reserved": 0, "lon": -77.02218683333334}, {"fusion_lat": 0.0, "name": "666909b5d509b09383d834fce1167b60", "is_disabled": 0, "rental_uris": {"android": "https://dc.lft.to/lastmile_qr_scan", "ios": "https://dc.lft.to/lastmile_qr_scan"}, "fusion_lon": 0.0, "lat": 38.853617666666665, "bike_id": "666909b5d509b09383d834fce1167b60", "type": "electric_bike", "is_reserved": 0, "lon": -77.11490566666667}, {"fusion_lat": 0.0, "name": "66e4a774a8738dfb1092bb80a3e9fb52", "is_disabled": 0, "rental_uris": {"android": "https://dc.lft.to/lastmile_qr_scan", "ios": "https://dc.lft.to/lastmile_qr_scan"}, "fusion_lon": 0.0, "lat": 38.91429016666667, "bike_id": "66e4a774a8738dfb1092bb80a3e9fb52", "type": "electric_scooter", "is_reserved": 0, "lon": -76.98452683333333}, {"fusion_lat": 0.0, "name": "269ebd14a130553859d71a15ed95f890", "is_disabled": 0, "rental_uris": {"android": "https://dc.lft.to/lastmile_qr_scan", "ios": "https://dc.lft.to/lastmile_qr_scan"}, "fusion_lon": 0.0, "lat": 38.94166416666667, "bike_id": "269ebd14a130553859d71a15ed95f890", "type": "electric_bike", "is_reserved": 0, "lon": -76.96646616666666}, {"fusion_lat": 0.0, "name": "78fddf456242e3d9a57052f0e6099061", "is_disabled": 0, "rental_uris": {"android": "https://dc.lft.to/lastmile_qr_scan", "ios": "https://dc.lft.to/lastmile_qr_scan"}, "fusion_lon": 0.0, "lat": 38.941549333333334, "bike_id": "78fddf456242e3d9a57052f0e6099061", "type": "electric_bike", "is_reserved": 0, "lon": -77.0019505}, {"fusion_lat": 0.0, "name": "fcd5a6dfe8ddf90be43d9c9217764ad3", "is_disabled": 0, "rental_uris": {"android": "https://dc.lft.to/lastmile_qr_scan", "ios": "https://dc.lft.to/lastmile_qr_scan"}, "fusion_lon": 0.0, "lat": 38.917085166666666, "bike_id": "fcd5a6dfe8ddf90be43d9c9217764ad3", "type": "electric_scooter", "is_reserved": 0, "lon": -77.00869116666667}, {"fusion_lat": 0.0, "name": "5eb3279fa760a59f63a6be4f7748edd6", "is_disabled": 0, "rental_uris": {"android": "https://dc.lft.to/lastmile_qr_scan", "ios": "https://dc.lft.to/lastmile_qr_scan"}, "fusion_lon": 0.0, "lat": 38.92970483333333, "bike_id": "5eb3279fa760a59f63a6be4f7748edd6", "type": "electric_scooter", "is_reserved": 0, "lon": -77.03136283333333}, {"fusion_lat": 0.0, "name": "7abc47867393c141072db8be341b3917", "is_disabled": 0, "rental_uris": {"android": "https://dc.lft.to/lastmile_qr_scan", "ios": "https://dc.lft.to/lastmile_qr_scan"}, "fusion_lon": 0.0, "lat": 38.98789166666667, "bike_id": "7abc47867393c141072db8be341b3917", "type": "electric_bike", "is_reserved": 0, "lon": -77.1409675}, {"fusion_lat": 0.0, "name": "c346f1cc6f3cba83da4c60bccf2bad62", "is_disabled": 0, "rental_uris": {"android": "https://dc.lft.to/lastmile_qr_scan", "ios": "https://dc.lft.to/lastmile_qr_scan"}, "fusion_lon": 0.0, "lat": 38.879123666666665, "bike_id": "c346f1cc6f3cba83da4c60bccf2bad62", "type": "electric_scooter", "is_reserved": 0, "lon": -77.00549066666666}, {"fusion_lat": 0.0, "name": "2c0c8d957046e0d649e4f8e942d0ec7a", "is_disabled": 0, "rental_uris": {"android": "https://dc.lft.to/lastmile_qr_scan", "ios": "https://dc.lft.to/lastmile_qr_scan"}, "fusion_lon": 0.0, "lat": 38.908072833333335, "bike_id": "2c0c8d957046e0d649e4f8e942d0ec7a", "type": "electric_scooter", "is_reserved": 0, "lon": -77.02174783333334}, {"fusion_lat": 0.0, "name": "84e82400d6a7b5d4b1019fbf139458e8", "is_disabled": 0, "rental_uris": {"android": "https://dc.lft.to/lastmile_qr_scan", "ios": "https://dc.lft.to/lastmile_qr_scan"}, "fusion_lon": 0.0, "lat": 38.9093605, "bike_id": "84e82400d6a7b5d4b1019fbf139458e8", "type": "electric_scooter", "is_reserved": 0, "lon": -76.9991955}, {"fusion_lat": 0.0, "name": "4288c89c3f4294f1f97c70aa1797ea02", "is_disabled": 0, "rental_uris": {"android": "https://dc.lft.to/lastmile_qr_scan", "ios": "https://dc.lft.to/lastmile_qr_scan"}, "fusion_lon": 0.0, "lat": 38.91677383333333, "bike_id": "4288c89c3f4294f1f97c70aa1797ea02", "type": "electric_scooter", "is_reserved": 0, "lon": -77.03216366666666}, {"fusion_lat": 0.0, "name": "755f572218a03f2a835e4d7c63b97234", "is_disabled": 0, "rental_uris": {"android": "https://dc.lft.to/lastmile_qr_scan", "ios": "https://dc.lft.to/lastmile_qr_scan"}, "fusion_lon": 0.0, "lat": 38.935306, "bike_id": "755f572218a03f2a835e4d7c63b97234", "type": "electric_scooter", "is_reserved": 0, "lon": -77.02847483333333}, {"fusion_lat": 0.0, "name": "a67f30decfa9740c1767579e51606459", "is_disabled": 0, "rental_uris": {"android": "https://dc.lft.to/lastmile_qr_scan", "ios": "https://dc.lft.to/lastmile_qr_scan"}, "fusion_lon": 0.0, "lat": 38.92111583333333, "bike_id": "a67f30decfa9740c1767579e51606459", "type": "electric_scooter", "is_reserved": 0, "lon": -77.0180375}, {"fusion_lat": 0.0, "name": "59be2057aa056ae58a4644ec6854c942", "is_disabled": 0, "rental_uris": {"android": "https://dc.lft.to/lastmile_qr_scan", "ios": "https://dc.lft.to/lastmile_qr_scan"}, "fusion_lon": 0.0, "lat": 38.905181666666664, "bike_id": "59be2057aa056ae58a4644ec6854c942", "type": "electric_scooter", "is_reserved": 0, "lon": -77.0639145}, {"fusion_lat": 0.0, "name": "f2a4a2ba2c0ab676ac8a4bccc711bdeb", "is_disabled": 0, "rental_uris": {"android": "https://dc.lft.to/lastmile_qr_scan", "ios": "https://dc.lft.to/lastmile_qr_scan"}, "fusion_lon": 0.0, "lat": 38.93636766666667, "bike_id": "f2a4a2ba2c0ab676ac8a4bccc711bdeb", "type": "electric_scooter", "is_reserved": 0, "lon": -77.03660783333333}, {"fusion_lat": 0.0, "name": "42e8f71dbfe4bcfc8ec84ac66c5eac51", "is_disabled": 0, "rental_uris": {"android": "https://dc.lft.to/lastmile_qr_scan", "ios": "https://dc.lft.to/lastmile_qr_scan"}, "fusion_lon": 0.0, "lat": 38.91030966666667, "bike_id": "42e8f71dbfe4bcfc8ec84ac66c5eac51", "type": "electric_scooter", "is_reserved": 0, "lon": -77.02912616666667}, {"fusion_lat": 0.0, "name": "571142c53b8593d39c9c06ee176c0875", "is_disabled": 0, "rental_uris": {"android": "https://dc.lft.to/lastmile_qr_scan", "ios": "https://dc.lft.to/lastmile_qr_scan"}, "fusion_lon": 0.0, "lat": 38.9247775, "bike_id": "571142c53b8593d39c9c06ee176c0875", "type": "electric_scooter", "is_reserved": 0, "lon": -77.02075233333333}, {"fusion_lat": 0.0, "name": "bba24b73dac8a4807cc828cca60f40f0", "is_disabled": 0, "rental_uris": {"android": "https://dc.lft.to/lastmile_qr_scan", "ios": "https://dc.lft.to/lastmile_qr_scan"}, "fusion_lon": 0.0, "lat": 38.901067833333336, "bike_id": "bba24b73dac8a4807cc828cca60f40f0", "type": "electric_scooter", "is_reserved": 0, "lon": -76.93046166666667}, {"fusion_lat": 0.0, "name": "0199a7f157fcd7f2149136ad89d89b89", "is_disabled": 0, "rental_uris": {"android": "https://dc.lft.to/lastmile_qr_scan", "ios": "https://dc.lft.to/lastmile_qr_scan"}, "fusion_lon": 0.0, "lat": 38.90733816666667, "bike_id": "0199a7f157fcd7f2149136ad89d89b89", "type": "electric_scooter", "is_reserved": 0, "lon": -77.04756533333334}, {"fusion_lat": 0.0, "name": "85c51627137926ad01f4d03cc7677be3", "is_disabled": 0, "rental_uris": {"android": "https://dc.lft.to/lastmile_qr_scan", "ios": "https://dc.lft.to/lastmile_qr_scan"}, "fusion_lon": 0.0, "lat": 38.900665000000004, "bike_id": "85c51627137926ad01f4d03cc7677be3", "type": "electric_scooter", "is_reserved": 0, "lon": -77.05682916666666}, {"fusion_lat": 0.0, "name": "96aca6b25928f583e80f019f89a2d461", "is_disabled": 0, "rental_uris": {"android": "https://dc.lft.to/lastmile_qr_scan", "ios": "https://dc.lft.to/lastmile_qr_scan"}, "fusion_lon": 0.0, "lat": 38.88608033333333, "bike_id": "96aca6b25928f583e80f019f89a2d461", "type": "electric_scooter", "is_reserved": 0, "lon": -77.0033795}, {"fusion_lat": 0.0, "name": "b1b340792f0db93c5a2ecb39f2501a83", "is_disabled": 0, "rental_uris": {"android": "https://dc.lft.to/lastmile_qr_scan", "ios": "https://dc.lft.to/lastmile_qr_scan"}, "fusion_lon": 0.0, "lat": 38.88145016666667, "bike_id": "b1b340792f0db93c5a2ecb39f2501a83", "type": "electric_scooter", "is_reserved": 0, "lon": -76.99504783333333}, {"fusion_lat": 0.0, "name": "2c40c4ccde1f1030e64bf95f1fed892e", "is_disabled": 0, "rental_uris": {"android": "https://dc.lft.to/lastmile_qr_scan", "ios": "https://dc.lft.to/lastmile_qr_scan"}, "fusion_lon": 0.0, "lat": 38.89683083333333, "bike_id": "2c40c4ccde1f1030e64bf95f1fed892e", "type": "electric_scooter", "is_reserved": 0, "lon": -77.005533}, {"fusion_lat": 0.0, "name": "a7f81904b43da2bbcd00f210003e27f5", "is_disabled": 0, "rental_uris": {"android": "https://dc.lft.to/lastmile_qr_scan", "ios": "https://dc.lft.to/lastmile_qr_scan"}, "fusion_lon": 0.0, "lat": 38.91408233333333, "bike_id": "a7f81904b43da2bbcd00f210003e27f5", "type": "electric_scooter", "is_reserved": 0, "lon": -77.04098116666667}, {"fusion_lat": 0.0, "name": "1d2acb43932cc7d1ed7d5ccb3e1657ca", "is_disabled": 0, "rental_uris": {"android": "https://dc.lft.to/lastmile_qr_scan", "ios": "https://dc.lft.to/lastmile_qr_scan"}, "fusion_lon": 0.0, "lat": 38.9064875, "bike_id": "1d2acb43932cc7d1ed7d5ccb3e1657ca", "type": "electric_scooter", "is_reserved": 0, "lon": -77.00660933333333}, {"fusion_lat": 0.0, "name": "b4d1841153ae5ee020d7423967ff7509", "is_disabled": 0, "rental_uris": {"android": "https://dc.lft.to/lastmile_qr_scan", "ios": "https://dc.lft.to/lastmile_qr_scan"}, "fusion_lon": 0.0, "lat": 38.90532283333334, "bike_id": "b4d1841153ae5ee020d7423967ff7509", "type": "electric_scooter", "is_reserved": 0, "lon": -77.05871466666666}, {"fusion_lat": 0.0, "name": "52780170f9ad948ccee04e460fae9876", "is_disabled": 0, "rental_uris": {"android": "https://dc.lft.to/lastmile_qr_scan", "ios": "https://dc.lft.to/lastmile_qr_scan"}, "fusion_lon": 0.0, "lat": 38.966695, "bike_id": "52780170f9ad948ccee04e460fae9876", "type": "electric_scooter", "is_reserved": 0, "lon": -77.025484}, {"fusion_lat": 0.0, "name": "17c92d10baa8186c7879719ea467f402", "is_disabled": 0, "rental_uris": {"android": "https://dc.lft.to/lastmile_qr_scan", "ios": "https://dc.lft.to/lastmile_qr_scan"}, "fusion_lon": 0.0, "lat": 38.9131425, "bike_id": "17c92d10baa8186c7879719ea467f402", "type": "electric_scooter", "is_reserved": 0, "lon": -77.036653}, {"fusion_lat": 0.0, "name": "115662e8a8396d18b5e1e19ff471c332", "is_disabled": 0, "rental_uris": {"android": "https://dc.lft.to/lastmile_qr_scan", "ios": "https://dc.lft.to/lastmile_qr_scan"}, "fusion_lon": 0.0, "lat": 38.90394333333333, "bike_id": "115662e8a8396d18b5e1e19ff471c332", "type": "electric_scooter", "is_reserved": 0, "lon": -77.03504483333333}, {"fusion_lat": 0.0, "name": "1f873c02d3623e19b9b28eef5e767c19", "is_disabled": 0, "rental_uris": {"android": "https://dc.lft.to/lastmile_qr_scan", "ios": "https://dc.lft.to/lastmile_qr_scan"}, "fusion_lon": 0.0, "lat": 38.93186466666667, "bike_id": "1f873c02d3623e19b9b28eef5e767c19", "type": "electric_scooter", "is_reserved": 0, "lon": -77.03795733333334}, {"fusion_lat": 0.0, "name": "f10133ee962e4131895e876c14c917ab", "is_disabled": 0, "rental_uris": {"android": "https://dc.lft.to/lastmile_qr_scan", "ios": "https://dc.lft.to/lastmile_qr_scan"}, "fusion_lon": 0.0, "lat": 38.9037345, "bike_id": "f10133ee962e4131895e876c14c917ab", "type": "electric_scooter", "is_reserved": 0, "lon": -77.04829233333334}, {"fusion_lat": 0.0, "name": "f10960ed8ee7a5d3e207d6297c7d8882", "is_disabled": 0, "rental_uris": {"android": "https://dc.lft.to/lastmile_qr_scan", "ios": "https://dc.lft.to/lastmile_qr_scan"}, "fusion_lon": 0.0, "lat": 38.9093455, "bike_id": "f10960ed8ee7a5d3e207d6297c7d8882", "type": "electric_scooter", "is_reserved": 0, "lon": -77.06415833333334}, {"fusion_lat": 0.0, "name": "a6170554d60c6d9e584c865277a6f9ff", "is_disabled": 0, "rental_uris": {"android": "https://dc.lft.to/lastmile_qr_scan", "ios": "https://dc.lft.to/lastmile_qr_scan"}, "fusion_lon": 0.0, "lat": 38.9396625, "bike_id": "a6170554d60c6d9e584c865277a6f9ff", "type": "electric_scooter", "is_reserved": 0, "lon": -77.03284133333334}, {"fusion_lat": 0.0, "name": "0c31f1d6b0e18398ade8a289f353322a", "is_disabled": 0, "rental_uris": {"android": "https://dc.lft.to/lastmile_qr_scan", "ios": "https://dc.lft.to/lastmile_qr_scan"}, "fusion_lon": 0.0, "lat": 38.9168205, "bike_id": "0c31f1d6b0e18398ade8a289f353322a", "type": "electric_scooter", "is_reserved": 0, "lon": -77.02424533333334}, {"fusion_lat": 0.0, "name": "3390227784b1efa19937a1cc41a6653d", "is_disabled": 0, "rental_uris": {"android": "https://dc.lft.to/lastmile_qr_scan", "ios": "https://dc.lft.to/lastmile_qr_scan"}, "fusion_lon": 0.0, "lat": 38.78269066666667, "bike_id": "3390227784b1efa19937a1cc41a6653d", "type": "electric_bike", "is_reserved": 0, "lon": -77.01614633333334}, {"fusion_lat": 0.0, "name": "f5da682d9b27fd68011cf5a329e9f767", "is_disabled": 0, "rental_uris": {"android": "https://dc.lft.to/lastmile_qr_scan", "ios": "https://dc.lft.to/lastmile_qr_scan"}, "fusion_lon": 0.0, "lat": 38.929047, "bike_id": "f5da682d9b27fd68011cf5a329e9f767", "type": "electric_scooter", "is_reserved": 0, "lon": -77.02150116666667}, {"fusion_lat": 0.0, "name": "93e0216e96d4d658c214e2df2e96007f", "is_disabled": 0, "rental_uris": {"android": "https://dc.lft.to/lastmile_qr_scan", "ios": "https://dc.lft.to/lastmile_qr_scan"}, "fusion_lon": 0.0, "lat": 38.964929833333336, "bike_id": "93e0216e96d4d658c214e2df2e96007f", "type": "electric_bike", "is_reserved": 0, "lon": -77.10697633333334}, {"fusion_lat": 0.0, "name": "5e532efe229b74c9996fed324a895761", "is_disabled": 0, "rental_uris": {"android": "https://dc.lft.to/lastmile_qr_scan", "ios": "https://dc.lft.to/lastmile_qr_scan"}, "fusion_lon": 0.0, "lat": 38.914389166666666, "bike_id": "5e532efe229b74c9996fed324a895761", "type": "electric_scooter", "is_reserved": 0, "lon": -76.9935505}, {"fusion_lat": 0.0, "name": "b86fe523dae8b15190a35b0819dbfae0", "is_disabled": 0, "rental_uris": {"android": "https://dc.lft.to/lastmile_qr_scan", "ios": "https://dc.lft.to/lastmile_qr_scan"}, "fusion_lon": 0.0, "lat": 38.90026783333333, "bike_id": "b86fe523dae8b15190a35b0819dbfae0", "type": "electric_scooter", "is_reserved": 0, "lon": -77.035028}, {"fusion_lat": 0.0, "name": "04b55be63d854fb9789404307cba5655", "is_disabled": 0, "rental_uris": {"android": "https://dc.lft.to/lastmile_qr_scan", "ios": "https://dc.lft.to/lastmile_qr_scan"}, "fusion_lon": 0.0, "lat": 38.885101, "bike_id": "04b55be63d854fb9789404307cba5655", "type": "electric_scooter", "is_reserved": 0, "lon": -77.01116383333333}, {"fusion_lat": 0.0, "name": "ea0a705cfe13434810dbc3250514494f", "is_disabled": 0, "rental_uris": {"android": "https://dc.lft.to/lastmile_qr_scan", "ios": "https://dc.lft.to/lastmile_qr_scan"}, "fusion_lon": 0.0, "lat": 38.9021315, "bike_id": "ea0a705cfe13434810dbc3250514494f", "type": "electric_scooter", "is_reserved": 0, "lon": -76.98611966666667}, {"fusion_lat": 0.0, "name": "d6b27fc35088e005cfdd6394d4ef9f5a", "is_disabled": 0, "rental_uris": {"android": "https://dc.lft.to/lastmile_qr_scan", "ios": "https://dc.lft.to/lastmile_qr_scan"}, "fusion_lon": 0.0, "lat": 38.92428833333334, "bike_id": "d6b27fc35088e005cfdd6394d4ef9f5a", "type": "electric_scooter", "is_reserved": 0, "lon": -76.98594433333334}, {"fusion_lat": 0.0, "name": "b8a9f5862582185ebe50ddd7fd3840f0", "is_disabled": 0, "rental_uris": {"android": "https://dc.lft.to/lastmile_qr_scan", "ios": "https://dc.lft.to/lastmile_qr_scan"}, "fusion_lon": 0.0, "lat": 38.890105166666665, "bike_id": "b8a9f5862582185ebe50ddd7fd3840f0", "type": "electric_scooter", "is_reserved": 0, "lon": -77.03322616666667}, {"fusion_lat": 0.0, "name": "6a6f5284104ff1217726379d03c2fe53", "is_disabled": 0, "rental_uris": {"android": "https://dc.lft.to/lastmile_qr_scan", "ios": "https://dc.lft.to/lastmile_qr_scan"}, "fusion_lon": 0.0, "lat": 38.888745, "bike_id": "6a6f5284104ff1217726379d03c2fe53", "type": "electric_scooter", "is_reserved": 0, "lon": -76.9845815}, {"fusion_lat": 0.0, "name": "11d8740588c28582a91b1c192d6c8325", "is_disabled": 0, "rental_uris": {"android": "https://dc.lft.to/lastmile_qr_scan", "ios": "https://dc.lft.to/lastmile_qr_scan"}, "fusion_lon": 0.0, "lat": 38.882569, "bike_id": "11d8740588c28582a91b1c192d6c8325", "type": "electric_scooter", "is_reserved": 0, "lon": -76.99035833333333}, {"fusion_lat": 0.0, "name": "4dcd6793bde0ae375e834bd70564b815", "is_disabled": 0, "rental_uris": {"android": "https://dc.lft.to/lastmile_qr_scan", "ios": "https://dc.lft.to/lastmile_qr_scan"}, "fusion_lon": 0.0, "lat": 38.894860333333334, "bike_id": "4dcd6793bde0ae375e834bd70564b815", "type": "electric_scooter", "is_reserved": 0, "lon": -76.99741283333333}, {"fusion_lat": 0.0, "name": "473edd993885a7c598b072d631632bd2", "is_disabled": 0, "rental_uris": {"android": "https://dc.lft.to/lastmile_qr_scan", "ios": "https://dc.lft.to/lastmile_qr_scan"}, "fusion_lon": 0.0, "lat": 38.91660383333333, "bike_id": "473edd993885a7c598b072d631632bd2", "type": "electric_scooter", "is_reserved": 0, "lon": -77.03850333333334}, {"fusion_lat": 0.0, "name": "1f396418e1866dfc39cf7bb810904212", "is_disabled": 0, "rental_uris": {"android": "https://dc.lft.to/lastmile_qr_scan", "ios": "https://dc.lft.to/lastmile_qr_scan"}, "fusion_lon": 0.0, "lat": 38.90524283333333, "bike_id": "1f396418e1866dfc39cf7bb810904212", "type": "electric_scooter", "is_reserved": 0, "lon": -77.01714033333333}, {"fusion_lat": 0.0, "name": "defe94475c5cbe71a1b8bc9db3c6e34c", "is_disabled": 0, "rental_uris": {"android": "https://dc.lft.to/lastmile_qr_scan", "ios": "https://dc.lft.to/lastmile_qr_scan"}, "fusion_lon": 0.0, "lat": 38.88722033333333, "bike_id": "defe94475c5cbe71a1b8bc9db3c6e34c", "type": "electric_scooter", "is_reserved": 0, "lon": -77.024011}, {"fusion_lat": 0.0, "name": "9cbf4fb4dbff0b0d21cc453514884247", "is_disabled": 0, "rental_uris": {"android": "https://dc.lft.to/lastmile_qr_scan", "ios": "https://dc.lft.to/lastmile_qr_scan"}, "fusion_lon": 0.0, "lat": 38.929088, "bike_id": "9cbf4fb4dbff0b0d21cc453514884247", "type": "electric_scooter", "is_reserved": 0, "lon": -77.03743216666666}, {"fusion_lat": 0.0, "name": "a073ee329090d00c86705cac616727ea", "is_disabled": 0, "rental_uris": {"android": "https://dc.lft.to/lastmile_qr_scan", "ios": "https://dc.lft.to/lastmile_qr_scan"}, "fusion_lon": 0.0, "lat": 38.935189666666666, "bike_id": "a073ee329090d00c86705cac616727ea", "type": "electric_scooter", "is_reserved": 0, "lon": -77.03090683333333}, {"fusion_lat": 0.0, "name": "5bd14a0aa7b19e7772aa131a69d2d1f7", "is_disabled": 0, "rental_uris": {"android": "https://dc.lft.to/lastmile_qr_scan", "ios": "https://dc.lft.to/lastmile_qr_scan"}, "fusion_lon": 0.0, "lat": 38.90773566666667, "bike_id": "5bd14a0aa7b19e7772aa131a69d2d1f7", "type": "electric_scooter", "is_reserved": 0, "lon": -77.03464633333333}, {"fusion_lat": 0.0, "name": "5c3ad54e0b419e9d05160aaf5cb6f3a8", "is_disabled": 0, "rental_uris": {"android": "https://dc.lft.to/lastmile_qr_scan", "ios": "https://dc.lft.to/lastmile_qr_scan"}, "fusion_lon": 0.0, "lat": 38.922778, "bike_id": "5c3ad54e0b419e9d05160aaf5cb6f3a8", "type": "electric_scooter", "is_reserved": 0, "lon": -77.0423265}, {"fusion_lat": 0.0, "name": "56b82a35a0bedf98610ec2432886301c", "is_disabled": 0, "rental_uris": {"android": "https://dc.lft.to/lastmile_qr_scan", "ios": "https://dc.lft.to/lastmile_qr_scan"}, "fusion_lon": 0.0, "lat": 38.91416383333333, "bike_id": "56b82a35a0bedf98610ec2432886301c", "type": "electric_scooter", "is_reserved": 0, "lon": -77.03438666666666}, {"fusion_lat": 0.0, "name": "172a77097786e0fa92a1fb21cec672f6", "is_disabled": 0, "rental_uris": {"android": "https://dc.lft.to/lastmile_qr_scan", "ios": "https://dc.lft.to/lastmile_qr_scan"}, "fusion_lon": 0.0, "lat": 38.979807, "bike_id": "172a77097786e0fa92a1fb21cec672f6", "type": "electric_scooter", "is_reserved": 0, "lon": -77.02633966666667}, {"fusion_lat": 0.0, "name": "9a539935a94975c7245634bbfa744fc0", "is_disabled": 0, "rental_uris": {"android": "https://dc.lft.to/lastmile_qr_scan", "ios": "https://dc.lft.to/lastmile_qr_scan"}, "fusion_lon": 0.0, "lat": 38.8947115, "bike_id": "9a539935a94975c7245634bbfa744fc0", "type": "electric_scooter", "is_reserved": 0, "lon": -77.01034283333334}, {"fusion_lat": 0.0, "name": "3192b9bd253898f7a8ea5fe4f5dc204c", "is_disabled": 0, "rental_uris": {"android": "https://dc.lft.to/lastmile_qr_scan", "ios": "https://dc.lft.to/lastmile_qr_scan"}, "fusion_lon": 0.0, "lat": 38.9378455, "bike_id": "3192b9bd253898f7a8ea5fe4f5dc204c", "type": "electric_scooter", "is_reserved": 0, "lon": -77.023164}, {"fusion_lat": 0.0, "name": "fee3acdccb90a007dd995cd377e0c4e3", "is_disabled": 0, "rental_uris": {"android": "https://dc.lft.to/lastmile_qr_scan", "ios": "https://dc.lft.to/lastmile_qr_scan"}, "fusion_lon": 0.0, "lat": 38.91576633333333, "bike_id": "fee3acdccb90a007dd995cd377e0c4e3", "type": "electric_scooter", "is_reserved": 0, "lon": -77.031916}, {"fusion_lat": 0.0, "name": "57d76fc3852488d466ece7b3eddad0b9", "is_disabled": 0, "rental_uris": {"android": "https://dc.lft.to/lastmile_qr_scan", "ios": "https://dc.lft.to/lastmile_qr_scan"}, "fusion_lon": 0.0, "lat": 39.0705355, "bike_id": "57d76fc3852488d466ece7b3eddad0b9", "type": "electric_bike", "is_reserved": 0, "lon": -77.11476583333334}, {"fusion_lat": 0.0, "name": "0f60d8f1a0e6f1dede24e7d6a6bcc57f", "is_disabled": 0, "rental_uris": {"android": "https://dc.lft.to/lastmile_qr_scan", "ios": "https://dc.lft.to/lastmile_qr_scan"}, "fusion_lon": 0.0, "lat": 38.914031666666666, "bike_id": "0f60d8f1a0e6f1dede24e7d6a6bcc57f", "type": "electric_scooter", "is_reserved": 0, "lon": -77.03169916666667}, {"fusion_lat": 0.0, "name": "754aa02cc205e08b6266df22d3b23dc3", "is_disabled": 0, "rental_uris": {"android": "https://dc.lft.to/lastmile_qr_scan", "ios": "https://dc.lft.to/lastmile_qr_scan"}, "fusion_lon": 0.0, "lat": 38.90018083333333, "bike_id": "754aa02cc205e08b6266df22d3b23dc3", "type": "electric_scooter", "is_reserved": 0, "lon": -76.9869665}, {"fusion_lat": 0.0, "name": "644984ab7c0106c020cc9cc900b154e3", "is_disabled": 0, "rental_uris": {"android": "https://dc.lft.to/lastmile_qr_scan", "ios": "https://dc.lft.to/lastmile_qr_scan"}, "fusion_lon": 0.0, "lat": 38.9355625, "bike_id": "644984ab7c0106c020cc9cc900b154e3", "type": "electric_scooter", "is_reserved": 0, "lon": -77.03459783333334}, {"fusion_lat": 0.0, "name": "a63b51229a602b1a74261488f150bd1f", "is_disabled": 0, "rental_uris": {"android": "https://dc.lft.to/lastmile_qr_scan", "ios": "https://dc.lft.to/lastmile_qr_scan"}, "fusion_lon": 0.0, "lat": 38.9111885, "bike_id": "a63b51229a602b1a74261488f150bd1f", "type": "electric_scooter", "is_reserved": 0, "lon": -77.04465733333333}, {"fusion_lat": 0.0, "name": "0fe531c5fd001c3cfe4b419842ccb22a", "is_disabled": 0, "rental_uris": {"android": "https://dc.lft.to/lastmile_qr_scan", "ios": "https://dc.lft.to/lastmile_qr_scan"}, "fusion_lon": 0.0, "lat": 38.900034833333336, "bike_id": "0fe531c5fd001c3cfe4b419842ccb22a", "type": "electric_scooter", "is_reserved": 0, "lon": -77.0274405}, {"fusion_lat": 0.0, "name": "6eeb29268e6d524556b9ca3a72ffffe9", "is_disabled": 0, "rental_uris": {"android": "https://dc.lft.to/lastmile_qr_scan", "ios": "https://dc.lft.to/lastmile_qr_scan"}, "fusion_lon": 0.0, "lat": 38.912591166666665, "bike_id": "6eeb29268e6d524556b9ca3a72ffffe9", "type": "electric_scooter", "is_reserved": 0, "lon": -77.03860333333333}, {"fusion_lat": 0.0, "name": "28bb47a03aceda5dd31c3257455095e0", "is_disabled": 0, "rental_uris": {"android": "https://dc.lft.to/lastmile_qr_scan", "ios": "https://dc.lft.to/lastmile_qr_scan"}, "fusion_lon": 0.0, "lat": 38.91423783333333, "bike_id": "28bb47a03aceda5dd31c3257455095e0", "type": "electric_scooter", "is_reserved": 0, "lon": -77.03200733333334}, {"fusion_lat": 0.0, "name": "fa1a0238a71fc0617331087ccf3219b1", "is_disabled": 0, "rental_uris": {"android": "https://dc.lft.to/lastmile_qr_scan", "ios": "https://dc.lft.to/lastmile_qr_scan"}, "fusion_lon": 0.0, "lat": 38.9028575, "bike_id": "fa1a0238a71fc0617331087ccf3219b1", "type": "electric_scooter", "is_reserved": 0, "lon": -77.01683616666666}, {"fusion_lat": 0.0, "name": "33e4b54709a962c8c5ed11a08ddcf086", "is_disabled": 0, "rental_uris": {"android": "https://dc.lft.to/lastmile_qr_scan", "ios": "https://dc.lft.to/lastmile_qr_scan"}, "fusion_lon": 0.0, "lat": 38.919595666666666, "bike_id": "33e4b54709a962c8c5ed11a08ddcf086", "type": "electric_scooter", "is_reserved": 0, "lon": -77.0231745}, {"fusion_lat": 0.0, "name": "d6bb98aa42f668f6befb13236b700a26", "is_disabled": 0, "rental_uris": {"android": "https://dc.lft.to/lastmile_qr_scan", "ios": "https://dc.lft.to/lastmile_qr_scan"}, "fusion_lon": 0.0, "lat": 38.8925655, "bike_id": "d6bb98aa42f668f6befb13236b700a26", "type": "electric_scooter", "is_reserved": 0, "lon": -77.03339383333334}, {"fusion_lat": 0.0, "name": "308ed1a6fcd39a5a11354fc59edadc80", "is_disabled": 0, "rental_uris": {"android": "https://dc.lft.to/lastmile_qr_scan", "ios": "https://dc.lft.to/lastmile_qr_scan"}, "fusion_lon": 0.0, "lat": 38.9218005, "bike_id": "308ed1a6fcd39a5a11354fc59edadc80", "type": "electric_scooter", "is_reserved": 0, "lon": -77.02658533333333}, {"fusion_lat": 0.0, "name": "00d4c43a51bfca5728554b682e7d6fc1", "is_disabled": 0, "rental_uris": {"android": "https://dc.lft.to/lastmile_qr_scan", "ios": "https://dc.lft.to/lastmile_qr_scan"}, "fusion_lon": 0.0, "lat": 38.8360035, "bike_id": "00d4c43a51bfca5728554b682e7d6fc1", "type": "electric_bike", "is_reserved": 0, "lon": -77.00371733333333}, {"fusion_lat": 0.0, "name": "997506533eaa6427e405f385cac13797", "is_disabled": 0, "rental_uris": {"android": "https://dc.lft.to/lastmile_qr_scan", "ios": "https://dc.lft.to/lastmile_qr_scan"}, "fusion_lon": 0.0, "lat": 38.90798766666666, "bike_id": "997506533eaa6427e405f385cac13797", "type": "electric_scooter", "is_reserved": 0, "lon": -77.04343916666667}, {"fusion_lat": 0.0, "name": "6ef84fd005c4aa03738d90503938fa8b", "is_disabled": 0, "rental_uris": {"android": "https://dc.lft.to/lastmile_qr_scan", "ios": "https://dc.lft.to/lastmile_qr_scan"}, "fusion_lon": 0.0, "lat": 38.90874916666667, "bike_id": "6ef84fd005c4aa03738d90503938fa8b", "type": "electric_scooter", "is_reserved": 0, "lon": -77.067517}, {"fusion_lat": 0.0, "name": "bc09612e2fa64e4c07124b984dba45bc", "is_disabled": 0, "rental_uris": {"android": "https://dc.lft.to/lastmile_qr_scan", "ios": "https://dc.lft.to/lastmile_qr_scan"}, "fusion_lon": 0.0, "lat": 38.88797666666667, "bike_id": "bc09612e2fa64e4c07124b984dba45bc", "type": "electric_bike", "is_reserved": 0, "lon": -76.92997616666666}, {"fusion_lat": 0.0, "name": "c9654053817246b9cd7e4e08b9b19660", "is_disabled": 0, "rental_uris": {"android": "https://dc.lft.to/lastmile_qr_scan", "ios": "https://dc.lft.to/lastmile_qr_scan"}, "fusion_lon": 0.0, "lat": 38.89230216666667, "bike_id": "c9654053817246b9cd7e4e08b9b19660", "type": "electric_scooter", "is_reserved": 0, "lon": -77.0259155}, {"fusion_lat": 0.0, "name": "60c63e9eb9e70386d595125a5ef5cd06", "is_disabled": 0, "rental_uris": {"android": "https://dc.lft.to/lastmile_qr_scan", "ios": "https://dc.lft.to/lastmile_qr_scan"}, "fusion_lon": 0.0, "lat": 38.895515, "bike_id": "60c63e9eb9e70386d595125a5ef5cd06", "type": "electric_scooter", "is_reserved": 0, "lon": -77.01098}, {"fusion_lat": 0.0, "name": "572a753904364d1ca1e2218fef29ba69", "is_disabled": 0, "rental_uris": {"android": "https://dc.lft.to/lastmile_qr_scan", "ios": "https://dc.lft.to/lastmile_qr_scan"}, "fusion_lon": 0.0, "lat": 38.857025166666666, "bike_id": "572a753904364d1ca1e2218fef29ba69", "type": "electric_scooter", "is_reserved": 0, "lon": -76.99590766666667}, {"fusion_lat": 0.0, "name": "81b7d7f91d85387f0fd341c5fd3dbe4e", "is_disabled": 0, "rental_uris": {"android": "https://dc.lft.to/lastmile_qr_scan", "ios": "https://dc.lft.to/lastmile_qr_scan"}, "fusion_lon": 0.0, "lat": 38.927323666666666, "bike_id": "81b7d7f91d85387f0fd341c5fd3dbe4e", "type": "electric_scooter", "is_reserved": 0, "lon": -77.027067}, {"fusion_lat": 0.0, "name": "0bba41262756beadac23b01ffc7dfb8d", "is_disabled": 0, "rental_uris": {"android": "https://dc.lft.to/lastmile_qr_scan", "ios": "https://dc.lft.to/lastmile_qr_scan"}, "fusion_lon": 0.0, "lat": 38.952809, "bike_id": "0bba41262756beadac23b01ffc7dfb8d", "type": "electric_scooter", "is_reserved": 0, "lon": -77.068922}, {"fusion_lat": 0.0, "name": "62bdf8daafd80055906ff78a82fe9403", "is_disabled": 0, "rental_uris": {"android": "https://dc.lft.to/lastmile_qr_scan", "ios": "https://dc.lft.to/lastmile_qr_scan"}, "fusion_lon": 0.0, "lat": 38.90431816666667, "bike_id": "62bdf8daafd80055906ff78a82fe9403", "type": "electric_scooter", "is_reserved": 0, "lon": -76.98274666666667}, {"fusion_lat": 0.0, "name": "b57a3f049309fbe9fe10f13d5a7972c7", "is_disabled": 0, "rental_uris": {"android": "https://dc.lft.to/lastmile_qr_scan", "ios": "https://dc.lft.to/lastmile_qr_scan"}, "fusion_lon": 0.0, "lat": 38.909440833333335, "bike_id": "b57a3f049309fbe9fe10f13d5a7972c7", "type": "electric_scooter", "is_reserved": 0, "lon": -77.04666433333334}, {"fusion_lat": 0.0, "name": "1e0fb3131214984923d0b4441e7efe17", "is_disabled": 0, "rental_uris": {"android": "https://dc.lft.to/lastmile_qr_scan", "ios": "https://dc.lft.to/lastmile_qr_scan"}, "fusion_lon": 0.0, "lat": 38.919607, "bike_id": "1e0fb3131214984923d0b4441e7efe17", "type": "electric_scooter", "is_reserved": 0, "lon": -77.02336516666666}, {"fusion_lat": 0.0, "name": "cb74bb95ef1c0429b63a6166251b3c3c", "is_disabled": 0, "rental_uris": {"android": "https://dc.lft.to/lastmile_qr_scan", "ios": "https://dc.lft.to/lastmile_qr_scan"}, "fusion_lon": 0.0, "lat": 38.92340933333333, "bike_id": "cb74bb95ef1c0429b63a6166251b3c3c", "type": "electric_scooter", "is_reserved": 0, "lon": -77.041964}, {"fusion_lat": 0.0, "name": "1b8742b7adec1ae3d989abf172e81f35", "is_disabled": 0, "rental_uris": {"android": "https://dc.lft.to/lastmile_qr_scan", "ios": "https://dc.lft.to/lastmile_qr_scan"}, "fusion_lon": 0.0, "lat": 38.906761333333336, "bike_id": "1b8742b7adec1ae3d989abf172e81f35", "type": "electric_scooter", "is_reserved": 0, "lon": -77.036468},