{"data": {"bikes": [{"fusion_lat": 0.0, "name": "1c4cee704dcb6d0f6ae244b02422765a", "is_disabled": 0, "rental_uris": {"android": "https://dc.lft.to/lastmile_qr_scan", "ios": "https://dc.lft.to/lastmile_qr_scan"}, "fusion_lon": 0.0, "lat": 38.93101883333333, "bike_id": "1c4cee704dcb6d0f6ae244b02422765a", "type": "electric_scooter", "is_reserved": 0, "lon": -77.026652}, {"fusion_lat": 0.0, "name": "82a87f8ca08d1091d67e435496594e68", "is_disabled": 0, "rental_uris": {"android": "https://dc.lft.to/lastmile_qr_scan", "ios": "https://dc.lft.to/lastmile_qr_scan"}, "fusion_lon": 0.0, "lat": 38.904102333333334, "bike_id": "82a87f8ca08d1091d67e435496594e68", "type": "electric_scooter", "is_reserved": 0, "lon": -77.03183583333333}, {"fusion_lat": 0.0, "name": "70554fa93c76f85d095f7be24bc6693b", "is_disabled": 0, "rental_uris": {"android": "https://dc.lft.to/lastmile_qr_scan", "ios": "https://dc.lft.to/lastmile_qr_scan"}, "fusion_lon": 0.0, "lat": 38.907925166666665, "bike_id": "70554fa93c76f85d095f7be24bc6693b", "type": "electric_scooter", "is_reserved": 0, "lon": -77.043427}, {"fusion_lat": 0.0, "name": "ebb2d58b496ae6569a5178a9924d506d", "is_disabled": 0, "rental_uris": {"android": "https://dc.lft.to/lastmile_qr_scan", "ios": "https://dc.lft.to/lastmile_qr_scan"}, "fusion_lon": 0.0, "lat": 38.93579416666667, "bike_id": "ebb2d58b496ae6569a5178a9924d506d", "type": "electric_scooter", "is_reserved": 0, "lon": -77.023615}, {"fusion_lat": 0.0, "name": "e314c6175751761ce8aa9ad8e27a4de6", "is_disabled": 0, "rental_uris": {"android": "https://dc.lft.to/lastmile_qr_scan", "ios": "https://dc.lft.to/lastmile_qr_scan"}, "fusion_lon": 0.0, "lat": 38.91108783333333, "bike_id": "e314c6175751761ce8aa9ad8e27a4de6", "type": "electric_scooter", "is_reserved": 0, "lon": -77.01152516666667}, {"fusion_lat": 0.0, "name": "f0c26584e12da6dcb5740b5d206c630c", "is_disabled": 0, "rental_uris": {"android": "https://dc.lft.to/lastmile_qr_scan", "ios": "https://dc.lft.to/lastmile_qr_scan"}, "fusion_lon": 0.0, "lat": 38.95706633333333, "bike_id": "f0c26584e12da6dcb5740b5d206c630c", "type": "electric_scooter", "is_reserved": 0, "lon": -77.024094}, {"fusion_lat": 0.0, "name": "a5d69273004ea72c250a73770efd0216", "is_disabled": 0, "rental_uris": {"android": "https://dc.lft.to/lastmile_qr_scan", "ios": "https://dc.lft.to/lastmile_qr_scan"}, "fusion_lon": 0.0, "lat": 38.93002166666667, "bike_id": "a5d69273004ea72c250a73770efd0216", "type": "electric_scooter", "is_reserved": 0, "lon": -77.0323135}, {"fusion_lat": 0.0, "name": "9918dade2779155b5433e05dfd53e2b8", "is_disabled": 0, "rental_uris": {"android": "https://dc.lft.to/lastmile_qr_scan", "ios": "https://dc.lft.to/lastmile_qr_scan"}, "fusion_lon": 0.0, "lat": 38.9206435, "bike_id": "9918dade2779155b5433e05dfd53e2b8", "type": "electric_scooter", "is_reserved": 0, "lon": -77.0320015}, {"fusion_lat": 0.0, "name": "b10b9b138acc1ff12b5e72670b7f4384", "is_disabled": 0, "rental_uris": {"android": "https://dc.lft.to/lastmile_qr_scan", "ios": "https://dc.lft.to/lastmile_qr_scan"}, "fusion_lon": 0.0, "lat": 38.931884333333336, "bike_id": "b10b9b138acc1ff12b5e72670b7f4384", "type": "electric_scooter", "is_reserved": 0, "lon": -77.0429665}, {"fusion_lat": 0.0, "name": "918fd8e6b3633498e48df78fafb47c6a", "is_disabled": 0, "rental_uris": {"android": "https://dc.lft.to/lastmile_qr_scan", "ios": "https://dc.lft.to/lastmile_qr_scan"}, "fusion_lon": 0.0, "lat": 38.90029883333333, "bike_id": "918fd8e6b3633498e48df78fafb47c6a", "type": "electric_scooter", "is_reserved": 0, "lon": -76.99134816666667}, {"fusion_lat": 0.0, "name": "1eab396c32d752ed483a3c596ca33487", "is_disabled": 0, "rental_uris": {"android": "https://dc.lft.to/lastmile_qr_scan", "ios": "https://dc.lft.to/lastmile_qr_scan"}, "fusion_lon": 0.0, "lat": 38.94700316666667, "bike_id": "1eab396c32d752ed483a3c596ca33487", "type": "electric_scooter", "is_reserved": 0, "lon": -77.01939266666666}, {"fusion_lat": 0.0, "name": "c41b4ce6169ce80c0d098c438bebe3e8", "is_disabled": 0, "rental_uris": {"android": "https://dc.lft.to/lastmile_qr_scan", "ios": "https://dc.lft.to/lastmile_qr_scan"}, "fusion_lon": 0.0, "lat": 38.89219, "bike_id": "c41b4ce6169ce80c0d098c438bebe3e8", "type": "electric_scooter", "is_reserved": 0, "lon": -77.04511316666667}, {"fusion_lat": 0.0, "name": "29a8d684055030a62bd0af016806b812", "is_disabled": 0, "rental_uris": {"android": "https://dc.lft.to/lastmile_qr_scan", "ios": "https://dc.lft.to/lastmile_qr_scan"}, "fusion_lon": 0.0, "lat": 38.88452766666666, "bike_id": "29a8d684055030a62bd0af016806b812", "type": "electric_scooter", "is_reserved": 0, "lon": -76.998372}, {"fusion_lat": 0.0, "name": "4e40a5f572a9874db45edb3a5a4ed086", "is_disabled": 0, "rental_uris": {"android": "https://dc.lft.to/lastmile_qr_scan", "ios": "https://dc.lft.to/lastmile_qr_scan"}, "fusion_lon": 0.0, "lat": 38.924435333333335, "bike_id": "4e40a5f572a9874db45edb3a5a4ed086", "type": "electric_scooter", "is_reserved": 0, "lon": -77.03363983333334}, {"fusion_lat": 0.0, "name": "54cd766a27e1e4831f90e509828e4b92", "is_disabled": 0, "rental_uris": {"android": "https://dc.lft.to/lastmile_qr_scan", "ios": "https://dc.lft.to/lastmile_qr_scan"}, "fusion_lon": 0.0, "lat": 38.89034866666667, "bike_id": "54cd766a27e1e4831f90e509828e4b92", "type": "electric_scooter", "is_reserved": 0, "lon": -76.93745533333333}, {"fusion_lat": 0.0, "name": "c1e3e737dd41a1a465568b8ec3ca3a78", "is_disabled": 0, "rental_uris": {"android": "https://dc.lft.to/lastmile_qr_scan", "ios": "https://dc.lft.to/lastmile_qr_scan"}, "fusion_lon": 0.0, "lat": 38.946755, "bike_id": "c1e3e737dd41a1a465568b8ec3ca3a78", "type": "electric_scooter", "is_reserved": 0, "lon": -77.0309785}, {"fusion_lat": 0.0, "name": "187a9cd9ca64879bf4f20f1a1992079b", "is_disabled": 0, "rental_uris": {"android": "https://dc.lft.to/lastmile_qr_scan", "ios": "https://dc.lft.to/lastmile_qr_scan"}, "fusion_lon": 0.0, "lat": 38.902883833333334, "bike_id": "187a9cd9ca64879bf4f20f1a1992079b", "type": "electric_scooter", "is_reserved": 0, "lon": -76.99032983333333}, {"fusion_lat": 0.0, "name": "0a7fd5a5352bf5825ca4b485079cc2fe", "is_disabled": 0, "rental_uris": {"android": "https://dc.lft.to/lastmile_qr_scan", "ios": "https://dc.lft.to/lastmile_qr_scan"}, "fusion_lon": 0.0, "lat": 38.9180905, "bike_id": "0a7fd5a5352bf5825ca4b485079cc2fe", "type": "electric_scooter", "is_reserved": 0, "lon": -77.03441516666666}, {"fusion_lat": 0.0, "name": "cca26d713f5bdaf615d97e0feb08896b", "is_disabled": 0, "rental_uris": {"android": "https://dc.lft.to/lastmile_qr_scan", "ios": "https://dc.lft.to/lastmile_qr_scan"}, "fusion_lon": 0.0, "lat": 38.922921333333335, "bike_id": "cca26d713f5bdaf615d97e0feb08896b", "type": "electric_scooter", "is_reserved": 0, "lon": -77.072977}, {"fusion_lat": 0.0, "name": "53f41dcef88b0316ca1fa7d899d901fd", "is_disabled": 0, "rental_uris": {"android": "https://dc.lft.to/lastmile_qr_scan", "ios": "https://dc.lft.to/lastmile_qr_scan"}, "fusion_lon": 0.0, "lat": 38.8961955, "bike_id": "53f41dcef88b0316ca1fa7d899d901fd", "type": "electric_bike", "is_reserved": 0, "lon": -77.02214966666666}, {"fusion_lat": 0.0, "name": "a7a03158d026234fbf1efccd14875d42", "is_disabled": 0, "rental_uris": {"android": "https://dc.lft.to/lastmile_qr_scan", "ios": "https://dc.lft.to/lastmile_qr_scan"}, "fusion_lon": 0.0, "lat": 38.91692883333333, "bike_id": "a7a03158d026234fbf1efccd14875d42", "type": "electric_scooter", "is_reserved": 0, "lon": -77.03209416666667}, {"fusion_lat": 0.0, "name": "f0892303b88ae6c395b19071960b370c", "is_disabled": 0, "rental_uris": {"android": "https://dc.lft.to/lastmile_qr_scan", "ios": "https://dc.lft.to/lastmile_qr_scan"}, "fusion_lon": 0.0, "lat": 38.90735566666667, "bike_id": "f0892303b88ae6c395b19071960b370c", "type": "electric_scooter", "is_reserved": 0, "lon": -76.99817733333333}, {"fusion_lat": 0.0, "name": "68f9180e4ecaee8c13b8e6526a242923", "is_disabled": 0, "rental_uris": {"android": "https://dc.lft.to/lastmile_qr_scan", "ios": "https://dc.lft.to/lastmile_qr_scan"}, "fusion_lon": 0.0, "lat": 38.995232, "bike_id": "68f9180e4ecaee8c13b8e6526a242923", "type": "electric_bike", "is_reserved": 0, "lon": -77.02906233333333}, {"fusion_lat": 0.0, "name": "b6898475487f14c187bcd548e20e668c", "is_disabled": 0, "rental_uris": {"android": "https://dc.lft.to/lastmile_qr_scan", "ios": "https://dc.lft.to/lastmile_qr_scan"}, "fusion_lon": 0.0, "lat": 38.905452333333336, "bike_id": "b6898475487f14c187bcd548e20e668c", "type": "electric_scooter", "is_reserved": 0, "lon": -77.00479583333333}, {"fusion_lat": 0.0, "name": "aa2437aefe2eeb1a710fe26b6c1556a9", "is_disabled": 0, "rental_uris": {"android": "https://dc.lft.to/lastmile_qr_scan", "ios": "https://dc.lft.to/lastmile_qr_scan"}, "fusion_lon": 0.0, "lat": 38.924745333333334, "bike_id": "aa2437aefe2eeb1a710fe26b6c1556a9", "type": "electric_scooter", "is_reserved": 0, "lon": -77.02076016666666}, {"fusion_lat": 0.0, "name": "2d7b2ade44fb1e26c2ea379c68f3bfa1", "is_disabled": 0, "rental_uris": {"android": "https://dc.lft.to/lastmile_qr_scan", "ios": "https://dc.lft.to/lastmile_qr_scan"}, "fusion_lon": 0.0, "lat": 38.892179166666665, "bike_id": "2d7b2ade44fb1e26c2ea379c68f3bfa1", "type": "electric_scooter", "is_reserved": 0, "lon": -77.03216833333333}, {"fusion_lat": 0.0, "name": "bb90f2fedaee944a204d0ec8eb8c7101", "is_disabled": 0, "rental_uris": {"android": "https://dc.lft.to/lastmile_qr_scan", "ios": "https://dc.lft.to/lastmile_qr_scan"}, "fusion_lon": 0.0, "lat": 38.9067945, "bike_id": "bb90f2fedaee944a204d0ec8eb8c7101", "type": "electric_scooter", "is_reserved": 0, "lon": -77.02175916666667}, {"fusion_lat": 0.0, "name": "6f62fa9379f4dec2b88826dff0d9376c", "is_disabled": 0, "rental_uris": {"android": "https://dc.lft.to/lastmile_qr_scan", "ios": "https://dc.lft.to/lastmile_qr_scan"}, "fusion_lon": 0.0, "lat": 38.898757833333335, "bike_id": "6f62fa9379f4dec2b88826dff0d9376c", "type": "electric_scooter", "is_reserved": 0, "lon": -76.93182983333334}, {"fusion_lat": 0.0, "name": "2bf21fd0e06e15601ad4ada5199401d7", "is_disabled": 0, "rental_uris": {"android": "https://dc.lft.to/lastmile_qr_scan", "ios": "https://dc.lft.to/lastmile_qr_scan"}, "fusion_lon": 0.0, "lat": 38.900854, "bike_id": "2bf21fd0e06e15601ad4ada5199401d7", "type": "electric_scooter", "is_reserved": 0, "lon": -77.04952216666666}, {"fusion_lat": 0.0, "name": "2c7a36bb137b88d2a73e37f5311d3470", "is_disabled": 0, "rental_uris": {"android": "https://dc.lft.to/lastmile_qr_scan", "ios": "https://dc.lft.to/lastmile_qr_scan"}, "fusion_lon": 0.0, "lat": 38.935291, "bike_id": "2c7a36bb137b88d2a73e37f5311d3470", "type": "electric_scooter", "is_reserved": 0, "lon": -77.02855633333333}, {"fusion_lat": 0.0, "name": "fcb56a1e19028b15cc412b246e8a1e7c", "is_disabled": 0, "rental_uris": {"android": "https://dc.lft.to/lastmile_qr_scan", "ios": "https://dc.lft.to/lastmile_qr_scan"}, "fusion_lon": 0.0, "lat": 38.907389, "bike_id": "fcb56a1e19028b15cc412b246e8a1e7c", "type": "electric_scooter", "is_reserved": 0, "lon": -77.04756933333333}, {"fusion_lat": 0.0, "name": "d3039a9f5b205db03210b84104f929c6", "is_disabled": 0, "rental_uris": {"android": "https://dc.lft.to/lastmile_qr_scan", "ios": "https://dc.lft.to/lastmile_qr_scan"}, "fusion_lon": 0.0, "lat": 38.8919325, "bike_id": "d3039a9f5b205db03210b84104f929c6", "type": "electric_scooter", "is_reserved": 0, "lon": -77.02229566666666}, {"fusion_lat": 0.0, "name": "e1cb207b1d69ad8aee49de3713aa8824", "is_disabled": 0, "rental_uris": {"android": "https://dc.lft.to/lastmile_qr_scan", "ios": "https://dc.lft.to/lastmile_qr_scan"}, "fusion_lon": 0.0, "lat": 38.938982833333334, "bike_id": "e1cb207b1d69ad8aee49de3713aa8824", "type": "electric_scooter", "is_reserved": 0, "lon": -77.03262333333333}, {"fusion_lat": 0.0, "name": "215401470ee386efd78d085e04f4dca0", "is_disabled": 0, "rental_uris": {"android": "https://dc.lft.to/lastmile_qr_scan", "ios": "https://dc.lft.to/lastmile_qr_scan"}, "fusion_lon": 0.0, "lat": 38.92601583333333, "bike_id": "215401470ee386efd78d085e04f4dca0", "type": "electric_scooter", "is_reserved": 0, "lon": -77.02155133333333}, {"fusion_lat": 0.0, "name": "c63894a6c4c81aa14f28db22baa64f00", "is_disabled": 0, "rental_uris": {"android": "https://dc.lft.to/lastmile_qr_scan", "ios": "https://dc.lft.to/lastmile_qr_scan"}, "fusion_lon": 0.0, "lat": 38.928690833333334, "bike_id": "c63894a6c4c81aa14f28db22baa64f00", "type": "electric_scooter", "is_reserved": 0, "lon": -77.0350395}, {"fusion_lat": 0.0, "name": "c127685908942fe511bb43d8ed9dceef", "is_disabled": 0, "rental_uris": {"android": "https://dc.lft.to/lastmile_qr_scan", "ios": "https://dc.lft.to/lastmile_qr_scan"}, "fusion_lon": 0.0, "lat": 38.9606765, "bike_id": "c127685908942fe511bb43d8ed9dceef", "type": "electric_scooter", "is_reserved": 0, "lon": -77.00099633333333}, {"fusion_lat": 0.0, "name": "54c5f50a8b477d20d1bb7bd337032c6d", "is_disabled": 0, "rental_uris": {"android": "https://dc.lft.to/lastmile_qr_scan", "ios": "https://dc.lft.to/lastmile_qr_scan"}, "fusion_lon": 0.0, "lat": 38.9050835, "bike_id": "54c5f50a8b477d20d1bb7bd337032c6d", "type": "electric_scooter", "is_reserved": 0, "lon": -77.02946933333334}, {"fusion_lat": 0.0, "name": "5238ba9574840adfe841bf84028dcbdc", "is_disabled": 0, "rental_uris": {"android": "https://dc.lft.to/lastmile_qr_scan", "ios": "https://dc.lft.to/lastmile_qr_scan"}, "fusion_lon": 0.0, "lat": 38.91037266666667, "bike_id": "5238ba9574840adfe841bf84028dcbdc", "type": "electric_scooter", "is_reserved": 0, "lon": -77.0128365}, {"fusion_lat": 0.0, "name": "108481f2f580cc9f5f4d6a61f0fcce75", "is_disabled": 0, "rental_uris": {"android": "https://dc.lft.to/lastmile_qr_scan", "ios": "https://dc.lft.to/lastmile_qr_scan"}, "fusion_lon": 0.0, "lat": 38.896298, "bike_id": "108481f2f580cc9f5f4d6a61f0fcce75", "type": "electric_scooter", "is_reserved": 0, "lon": -77.032085}, {"fusion_lat": 0.0, "name": "5e1063e01949fddaf585d3d07f5e8ee8", "is_disabled": 0, "rental_uris": {"android": "https://dc.lft.to/lastmile_qr_scan", "ios": "https://dc.lft.to/lastmile_qr_scan"}, "fusion_lon": 0.0, "lat": 38.89840133333333, "bike_id": "5e1063e01949fddaf585d3d07f5e8ee8", "type": "electric_bike", "is_reserved": 0, "lon": -77.02473466666666}, {"fusion_lat": 0.0, "name": "c3e6cbedc0e8ed1d13c50e04cbce7a2e", "is_disabled": 0, "rental_uris": {"android": "https://dc.lft.to/lastmile_qr_scan", "ios": "https://dc.lft.to/lastmile_qr_scan"}, "fusion_lon": 0.0, "lat": 38.89221533333333, "bike_id": "c3e6cbedc0e8ed1d13c50e04cbce7a2e", "type": "electric_scooter", "is_reserved": 0, "lon": -77.043771}, {"fusion_lat": 0.0, "name": "fcd386a5c061bc455e68e4f599a3882c", "is_disabled": 0, "rental_uris": {"android": "https://dc.lft.to/lastmile_qr_scan", "ios": "https://dc.lft.to/lastmile_qr_scan"}, "fusion_lon": 0.0, "lat": 38.897295, "bike_id": "fcd386a5c061bc455e68e4f599a3882c", "type": "electric_scooter", "is_reserved": 0, "lon": -76.94702066666666}, {"fusion_lat": 0.0, "name": "330b8aed493ae1d92ffd4fd369f63090", "is_disabled": 0, "rental_uris": {"android": "https://dc.lft.to/lastmile_qr_scan", "ios": "https://dc.lft.to/lastmile_qr_scan"}, "fusion_lon": 0.0, "lat": 38.91616583333333, "bike_id": "330b8aed493ae1d92ffd4fd369f63090", "type": "electric_scooter", "is_reserved": 0, "lon": -77.02290016666667}, {"fusion_lat": 0.0, "name": "3e38996280bde2346210fd6a692a4a0f", "is_disabled": 0, "rental_uris": {"android": "https://dc.lft.to/lastmile_qr_scan", "ios": "https://dc.lft.to/lastmile_qr_scan"}, "fusion_lon": 0.0, "lat": 38.85562383333333, "bike_id": "3e38996280bde2346210fd6a692a4a0f", "type": "electric_bike", "is_reserved": 0, "lon": -77.11316633333334}, {"fusion_lat": 0.0, "name": "7fb8242c33ec0c15761aa175984f64ed", "is_disabled": 0, "rental_uris": {"android": "https://dc.lft.to/lastmile_qr_scan", "ios": "https://dc.lft.to/lastmile_qr_scan"}, "fusion_lon": 0.0, "lat": 38.904514, "bike_id": "7fb8242c33ec0c15761aa175984f64ed", "type": "electric_bike", "is_reserved": 0, "lon": -76.97424066666666}, {"fusion_lat": 0.0, "name": "cc909163dc9fdab7d14a51df584d0818", "is_disabled": 0, "rental_uris": {"android": "https://dc.lft.to/lastmile_qr_scan", "ios": "https://dc.lft.to/lastmile_qr_scan"}, "fusion_lon": 0.0, "lat": 38.900853166666664, "bike_id": "cc909163dc9fdab7d14a51df584d0818", "type": "electric_scooter", "is_reserved": 0, "lon": -76.98333266666667}, {"fusion_lat": 0.0, "name": "359022308ba627de6075a0629745d0ae", "is_disabled": 0, "rental_uris": {"android": "https://dc.lft.to/lastmile_qr_scan", "ios": "https://dc.lft.to/lastmile_qr_scan"}, "fusion_lon": 0.0, "lat": 38.9104205, "bike_id": "359022308ba627de6075a0629745d0ae", "type": "electric_scooter", "is_reserved": 0, "lon": -77.008311}, {"fusion_lat": 0.0, "name": "0097d5ddbfb9439eca42eae078884281", "is_disabled": 0, "rental_uris": {"android": "https://dc.lft.to/lastmile_qr_scan", "ios": "https://dc.lft.to/lastmile_qr_scan"}, "fusion_lon": 0.0, "lat": 38.952903666666664, "bike_id": "0097d5ddbfb9439eca42eae078884281", "type": "electric_scooter", "is_reserved": 0, "lon": -77.06874966666666}, {"fusion_lat": 0.0, "name": "1205771c69e0ec4566ab42569970973e", "is_disabled": 0, "rental_uris": {"android": "https://dc.lft.to/lastmile_qr_scan", "ios": "https://dc.lft.to/lastmile_qr_scan"}, "fusion_lon": 0.0, "lat": 38.9253905, "bike_id": "1205771c69e0ec4566ab42569970973e", "type": "electric_scooter", "is_reserved": 0, "lon": -77.03828233333333}, {"fusion_lat": 0.0, "name": "7e943b30e24df4d225c9bfe28fc0a8f5", "is_disabled": 0, "rental_uris": {"android": "https://dc.lft.to/lastmile_qr_scan", "ios": "https://dc.lft.to/lastmile_qr_scan"}, "fusion_lon": 0.0, "lat": 38.9157135, "bike_id": "7e943b30e24df4d225c9bfe28fc0a8f5", "type": "electric_scooter", "is_reserved": 0, "lon": -77.03847866666666}, {"fusion_lat": 0.0, "name": "131d4ca9d9fcdb52895c066a7478f284", "is_disabled": 0, "rental_uris": {"android": "https://dc.lft.to/lastmile_qr_scan", "ios": "https://dc.lft.to/lastmile_qr_scan"}, "fusion_lon": 0.0, "lat": 38.9289525, "bike_id": "131d4ca9d9fcdb52895c066a7478f284", "type": "electric_bike", "is_reserved": 0, "lon": -77.23175283333333}, {"fusion_lat": 0.0, "name": "d5313d8df793ce442830982b228813dd", "is_disabled": 0, "rental_uris": {"android": "https://dc.lft.to/lastmile_qr_scan", "ios": "https://dc.lft.to/lastmile_qr_scan"}, "fusion_lon": 0.0, "lat": 38.89885683333333, "bike_id": "d5313d8df793ce442830982b228813dd", "type": "electric_scooter", "is_reserved": 0, "lon": -77.015123}, {"fusion_lat": 0.0, "name": "0b683dcb262888c5e58909af7c754eaf", "is_disabled": 0, "rental_uris": {"android": "https://dc.lft.to/lastmile_qr_scan", "ios": "https://dc.lft.to/lastmile_qr_scan"}, "fusion_lon": 0.0, "lat": 38.89222566666667, "bike_id": "0b683dcb262888c5e58909af7c754eaf", "type": "electric_scooter", "is_reserved": 0, "lon": -77.031391}, {"fusion_lat": 0.0, "name": "1248f1a9db3116cb655ff710438dd0ef", "is_disabled": 0, "rental_uris": {"android": "https://dc.lft.to/lastmile_qr_scan", "ios": "https://dc.lft.to/lastmile_qr_scan"}, "fusion_lon": 0.0, "lat": 38.938696666666665, "bike_id": "1248f1a9db3116cb655ff710438dd0ef", "type": "electric_scooter", "is_reserved": 0, "lon": -77.02481066666667}, {"fusion_lat": 0.0, "name": "29c7341d1eb77e19a9e8929c7cd74cca", "is_disabled": 0, "rental_uris": {"android": "https://dc.lft.to/lastmile_qr_scan", "ios": "https://dc.lft.to/lastmile_qr_scan"}, "fusion_lon": 0.0, "lat": 38.857651833333335, "bike_id": "29c7341d1eb77e19a9e8929c7cd74cca", "type": "electric_bike", "is_reserved": 0, "lon": -76.98761883333333}, {"fusion_lat": 0.0, "name": "65f50b0e859089f7daa07969e8ee6109", "is_disabled": 0, "rental_uris": {"android": "https://dc.lft.to/lastmile_qr_scan", "ios": "https://dc.lft.to/lastmile_qr_scan"}, "fusion_lon": 0.0, "lat": 38.947394833333334, "bike_id": "65f50b0e859089f7daa07969e8ee6109", "type": "electric_scooter", "is_reserved": 0, "lon": -77.065292}, {"fusion_lat": 0.0, "name": "28af4587bd5ff561a3f8fdfe62732fc8", "is_disabled": 0, "rental_uris": {"android": "https://dc.lft.to/lastmile_qr_scan", "ios": "https://dc.lft.to/lastmile_qr_scan"}, "fusion_lon": 0.0, "lat": 38.910662, "bike_id": "28af4587bd5ff561a3f8fdfe62732fc8", "type": "electric_scooter", "is_reserved": 0, "lon": -77.0220515}, {"fusion_lat": 0.0, "name": "a8e77b9c0fc1e34e0b069c76c3ca83f4", "is_disabled": 0, "rental_uris": {"android": "https://dc.lft.to/lastmile_qr_scan", "ios": "https://dc.lft.to/lastmile_qr_scan"}, "fusion_lon": 0.0, "lat": 38.904178, "bike_id": "a8e77b9c0fc1e34e0b069c76c3ca83f4", "type": "electric_scooter", "is_reserved": 0, "lon": -77.02559516666666}, {"fusion_lat": 0.0, "name": "b8a036ec3ce60f50571c33198d3db014", "is_disabled": 0, "rental_uris": {"android": "https://dc.lft.to/lastmile_qr_scan", "ios": "https://dc.lft.to/lastmile_qr_scan"}, "fusion_lon": 0.0, "lat": 38.909043, "bike_id": "b8a036ec3ce60f50571c33198d3db014", "type": "electric_scooter", "is_reserved": 0, "lon": -77.04417983333333}, {"fusion_lat": 0.0, "name": "083cf5b535bd5b3a09df5b843c37a278", "is_disabled": 0, "rental_uris": {"android": "https://dc.lft.to/lastmile_qr_scan", "ios": "https://dc.lft.to/lastmile_qr_scan"}, "fusion_lon": 0.0, "lat": 38.91603883333333, "bike_id": "083cf5b535bd5b3a09df5b843c37a278", "type": "electric_scooter", "is_reserved": 0, "lon": -77.0174145}, {"fusion_lat": 0.0, "name": "3607aea67c2f7a7c7f19e0d4bbfa093a", "is_disabled": 0, "rental_uris": {"android": "https://dc.lft.to/lastmile_qr_scan", "ios": "https://dc.lft.to/lastmile_qr_scan"}, "fusion_lon": 0.0, "lat": 38.90514983333333, "bike_id": "3607aea67c2f7a7c7f19e0d4bbfa093a", "type": "electric_scooter", "is_reserved": 0, "lon": -77.06371916666667}, {"fusion_lat": 0.0, "name": "ea1c009b2d997dbe81c539f9a123d078", "is_disabled": 0, "rental_uris": {"android": "https://dc.lft.to/lastmile_qr_scan", "ios": "https://dc.lft.to/lastmile_qr_scan"}, "fusion_lon": 0.0, "lat": 38.895466166666665, "bike_id": "ea1c009b2d997dbe81c539f9a123d078", "type": "electric_scooter", "is_reserved": 0, "lon": -77.0109965}, {"fusion_lat": 0.0, "name": "3e6ca9d3492aad762778dbb04206ace2", "is_disabled": 0, "rental_uris": {"android": "https://dc.lft.to/lastmile_qr_scan", "ios": "https://dc.lft.to/lastmile_qr_scan"}, "fusion_lon": 0.0, "lat": 38.94083916666666, "bike_id": "3e6ca9d3492aad762778dbb04206ace2", "type": "electric_scooter", "is_reserved": 0, "lon": -77.06181183333334}, {"fusion_lat": 0.0, "name": "53d077777dc440edb0d5691fddcfe3b2", "is_disabled": 0, "rental_uris": {"android": "https://dc.lft.to/lastmile_qr_scan", "ios": "https://dc.lft.to/lastmile_qr_scan"}, "fusion_lon": 0.0, "lat": 38.88381483333333, "bike_id": "53d077777dc440edb0d5691fddcfe3b2", "type": "electric_scooter", "is_reserved": 0, "lon": -76.93045283333333}, {"fusion_lat": 0.0, "name": "9b79353030d9858f636ae73d390e6998", "is_disabled": 0, "rental_uris": {"android": "https://dc.lft.to/lastmile_qr_scan", "ios": "https://dc.lft.to/lastmile_qr_scan"}, "fusion_lon": 0.0, "lat": 38.90775983333333, "bike_id": "9b79353030d9858f636ae73d390e6998", "type": "electric_scooter", "is_reserved": 0, "lon": -77.03183933333334}, {"fusion_lat": 0.0, "name": "0dcfa825f95d4e9f49d0cadf65312fbd", "is_disabled": 0, "rental_uris": {"android": "https://dc.lft.to/lastmile_qr_scan", "ios": "https://dc.lft.to/lastmile_qr_scan"}, "fusion_lon": 0.0, "lat": 38.9056775, "bike_id": "0dcfa825f95d4e9f49d0cadf65312fbd", "type": "electric_scooter", "is_reserved": 0, "lon": -77.03073633333334}, {"fusion_lat": 0.0, "name": "e5d5d1f2e5a753ed4de75ba1f1d98219", "is_disabled": 0, "rental_uris": {"android": "https://dc.lft.to/lastmile_qr_scan", "ios": "https://dc.lft.to/lastmile_qr_scan"}, "fusion_lon": 0.0, "lat": 38.89824983333333, "bike_id": "e5d5d1f2e5a753ed4de75ba1f1d98219", "type": "electric_scooter", "is_reserved": 0, "lon": -77.027105}, {"fusion_lat": 0.0, "name": "559d007731ba6b57659966a80b2bf8dd", "is_disabled": 0, "rental_uris": {"android": "https://dc.lft.to/lastmile_qr_scan", "ios": "https://dc.lft.to/lastmile_qr_scan"}, "fusion_lon": 0.0, "lat": 38.914853666666666, "bike_id": "559d007731ba6b57659966a80b2bf8dd", "type": "electric_scooter", "is_reserved": 0, "lon": -77.01324}, {"fusion_lat": 0.0, "name": "b38f908442d1facf7063573e6e75f757", "is_disabled": 0, "rental_uris": {"android": "https://dc.lft.to/lastmile_qr_scan", "ios": "https://dc.lft.to/lastmile_qr_scan"}, "fusion_lon": 0.0, "lat": 38.92464783333333, "bike_id": "b38f908442d1facf7063573e6e75f757", "type": "electric_scooter", "is_reserved": 0, "lon": -77.03639533333333}, {"fusion_lat": 0.0, "name": "932e526a1ff50c82ce2f706a31d37103", "is_disabled": 0, "rental_uris": {"android": "https://dc.lft.to/lastmile_qr_scan", "ios": "https://dc.lft.to/lastmile_qr_scan"}, "fusion_lon": 0.0, "lat": 38.847554833333334, "bike_id": "932e526a1ff50c82ce2f706a31d37103", "type": "electric_scooter", "is_reserved": 0, "lon": -76.99503133333333}, {"fusion_lat": 0.0, "name": "8c67cfe7ae066c636cf1227181923f90", "is_disabled": 0, "rental_uris": {"android": "https://dc.lft.to/lastmile_qr_scan", "ios": "https://dc.lft.to/lastmile_qr_scan"}, "fusion_lon": 0.0, "lat": 38.909584333333335, "bike_id": "8c67cfe7ae066c636cf1227181923f90", "type": "electric_scooter", "is_reserved": 0, "lon": -77.03248233333333}, {"fusion_lat": 0.0, "name": "8e6fe0db1197d4bc63bd72e712ecfe54", "is_disabled": 0, "rental_uris": {"android": "https://dc.lft.to/lastmile_qr_scan", "ios": "https://dc.lft.to/lastmile_qr_scan"}, "fusion_lon": 0.0, "lat": 38.92146533333333, "bike_id": "8e6fe0db1197d4bc63bd72e712ecfe54", "type": "electric_scooter", "is_reserved": 0, "lon": -77.03392783333334}, {"fusion_lat": 0.0, "name": "24c3218eff9eebdf1d72a2a635e1e796", "is_disabled": 0, "rental_uris": {"android": "https://dc.lft.to/lastmile_qr_scan", "ios": "https://dc.lft.to/lastmile_qr_scan"}, "fusion_lon": 0.0, "lat": 38.90970933333333, "bike_id": "24c3218eff9eebdf1d72a2a635e1e796", "type": "electric_scooter", "is_reserved": 0, "lon": -77.03248033333334}, {"fusion_lat": 0.0, "name": "dd46a30985245d0f03bc060c59d53026", "is_disabled": 0, "rental_uris": {"android": "https://dc.lft.to/lastmile_qr_scan", "ios": "https://dc.lft.to/lastmile_qr_scan"}, "fusion_lon": 0.0, "lat": 38.92400083333333, "bike_id": "dd46a30985245d0f03bc060c59d53026", "type": "electric_scooter", "is_reserved": 0, "lon": -77.025142}, {"fusion_lat": 0.0, "name": "95e54eb97e1aec9f4c398b0d260e9e49", "is_disabled": 0, "rental_uris": {"android": "https://dc.lft.to/lastmile_qr_scan", "ios": "https://dc.lft.to/lastmile_qr_scan"}, "fusion_lon": 0.0, "lat": 38.922759, "bike_id": "95e54eb97e1aec9f4c398b0d260e9e49", "type": "electric_scooter", "is_reserved": 0, "lon": -77.042403}, {"fusion_lat": 0.0, "name": "f418cfbc7cc0f7be84c3a82122d6ddca", "is_disabled": 0, "rental_uris": {"android": "https://dc.lft.to/lastmile_qr_scan", "ios": "https://dc.lft.to/lastmile_qr_scan"}, "fusion_lon": 0.0, "lat": 38.90688383333333, "bike_id": "f418cfbc7cc0f7be84c3a82122d6ddca", "type": "electric_scooter", "is_reserved": 0, "lon": -77.03715716666666}, {"fusion_lat": 0.0, "name": "1c95f98078f278417c726d617150c873", "is_disabled": 0, "rental_uris": {"android": "https://dc.lft.to/lastmile_qr_scan", "ios": "https://dc.lft.to/lastmile_qr_scan"}, "fusion_lon": 0.0, "lat": 38.91349, "bike_id": "1c95f98078f278417c726d617150c873", "type": "electric_scooter", "is_reserved": 0, "lon": -77.0333}, {"fusion_lat": 0.0, "name": "8ae37b62fd03875a8fed68004065ccdc", "is_disabled": 0, "rental_uris": {"android": "https://dc.lft.to/lastmile_qr_scan", "ios": "https://dc.lft.to/lastmile_qr_scan"}, "fusion_lon": 0.0, "lat": 38.9847195, "bike_id": "8ae37b62fd03875a8fed68004065ccdc", "type": "electric_scooter", "is_reserved": 0, "lon": -77.02642266666666}, {"fusion_lat": 0.0, "name": "75c6923784317002ee55818261534131", "is_disabled": 0, "rental_uris": {"android": "https://dc.lft.to/lastmile_qr_scan", "ios": "https://dc.lft.to/lastmile_qr_scan"}, "fusion_lon": 0.0, "lat": 38.901560333333336, "bike_id": "75c6923784317002ee55818261534131", "type": "electric_scooter", "is_reserved": 0, "lon": -77.025641}, {"fusion_lat": 0.0, "name": "9072152804657e916f4e3acaf8b65566", "is_disabled": 0, "rental_uris": {"android": "https://dc.lft.to/lastmile_qr_scan", "ios": "https://dc.lft.to/lastmile_qr_scan"}, "fusion_lon": 0.0, "lat": 38.921404, "bike_id": "9072152804657e916f4e3acaf8b65566", "type": "electric_scooter", "is_reserved": 0, "lon": -77.017943}, {"fusion_lat": 0.0, "name": "192ad915d9888afdfee18c9e3fa859ad", "is_disabled": 0, "rental_uris": {"android": "https://dc.lft.to/lastmile_qr_scan", "ios": "https://dc.lft.to/lastmile_qr_scan"}, "fusion_lon": 0.0, "lat": 38.93698283333333, "bike_id": "192ad915d9888afdfee18c9e3fa859ad", "type": "electric_scooter", "is_reserved": 0, "lon": -77.02395866666667}, {"fusion_lat": 0.0, "name": "a75b9d2246912c3f5e7f883ff8cc4043", "is_disabled": 0, "rental_uris": {"android": "https://dc.lft.to/lastmile_qr_scan", "ios": "https://dc.lft.to/lastmile_qr_scan"}, "fusion_lon": 0.0, "lat": 38.916610166666665, "bike_id": "a75b9d2246912c3f5e7f883ff8cc4043", "type": "electric_scooter", "is_reserved": 0, "lon": -77.02821316666666}, {"fusion_lat": 0.0, "name": "de5b5f3127ef2d1e20e662ba4da3b160", "is_disabled": 0, "rental_uris": {"android": "https://dc.lft.to/lastmile_qr_scan", "ios": "https://dc.lft.to/lastmile_qr_scan"}, "fusion_lon": 0.0, "lat": 38.92653033333333, "bike_id": "de5b5f3127ef2d1e20e662ba4da3b160", "type": "electric_scooter", "is_reserved": 0, "lon": -77.03711416666667}, {"fusion_lat": 0.0, "name": "4bd23d0835acb2d796d8679edf74c2aa", "is_disabled": 0, "rental_uris": {"android": "https://dc.lft.to/lastmile_qr_scan", "ios": "https://dc.lft.to/lastmile_qr_scan"}, "fusion_lon": 0.0, "lat": 38.91844916666667, "bike_id": "4bd23d0835acb2d796d8679edf74c2aa", "type": "electric_scooter", "is_reserved": 0, "lon": -76.9654395}, {"fusion_lat": 0.0, "name": "b04771414c4f0c8e93dfcd4bf772c9d0", "is_disabled": 0, "rental_uris": {"android": "https://dc.lft.to/lastmile_qr_scan", "ios": "https://dc.lft.to/lastmile_qr_scan"}, "fusion_lon": 0.0, "lat": 38.8876255, "bike_id": "b04771414c4f0c8e93dfcd4bf772c9d0", "type": "electric_scooter", "is_reserved": 0, "lon": -76.99468633333333}, {"fusion_lat": 0.0, "name": "665afc685931b1eec51e1f19d617dd5a", "is_disabled": 0, "rental_uris": {"android": "https://dc.lft.to/lastmile_qr_scan", "ios": "https://dc.lft.to/lastmile_qr_scan"}, "fusion_lon": 0.0, "lat": 38.9216305, "bike_id": "665afc685931b1eec51e1f19d617dd5a", "type": "electric_scooter", "is_reserved": 0, "lon": -77.03647533333333}, {"fusion_lat": 0.0, "name": "5182ecec152ffb8ddfef01cce6a49fe9", "is_disabled": 0, "rental_uris": {"android": "https://dc.lft.to/lastmile_qr_scan", "ios": "https://dc.lft.to/lastmile_qr_scan"}, "fusion_lon": 0.0, "lat": 38.902647, "bike_id": "5182ecec152ffb8ddfef01cce6a49fe9", "type": "electric_scooter", "is_reserved": 0, "lon": -77.01855916666666}, {"fusion_lat": 0.0, "name": "3fe8193afcfab4ddcf2b3b26c8fd69d9", "is_disabled": 0, "rental_uris": {"android": "https://dc.lft.to/lastmile_qr_scan", "ios": "https://dc.lft.to/lastmile_qr_scan"}, "fusion_lon": 0.0, "lat": 38.92479483333334, "bike_id": "3fe8193afcfab4ddcf2b3b26c8fd69d9", "type": "electric_scooter", "is_reserved": 0, "lon": -77.02831183333333}, {"fusion_lat": 0.0, "name": "e1b72088d20bb27816de7a434fbcc5cf", "is_disabled": 0, "rental_uris": {"android": "https://dc.lft.to/lastmile_qr_scan", "ios": "https://dc.lft.to/lastmile_qr_scan"}, "fusion_lon": 0.0, "lat": 38.90126383333333, "bike_id": "e1b72088d20bb27816de7a434fbcc5cf", "type": "electric_scooter", "is_reserved": 0, "lon": -77.00282233333333}, {"fusion_lat": 0.0, "name": "63bfad06e82bec4b7801b79c07132264", "is_disabled": 0, "rental_uris": {"android": "https://dc.lft.to/lastmile_qr_scan", "ios": "https://dc.lft.to/lastmile_qr_scan"}, "fusion_lon": 0.0, "lat": 38.90100733333333, "bike_id": "63bfad06e82bec4b7801b79c07132264", "type": "electric_scooter", "is_reserved": 0, "lon": -77.024765}, {"fusion_lat": 0.0, "name": "b5ef9aee4c31b58e9eb6063682ddfa53", "is_disabled": 0, "rental_uris": {"android": "https://dc.lft.to/lastmile_qr_scan", "ios": "https://dc.lft.to/lastmile_qr_scan"}, "fusion_lon": 0.0, "lat": 38.90000666666667, "bike_id": "b5ef9aee4c31b58e9eb6063682ddfa53", "type": "electric_scooter", "is_reserved": 0, "lon": -76.99754466666667}, {"fusion_lat": 0.0, "name": "54003f424bde582145d378a141e29287", "is_disabled": 0, "rental_uris": {"android": "https://dc.lft.to/lastmile_qr_scan", "ios": "https://dc.lft.to/lastmile_qr_scan"}, "fusion_lon": 0.0, "lat": 38.9069065, "bike_id": "54003f424bde582145d378a141e29287", "type": "electric_scooter", "is_reserved": 0, "lon": -77.03767833333333}, {"fusion_lat": 0.0, "name": "07968c16ba27e6f88d36455d85e132c0", "is_disabled": 0, "rental_uris": {"android": "https://dc.lft.to/lastmile_qr_scan", "ios": "https://dc.lft.to/lastmile_qr_scan"}, "fusion_lon": 0.0, "lat": 38.9533075, "bike_id": "07968c16ba27e6f88d36455d85e132c0", "type": "electric_bike", "is_reserved": 0, "lon": -76.98252166666667}, {"fusion_lat": 0.0, "name": "8873e0185044931365e751d01860ab34", "is_disabled": 0, "rental_uris": {"android": "https://dc.lft.to/lastmile_qr_scan", "ios": "https://dc.lft.to/lastmile_qr_scan"}, "fusion_lon": 0.0, "lat": 38.927436166666666, "bike_id": "8873e0185044931365e751d01860ab34", "type": "electric_scooter", "is_reserved": 0, "lon": -77.036413}, {"fusion_lat": 0.0, "name": "9568a2622cc2d8d9e1ea38e8661e2f43", "is_disabled": 0, "rental_uris": {"android": "https://dc.lft.to/lastmile_qr_scan", "ios": "https://dc.lft.to/lastmile_qr_scan"}, "fusion_lon": 0.0, "lat": 38.839331333333334, "bike_id": "9568a2622cc2d8d9e1ea38e8661e2f43", "type": "electric_bike", "is_reserved": 0, "lon": -77.07908366666666}, {"fusion_lat": 0.0, "name": "253c2b9e6e4d23e92a6f69ca0da037b6", "is_disabled": 0, "rental_uris": {"android": "https://dc.lft.to/lastmile_qr_scan", "ios": "https://dc.lft.to/lastmile_qr_scan"}, "fusion_lon": 0.0, "lat": 38.90133766666667, "bike_id": "253c2b9e6e4d23e92a6f69ca0da037b6", "type": "electric_scooter", "is_reserved": 0, "lon": -76.98648466666667}, {"fusion_lat": 0.0, "name": "f3935c83dc72c8b9e64fff29468f4539", "is_disabled": 0, "rental_uris": {"android": "https://dc.lft.to/lastmile_qr_scan", "ios": "https://dc.lft.to/lastmile_qr_scan"}, "fusion_lon": 0.0, "lat": 38.921503666666666, "bike_id": "f3935c83dc72c8b9e64fff29468f4539", "type": "electric_scooter", "is_reserved": 0, "lon": -77.03439466666667}, {"fusion_lat": 0.0, "name": "081dc79726ffb33e586d6fa710e2cd38", "is_disabled": 0, "rental_uris": {"android": "https://dc.lft.to/lastmile_qr_scan", "ios": "https://dc.lft.to/lastmile_qr_scan"}, "fusion_lon": 0.0, "lat": 38.874625333333334, "bike_id": "081dc79726ffb33e586d6fa710e2cd38", "type": "electric_scooter", "is_reserved": 0, "lon": -77.0003765}, {"fusion_lat": 0.0, "name": "b9cbc3c8b37980c77b8d231ff1789f80", "is_disabled": 0, "rental_uris": {"android": "https://dc.lft.to/lastmile_qr_scan", "ios": "https://dc.lft.to/lastmile_qr_scan"}, "fusion_lon": 0.0, "lat": 38.89512966666667, "bike_id": "b9cbc3c8b37980c77b8d231ff1789f80", "type": "electric_scooter", "is_reserved": 0, "lon": -76.99956566666667}, {"fusion_lat": 0.0, "name": "1d1c1267aff667a98677e8af9d83b644", "is_disabled": 0, "rental_uris": {"android": "https://dc.lft.to/lastmile_qr_scan", "ios": "https://dc.lft.to/lastmile_qr_scan"}, "fusion_lon": 0.0, "lat": 38.907236833333336, "bike_id": "1d1c1267aff667a98677e8af9d83b644", "type": "electric_scooter", "is_reserved": 0, "lon": -77.0434555}, {"fusion_lat": 0.0, "name": "fd6805840b18b96f107580c3599a8ec2", "is_disabled": 0, "rental_uris": {"android": "https://dc.lft.to/lastmile_qr_scan", "ios": "https://dc.lft.to/lastmile_qr_scan"}, "fusion_lon": 0.0, "lat": 38.9420115, "bike_id": "fd6805840b18b96f107580c3599a8ec2", "type": "electric_scooter", "is_reserved": 0, "lon": -77.0258675}, {"fusion_lat": 0.0, "name": "3671966982175b520dc3319b60ee3404", "is_disabled": 0, "rental_uris": {"android": "https://dc.lft.to/lastmile_qr_scan", "ios": "https://dc.lft.to/lastmile_qr_scan"}, "fusion_lon": 0.0, "lat": 38.926194, "bike_id": "3671966982175b520dc3319b60ee3404", "type": "electric_scooter", "is_reserved": 0, "lon": -77.04330983333334}, {"fusion_lat": 0.0, "name": "1f8caa30d056c7d1c8f4d3b3d42a37b8", "is_disabled": 0, "rental_uris": {"android": "https://dc.lft.to/lastmile_qr_scan", "ios": "https://dc.lft.to/lastmile_qr_scan"}, "fusion_lon": 0.0, "lat": 38.91802083333333, "bike_id": "1f8caa30d056c7d1c8f4d3b3d42a37b8", "type": "electric_scooter", "is_reserved": 0, "lon": -77.02717733333333}, {"fusion_lat": 0.0, "name": "4e6663d944be0aa88033c7f4d58c0840", "is_disabled": 0, "rental_uris": {"android": "https://dc.lft.to/lastmile_qr_scan", "ios": "https://dc.lft.to/lastmile_qr_scan"}, "fusion_lon": 0.0, "lat": 38.97878083333333, "bike_id": "4e6663d944be0aa88033c7f4d58c0840", "type": "electric_bike", "is_reserved": 0, "lon": -77.060293}, {"fusion_lat": 0.0, "name": "f3bff4d8fa28ec8d4a768cd2a0bb84dc", "is_disabled": 0, "rental_uris": {"android": "https://dc.lft.to/lastmile_qr_scan", "ios": "https://dc.lft.to/lastmile_qr_scan"}, "fusion_lon": 0.0, "lat": 38.892213166666664, "bike_id": "f3bff4d8fa28ec8d4a768cd2a0bb84dc", "type": "electric_scooter", "is_reserved": 0, "lon": -77.02780466666667}, {"fusion_lat": 0.0, "name": "2bd4682e02781729168b2b6020463094", "is_disabled": 0, "rental_uris": {"android": "https://dc.lft.to/lastmile_qr_scan", "ios": "https://dc.lft.to/lastmile_qr_scan"}, "fusion_lon": 0.0, "lat": 38.910478833333336, "bike_id": "2bd4682e02781729168b2b6020463094", "type": "electric_scooter", "is_reserved": 0, "lon": -77.021927}, {"fusion_lat": 0.0, "name": "5c7fcefaddac512ef63bebd989972c32", "is_disabled": 0, "rental_uris": {"android": "https://dc.lft.to/lastmile_qr_scan", "ios": "https://dc.lft.to/lastmile_qr_scan"}, "fusion_lon": 0.0, "lat": 38.86629583333333, "bike_id": "5c7fcefaddac512ef63bebd989972c32", "type": "electric_scooter", "is_reserved": 0, "lon": -76.98714716666667}, {"fusion_lat": 0.0, "name": "1640c37584946c47bf5832765ae2d374", "is_disabled": 0, "rental_uris": {"android": "https://dc.lft.to/lastmile_qr_scan", "ios": "https://dc.lft.to/lastmile_qr_scan"}, "fusion_lon": 0.0, "lat": 38.874570166666665, "bike_id": "1640c37584946c47bf5832765ae2d374", "type": "electric_bike", "is_reserved": 0, "lon": -76.99947016666667}, {"fusion_lat": 0.0, "name": "69e4d98e2f142215b38bb191c02dff3b", "is_disabled": 0, "rental_uris": {"android": "https://dc.lft.to/lastmile_qr_scan", "ios": "https://dc.lft.to/lastmile_qr_scan"}, "fusion_lon": 0.0, "lat": 38.9225135, "bike_id": "69e4d98e2f142215b38bb191c02dff3b", "type": "electric_scooter", "is_reserved": 0, "lon": -77.0390235}, {"fusion_lat": 0.0, "name": "c4746782a3d1a595ae5bae86a6d05246", "is_disabled": 0, "rental_uris": {"android": "https://dc.lft.to/lastmile_qr_scan", "ios": "https://dc.lft.to/lastmile_qr_scan"}, "fusion_lon": 0.0, "lat": 38.9214255, "bike_id": "c4746782a3d1a595ae5bae86a6d05246", "type": "electric_bike", "is_reserved": 0, "lon": -77.04365133333333}, {"fusion_lat": 0.0, "name": "42cb37f52617cc70736d3dc91cabd54f", "is_disabled": 0, "rental_uris": {"android": "https://dc.lft.to/lastmile_qr_scan", "ios": "https://dc.lft.to/lastmile_qr_scan"}, "fusion_lon": 0.0, "lat": 38.911763, "bike_id": "42cb37f52617cc70736d3dc91cabd54f", "type": "electric_scooter", "is_reserved": 0, "lon": -77.036609}, {"fusion_lat": 0.0, "name": "7dabe2fcf6dc9987301f0b7f9e188bdd", "is_disabled": 0, "rental_uris": {"android": "https://dc.lft.to/lastmile_qr_scan", "ios": "https://dc.lft.to/lastmile_qr_scan"}, "fusion_lon": 0.0, "lat": 38.898231833333334, "bike_id": "7dabe2fcf6dc9987301f0b7f9e188bdd", "type": "electric_scooter", "is_reserved": 0, "lon": -77.0271935}, {"fusion_lat": 0.0, "name": "75f1f1bd6da7786081ef3cc354f038bc", "is_disabled": 0, "rental_uris": {"android": "https://dc.lft.to/lastmile_qr_scan", "ios": "https://dc.lft.to/lastmile_qr_scan"}, "fusion_lon": 0.0, "lat": 38.932343333333336, "bike_id": "75f1f1bd6da7786081ef3cc354f038bc", "type": "electric_bike", "is_reserved": 0, "lon": -76.97425183333333}, {"fusion_lat": 0.0, "name": "92e757cc39dbefea489e896971240339", "is_disabled": 0, "rental_uris": {"android": "https://dc.lft.to/lastmile_qr_scan", "ios": "https://dc.lft.to/lastmile_qr_scan"}, "fusion_lon": 0.0, "lat": 38.95110283333333, "bike_id": "92e757cc39dbefea489e896971240339", "type": "electric_scooter", "is_reserved": 0, "lon": -77.05862583333334}, {"fusion_lat": 0.0, "name": "944b9e55a6b198773537d52fb844323b", "is_disabled": 0, "rental_uris": {"android": "https://dc.lft.to/lastmile_qr_scan", "ios": "https://dc.lft.to/lastmile_qr_scan"}, "fusion_lon": 0.0, "lat": 38.9169, "bike_id": "944b9e55a6b198773537d52fb844323b", "type": "electric_scooter", "is_reserved": 0, "lon": -77.0371815}, {"fusion_lat": 0.0, "name": "31db0cdaf33384d8d61945647f56f742", "is_disabled": 0, "rental_uris": {"android": "https://dc.lft.to/lastmile_qr_scan", "ios": "https://dc.lft.to/lastmile_qr_scan"}, "fusion_lon": 0.0, "lat": 38.92961, "bike_id": "31db0cdaf33384d8d61945647f56f742", "type": "electric_scooter", "is_reserved": 0, "lon": -77.02017166666667}, {"fusion_lat": 0.0, "name": "319209f6eefdc67ccc1a1109b7d32e5a", "is_disabled": 0, "rental_uris": {"android": "https://dc.lft.to/lastmile_qr_scan", "ios": "https://dc.lft.to/lastmile_qr_scan"}, "fusion_lon": 0.0, "lat": 38.90953416666667, "bike_id": "319209f6eefdc67ccc1a1109b7d32e5a", "type": "electric_scooter", "is_reserved": 0, "lon": -77.023835}, {"fusion_lat": 0.0, "name": "7a3801ea8db488e1399ced7805282b97", "is_disabled": 0, "rental_uris": {"android": "https://dc.lft.to/lastmile_qr_scan", "ios": "https://dc.lft.to/lastmile_qr_scan"}, "fusion_lon": 0.0, "lat": 38.895101833333335, "bike_id": "7a3801ea8db488e1399ced7805282b97", "type": "electric_scooter", "is_reserved": 0, "lon": -77.02204366666666}, {"fusion_lat": 0.0, "name": "da1cbc10b574b86195fd4cff3bdbd7bb", "is_disabled": 0, "rental_uris": {"android": "https://dc.lft.to/lastmile_qr_scan", "ios": "https://dc.lft.to/lastmile_qr_scan"}, "fusion_lon": 0.0, "lat": 38.90018083333333, "bike_id": "da1cbc10b574b86195fd4cff3bdbd7bb", "type": "electric_scooter", "is_reserved": 0, "lon": -77.00222016666666}, {"fusion_lat": 0.0, "name": "5ebf4f08e23d8df7cf4069df61e44d8c", "is_disabled": 0, "rental_uris": {"android": "https://dc.lft.to/lastmile_qr_scan", "ios": "https://dc.lft.to/lastmile_qr_scan"}, "fusion_lon": 0.0, "lat": 38.909363166666665, "bike_id": "5ebf4f08e23d8df7cf4069df61e44d8c", "type": "electric_scooter", "is_reserved": 0, "lon": -77.0212425}, {"fusion_lat": 0.0, "name": "f868a494479fcedb0ade2500741531a2", "is_disabled": 0, "rental_uris": {"android": "https://dc.lft.to/lastmile_qr_scan", "ios": "https://dc.lft.to/lastmile_qr_scan"}, "fusion_lon": 0.0, "lat": 38.8899095, "bike_id": "f868a494479fcedb0ade2500741531a2", "type": "electric_scooter", "is_reserved": 0, "lon": -76.99637433333334}, {"fusion_lat": 0.0, "name": "61118de86dbaaf82e1a6d5fb71b1abe2", "is_disabled": 0, "rental_uris": {"android": "https://dc.lft.to/lastmile_qr_scan", "ios": "https://dc.lft.to/lastmile_qr_scan"}, "fusion_lon": 0.0, "lat": 38.9173595, "bike_id": "61118de86dbaaf82e1a6d5fb71b1abe2", "type": "electric_scooter", "is_reserved": 0, "lon": -77.04829066666667}, {"fusion_lat": 0.0, "name": "90000a9c09948dda20a265534e12ccae", "is_disabled": 0, "rental_uris": {"android": "https://dc.lft.to/lastmile_qr_scan", "ios": "https://dc.lft.to/lastmile_qr_scan"}, "fusion_lon": 0.0, "lat": 38.89940983333334, "bike_id": "90000a9c09948dda20a265534e12ccae", "type": "electric_scooter", "is_reserved": 0, "lon": -77.05355233333333}, {"fusion_lat": 0.0, "name": "d5a0214c2bbf348c9799e620975c1830", "is_disabled": 0, "rental_uris": {"android": "https://dc.lft.to/lastmile_qr_scan", "ios": "https://dc.lft.to/lastmile_qr_scan"}, "fusion_lon": 0.0, "lat": 38.8898765, "bike_id": "d5a0214c2bbf348c9799e620975c1830", "type": "electric_scooter", "is_reserved": 0, "lon": -76.98737933333334}, {"fusion_lat": 0.0, "name": "66f34fe0483b72af8bd6e2350eed07aa", "is_disabled": 0, "rental_uris": {"android": "https://dc.lft.to/lastmile_qr_scan", "ios": "https://dc.lft.to/lastmile_qr_scan"}, "fusion_lon": 0.0, "lat": 38.939430333333334, "bike_id": "66f34fe0483b72af8bd6e2350eed07aa", "type": "electric_scooter", "is_reserved": 0, "lon": -77.033225}, {"fusion_lat": 0.0, "name": "dea32c204878d3a2bf4b41d8b030ef99", "is_disabled": 0, "rental_uris": {"android": "https://dc.lft.to/lastmile_qr_scan", "ios": "https://dc.lft.to/lastmile_qr_scan"}, "fusion_lon": 0.0, "lat": 38.85894066666667, "bike_id": "dea32c204878d3a2bf4b41d8b030ef99", "type": "electric_bike", "is_reserved": 0, "lon": -77.09542816666666}, {"fusion_lat": 0.0, "name": "da889b6d44dca445235abb121930d555", "is_disabled": 0, "rental_uris": {"android": "https://dc.lft.to/lastmile_qr_scan", "ios": "https://dc.lft.to/lastmile_qr_scan"}, "fusion_lon": 0.0, "lat": 38.920542, "bike_id": "da889b6d44dca445235abb121930d555", "type": "electric_scooter", "is_reserved": 0, "lon": -77.03389466666667}, {"fusion_lat": 0.0, "name": "4ea8e5da0e530dec5b73ef885d51015b", "is_disabled": 0, "rental_uris": {"android": "https://dc.lft.to/lastmile_qr_scan", "ios": "https://dc.lft.to/lastmile_qr_scan"}, "fusion_lon": 0.0, "lat": 38.89223333333333, "bike_id": "4ea8e5da0e530dec5b73ef885d51015b", "type": "electric_scooter", "is_reserved": 0, "lon": -77.0450555}, {"fusion_lat": 0.0, "name": "a901bca9b7fb023125484a2df35abcdf", "is_disabled": 0, "rental_uris": {"android": "https://dc.lft.to/lastmile_qr_scan", "ios": "https://dc.lft.to/lastmile_qr_scan"}, "fusion_lon": 0.0, "lat": 38.8973915, "bike_id": "a901bca9b7fb023125484a2df35abcdf", "type": "electric_scooter", "is_reserved": 0, "lon": -77.02733}, {"fusion_lat": 0.0, "name": "f85c4775a52a7712f7d54dd296373031", "is_disabled": 0, "rental_uris": {"android": "https://dc.lft.to/lastmile_qr_scan", "ios": "https://dc.lft.to/lastmile_qr_scan"}, "fusion_lon": 0.0, "lat": 38.863322833333335, "bike_id": "f85c4775a52a7712f7d54dd296373031", "type": "electric_bike", "is_reserved": 0, "lon": -76.98723433333333}, {"fusion_lat": 0.0, "name": "9ef94ef7bfabdfdb43b7885c74bb4108", "is_disabled": 0, "rental_uris": {"android": "https://dc.lft.to/lastmile_qr_scan", "ios": "https://dc.lft.to/lastmile_qr_scan"}, "fusion_lon": 0.0, "lat": 38.902048, "bike_id": "9ef94ef7bfabdfdb43b7885c74bb4108", "type": "electric_scooter", "is_reserved": 0, "lon": -77.0437175}, {"fusion_lat": 0.0, "name": "edb37db11c7f5d2fdb29820bf425b107", "is_disabled": 0, "rental_uris": {"android": "https://dc.lft.to/lastmile_qr_scan", "ios": "https://dc.lft.to/lastmile_qr_scan"}, "fusion_lon": 0.0, "lat": 38.900132, "bike_id": "edb37db11c7f5d2fdb29820bf425b107", "type": "electric_scooter", "is_reserved": 0, "lon": -76.99560466666667}, {"fusion_lat": 0.0, "name": "107c25fcd0a2b52e0011253230e3a420", "is_disabled": 0, "rental_uris": {"android": "https://dc.lft.to/lastmile_qr_scan", "ios": "https://dc.lft.to/lastmile_qr_scan"}, "fusion_lon": 0.0, "lat": 38.931146166666664, "bike_id": "107c25fcd0a2b52e0011253230e3a420", "type": "electric_scooter", "is_reserved": 0, "lon": -77.02982233333333}, {"fusion_lat": 0.0, "name": "3ab2f140dc31ce10aef03c7d62a79dfa", "is_disabled": 0, "rental_uris": {"android": "https://dc.lft.to/lastmile_qr_scan", "ios": "https://dc.lft.to/lastmile_qr_scan"}, "fusion_lon": 0.0, "lat": 38.8450595, "bike_id": "3ab2f140dc31ce10aef03c7d62a79dfa", "type": "electric_bike", "is_reserved": 0, "lon": -76.9935065}, {"fusion_lat": 0.0, "name": "8fdaa6e8e28b259ab097b3e223e7fbfd", "is_disabled": 0, "rental_uris": {"android": "https://dc.lft.to/lastmile_qr_scan", "ios": "https://dc.lft.to/lastmile_qr_scan"}, "fusion_lon": 0.0, "lat": 38.942055, "bike_id": "8fdaa6e8e28b259ab097b3e223e7fbfd", "type": "electric_scooter", "is_reserved": 0, "lon": -77.02591216666667}, {"fusion_lat": 0.0, "name": "fc37c63a2390737bf0af614c69c1ca8d", "is_disabled": 0, "rental_uris": {"android": "https://dc.lft.to/lastmile_qr_scan", "ios": "https://dc.lft.to/lastmile_qr_scan"}, "fusion_lon": 0.0, "lat": 38.95634066666667, "bike_id": "fc37c63a2390737bf0af614c69c1ca8d", "type": "electric_scooter", "is_reserved": 0, "lon": -77.03307883333333}, {"fusion_lat": 0.0, "name": "5173860be39ea226608815863721e049", "is_disabled": 0, "rental_uris": {"android": "https://dc.lft.to/lastmile_qr_scan", "ios": "https://dc.lft.to/lastmile_qr_scan"}, "fusion_lon": 0.0, "lat": 38.92769333333333, "bike_id": "5173860be39ea226608815863721e049", "type": "electric_scooter", "is_reserved": 0, "lon": -77.0287735}, {"fusion_lat": 0.0, "name": "703390a38ec906e954ac2b9064d08712", "is_disabled": 0, "rental_uris": {"android": "https://dc.lft.to/lastmile_qr_scan", "ios": "https://dc.lft.to/lastmile_qr_scan"}, "fusion_lon": 0.0, "lat": 38.92685083333333, "bike_id": "703390a38ec906e954ac2b9064d08712", "type": "electric_scooter", "is_reserved": 0, "lon": -77.0077175}, {"fusion_lat": 0.0, "name": "3fe2f565023d19d189a63a9ebebaa404", "is_disabled": 0, "rental_uris": {"android": "https://dc.lft.to/lastmile_qr_scan", "ios": "https://dc.lft.to/lastmile_qr_scan"}, "fusion_lon": 0.0, "lat": 38.929483, "bike_id": "3fe2f565023d19d189a63a9ebebaa404", "type": "electric_scooter", "is_reserved": 0, "lon": -77.03466316666666}, {"fusion_lat": 0.0, "name": "6789bdd88856e65957034b2aa9f80c02", "is_disabled": 0, "rental_uris": {"android": "https://dc.lft.to/lastmile_qr_scan", "ios": "https://dc.lft.to/lastmile_qr_scan"}, "fusion_lon": 0.0, "lat": 38.91128783333333, "bike_id": "6789bdd88856e65957034b2aa9f80c02", "type": "electric_scooter", "is_reserved": 0, "lon": -77.01047983333333}, {"fusion_lat": 0.0, "name": "f66dc011bcc4e20255686a582ad71dbe", "is_disabled": 0, "rental_uris": {"android": "https://dc.lft.to/lastmile_qr_scan", "ios": "https://dc.lft.to/lastmile_qr_scan"}, "fusion_lon": 0.0, "lat": 38.8929635, "bike_id": "f66dc011bcc4e20255686a582ad71dbe", "type": "electric_scooter", "is_reserved": 0, "lon": -77.0466355}, {"fusion_lat": 0.0, "name": "d217d70890fdacda71151d14b5b69295", "is_disabled": 0, "rental_uris": {"android": "https://dc.lft.to/lastmile_qr_scan", "ios": "https://dc.lft.to/lastmile_qr_scan"}, "fusion_lon": 0.0, "lat": 38.84284683333333, "bike_id": "d217d70890fdacda71151d14b5b69295", "type": "electric_bike", "is_reserved": 0, "lon": -77.04493883333333}, {"fusion_lat": 0.0, "name": "47c33bbb6dac6250ddebbf0bdf9c161b", "is_disabled": 0, "rental_uris": {"android": "https://dc.lft.to/lastmile_qr_scan", "ios": "https://dc.lft.to/lastmile_qr_scan"}, "fusion_lon": 0.0, "lat": 38.89565833333333, "bike_id": "47c33bbb6dac6250ddebbf0bdf9c161b", "type": "electric_bike", "is_reserved": 0, "lon": -77.12736933333333}, {"fusion_lat": 0.0, "name": "024813a9dfd348aa31db5a39393fd7e8", "is_disabled": 0, "rental_uris": {"android": "https://dc.lft.to/lastmile_qr_scan", "ios": "https://dc.lft.to/lastmile_qr_scan"}, "fusion_lon": 0.0, "lat": 38.902704166666666, "bike_id": "024813a9dfd348aa31db5a39393fd7e8", "type": "electric_scooter", "is_reserved": 0, "lon": -77.0337365}, {"fusion_lat": 0.0, "name": "5bbc1a3b154f5ac1703aaf6db1669a81", "is_disabled": 0, "rental_uris": {"android": "https://dc.lft.to/lastmile_qr_scan", "ios": "https://dc.lft.to/lastmile_qr_scan"}, "fusion_lon": 0.0, "lat": 38.91705783333333, "bike_id": "5bbc1a3b154f5ac1703aaf6db1669a81", "type": "electric_scooter", "is_reserved": 0, "lon": -77.03472283333333}, {"fusion_lat": 0.0, "name": "8358a12fa6ab2795638dae462ea8d6de", "is_disabled": 0, "rental_uris": {"android": "https://dc.lft.to/lastmile_qr_scan", "ios": "https://dc.lft.to/lastmile_qr_scan"}, "fusion_lon": 0.0, "lat": 38.85312966666667, "bike_id": "8358a12fa6ab2795638dae462ea8d6de", "type": "electric_bike", "is_reserved": 0, "lon": -77.045999}, {"fusion_lat": 0.0, "name": "618f94cddeec0c297bfe28ee7960ea19", "is_disabled": 0, "rental_uris": {"android": "https://dc.lft.to/lastmile_qr_scan", "ios": "https://dc.lft.to/lastmile_qr_scan"}, "fusion_lon": 0.0, "lat": 38.9253965, "bike_id": "618f94cddeec0c297bfe28ee7960ea19", "type": "electric_scooter", "is_reserved": 0, "lon": -77.05122633333333}, {"fusion_lat": 0.0, "name": "f236db0f2f905312c19e91979ed3ae81", "is_disabled": 0, "rental_uris": {"android": "https://dc.lft.to/lastmile_qr_scan", "ios": "https://dc.lft.to/lastmile_qr_scan"}, "fusion_lon": 0.0, "lat": 38.92251316666667, "bike_id": "f236db0f2f905312c19e91979ed3ae81", "type": "electric_scooter", "is_reserved": 0, "lon": -77.0508155}, {"fusion_lat": 0.0, "name": "d2dd21512448fd11ffb719981c88e61a", "is_disabled": 0, "rental_uris": {"android": "https://dc.lft.to/lastmile_qr_scan", "ios": "https://dc.lft.to/lastmile_qr_scan"}, "fusion_lon": 0.0, "lat": 38.929015166666666, "bike_id": "d2dd21512448fd11ffb719981c88e61a", "type": "electric_scooter", "is_reserved": 0, "lon": -77.05452133333333}, {"fusion_lat": 0.0, "name": "8c3f8c3a231f42c7f962c3b3755ee4ff", "is_disabled": 0, "rental_uris": {"android": "https://dc.lft.to/lastmile_qr_scan", "ios": "https://dc.lft.to/lastmile_qr_scan"}, "fusion_lon": 0.0, "lat": 38.9170435, "bike_id": "8c3f8c3a231f42c7f962c3b3755ee4ff", "type": "electric_scooter", "is_reserved": 0, "lon": -77.02898833333333}, {"fusion_lat": 0.0, "name": "fec033bc132f6d519d0ef8a9ff9192c9", "is_disabled": 0, "rental_uris": {"android": "https://dc.lft.to/lastmile_qr_scan", "ios": "https://dc.lft.to/lastmile_qr_scan"}, "fusion_lon": 0.0, "lat": 38.887549166666666, "bike_id": "fec033bc132f6d519d0ef8a9ff9192c9", "type": "electric_scooter", "is_reserved": 0, "lon": -77.0025865}, {"fusion_lat": 0.0, "name": "510068691bb24bffbbaf2a1633d301fc", "is_disabled": 0, "rental_uris": {"android": "https://dc.lft.to/lastmile_qr_scan", "ios": "https://dc.lft.to/lastmile_qr_scan"}, "fusion_lon": 0.0, "lat": 38.87636333333333, "bike_id": "510068691bb24bffbbaf2a1633d301fc", "type": "electric_scooter", "is_reserved": 0, "lon": -77.01650483333333}, {"fusion_lat": 0.0, "name": "bd9d2e59c3abbfdecd41a27a30030105", "is_disabled": 0, "rental_uris": {"android": "https://dc.lft.to/lastmile_qr_scan", "ios": "https://dc.lft.to/lastmile_qr_scan"}, "fusion_lon": 0.0, "lat": 38.931979, "bike_id": "bd9d2e59c3abbfdecd41a27a30030105", "type": "electric_scooter", "is_reserved": 0, "lon": -77.04300566666667}, {"fusion_lat": 0.0, "name": "9542056f2df5d44e69e9a0bf5001ae49", "is_disabled": 0, "rental_uris": {"android": "https://dc.lft.to/lastmile_qr_scan", "ios": "https://dc.lft.to/lastmile_qr_scan"}, "fusion_lon": 0.0, "lat": 38.905583166666666, "bike_id": "9542056f2df5d44e69e9a0bf5001ae49", "type": "electric_scooter", "is_reserved": 0, "lon": -77.0626045}, {"fusion_lat": 0.0, "name": "c76299e23a7d56ce8677790441f13378", "is_disabled": 0, "rental_uris": {"android": "https://dc.lft.to/lastmile_qr_scan", "ios": "https://dc.lft.to/lastmile_qr_scan"}, "fusion_lon": 0.0, "lat": 38.905546, "bike_id": "c76299e23a7d56ce8677790441f13378", "type": "electric_scooter", "is_reserved": 0, "lon": -77.046707}, {"fusion_lat": 0.0, "name": "448cbde8b6e4c56756d5e8725c08317b", "is_disabled": 0, "rental_uris": {"android": "https://dc.lft.to/lastmile_qr_scan", "ios": "https://dc.lft.to/lastmile_qr_scan"}, "fusion_lon": 0.0, "lat": 38.84134916666667, "bike_id": "448cbde8b6e4c56756d5e8725c08317b", "type": "electric_bike", "is_reserved": 0, "lon": -76.94758783333333}, {"fusion_lat": 0.0, "name": "7988b3f7e172da42d20c14ca1b936364", "is_disabled": 0, "rental_uris": {"android": "https://dc.lft.to/lastmile_qr_scan", "ios": "https://dc.lft.to/lastmile_qr_scan"}, "fusion_lon": 0.0, "lat": 38.88450783333333, "bike_id": "7988b3f7e172da42d20c14ca1b936364", "type": "electric_scooter", "is_reserved": 0, "lon": -77.02502533333333}, {"fusion_lat": 0.0, "name": "848b6271e73a2136729bff5dc78624f4", "is_disabled": 0, "rental_uris": {"android": "https://dc.lft.to/lastmile_qr_scan", "ios": "https://dc.lft.to/lastmile_qr_scan"}, "fusion_lon": 0.0, "lat": 38.887228666666665, "bike_id": "848b6271e73a2136729bff5dc78624f4", "type": "electric_scooter", "is_reserved": 0, "lon": -76.98356533333333}, {"fusion_lat": 0.0, "name": "bd7203dd457319bfa88489ad75fa8b83", "is_disabled": 0, "rental_uris": {"android": "https://dc.lft.to/lastmile_qr_scan", "ios": "https://dc.lft.to/lastmile_qr_scan"}, "fusion_lon": 0.0, "lat": 38.92593166666666, "bike_id": "bd7203dd457319bfa88489ad75fa8b83", "type": "electric_scooter", "is_reserved": 0, "lon": -77.07339866666666}, {"fusion_lat": 0.0, "name": "4be9132fa97617d14b8e4588fd043c10", "is_disabled": 0, "rental_uris": {"android": "https://dc.lft.to/lastmile_qr_scan", "ios": "https://dc.lft.to/lastmile_qr_scan"}, "fusion_lon": 0.0, "lat": 38.90788933333333, "bike_id": "4be9132fa97617d14b8e4588fd043c10", "type": "electric_scooter", "is_reserved": 0, "lon": -77.03859333333334}, {"fusion_lat": 0.0, "name": "7795c60ade87b5689185a3f21cc9cb1d", "is_disabled": 0, "rental_uris": {"android": "https://dc.lft.to/lastmile_qr_scan", "ios": "https://dc.lft.to/lastmile_qr_scan"}, "fusion_lon": 0.0, "lat": 38.94975016666667, "bike_id": "7795c60ade87b5689185a3f21cc9cb1d", "type": "electric_scooter", "is_reserved": 0, "lon": -77.024492}, {"fusion_lat": 0.0, "name": "b91b9a3cc37300872ba3d4431e5d3283", "is_disabled": 0, "rental_uris": {"android": "https://dc.lft.to/lastmile_qr_scan", "ios": "https://dc.lft.to/lastmile_qr_scan"}, "fusion_lon": 0.0, "lat": 38.9111265, "bike_id": "b91b9a3cc37300872ba3d4431e5d3283", "type": "electric_scooter", "is_reserved": 0, "lon": -77.04327633333334}, {"fusion_lat": 0.0, "name": "70885d370cf8d3de73f92f51fc1372e0", "is_disabled": 0, "rental_uris": {"android": "https://dc.lft.to/lastmile_qr_scan", "ios": "https://dc.lft.to/lastmile_qr_scan"}, "fusion_lon": 0.0, "lat": 38.892247, "bike_id": "70885d370cf8d3de73f92f51fc1372e0", "type": "electric_scooter", "is_reserved": 0, "lon": -77.0503535}, {"fusion_lat": 0.0, "name": "7ddc15e852e0ae49116911db3cba68f8", "is_disabled": 0, "rental_uris": {"android": "https://dc.lft.to/lastmile_qr_scan", "ios": "https://dc.lft.to/lastmile_qr_scan"}, "fusion_lon": 0.0, "lat": 38.93098716666667, "bike_id": "7ddc15e852e0ae49116911db3cba68f8", "type": "electric_scooter", "is_reserved": 0, "lon": -77.02475466666667}, {"fusion_lat": 0.0, "name": "3abedcbb2940bd005fe0f509f197388b", "is_disabled": 0, "rental_uris": {"android": "https://dc.lft.to/lastmile_qr_scan", "ios": "https://dc.lft.to/lastmile_qr_scan"}, "fusion_lon": 0.0, "lat": 38.887127, "bike_id": "3abedcbb2940bd005fe0f509f197388b", "type": "electric_scooter", "is_reserved": 0, "lon": -76.99676833333334}, {"fusion_lat": 0.0, "name": "f7abc4fc45dd0aa719f225ee1d5e711c", "is_disabled": 0, "rental_uris": {"android": "https://dc.lft.to/lastmile_qr_scan", "ios": "https://dc.lft.to/lastmile_qr_scan"}, "fusion_lon": 0.0, "lat": 38.909505, "bike_id": "f7abc4fc45dd0aa719f225ee1d5e711c", "type": "electric_scooter", "is_reserved": 0, "lon": -77.02715466666666}, {"fusion_lat": 0.0, "name": "0a320d3e04814cfe7324b2482ce191e7", "is_disabled": 0, "rental_uris": {"android": "https://dc.lft.to/lastmile_qr_scan", "ios": "https://dc.lft.to/lastmile_qr_scan"}, "fusion_lon": 0.0, "lat": 38.928621666666665, "bike_id": "0a320d3e04814cfe7324b2482ce191e7", "type": "electric_scooter", "is_reserved": 0, "lon": -77.03253216666667}, {"fusion_lat": 0.0, "name": "007152caec7f8ebabd8339a7c0117141", "is_disabled": 0, "rental_uris": {"android": "https://dc.lft.to/lastmile_qr_scan", "ios": "https://dc.lft.to/lastmile_qr_scan"}, "fusion_lon": 0.0, "lat": 38.904636833333335, "bike_id": "007152caec7f8ebabd8339a7c0117141", "type": "electric_scooter", "is_reserved": 0, "lon": -77.01698033333334}, {"fusion_lat": 0.0, "name": "332d5c268d19e8ccc7fa31fce26f0a90", "is_disabled": 0, "rental_uris": {"android": "https://dc.lft.to/lastmile_qr_scan", "ios": "https://dc.lft.to/lastmile_qr_scan"}, "fusion_lon": 0.0, "lat": 38.8947695, "bike_id": "332d5c268d19e8ccc7fa31fce26f0a90", "type": "electric_scooter", "is_reserved": 0, "lon": -77.01037066666666}, {"fusion_lat": 0.0, "name": "f9bf83e9d35161ba32cf1e3c545bde48", "is_disabled": 0, "rental_uris": {"android": "https://dc.lft.to/lastmile_qr_scan", "ios": "https://dc.lft.to/lastmile_qr_scan"}, "fusion_lon": 0.0, "lat": 38.914521666666666, "bike_id": "f9bf83e9d35161ba32cf1e3c545bde48", "type": "electric_scooter", "is_reserved": 0, "lon": -77.012814}, {"fusion_lat": 0.0, "name": "e131c5bfbe141f0874da75204c170227", "is_disabled": 0, "rental_uris": {"android": "https://dc.lft.to/lastmile_qr_scan", "ios": "https://dc.lft.to/lastmile_qr_scan"}, "fusion_lon": 0.0, "lat": 38.935302666666665, "bike_id": "e131c5bfbe141f0874da75204c170227", "type": "electric_scooter", "is_reserved": 0, "lon": -77.030822}, {"fusion_lat": 0.0, "name": "77c37010a9ef2ac87f8750ccf2e05128", "is_disabled": 0, "rental_uris": {"android": "https://dc.lft.to/lastmile_qr_scan", "ios": "https://dc.lft.to/lastmile_qr_scan"}, "fusion_lon": 0.0, "lat": 38.935754333333335, "bike_id": "77c37010a9ef2ac87f8750ccf2e05128", "type": "electric_scooter", "is_reserved": 0, "lon": -77.01925183333333}, {"fusion_lat": 0.0, "name": "71212a8628907d6b8d56f438581d3de4", "is_disabled": 0, "rental_uris": {"android": "https://dc.lft.to/lastmile_qr_scan", "ios": "https://dc.lft.to/lastmile_qr_scan"}, "fusion_lon": 0.0, "lat": 38.916993166666664, "bike_id": "71212a8628907d6b8d56f438581d3de4", "type": "electric_scooter", "is_reserved": 0, "lon": -77.04040366666666}, {"fusion_lat": 0.0, "name": "07e80ad86ad7ab391141f99ba2a54e43", "is_disabled": 0, "rental_uris": {"android": "https://dc.lft.to/lastmile_qr_scan", "ios": "https://dc.lft.to/lastmile_qr_scan"}, "fusion_lon": 0.0, "lat": 38.92903316666667, "bike_id": "07e80ad86ad7ab391141f99ba2a54e43", "type": "electric_scooter", "is_reserved": 0, "lon": -77.0373995}, {"fusion_lat": 0.0, "name": "7f2a32443d8cd2b361b7fd320527915b", "is_disabled": 0, "rental_uris": {"android": "https://dc.lft.to/lastmile_qr_scan", "ios": "https://dc.lft.to/lastmile_qr_scan"}, "fusion_lon": 0.0, "lat": 38.893010333333336, "bike_id": "7f2a32443d8cd2b361b7fd320527915b", "type": "electric_scooter", "is_reserved": 0, "lon": -77.046578}, {"fusion_lat": 0.0, "name": "90f5ebdfc1f6917b9745ad7d665be346", "is_disabled": 0, "rental_uris": {"android": "https://dc.lft.to/lastmile_qr_scan", "ios": "https://dc.lft.to/lastmile_qr_scan"}, "fusion_lon": 0.0, "lat": 38.91920233333333, "bike_id": "90f5ebdfc1f6917b9745ad7d665be346", "type": "electric_scooter", "is_reserved": 0, "lon": -77.03260666666667}, {"fusion_lat": 0.0, "name": "6005ce80a098ba90d392fef93ed2f034", "is_disabled": 0, "rental_uris": {"android": "https://dc.lft.to/lastmile_qr_scan", "ios": "https://dc.lft.to/lastmile_qr_scan"}, "fusion_lon": 0.0, "lat": 38.93115783333333, "bike_id": "6005ce80a098ba90d392fef93ed2f034", "type": "electric_scooter", "is_reserved": 0, "lon": -77.03638616666667}, {"fusion_lat": 0.0, "name": "966b51a4da205be63036926782c1cdbc", "is_disabled": 0, "rental_uris": {"android": "https://dc.lft.to/lastmile_qr_scan", "ios": "https://dc.lft.to/lastmile_qr_scan"}, "fusion_lon": 0.0, "lat": 38.903809333333335, "bike_id": "966b51a4da205be63036926782c1cdbc", "type": "electric_scooter", "is_reserved": 0, "lon": -76.984839}, {"fusion_lat": 0.0, "name": "92edeb509838c2aeb672484acd497b88", "is_disabled": 0, "rental_uris": {"android": "https://dc.lft.to/lastmile_qr_scan", "ios": "https://dc.lft.to/lastmile_qr_scan"}, "fusion_lon": 0.0, "lat": 38.87458616666667, "bike_id": "92edeb509838c2aeb672484acd497b88", "type": "electric_scooter", "is_reserved": 0, "lon": -77.018726}, {"fusion_lat": 0.0, "name": "d2b470f313750ed1088e80b0ed9a0f2c", "is_disabled": 0, "rental_uris": {"android": "https://dc.lft.to/lastmile_qr_scan", "ios": "https://dc.lft.to/lastmile_qr_scan"}, "fusion_lon": 0.0, "lat": 38.92997883333334, "bike_id": "d2b470f313750ed1088e80b0ed9a0f2c", "type": "electric_scooter", "is_reserved": 0, "lon": -77.032303}, {"fusion_lat": 0.0, "name": "73b94046afe7b3402839f197efcc7d03", "is_disabled": 0, "rental_uris": {"android": "https://dc.lft.to/lastmile_qr_scan", "ios": "https://dc.lft.to/lastmile_qr_scan"}, "fusion_lon": 0.0, "lat": 38.924531333333334, "bike_id": "73b94046afe7b3402839f197efcc7d03", "type": "electric_scooter", "is_reserved": 0, "lon": -77.02400766666666}, {"fusion_lat": 0.0, "name": "dc787c525b86d2140d560ea1edf9b91d", "is_disabled": 0, "rental_uris": {"android": "https://dc.lft.to/lastmile_qr_scan", "ios": "https://dc.lft.to/lastmile_qr_scan"}, "fusion_lon": 0.0, "lat": 38.92061416666667, "bike_id": "dc787c525b86d2140d560ea1edf9b91d", "type": "electric_scooter", "is_reserved": 0, "lon": -77.02715633333334}, {"fusion_lat": 0.0, "name": "d683039a003d62d05c5df583acfabc1e", "is_disabled": 0, "rental_uris": {"android": "https://dc.lft.to/lastmile_qr_scan", "ios": "https://dc.lft.to/lastmile_qr_scan"}, "fusion_lon": 0.0, "lat": 38.90185366666667, "bike_id": "d683039a003d62d05c5df583acfabc1e", "type": "electric_scooter", "is_reserved": 0, "lon": -77.05917466666666}, {"fusion_lat": 0.0, "name": "d8677b1a089900a233ee990b9d4ed6f6", "is_disabled": 0, "rental_uris": {"android": "https://dc.lft.to/lastmile_qr_scan", "ios": "https://dc.lft.to/lastmile_qr_scan"}, "fusion_lon": 0.0, "lat": 38.89220733333333, "bike_id": "d8677b1a089900a233ee990b9d4ed6f6", "type": "electric_scooter", "is_reserved": 0, "lon": -77.02413883333334}, {"fusion_lat": 0.0, "name": "c26de1da23bd9b1b4e4fde1443855b85", "is_disabled": 0, "rental_uris": {"android": "https://dc.lft.to/lastmile_qr_scan", "ios": "https://dc.lft.to/lastmile_qr_scan"}, "fusion_lon": 0.0, "lat": 38.9258085, "bike_id": "c26de1da23bd9b1b4e4fde1443855b85", "type": "electric_scooter", "is_reserved": 0, "lon": -77.027289}, {"fusion_lat": 0.0, "name": "b93b94f2ebeecd733531807745922495", "is_disabled": 0, "rental_uris": {"android": "https://dc.lft.to/lastmile_qr_scan", "ios": "https://dc.lft.to/lastmile_qr_scan"}, "fusion_lon": 0.0, "lat": 38.9237195, "bike_id": "b93b94f2ebeecd733531807745922495", "type": "electric_scooter", "is_reserved": 0, "lon": -77.08149183333333}, {"fusion_lat": 0.0, "name": "6c6d0bbc6122825a0be4c670e3b1137c", "is_disabled": 0, "rental_uris": {"android": "https://dc.lft.to/lastmile_qr_scan", "ios": "https://dc.lft.to/lastmile_qr_scan"}, "fusion_lon": 0.0, "lat": 38.91125266666667, "bike_id": "6c6d0bbc6122825a0be4c670e3b1137c", "type": "electric_scooter", "is_reserved": 0, "lon": -77.02197483333333}, {"fusion_lat": 0.0, "name": "93ab60d3af44601da8bbf2c625438751", "is_disabled": 0, "rental_uris": {"android": "https://dc.lft.to/lastmile_qr_scan", "ios": "https://dc.lft.to/lastmile_qr_scan"}, "fusion_lon": 0.0, "lat": 38.969871833333336, "bike_id": "93ab60d3af44601da8bbf2c625438751", "type": "electric_scooter", "is_reserved": 0, "lon": -77.01158116666667}, {"fusion_lat": 0.0, "name": "2579e886922417a9a03b3fd2248e4b21", "is_disabled": 0, "rental_uris": {"android": "https://dc.lft.to/lastmile_qr_scan", "ios": "https://dc.lft.to/lastmile_qr_scan"}, "fusion_lon": 0.0, "lat": 38.9003155, "bike_id": "2579e886922417a9a03b3fd2248e4b21", "type": "electric_scooter", "is_reserved": 0, "lon": -76.99137783333333}, {"fusion_lat": 0.0, "name": "424c6cfcf986b1e4ba2e35d8f8d0bfdf", "is_disabled": 0, "rental_uris": {"android": "https://dc.lft.to/lastmile_qr_scan", "ios": "https://dc.lft.to/lastmile_qr_scan"}, "fusion_lon": 0.0, "lat": 38.9227465, "bike_id": "424c6cfcf986b1e4ba2e35d8f8d0bfdf", "type": "electric_scooter", "is_reserved": 0, "lon": -76.99427083333333}, {"fusion_lat": 0.0, "name": "9641221d556b880897ba6866809b4e82", "is_disabled": 0, "rental_uris": {"android": "https://dc.lft.to/lastmile_qr_scan", "ios": "https://dc.lft.to/lastmile_qr_scan"}, "fusion_lon": 0.0, "lat": 38.890147666666664, "bike_id": "9641221d556b880897ba6866809b4e82", "type": "electric_scooter", "is_reserved": 0, "lon": -76.937401}, {"fusion_lat": 0.0, "name": "2eaae17869465df9a578f2295fcb830d", "is_disabled": 0, "rental_uris": {"android": "https://dc.lft.to/lastmile_qr_scan", "ios": "https://dc.lft.to/lastmile_qr_scan"}, "fusion_lon": 0.0, "lat": 38.91553866666667, "bike_id": "2eaae17869465df9a578f2295fcb830d", "type": "electric_scooter", "is_reserved": 0, "lon": -77.03242766666666}, {"fusion_lat": 0.0, "name": "556faded7258f7470abaec02b8e36dd5", "is_disabled": 0, "rental_uris": {"android": "https://dc.lft.to/lastmile_qr_scan", "ios": "https://dc.lft.to/lastmile_qr_scan"}, "fusion_lon": 0.0, "lat": 38.8896225, "bike_id": "556faded7258f7470abaec02b8e36dd5", "type": "electric_scooter", "is_reserved": 0, "lon": -77.01503266666667}, {"fusion_lat": 0.0, "name": "b619933e845732f1871afe98570cb1dc", "is_disabled": 0, "rental_uris": {"android": "https://dc.lft.to/lastmile_qr_scan", "ios": "https://dc.lft.to/lastmile_qr_scan"}, "fusion_lon": 0.0, "lat": 38.907627833333336, "bike_id": "b619933e845732f1871afe98570cb1dc", "type": "electric_scooter", "is_reserved": 0, "lon": -77.00086383333333}, {"fusion_lat": 0.0, "name": "9bea4a777e8ef03183f7afb4a9f2782e", "is_disabled": 0, "rental_uris": {"android": "https://dc.lft.to/lastmile_qr_scan", "ios": "https://dc.lft.to/lastmile_qr_scan"}, "fusion_lon": 0.0, "lat": 38.8922095, "bike_id": "9bea4a777e8ef03183f7afb4a9f2782e", "type": "electric_scooter", "is_reserved": 0, "lon": -77.04371066666667}, {"fusion_lat": 0.0, "name": "60783275b3c94e5fcb624dafa723b895", "is_disabled": 0, "rental_uris": {"android": "https://dc.lft.to/lastmile_qr_scan", "ios": "https://dc.lft.to/lastmile_qr_scan"}, "fusion_lon": 0.0, "lat": 38.91343066666667, "bike_id": "60783275b3c94e5fcb624dafa723b895", "type": "electric_scooter", "is_reserved": 0, "lon": -77.00341616666667}, {"fusion_lat": 0.0, "name": "f37163b9c938bf9d01a0b7d41a2c116d", "is_disabled": 0, "rental_uris": {"android": "https://dc.lft.to/lastmile_qr_scan", "ios": "https://dc.lft.to/lastmile_qr_scan"}, "fusion_lon": 0.0, "lat": 38.88492, "bike_id": "f37163b9c938bf9d01a0b7d41a2c116d", "type": "electric_scooter", "is_reserved": 0, "lon": -77.02435183333333}, {"fusion_lat": 0.0, "name": "aacbc643e2c5dbe92f20407d103b9c89", "is_disabled": 0, "rental_uris": {"android": "https://dc.lft.to/lastmile_qr_scan", "ios": "https://dc.lft.to/lastmile_qr_scan"}, "fusion_lon": 0.0, "lat": 38.9111795, "bike_id": "aacbc643e2c5dbe92f20407d103b9c89", "type": "electric_scooter", "is_reserved": 0, "lon": -77.04219033333334}, {"fusion_lat": 0.0, "name": "61157a0dbbe1020535a774df10b54e64", "is_disabled": 0, "rental_uris": {"android": "https://dc.lft.to/lastmile_qr_scan", "ios": "https://dc.lft.to/lastmile_qr_scan"}, "fusion_lon": 0.0, "lat": 38.9370655, "bike_id": "61157a0dbbe1020535a774df10b54e64", "type": "electric_scooter", "is_reserved": 0, "lon": -77.05599633333334}, {"fusion_lat": 0.0, "name": "0fca6cad3c9fa1b7a79e36bbc9d1d5d5", "is_disabled": 0, "rental_uris": {"android": "https://dc.lft.to/lastmile_qr_scan", "ios": "https://dc.lft.to/lastmile_qr_scan"}, "fusion_lon": 0.0, "lat": 38.9249105, "bike_id": "0fca6cad3c9fa1b7a79e36bbc9d1d5d5", "type": "electric_scooter", "is_reserved": 0, "lon": -77.05756816666667}, {"fusion_lat": 0.0, "name": "ca2f09011325e24de27db741ab3b58f5", "is_disabled": 0, "rental_uris": {"android": "https://dc.lft.to/lastmile_qr_scan", "ios": "https://dc.lft.to/lastmile_qr_scan"}, "fusion_lon": 0.0, "lat": 38.89572416666667, "bike_id": "ca2f09011325e24de27db741ab3b58f5", "type": "electric_scooter", "is_reserved": 0, "lon": -77.02505983333333}, {"fusion_lat": 0.0, "name": "01e2118dc810a1216c04e81dea8d86b9", "is_disabled": 0, "rental_uris": {"android": "https://dc.lft.to/lastmile_qr_scan", "ios": "https://dc.lft.to/lastmile_qr_scan"}, "fusion_lon": 0.0, "lat": 38.926255833333336, "bike_id": "01e2118dc810a1216c04e81dea8d86b9", "type": "electric_scooter", "is_reserved": 0, "lon": -77.05474833333334}, {"fusion_lat": 0.0, "name": "7bcc3bf893e251d98d7b88b582c68b9d", "is_disabled": 0, "rental_uris": {"android": "https://dc.lft.to/lastmile_qr_scan", "ios": "https://dc.lft.to/lastmile_qr_scan"}, "fusion_lon": 0.0, "lat": 38.930587, "bike_id": "7bcc3bf893e251d98d7b88b582c68b9d", "type": "electric_scooter", "is_reserved": 0, "lon": -77.03184233333333}, {"fusion_lat": 0.0, "name": "b0801f1f5355c8b456b5a952cc4deda0", "is_disabled": 0, "rental_uris": {"android": "https://dc.lft.to/lastmile_qr_scan", "ios": "https://dc.lft.to/lastmile_qr_scan"}, "fusion_lon": 0.0, "lat": 38.904550666666665, "bike_id": "b0801f1f5355c8b456b5a952cc4deda0", "type": "electric_scooter", "is_reserved": 0, "lon": -77.00167516666667}, {"fusion_lat": 0.0, "name": "108fb51939aa215aa71d5c12878344c3", "is_disabled": 0, "rental_uris": {"android": "https://dc.lft.to/lastmile_qr_scan", "ios": "https://dc.lft.to/lastmile_qr_scan"}, "fusion_lon": 0.0, "lat": 38.911567166666664, "bike_id": "108fb51939aa215aa71d5c12878344c3", "type": "electric_scooter", "is_reserved": 0, "lon": -77.01998766666667}, {"fusion_lat": 0.0, "name": "0d10e8e6ce5606679a4e30660c69ba27", "is_disabled": 0, "rental_uris": {"android": "https://dc.lft.to/lastmile_qr_scan", "ios": "https://dc.lft.to/lastmile_qr_scan"}, "fusion_lon": 0.0, "lat": 38.89673416666667, "bike_id": "0d10e8e6ce5606679a4e30660c69ba27", "type": "electric_scooter", "is_reserved": 0, "lon": -77.00796266666667}, {"fusion_lat": 0.0, "name": "05631eb4f684826314af9f727843f6c8", "is_disabled": 0, "rental_uris": {"android": "https://dc.lft.to/lastmile_qr_scan", "ios": "https://dc.lft.to/lastmile_qr_scan"}, "fusion_lon": 0.0, "lat": 38.900157, "bike_id": "05631eb4f684826314af9f727843f6c8", "type": "electric_scooter", "is_reserved": 0, "lon": -77.00688416666667}, {"fusion_lat": 0.0, "name": "93ad8767df44fb343ce0d4bdd198fcf7", "is_disabled": 0, "rental_uris": {"android": "https://dc.lft.to/lastmile_qr_scan", "ios": "https://dc.lft.to/lastmile_qr_scan"}, "fusion_lon": 0.0, "lat": 38.90710283333333, "bike_id": "93ad8767df44fb343ce0d4bdd198fcf7", "type": "electric_scooter", "is_reserved": 0, "lon": -77.02978766666666}, {"fusion_lat": 0.0, "name": "4247aa23594a083ceb49fff4b98a0159", "is_disabled": 0, "rental_uris": {"android": "https://dc.lft.to/lastmile_qr_scan", "ios": "https://dc.lft.to/lastmile_qr_scan"}, "fusion_lon": 0.0, "lat": 38.885233166666666, "bike_id": "4247aa23594a083ceb49fff4b98a0159", "type": "electric_scooter", "is_reserved": 0, "lon": -77.01503333333334}, {"fusion_lat": 0.0, "name": "28af77b8fddad7cd729dfbd1b88dd079", "is_disabled": 0, "rental_uris": {"android": "https://dc.lft.to/lastmile_qr_scan", "ios": "https://dc.lft.to/lastmile_qr_scan"}, "fusion_lon": 0.0, "lat": 38.904210166666665, "bike_id": "28af77b8fddad7cd729dfbd1b88dd079", "type": "electric_scooter", "is_reserved": 0, "lon": -76.94974083333334}, {"fusion_lat": 0.0, "name": "8e3c5a668011a384181b7a4743a028f7", "is_disabled": 0, "rental_uris": {"android": "https://dc.lft.to/lastmile_qr_scan", "ios": "https://dc.lft.to/lastmile_qr_scan"}, "fusion_lon": 0.0, "lat": 38.940783833333334, "bike_id": "8e3c5a668011a384181b7a4743a028f7", "type": "electric_scooter", "is_reserved": 0, "lon": -77.02394633333333}, {"fusion_lat": 0.0, "name": "41ebe2853a4c21269d7c1e9009bf45a5", "is_disabled": 0, "rental_uris": {"android": "https://dc.lft.to/lastmile_qr_scan", "ios": "https://dc.lft.to/lastmile_qr_scan"}, "fusion_lon": 0.0, "lat": 38.909581, "bike_id": "41ebe2853a4c21269d7c1e9009bf45a5", "type": "electric_scooter", "is_reserved": 0, "lon": -77.01038533333333}, {"fusion_lat": 0.0, "name": "5355c83fb5ef3da97fcf5ec213dfe911", "is_disabled": 0, "rental_uris": {"android": "https://dc.lft.to/lastmile_qr_scan", "ios": "https://dc.lft.to/lastmile_qr_scan"}, "fusion_lon": 0.0, "lat": 38.932516166666666, "bike_id": "5355c83fb5ef3da97fcf5ec213dfe911", "type": "electric_scooter", "is_reserved": 0, "lon": -77.04009283333333}, {"fusion_lat": 0.0, "name": "6071f4e16728910fe38b9a825a6fd478", "is_disabled": 0, "rental_uris": {"android": "https://dc.lft.to/lastmile_qr_scan", "ios": "https://dc.lft.to/lastmile_qr_scan"}, "fusion_lon": 0.0, "lat": 38.92825166666667, "bike_id": "6071f4e16728910fe38b9a825a6fd478", "type": "electric_scooter", "is_reserved": 0, "lon": -77.022562}, {"fusion_lat": 0.0, "name": "743a0f888e143305961301a1933aeb54", "is_disabled": 0, "rental_uris": {"android": "https://dc.lft.to/lastmile_qr_scan", "ios": "https://dc.lft.to/lastmile_qr_scan"}, "fusion_lon": 0.0, "lat": 38.9256205, "bike_id": "743a0f888e143305961301a1933aeb54", "type": "electric_scooter", "is_reserved": 0, "lon": -77.077606}, {"fusion_lat": 0.0, "name": "7c30931ace778bb3c766346efcab232b", "is_disabled": 0, "rental_uris": {"android": "https://dc.lft.to/lastmile_qr_scan", "ios": "https://dc.lft.to/lastmile_qr_scan"}, "fusion_lon": 0.0, "lat": 38.937663, "bike_id": "7c30931ace778bb3c766346efcab232b", "type": "electric_scooter", "is_reserved": 0, "lon": -77.03262733333334}, {"fusion_lat": 0.0, "name": "14a5c0dca6a92686e19e3dface014f09", "is_disabled": 0, "rental_uris": {"android": "https://dc.lft.to/lastmile_qr_scan", "ios": "https://dc.lft.to/lastmile_qr_scan"}, "fusion_lon": 0.0, "lat": 38.89284, "bike_id": "14a5c0dca6a92686e19e3dface014f09", "type": "electric_scooter", "is_reserved": 0, "lon": -76.98307883333334}, {"fusion_lat": 0.0, "name": "1cb8ec511369c5795a29d7746576b2e6", "is_disabled": 0, "rental_uris": {"android": "https://dc.lft.to/lastmile_qr_scan", "ios": "https://dc.lft.to/lastmile_qr_scan"}, "fusion_lon": 0.0, "lat": 38.9180585, "bike_id": "1cb8ec511369c5795a29d7746576b2e6", "type": "electric_scooter", "is_reserved": 0, "lon": -77.01131366666667}, {"fusion_lat": 0.0, "name": "abe818401251ceb733c666796cc1ca00", "is_disabled": 0, "rental_uris": {"android": "https://dc.lft.to/lastmile_qr_scan", "ios": "https://dc.lft.to/lastmile_qr_scan"}, "fusion_lon": 0.0, "lat": 38.90037683333333, "bike_id": "abe818401251ceb733c666796cc1ca00", "type": "electric_scooter", "is_reserved": 0, "lon": -77.01224166666667}, {"fusion_lat": 0.0, "name": "3cedcef5b95e671aa7d0db2e0b3a96eb", "is_disabled": 0, "rental_uris": {"android": "https://dc.lft.to/lastmile_qr_scan", "ios": "https://dc.lft.to/lastmile_qr_scan"}, "fusion_lon": 0.0, "lat": 38.913055166666666, "bike_id": "3cedcef5b95e671aa7d0db2e0b3a96eb", "type": "electric_scooter", "is_reserved": 0, "lon": -77.0487905}, {"fusion_lat": 0.0, "name": "c169a92caacbd40d0f0a94b77bc3af36", "is_disabled": 0, "rental_uris": {"android": "https://dc.lft.to/lastmile_qr_scan", "ios": "https://dc.lft.to/lastmile_qr_scan"}, "fusion_lon": 0.0, "lat": 38.9076235, "bike_id": "c169a92caacbd40d0f0a94b77bc3af36", "type": "electric_scooter", "is_reserved": 0, "lon": -77.03207383333333}, {"fusion_lat": 0.0, "name": "1a26eff9830eb7f047b18476a3116e44", "is_disabled": 0, "rental_uris": {"android": "https://dc.lft.to/lastmile_qr_scan", "ios": "https://dc.lft.to/lastmile_qr_scan"}, "fusion_lon": 0.0, "lat": 38.92785416666667, "bike_id": "1a26eff9830eb7f047b18476a3116e44", "type": "electric_scooter", "is_reserved": 0, "lon": -77.03195133333334}, {"fusion_lat": 0.0, "name": "a197f38bc473652c087706738cfe4cbb", "is_disabled": 0, "rental_uris": {"android": "https://dc.lft.to/lastmile_qr_scan", "ios": "https://dc.lft.to/lastmile_qr_scan"}, "fusion_lon": 0.0, "lat": 38.948756833333334, "bike_id": "a197f38bc473652c087706738cfe4cbb", "type": "electric_scooter", "is_reserved": 0, "lon": -77.02696416666667}, {"fusion_lat": 0.0, "name": "08021ef45fb868ae5f7eb5d0effa4fa2", "is_disabled": 0, "rental_uris": {"android": "https://dc.lft.to/lastmile_qr_scan", "ios": "https://dc.lft.to/lastmile_qr_scan"}, "fusion_lon": 0.0, "lat": 38.9489245, "bike_id": "08021ef45fb868ae5f7eb5d0effa4fa2", "type": "electric_bike", "is_reserved": 0, "lon": -76.96377066666666}, {"fusion_lat": 0.0, "name": "82eafa210119afcd49b134d841ede4a4", "is_disabled": 0, "rental_uris": {"android": "https://dc.lft.to/lastmile_qr_scan", "ios": "https://dc.lft.to/lastmile_qr_scan"}, "fusion_lon": 0.0, "lat": 38.936343666666666, "bike_id": "82eafa210119afcd49b134d841ede4a4", "type": "electric_scooter", "is_reserved": 0, "lon": -77.03662366666667}, {"fusion_lat": 0.0, "name": "c565fd97fb2649ce8854b46fb6b043af", "is_disabled": 0, "rental_uris": {"android": "https://dc.lft.to/lastmile_qr_scan", "ios": "https://dc.lft.to/lastmile_qr_scan"}, "fusion_lon": 0.0, "lat": 38.919608833333335, "bike_id": "c565fd97fb2649ce8854b46fb6b043af", "type": "electric_scooter", "is_reserved": 0, "lon": -77.07094266666667}, {"fusion_lat": 0.0, "name": "1b18fcabe02f8a3bd089bb3764059150", "is_disabled": 0, "rental_uris": {"android": "https://dc.lft.to/lastmile_qr_scan", "ios": "https://dc.lft.to/lastmile_qr_scan"}, "fusion_lon": 0.0, "lat": 38.9265795, "bike_id": "1b18fcabe02f8a3bd089bb3764059150", "type": "electric_scooter", "is_reserved": 0, "lon": -77.02423333333333}, {"fusion_lat": 0.0, "name": "577de5f1aaca0bdf66b3f2a24c4467be", "is_disabled": 0, "rental_uris": {"android": "https://dc.lft.to/lastmile_qr_scan", "ios": "https://dc.lft.to/lastmile_qr_scan"}, "fusion_lon": 0.0, "lat": 38.917045333333334, "bike_id": "577de5f1aaca0bdf66b3f2a24c4467be", "type": "electric_scooter", "is_reserved": 0, "lon": -77.03472133333334}, {"fusion_lat": 0.0, "name": "2881e2ca27d607fcaefbc996b8e053af", "is_disabled": 0, "rental_uris": {"android": "https://dc.lft.to/lastmile_qr_scan", "ios": "https://dc.lft.to/lastmile_qr_scan"}, "fusion_lon": 0.0, "lat": 38.927476166666665, "bike_id": "2881e2ca27d607fcaefbc996b8e053af", "type": "electric_scooter", "is_reserved": 0, "lon": -77.025389}, {"fusion_lat": 0.0, "name": "cee9536fbd90d107140850667771c809", "is_disabled": 0, "rental_uris": {"android": "https://dc.lft.to/lastmile_qr_scan", "ios": "https://dc.lft.to/lastmile_qr_scan"}, "fusion_lon": 0.0, "lat": 38.89225183333333, "bike_id": "cee9536fbd90d107140850667771c809", "type": "electric_scooter", "is_reserved": 0, "lon": -77.03141333333333}, {"fusion_lat": 0.0, "name": "5df697c7863751695a91bdda53c6fc4f", "is_disabled": 0, "rental_uris": {"android": "https://dc.lft.to/lastmile_qr_scan", "ios": "https://dc.lft.to/lastmile_qr_scan"}, "fusion_lon": 0.0, "lat": 38.90068566666667, "bike_id": "5df697c7863751695a91bdda53c6fc4f", "type": "electric_scooter", "is_reserved": 0, "lon": -77.02603366666666}, {"fusion_lat": 0.0, "name": "2db843d32e4e6b836eb1fe64891fa1f2", "is_disabled": 0, "rental_uris": {"android": "https://dc.lft.to/lastmile_qr_scan", "ios": "https://dc.lft.to/lastmile_qr_scan"}, "fusion_lon": 0.0, "lat": 38.887653, "bike_id": "2db843d32e4e6b836eb1fe64891fa1f2", "type": "electric_scooter", "is_reserved": 0, "lon": -76.977486}, {"fusion_lat": 0.0, "name": "e61d6f0f73eaf54b132ca0db0838aa02", "is_disabled": 0, "rental_uris": {"android": "https://dc.lft.to/lastmile_qr_scan", "ios": "https://dc.lft.to/lastmile_qr_scan"}, "fusion_lon": 0.0, "lat": 38.892459833333334, "bike_id": "e61d6f0f73eaf54b132ca0db0838aa02", "type": "electric_scooter", "is_reserved": 0, "lon": -77.03346533333334}, {"fusion_lat": 0.0, "name": "a300fbe6a96967b4408ffd637922b000", "is_disabled": 0, "rental_uris": {"android": "https://dc.lft.to/lastmile_qr_scan", "ios": "https://dc.lft.to/lastmile_qr_scan"}, "fusion_lon": 0.0, "lat": 38.93632216666666, "bike_id": "a300fbe6a96967b4408ffd637922b000", "type": "electric_scooter", "is_reserved": 0, "lon": -77.03661583333333}, {"fusion_lat": 0.0, "name": "cefc7537bc099d244d6e62609b9b5770", "is_disabled": 0, "rental_uris": {"android": "https://dc.lft.to/lastmile_qr_scan", "ios": "https://dc.lft.to/lastmile_qr_scan"}, "fusion_lon": 0.0, "lat": 38.854615833333334, "bike_id": "cefc7537bc099d244d6e62609b9b5770", "type": "electric_scooter", "is_reserved": 0, "lon": -76.97227383333333}, {"fusion_lat": 0.0, "name": "bae9ddbdcd82074d7b858b93e39e3944", "is_disabled": 0, "rental_uris": {"android": "https://dc.lft.to/lastmile_qr_scan", "ios": "https://dc.lft.to/lastmile_qr_scan"}, "fusion_lon": 0.0, "lat": 38.8790545, "bike_id": "bae9ddbdcd82074d7b858b93e39e3944", "type": "electric_scooter", "is_reserved": 0, "lon": -77.00800833333334}, {"fusion_lat": 0.0, "name": "c82bc741372202a6ef77dcde792e022a", "is_disabled": 0, "rental_uris": {"android": "https://dc.lft.to/lastmile_qr_scan", "ios": "https://dc.lft.to/lastmile_qr_scan"}, "fusion_lon": 0.0, "lat": 38.92726033333334, "bike_id": "c82bc741372202a6ef77dcde792e022a", "type": "electric_scooter", "is_reserved": 0, "lon": -77.023064}, {"fusion_lat": 0.0, "name": "59a983ee1e8d73764188262e2b575e7a", "is_disabled": 0, "rental_uris": {"android": "https://dc.lft.to/lastmile_qr_scan", "ios": "https://dc.lft.to/lastmile_qr_scan"}, "fusion_lon": 0.0, "lat": 38.89232, "bike_id": "59a983ee1e8d73764188262e2b575e7a", "type": "electric_scooter", "is_reserved": 0, "lon": -77.01713516666666}, {"fusion_lat": 0.0, "name": "9efc445a457734b4eb31940b783aaf57", "is_disabled": 0, "rental_uris": {"android": "https://dc.lft.to/lastmile_qr_scan", "ios": "https://dc.lft.to/lastmile_qr_scan"}, "fusion_lon": 0.0, "lat": 38.92160616666666, "bike_id": "9efc445a457734b4eb31940b783aaf57", "type": "electric_scooter", "is_reserved": 0, "lon": -77.0338095}, {"fusion_lat": 0.0, "name": "e5afc56d412e33374c10251ace227909", "is_disabled": 0, "rental_uris": {"android": "https://dc.lft.to/lastmile_qr_scan", "ios": "https://dc.lft.to/lastmile_qr_scan"}, "fusion_lon": 0.0, "lat": 38.90976533333333, "bike_id": "e5afc56d412e33374c10251ace227909", "type": "electric_scooter", "is_reserved": 0, "lon": -77.00877566666666}, {"fusion_lat": 0.0, "name": "8bd778a988f925f441c364bdcc9f9773", "is_disabled": 0, "rental_uris": {"android": "https://dc.lft.to/lastmile_qr_scan", "ios": "https://dc.lft.to/lastmile_qr_scan"}, "fusion_lon": 0.0, "lat": 38.92851816666666, "bike_id": "8bd778a988f925f441c364bdcc9f9773", "type": "electric_scooter", "is_reserved": 0, "lon": -77.02438783333334}, {"fusion_lat": 0.0, "name": "9dc86509025886ac7dc94b40756a7fe5", "is_disabled": 0, "rental_uris": {"android": "https://dc.lft.to/lastmile_qr_scan", "ios": "https://dc.lft.to/lastmile_qr_scan"}, "fusion_lon": 0.0, "lat": 38.91103916666667, "bike_id": "9dc86509025886ac7dc94b40756a7fe5", "type": "electric_scooter", "is_reserved": 0, "lon": -77.04176233333334}, {"fusion_lat": 0.0, "name": "b3e6b1c4f77cc644748eea967f4e7eb2", "is_disabled": 0, "rental_uris": {"android": "https://dc.lft.to/lastmile_qr_scan", "ios": "https://dc.lft.to/lastmile_qr_scan"}, "fusion_lon": 0.0, "lat": 38.90508466666667, "bike_id": "b3e6b1c4f77cc644748eea967f4e7eb2", "type": "electric_scooter", "is_reserved": 0, "lon": -77.02968516666667}, {"fusion_lat": 0.0, "name": "4acc8cca8e0087e26e95203648dc7b91", "is_disabled": 0, "rental_uris": {"android": "https://dc.lft.to/lastmile_qr_scan", "ios": "https://dc.lft.to/lastmile_qr_scan"}, "fusion_lon": 0.0, "lat": 38.836072333333334, "bike_id": "4acc8cca8e0087e26e95203648dc7b91", "type": "electric_bike", "is_reserved": 0, "lon": -77.00383366666667}, {"fusion_lat": 0.0, "name": "3cf7176de2d54ce9baa4e191d66d3850", "is_disabled": 0, "rental_uris": {"android": "https://dc.lft.to/lastmile_qr_scan", "ios": "https://dc.lft.to/lastmile_qr_scan"}, "fusion_lon": 0.0, "lat": 38.90288183333333, "bike_id": "3cf7176de2d54ce9baa4e191d66d3850", "type": "electric_scooter", "is_reserved": 0, "lon": -77.01676216666667}, {"fusion_lat": 0.0, "name": "e5c0a90bb41c65b39e074909aecbffb6", "is_disabled": 0, "rental_uris": {"android": "https://dc.lft.to/lastmile_qr_scan", "ios": "https://dc.lft.to/lastmile_qr_scan"}, "fusion_lon": 0.0, "lat": 38.907986666666666, "bike_id": "e5c0a90bb41c65b39e074909aecbffb6", "type": "electric_scooter", "is_reserved": 0, "lon": -77.0434435}, {"fusion_lat": 0.0, "name": "19eeccc1d45aaea5e49ec5098fe03b28", "is_disabled": 0, "rental_uris": {"android": "https://dc.lft.to/lastmile_qr_scan", "ios": "https://dc.lft.to/lastmile_qr_scan"}, "fusion_lon": 0.0, "lat": 38.91128633333334, "bike_id": "19eeccc1d45aaea5e49ec5098fe03b28", "type": "electric_scooter", "is_reserved": 0, "lon": -77.04416533333334}, {"fusion_lat": 0.0, "name": "46409d7aca200e41ad565bd698affb52", "is_disabled": 0, "rental_uris": {"android": "https://dc.lft.to/lastmile_qr_scan", "ios": "https://dc.lft.to/lastmile_qr_scan"}, "fusion_lon": 0.0, "lat": 38.920868666666664, "bike_id": "46409d7aca200e41ad565bd698affb52", "type": "electric_scooter", "is_reserved": 0, "lon": -77.02428916666666}, {"fusion_lat": 0.0, "name": "17ef2b85420cae8f9060a2842d958f68", "is_disabled": 0, "rental_uris": {"android": "https://dc.lft.to/lastmile_qr_scan", "ios": "https://dc.lft.to/lastmile_qr_scan"}, "fusion_lon": 0.0, "lat": 38.92508633333333, "bike_id": "17ef2b85420cae8f9060a2842d958f68", "type": "electric_scooter", "is_reserved": 0, "lon": -77.02383583333334}, {"fusion_lat": 0.0, "name": "814121db46b57c5ec5cb3d4fb96a3156", "is_disabled": 0, "rental_uris": {"android": "https://dc.lft.to/lastmile_qr_scan", "ios": "https://dc.lft.to/lastmile_qr_scan"}, "fusion_lon": 0.0, "lat": 38.88794466666667, "bike_id": "814121db46b57c5ec5cb3d4fb96a3156", "type": "electric_bike", "is_reserved": 0, "lon": -76.929956}, {"fusion_lat": 0.0, "name": "a697feacc3b351627c83edc96a869535", "is_disabled": 0, "rental_uris": {"android": "https://dc.lft.to/lastmile_qr_scan", "ios": "https://dc.lft.to/lastmile_qr_scan"}, "fusion_lon": 0.0, "lat": 38.85697183333333, "bike_id": "a697feacc3b351627c83edc96a869535", "type": "electric_scooter", "is_reserved": 0, "lon": -76.99598333333333}, {"fusion_lat": 0.0, "name": "2e9534e946053a7c1737fa47d202879d", "is_disabled": 0, "rental_uris": {"android": "https://dc.lft.to/lastmile_qr_scan", "ios": "https://dc.lft.to/lastmile_qr_scan"}, "fusion_lon": 0.0, "lat": 38.895498, "bike_id": "2e9534e946053a7c1737fa47d202879d", "type": "electric_scooter", "is_reserved": 0, "lon": -77.01096516666667}, {"fusion_lat": 0.0, "name": "f1eadfc36384636401f8f36d91dc0d26", "is_disabled": 0, "rental_uris": {"android": "https://dc.lft.to/lastmile_qr_scan", "ios": "https://dc.lft.to/lastmile_qr_scan"}, "fusion_lon": 0.0, "lat": 38.91040516666666, "bike_id": "f1eadfc36384636401f8f36d91dc0d26", "type": "electric_scooter", "is_reserved": 0, "lon": -77.03828083333333}, {"fusion_lat": 0.0, "name": "802c47cf6445f1b95962ada0f384d236", "is_disabled": 0, "rental_uris": {"android": "https://dc.lft.to/lastmile_qr_scan", "ios": "https://dc.lft.to/lastmile_qr_scan"}, "fusion_lon": 0.0, "lat": 38.9148375, "bike_id": "802c47cf6445f1b95962ada0f384d236", "type": "electric_scooter", "is_reserved": 0, "lon": -77.0428225}, {"fusion_lat": 0.0, "name": "c26ca82c07c2307b473732f1f45d9fd0", "is_disabled": 0, "rental_uris": {"android": "https://dc.lft.to/lastmile_qr_scan", "ios": "https://dc.lft.to/lastmile_qr_scan"}, "fusion_lon": 0.0, "lat": 38.900984666666666, "bike_id": "c26ca82c07c2307b473732f1f45d9fd0", "type": "electric_bike", "is_reserved": 0, "lon": -77.03929766666667}, {"fusion_lat": 0.0, "name": "4a4ebcd5610720537a63edb8f4f7c63b", "is_disabled": 0, "rental_uris": {"android": "https://dc.lft.to/lastmile_qr_scan", "ios": "https://dc.lft.to/lastmile_qr_scan"}, "fusion_lon": 0.0, "lat": 38.926451166666666, "bike_id": "4a4ebcd5610720537a63edb8f4f7c63b", "type": "electric_scooter", "is_reserved": 0, "lon": -77.03857266666667}, {"fusion_lat": 0.0, "name": "eea073111be0009e9a11a9dbf43c9ba3", "is_disabled": 0, "rental_uris": {"android": "https://dc.lft.to/lastmile_qr_scan", "ios": "https://dc.lft.to/lastmile_qr_scan"}, "fusion_lon": 0.0, "lat": 38.92073583333333, "bike_id": "eea073111be0009e9a11a9dbf43c9ba3", "type": "electric_scooter", "is_reserved": 0, "lon": -77.02304633333334}, {"fusion_lat": 0.0, "name": "c68ce76c88c64b07e3cdc47aae4d9524", "is_disabled": 0, "rental_uris": {"android": "https://dc.lft.to/lastmile_qr_scan", "ios": "https://dc.lft.to/lastmile_qr_scan"}, "fusion_lon": 0.0, "lat": 38.89997966666667, "bike_id": "c68ce76c88c64b07e3cdc47aae4d9524", "type": "electric_scooter", "is_reserved": 0, "lon": -77.054988}, {"fusion_lat": 0.0, "name": "91d4cd2b0db3148220b50c2037207a8c", "is_disabled": 0, "rental_uris": {"android": "https://dc.lft.to/lastmile_qr_scan", "ios": "https://dc.lft.to/lastmile_qr_scan"}, "fusion_lon": 0.0, "lat": 38.89194533333333, "bike_id": "91d4cd2b0db3148220b50c2037207a8c", "type": "electric_scooter", "is_reserved": 0, "lon": -77.02228783333334}, {"fusion_lat": 0.0, "name": "cdf8c46b56d3ad8f4ce4ff22e78a3215", "is_disabled": 0, "rental_uris": {"android": "https://dc.lft.to/lastmile_qr_scan", "ios": "https://dc.lft.to/lastmile_qr_scan"}, "fusion_lon": 0.0, "lat": 38.9104945, "bike_id": "cdf8c46b56d3ad8f4ce4ff22e78a3215", "type": "electric_scooter", "is_reserved": 0, "lon": -77.03342883333333}, {"fusion_lat": 0.0, "name": "0cef9dcaf4ccbd561d1553d4b81637fe", "is_disabled": 0, "rental_uris": {"android": "https://dc.lft.to/lastmile_qr_scan", "ios": "https://dc.lft.to/lastmile_qr_scan"}, "fusion_lon": 0.0, "lat": 39.03607683333333, "bike_id": "0cef9dcaf4ccbd561d1553d4b81637fe", "type": "electric_bike", "is_reserved": 0, "lon": -77.05549583333334}, {"fusion_lat": 0.0, "name": "9dfd0d290322205dcb7eb6cea215fe4f", "is_disabled": 0, "rental_uris": {"android": "https://dc.lft.to/lastmile_qr_scan", "ios": "https://dc.lft.to/lastmile_qr_scan"}, "fusion_lon": 0.0, "lat": 38.9165155, "bike_id": "9dfd0d290322205dcb7eb6cea215fe4f", "type": "electric_scooter", "is_reserved": 0, "lon": -77.04810083333334}, {"fusion_lat": 0.0, "name": "70f4ef0996dd2c456cb8d7dac570eec6", "is_disabled": 0, "rental_uris": {"android": "https://dc.lft.to/lastmile_qr_scan", "ios": "https://dc.lft.to/lastmile_qr_scan"}, "fusion_lon": 0.0, "lat": 38.9257735, "bike_id": "70f4ef0996dd2c456cb8d7dac570eec6", "type": "electric_scooter", "is_reserved": 0, "lon": -77.0275755}, {"fusion_lat": 0.0, "name": "b220bd5cc20637d5bb9a0749fd1a1e79", "is_disabled": 0, "rental_uris": {"android": "https://dc.lft.to/lastmile_qr_scan", "ios": "https://dc.lft.to/lastmile_qr_scan"}, "fusion_lon": 0.0, "lat": 38.9225295, "bike_id": "b220bd5cc20637d5bb9a0749fd1a1e79", "type": "electric_scooter", "is_reserved": 0, "lon": -77.03521683333334}, {"fusion_lat": 0.0, "name": "1fbcd27f9b08999b4aae035505e0dba6", "is_disabled": 0, "rental_uris": {"android": "https://dc.lft.to/lastmile_qr_scan", "ios": "https://dc.lft.to/lastmile_qr_scan"}, "fusion_lon": 0.0, "lat": 38.87811, "bike_id": "1fbcd27f9b08999b4aae035505e0dba6", "type": "electric_scooter", "is_reserved": 0, "lon": -77.01318066666667}, {"fusion_lat": 0.0, "name": "68fa790ea6e453a8fbf82ec03922dd1b", "is_disabled": 0, "rental_uris": {"android": "https://dc.lft.to/lastmile_qr_scan", "ios": "https://dc.lft.to/lastmile_qr_scan"}, "fusion_lon": 0.0, "lat": 38.884433, "bike_id": "68fa790ea6e453a8fbf82ec03922dd1b", "type": "electric_scooter", "is_reserved": 0, "lon": -76.98588066666667}, {"fusion_lat": 0.0, "name": "3d85dc1c9f8626dc5e8916c0c54d5471", "is_disabled": 0, "rental_uris": {"android": "https://dc.lft.to/lastmile_qr_scan", "ios": "https://dc.lft.to/lastmile_qr_scan"}, "fusion_lon": 0.0, "lat": 38.96228933333333, "bike_id": "3d85dc1c9f8626dc5e8916c0c54d5471", "type": "electric_bike", "is_reserved": 0, "lon": -77.02627433333333}, {"fusion_lat": 0.0, "name": "ae0e3dc1a19aa31759f4ee5fbff3c77e", "is_disabled": 0, "rental_uris": {"android": "https://dc.lft.to/lastmile_qr_scan", "ios": "https://dc.lft.to/lastmile_qr_scan"}, "fusion_lon": 0.0, "lat": 38.89875216666667, "bike_id": "ae0e3dc1a19aa31759f4ee5fbff3c77e", "type": "electric_scooter", "is_reserved": 0, "lon": -76.931842}, {"fusion_lat": 0.0, "name": "87994047e16bf0b3450845a42660a285", "is_disabled": 0, "rental_uris": {"android": "https://dc.lft.to/lastmile_qr_scan", "ios": "https://dc.lft.to/lastmile_qr_scan"}, "fusion_lon": 0.0, "lat": 38.93367933333333, "bike_id": "87994047e16bf0b3450845a42660a285", "type": "electric_scooter", "is_reserved": 0, "lon": -77.0243845}, {"fusion_lat": 0.0, "name": "22051f5831fb6458bcf673e03c321f1c", "is_disabled": 0, "rental_uris": {"android": "https://dc.lft.to/lastmile_qr_scan", "ios": "https://dc.lft.to/lastmile_qr_scan"}, "fusion_lon": 0.0, "lat": 38.8823135, "bike_id": "22051f5831fb6458bcf673e03c321f1c", "type": "electric_scooter", "is_reserved": 0, "lon": -77.02615566666667}, {"fusion_lat": 0.0, "name": "446e027d041857e4ee6fcc78f07e68b7", "is_disabled": 0, "rental_uris": {"android": "https://dc.lft.to/lastmile_qr_scan", "ios": "https://dc.lft.to/lastmile_qr_scan"}, "fusion_lon": 0.0, "lat": 38.9329645, "bike_id": "446e027d041857e4ee6fcc78f07e68b7", "type": "electric_scooter", "is_reserved": 0, "lon": -77.02794516666667}, {"fusion_lat": 0.0, "name": "6883b1ca4eb66c58c070111621a8b839", "is_disabled": 0, "rental_uris": {"android": "https://dc.lft.to/lastmile_qr_scan", "ios": "https://dc.lft.to/lastmile_qr_scan"}, "fusion_lon": 0.0, "lat": 38.91707783333333, "bike_id": "6883b1ca4eb66c58c070111621a8b839", "type": "electric_scooter", "is_reserved": 0, "lon": -77.0386195}, {"fusion_lat": 0.0, "name": "cbfa32b5aeefef0edaa85ab5c8574207", "is_disabled": 0, "rental_uris": {"android": "https://dc.lft.to/lastmile_qr_scan", "ios": "https://dc.lft.to/lastmile_qr_scan"}, "fusion_lon": 0.0, "lat": 38.92916783333333, "bike_id": "cbfa32b5aeefef0edaa85ab5c8574207", "type": "electric_scooter", "is_reserved": 0, "lon": -77.03752833333333}, {"fusion_lat": 0.0, "name": "70698664566b5780cd700dd04b518229", "is_disabled": 0, "rental_uris": {"android": "https://dc.lft.to/lastmile_qr_scan", "ios": "https://dc.lft.to/lastmile_qr_scan"}, "fusion_lon": 0.0, "lat": 38.897248166666664, "bike_id": "70698664566b5780cd700dd04b518229", "type": "electric_scooter", "is_reserved": 0, "lon": -76.99512983333334}, {"fusion_lat": 0.0, "name": "ed4723a9f438c05324291cae21643c16", "is_disabled": 0, "rental_uris": {"android": "https://dc.lft.to/lastmile_qr_scan", "ios": "https://dc.lft.to/lastmile_qr_scan"}, "fusion_lon": 0.0, "lat": 38.92037033333333, "bike_id": "ed4723a9f438c05324291cae21643c16", "type": "electric_scooter", "is_reserved": 0, "lon": -77.01763666666666}, {"fusion_lat": 0.0, "name": "06ec08a4cfc728e10047e4c75ab56a1c", "is_disabled": 0, "rental_uris": {"android": "https://dc.lft.to/lastmile_qr_scan", "ios": "https://dc.lft.to/lastmile_qr_scan"}, "fusion_lon": 0.0, "lat": 38.926127, "bike_id": "06ec08a4cfc728e10047e4c75ab56a1c", "type": "electric_scooter", "is_reserved": 0, "lon": -77.02162716666666}, {"fusion_lat": 0.0, "name": "2c3104cacab2b7a8a978e748fb398aa8", "is_disabled": 0, "rental_uris": {"android": "https://dc.lft.to/lastmile_qr_scan", "ios": "https://dc.lft.to/lastmile_qr_scan"}, "fusion_lon": 0.0, "lat": 38.901732, "bike_id": "2c3104cacab2b7a8a978e748fb398aa8", "type": "electric_scooter", "is_reserved": 0, "lon": -76.98068933333333}, {"fusion_lat": 0.0, "name": "8b091d2f3aa4e0f8aff2dcf354658ba8", "is_disabled": 0, "rental_uris": {"android": "https://dc.lft.to/lastmile_qr_scan", "ios": "https://dc.lft.to/lastmile_qr_scan"}, "fusion_lon": 0.0, "lat": 38.91543016666667, "bike_id": "8b091d2f3aa4e0f8aff2dcf354658ba8", "type": "electric_scooter", "is_reserved": 0, "lon": -77.012656}, {"fusion_lat": 0.0, "name": "486e10bb5ced5e15d04d99dc2677b40b", "is_disabled": 0, "rental_uris": {"android": "https://dc.lft.to/lastmile_qr_scan", "ios": "https://dc.lft.to/lastmile_qr_scan"}, "fusion_lon": 0.0, "lat": 38.979578, "bike_id": "486e10bb5ced5e15d04d99dc2677b40b", "type": "electric_scooter", "is_reserved": 0, "lon": -77.026052}, {"fusion_lat": 0.0, "name": "ea9b2d214ff551fb34a578661231fc77", "is_disabled": 0, "rental_uris": {"android": "https://dc.lft.to/lastmile_qr_scan", "ios": "https://dc.lft.to/lastmile_qr_scan"}, "fusion_lon": 0.0, "lat": 38.941766, "bike_id": "ea9b2d214ff551fb34a578661231fc77", "type": "electric_scooter", "is_reserved": 0, "lon": -77.032838}, {"fusion_lat": 0.0, "name": "3cb929e97d5334aed017913701898711", "is_disabled": 0, "rental_uris": {"android": "https://dc.lft.to/lastmile_qr_scan", "ios": "https://dc.lft.to/lastmile_qr_scan"}, "fusion_lon": 0.0, "lat": 38.90303933333333, "bike_id": "3cb929e97d5334aed017913701898711", "type": "electric_scooter", "is_reserved": 0, "lon": -76.97653316666667}, {"fusion_lat": 0.0, "name": "f91a66c9f3de3eb14cf4d51fe18d3ac4", "is_disabled": 0, "rental_uris": {"android": "https://dc.lft.to/lastmile_qr_scan", "ios": "https://dc.lft.to/lastmile_qr_scan"}, "fusion_lon": 0.0, "lat": 38.92686666666667, "bike_id": "f91a66c9f3de3eb14cf4d51fe18d3ac4", "type": "electric_scooter", "is_reserved": 0, "lon": -77.03236483333333},