{"data": {"bikes": [{"rental_uris": {"ios": "https://dc.lft.to/lastmile_qr_scan", "android": "https://dc.lft.to/lastmile_qr_scan"}, "fusion_lat": 0.0, "name": "5af31c2f4bd58653923ee87730440e34", "bike_id": "5af31c2f4bd58653923ee87730440e34", "is_disabled": 0, "type": "electric_scooter", "lat": 38.920589, "lon": -77.0419415, "is_reserved": 0, "fusion_lon": 0.0}, {"rental_uris": {"ios": "https://dc.lft.to/lastmile_qr_scan", "android": "https://dc.lft.to/lastmile_qr_scan"}, "fusion_lat": 0.0, "name": "2fe5a7349580bd79b06a823e82f5ca3c", "bike_id": "2fe5a7349580bd79b06a823e82f5ca3c", "is_disabled": 0, "type": "electric_scooter", "lat": 38.917026166666666, "lon": -77.03667033333333, "is_reserved": 0, "fusion_lon": 0.0}, {"rental_uris": {"ios": "https://dc.lft.to/lastmile_qr_scan", "android": "https://dc.lft.to/lastmile_qr_scan"}, "fusion_lat": 0.0, "name": "dd1606edf18d0d37953f72300b52d938", "bike_id": "dd1606edf18d0d37953f72300b52d938", "is_disabled": 0, "type": "electric_scooter", "lat": 38.82593583333333, "lon": -77.0031375, "is_reserved": 0, "fusion_lon": 0.0}, {"rental_uris": {"ios": "https://dc.lft.to/lastmile_qr_scan", "android": "https://dc.lft.to/lastmile_qr_scan"}, "fusion_lat": 0.0, "name": "c532917ab893258afd0c4b354fbf2cbb", "bike_id": "c532917ab893258afd0c4b354fbf2cbb", "is_disabled": 0, "type": "electric_scooter", "lat": 38.91835316666667, "lon": -77.02188483333333, "is_reserved": 0, "fusion_lon": 0.0}, {"rental_uris": {"ios": "https://dc.lft.to/lastmile_qr_scan", "android": "https://dc.lft.to/lastmile_qr_scan"}, "fusion_lat": 0.0, "name": "82ae1777bbf1364b56e9176e32f7a80d", "bike_id": "82ae1777bbf1364b56e9176e32f7a80d", "is_disabled": 0, "type": "electric_scooter", "lat": 38.931450166666664, "lon": -77.01864766666667, "is_reserved": 0, "fusion_lon": 0.0}, {"rental_uris": {"ios": "https://dc.lft.to/lastmile_qr_scan", "android": "https://dc.lft.to/lastmile_qr_scan"}, "fusion_lat": 0.0, "name": "0b2a781caa2914b1ee26d4391bb48d3a", "bike_id": "0b2a781caa2914b1ee26d4391bb48d3a", "is_disabled": 0, "type": "electric_scooter", "lat": 38.90834133333333, "lon": -76.9969115, "is_reserved": 0, "fusion_lon": 0.0}, {"rental_uris": {"ios": "https://dc.lft.to/lastmile_qr_scan", "android": "https://dc.lft.to/lastmile_qr_scan"}, "fusion_lat": 0.0, "name": "d7fb22fd41ae2c4d80839956427dad3c", "bike_id": "d7fb22fd41ae2c4d80839956427dad3c", "is_disabled": 0, "type": "electric_scooter", "lat": 38.92908833333333, "lon": -77.019475, "is_reserved": 0, "fusion_lon": 0.0}, {"rental_uris": {"ios": "https://dc.lft.to/lastmile_qr_scan", "android": "https://dc.lft.to/lastmile_qr_scan"}, "fusion_lat": 0.0, "name": "404a35f1fc5a4aff882c3a32bd635afd", "bike_id": "404a35f1fc5a4aff882c3a32bd635afd", "is_disabled": 0, "type": "electric_bike", "lat": 38.972287, "lon": -76.993385, "is_reserved": 0, "fusion_lon": 0.0}, {"rental_uris": {"ios": "https://dc.lft.to/lastmile_qr_scan", "android": "https://dc.lft.to/lastmile_qr_scan"}, "fusion_lat": 0.0, "name": "fbb21bb7a92885174bdc45b9a34f3df7", "bike_id": "fbb21bb7a92885174bdc45b9a34f3df7", "is_disabled": 0, "type": "electric_scooter", "lat": 38.88128666666667, "lon": -76.93301533333333, "is_reserved": 0, "fusion_lon": 0.0}, {"rental_uris": {"ios": "https://dc.lft.to/lastmile_qr_scan", "android": "https://dc.lft.to/lastmile_qr_scan"}, "fusion_lat": 0.0, "name": "a57b7c690e4c2d85c67fc73e4e53fbfc", "bike_id": "a57b7c690e4c2d85c67fc73e4e53fbfc", "is_disabled": 0, "type": "electric_scooter", "lat": 38.883689, "lon": -76.99502383333333, "is_reserved": 0, "fusion_lon": 0.0}, {"rental_uris": {"ios": "https://dc.lft.to/lastmile_qr_scan", "android": "https://dc.lft.to/lastmile_qr_scan"}, "fusion_lat": 0.0, "name": "cd3211fbdeb07738f84337b8a176c231", "bike_id": "cd3211fbdeb07738f84337b8a176c231", "is_disabled": 0, "type": "electric_scooter", "lat": 38.939709, "lon": -77.03254716666666, "is_reserved": 0, "fusion_lon": 0.0}, {"rental_uris": {"ios": "https://dc.lft.to/lastmile_qr_scan", "android": "https://dc.lft.to/lastmile_qr_scan"}, "fusion_lat": 0.0, "name": "c5261fe92d000f72bc43560237ed6d67", "bike_id": "c5261fe92d000f72bc43560237ed6d67", "is_disabled": 0, "type": "electric_scooter", "lat": 38.90269083333333, "lon": -77.0283885, "is_reserved": 0, "fusion_lon": 0.0}, {"rental_uris": {"ios": "https://dc.lft.to/lastmile_qr_scan", "android": "https://dc.lft.to/lastmile_qr_scan"}, "fusion_lat": 0.0, "name": "5a2c4f0810fb1c609a5756865df64bba", "bike_id": "5a2c4f0810fb1c609a5756865df64bba", "is_disabled": 0, "type": "electric_scooter", "lat": 38.920554833333334, "lon": -77.02876783333333, "is_reserved": 0, "fusion_lon": 0.0}, {"rental_uris": {"ios": "https://dc.lft.to/lastmile_qr_scan", "android": "https://dc.lft.to/lastmile_qr_scan"}, "fusion_lat": 0.0, "name": "e445fd0d44fe70c4f045edcc042cac53", "bike_id": "e445fd0d44fe70c4f045edcc042cac53", "is_disabled": 0, "type": "electric_scooter", "lat": 38.91551616666667, "lon": -77.02212233333333, "is_reserved": 0, "fusion_lon": 0.0}, {"rental_uris": {"ios": "https://dc.lft.to/lastmile_qr_scan", "android": "https://dc.lft.to/lastmile_qr_scan"}, "fusion_lat": 0.0, "name": "7ae0cee5de6746c049e3fef13652e2c4", "bike_id": "7ae0cee5de6746c049e3fef13652e2c4", "is_disabled": 0, "type": "electric_scooter", "lat": 38.916885666666666, "lon": -76.97945216666666, "is_reserved": 0, "fusion_lon": 0.0}, {"rental_uris": {"ios": "https://dc.lft.to/lastmile_qr_scan", "android": "https://dc.lft.to/lastmile_qr_scan"}, "fusion_lat": 0.0, "name": "f969a3a231a312d76dc56c85d3ed44f8", "bike_id": "f969a3a231a312d76dc56c85d3ed44f8", "is_disabled": 0, "type": "electric_scooter", "lat": 38.9073185, "lon": -77.03442666666666, "is_reserved": 0, "fusion_lon": 0.0}, {"rental_uris": {"ios": "https://dc.lft.to/lastmile_qr_scan", "android": "https://dc.lft.to/lastmile_qr_scan"}, "fusion_lat": 0.0, "name": "34a10aa0beb7bcbdd9beebfc280f120e", "bike_id": "34a10aa0beb7bcbdd9beebfc280f120e", "is_disabled": 0, "type": "electric_scooter", "lat": 38.906677333333334, "lon": -77.03755716666667, "is_reserved": 0, "fusion_lon": 0.0}, {"rental_uris": {"ios": "https://dc.lft.to/lastmile_qr_scan", "android": "https://dc.lft.to/lastmile_qr_scan"}, "fusion_lat": 0.0, "name": "49541509adee0dd9909489c7987c79b6", "bike_id": "49541509adee0dd9909489c7987c79b6", "is_disabled": 0, "type": "electric_bike", "lat": 38.870792, "lon": -77.110608, "is_reserved": 0, "fusion_lon": 0.0}, {"rental_uris": {"ios": "https://dc.lft.to/lastmile_qr_scan", "android": "https://dc.lft.to/lastmile_qr_scan"}, "fusion_lat": 0.0, "name": "c27a3500ee82fe63e128794165390add", "bike_id": "c27a3500ee82fe63e128794165390add", "is_disabled": 0, "type": "electric_scooter", "lat": 38.901250166666664, "lon": -77.02634683333333, "is_reserved": 0, "fusion_lon": 0.0}, {"rental_uris": {"ios": "https://dc.lft.to/lastmile_qr_scan", "android": "https://dc.lft.to/lastmile_qr_scan"}, "fusion_lat": 0.0, "name": "702638a5dd3774a9ceebd4598972ea37", "bike_id": "702638a5dd3774a9ceebd4598972ea37", "is_disabled": 0, "type": "electric_scooter", "lat": 38.94812616666667, "lon": -76.99903983333333, "is_reserved": 0, "fusion_lon": 0.0}, {"rental_uris": {"ios": "https://dc.lft.to/lastmile_qr_scan", "android": "https://dc.lft.to/lastmile_qr_scan"}, "fusion_lat": 0.0, "name": "ff8d1be636d01e35cb3f804108d5cb31", "bike_id": "ff8d1be636d01e35cb3f804108d5cb31", "is_disabled": 0, "type": "electric_scooter", "lat": 38.9041625, "lon": -77.05038083333334, "is_reserved": 0, "fusion_lon": 0.0}, {"rental_uris": {"ios": "https://dc.lft.to/lastmile_qr_scan", "android": "https://dc.lft.to/lastmile_qr_scan"}, "fusion_lat": 0.0, "name": "f695eb301f447d58d341da5a30ceb995", "bike_id": "f695eb301f447d58d341da5a30ceb995", "is_disabled": 0, "type": "electric_scooter", "lat": 38.8922495, "lon": -77.0489455, "is_reserved": 0, "fusion_lon": 0.0}, {"rental_uris": {"ios": "https://dc.lft.to/lastmile_qr_scan", "android": "https://dc.lft.to/lastmile_qr_scan"}, "fusion_lat": 0.0, "name": "06fa99e6683d1d7eec6eb80c7aa70d8f", "bike_id": "06fa99e6683d1d7eec6eb80c7aa70d8f", "is_disabled": 0, "type": "electric_scooter", "lat": 38.9186115, "lon": -77.03197983333334, "is_reserved": 0, "fusion_lon": 0.0}, {"rental_uris": {"ios": "https://dc.lft.to/lastmile_qr_scan", "android": "https://dc.lft.to/lastmile_qr_scan"}, "fusion_lat": 0.0, "name": "e10aedb5fe11790374993c187771b6ee", "bike_id": "e10aedb5fe11790374993c187771b6ee", "is_disabled": 0, "type": "electric_scooter", "lat": 38.91268266666667, "lon": -77.036513, "is_reserved": 0, "fusion_lon": 0.0}, {"rental_uris": {"ios": "https://dc.lft.to/lastmile_qr_scan", "android": "https://dc.lft.to/lastmile_qr_scan"}, "fusion_lat": 0.0, "name": "d370b5813d87fd2873cb4a616a76abe3", "bike_id": "d370b5813d87fd2873cb4a616a76abe3", "is_disabled": 0, "type": "electric_scooter", "lat": 38.93824383333333, "lon": -76.9861335, "is_reserved": 0, "fusion_lon": 0.0}, {"rental_uris": {"ios": "https://dc.lft.to/lastmile_qr_scan", "android": "https://dc.lft.to/lastmile_qr_scan"}, "fusion_lat": 0.0, "name": "51a2f1544828634039f4d831d21a1334", "bike_id": "51a2f1544828634039f4d831d21a1334", "is_disabled": 0, "type": "electric_scooter", "lat": 38.915657833333334, "lon": -77.011986, "is_reserved": 0, "fusion_lon": 0.0}, {"rental_uris": {"ios": "https://dc.lft.to/lastmile_qr_scan", "android": "https://dc.lft.to/lastmile_qr_scan"}, "fusion_lat": 0.0, "name": "36c4a9e6d79a4b630df0467a77d091d3", "bike_id": "36c4a9e6d79a4b630df0467a77d091d3", "is_disabled": 0, "type": "electric_scooter", "lat": 38.91565966666667, "lon": -77.0251225, "is_reserved": 0, "fusion_lon": 0.0}, {"rental_uris": {"ios": "https://dc.lft.to/lastmile_qr_scan", "android": "https://dc.lft.to/lastmile_qr_scan"}, "fusion_lat": 0.0, "name": "79ad6547cc84cbeb09cbd3c7ce5a7890", "bike_id": "79ad6547cc84cbeb09cbd3c7ce5a7890", "is_disabled": 0, "type": "electric_scooter", "lat": 38.91697333333333, "lon": -77.02673816666666, "is_reserved": 0, "fusion_lon": 0.0}, {"rental_uris": {"ios": "https://dc.lft.to/lastmile_qr_scan", "android": "https://dc.lft.to/lastmile_qr_scan"}, "fusion_lat": 0.0, "name": "e93ec8caa406b824517eab407d934af2", "bike_id": "e93ec8caa406b824517eab407d934af2", "is_disabled": 0, "type": "electric_scooter", "lat": 38.949531666666665, "lon": -77.02717116666666, "is_reserved": 0, "fusion_lon": 0.0}, {"rental_uris": {"ios": "https://dc.lft.to/lastmile_qr_scan", "android": "https://dc.lft.to/lastmile_qr_scan"}, "fusion_lat": 0.0, "name": "dd67e8e6ecc4e08088d9bb2292a4c2fa", "bike_id": "dd67e8e6ecc4e08088d9bb2292a4c2fa", "is_disabled": 0, "type": "electric_scooter", "lat": 38.906655, "lon": -77.02699066666666, "is_reserved": 0, "fusion_lon": 0.0}, {"rental_uris": {"ios": "https://dc.lft.to/lastmile_qr_scan", "android": "https://dc.lft.to/lastmile_qr_scan"}, "fusion_lat": 0.0, "name": "daf8964824a463cafd67148ed251a8a8", "bike_id": "daf8964824a463cafd67148ed251a8a8", "is_disabled": 0, "type": "electric_scooter", "lat": 38.908515333333334, "lon": -76.99804066666667, "is_reserved": 0, "fusion_lon": 0.0}, {"rental_uris": {"ios": "https://dc.lft.to/lastmile_qr_scan", "android": "https://dc.lft.to/lastmile_qr_scan"}, "fusion_lat": 0.0, "name": "b1f366fdda2883c3cc5b550f9232cd3c", "bike_id": "b1f366fdda2883c3cc5b550f9232cd3c", "is_disabled": 0, "type": "electric_scooter", "lat": 38.90400183333333, "lon": -77.0404965, "is_reserved": 0, "fusion_lon": 0.0}, {"rental_uris": {"ios": "https://dc.lft.to/lastmile_qr_scan", "android": "https://dc.lft.to/lastmile_qr_scan"}, "fusion_lat": 0.0, "name": "357144820fa0f0903ac6062eb44fb23a", "bike_id": "357144820fa0f0903ac6062eb44fb23a", "is_disabled": 0, "type": "electric_scooter", "lat": 38.916752, "lon": -77.02961083333334, "is_reserved": 0, "fusion_lon": 0.0}, {"rental_uris": {"ios": "https://dc.lft.to/lastmile_qr_scan", "android": "https://dc.lft.to/lastmile_qr_scan"}, "fusion_lat": 0.0, "name": "277b1b261a15d9a7e11a76d8b3f0f34e", "bike_id": "277b1b261a15d9a7e11a76d8b3f0f34e", "is_disabled": 0, "type": "electric_scooter", "lat": 38.911036, "lon": -77.04465333333333, "is_reserved": 0, "fusion_lon": 0.0}, {"rental_uris": {"ios": "https://dc.lft.to/lastmile_qr_scan", "android": "https://dc.lft.to/lastmile_qr_scan"}, "fusion_lat": 0.0, "name": "ddf9779a7abadd5c415933e1f0e93ba8", "bike_id": "ddf9779a7abadd5c415933e1f0e93ba8", "is_disabled": 0, "type": "electric_scooter", "lat": 38.8922195, "lon": -77.03337466666666, "is_reserved": 0, "fusion_lon": 0.0}, {"rental_uris": {"ios": "https://dc.lft.to/lastmile_qr_scan", "android": "https://dc.lft.to/lastmile_qr_scan"}, "fusion_lat": 0.0, "name": "64a389e902b539bca171460cd7de1989", "bike_id": "64a389e902b539bca171460cd7de1989", "is_disabled": 0, "type": "electric_scooter", "lat": 38.88572, "lon": -76.91910266666666, "is_reserved": 0, "fusion_lon": 0.0}, {"rental_uris": {"ios": "https://dc.lft.to/lastmile_qr_scan", "android": "https://dc.lft.to/lastmile_qr_scan"}, "fusion_lat": 0.0, "name": "59b30de59fa9405e0743cd929aae59e1", "bike_id": "59b30de59fa9405e0743cd929aae59e1", "is_disabled": 0, "type": "electric_scooter", "lat": 38.90446333333333, "lon": -77.03261783333333, "is_reserved": 0, "fusion_lon": 0.0}, {"rental_uris": {"ios": "https://dc.lft.to/lastmile_qr_scan", "android": "https://dc.lft.to/lastmile_qr_scan"}, "fusion_lat": 0.0, "name": "03c2cf458d8a608e28cd8d59357e4d75", "bike_id": "03c2cf458d8a608e28cd8d59357e4d75", "is_disabled": 0, "type": "electric_bike", "lat": 38.840273333333336, "lon": -76.9758495, "is_reserved": 0, "fusion_lon": 0.0}, {"rental_uris": {"ios": "https://dc.lft.to/lastmile_qr_scan", "android": "https://dc.lft.to/lastmile_qr_scan"}, "fusion_lat": 0.0, "name": "9110728fcd43aa412ff491a50afd6910", "bike_id": "9110728fcd43aa412ff491a50afd6910", "is_disabled": 0, "type": "electric_scooter", "lat": 38.93883066666667, "lon": -77.02483583333333, "is_reserved": 0, "fusion_lon": 0.0}, {"rental_uris": {"ios": "https://dc.lft.to/lastmile_qr_scan", "android": "https://dc.lft.to/lastmile_qr_scan"}, "fusion_lat": 0.0, "name": "13ff750ddbab3db99c272cb6a0859c6e", "bike_id": "13ff750ddbab3db99c272cb6a0859c6e", "is_disabled": 0, "type": "electric_scooter", "lat": 38.900682333333336, "lon": -77.02716133333334, "is_reserved": 0, "fusion_lon": 0.0}, {"rental_uris": {"ios": "https://dc.lft.to/lastmile_qr_scan", "android": "https://dc.lft.to/lastmile_qr_scan"}, "fusion_lat": 0.0, "name": "408ff832ea7e17c3a6c3f4299364993a", "bike_id": "408ff832ea7e17c3a6c3f4299364993a", "is_disabled": 0, "type": "electric_scooter", "lat": 38.935236333333336, "lon": -77.07294916666666, "is_reserved": 0, "fusion_lon": 0.0}, {"rental_uris": {"ios": "https://dc.lft.to/lastmile_qr_scan", "android": "https://dc.lft.to/lastmile_qr_scan"}, "fusion_lat": 0.0, "name": "31a313586fb2fa068d4388f4c49e8d5f", "bike_id": "31a313586fb2fa068d4388f4c49e8d5f", "is_disabled": 0, "type": "electric_scooter", "lat": 38.9073375, "lon": -77.03441583333333, "is_reserved": 0, "fusion_lon": 0.0}, {"rental_uris": {"ios": "https://dc.lft.to/lastmile_qr_scan", "android": "https://dc.lft.to/lastmile_qr_scan"}, "fusion_lat": 0.0, "name": "df6ff4d438852bffefd899a6d705389c", "bike_id": "df6ff4d438852bffefd899a6d705389c", "is_disabled": 0, "type": "electric_scooter", "lat": 38.891921333333336, "lon": -77.00305633333333, "is_reserved": 0, "fusion_lon": 0.0}, {"rental_uris": {"ios": "https://dc.lft.to/lastmile_qr_scan", "android": "https://dc.lft.to/lastmile_qr_scan"}, "fusion_lat": 0.0, "name": "4f32ee3aa47ff1b53c22b4dea021178f", "bike_id": "4f32ee3aa47ff1b53c22b4dea021178f", "is_disabled": 0, "type": "electric_scooter", "lat": 38.92376216666667, "lon": -77.02561633333333, "is_reserved": 0, "fusion_lon": 0.0}, {"rental_uris": {"ios": "https://dc.lft.to/lastmile_qr_scan", "android": "https://dc.lft.to/lastmile_qr_scan"}, "fusion_lat": 0.0, "name": "02e760d0346e0a8e625da2f959c6e8f9", "bike_id": "02e760d0346e0a8e625da2f959c6e8f9", "is_disabled": 0, "type": "electric_scooter", "lat": 38.9027505, "lon": -77.05813516666667, "is_reserved": 0, "fusion_lon": 0.0}, {"rental_uris": {"ios": "https://dc.lft.to/lastmile_qr_scan", "android": "https://dc.lft.to/lastmile_qr_scan"}, "fusion_lat": 0.0, "name": "27a70019ed2f90387982c44bb4e5b9e7", "bike_id": "27a70019ed2f90387982c44bb4e5b9e7", "is_disabled": 0, "type": "electric_scooter", "lat": 38.924406, "lon": -77.04022116666667, "is_reserved": 0, "fusion_lon": 0.0}, {"rental_uris": {"ios": "https://dc.lft.to/lastmile_qr_scan", "android": "https://dc.lft.to/lastmile_qr_scan"}, "fusion_lat": 0.0, "name": "d7b0db3000c55f730c67d138992c64cf", "bike_id": "d7b0db3000c55f730c67d138992c64cf", "is_disabled": 0, "type": "electric_scooter", "lat": 38.90390633333333, "lon": -76.980989, "is_reserved": 0, "fusion_lon": 0.0}, {"rental_uris": {"ios": "https://dc.lft.to/lastmile_qr_scan", "android": "https://dc.lft.to/lastmile_qr_scan"}, "fusion_lat": 0.0, "name": "d3536bac8ae87958c47eb4eeb0ffd7ad", "bike_id": "d3536bac8ae87958c47eb4eeb0ffd7ad", "is_disabled": 0, "type": "electric_scooter", "lat": 38.903467, "lon": -77.01102066666667, "is_reserved": 0, "fusion_lon": 0.0}, {"rental_uris": {"ios": "https://dc.lft.to/lastmile_qr_scan", "android": "https://dc.lft.to/lastmile_qr_scan"}, "fusion_lat": 0.0, "name": "59eab67fe1ecd7e1e039f018b4a3aaea", "bike_id": "59eab67fe1ecd7e1e039f018b4a3aaea", "is_disabled": 0, "type": "electric_scooter", "lat": 38.89037583333333, "lon": -76.93762833333334, "is_reserved": 0, "fusion_lon": 0.0}, {"rental_uris": {"ios": "https://dc.lft.to/lastmile_qr_scan", "android": "https://dc.lft.to/lastmile_qr_scan"}, "fusion_lat": 0.0, "name": "8cc53051aa8853fa3cbd8acf8c64172a", "bike_id": "8cc53051aa8853fa3cbd8acf8c64172a", "is_disabled": 0, "type": "electric_scooter", "lat": 38.90152, "lon": -77.04352683333333, "is_reserved": 0, "fusion_lon": 0.0}, {"rental_uris": {"ios": "https://dc.lft.to/lastmile_qr_scan", "android": "https://dc.lft.to/lastmile_qr_scan"}, "fusion_lat": 0.0, "name": "6123a41a22c9a7d6ca4acd4bc70819f0", "bike_id": "6123a41a22c9a7d6ca4acd4bc70819f0", "is_disabled": 0, "type": "electric_scooter", "lat": 38.917716, "lon": -77.0365085, "is_reserved": 0, "fusion_lon": 0.0}, {"rental_uris": {"ios": "https://dc.lft.to/lastmile_qr_scan", "android": "https://dc.lft.to/lastmile_qr_scan"}, "fusion_lat": 0.0, "name": "895ce8592cf918bb9192d80d36f9433a", "bike_id": "895ce8592cf918bb9192d80d36f9433a", "is_disabled": 0, "type": "electric_scooter", "lat": 38.91591916666667, "lon": -77.0296405, "is_reserved": 0, "fusion_lon": 0.0}, {"rental_uris": {"ios": "https://dc.lft.to/lastmile_qr_scan", "android": "https://dc.lft.to/lastmile_qr_scan"}, "fusion_lat": 0.0, "name": "b22dcdc13c59763045e66e27621759e7", "bike_id": "b22dcdc13c59763045e66e27621759e7", "is_disabled": 0, "type": "electric_scooter", "lat": 38.9058995, "lon": -77.00576683333334, "is_reserved": 0, "fusion_lon": 0.0}, {"rental_uris": {"ios": "https://dc.lft.to/lastmile_qr_scan", "android": "https://dc.lft.to/lastmile_qr_scan"}, "fusion_lat": 0.0, "name": "38f082732958d3d3bcd7613aba1a4c82", "bike_id": "38f082732958d3d3bcd7613aba1a4c82", "is_disabled": 0, "type": "electric_scooter", "lat": 38.903648, "lon": -77.04499383333334, "is_reserved": 0, "fusion_lon": 0.0}, {"rental_uris": {"ios": "https://dc.lft.to/lastmile_qr_scan", "android": "https://dc.lft.to/lastmile_qr_scan"}, "fusion_lat": 0.0, "name": "5c018b51329eee4dca08a216c34f25d8", "bike_id": "5c018b51329eee4dca08a216c34f25d8", "is_disabled": 0, "type": "electric_scooter", "lat": 38.921017666666664, "lon": -77.04382033333333, "is_reserved": 0, "fusion_lon": 0.0}, {"rental_uris": {"ios": "https://dc.lft.to/lastmile_qr_scan", "android": "https://dc.lft.to/lastmile_qr_scan"}, "fusion_lat": 0.0, "name": "4f2194d5dd9dfc34b835afd79e9bcfaf", "bike_id": "4f2194d5dd9dfc34b835afd79e9bcfaf", "is_disabled": 0, "type": "electric_scooter", "lat": 38.887302166666665, "lon": -77.01527133333333, "is_reserved": 0, "fusion_lon": 0.0}, {"rental_uris": {"ios": "https://dc.lft.to/lastmile_qr_scan", "android": "https://dc.lft.to/lastmile_qr_scan"}, "fusion_lat": 0.0, "name": "e2402bdb8c2c55e8c49ef370c4ffb083", "bike_id": "e2402bdb8c2c55e8c49ef370c4ffb083", "is_disabled": 0, "type": "electric_scooter", "lat": 38.89763583333333, "lon": -77.03192516666667, "is_reserved": 0, "fusion_lon": 0.0}, {"rental_uris": {"ios": "https://dc.lft.to/lastmile_qr_scan", "android": "https://dc.lft.to/lastmile_qr_scan"}, "fusion_lat": 0.0, "name": "0f622e81a7c8a3840274d01f8dbb3ebc", "bike_id": "0f622e81a7c8a3840274d01f8dbb3ebc", "is_disabled": 0, "type": "electric_scooter", "lat": 38.91267833333333, "lon": -77.03644883333334, "is_reserved": 0, "fusion_lon": 0.0}, {"rental_uris": {"ios": "https://dc.lft.to/lastmile_qr_scan", "android": "https://dc.lft.to/lastmile_qr_scan"}, "fusion_lat": 0.0, "name": "663c2f536615904ba12d5684d868a49b", "bike_id": "663c2f536615904ba12d5684d868a49b", "is_disabled": 0, "type": "electric_scooter", "lat": 38.884100333333336, "lon": -77.0153125, "is_reserved": 0, "fusion_lon": 0.0}, {"rental_uris": {"ios": "https://dc.lft.to/lastmile_qr_scan", "android": "https://dc.lft.to/lastmile_qr_scan"}, "fusion_lat": 0.0, "name": "e8f67b46d584bb4c89b485c2215d4f5c", "bike_id": "e8f67b46d584bb4c89b485c2215d4f5c", "is_disabled": 0, "type": "electric_bike", "lat": 38.86994133333334, "lon": -77.0656805, "is_reserved": 0, "fusion_lon": 0.0}, {"rental_uris": {"ios": "https://dc.lft.to/lastmile_qr_scan", "android": "https://dc.lft.to/lastmile_qr_scan"}, "fusion_lat": 0.0, "name": "29a71dd3857d7c38338ab0080f91b414", "bike_id": "29a71dd3857d7c38338ab0080f91b414", "is_disabled": 0, "type": "electric_scooter", "lat": 38.92581716666667, "lon": -77.03982683333334, "is_reserved": 0, "fusion_lon": 0.0}, {"rental_uris": {"ios": "https://dc.lft.to/lastmile_qr_scan", "android": "https://dc.lft.to/lastmile_qr_scan"}, "fusion_lat": 0.0, "name": "c10bde9d5430484e86d1c425024370b6", "bike_id": "c10bde9d5430484e86d1c425024370b6", "is_disabled": 0, "type": "electric_scooter", "lat": 38.89516616666667, "lon": -77.02424783333333, "is_reserved": 0, "fusion_lon": 0.0}, {"rental_uris": {"ios": "https://dc.lft.to/lastmile_qr_scan", "android": "https://dc.lft.to/lastmile_qr_scan"}, "fusion_lat": 0.0, "name": "050ddfda8843248ec342d4b7736ba7be", "bike_id": "050ddfda8843248ec342d4b7736ba7be", "is_disabled": 0, "type": "electric_scooter", "lat": 38.91707683333333, "lon": -77.02577516666666, "is_reserved": 0, "fusion_lon": 0.0}, {"rental_uris": {"ios": "https://dc.lft.to/lastmile_qr_scan", "android": "https://dc.lft.to/lastmile_qr_scan"}, "fusion_lat": 0.0, "name": "11c8344c8d8523af5e103617fb9a16c1", "bike_id": "11c8344c8d8523af5e103617fb9a16c1", "is_disabled": 0, "type": "electric_scooter", "lat": 38.905835333333336, "lon": -77.03842383333334, "is_reserved": 0, "fusion_lon": 0.0}, {"rental_uris": {"ios": "https://dc.lft.to/lastmile_qr_scan", "android": "https://dc.lft.to/lastmile_qr_scan"}, "fusion_lat": 0.0, "name": "804d5b0c2d6249b0bd38046a3da58619", "bike_id": "804d5b0c2d6249b0bd38046a3da58619", "is_disabled": 0, "type": "electric_scooter", "lat": 38.928293, "lon": -77.03705416666666, "is_reserved": 0, "fusion_lon": 0.0}, {"rental_uris": {"ios": "https://dc.lft.to/lastmile_qr_scan", "android": "https://dc.lft.to/lastmile_qr_scan"}, "fusion_lat": 0.0, "name": "f08cc40508559a1e01de85b7b2b3473a", "bike_id": "f08cc40508559a1e01de85b7b2b3473a", "is_disabled": 0, "type": "electric_scooter", "lat": 38.93160783333333, "lon": -77.05607883333333, "is_reserved": 0, "fusion_lon": 0.0}, {"rental_uris": {"ios": "https://dc.lft.to/lastmile_qr_scan", "android": "https://dc.lft.to/lastmile_qr_scan"}, "fusion_lat": 0.0, "name": "d8a47951776a3092e49e749a0ee95cbc", "bike_id": "d8a47951776a3092e49e749a0ee95cbc", "is_disabled": 0, "type": "electric_scooter", "lat": 38.93289933333333, "lon": -77.02192216666667, "is_reserved": 0, "fusion_lon": 0.0}, {"rental_uris": {"ios": "https://dc.lft.to/lastmile_qr_scan", "android": "https://dc.lft.to/lastmile_qr_scan"}, "fusion_lat": 0.0, "name": "913ba686b2627811136eb88bb0f1bb1d", "bike_id": "913ba686b2627811136eb88bb0f1bb1d", "is_disabled": 0, "type": "electric_scooter", "lat": 38.926282666666665, "lon": -77.0228125, "is_reserved": 0, "fusion_lon": 0.0}, {"rental_uris": {"ios": "https://dc.lft.to/lastmile_qr_scan", "android": "https://dc.lft.to/lastmile_qr_scan"}, "fusion_lat": 0.0, "name": "47e8d7242a837bd59adc11efa7856aea", "bike_id": "47e8d7242a837bd59adc11efa7856aea", "is_disabled": 0, "type": "electric_scooter", "lat": 38.8649555, "lon": -76.98984283333333, "is_reserved": 0, "fusion_lon": 0.0}, {"rental_uris": {"ios": "https://dc.lft.to/lastmile_qr_scan", "android": "https://dc.lft.to/lastmile_qr_scan"}, "fusion_lat": 0.0, "name": "abee1e649ddda88f7598b9d9a1769847", "bike_id": "abee1e649ddda88f7598b9d9a1769847", "is_disabled": 0, "type": "electric_bike", "lat": 38.898951833333335, "lon": -77.00047816666667, "is_reserved": 0, "fusion_lon": 0.0}, {"rental_uris": {"ios": "https://dc.lft.to/lastmile_qr_scan", "android": "https://dc.lft.to/lastmile_qr_scan"}, "fusion_lat": 0.0, "name": "417747a7bc9a1c5f33ac2f1ad7d2cedb", "bike_id": "417747a7bc9a1c5f33ac2f1ad7d2cedb", "is_disabled": 0, "type": "electric_scooter", "lat": 38.92097366666667, "lon": -77.03173933333333, "is_reserved": 0, "fusion_lon": 0.0}, {"rental_uris": {"ios": "https://dc.lft.to/lastmile_qr_scan", "android": "https://dc.lft.to/lastmile_qr_scan"}, "fusion_lat": 0.0, "name": "e6ab1a9dbf17a1646c973eb019108492", "bike_id": "e6ab1a9dbf17a1646c973eb019108492", "is_disabled": 0, "type": "electric_scooter", "lat": 38.892276333333335, "lon": -77.013671, "is_reserved": 0, "fusion_lon": 0.0}, {"rental_uris": {"ios": "https://dc.lft.to/lastmile_qr_scan", "android": "https://dc.lft.to/lastmile_qr_scan"}, "fusion_lat": 0.0, "name": "be241395feaba9297fac04d4a2ffafe9", "bike_id": "be241395feaba9297fac04d4a2ffafe9", "is_disabled": 0, "type": "electric_scooter", "lat": 38.92590533333333, "lon": -77.0214055, "is_reserved": 0, "fusion_lon": 0.0}, {"rental_uris": {"ios": "https://dc.lft.to/lastmile_qr_scan", "android": "https://dc.lft.to/lastmile_qr_scan"}, "fusion_lat": 0.0, "name": "fec1ee74e30017db66ca45066da5d911", "bike_id": "fec1ee74e30017db66ca45066da5d911", "is_disabled": 0, "type": "electric_scooter", "lat": 38.93484333333333, "lon": -77.07273216666667, "is_reserved": 0, "fusion_lon": 0.0}, {"rental_uris": {"ios": "https://dc.lft.to/lastmile_qr_scan", "android": "https://dc.lft.to/lastmile_qr_scan"}, "fusion_lat": 0.0, "name": "c1b7ae81f3647a79ebe5b3305b7fa546", "bike_id": "c1b7ae81f3647a79ebe5b3305b7fa546", "is_disabled": 0, "type": "electric_scooter", "lat": 38.90004366666667, "lon": -77.04025066666667, "is_reserved": 0, "fusion_lon": 0.0}, {"rental_uris": {"ios": "https://dc.lft.to/lastmile_qr_scan", "android": "https://dc.lft.to/lastmile_qr_scan"}, "fusion_lat": 0.0, "name": "a4addb19604b1601cebee24d2ac32910", "bike_id": "a4addb19604b1601cebee24d2ac32910", "is_disabled": 0, "type": "electric_scooter", "lat": 38.90560116666666, "lon": -77.03431933333333, "is_reserved": 0, "fusion_lon": 0.0}, {"rental_uris": {"ios": "https://dc.lft.to/lastmile_qr_scan", "android": "https://dc.lft.to/lastmile_qr_scan"}, "fusion_lat": 0.0, "name": "eadc0cd52e1d17eb19c7705564ed8301", "bike_id": "eadc0cd52e1d17eb19c7705564ed8301", "is_disabled": 0, "type": "electric_scooter", "lat": 38.926153, "lon": -77.03945783333333, "is_reserved": 0, "fusion_lon": 0.0}, {"rental_uris": {"ios": "https://dc.lft.to/lastmile_qr_scan", "android": "https://dc.lft.to/lastmile_qr_scan"}, "fusion_lat": 0.0, "name": "48a8b5ddc74008f5a0abb9430ad59d22", "bike_id": "48a8b5ddc74008f5a0abb9430ad59d22", "is_disabled": 0, "type": "electric_scooter", "lat": 38.932960666666666, "lon": -77.02465266666667, "is_reserved": 0, "fusion_lon": 0.0}, {"rental_uris": {"ios": "https://dc.lft.to/lastmile_qr_scan", "android": "https://dc.lft.to/lastmile_qr_scan"}, "fusion_lat": 0.0, "name": "a0fac0684f5cb07ca94cbd4d750feddf", "bike_id": "a0fac0684f5cb07ca94cbd4d750feddf", "is_disabled": 0, "type": "electric_bike", "lat": 38.842882333333336, "lon": -77.04496566666667, "is_reserved": 0, "fusion_lon": 0.0}, {"rental_uris": {"ios": "https://dc.lft.to/lastmile_qr_scan", "android": "https://dc.lft.to/lastmile_qr_scan"}, "fusion_lat": 0.0, "name": "16c7de3fb145c3cf18eef8192fd0fa9f", "bike_id": "16c7de3fb145c3cf18eef8192fd0fa9f", "is_disabled": 0, "type": "electric_scooter", "lat": 38.90145283333333, "lon": -77.04386166666667, "is_reserved": 0, "fusion_lon": 0.0}, {"rental_uris": {"ios": "https://dc.lft.to/lastmile_qr_scan", "android": "https://dc.lft.to/lastmile_qr_scan"}, "fusion_lat": 0.0, "name": "9984b334907fc88a77c4eead0afdb9a6", "bike_id": "9984b334907fc88a77c4eead0afdb9a6", "is_disabled": 0, "type": "electric_scooter", "lat": 38.912603833333336, "lon": -77.044384, "is_reserved": 0, "fusion_lon": 0.0}, {"rental_uris": {"ios": "https://dc.lft.to/lastmile_qr_scan", "android": "https://dc.lft.to/lastmile_qr_scan"}, "fusion_lat": 0.0, "name": "45a7b564d42dad49925c1e11bf801d4b", "bike_id": "45a7b564d42dad49925c1e11bf801d4b", "is_disabled": 0, "type": "electric_scooter", "lat": 38.8921465, "lon": -77.02219133333334, "is_reserved": 0, "fusion_lon": 0.0}, {"rental_uris": {"ios": "https://dc.lft.to/lastmile_qr_scan", "android": "https://dc.lft.to/lastmile_qr_scan"}, "fusion_lat": 0.0, "name": "8bd07e3b050f6c7f7ae5a38998071fb3", "bike_id": "8bd07e3b050f6c7f7ae5a38998071fb3", "is_disabled": 0, "type": "electric_scooter", "lat": 38.950719166666666, "lon": -77.0310195, "is_reserved": 0, "fusion_lon": 0.0}, {"rental_uris": {"ios": "https://dc.lft.to/lastmile_qr_scan", "android": "https://dc.lft.to/lastmile_qr_scan"}, "fusion_lat": 0.0, "name": "53b7c2ab4ca2921dbde53c3c45fe3621", "bike_id": "53b7c2ab4ca2921dbde53c3c45fe3621", "is_disabled": 0, "type": "electric_scooter", "lat": 38.89885366666667, "lon": -77.03951283333333, "is_reserved": 0, "fusion_lon": 0.0}, {"rental_uris": {"ios": "https://dc.lft.to/lastmile_qr_scan", "android": "https://dc.lft.to/lastmile_qr_scan"}, "fusion_lat": 0.0, "name": "a2d1b7522fed662d126aada47eabdd79", "bike_id": "a2d1b7522fed662d126aada47eabdd79", "is_disabled": 0, "type": "electric_scooter", "lat": 38.9002785, "lon": -76.99758666666666, "is_reserved": 0, "fusion_lon": 0.0}, {"rental_uris": {"ios": "https://dc.lft.to/lastmile_qr_scan", "android": "https://dc.lft.to/lastmile_qr_scan"}, "fusion_lat": 0.0, "name": "ee6bd5825293cec3d6a5734f380ae09b", "bike_id": "ee6bd5825293cec3d6a5734f380ae09b", "is_disabled": 0, "type": "electric_scooter", "lat": 38.92672816666666, "lon": -77.01470133333333, "is_reserved": 0, "fusion_lon": 0.0}, {"rental_uris": {"ios": "https://dc.lft.to/lastmile_qr_scan", "android": "https://dc.lft.to/lastmile_qr_scan"}, "fusion_lat": 0.0, "name": "44d2d03bf1bbdc295569286d76e6cf3e", "bike_id": "44d2d03bf1bbdc295569286d76e6cf3e", "is_disabled": 0, "type": "electric_scooter", "lat": 38.90963216666667, "lon": -77.04056666666666, "is_reserved": 0, "fusion_lon": 0.0}, {"rental_uris": {"ios": "https://dc.lft.to/lastmile_qr_scan", "android": "https://dc.lft.to/lastmile_qr_scan"}, "fusion_lat": 0.0, "name": "0a9913220b8306b21653bf4c7b841eef", "bike_id": "0a9913220b8306b21653bf4c7b841eef", "is_disabled": 0, "type": "electric_bike", "lat": 38.8551025, "lon": -77.12017916666667, "is_reserved": 0, "fusion_lon": 0.0}, {"rental_uris": {"ios": "https://dc.lft.to/lastmile_qr_scan", "android": "https://dc.lft.to/lastmile_qr_scan"}, "fusion_lat": 0.0, "name": "94f69fc38137d1d96652b43f21a6e4ef", "bike_id": "94f69fc38137d1d96652b43f21a6e4ef", "is_disabled": 0, "type": "electric_scooter", "lat": 38.91563, "lon": -77.031509, "is_reserved": 0, "fusion_lon": 0.0}, {"rental_uris": {"ios": "https://dc.lft.to/lastmile_qr_scan", "android": "https://dc.lft.to/lastmile_qr_scan"}, "fusion_lat": 0.0, "name": "cd961bb086e728deb5e1ccfe5d8252eb", "bike_id": "cd961bb086e728deb5e1ccfe5d8252eb", "is_disabled": 0, "type": "electric_scooter", "lat": 38.907893666666666, "lon": -77.03194066666667, "is_reserved": 0, "fusion_lon": 0.0}, {"rental_uris": {"ios": "https://dc.lft.to/lastmile_qr_scan", "android": "https://dc.lft.to/lastmile_qr_scan"}, "fusion_lat": 0.0, "name": "6793e6caa8c335a7dd4016a4805fa677", "bike_id": "6793e6caa8c335a7dd4016a4805fa677", "is_disabled": 0, "type": "electric_scooter", "lat": 38.90958716666667, "lon": -77.02580816666666, "is_reserved": 0, "fusion_lon": 0.0}, {"rental_uris": {"ios": "https://dc.lft.to/lastmile_qr_scan", "android": "https://dc.lft.to/lastmile_qr_scan"}, "fusion_lat": 0.0, "name": "c60ffbf0c797ce59929c6eaf8893a301", "bike_id": "c60ffbf0c797ce59929c6eaf8893a301", "is_disabled": 0, "type": "electric_scooter", "lat": 38.923655833333335, "lon": -77.019136, "is_reserved": 0, "fusion_lon": 0.0}, {"rental_uris": {"ios": "https://dc.lft.to/lastmile_qr_scan", "android": "https://dc.lft.to/lastmile_qr_scan"}, "fusion_lat": 0.0, "name": "7e162f79f0af4a4665051951cd4cdb10", "bike_id": "7e162f79f0af4a4665051951cd4cdb10", "is_disabled": 0, "type": "electric_scooter", "lat": 38.8974775, "lon": -76.941859, "is_reserved": 0, "fusion_lon": 0.0}, {"rental_uris": {"ios": "https://dc.lft.to/lastmile_qr_scan", "android": "https://dc.lft.to/lastmile_qr_scan"}, "fusion_lat": 0.0, "name": "dee6c237b573afc26bfc4c01eb4f31ee", "bike_id": "dee6c237b573afc26bfc4c01eb4f31ee", "is_disabled": 0, "type": "electric_scooter", "lat": 38.9174575, "lon": -77.02304616666666, "is_reserved": 0, "fusion_lon": 0.0}, {"rental_uris": {"ios": "https://dc.lft.to/lastmile_qr_scan", "android": "https://dc.lft.to/lastmile_qr_scan"}, "fusion_lat": 0.0, "name": "d6bb1356215a57832c2a6c1421f0a304", "bike_id": "d6bb1356215a57832c2a6c1421f0a304", "is_disabled": 0, "type": "electric_scooter", "lat": 38.9169035, "lon": -77.02598716666667, "is_reserved": 0, "fusion_lon": 0.0}, {"rental_uris": {"ios": "https://dc.lft.to/lastmile_qr_scan", "android": "https://dc.lft.to/lastmile_qr_scan"}, "fusion_lat": 0.0, "name": "3aa3931b0084022f6b43ae597ddb9a68", "bike_id": "3aa3931b0084022f6b43ae597ddb9a68", "is_disabled": 0, "type": "electric_scooter", "lat": 38.918030333333334, "lon": -77.04025366666667, "is_reserved": 0, "fusion_lon": 0.0}, {"rental_uris": {"ios": "https://dc.lft.to/lastmile_qr_scan", "android": "https://dc.lft.to/lastmile_qr_scan"}, "fusion_lat": 0.0, "name": "9e8b3aab1ecec2b97a3e6550c6942515", "bike_id": "9e8b3aab1ecec2b97a3e6550c6942515", "is_disabled": 0, "type": "electric_scooter", "lat": 38.949294, "lon": -77.01943416666667, "is_reserved": 0, "fusion_lon": 0.0}, {"rental_uris": {"ios": "https://dc.lft.to/lastmile_qr_scan", "android": "https://dc.lft.to/lastmile_qr_scan"}, "fusion_lat": 0.0, "name": "c6220cedd1463b053f08889d0299ffb8", "bike_id": "c6220cedd1463b053f08889d0299ffb8", "is_disabled": 0, "type": "electric_scooter", "lat": 38.917879, "lon": -77.02349833333334, "is_reserved": 0, "fusion_lon": 0.0}, {"rental_uris": {"ios": "https://dc.lft.to/lastmile_qr_scan", "android": "https://dc.lft.to/lastmile_qr_scan"}, "fusion_lat": 0.0, "name": "48c4d9b90a4422848a920deacc357511", "bike_id": "48c4d9b90a4422848a920deacc357511", "is_disabled": 0, "type": "electric_scooter", "lat": 38.922360166666664, "lon": -77.0341055, "is_reserved": 0, "fusion_lon": 0.0}, {"rental_uris": {"ios": "https://dc.lft.to/lastmile_qr_scan", "android": "https://dc.lft.to/lastmile_qr_scan"}, "fusion_lat": 0.0, "name": "08a326553e3e0b60294a4c762bdcd2c1", "bike_id": "08a326553e3e0b60294a4c762bdcd2c1", "is_disabled": 0, "type": "electric_scooter", "lat": 38.907268333333334, "lon": -77.03423966666666, "is_reserved": 0, "fusion_lon": 0.0}, {"rental_uris": {"ios": "https://dc.lft.to/lastmile_qr_scan", "android": "https://dc.lft.to/lastmile_qr_scan"}, "fusion_lat": 0.0, "name": "a14f61263e30f012e77e7b206881a2e5", "bike_id": "a14f61263e30f012e77e7b206881a2e5", "is_disabled": 0, "type": "electric_scooter", "lat": 38.908600666666665, "lon": -77.00610816666666, "is_reserved": 0, "fusion_lon": 0.0}, {"rental_uris": {"ios": "https://dc.lft.to/lastmile_qr_scan", "android": "https://dc.lft.to/lastmile_qr_scan"}, "fusion_lat": 0.0, "name": "a756a388b3cb1398c16dbf85dffacf0f", "bike_id": "a756a388b3cb1398c16dbf85dffacf0f", "is_disabled": 0, "type": "electric_scooter", "lat": 38.93013883333333, "lon": -77.0444465, "is_reserved": 0, "fusion_lon": 0.0}, {"rental_uris": {"ios": "https://dc.lft.to/lastmile_qr_scan", "android": "https://dc.lft.to/lastmile_qr_scan"}, "fusion_lat": 0.0, "name": "2020473fd5accfd62eceb0bf454b0117", "bike_id": "2020473fd5accfd62eceb0bf454b0117", "is_disabled": 0, "type": "electric_scooter", "lat": 38.944495833333335, "lon": -77.0634925, "is_reserved": 0, "fusion_lon": 0.0}, {"rental_uris": {"ios": "https://dc.lft.to/lastmile_qr_scan", "android": "https://dc.lft.to/lastmile_qr_scan"}, "fusion_lat": 0.0, "name": "a8f2036dd6d9411ff1828897c1e97154", "bike_id": "a8f2036dd6d9411ff1828897c1e97154", "is_disabled": 0, "type": "electric_scooter", "lat": 38.89219966666667, "lon": -77.0316645, "is_reserved": 0, "fusion_lon": 0.0}, {"rental_uris": {"ios": "https://dc.lft.to/lastmile_qr_scan", "android": "https://dc.lft.to/lastmile_qr_scan"}, "fusion_lat": 0.0, "name": "1b854a8388fa220cec39876756f74b89", "bike_id": "1b854a8388fa220cec39876756f74b89", "is_disabled": 0, "type": "electric_scooter", "lat": 38.9542705, "lon": -77.02763783333333, "is_reserved": 0, "fusion_lon": 0.0}, {"rental_uris": {"ios": "https://dc.lft.to/lastmile_qr_scan", "android": "https://dc.lft.to/lastmile_qr_scan"}, "fusion_lat": 0.0, "name": "3268b184ffe64a54f93380273a5b1af6", "bike_id": "3268b184ffe64a54f93380273a5b1af6", "is_disabled": 0, "type": "electric_scooter", "lat": 38.8997725, "lon": -76.9398985, "is_reserved": 0, "fusion_lon": 0.0}, {"rental_uris": {"ios": "https://dc.lft.to/lastmile_qr_scan", "android": "https://dc.lft.to/lastmile_qr_scan"}, "fusion_lat": 0.0, "name": "0b6c1f5b153a9304891617fed56d8780", "bike_id": "0b6c1f5b153a9304891617fed56d8780", "is_disabled": 0, "type": "electric_scooter", "lat": 38.864959666666664, "lon": -76.98988433333334, "is_reserved": 0, "fusion_lon": 0.0}, {"rental_uris": {"ios": "https://dc.lft.to/lastmile_qr_scan", "android": "https://dc.lft.to/lastmile_qr_scan"}, "fusion_lat": 0.0, "name": "2af2d63346a11b6b3e1799b52b182b25", "bike_id": "2af2d63346a11b6b3e1799b52b182b25", "is_disabled": 0, "type": "electric_scooter", "lat": 38.910229, "lon": -77.042664, "is_reserved": 0, "fusion_lon": 0.0}, {"rental_uris": {"ios": "https://dc.lft.to/lastmile_qr_scan", "android": "https://dc.lft.to/lastmile_qr_scan"}, "fusion_lat": 0.0, "name": "316363e46a5f95aae0b8e29281cb0db6", "bike_id": "316363e46a5f95aae0b8e29281cb0db6", "is_disabled": 0, "type": "electric_scooter", "lat": 38.9031375, "lon": -77.01205133333333, "is_reserved": 0, "fusion_lon": 0.0}, {"rental_uris": {"ios": "https://dc.lft.to/lastmile_qr_scan", "android": "https://dc.lft.to/lastmile_qr_scan"}, "fusion_lat": 0.0, "name": "fd6f19c10f4aec03d4842686f18acee9", "bike_id": "fd6f19c10f4aec03d4842686f18acee9", "is_disabled": 0, "type": "electric_scooter", "lat": 38.892224166666665, "lon": -77.03163483333333, "is_reserved": 0, "fusion_lon": 0.0}, {"rental_uris": {"ios": "https://dc.lft.to/lastmile_qr_scan", "android": "https://dc.lft.to/lastmile_qr_scan"}, "fusion_lat": 0.0, "name": "c4d4a5df7c3a948ee1687aed93428325", "bike_id": "c4d4a5df7c3a948ee1687aed93428325", "is_disabled": 0, "type": "electric_scooter", "lat": 38.88719416666667, "lon": -76.9961645, "is_reserved": 0, "fusion_lon": 0.0}, {"rental_uris": {"ios": "https://dc.lft.to/lastmile_qr_scan", "android": "https://dc.lft.to/lastmile_qr_scan"}, "fusion_lat": 0.0, "name": "0ac587791af7bc1ddd713ba1a9dd1b72", "bike_id": "0ac587791af7bc1ddd713ba1a9dd1b72", "is_disabled": 0, "type": "electric_scooter", "lat": 38.918155166666665, "lon": -77.03250066666666, "is_reserved": 0, "fusion_lon": 0.0}, {"rental_uris": {"ios": "https://dc.lft.to/lastmile_qr_scan", "android": "https://dc.lft.to/lastmile_qr_scan"}, "fusion_lat": 0.0, "name": "389f46572699079fbe6c58fa47250d3b", "bike_id": "389f46572699079fbe6c58fa47250d3b", "is_disabled": 0, "type": "electric_scooter", "lat": 38.915623833333335, "lon": -77.0117555, "is_reserved": 0, "fusion_lon": 0.0}, {"rental_uris": {"ios": "https://dc.lft.to/lastmile_qr_scan", "android": "https://dc.lft.to/lastmile_qr_scan"}, "fusion_lat": 0.0, "name": "51c73ee0086cc74af813c28a5afe4c30", "bike_id": "51c73ee0086cc74af813c28a5afe4c30", "is_disabled": 0, "type": "electric_scooter", "lat": 38.9295225, "lon": -76.99087583333333, "is_reserved": 0, "fusion_lon": 0.0}, {"rental_uris": {"ios": "https://dc.lft.to/lastmile_qr_scan", "android": "https://dc.lft.to/lastmile_qr_scan"}, "fusion_lat": 0.0, "name": "d66e96679406a1c7556bc5ddebd98fb2", "bike_id": "d66e96679406a1c7556bc5ddebd98fb2", "is_disabled": 0, "type": "electric_scooter", "lat": 38.909668833333335, "lon": -76.9960225, "is_reserved": 0, "fusion_lon": 0.0}, {"rental_uris": {"ios": "https://dc.lft.to/lastmile_qr_scan", "android": "https://dc.lft.to/lastmile_qr_scan"}, "fusion_lat": 0.0, "name": "fb8c49c563b8260566567323b07f9f48", "bike_id": "fb8c49c563b8260566567323b07f9f48", "is_disabled": 0, "type": "electric_scooter", "lat": 38.92053816666667, "lon": -77.04197183333333, "is_reserved": 0, "fusion_lon": 0.0}, {"rental_uris": {"ios": "https://dc.lft.to/lastmile_qr_scan", "android": "https://dc.lft.to/lastmile_qr_scan"}, "fusion_lat": 0.0, "name": "a6d02e3d02b232817fae5f06c95007fd", "bike_id": "a6d02e3d02b232817fae5f06c95007fd", "is_disabled": 0, "type": "electric_scooter", "lat": 38.89841116666667, "lon": -76.94633883333333, "is_reserved": 0, "fusion_lon": 0.0}, {"rental_uris": {"ios": "https://dc.lft.to/lastmile_qr_scan", "android": "https://dc.lft.to/lastmile_qr_scan"}, "fusion_lat": 0.0, "name": "f92a25d19883ff4be103a2c5c98777b5", "bike_id": "f92a25d19883ff4be103a2c5c98777b5", "is_disabled": 0, "type": "electric_scooter", "lat": 38.8872865, "lon": -77.0282445, "is_reserved": 0, "fusion_lon": 0.0}, {"rental_uris": {"ios": "https://dc.lft.to/lastmile_qr_scan", "android": "https://dc.lft.to/lastmile_qr_scan"}, "fusion_lat": 0.0, "name": "7e58a294015a8def734044c29dfb304d", "bike_id": "7e58a294015a8def734044c29dfb304d", "is_disabled": 0, "type": "electric_scooter", "lat": 38.892227166666665, "lon": -77.0489575, "is_reserved": 0, "fusion_lon": 0.0}, {"rental_uris": {"ios": "https://dc.lft.to/lastmile_qr_scan", "android": "https://dc.lft.to/lastmile_qr_scan"}, "fusion_lat": 0.0, "name": "67bc14ba68f6772a42062cb3ad142f29", "bike_id": "67bc14ba68f6772a42062cb3ad142f29", "is_disabled": 0, "type": "electric_scooter", "lat": 38.8960405, "lon": -77.05464216666667, "is_reserved": 0, "fusion_lon": 0.0}, {"rental_uris": {"ios": "https://dc.lft.to/lastmile_qr_scan", "android": "https://dc.lft.to/lastmile_qr_scan"}, "fusion_lat": 0.0, "name": "5a7fd71eb418bfdf7771fbb990f785f9", "bike_id": "5a7fd71eb418bfdf7771fbb990f785f9", "is_disabled": 0, "type": "electric_scooter", "lat": 38.86239666666667, "lon": -76.994924, "is_reserved": 0, "fusion_lon": 0.0}, {"rental_uris": {"ios": "https://dc.lft.to/lastmile_qr_scan", "android": "https://dc.lft.to/lastmile_qr_scan"}, "fusion_lat": 0.0, "name": "98f6ef5bffef338e5cae9d036d134454", "bike_id": "98f6ef5bffef338e5cae9d036d134454", "is_disabled": 0, "type": "electric_scooter", "lat": 38.92423216666667, "lon": -77.02555083333333, "is_reserved": 0, "fusion_lon": 0.0}, {"rental_uris": {"ios": "https://dc.lft.to/lastmile_qr_scan", "android": "https://dc.lft.to/lastmile_qr_scan"}, "fusion_lat": 0.0, "name": "336f2500759850b99bc7c4739255244d", "bike_id": "336f2500759850b99bc7c4739255244d", "is_disabled": 0, "type": "electric_scooter", "lat": 38.924198833333335, "lon": -77.0227525, "is_reserved": 0, "fusion_lon": 0.0}, {"rental_uris": {"ios": "https://dc.lft.to/lastmile_qr_scan", "android": "https://dc.lft.to/lastmile_qr_scan"}, "fusion_lat": 0.0, "name": "eeb3d066438993e3eae6d505dfb654e7", "bike_id": "eeb3d066438993e3eae6d505dfb654e7", "is_disabled": 0, "type": "electric_scooter", "lat": 38.903686, "lon": -77.04155333333334, "is_reserved": 0, "fusion_lon": 0.0}, {"rental_uris": {"ios": "https://dc.lft.to/lastmile_qr_scan", "android": "https://dc.lft.to/lastmile_qr_scan"}, "fusion_lat": 0.0, "name": "fd070bbe98b759ab3ce07b61db5730e7", "bike_id": "fd070bbe98b759ab3ce07b61db5730e7", "is_disabled": 0, "type": "electric_scooter", "lat": 38.92456083333333, "lon": -77.05759266666666, "is_reserved": 0, "fusion_lon": 0.0}, {"rental_uris": {"ios": "https://dc.lft.to/lastmile_qr_scan", "android": "https://dc.lft.to/lastmile_qr_scan"}, "fusion_lat": 0.0, "name": "675ab9f00ece5fd0534794d49808ccac", "bike_id": "675ab9f00ece5fd0534794d49808ccac", "is_disabled": 0, "type": "electric_bike", "lat": 38.9016595, "lon": -77.05083633333334, "is_reserved": 0, "fusion_lon": 0.0}, {"rental_uris": {"ios": "https://dc.lft.to/lastmile_qr_scan", "android": "https://dc.lft.to/lastmile_qr_scan"}, "fusion_lat": 0.0, "name": "9bbbe93a710bb003065b35cde8406dc6", "bike_id": "9bbbe93a710bb003065b35cde8406dc6", "is_disabled": 0, "type": "electric_scooter", "lat": 38.851752166666664, "lon": -76.99578866666667, "is_reserved": 0, "fusion_lon": 0.0}, {"rental_uris": {"ios": "https://dc.lft.to/lastmile_qr_scan", "android": "https://dc.lft.to/lastmile_qr_scan"}, "fusion_lat": 0.0, "name": "e9aafd5cca53db82b4be55011ee04016", "bike_id": "e9aafd5cca53db82b4be55011ee04016", "is_disabled": 0, "type": "electric_scooter", "lat": 38.900405, "lon": -77.00738566666666, "is_reserved": 0, "fusion_lon": 0.0}, {"rental_uris": {"ios": "https://dc.lft.to/lastmile_qr_scan", "android": "https://dc.lft.to/lastmile_qr_scan"}, "fusion_lat": 0.0, "name": "00c01e87e8b090459fd25b19c586201f", "bike_id": "00c01e87e8b090459fd25b19c586201f", "is_disabled": 0, "type": "electric_scooter", "lat": 38.90673016666667, "lon": -77.05020816666666, "is_reserved": 0, "fusion_lon": 0.0}, {"rental_uris": {"ios": "https://dc.lft.to/lastmile_qr_scan", "android": "https://dc.lft.to/lastmile_qr_scan"}, "fusion_lat": 0.0, "name": "f3c226b97ba23190a09196d2501ca096", "bike_id": "f3c226b97ba23190a09196d2501ca096", "is_disabled": 0, "type": "electric_scooter", "lat": 38.910327833333334, "lon": -77.03863666666666, "is_reserved": 0, "fusion_lon": 0.0}, {"rental_uris": {"ios": "https://dc.lft.to/lastmile_qr_scan", "android": "https://dc.lft.to/lastmile_qr_scan"}, "fusion_lat": 0.0, "name": "192d3734642ba09231014e7beff792dc", "bike_id": "192d3734642ba09231014e7beff792dc", "is_disabled": 0, "type": "electric_scooter", "lat": 38.91265283333333, "lon": -77.04482966666667, "is_reserved": 0, "fusion_lon": 0.0}, {"rental_uris": {"ios": "https://dc.lft.to/lastmile_qr_scan", "android": "https://dc.lft.to/lastmile_qr_scan"}, "fusion_lat": 0.0, "name": "b8e4d0dc9b842182788b76d2cc152f7f", "bike_id": "b8e4d0dc9b842182788b76d2cc152f7f", "is_disabled": 0, "type": "electric_scooter", "lat": 38.881411666666665, "lon": -77.017676, "is_reserved": 0, "fusion_lon": 0.0}, {"rental_uris": {"ios": "https://dc.lft.to/lastmile_qr_scan", "android": "https://dc.lft.to/lastmile_qr_scan"}, "fusion_lat": 0.0, "name": "41fed6186a038918f6ce7b1e6b3f3bac", "bike_id": "41fed6186a038918f6ce7b1e6b3f3bac", "is_disabled": 0, "type": "electric_scooter", "lat": 38.9117315, "lon": -77.03865116666667, "is_reserved": 0, "fusion_lon": 0.0}, {"rental_uris": {"ios": "https://dc.lft.to/lastmile_qr_scan", "android": "https://dc.lft.to/lastmile_qr_scan"}, "fusion_lat": 0.0, "name": "aede2658791fe6b357e7aa89159739ac", "bike_id": "aede2658791fe6b357e7aa89159739ac", "is_disabled": 0, "type": "electric_scooter", "lat": 38.915455333333334, "lon": -76.98525433333333, "is_reserved": 0, "fusion_lon": 0.0}, {"rental_uris": {"ios": "https://dc.lft.to/lastmile_qr_scan", "android": "https://dc.lft.to/lastmile_qr_scan"}, "fusion_lat": 0.0, "name": "e525696efb6490ec39b6f1bf885616e7", "bike_id": "e525696efb6490ec39b6f1bf885616e7", "is_disabled": 0, "type": "electric_scooter", "lat": 38.92472266666667, "lon": -77.03915683333334, "is_reserved": 0, "fusion_lon": 0.0}, {"rental_uris": {"ios": "https://dc.lft.to/lastmile_qr_scan", "android": "https://dc.lft.to/lastmile_qr_scan"}, "fusion_lat": 0.0, "name": "2b071e49406ca44661e41d28709713ce", "bike_id": "2b071e49406ca44661e41d28709713ce", "is_disabled": 0, "type": "electric_scooter", "lat": 38.89218316666667, "lon": -77.04644916666666, "is_reserved": 0, "fusion_lon": 0.0}, {"rental_uris": {"ios": "https://dc.lft.to/lastmile_qr_scan", "android": "https://dc.lft.to/lastmile_qr_scan"}, "fusion_lat": 0.0, "name": "e49047e7c945740fff82bb1bca3c9bd3", "bike_id": "e49047e7c945740fff82bb1bca3c9bd3", "is_disabled": 0, "type": "electric_scooter", "lat": 38.9052795, "lon": -77.0609525, "is_reserved": 0, "fusion_lon": 0.0}, {"rental_uris": {"ios": "https://dc.lft.to/lastmile_qr_scan", "android": "https://dc.lft.to/lastmile_qr_scan"}, "fusion_lat": 0.0, "name": "4573460b3a164c373398297c9b635238", "bike_id": "4573460b3a164c373398297c9b635238", "is_disabled": 0, "type": "electric_scooter", "lat": 38.862553166666665, "lon": -76.995155, "is_reserved": 0, "fusion_lon": 0.0}, {"rental_uris": {"ios": "https://dc.lft.to/lastmile_qr_scan", "android": "https://dc.lft.to/lastmile_qr_scan"}, "fusion_lat": 0.0, "name": "09339ae528b4e46a639b201baf07ef19", "bike_id": "09339ae528b4e46a639b201baf07ef19", "is_disabled": 0, "type": "electric_scooter", "lat": 38.903361333333336, "lon": -77.05025266666667, "is_reserved": 0, "fusion_lon": 0.0}, {"rental_uris": {"ios": "https://dc.lft.to/lastmile_qr_scan", "android": "https://dc.lft.to/lastmile_qr_scan"}, "fusion_lat": 0.0, "name": "c45e45f1ac5aa6c6e67a18ea5ec8216e", "bike_id": "c45e45f1ac5aa6c6e67a18ea5ec8216e", "is_disabled": 0, "type": "electric_scooter", "lat": 38.901790166666665, "lon": -77.01998733333333, "is_reserved": 0, "fusion_lon": 0.0}, {"rental_uris": {"ios": "https://dc.lft.to/lastmile_qr_scan", "android": "https://dc.lft.to/lastmile_qr_scan"}, "fusion_lat": 0.0, "name": "775054957120596ab89349289b784277", "bike_id": "775054957120596ab89349289b784277", "is_disabled": 0, "type": "electric_scooter", "lat": 38.90314266666667, "lon": -77.0385575, "is_reserved": 0, "fusion_lon": 0.0}, {"rental_uris": {"ios": "https://dc.lft.to/lastmile_qr_scan", "android": "https://dc.lft.to/lastmile_qr_scan"}, "fusion_lat": 0.0, "name": "6c9ff83e799e073f1a027c1ca0d3c1e4", "bike_id": "6c9ff83e799e073f1a027c1ca0d3c1e4", "is_disabled": 0, "type": "electric_scooter", "lat": 38.867354, "lon": -76.9865785, "is_reserved": 0, "fusion_lon": 0.0}, {"rental_uris": {"ios": "https://dc.lft.to/lastmile_qr_scan", "android": "https://dc.lft.to/lastmile_qr_scan"}, "fusion_lat": 0.0, "name": "d86e1b02c85b8d24a45ab6db588b1ce4", "bike_id": "d86e1b02c85b8d24a45ab6db588b1ce4", "is_disabled": 0, "type": "electric_scooter", "lat": 38.862399833333335, "lon": -76.99496216666667, "is_reserved": 0, "fusion_lon": 0.0}, {"rental_uris": {"ios": "https://dc.lft.to/lastmile_qr_scan", "android": "https://dc.lft.to/lastmile_qr_scan"}, "fusion_lat": 0.0, "name": "297e801a4a748bcdd79eaa4074feb94c", "bike_id": "297e801a4a748bcdd79eaa4074feb94c", "is_disabled": 0, "type": "electric_scooter", "lat": 38.90548666666667, "lon": -77.04551683333334, "is_reserved": 0, "fusion_lon": 0.0}, {"rental_uris": {"ios": "https://dc.lft.to/lastmile_qr_scan", "android": "https://dc.lft.to/lastmile_qr_scan"}, "fusion_lat": 0.0, "name": "93a609481b1c6a03e445982679556e8c", "bike_id": "93a609481b1c6a03e445982679556e8c", "is_disabled": 0, "type": "electric_scooter", "lat": 38.89990483333333, "lon": -77.03180716666667, "is_reserved": 0, "fusion_lon": 0.0}, {"rental_uris": {"ios": "https://dc.lft.to/lastmile_qr_scan", "android": "https://dc.lft.to/lastmile_qr_scan"}, "fusion_lat": 0.0, "name": "42203b2eec8fb872de81bb78fbf3e882", "bike_id": "42203b2eec8fb872de81bb78fbf3e882", "is_disabled": 0, "type": "electric_scooter", "lat": 38.892243666666666, "lon": -77.03182766666667, "is_reserved": 0, "fusion_lon": 0.0}, {"rental_uris": {"ios": "https://dc.lft.to/lastmile_qr_scan", "android": "https://dc.lft.to/lastmile_qr_scan"}, "fusion_lat": 0.0, "name": "0409d3f20dde52c14a3e59a3816d3402", "bike_id": "0409d3f20dde52c14a3e59a3816d3402", "is_disabled": 0, "type": "electric_scooter", "lat": 38.91709183333333, "lon": -77.0412385, "is_reserved": 0, "fusion_lon": 0.0}, {"rental_uris": {"ios": "https://dc.lft.to/lastmile_qr_scan", "android": "https://dc.lft.to/lastmile_qr_scan"}, "fusion_lat": 0.0, "name": "b849d5a74e38729404bd73f64262b524", "bike_id": "b849d5a74e38729404bd73f64262b524", "is_disabled": 0, "type": "electric_scooter", "lat": 38.89221466666667, "lon": -77.03159983333333, "is_reserved": 0, "fusion_lon": 0.0}, {"rental_uris": {"ios": "https://dc.lft.to/lastmile_qr_scan", "android": "https://dc.lft.to/lastmile_qr_scan"}, "fusion_lat": 0.0, "name": "62d8b594caf6426924bb91131b78b096", "bike_id": "62d8b594caf6426924bb91131b78b096", "is_disabled": 0, "type": "electric_scooter", "lat": 38.923395, "lon": -77.0349655, "is_reserved": 0, "fusion_lon": 0.0}, {"rental_uris": {"ios": "https://dc.lft.to/lastmile_qr_scan", "android": "https://dc.lft.to/lastmile_qr_scan"}, "fusion_lat": 0.0, "name": "0a0ea884c72faac73bdaa655efd2ff7e", "bike_id": "0a0ea884c72faac73bdaa655efd2ff7e", "is_disabled": 0, "type": "electric_scooter", "lat": 38.92358333333333, "lon": -77.05125316666667, "is_reserved": 0, "fusion_lon": 0.0}, {"rental_uris": {"ios": "https://dc.lft.to/lastmile_qr_scan", "android": "https://dc.lft.to/lastmile_qr_scan"}, "fusion_lat": 0.0, "name": "ee65c971dfffc366c897a4cbeaf525db", "bike_id": "ee65c971dfffc366c897a4cbeaf525db", "is_disabled": 0, "type": "electric_scooter", "lat": 38.901117, "lon": -77.02598333333333, "is_reserved": 0, "fusion_lon": 0.0}, {"rental_uris": {"ios": "https://dc.lft.to/lastmile_qr_scan", "android": "https://dc.lft.to/lastmile_qr_scan"}, "fusion_lat": 0.0, "name": "f2d419ae3cc2990cb6a0cd0b12bba7a2", "bike_id": "f2d419ae3cc2990cb6a0cd0b12bba7a2", "is_disabled": 0, "type": "electric_scooter", "lat": 38.91103416666667, "lon": -77.03144083333333, "is_reserved": 0, "fusion_lon": 0.0}, {"rental_uris": {"ios": "https://dc.lft.to/lastmile_qr_scan", "android": "https://dc.lft.to/lastmile_qr_scan"}, "fusion_lat": 0.0, "name": "6c77918751d5487a7977e0c2e6622443", "bike_id": "6c77918751d5487a7977e0c2e6622443", "is_disabled": 0, "type": "electric_scooter", "lat": 38.915894, "lon": -77.02966033333334, "is_reserved": 0, "fusion_lon": 0.0}, {"rental_uris": {"ios": "https://dc.lft.to/lastmile_qr_scan", "android": "https://dc.lft.to/lastmile_qr_scan"}, "fusion_lat": 0.0, "name": "d54071d838b48013a7210297d4f9bce3", "bike_id": "d54071d838b48013a7210297d4f9bce3", "is_disabled": 0, "type": "electric_scooter", "lat": 38.94413816666667, "lon": -77.0552065, "is_reserved": 0, "fusion_lon": 0.0}, {"rental_uris": {"ios": "https://dc.lft.to/lastmile_qr_scan", "android": "https://dc.lft.to/lastmile_qr_scan"}, "fusion_lat": 0.0, "name": "7cb8d8d7443cc2ad96156f4f85d95d7b", "bike_id": "7cb8d8d7443cc2ad96156f4f85d95d7b", "is_disabled": 0, "type": "electric_scooter", "lat": 38.892248333333335, "lon": -77.028037, "is_reserved": 0, "fusion_lon": 0.0}, {"rental_uris": {"ios": "https://dc.lft.to/lastmile_qr_scan", "android": "https://dc.lft.to/lastmile_qr_scan"}, "fusion_lat": 0.0, "name": "e71fef7281166199f59269177685353b", "bike_id": "e71fef7281166199f59269177685353b", "is_disabled": 0, "type": "electric_scooter", "lat": 38.894189, "lon": -76.91144116666666, "is_reserved": 0, "fusion_lon": 0.0}, {"rental_uris": {"ios": "https://dc.lft.to/lastmile_qr_scan", "android": "https://dc.lft.to/lastmile_qr_scan"}, "fusion_lat": 0.0, "name": "48442e65562ce1d76c13ab229fa6ddfa", "bike_id": "48442e65562ce1d76c13ab229fa6ddfa", "is_disabled": 0, "type": "electric_scooter", "lat": 38.90962233333333, "lon": -77.03379033333333, "is_reserved": 0, "fusion_lon": 0.0}, {"rental_uris": {"ios": "https://dc.lft.to/lastmile_qr_scan", "android": "https://dc.lft.to/lastmile_qr_scan"}, "fusion_lat": 0.0, "name": "e3ebf4afb71101bd0b511bffb6ae67c0", "bike_id": "e3ebf4afb71101bd0b511bffb6ae67c0", "is_disabled": 0, "type": "electric_scooter", "lat": 38.90309233333333, "lon": -77.03315116666667, "is_reserved": 0, "fusion_lon": 0.0}, {"rental_uris": {"ios": "https://dc.lft.to/lastmile_qr_scan", "android": "https://dc.lft.to/lastmile_qr_scan"}, "fusion_lat": 0.0, "name": "266bb1efd06de36d81d4c597be7cb432", "bike_id": "266bb1efd06de36d81d4c597be7cb432", "is_disabled": 0, "type": "electric_scooter", "lat": 38.915595333333336, "lon": -77.02001683333333, "is_reserved": 0, "fusion_lon": 0.0}, {"rental_uris": {"ios": "https://dc.lft.to/lastmile_qr_scan", "android": "https://dc.lft.to/lastmile_qr_scan"}, "fusion_lat": 0.0, "name": "90eeb4d5caa3231bbeb01bd273c32020", "bike_id": "90eeb4d5caa3231bbeb01bd273c32020", "is_disabled": 0, "type": "electric_scooter", "lat": 38.842943166666664, "lon": -76.999449, "is_reserved": 0, "fusion_lon": 0.0}, {"rental_uris": {"ios": "https://dc.lft.to/lastmile_qr_scan", "android": "https://dc.lft.to/lastmile_qr_scan"}, "fusion_lat": 0.0, "name": "5f3d28359aaa0431fa3c7b6cb3a1fa28", "bike_id": "5f3d28359aaa0431fa3c7b6cb3a1fa28", "is_disabled": 0, "type": "electric_bike", "lat": 38.906119333333336, "lon": -77.07633466666667, "is_reserved": 0, "fusion_lon": 0.0}, {"rental_uris": {"ios": "https://dc.lft.to/lastmile_qr_scan", "android": "https://dc.lft.to/lastmile_qr_scan"}, "fusion_lat": 0.0, "name": "ba0b8b80ba27cd7362f8606a3074ecb6", "bike_id": "ba0b8b80ba27cd7362f8606a3074ecb6", "is_disabled": 0, "type": "electric_scooter", "lat": 38.902374333333334, "lon": -77.033324, "is_reserved": 0, "fusion_lon": 0.0}, {"rental_uris": {"ios": "https://dc.lft.to/lastmile_qr_scan", "android": "https://dc.lft.to/lastmile_qr_scan"}, "fusion_lat": 0.0, "name": "cca27471cf56c181e400f496649e8607", "bike_id": "cca27471cf56c181e400f496649e8607", "is_disabled": 0, "type": "electric_scooter", "lat": 38.9036755, "lon": -77.04494016666666, "is_reserved": 0, "fusion_lon": 0.0}, {"rental_uris": {"ios": "https://dc.lft.to/lastmile_qr_scan", "android": "https://dc.lft.to/lastmile_qr_scan"}, "fusion_lat": 0.0, "name": "287dc40e35749226f72077985b64eb24", "bike_id": "287dc40e35749226f72077985b64eb24", "is_disabled": 0, "type": "electric_scooter", "lat": 38.9056915, "lon": -77.03468866666667, "is_reserved": 0, "fusion_lon": 0.0}, {"rental_uris": {"ios": "https://dc.lft.to/lastmile_qr_scan", "android": "https://dc.lft.to/lastmile_qr_scan"}, "fusion_lat": 0.0, "name": "3445ae281cd460579742f73c471a000b", "bike_id": "3445ae281cd460579742f73c471a000b", "is_disabled": 0, "type": "electric_scooter", "lat": 38.9219615, "lon": -77.04245216666666, "is_reserved": 0, "fusion_lon": 0.0}, {"rental_uris": {"ios": "https://dc.lft.to/lastmile_qr_scan", "android": "https://dc.lft.to/lastmile_qr_scan"}, "fusion_lat": 0.0, "name": "bfbe963ea0b630c102781d933339427a", "bike_id": "bfbe963ea0b630c102781d933339427a", "is_disabled": 0, "type": "electric_scooter", "lat": 38.9180355, "lon": -77.0402675, "is_reserved": 0, "fusion_lon": 0.0}, {"rental_uris": {"ios": "https://dc.lft.to/lastmile_qr_scan", "android": "https://dc.lft.to/lastmile_qr_scan"}, "fusion_lat": 0.0, "name": "eb287e91f69c2a4d2fc6a70b522acb60", "bike_id": "eb287e91f69c2a4d2fc6a70b522acb60", "is_disabled": 0, "type": "electric_scooter", "lat": 38.9110435, "lon": -77.04472566666666, "is_reserved": 0, "fusion_lon": 0.0}, {"rental_uris": {"ios": "https://dc.lft.to/lastmile_qr_scan", "android": "https://dc.lft.to/lastmile_qr_scan"}, "fusion_lat": 0.0, "name": "4cbff21b0502ed74b3507aded028aef5", "bike_id": "4cbff21b0502ed74b3507aded028aef5", "is_disabled": 0, "type": "electric_scooter", "lat": 38.91121483333333, "lon": -77.04212116666666, "is_reserved": 0, "fusion_lon": 0.0}, {"rental_uris": {"ios": "https://dc.lft.to/lastmile_qr_scan", "android": "https://dc.lft.to/lastmile_qr_scan"}, "fusion_lat": 0.0, "name": "83e83250919fa05d5d736dc8ccc64406", "bike_id": "83e83250919fa05d5d736dc8ccc64406", "is_disabled": 0, "type": "electric_scooter", "lat": 38.90621216666667, "lon": -77.02179716666667, "is_reserved": 0, "fusion_lon": 0.0}, {"rental_uris": {"ios": "https://dc.lft.to/lastmile_qr_scan", "android": "https://dc.lft.to/lastmile_qr_scan"}, "fusion_lat": 0.0, "name": "67a7309ea9c14361fed56ad3fa9bc8cf", "bike_id": "67a7309ea9c14361fed56ad3fa9bc8cf", "is_disabled": 0, "type": "electric_scooter", "lat": 38.92854283333333, "lon": -77.02873566666666, "is_reserved": 0, "fusion_lon": 0.0}, {"rental_uris": {"ios": "https://dc.lft.to/lastmile_qr_scan", "android": "https://dc.lft.to/lastmile_qr_scan"}, "fusion_lat": 0.0, "name": "ef6fda0e069567796cf325f4fec135e9", "bike_id": "ef6fda0e069567796cf325f4fec135e9", "is_disabled": 0, "type": "electric_scooter", "lat": 38.9248425, "lon": -77.07319766666667, "is_reserved": 0, "fusion_lon": 0.0}, {"rental_uris": {"ios": "https://dc.lft.to/lastmile_qr_scan", "android": "https://dc.lft.to/lastmile_qr_scan"}, "fusion_lat": 0.0, "name": "2b60fe466a601143897803aaa7a5c2ef", "bike_id": "2b60fe466a601143897803aaa7a5c2ef", "is_disabled": 0, "type": "electric_scooter", "lat": 38.9110755, "lon": -77.031745, "is_reserved": 0, "fusion_lon": 0.0}, {"rental_uris": {"ios": "https://dc.lft.to/lastmile_qr_scan", "android": "https://dc.lft.to/lastmile_qr_scan"}, "fusion_lat": 0.0, "name": "c9b7224acfd7910ca40e7559f53ae250", "bike_id": "c9b7224acfd7910ca40e7559f53ae250", "is_disabled": 0, "type": "electric_scooter", "lat": 38.89905066666667, "lon": -77.0405075, "is_reserved": 0, "fusion_lon": 0.0}, {"rental_uris": {"ios": "https://dc.lft.to/lastmile_qr_scan", "android": "https://dc.lft.to/lastmile_qr_scan"}, "fusion_lat": 0.0, "name": "fed2888970b742aebff4f5f99b80f143", "bike_id": "fed2888970b742aebff4f5f99b80f143", "is_disabled": 0, "type": "electric_scooter", "lat": 38.904684833333334, "lon": -77.04486966666667, "is_reserved": 0, "fusion_lon": 0.0}, {"rental_uris": {"ios": "https://dc.lft.to/lastmile_qr_scan", "android": "https://dc.lft.to/lastmile_qr_scan"}, "fusion_lat": 0.0, "name": "3a2470886099beab0a28a8a00696b87a", "bike_id": "3a2470886099beab0a28a8a00696b87a", "is_disabled": 0, "type": "electric_scooter", "lat": 38.903557166666666, "lon": -77.03200433333333, "is_reserved": 0, "fusion_lon": 0.0}, {"rental_uris": {"ios": "https://dc.lft.to/lastmile_qr_scan", "android": "https://dc.lft.to/lastmile_qr_scan"}, "fusion_lat": 0.0, "name": "8c9898c572cf4bfcbdbcb8770eba331a", "bike_id": "8c9898c572cf4bfcbdbcb8770eba331a", "is_disabled": 0, "type": "electric_scooter", "lat": 38.902782, "lon": -77.03656916666667, "is_reserved": 0, "fusion_lon": 0.0}, {"rental_uris": {"ios": "https://dc.lft.to/lastmile_qr_scan", "android": "https://dc.lft.to/lastmile_qr_scan"}, "fusion_lat": 0.0, "name": "f4dcfb7f0cc6e55450b6769e1d8d7631", "bike_id": "f4dcfb7f0cc6e55450b6769e1d8d7631", "is_disabled": 0, "type": "electric_scooter", "lat": 38.91720133333333, "lon": -77.03656583333333, "is_reserved": 0, "fusion_lon": 0.0}, {"rental_uris": {"ios": "https://dc.lft.to/lastmile_qr_scan", "android": "https://dc.lft.to/lastmile_qr_scan"}, "fusion_lat": 0.0, "name": "733e80a4740b9fbf5c5f9f994303e697", "bike_id": "733e80a4740b9fbf5c5f9f994303e697", "is_disabled": 0, "type": "electric_scooter", "lat": 38.9518115, "lon": -77.02720633333334, "is_reserved": 0, "fusion_lon": 0.0}, {"rental_uris": {"ios": "https://dc.lft.to/lastmile_qr_scan", "android": "https://dc.lft.to/lastmile_qr_scan"}, "fusion_lat": 0.0, "name": "d24bc84ef9be00356ff4799749ceb20b", "bike_id": "d24bc84ef9be00356ff4799749ceb20b", "is_disabled": 0, "type": "electric_scooter", "lat": 38.887385333333334, "lon": -77.00336166666666, "is_reserved": 0, "fusion_lon": 0.0}, {"rental_uris": {"ios": "https://dc.lft.to/lastmile_qr_scan", "android": "https://dc.lft.to/lastmile_qr_scan"}, "fusion_lat": 0.0, "name": "b52da049d882e37ee191ba2c276f5672", "bike_id": "b52da049d882e37ee191ba2c276f5672", "is_disabled": 0, "type": "electric_scooter", "lat": 38.90666066666667, "lon": -77.0270785, "is_reserved": 0, "fusion_lon": 0.0}, {"rental_uris": {"ios": "https://dc.lft.to/lastmile_qr_scan", "android": "https://dc.lft.to/lastmile_qr_scan"}, "fusion_lat": 0.0, "name": "a493ecbeca47a7e60025eeaf0e2aa7ea", "bike_id": "a493ecbeca47a7e60025eeaf0e2aa7ea", "is_disabled": 0, "type": "electric_scooter", "lat": 38.91329483333333, "lon": -77.03183866666667, "is_reserved": 0, "fusion_lon": 0.0}, {"rental_uris": {"ios": "https://dc.lft.to/lastmile_qr_scan", "android": "https://dc.lft.to/lastmile_qr_scan"}, "fusion_lat": 0.0, "name": "83c06b7fb1fb5f6b0c084cbc8ddb5ea8", "bike_id": "83c06b7fb1fb5f6b0c084cbc8ddb5ea8", "is_disabled": 0, "type": "electric_bike", "lat": 38.81930933333334, "lon": -77.002036, "is_reserved": 0, "fusion_lon": 0.0}, {"rental_uris": {"ios": "https://dc.lft.to/lastmile_qr_scan", "android": "https://dc.lft.to/lastmile_qr_scan"}, "fusion_lat": 0.0, "name": "d93c9817cd7ef8b2b44816363561c38f", "bike_id": "d93c9817cd7ef8b2b44816363561c38f", "is_disabled": 0, "type": "electric_scooter", "lat": 38.91175583333333, "lon": -77.04830983333333, "is_reserved": 0, "fusion_lon": 0.0}, {"rental_uris": {"ios": "https://dc.lft.to/lastmile_qr_scan", "android": "https://dc.lft.to/lastmile_qr_scan"}, "fusion_lat": 0.0, "name": "8c488d0ad8990c120c04123955110e23", "bike_id": "8c488d0ad8990c120c04123955110e23", "is_disabled": 0, "type": "electric_scooter", "lat": 38.91059683333334, "lon": -77.0409545, "is_reserved": 0, "fusion_lon": 0.0}, {"rental_uris": {"ios": "https://dc.lft.to/lastmile_qr_scan", "android": "https://dc.lft.to/lastmile_qr_scan"}, "fusion_lat": 0.0, "name": "4cce95425cf76337c88b123d09639b67", "bike_id": "4cce95425cf76337c88b123d09639b67", "is_disabled": 0, "type": "electric_scooter", "lat": 38.90971533333333, "lon": -77.0343345, "is_reserved": 0, "fusion_lon": 0.0}, {"rental_uris": {"ios": "https://dc.lft.to/lastmile_qr_scan", "android": "https://dc.lft.to/lastmile_qr_scan"}, "fusion_lat": 0.0, "name": "885eb4ef8442663040368bfc86a6d35a", "bike_id": "885eb4ef8442663040368bfc86a6d35a", "is_disabled": 0, "type": "electric_scooter", "lat": 38.9047545, "lon": -77.0021205, "is_reserved": 0, "fusion_lon": 0.0}, {"rental_uris": {"ios": "https://dc.lft.to/lastmile_qr_scan", "android": "https://dc.lft.to/lastmile_qr_scan"}, "fusion_lat": 0.0, "name": "171574aa9d6f8581b9dc5d865c85ca5f", "bike_id": "171574aa9d6f8581b9dc5d865c85ca5f", "is_disabled": 0, "type": "electric_scooter", "lat": 38.906023166666664, "lon": -77.0269315, "is_reserved": 0, "fusion_lon": 0.0}, {"rental_uris": {"ios": "https://dc.lft.to/lastmile_qr_scan", "android": "https://dc.lft.to/lastmile_qr_scan"}, "fusion_lat": 0.0, "name": "443596a3f9971ba09f4415cdffa78315", "bike_id": "443596a3f9971ba09f4415cdffa78315", "is_disabled": 0, "type": "electric_scooter", "lat": 38.909732, "lon": -77.0343625, "is_reserved": 0, "fusion_lon": 0.0}, {"rental_uris": {"ios": "https://dc.lft.to/lastmile_qr_scan", "android": "https://dc.lft.to/lastmile_qr_scan"}, "fusion_lat": 0.0, "name": "51cd5bea3b00ca9862f29be1e75e3fbf", "bike_id": "51cd5bea3b00ca9862f29be1e75e3fbf", "is_disabled": 0, "type": "electric_bike", "lat": 38.804934333333335, "lon": -77.04127733333333, "is_reserved": 0, "fusion_lon": 0.0}, {"rental_uris": {"ios": "https://dc.lft.to/lastmile_qr_scan", "android": "https://dc.lft.to/lastmile_qr_scan"}, "fusion_lat": 0.0, "name": "4e35b9ef8132d974c33022dcf325cba8", "bike_id": "4e35b9ef8132d974c33022dcf325cba8", "is_disabled": 0, "type": "electric_scooter", "lat": 38.922614333333335, "lon": -77.04303316666666, "is_reserved": 0, "fusion_lon": 0.0}, {"rental_uris": {"ios": "https://dc.lft.to/lastmile_qr_scan", "android": "https://dc.lft.to/lastmile_qr_scan"}, "fusion_lat": 0.0, "name": "0e7837ac030aec4a3d2cb51abfd169cc", "bike_id": "0e7837ac030aec4a3d2cb51abfd169cc", "is_disabled": 0, "type": "electric_scooter", "lat": 38.8950075, "lon": -76.94870216666666, "is_reserved": 0, "fusion_lon": 0.0}, {"rental_uris": {"ios": "https://dc.lft.to/lastmile_qr_scan", "android": "https://dc.lft.to/lastmile_qr_scan"}, "fusion_lat": 0.0, "name": "c23536a0db6424e42e34ac55f73ab447", "bike_id": "c23536a0db6424e42e34ac55f73ab447", "is_disabled": 0, "type": "electric_scooter", "lat": 38.917651666666664, "lon": -77.03195416666667, "is_reserved": 0, "fusion_lon": 0.0}, {"rental_uris": {"ios": "https://dc.lft.to/lastmile_qr_scan", "android": "https://dc.lft.to/lastmile_qr_scan"}, "fusion_lat": 0.0, "name": "3e13d8323f3dc256335f396a0a758fe0", "bike_id": "3e13d8323f3dc256335f396a0a758fe0", "is_disabled": 0, "type": "electric_scooter", "lat": 38.9060885, "lon": -77.025895, "is_reserved": 0, "fusion_lon": 0.0}, {"rental_uris": {"ios": "https://dc.lft.to/lastmile_qr_scan", "android": "https://dc.lft.to/lastmile_qr_scan"}, "fusion_lat": 0.0, "name": "13223ec817c9656f0fd58d241e10b2a9", "bike_id": "13223ec817c9656f0fd58d241e10b2a9", "is_disabled": 0, "type": "electric_scooter", "lat": 38.9063665, "lon": -76.99507416666667, "is_reserved": 0, "fusion_lon": 0.0}, {"rental_uris": {"ios": "https://dc.lft.to/lastmile_qr_scan", "android": "https://dc.lft.to/lastmile_qr_scan"}, "fusion_lat": 0.0, "name": "4cde7834b0d6365664dad18d87636697", "bike_id": "4cde7834b0d6365664dad18d87636697", "is_disabled": 0, "type": "electric_scooter", "lat": 38.90587466666667, "lon": -77.04109366666667, "is_reserved": 0, "fusion_lon": 0.0}, {"rental_uris": {"ios": "https://dc.lft.to/lastmile_qr_scan", "android": "https://dc.lft.to/lastmile_qr_scan"}, "fusion_lat": 0.0, "name": "ed83935fc085d78ba2ce11fd7f909e8c", "bike_id": "ed83935fc085d78ba2ce11fd7f909e8c", "is_disabled": 0, "type": "electric_scooter", "lat": 38.90581566666667, "lon": -77.04521683333333, "is_reserved": 0, "fusion_lon": 0.0}, {"rental_uris": {"ios": "https://dc.lft.to/lastmile_qr_scan", "android": "https://dc.lft.to/lastmile_qr_scan"}, "fusion_lat": 0.0, "name": "c8a66452d3fc015102b560c58b495c10", "bike_id": "c8a66452d3fc015102b560c58b495c10", "is_disabled": 0, "type": "electric_scooter", "lat": 38.89522316666667, "lon": -77.00204883333333, "is_reserved": 0, "fusion_lon": 0.0}, {"rental_uris": {"ios": "https://dc.lft.to/lastmile_qr_scan", "android": "https://dc.lft.to/lastmile_qr_scan"}, "fusion_lat": 0.0, "name": "5d70c4147a9f9db056d0443797f23984", "bike_id": "5d70c4147a9f9db056d0443797f23984", "is_disabled": 0, "type": "electric_scooter", "lat": 38.88671316666667, "lon": -77.01366933333334, "is_reserved": 0, "fusion_lon": 0.0}, {"rental_uris": {"ios": "https://dc.lft.to/lastmile_qr_scan", "android": "https://dc.lft.to/lastmile_qr_scan"}, "fusion_lat": 0.0, "name": "217995f564cd8a659388dfa895d28621", "bike_id": "217995f564cd8a659388dfa895d28621", "is_disabled": 0, "type": "electric_scooter", "lat": 38.917432, "lon": -77.023979, "is_reserved": 0, "fusion_lon": 0.0}, {"rental_uris": {"ios": "https://dc.lft.to/lastmile_qr_scan", "android": "https://dc.lft.to/lastmile_qr_scan"}, "fusion_lat": 0.0, "name": "e2a8dca0e25787abe1d0fa3f80ec75a7", "bike_id": "e2a8dca0e25787abe1d0fa3f80ec75a7", "is_disabled": 0, "type": "electric_scooter", "lat": 38.91490733333333, "lon": -77.04546766666667, "is_reserved": 0, "fusion_lon": 0.0}, {"rental_uris": {"ios": "https://dc.lft.to/lastmile_qr_scan", "android": "https://dc.lft.to/lastmile_qr_scan"}, "fusion_lat": 0.0, "name": "8da66a3e615c2735722a0a9046c5ca70", "bike_id": "8da66a3e615c2735722a0a9046c5ca70", "is_disabled": 0, "type": "electric_scooter", "lat": 38.917100833333336, "lon": -77.036742, "is_reserved": 0, "fusion_lon": 0.0}, {"rental_uris": {"ios": "https://dc.lft.to/lastmile_qr_scan", "android": "https://dc.lft.to/lastmile_qr_scan"}, "fusion_lat": 0.0, "name": "8c4afa3b2ea8a36ebcb31106f30e4f9d", "bike_id": "8c4afa3b2ea8a36ebcb31106f30e4f9d", "is_disabled": 0, "type": "electric_scooter", "lat": 38.93062483333333, "lon": -77.02980766666667, "is_reserved": 0, "fusion_lon": 0.0}, {"rental_uris": {"ios": "https://dc.lft.to/lastmile_qr_scan", "android": "https://dc.lft.to/lastmile_qr_scan"}, "fusion_lat": 0.0, "name": "2d53361f1e56bbece594281e4df750e1", "bike_id": "2d53361f1e56bbece594281e4df750e1", "is_disabled": 0, "type": "electric_scooter", "lat": 38.90397383333333, "lon": -77.034845, "is_reserved": 0, "fusion_lon": 0.0}, {"rental_uris": {"ios": "https://dc.lft.to/lastmile_qr_scan", "android": "https://dc.lft.to/lastmile_qr_scan"}, "fusion_lat": 0.0, "name": "7a5a88518f5783e93ab391a457659bb1", "bike_id": "7a5a88518f5783e93ab391a457659bb1", "is_disabled": 0, "type": "electric_scooter", "lat": 38.89809783333333, "lon": -77.04666466666667, "is_reserved": 0, "fusion_lon": 0.0}, {"rental_uris": {"ios": "https://dc.lft.to/lastmile_qr_scan", "android": "https://dc.lft.to/lastmile_qr_scan"}, "fusion_lat": 0.0, "name": "0c9866e39f9fdd594f492d1b5d05891d", "bike_id": "0c9866e39f9fdd594f492d1b5d05891d", "is_disabled": 0, "type": "electric_scooter", "lat": 38.91548366666667, "lon": -77.0417255, "is_reserved": 0, "fusion_lon": 0.0}, {"rental_uris": {"ios": "https://dc.lft.to/lastmile_qr_scan", "android": "https://dc.lft.to/lastmile_qr_scan"}, "fusion_lat": 0.0, "name": "59bd11cd434768547d0fb76f485e9b88", "bike_id": "59bd11cd434768547d0fb76f485e9b88", "is_disabled": 0, "type": "electric_scooter", "lat": 38.892225333333336, "lon": -77.03216233333333, "is_reserved": 0, "fusion_lon": 0.0}, {"rental_uris": {"ios": "https://dc.lft.to/lastmile_qr_scan", "android": "https://dc.lft.to/lastmile_qr_scan"}, "fusion_lat": 0.0, "name": "7bf8c733c3716458b77956925a0ecd6c", "bike_id": "7bf8c733c3716458b77956925a0ecd6c", "is_disabled": 0, "type": "electric_scooter", "lat": 38.95705733333333, "lon": -77.02392633333334, "is_reserved": 0, "fusion_lon": 0.0}, {"rental_uris": {"ios": "https://dc.lft.to/lastmile_qr_scan", "android": "https://dc.lft.to/lastmile_qr_scan"}, "fusion_lat": 0.0, "name": "8be943d717dd946bf4c706ca1d615ef8", "bike_id": "8be943d717dd946bf4c706ca1d615ef8", "is_disabled": 0, "type": "electric_scooter", "lat": 38.89921966666667, "lon": -77.028048, "is_reserved": 0, "fusion_lon": 0.0}, {"rental_uris": {"ios": "https://dc.lft.to/lastmile_qr_scan", "android": "https://dc.lft.to/lastmile_qr_scan"}, "fusion_lat": 0.0, "name": "7024211e15b41ed8344b19cf5a145500", "bike_id": "7024211e15b41ed8344b19cf5a145500", "is_disabled": 0, "type": "electric_scooter", "lat": 38.9052705, "lon": -77.04166283333333, "is_reserved": 0, "fusion_lon": 0.0}, {"rental_uris": {"ios": "https://dc.lft.to/lastmile_qr_scan", "android": "https://dc.lft.to/lastmile_qr_scan"}, "fusion_lat": 0.0, "name": "8a042951d07bab68bda9610b3ca5d01c", "bike_id": "8a042951d07bab68bda9610b3ca5d01c", "is_disabled": 0, "type": "electric_scooter", "lat": 38.90388516666667, "lon": -77.0322145, "is_reserved": 0, "fusion_lon": 0.0}, {"rental_uris": {"ios": "https://dc.lft.to/lastmile_qr_scan", "android": "https://dc.lft.to/lastmile_qr_scan"}, "fusion_lat": 0.0, "name": "e229303364a25d9ef0db2ffe629eacf7", "bike_id": "e229303364a25d9ef0db2ffe629eacf7", "is_disabled": 0, "type": "electric_scooter", "lat": 38.91901933333333, "lon": -77.020829, "is_reserved": 0, "fusion_lon": 0.0}, {"rental_uris": {"ios": "https://dc.lft.to/lastmile_qr_scan", "android": "https://dc.lft.to/lastmile_qr_scan"}, "fusion_lat": 0.0, "name": "920252ea83772547fb51130ea6d4419e", "bike_id": "920252ea83772547fb51130ea6d4419e", "is_disabled": 0, "type": "electric_scooter", "lat": 38.882636166666664, "lon": -77.00370783333334, "is_reserved": 0, "fusion_lon": 0.0}, {"rental_uris": {"ios": "https://dc.lft.to/lastmile_qr_scan", "android": "https://dc.lft.to/lastmile_qr_scan"}, "fusion_lat": 0.0, "name": "a0bb3a9e16c2d3c1a4df6922123b93ea", "bike_id": "a0bb3a9e16c2d3c1a4df6922123b93ea", "is_disabled": 0, "type": "electric_scooter", "lat": 38.90128583333333, "lon": -77.04892266666667, "is_reserved": 0, "fusion_lon": 0.0}, {"rental_uris": {"ios": "https://dc.lft.to/lastmile_qr_scan", "android": "https://dc.lft.to/lastmile_qr_scan"}, "fusion_lat": 0.0, "name": "d646fb62fb4938fc122e4caf67c1bc58", "bike_id": "d646fb62fb4938fc122e4caf67c1bc58", "is_disabled": 0, "type": "electric_scooter", "lat": 38.93962883333333, "lon": -77.0320675, "is_reserved": 0, "fusion_lon": 0.0}, {"rental_uris": {"ios": "https://dc.lft.to/lastmile_qr_scan", "android": "https://dc.lft.to/lastmile_qr_scan"}, "fusion_lat": 0.0, "name": "2f17edb8223329dbaa4c266590c0588b", "bike_id": "2f17edb8223329dbaa4c266590c0588b", "is_disabled": 0, "type": "electric_scooter", "lat": 38.88996616666667, "lon": -76.9541115, "is_reserved": 0, "fusion_lon": 0.0}, {"rental_uris": {"ios": "https://dc.lft.to/lastmile_qr_scan", "android": "https://dc.lft.to/lastmile_qr_scan"}, "fusion_lat": 0.0, "name": "29a9c46b68fab5a1fdf7ce69bd9baec1", "bike_id": "29a9c46b68fab5a1fdf7ce69bd9baec1", "is_disabled": 0, "type": "electric_scooter", "lat": 38.91592933333333, "lon": -77.0296715, "is_reserved": 0, "fusion_lon": 0.0}, {"rental_uris": {"ios": "https://dc.lft.to/lastmile_qr_scan", "android": "https://dc.lft.to/lastmile_qr_scan"}, "fusion_lat": 0.0, "name": "8f46565b529ccfa742076d68cbca851a", "bike_id": "8f46565b529ccfa742076d68cbca851a", "is_disabled": 0, "type": "electric_scooter", "lat": 38.9030125, "lon": -77.04175183333334, "is_reserved": 0, "fusion_lon": 0.0}, {"rental_uris": {"ios": "https://dc.lft.to/lastmile_qr_scan", "android": "https://dc.lft.to/lastmile_qr_scan"}, "fusion_lat": 0.0, "name": "ab3a9cb85c8ec156da2ed51a739521cf", "bike_id": "ab3a9cb85c8ec156da2ed51a739521cf", "is_disabled": 0, "type": "electric_scooter", "lat": 38.914208, "lon": -77.0449505, "is_reserved": 0, "fusion_lon": 0.0}, {"rental_uris": {"ios": "https://dc.lft.to/lastmile_qr_scan", "android": "https://dc.lft.to/lastmile_qr_scan"}, "fusion_lat": 0.0, "name": "790652fd2da25daeb6c4522dae598010", "bike_id": "790652fd2da25daeb6c4522dae598010", "is_disabled": 0, "type": "electric_scooter", "lat": 38.956482, "lon": -77.0329155, "is_reserved": 0, "fusion_lon": 0.0}, {"rental_uris": {"ios": "https://dc.lft.to/lastmile_qr_scan", "android": "https://dc.lft.to/lastmile_qr_scan"}, "fusion_lat": 0.0, "name": "264c00a78eb0874c5ca3ad9c26071d43", "bike_id": "264c00a78eb0874c5ca3ad9c26071d43", "is_disabled": 0, "type": "electric_scooter", "lat": 38.922538333333335, "lon": -77.03464883333334, "is_reserved": 0, "fusion_lon": 0.0}, {"rental_uris": {"ios": "https://dc.lft.to/lastmile_qr_scan", "android": "https://dc.lft.to/lastmile_qr_scan"}, "fusion_lat": 0.0, "name": "823460a1259d592671d1c137e31efd7c", "bike_id": "823460a1259d592671d1c137e31efd7c", "is_disabled": 0, "type": "electric_scooter", "lat": 38.912642166666664, "lon": -77.044704, "is_reserved": 0, "fusion_lon": 0.0}, {"rental_uris": {"ios": "https://dc.lft.to/lastmile_qr_scan", "android": "https://dc.lft.to/lastmile_qr_scan"}, "fusion_lat": 0.0, "name": "14b5d29d56ef4e5581036b6a9cbf26e6", "bike_id": "14b5d29d56ef4e5581036b6a9cbf26e6", "is_disabled": 0, "type": "electric_scooter", "lat": 38.91922483333333, "lon": -77.070445, "is_reserved": 0, "fusion_lon": 0.0}, {"rental_uris": {"ios": "https://dc.lft.to/lastmile_qr_scan", "android": "https://dc.lft.to/lastmile_qr_scan"}, "fusion_lat": 0.0, "name": "8c07ec8fac2e7ecce4657ca145dc060f", "bike_id": "8c07ec8fac2e7ecce4657ca145dc060f", "is_disabled": 0, "type": "electric_scooter", "lat": 38.923516666666664, "lon": -77.050223, "is_reserved": 0, "fusion_lon": 0.0}, {"rental_uris": {"ios": "https://dc.lft.to/lastmile_qr_scan", "android": "https://dc.lft.to/lastmile_qr_scan"}, "fusion_lat": 0.0, "name": "5929ca62da9b562cec1019266f12b36b", "bike_id": "5929ca62da9b562cec1019266f12b36b", "is_disabled": 0, "type": "electric_bike", "lat": 38.857875666666665, "lon": -77.099576, "is_reserved": 0, "fusion_lon": 0.0}, {"rental_uris": {"ios": "https://dc.lft.to/lastmile_qr_scan", "android": "https://dc.lft.to/lastmile_qr_scan"}, "fusion_lat": 0.0, "name": "61bd06048914439861e21a33c8db8c8f", "bike_id": "61bd06048914439861e21a33c8db8c8f", "is_disabled": 0, "type": "electric_bike", "lat": 38.8480105, "lon": -77.07515683333334, "is_reserved": 0, "fusion_lon": 0.0}, {"rental_uris": {"ios": "https://dc.lft.to/lastmile_qr_scan", "android": "https://dc.lft.to/lastmile_qr_scan"}, "fusion_lat": 0.0, "name": "d8e566130a75e15ccf39f58781b83a84", "bike_id": "d8e566130a75e15ccf39f58781b83a84", "is_disabled": 0, "type": "electric_scooter", "lat": 38.920525, "lon": -77.04193916666667, "is_reserved": 0, "fusion_lon": 0.0}, {"rental_uris": {"ios": "https://dc.lft.to/lastmile_qr_scan", "android": "https://dc.lft.to/lastmile_qr_scan"}, "fusion_lat": 0.0, "name": "05a0c3a496deb16ab7381c71d0ad72bc", "bike_id": "05a0c3a496deb16ab7381c71d0ad72bc", "is_disabled": 0, "type": "electric_scooter", "lat": 38.924536, "lon": -77.03385816666666, "is_reserved": 0, "fusion_lon": 0.0}, {"rental_uris": {"ios": "https://dc.lft.to/lastmile_qr_scan", "android": "https://dc.lft.to/lastmile_qr_scan"}, "fusion_lat": 0.0, "name": "414b0ee70e63df166bc665065cfe586a", "bike_id": "414b0ee70e63df166bc665065cfe586a", "is_disabled": 0, "type": "electric_scooter", "lat": 38.88716483333333, "lon": -77.0177875, "is_reserved": 0, "fusion_lon": 0.0}, {"rental_uris": {"ios": "https://dc.lft.to/lastmile_qr_scan", "android": "https://dc.lft.to/lastmile_qr_scan"}, "fusion_lat": 0.0, "name": "3c1f24244a36e946f1f5d662375dfb4b", "bike_id": "3c1f24244a36e946f1f5d662375dfb4b", "is_disabled": 0, "type": "electric_bike", "lat": 38.813266166666665, "lon": -77.05081133333333, "is_reserved": 0, "fusion_lon": 0.0}, {"rental_uris": {"ios": "https://dc.lft.to/lastmile_qr_scan", "android": "https://dc.lft.to/lastmile_qr_scan"}, "fusion_lat": 0.0, "name": "b1e5c29553e52f902cda4caeb850d2f2", "bike_id": "b1e5c29553e52f902cda4caeb850d2f2", "is_disabled": 0, "type": "electric_scooter", "lat": 38.890282, "lon": -76.9512815, "is_reserved": 0, "fusion_lon": 0.0}, {"rental_uris": {"ios": "https://dc.lft.to/lastmile_qr_scan", "android": "https://dc.lft.to/lastmile_qr_scan"}, "fusion_lat": 0.0, "name": "44df83561b3f980bee6e06b312902bb6", "bike_id": "44df83561b3f980bee6e06b312902bb6", "is_disabled": 0, "type": "electric_scooter", "lat": 38.91806733333333, "lon": -77.03205266666667, "is_reserved": 0, "fusion_lon": 0.0}, {"rental_uris": {"ios": "https://dc.lft.to/lastmile_qr_scan", "android": "https://dc.lft.to/lastmile_qr_scan"}, "fusion_lat": 0.0, "name": "8902eeb1f7215c8ceb44550accb78284", "bike_id": "8902eeb1f7215c8ceb44550accb78284", "is_disabled": 0, "type": "electric_scooter", "lat": 38.9084985, "lon": -76.99804133333333, "is_reserved": 0, "fusion_lon": 0.0}, {"rental_uris": {"ios": "https://dc.lft.to/lastmile_qr_scan", "android": "https://dc.lft.to/lastmile_qr_scan"}, "fusion_lat": 0.0, "name": "01df2618e487b6a66f83976c4e753e1a", "bike_id": "01df2618e487b6a66f83976c4e753e1a", "is_disabled": 0, "type": "electric_scooter", "lat": 38.88108233333333, "lon": -77.0165785, "is_reserved": 0, "fusion_lon": 0.0}, {"rental_uris": {"ios": "https://dc.lft.to/lastmile_qr_scan", "android": "https://dc.lft.to/lastmile_qr_scan"}, "fusion_lat": 0.0, "name": "33f97b39913bc9a02724430308a8585d", "bike_id": "33f97b39913bc9a02724430308a8585d", "is_disabled": 0, "type": "electric_scooter", "lat": 38.9097665, "lon": -77.03442183333334, "is_reserved": 0, "fusion_lon": 0.0}, {"rental_uris": {"ios": "https://dc.lft.to/lastmile_qr_scan", "android": "https://dc.lft.to/lastmile_qr_scan"}, "fusion_lat": 0.0, "name": "9c9bd98f87a64c23d8619811eaa34f75", "bike_id": "9c9bd98f87a64c23d8619811eaa34f75", "is_disabled": 0, "type": "electric_bike", "lat": 38.920554833333334, "lon": -76.99769933333333, "is_reserved": 0, "fusion_lon": 0.0}, {"rental_uris": {"ios": "https://dc.lft.to/lastmile_qr_scan", "android": "https://dc.lft.to/lastmile_qr_scan"}, "fusion_lat": 0.0, "name": "82f519df05dd4c2fe86309ef2d6ce985", "bike_id": "82f519df05dd4c2fe86309ef2d6ce985", "is_disabled": 0, "type": "electric_bike", "lat": 38.95955383333333, "lon": -77.10091716666666, "is_reserved": 0, "fusion_lon": 0.0}, {"rental_uris": {"ios": "https://dc.lft.to/lastmile_qr_scan", "android": "https://dc.lft.to/lastmile_qr_scan"}, "fusion_lat": 0.0, "name": "cf631ab6eda06935169f3831eed52331", "bike_id": "cf631ab6eda06935169f3831eed52331", "is_disabled": 0, "type": "electric_scooter", "lat": 38.9174325, "lon": -77.02395083333333, "is_reserved": 0, "fusion_lon": 0.0}, {"rental_uris": {"ios": "https://dc.lft.to/lastmile_qr_scan", "android": "https://dc.lft.to/lastmile_qr_scan"}, "fusion_lat": 0.0, "name": "be7b6c89cd40a7daef9c901c4be87cf2", "bike_id": "be7b6c89cd40a7daef9c901c4be87cf2", "is_disabled": 0, "type": "electric_scooter", "lat": 38.895167666666666, "lon": -77.02811616666666, "is_reserved": 0, "fusion_lon": 0.0}, {"rental_uris": {"ios": "https://dc.lft.to/lastmile_qr_scan", "android": "https://dc.lft.to/lastmile_qr_scan"}, "fusion_lat": 0.0, "name": "81bc263c30945d3123d0057c5b5bc44b", "bike_id": "81bc263c30945d3123d0057c5b5bc44b", "is_disabled": 0, "type": "electric_scooter", "lat": 38.949568166666666, "lon": -77.02722633333333, "is_reserved": 0, "fusion_lon": 0.0}, {"rental_uris": {"ios": "https://dc.lft.to/lastmile_qr_scan", "android": "https://dc.lft.to/lastmile_qr_scan"}, "fusion_lat": 0.0, "name": "6260ea03ad171063c6ceebc1b4802681", "bike_id": "6260ea03ad171063c6ceebc1b4802681", "is_disabled": 0, "type": "electric_scooter", "lat": 38.91546566666667, "lon": -77.02114233333333, "is_reserved": 0, "fusion_lon": 0.0}, {"rental_uris": {"ios": "https://dc.lft.to/lastmile_qr_scan", "android": "https://dc.lft.to/lastmile_qr_scan"}, "fusion_lat": 0.0, "name": "6a8c2e3618322d90b6d9f26c49fc240c", "bike_id": "6a8c2e3618322d90b6d9f26c49fc240c", "is_disabled": 0, "type": "electric_scooter", "lat": 38.906285, "lon": -77.00607216666667, "is_reserved": 0, "fusion_lon": 0.0}, {"rental_uris": {"ios": "https://dc.lft.to/lastmile_qr_scan", "android": "https://dc.lft.to/lastmile_qr_scan"}, "fusion_lat": 0.0, "name": "399b1e8aaff54117d525dcd0e88153fe", "bike_id": "399b1e8aaff54117d525dcd0e88153fe", "is_disabled": 0, "type": "electric_scooter", "lat": 38.91225983333333, "lon": -77.03200233333334, "is_reserved": 0, "fusion_lon": 0.0}, {"rental_uris": {"ios": "https://dc.lft.to/lastmile_qr_scan", "android": "https://dc.lft.to/lastmile_qr_scan"}, "fusion_lat": 0.0, "name": "14c72b5ae0a44d411a0945cf41b87599", "bike_id": "14c72b5ae0a44d411a0945cf41b87599", "is_disabled": 0, "type": "electric_scooter", "lat": 38.90252616666667, "lon": -77.01738983333334, "is_reserved": 0, "fusion_lon": 0.0}, {"rental_uris": {"ios": "https://dc.lft.to/lastmile_qr_scan", "android": "https://dc.lft.to/lastmile_qr_scan"}, "fusion_lat": 0.0, "name": "d1d49074f0b6be5671d204346e15643e", "bike_id": "d1d49074f0b6be5671d204346e15643e", "is_disabled": 0, "type": "electric_scooter", "lat": 38.90237283333333, "lon": -77.03423316666667, "is_reserved": 0, "fusion_lon": 0.0}, {"rental_uris": {"ios": "https://dc.lft.to/lastmile_qr_scan", "android": "https://dc.lft.to/lastmile_qr_scan"}, "fusion_lat": 0.0, "name": "181ed51c2c86618b9ddf2a1fcbb437c3", "bike_id": "181ed51c2c86618b9ddf2a1fcbb437c3", "is_disabled": 0, "type": "electric_scooter", "lat": 38.905874833333336, "lon": -77.00607166666667, "is_reserved": 0, "fusion_lon": 0.0}, {"rental_uris": {"ios": "https://dc.lft.to/lastmile_qr_scan", "android": "https://dc.lft.to/lastmile_qr_scan"}, "fusion_lat": 0.0, "name": "ed5c7b2b7ad40791603d2304314ca3b4", "bike_id": "ed5c7b2b7ad40791603d2304314ca3b4", "is_disabled": 0, "type": "electric_scooter", "lat": 38.89220733333333, "lon": -77.02653083333334, "is_reserved": 0, "fusion_lon": 0.0}, {"rental_uris": {"ios": "https://dc.lft.to/lastmile_qr_scan", "android": "https://dc.lft.to/lastmile_qr_scan"}, "fusion_lat": 0.0, "name": "4fa5b78d51bcd5517a7279fed4950cd3", "bike_id": "4fa5b78d51bcd5517a7279fed4950cd3", "is_disabled": 0, "type": "electric_scooter", "lat": 38.91323633333333, "lon": -77.03259283333334, "is_reserved": 0, "fusion_lon": 0.0}, {"rental_uris": {"ios": "https://dc.lft.to/lastmile_qr_scan", "android": "https://dc.lft.to/lastmile_qr_scan"}, "fusion_lat": 0.0, "name": "e1a26ba6a08fead8ccf2f9535d527350", "bike_id": "e1a26ba6a08fead8ccf2f9535d527350", "is_disabled": 0, "type": "electric_scooter", "lat": 38.892223333333334, "lon": -77.0468335, "is_reserved": 0, "fusion_lon": 0.0}, {"rental_uris": {"ios": "https://dc.lft.to/lastmile_qr_scan", "android": "https://dc.lft.to/lastmile_qr_scan"}, "fusion_lat": 0.0, "name": "60582e1b8e1f84daddb9d66014005b48", "bike_id": "60582e1b8e1f84daddb9d66014005b48", "is_disabled": 0, "type": "electric_scooter", "lat": 38.94089, "lon": -77.02720316666667, "is_reserved": 0, "fusion_lon": 0.0}, {"rental_uris": {"ios": "https://dc.lft.to/lastmile_qr_scan", "android": "https://dc.lft.to/lastmile_qr_scan"}, "fusion_lat": 0.0, "name": "fbfc78aa5895a124654dffa6500855ea", "bike_id": "fbfc78aa5895a124654dffa6500855ea", "is_disabled": 0, "type": "electric_scooter", "lat": 38.934561, "lon": -77.03869233333333, "is_reserved": 0, "fusion_lon": 0.0}, {"rental_uris": {"ios": "https://dc.lft.to/lastmile_qr_scan", "android": "https://dc.lft.to/lastmile_qr_scan"}, "fusion_lat": 0.0, "name": "f1b5b0ddc061656eb07676c4bc70c720", "bike_id": "f1b5b0ddc061656eb07676c4bc70c720", "is_disabled": 0, "type": "electric_scooter", "lat": 38.90916383333333, "lon": -77.04320966666667, "is_reserved": 0, "fusion_lon": 0.0}, {"rental_uris": {"ios": "https://dc.lft.to/lastmile_qr_scan", "android": "https://dc.lft.to/lastmile_qr_scan"}, "fusion_lat": 0.0, "name": "19680975875b4f320a67622852bbcdf1", "bike_id": "19680975875b4f320a67622852bbcdf1", "is_disabled": 0, "type": "electric_scooter", "lat": 38.90679033333333, "lon": -77.02694916666667, "is_reserved": 0, "fusion_lon": 0.0}, {"rental_uris": {"ios": "https://dc.lft.to/lastmile_qr_scan", "android": "https://dc.lft.to/lastmile_qr_scan"}, "fusion_lat": 0.0, "name": "cc3bc446d8cc5605426786a5028b7a56", "bike_id": "cc3bc446d8cc5605426786a5028b7a56", "is_disabled": 0, "type": "electric_scooter", "lat": 38.942901166666665, "lon": -77.02171566666667, "is_reserved": 0, "fusion_lon": 0.0}, {"rental_uris": {"ios": "https://dc.lft.to/lastmile_qr_scan", "android": "https://dc.lft.to/lastmile_qr_scan"}, "fusion_lat": 0.0, "name": "68c26df0a179d485ea661a8d86887c62", "bike_id": "68c26df0a179d485ea661a8d86887c62", "is_disabled": 0, "type": "electric_scooter", "lat": 38.88738933333333, "lon": -77.026222, "is_reserved": 0, "fusion_lon": 0.0}, {"rental_uris": {"ios": "https://dc.lft.to/lastmile_qr_scan", "android": "https://dc.lft.to/lastmile_qr_scan"}, "fusion_lat": 0.0, "name": "e32332dc5a9fac46aeaaf4ee151e4efa", "bike_id": "e32332dc5a9fac46aeaaf4ee151e4efa", "is_disabled": 0, "type": "electric_bike", "lat": 38.861666666666665, "lon": -77.1314405, "is_reserved": 0, "fusion_lon": 0.0}, {"rental_uris": {"ios": "https://dc.lft.to/lastmile_qr_scan", "android": "https://dc.lft.to/lastmile_qr_scan"}, "fusion_lat": 0.0, "name": "62da79e4e6658bf7534bb8caa78b18ca", "bike_id": "62da79e4e6658bf7534bb8caa78b18ca", "is_disabled": 0, "type": "electric_scooter", "lat": 38.86535116666667, "lon": -76.98704716666667, "is_reserved": 0, "fusion_lon": 0.0}, {"rental_uris": {"ios": "https://dc.lft.to/lastmile_qr_scan", "android": "https://dc.lft.to/lastmile_qr_scan"}, "fusion_lat": 0.0, "name": "16fc652bb5e73bf842151740456e40f2", "bike_id": "16fc652bb5e73bf842151740456e40f2", "is_disabled": 0, "type": "electric_scooter", "lat": 38.90499533333333, "lon": -77.05011683333333, "is_reserved": 0, "fusion_lon": 0.0}, {"rental_uris": {"ios": "https://dc.lft.to/lastmile_qr_scan", "android": "https://dc.lft.to/lastmile_qr_scan"}, "fusion_lat": 0.0, "name": "087f9b41666c6ec1b60996ac0b737bc3", "bike_id": "087f9b41666c6ec1b60996ac0b737bc3", "is_disabled": 0, "type": "electric_bike", "lat": 38.949633666666664, "lon": -77.0663985, "is_reserved": 0, "fusion_lon": 0.0}, {"rental_uris": {"ios": "https://dc.lft.to/lastmile_qr_scan", "android": "https://dc.lft.to/lastmile_qr_scan"}, "fusion_lat": 0.0, "name": "39f22a7b478c2ffc0851e1d037516ff3", "bike_id": "39f22a7b478c2ffc0851e1d037516ff3", "is_disabled": 0, "type": "electric_scooter", "lat": 38.885227666666665, "lon": -77.011337, "is_reserved": 0, "fusion_lon": 0.0}, {"rental_uris": {"ios": "https://dc.lft.to/lastmile_qr_scan", "android": "https://dc.lft.to/lastmile_qr_scan"}, "fusion_lat": 0.0, "name": "ac72a3404cd3f2177a9da659842ffc5d", "bike_id": "ac72a3404cd3f2177a9da659842ffc5d", "is_disabled": 0, "type": "electric_scooter", "lat": 38.921484166666666, "lon": -77.0350525, "is_reserved": 0, "fusion_lon": 0.0}, {"rental_uris": {"ios": "https://dc.lft.to/lastmile_qr_scan", "android": "https://dc.lft.to/lastmile_qr_scan"}, "fusion_lat": 0.0, "name": "9d8e2ec03d77a0cc0d4d6a12ad540954", "bike_id": "9d8e2ec03d77a0cc0d4d6a12ad540954", "is_disabled": 0, "type": "electric_bike", "lat": 38.91783683333333, "lon": -76.97184533333333, "is_reserved": 0, "fusion_lon": 0.0}, {"rental_uris": {"ios": "https://dc.lft.to/lastmile_qr_scan", "android": "https://dc.lft.to/lastmile_qr_scan"}, "fusion_lat": 0.0, "name": "ebcdbcb388d8d9e59ad576f16cbc229d", "bike_id": "ebcdbcb388d8d9e59ad576f16cbc229d", "is_disabled": 0, "type": "electric_scooter", "lat": 38.941821166666664, "lon": -77.0249015, "is_reserved": 0, "fusion_lon": 0.0}, {"rental_uris": {"ios": "https://dc.lft.to/lastmile_qr_scan", "android": "https://dc.lft.to/lastmile_qr_scan"}, "fusion_lat": 0.0, "name": "0f758a359db7310b8f880d56bef59d10", "bike_id": "0f758a359db7310b8f880d56bef59d10", "is_disabled": 0, "type": "electric_scooter", "lat": 38.91615316666667, "lon": -77.0416175, "is_reserved": 0, "fusion_lon": 0.0}, {"rental_uris": {"ios": "https://dc.lft.to/lastmile_qr_scan", "android": "https://dc.lft.to/lastmile_qr_scan"}, "fusion_lat": 0.0, "name": "54b8857d20c3d99070c28305eb0931d4", "bike_id": "54b8857d20c3d99070c28305eb0931d4", "is_disabled": 0, "type": "electric_scooter", "lat": 38.9365885, "lon": -77.0550025, "is_reserved": 0, "fusion_lon": 0.0}, {"rental_uris": {"ios": "https://dc.lft.to/lastmile_qr_scan", "android": "https://dc.lft.to/lastmile_qr_scan"}, "fusion_lat": 0.0, "name": "a48ac55d92bdce95ffa1239a238b0144", "bike_id": "a48ac55d92bdce95ffa1239a238b0144", "is_disabled": 0, "type": "electric_scooter", "lat": 38.891938333333336, "lon": -77.02410583333334, "is_reserved": 0, "fusion_lon": 0.0}, {"rental_uris": {"ios": "https://dc.lft.to/lastmile_qr_scan", "android": "https://dc.lft.to/lastmile_qr_scan"}, "fusion_lat": 0.0, "name": "3e23260b4e93583ab7e88e7c630577e1", "bike_id": "3e23260b4e93583ab7e88e7c630577e1", "is_disabled": 0, "type": "electric_scooter", "lat": 38.89473266666667, "lon": -77.0310015, "is_reserved": 0, "fusion_lon": 0.0}, {"rental_uris": {"ios": "https://dc.lft.to/lastmile_qr_scan", "android": "https://dc.lft.to/lastmile_qr_scan"}, "fusion_lat": 0.0, "name": "a85612bef9d12ec8f1c93435d8b9a1ff", "bike_id": "a85612bef9d12ec8f1c93435d8b9a1ff", "is_disabled": 0, "type": "electric_scooter", "lat": 38.89497983333333, "lon": -76.94873383333334, "is_reserved": 0, "fusion_lon": 0.0}, {"rental_uris": {"ios": "https://dc.lft.to/lastmile_qr_scan", "android": "https://dc.lft.to/lastmile_qr_scan"}, "fusion_lat": 0.0, "name": "c4c9a0f983c55035ec126ed83f5e2b77", "bike_id": "c4c9a0f983c55035ec126ed83f5e2b77", "is_disabled": 0, "type": "electric_scooter", "lat": 38.921329666666665, "lon": -77.0190965, "is_reserved": 0, "fusion_lon": 0.0}, {"rental_uris": {"ios": "https://dc.lft.to/lastmile_qr_scan", "android": "https://dc.lft.to/lastmile_qr_scan"}, "fusion_lat": 0.0, "name": "4000d0b7099143089ab318251052eb23", "bike_id": "4000d0b7099143089ab318251052eb23", "is_disabled": 0, "type": "electric_scooter", "lat": 38.934844166666664, "lon": -77.07274833333334, "is_reserved": 0, "fusion_lon": 0.0}, {"rental_uris": {"ios": "https://dc.lft.to/lastmile_qr_scan", "android": "https://dc.lft.to/lastmile_qr_scan"}, "fusion_lat": 0.0, "name": "e85c7e6b38904e23491193eeb2e0e616", "bike_id": "e85c7e6b38904e23491193eeb2e0e616", "is_disabled": 0, "type": "electric_bike", "lat": 38.838601, "lon": -76.9969445, "is_reserved": 0, "fusion_lon": 0.0}, {"rental_uris": {"ios": "https://dc.lft.to/lastmile_qr_scan", "android": "https://dc.lft.to/lastmile_qr_scan"}, "fusion_lat": 0.0, "name": "fc6a3e0a822f20cfe83ad55a15adc56b", "bike_id": "fc6a3e0a822f20cfe83ad55a15adc56b", "is_disabled": 0, "type": "electric_scooter", "lat": 38.856720833333334, "lon": -76.9817495, "is_reserved": 0, "fusion_lon": 0.0}, {"rental_uris": {"ios": "https://dc.lft.to/lastmile_qr_scan", "android": "https://dc.lft.to/lastmile_qr_scan"}, "fusion_lat": 0.0, "name": "cf46202b25740fd4ca7e4f66379ad846", "bike_id": "cf46202b25740fd4ca7e4f66379ad846", "is_disabled": 0, "type": "electric_scooter", "lat": 38.926743333333334, "lon": -77.01518066666667, "is_reserved": 0, "fusion_lon": 0.0}, {"rental_uris": {"ios": "https://dc.lft.to/lastmile_qr_scan", "android": "https://dc.lft.to/lastmile_qr_scan"}, "fusion_lat": 0.0, "name": "7e589d3a49e64bca18ab67e9709c83fe", "bike_id": "7e589d3a49e64bca18ab67e9709c83fe", "is_disabled": 0, "type": "electric_scooter", "lat": 38.91809816666667, "lon": -77.0271365, "is_reserved": 0, "fusion_lon": 0.0}, {"rental_uris": {"ios": "https://dc.lft.to/lastmile_qr_scan", "android": "https://dc.lft.to/lastmile_qr_scan"}, "fusion_lat": 0.0, "name": "f1e3628901123bbf584254b932867d14", "bike_id": "f1e3628901123bbf584254b932867d14", "is_disabled": 0, "type": "electric_scooter", "lat": 38.892180833333335, "lon": -77.02222833333333, "is_reserved": 0, "fusion_lon": 0.0}, {"rental_uris": {"ios": "https://dc.lft.to/lastmile_qr_scan", "android": "https://dc.lft.to/lastmile_qr_scan"}, "fusion_lat": 0.0, "name": "c2c4a538a474b6c2f0e7d89221849bf8", "bike_id": "c2c4a538a474b6c2f0e7d89221849bf8", "is_disabled": 0, "type": "electric_scooter", "lat": 38.929318333333335, "lon": -77.037596, "is_reserved": 0, "fusion_lon": 0.0}, {"rental_uris": {"ios": "https://dc.lft.to/lastmile_qr_scan", "android": "https://dc.lft.to/lastmile_qr_scan"}, "fusion_lat": 0.0, "name": "979ae9fc77c43e8f68d4d29ffb15cc55", "bike_id": "979ae9fc77c43e8f68d4d29ffb15cc55", "is_disabled": 0, "type": "electric_scooter", "lat": 38.91803316666667, "lon": -77.04159066666666, "is_reserved": 0, "fusion_lon": 0.0}, {"rental_uris": {"ios": "https://dc.lft.to/lastmile_qr_scan", "android": "https://dc.lft.to/lastmile_qr_scan"}, "fusion_lat": 0.0, "name": "4236e20c5517f20e9126807d501e478d", "bike_id": "4236e20c5517f20e9126807d501e478d", "is_disabled": 0, "type": "electric_scooter", "lat": 38.9068235, "lon": -77.0271515, "is_reserved": 0, "fusion_lon": 0.0}, {"rental_uris": {"ios": "https://dc.lft.to/lastmile_qr_scan", "android": "https://dc.lft.to/lastmile_qr_scan"}, "fusion_lat": 0.0, "name": "b308fb493255c54e92b6adad49a86fd6", "bike_id": "b308fb493255c54e92b6adad49a86fd6", "is_disabled": 0, "type": "electric_scooter", "lat": 38.91743966666667, "lon": -77.02399583333333, "is_reserved": 0, "fusion_lon": 0.0}, {"rental_uris": {"ios": "https://dc.lft.to/lastmile_qr_scan", "android": "https://dc.lft.to/lastmile_qr_scan"}, "fusion_lat": 0.0, "name": "1bb85c0a92d3e5b8d33d1beb5d61d2bc", "bike_id": "1bb85c0a92d3e5b8d33d1beb5d61d2bc", "is_disabled": 0, "type": "electric_scooter", "lat": 38.90132333333333, "lon": -77.04290533333334, "is_reserved": 0, "fusion_lon": 0.0}, {"rental_uris": {"ios": "https://dc.lft.to/lastmile_qr_scan", "android": "https://dc.lft.to/lastmile_qr_scan"}, "fusion_lat": 0.0, "name": "c94af3485d1b5bfca10482f4b91d5f60", "bike_id": "c94af3485d1b5bfca10482f4b91d5f60", "is_disabled": 0, "type": "electric_scooter", "lat": 38.91568183333333, "lon": -77.01199633333333, "is_reserved": 0, "fusion_lon": 0.0}, {"rental_uris": {"ios": "https://dc.lft.to/lastmile_qr_scan", "android": "https://dc.lft.to/lastmile_qr_scan"}, "fusion_lat": 0.0, "name": "ea1ffcc2ebdb3707c6a15c00058415dc", "bike_id": "ea1ffcc2ebdb3707c6a15c00058415dc", "is_disabled": 0, "type": "electric_scooter", "lat": 38.921346, "lon": -77.00843533333334, "is_reserved": 0, "fusion_lon": 0.0}, {"rental_uris": {"ios": "https://dc.lft.to/lastmile_qr_scan", "android": "https://dc.lft.to/lastmile_qr_scan"}, "fusion_lat": 0.0, "name": "17e5e7e161dcdf9b7f995cc86404e1fb", "bike_id": "17e5e7e161dcdf9b7f995cc86404e1fb", "is_disabled": 0, "type": "electric_scooter", "lat": 38.9205725, "lon": -77.0419365, "is_reserved": 0, "fusion_lon": 0.0},