{"data": {"bikes": [{"bike_id": "5d5ba903a39c0dccb30e46718db38250", "lat": 38.90646516666666, "is_reserved": 0, "fusion_lat": 0.0, "rental_uris": {"android": "https://dc.lft.to/lastmile_qr_scan", "ios": "https://dc.lft.to/lastmile_qr_scan"}, "fusion_lon": 0.0, "name": "5d5ba903a39c0dccb30e46718db38250", "lon": -77.01789616666667, "is_disabled": 0, "type": "electric_scooter"}, {"bike_id": "3bc1adcae4f940b00461a893c7ad8330", "lat": 38.91818, "is_reserved": 0, "fusion_lat": 0.0, "rental_uris": {"android": "https://dc.lft.to/lastmile_qr_scan", "ios": "https://dc.lft.to/lastmile_qr_scan"}, "fusion_lon": 0.0, "name": "3bc1adcae4f940b00461a893c7ad8330", "lon": -77.0025755, "is_disabled": 0, "type": "electric_scooter"}, {"bike_id": "afae44da329c1e3fb4118f25bd202683", "lat": 38.89210766666667, "is_reserved": 0, "fusion_lat": 0.0, "rental_uris": {"android": "https://dc.lft.to/lastmile_qr_scan", "ios": "https://dc.lft.to/lastmile_qr_scan"}, "fusion_lon": 0.0, "name": "afae44da329c1e3fb4118f25bd202683", "lon": -76.9763915, "is_disabled": 0, "type": "electric_bike"}, {"bike_id": "b0ed46f3ead64d060ed64c8f181a8c24", "lat": 38.93002083333333, "is_reserved": 0, "fusion_lat": 0.0, "rental_uris": {"android": "https://dc.lft.to/lastmile_qr_scan", "ios": "https://dc.lft.to/lastmile_qr_scan"}, "fusion_lon": 0.0, "name": "b0ed46f3ead64d060ed64c8f181a8c24", "lon": -77.01302516666667, "is_disabled": 0, "type": "electric_scooter"}, {"bike_id": "29432a6dbf9be0f3a6565b69add566b3", "lat": 38.89649633333333, "is_reserved": 0, "fusion_lat": 0.0, "rental_uris": {"android": "https://dc.lft.to/lastmile_qr_scan", "ios": "https://dc.lft.to/lastmile_qr_scan"}, "fusion_lon": 0.0, "name": "29432a6dbf9be0f3a6565b69add566b3", "lon": -77.02824716666667, "is_disabled": 0, "type": "electric_scooter"}, {"bike_id": "2f953b0aa5f91b95a6978bd09311a4b5", "lat": 38.92314183333333, "is_reserved": 0, "fusion_lat": 0.0, "rental_uris": {"android": "https://dc.lft.to/lastmile_qr_scan", "ios": "https://dc.lft.to/lastmile_qr_scan"}, "fusion_lon": 0.0, "name": "2f953b0aa5f91b95a6978bd09311a4b5", "lon": -77.0297505, "is_disabled": 0, "type": "electric_scooter"}, {"bike_id": "6caee2abfa9ad2570227376ec7db827e", "lat": 38.902231, "is_reserved": 0, "fusion_lat": 0.0, "rental_uris": {"android": "https://dc.lft.to/lastmile_qr_scan", "ios": "https://dc.lft.to/lastmile_qr_scan"}, "fusion_lon": 0.0, "name": "6caee2abfa9ad2570227376ec7db827e", "lon": -77.01998583333334, "is_disabled": 0, "type": "electric_scooter"}, {"bike_id": "b82c4aaed641b33c90aaedae58b1200e", "lat": 38.885143, "is_reserved": 0, "fusion_lat": 0.0, "rental_uris": {"android": "https://dc.lft.to/lastmile_qr_scan", "ios": "https://dc.lft.to/lastmile_qr_scan"}, "fusion_lon": 0.0, "name": "b82c4aaed641b33c90aaedae58b1200e", "lon": -77.01713066666667, "is_disabled": 0, "type": "electric_scooter"}, {"bike_id": "4888b3a7165c14403e7ef704ada921d3", "lat": 38.90263366666667, "is_reserved": 0, "fusion_lat": 0.0, "rental_uris": {"android": "https://dc.lft.to/lastmile_qr_scan", "ios": "https://dc.lft.to/lastmile_qr_scan"}, "fusion_lon": 0.0, "name": "4888b3a7165c14403e7ef704ada921d3", "lon": -77.04589566666667, "is_disabled": 0, "type": "electric_scooter"}, {"bike_id": "e3e6d867d8cb2be5e708b0df62b42ab6", "lat": 38.93777033333333, "is_reserved": 0, "fusion_lat": 0.0, "rental_uris": {"android": "https://dc.lft.to/lastmile_qr_scan", "ios": "https://dc.lft.to/lastmile_qr_scan"}, "fusion_lon": 0.0, "name": "e3e6d867d8cb2be5e708b0df62b42ab6", "lon": -77.036364, "is_disabled": 0, "type": "electric_scooter"}, {"bike_id": "a68cc034cca0d3c514fecfcd674f1467", "lat": 38.900799666666664, "is_reserved": 0, "fusion_lat": 0.0, "rental_uris": {"android": "https://dc.lft.to/lastmile_qr_scan", "ios": "https://dc.lft.to/lastmile_qr_scan"}, "fusion_lon": 0.0, "name": "a68cc034cca0d3c514fecfcd674f1467", "lon": -77.01231716666666, "is_disabled": 0, "type": "electric_scooter"}, {"bike_id": "9802ec30812e03fd50e805651c8d5942", "lat": 38.924719333333336, "is_reserved": 0, "fusion_lat": 0.0, "rental_uris": {"android": "https://dc.lft.to/lastmile_qr_scan", "ios": "https://dc.lft.to/lastmile_qr_scan"}, "fusion_lon": 0.0, "name": "9802ec30812e03fd50e805651c8d5942", "lon": -77.03789583333334, "is_disabled": 0, "type": "electric_scooter"}, {"bike_id": "ff006f875d0a3ec6310478948b229a66", "lat": 38.900895, "is_reserved": 0, "fusion_lat": 0.0, "rental_uris": {"android": "https://dc.lft.to/lastmile_qr_scan", "ios": "https://dc.lft.to/lastmile_qr_scan"}, "fusion_lon": 0.0, "name": "ff006f875d0a3ec6310478948b229a66", "lon": -77.0502315, "is_disabled": 0, "type": "electric_scooter"}, {"bike_id": "afb2c3207d5b82da41ed8538814a410a", "lat": 38.875372, "is_reserved": 0, "fusion_lat": 0.0, "rental_uris": {"android": "https://dc.lft.to/lastmile_qr_scan", "ios": "https://dc.lft.to/lastmile_qr_scan"}, "fusion_lon": 0.0, "name": "afb2c3207d5b82da41ed8538814a410a", "lon": -77.0059315, "is_disabled": 0, "type": "electric_scooter"}, {"bike_id": "fdd807482b31561e3290118f94d4031c", "lat": 38.924946166666665, "is_reserved": 0, "fusion_lat": 0.0, "rental_uris": {"android": "https://dc.lft.to/lastmile_qr_scan", "ios": "https://dc.lft.to/lastmile_qr_scan"}, "fusion_lon": 0.0, "name": "fdd807482b31561e3290118f94d4031c", "lon": -77.03176033333334, "is_disabled": 0, "type": "electric_scooter"}, {"bike_id": "93e8326549c540c5228eab5666f8797b", "lat": 38.98767216666667, "is_reserved": 0, "fusion_lat": 0.0, "rental_uris": {"android": "https://dc.lft.to/lastmile_qr_scan", "ios": "https://dc.lft.to/lastmile_qr_scan"}, "fusion_lon": 0.0, "name": "93e8326549c540c5228eab5666f8797b", "lon": -77.140595, "is_disabled": 0, "type": "electric_bike"}, {"bike_id": "78252164313bef536f8ba03fde7572be", "lat": 38.923297833333336, "is_reserved": 0, "fusion_lat": 0.0, "rental_uris": {"android": "https://dc.lft.to/lastmile_qr_scan", "ios": "https://dc.lft.to/lastmile_qr_scan"}, "fusion_lon": 0.0, "name": "78252164313bef536f8ba03fde7572be", "lon": -77.0089135, "is_disabled": 0, "type": "electric_scooter"}, {"bike_id": "e73434742e27da0050a223fb5f7225c8", "lat": 38.91657166666667, "is_reserved": 0, "fusion_lat": 0.0, "rental_uris": {"android": "https://dc.lft.to/lastmile_qr_scan", "ios": "https://dc.lft.to/lastmile_qr_scan"}, "fusion_lon": 0.0, "name": "e73434742e27da0050a223fb5f7225c8", "lon": -76.97915333333333, "is_disabled": 0, "type": "electric_scooter"}, {"bike_id": "fde3f1e034a6ea971c76566aab75a81c", "lat": 38.918456, "is_reserved": 0, "fusion_lat": 0.0, "rental_uris": {"android": "https://dc.lft.to/lastmile_qr_scan", "ios": "https://dc.lft.to/lastmile_qr_scan"}, "fusion_lon": 0.0, "name": "fde3f1e034a6ea971c76566aab75a81c", "lon": -77.03179133333333, "is_disabled": 0, "type": "electric_scooter"}, {"bike_id": "a83078a7d8b69d36dc9f9d8b98d672dd", "lat": 38.924153, "is_reserved": 0, "fusion_lat": 0.0, "rental_uris": {"android": "https://dc.lft.to/lastmile_qr_scan", "ios": "https://dc.lft.to/lastmile_qr_scan"}, "fusion_lon": 0.0, "name": "a83078a7d8b69d36dc9f9d8b98d672dd", "lon": -77.02035116666667, "is_disabled": 0, "type": "electric_scooter"}, {"bike_id": "ab94b3ae5be3b3078b1c9185f96394a6", "lat": 38.92665483333333, "is_reserved": 0, "fusion_lat": 0.0, "rental_uris": {"android": "https://dc.lft.to/lastmile_qr_scan", "ios": "https://dc.lft.to/lastmile_qr_scan"}, "fusion_lon": 0.0, "name": "ab94b3ae5be3b3078b1c9185f96394a6", "lon": -77.01494933333333, "is_disabled": 0, "type": "electric_scooter"}, {"bike_id": "db55d4bc2f142654520a2382aa99eb0e", "lat": 38.92028333333333, "is_reserved": 0, "fusion_lat": 0.0, "rental_uris": {"android": "https://dc.lft.to/lastmile_qr_scan", "ios": "https://dc.lft.to/lastmile_qr_scan"}, "fusion_lon": 0.0, "name": "db55d4bc2f142654520a2382aa99eb0e", "lon": -77.00305816666666, "is_disabled": 0, "type": "electric_scooter"}, {"bike_id": "c99c1965944dc15b3ef6ef63a58aae55", "lat": 38.884933333333336, "is_reserved": 0, "fusion_lat": 0.0, "rental_uris": {"android": "https://dc.lft.to/lastmile_qr_scan", "ios": "https://dc.lft.to/lastmile_qr_scan"}, "fusion_lon": 0.0, "name": "c99c1965944dc15b3ef6ef63a58aae55", "lon": -77.00725583333333, "is_disabled": 0, "type": "electric_scooter"}, {"bike_id": "602e3ed88b3be898f2461c8e8630cb56", "lat": 38.892207166666665, "is_reserved": 0, "fusion_lat": 0.0, "rental_uris": {"android": "https://dc.lft.to/lastmile_qr_scan", "ios": "https://dc.lft.to/lastmile_qr_scan"}, "fusion_lon": 0.0, "name": "602e3ed88b3be898f2461c8e8630cb56", "lon": -77.024519, "is_disabled": 0, "type": "electric_scooter"}, {"bike_id": "7a17a12affdc3f5140bf1ec0f5aa412d", "lat": 38.955679833333335, "is_reserved": 0, "fusion_lat": 0.0, "rental_uris": {"android": "https://dc.lft.to/lastmile_qr_scan", "ios": "https://dc.lft.to/lastmile_qr_scan"}, "fusion_lon": 0.0, "name": "7a17a12affdc3f5140bf1ec0f5aa412d", "lon": -77.02722616666667, "is_disabled": 0, "type": "electric_scooter"}, {"bike_id": "ccdde7dfe4338480123c2305da70492f", "lat": 38.923254, "is_reserved": 0, "fusion_lat": 0.0, "rental_uris": {"android": "https://dc.lft.to/lastmile_qr_scan", "ios": "https://dc.lft.to/lastmile_qr_scan"}, "fusion_lon": 0.0, "name": "ccdde7dfe4338480123c2305da70492f", "lon": -77.0368075, "is_disabled": 0, "type": "electric_scooter"}, {"bike_id": "6b5b46662d6931ee8dbd15560d1985d2", "lat": 38.85357783333333, "is_reserved": 0, "fusion_lat": 0.0, "rental_uris": {"android": "https://dc.lft.to/lastmile_qr_scan", "ios": "https://dc.lft.to/lastmile_qr_scan"}, "fusion_lon": 0.0, "name": "6b5b46662d6931ee8dbd15560d1985d2", "lon": -77.086836, "is_disabled": 0, "type": "electric_bike"}, {"bike_id": "a50433e9343d4b8b944b1a33f27e65e2", "lat": 38.92326466666667, "is_reserved": 0, "fusion_lat": 0.0, "rental_uris": {"android": "https://dc.lft.to/lastmile_qr_scan", "ios": "https://dc.lft.to/lastmile_qr_scan"}, "fusion_lon": 0.0, "name": "a50433e9343d4b8b944b1a33f27e65e2", "lon": -77.03677233333333, "is_disabled": 0, "type": "electric_scooter"}, {"bike_id": "7d484600655473782b65aa33e92b2fa3", "lat": 38.898394833333334, "is_reserved": 0, "fusion_lat": 0.0, "rental_uris": {"android": "https://dc.lft.to/lastmile_qr_scan", "ios": "https://dc.lft.to/lastmile_qr_scan"}, "fusion_lon": 0.0, "name": "7d484600655473782b65aa33e92b2fa3", "lon": -77.02728316666666, "is_disabled": 0, "type": "electric_scooter"}, {"bike_id": "c90696d41a5231d49958675269853bf7", "lat": 38.922879, "is_reserved": 0, "fusion_lat": 0.0, "rental_uris": {"android": "https://dc.lft.to/lastmile_qr_scan", "ios": "https://dc.lft.to/lastmile_qr_scan"}, "fusion_lon": 0.0, "name": "c90696d41a5231d49958675269853bf7", "lon": -77.04239616666666, "is_disabled": 0, "type": "electric_scooter"}, {"bike_id": "0d8749c7b76a91cfa772cad0aaf52c1c", "lat": 38.91563933333333, "is_reserved": 0, "fusion_lat": 0.0, "rental_uris": {"android": "https://dc.lft.to/lastmile_qr_scan", "ios": "https://dc.lft.to/lastmile_qr_scan"}, "fusion_lon": 0.0, "name": "0d8749c7b76a91cfa772cad0aaf52c1c", "lon": -77.02562783333333, "is_disabled": 0, "type": "electric_scooter"}, {"bike_id": "9ce254f89fa190ce250ce83ee3bcdec3", "lat": 38.86511133333333, "is_reserved": 0, "fusion_lat": 0.0, "rental_uris": {"android": "https://dc.lft.to/lastmile_qr_scan", "ios": "https://dc.lft.to/lastmile_qr_scan"}, "fusion_lon": 0.0, "name": "9ce254f89fa190ce250ce83ee3bcdec3", "lon": -76.99007, "is_disabled": 0, "type": "electric_scooter"}, {"bike_id": "c968c6e700d585925c7c08fe4c41b7e8", "lat": 38.903844166666666, "is_reserved": 0, "fusion_lat": 0.0, "rental_uris": {"android": "https://dc.lft.to/lastmile_qr_scan", "ios": "https://dc.lft.to/lastmile_qr_scan"}, "fusion_lon": 0.0, "name": "c968c6e700d585925c7c08fe4c41b7e8", "lon": -77.0447875, "is_disabled": 0, "type": "electric_scooter"}, {"bike_id": "53f69439c5864195aa73b1f1052ec264", "lat": 38.924077833333335, "is_reserved": 0, "fusion_lat": 0.0, "rental_uris": {"android": "https://dc.lft.to/lastmile_qr_scan", "ios": "https://dc.lft.to/lastmile_qr_scan"}, "fusion_lon": 0.0, "name": "53f69439c5864195aa73b1f1052ec264", "lon": -77.029722, "is_disabled": 0, "type": "electric_scooter"}, {"bike_id": "c685d0eb48079b6e8f4d4c5701cea8fb", "lat": 38.83100983333333, "is_reserved": 0, "fusion_lat": 0.0, "rental_uris": {"android": "https://dc.lft.to/lastmile_qr_scan", "ios": "https://dc.lft.to/lastmile_qr_scan"}, "fusion_lon": 0.0, "name": "c685d0eb48079b6e8f4d4c5701cea8fb", "lon": -77.04292283333334, "is_disabled": 0, "type": "electric_bike"}, {"bike_id": "d66898bb62e375b81068ce5e4e85aa14", "lat": 38.88414133333333, "is_reserved": 0, "fusion_lat": 0.0, "rental_uris": {"android": "https://dc.lft.to/lastmile_qr_scan", "ios": "https://dc.lft.to/lastmile_qr_scan"}, "fusion_lon": 0.0, "name": "d66898bb62e375b81068ce5e4e85aa14", "lon": -76.9482715, "is_disabled": 0, "type": "electric_scooter"}, {"bike_id": "ae7c20b48ebf2e6d23d000a3699a8104", "lat": 38.8962605, "is_reserved": 0, "fusion_lat": 0.0, "rental_uris": {"android": "https://dc.lft.to/lastmile_qr_scan", "ios": "https://dc.lft.to/lastmile_qr_scan"}, "fusion_lon": 0.0, "name": "ae7c20b48ebf2e6d23d000a3699a8104", "lon": -77.026005, "is_disabled": 0, "type": "electric_scooter"}, {"bike_id": "61238caa0e565990a689cc8562a4a231", "lat": 38.905561166666665, "is_reserved": 0, "fusion_lat": 0.0, "rental_uris": {"android": "https://dc.lft.to/lastmile_qr_scan", "ios": "https://dc.lft.to/lastmile_qr_scan"}, "fusion_lon": 0.0, "name": "61238caa0e565990a689cc8562a4a231", "lon": -77.04157366666666, "is_disabled": 0, "type": "electric_scooter"}, {"bike_id": "0dd66d726d5d98e184d30b1817755c6b", "lat": 38.93400966666667, "is_reserved": 0, "fusion_lat": 0.0, "rental_uris": {"android": "https://dc.lft.to/lastmile_qr_scan", "ios": "https://dc.lft.to/lastmile_qr_scan"}, "fusion_lon": 0.0, "name": "0dd66d726d5d98e184d30b1817755c6b", "lon": -77.05743416666667, "is_disabled": 0, "type": "electric_scooter"}, {"bike_id": "4116e1a0cc93dc8c8196c311176d6f33", "lat": 38.89733066666667, "is_reserved": 0, "fusion_lat": 0.0, "rental_uris": {"android": "https://dc.lft.to/lastmile_qr_scan", "ios": "https://dc.lft.to/lastmile_qr_scan"}, "fusion_lon": 0.0, "name": "4116e1a0cc93dc8c8196c311176d6f33", "lon": -77.02987116666667, "is_disabled": 0, "type": "electric_scooter"}, {"bike_id": "aa922cb28af767adb58d261b721a4579", "lat": 38.93199966666667, "is_reserved": 0, "fusion_lat": 0.0, "rental_uris": {"android": "https://dc.lft.to/lastmile_qr_scan", "ios": "https://dc.lft.to/lastmile_qr_scan"}, "fusion_lon": 0.0, "name": "aa922cb28af767adb58d261b721a4579", "lon": -77.02394883333334, "is_disabled": 0, "type": "electric_scooter"}, {"bike_id": "4043e80682d630940351212b4dc22fe2", "lat": 38.88342816666667, "is_reserved": 0, "fusion_lat": 0.0, "rental_uris": {"android": "https://dc.lft.to/lastmile_qr_scan", "ios": "https://dc.lft.to/lastmile_qr_scan"}, "fusion_lon": 0.0, "name": "4043e80682d630940351212b4dc22fe2", "lon": -76.99491133333333, "is_disabled": 0, "type": "electric_scooter"}, {"bike_id": "5e146ed942b579846edbf72475e354b7", "lat": 38.90181183333333, "is_reserved": 0, "fusion_lat": 0.0, "rental_uris": {"android": "https://dc.lft.to/lastmile_qr_scan", "ios": "https://dc.lft.to/lastmile_qr_scan"}, "fusion_lon": 0.0, "name": "5e146ed942b579846edbf72475e354b7", "lon": -77.02030483333333, "is_disabled": 0, "type": "electric_scooter"}, {"bike_id": "f7765649aa3f2753918874e64ed3cbde", "lat": 38.876642333333336, "is_reserved": 0, "fusion_lat": 0.0, "rental_uris": {"android": "https://dc.lft.to/lastmile_qr_scan", "ios": "https://dc.lft.to/lastmile_qr_scan"}, "fusion_lon": 0.0, "name": "f7765649aa3f2753918874e64ed3cbde", "lon": -77.0044305, "is_disabled": 0, "type": "electric_scooter"}, {"bike_id": "e54f22e6f93bb525b07aa151607ee10a", "lat": 38.927140666666666, "is_reserved": 0, "fusion_lat": 0.0, "rental_uris": {"android": "https://dc.lft.to/lastmile_qr_scan", "ios": "https://dc.lft.to/lastmile_qr_scan"}, "fusion_lon": 0.0, "name": "e54f22e6f93bb525b07aa151607ee10a", "lon": -77.01457083333334, "is_disabled": 0, "type": "electric_scooter"}, {"bike_id": "55fa3dcfca1db4077323a9f44c73730b", "lat": 38.8762465, "is_reserved": 0, "fusion_lat": 0.0, "rental_uris": {"android": "https://dc.lft.to/lastmile_qr_scan", "ios": "https://dc.lft.to/lastmile_qr_scan"}, "fusion_lon": 0.0, "name": "55fa3dcfca1db4077323a9f44c73730b", "lon": -76.96527833333333, "is_disabled": 0, "type": "electric_scooter"}, {"bike_id": "cb77ca8c61e38d6f492a7698962626db", "lat": 38.900611833333336, "is_reserved": 0, "fusion_lat": 0.0, "rental_uris": {"android": "https://dc.lft.to/lastmile_qr_scan", "ios": "https://dc.lft.to/lastmile_qr_scan"}, "fusion_lon": 0.0, "name": "cb77ca8c61e38d6f492a7698962626db", "lon": -76.92736466666666, "is_disabled": 0, "type": "electric_scooter"}, {"bike_id": "9584ffdf2920925112e9952f6ff8f00f", "lat": 38.931619166666664, "is_reserved": 0, "fusion_lat": 0.0, "rental_uris": {"android": "https://dc.lft.to/lastmile_qr_scan", "ios": "https://dc.lft.to/lastmile_qr_scan"}, "fusion_lon": 0.0, "name": "9584ffdf2920925112e9952f6ff8f00f", "lon": -77.028837, "is_disabled": 0, "type": "electric_scooter"}, {"bike_id": "fe9d7434d506e46e015ca41fe8515194", "lat": 38.9050955, "is_reserved": 0, "fusion_lat": 0.0, "rental_uris": {"android": "https://dc.lft.to/lastmile_qr_scan", "ios": "https://dc.lft.to/lastmile_qr_scan"}, "fusion_lon": 0.0, "name": "fe9d7434d506e46e015ca41fe8515194", "lon": -77.04368433333333, "is_disabled": 0, "type": "electric_scooter"}, {"bike_id": "09b6566ab9b0a30218bad91d6631f89c", "lat": 38.90614, "is_reserved": 0, "fusion_lat": 0.0, "rental_uris": {"android": "https://dc.lft.to/lastmile_qr_scan", "ios": "https://dc.lft.to/lastmile_qr_scan"}, "fusion_lon": 0.0, "name": "09b6566ab9b0a30218bad91d6631f89c", "lon": -77.07636583333333, "is_disabled": 0, "type": "electric_bike"}, {"bike_id": "ef969400ace0093bbe3a792363d20853", "lat": 38.909814833333336, "is_reserved": 0, "fusion_lat": 0.0, "rental_uris": {"android": "https://dc.lft.to/lastmile_qr_scan", "ios": "https://dc.lft.to/lastmile_qr_scan"}, "fusion_lon": 0.0, "name": "ef969400ace0093bbe3a792363d20853", "lon": -76.99504183333333, "is_disabled": 0, "type": "electric_scooter"}, {"bike_id": "87625274976799f8a519d96e742828a1", "lat": 38.881871833333335, "is_reserved": 0, "fusion_lat": 0.0, "rental_uris": {"android": "https://dc.lft.to/lastmile_qr_scan", "ios": "https://dc.lft.to/lastmile_qr_scan"}, "fusion_lon": 0.0, "name": "87625274976799f8a519d96e742828a1", "lon": -77.02086683333333, "is_disabled": 0, "type": "electric_scooter"}, {"bike_id": "2492eacfb0aadf370cd1cdf523ac3d0a", "lat": 38.923247833333335, "is_reserved": 0, "fusion_lat": 0.0, "rental_uris": {"android": "https://dc.lft.to/lastmile_qr_scan", "ios": "https://dc.lft.to/lastmile_qr_scan"}, "fusion_lon": 0.0, "name": "2492eacfb0aadf370cd1cdf523ac3d0a", "lon": -77.04444183333334, "is_disabled": 0, "type": "electric_scooter"}, {"bike_id": "15b4aed50cfc351ecf8036bd28982329", "lat": 38.949919666666666, "is_reserved": 0, "fusion_lat": 0.0, "rental_uris": {"android": "https://dc.lft.to/lastmile_qr_scan", "ios": "https://dc.lft.to/lastmile_qr_scan"}, "fusion_lon": 0.0, "name": "15b4aed50cfc351ecf8036bd28982329", "lon": -77.01835316666667, "is_disabled": 0, "type": "electric_scooter"}, {"bike_id": "bb84d261c21b72234e03096212725fb9", "lat": 38.88665533333333, "is_reserved": 0, "fusion_lat": 0.0, "rental_uris": {"android": "https://dc.lft.to/lastmile_qr_scan", "ios": "https://dc.lft.to/lastmile_qr_scan"}, "fusion_lon": 0.0, "name": "bb84d261c21b72234e03096212725fb9", "lon": -77.16233316666667, "is_disabled": 0, "type": "electric_bike"}, {"bike_id": "9a86fb89bbaa9c3adb87ff365da76496", "lat": 38.923299166666666, "is_reserved": 0, "fusion_lat": 0.0, "rental_uris": {"android": "https://dc.lft.to/lastmile_qr_scan", "ios": "https://dc.lft.to/lastmile_qr_scan"}, "fusion_lon": 0.0, "name": "9a86fb89bbaa9c3adb87ff365da76496", "lon": -77.0542095, "is_disabled": 0, "type": "electric_scooter"}, {"bike_id": "889e2037cd7199cb50397ca5943b8357", "lat": 38.9087205, "is_reserved": 0, "fusion_lat": 0.0, "rental_uris": {"android": "https://dc.lft.to/lastmile_qr_scan", "ios": "https://dc.lft.to/lastmile_qr_scan"}, "fusion_lon": 0.0, "name": "889e2037cd7199cb50397ca5943b8357", "lon": -77.01836233333333, "is_disabled": 0, "type": "electric_bike"}, {"bike_id": "165f3c7fcda3cf24a27db9be2f4dcf7c", "lat": 38.897451, "is_reserved": 0, "fusion_lat": 0.0, "rental_uris": {"android": "https://dc.lft.to/lastmile_qr_scan", "ios": "https://dc.lft.to/lastmile_qr_scan"}, "fusion_lon": 0.0, "name": "165f3c7fcda3cf24a27db9be2f4dcf7c", "lon": -77.02698683333334, "is_disabled": 0, "type": "electric_scooter"}, {"bike_id": "9d69802b6a6a548a6a95884844a2f21c", "lat": 38.914213, "is_reserved": 0, "fusion_lat": 0.0, "rental_uris": {"android": "https://dc.lft.to/lastmile_qr_scan", "ios": "https://dc.lft.to/lastmile_qr_scan"}, "fusion_lon": 0.0, "name": "9d69802b6a6a548a6a95884844a2f21c", "lon": -77.018059, "is_disabled": 0, "type": "electric_scooter"}, {"bike_id": "f70e84e8988e313b6251f16b9fe9c15b", "lat": 38.91270466666667, "is_reserved": 0, "fusion_lat": 0.0, "rental_uris": {"android": "https://dc.lft.to/lastmile_qr_scan", "ios": "https://dc.lft.to/lastmile_qr_scan"}, "fusion_lon": 0.0, "name": "f70e84e8988e313b6251f16b9fe9c15b", "lon": -77.04492983333333, "is_disabled": 0, "type": "electric_scooter"}, {"bike_id": "09d891777c5af73f6514b01bbfdcde91", "lat": 38.92393333333333, "is_reserved": 0, "fusion_lat": 0.0, "rental_uris": {"android": "https://dc.lft.to/lastmile_qr_scan", "ios": "https://dc.lft.to/lastmile_qr_scan"}, "fusion_lon": 0.0, "name": "09d891777c5af73f6514b01bbfdcde91", "lon": -77.04450216666666, "is_disabled": 0, "type": "electric_scooter"}, {"bike_id": "de2bd145a9e5c06d2261daeaca3fc8b9", "lat": 38.924484, "is_reserved": 0, "fusion_lat": 0.0, "rental_uris": {"android": "https://dc.lft.to/lastmile_qr_scan", "ios": "https://dc.lft.to/lastmile_qr_scan"}, "fusion_lon": 0.0, "name": "de2bd145a9e5c06d2261daeaca3fc8b9", "lon": -77.033395, "is_disabled": 0, "type": "electric_scooter"}, {"bike_id": "9f112498727fda89af8847c334e38dcc", "lat": 38.795984833333335, "is_reserved": 0, "fusion_lat": 0.0, "rental_uris": {"android": "https://dc.lft.to/lastmile_qr_scan", "ios": "https://dc.lft.to/lastmile_qr_scan"}, "fusion_lon": 0.0, "name": "9f112498727fda89af8847c334e38dcc", "lon": -76.9974795, "is_disabled": 0, "type": "electric_bike"}, {"bike_id": "0d18aed4f00574d03c2a18b6c23ee335", "lat": 38.9071955, "is_reserved": 0, "fusion_lat": 0.0, "rental_uris": {"android": "https://dc.lft.to/lastmile_qr_scan", "ios": "https://dc.lft.to/lastmile_qr_scan"}, "fusion_lon": 0.0, "name": "0d18aed4f00574d03c2a18b6c23ee335", "lon": -77.0217055, "is_disabled": 0, "type": "electric_scooter"}, {"bike_id": "8dddc1e86e6123afe8a3316a6b0957f7", "lat": 38.91849416666667, "is_reserved": 0, "fusion_lat": 0.0, "rental_uris": {"android": "https://dc.lft.to/lastmile_qr_scan", "ios": "https://dc.lft.to/lastmile_qr_scan"}, "fusion_lon": 0.0, "name": "8dddc1e86e6123afe8a3316a6b0957f7", "lon": -77.03192, "is_disabled": 0, "type": "electric_scooter"}, {"bike_id": "e8ccdaf4994fb4e95a53357438b18cbc", "lat": 38.89863366666667, "is_reserved": 0, "fusion_lat": 0.0, "rental_uris": {"android": "https://dc.lft.to/lastmile_qr_scan", "ios": "https://dc.lft.to/lastmile_qr_scan"}, "fusion_lon": 0.0, "name": "e8ccdaf4994fb4e95a53357438b18cbc", "lon": -76.94639016666666, "is_disabled": 0, "type": "electric_scooter"}, {"bike_id": "6f0827597beaf493d2824ce83d409412", "lat": 38.9217535, "is_reserved": 0, "fusion_lat": 0.0, "rental_uris": {"android": "https://dc.lft.to/lastmile_qr_scan", "ios": "https://dc.lft.to/lastmile_qr_scan"}, "fusion_lon": 0.0, "name": "6f0827597beaf493d2824ce83d409412", "lon": -77.02108783333334, "is_disabled": 0, "type": "electric_scooter"}, {"bike_id": "c23b15f26e6d748101ab412f1a240287", "lat": 38.815124833333336, "is_reserved": 0, "fusion_lat": 0.0, "rental_uris": {"android": "https://dc.lft.to/lastmile_qr_scan", "ios": "https://dc.lft.to/lastmile_qr_scan"}, "fusion_lon": 0.0, "name": "c23b15f26e6d748101ab412f1a240287", "lon": -77.12655533333333, "is_disabled": 0, "type": "electric_bike"}, {"bike_id": "4a90800a1b00f48b82031b13fdc6e55d", "lat": 38.903726, "is_reserved": 0, "fusion_lat": 0.0, "rental_uris": {"android": "https://dc.lft.to/lastmile_qr_scan", "ios": "https://dc.lft.to/lastmile_qr_scan"}, "fusion_lon": 0.0, "name": "4a90800a1b00f48b82031b13fdc6e55d", "lon": -77.02489166666666, "is_disabled": 0, "type": "electric_scooter"}, {"bike_id": "99af50c223de69e9694fabdb99e61284", "lat": 38.87383333333333, "is_reserved": 0, "fusion_lat": 0.0, "rental_uris": {"android": "https://dc.lft.to/lastmile_qr_scan", "ios": "https://dc.lft.to/lastmile_qr_scan"}, "fusion_lon": 0.0, "name": "99af50c223de69e9694fabdb99e61284", "lon": -77.00041916666666, "is_disabled": 0, "type": "electric_scooter"}, {"bike_id": "45f80358b3cdad328299ceec194ba60a", "lat": 38.8788105, "is_reserved": 0, "fusion_lat": 0.0, "rental_uris": {"android": "https://dc.lft.to/lastmile_qr_scan", "ios": "https://dc.lft.to/lastmile_qr_scan"}, "fusion_lon": 0.0, "name": "45f80358b3cdad328299ceec194ba60a", "lon": -77.01909766666667, "is_disabled": 0, "type": "electric_scooter"}, {"bike_id": "061f5f2398a045b0c2abfb1afb074d1b", "lat": 38.8987045, "is_reserved": 0, "fusion_lat": 0.0, "rental_uris": {"android": "https://dc.lft.to/lastmile_qr_scan", "ios": "https://dc.lft.to/lastmile_qr_scan"}, "fusion_lon": 0.0, "name": "061f5f2398a045b0c2abfb1afb074d1b", "lon": -76.94639816666667, "is_disabled": 0, "type": "electric_scooter"}, {"bike_id": "95e168e75a3384018d5cb492db6d96d6", "lat": 38.90082116666667, "is_reserved": 0, "fusion_lat": 0.0, "rental_uris": {"android": "https://dc.lft.to/lastmile_qr_scan", "ios": "https://dc.lft.to/lastmile_qr_scan"}, "fusion_lon": 0.0, "name": "95e168e75a3384018d5cb492db6d96d6", "lon": -77.047483, "is_disabled": 0, "type": "electric_scooter"}, {"bike_id": "4a92ddab74004c733af05a3c87df1779", "lat": 38.93080666666667, "is_reserved": 0, "fusion_lat": 0.0, "rental_uris": {"android": "https://dc.lft.to/lastmile_qr_scan", "ios": "https://dc.lft.to/lastmile_qr_scan"}, "fusion_lon": 0.0, "name": "4a92ddab74004c733af05a3c87df1779", "lon": -77.02796, "is_disabled": 0, "type": "electric_scooter"}, {"bike_id": "800bea4068fb8e2d81f30159686c5c75", "lat": 38.928244166666666, "is_reserved": 0, "fusion_lat": 0.0, "rental_uris": {"android": "https://dc.lft.to/lastmile_qr_scan", "ios": "https://dc.lft.to/lastmile_qr_scan"}, "fusion_lon": 0.0, "name": "800bea4068fb8e2d81f30159686c5c75", "lon": -77.02258816666667, "is_disabled": 0, "type": "electric_scooter"}, {"bike_id": "b4ee9a3681cace7337ad6da25f8f73bc", "lat": 38.97862283333333, "is_reserved": 0, "fusion_lat": 0.0, "rental_uris": {"android": "https://dc.lft.to/lastmile_qr_scan", "ios": "https://dc.lft.to/lastmile_qr_scan"}, "fusion_lon": 0.0, "name": "b4ee9a3681cace7337ad6da25f8f73bc", "lon": -76.94047133333333, "is_disabled": 0, "type": "electric_bike"}, {"bike_id": "32916689c40a6c96df6ff04e9d537def", "lat": 38.8789725, "is_reserved": 0, "fusion_lat": 0.0, "rental_uris": {"android": "https://dc.lft.to/lastmile_qr_scan", "ios": "https://dc.lft.to/lastmile_qr_scan"}, "fusion_lon": 0.0, "name": "32916689c40a6c96df6ff04e9d537def", "lon": -77.02332833333334, "is_disabled": 0, "type": "electric_scooter"}, {"bike_id": "40c1bef9499bcf09cf7dfc90da568bec", "lat": 38.91017316666667, "is_reserved": 0, "fusion_lat": 0.0, "rental_uris": {"android": "https://dc.lft.to/lastmile_qr_scan", "ios": "https://dc.lft.to/lastmile_qr_scan"}, "fusion_lon": 0.0, "name": "40c1bef9499bcf09cf7dfc90da568bec", "lon": -77.031912, "is_disabled": 0, "type": "electric_scooter"}, {"bike_id": "d27451584875b2907db7d581ff007f47", "lat": 38.867001333333334, "is_reserved": 0, "fusion_lat": 0.0, "rental_uris": {"android": "https://dc.lft.to/lastmile_qr_scan", "ios": "https://dc.lft.to/lastmile_qr_scan"}, "fusion_lon": 0.0, "name": "d27451584875b2907db7d581ff007f47", "lon": -76.9871385, "is_disabled": 0, "type": "electric_scooter"}, {"bike_id": "fc6e802367608cf74159eec3db21218e", "lat": 38.922449, "is_reserved": 0, "fusion_lat": 0.0, "rental_uris": {"android": "https://dc.lft.to/lastmile_qr_scan", "ios": "https://dc.lft.to/lastmile_qr_scan"}, "fusion_lon": 0.0, "name": "fc6e802367608cf74159eec3db21218e", "lon": -77.04270816666667, "is_disabled": 0, "type": "electric_scooter"}, {"bike_id": "86f47dec7bfe5c85161aea9844496ec5", "lat": 38.86699866666667, "is_reserved": 0, "fusion_lat": 0.0, "rental_uris": {"android": "https://dc.lft.to/lastmile_qr_scan", "ios": "https://dc.lft.to/lastmile_qr_scan"}, "fusion_lon": 0.0, "name": "86f47dec7bfe5c85161aea9844496ec5", "lon": -76.98714116666666, "is_disabled": 0, "type": "electric_scooter"}, {"bike_id": "877929648209323777ca786e73722707", "lat": 38.902945, "is_reserved": 0, "fusion_lat": 0.0, "rental_uris": {"android": "https://dc.lft.to/lastmile_qr_scan", "ios": "https://dc.lft.to/lastmile_qr_scan"}, "fusion_lon": 0.0, "name": "877929648209323777ca786e73722707", "lon": -77.033512, "is_disabled": 0, "type": "electric_scooter"}, {"bike_id": "cbe7756caba3dbd7c2c040a116bd432c", "lat": 38.89484316666667, "is_reserved": 0, "fusion_lat": 0.0, "rental_uris": {"android": "https://dc.lft.to/lastmile_qr_scan", "ios": "https://dc.lft.to/lastmile_qr_scan"}, "fusion_lon": 0.0, "name": "cbe7756caba3dbd7c2c040a116bd432c", "lon": -76.99518416666666, "is_disabled": 0, "type": "electric_scooter"}, {"bike_id": "b99ad696da79a7ba57aedb938c24f59e", "lat": 38.866943, "is_reserved": 0, "fusion_lat": 0.0, "rental_uris": {"android": "https://dc.lft.to/lastmile_qr_scan", "ios": "https://dc.lft.to/lastmile_qr_scan"}, "fusion_lon": 0.0, "name": "b99ad696da79a7ba57aedb938c24f59e", "lon": -76.98711833333333, "is_disabled": 0, "type": "electric_scooter"}, {"bike_id": "085fdd5b7626e0584e1dc27b2f829a20", "lat": 38.93350983333333, "is_reserved": 0, "fusion_lat": 0.0, "rental_uris": {"android": "https://dc.lft.to/lastmile_qr_scan", "ios": "https://dc.lft.to/lastmile_qr_scan"}, "fusion_lon": 0.0, "name": "085fdd5b7626e0584e1dc27b2f829a20", "lon": -77.06195716666667, "is_disabled": 0, "type": "electric_scooter"}, {"bike_id": "df0481d2a4b546f04bdde64d07827887", "lat": 38.9347515, "is_reserved": 0, "fusion_lat": 0.0, "rental_uris": {"android": "https://dc.lft.to/lastmile_qr_scan", "ios": "https://dc.lft.to/lastmile_qr_scan"}, "fusion_lon": 0.0, "name": "df0481d2a4b546f04bdde64d07827887", "lon": -77.07260366666667, "is_disabled": 0, "type": "electric_scooter"}, {"bike_id": "ae1dca0de677c4a7a3d83b631a3e7679", "lat": 38.91406216666667, "is_reserved": 0, "fusion_lat": 0.0, "rental_uris": {"android": "https://dc.lft.to/lastmile_qr_scan", "ios": "https://dc.lft.to/lastmile_qr_scan"}, "fusion_lon": 0.0, "name": "ae1dca0de677c4a7a3d83b631a3e7679", "lon": -77.02009633333333, "is_disabled": 0, "type": "electric_scooter"}, {"bike_id": "869a788cdeac9c052fd39c6864976180", "lat": 38.89621483333333, "is_reserved": 0, "fusion_lat": 0.0, "rental_uris": {"android": "https://dc.lft.to/lastmile_qr_scan", "ios": "https://dc.lft.to/lastmile_qr_scan"}, "fusion_lon": 0.0, "name": "869a788cdeac9c052fd39c6864976180", "lon": -76.998491, "is_disabled": 0, "type": "electric_scooter"}, {"bike_id": "9ffed9c04c96ad2945c3cfdbdc250a55", "lat": 38.85752566666667, "is_reserved": 0, "fusion_lat": 0.0, "rental_uris": {"android": "https://dc.lft.to/lastmile_qr_scan", "ios": "https://dc.lft.to/lastmile_qr_scan"}, "fusion_lon": 0.0, "name": "9ffed9c04c96ad2945c3cfdbdc250a55", "lon": -76.99308233333333, "is_disabled": 0, "type": "electric_scooter"}, {"bike_id": "2296ec8e971cd5d2a47bd8cfb5dc4735", "lat": 38.9170335, "is_reserved": 0, "fusion_lat": 0.0, "rental_uris": {"android": "https://dc.lft.to/lastmile_qr_scan", "ios": "https://dc.lft.to/lastmile_qr_scan"}, "fusion_lon": 0.0, "name": "2296ec8e971cd5d2a47bd8cfb5dc4735", "lon": -77.02986083333333, "is_disabled": 0, "type": "electric_scooter"}, {"bike_id": "eb27204fdd939a185be6cde3886096d7", "lat": 38.93105166666667, "is_reserved": 0, "fusion_lat": 0.0, "rental_uris": {"android": "https://dc.lft.to/lastmile_qr_scan", "ios": "https://dc.lft.to/lastmile_qr_scan"}, "fusion_lon": 0.0, "name": "eb27204fdd939a185be6cde3886096d7", "lon": -77.03071133333333, "is_disabled": 0, "type": "electric_scooter"}, {"bike_id": "6292fc027a50ee3b80063d9f402d7936", "lat": 38.9184155, "is_reserved": 0, "fusion_lat": 0.0, "rental_uris": {"android": "https://dc.lft.to/lastmile_qr_scan", "ios": "https://dc.lft.to/lastmile_qr_scan"}, "fusion_lon": 0.0, "name": "6292fc027a50ee3b80063d9f402d7936", "lon": -77.03192716666666, "is_disabled": 0, "type": "electric_scooter"}, {"bike_id": "150fe30b29fe9a4257b240f0a26a2584", "lat": 38.905052833333336, "is_reserved": 0, "fusion_lat": 0.0, "rental_uris": {"android": "https://dc.lft.to/lastmile_qr_scan", "ios": "https://dc.lft.to/lastmile_qr_scan"}, "fusion_lon": 0.0, "name": "150fe30b29fe9a4257b240f0a26a2584", "lon": -77.05800883333333, "is_disabled": 0, "type": "electric_scooter"}, {"bike_id": "be60a59f76bc0a1585988b96cb853101", "lat": 38.94121, "is_reserved": 0, "fusion_lat": 0.0, "rental_uris": {"android": "https://dc.lft.to/lastmile_qr_scan", "ios": "https://dc.lft.to/lastmile_qr_scan"}, "fusion_lon": 0.0, "name": "be60a59f76bc0a1585988b96cb853101", "lon": -77.000688, "is_disabled": 0, "type": "electric_bike"}, {"bike_id": "b96ff585c5950912b06646ad305ea4e7", "lat": 38.81334733333333, "is_reserved": 0, "fusion_lat": 0.0, "rental_uris": {"android": "https://dc.lft.to/lastmile_qr_scan", "ios": "https://dc.lft.to/lastmile_qr_scan"}, "fusion_lon": 0.0, "name": "b96ff585c5950912b06646ad305ea4e7", "lon": -77.0511215, "is_disabled": 0, "type": "electric_bike"}, {"bike_id": "fff524aa43a588e10dc478a79a7bd92c", "lat": 38.858457333333334, "is_reserved": 0, "fusion_lat": 0.0, "rental_uris": {"android": "https://dc.lft.to/lastmile_qr_scan", "ios": "https://dc.lft.to/lastmile_qr_scan"}, "fusion_lon": 0.0, "name": "fff524aa43a588e10dc478a79a7bd92c", "lon": -76.9873015, "is_disabled": 0, "type": "electric_scooter"}, {"bike_id": "970ad1bcb696b3d8cb23a1dcfd08a269", "lat": 38.916718, "is_reserved": 0, "fusion_lat": 0.0, "rental_uris": {"android": "https://dc.lft.to/lastmile_qr_scan", "ios": "https://dc.lft.to/lastmile_qr_scan"}, "fusion_lon": 0.0, "name": "970ad1bcb696b3d8cb23a1dcfd08a269", "lon": -77.02393666666667, "is_disabled": 0, "type": "electric_scooter"}, {"bike_id": "2641fca0324b383644a4ecc9a92c9739", "lat": 38.8971985, "is_reserved": 0, "fusion_lat": 0.0, "rental_uris": {"android": "https://dc.lft.to/lastmile_qr_scan", "ios": "https://dc.lft.to/lastmile_qr_scan"}, "fusion_lon": 0.0, "name": "2641fca0324b383644a4ecc9a92c9739", "lon": -76.98841683333333, "is_disabled": 0, "type": "electric_scooter"}, {"bike_id": "d4d34c005a7656f4739faf60d325fcb9", "lat": 38.902825166666666, "is_reserved": 0, "fusion_lat": 0.0, "rental_uris": {"android": "https://dc.lft.to/lastmile_qr_scan", "ios": "https://dc.lft.to/lastmile_qr_scan"}, "fusion_lon": 0.0, "name": "d4d34c005a7656f4739faf60d325fcb9", "lon": -77.03310083333334, "is_disabled": 0, "type": "electric_scooter"}, {"bike_id": "ae431e203d17a98def5b21214fe73534", "lat": 38.94634333333333, "is_reserved": 0, "fusion_lat": 0.0, "rental_uris": {"android": "https://dc.lft.to/lastmile_qr_scan", "ios": "https://dc.lft.to/lastmile_qr_scan"}, "fusion_lon": 0.0, "name": "ae431e203d17a98def5b21214fe73534", "lon": -77.018436, "is_disabled": 0, "type": "electric_scooter"}, {"bike_id": "a81d47918636f121fb95432f4f861666", "lat": 38.905925833333335, "is_reserved": 0, "fusion_lat": 0.0, "rental_uris": {"android": "https://dc.lft.to/lastmile_qr_scan", "ios": "https://dc.lft.to/lastmile_qr_scan"}, "fusion_lon": 0.0, "name": "a81d47918636f121fb95432f4f861666", "lon": -77.03993716666666, "is_disabled": 0, "type": "electric_scooter"}, {"bike_id": "52c4a1d2840c480deb7ba1c064c16e1f", "lat": 38.89505333333334, "is_reserved": 0, "fusion_lat": 0.0, "rental_uris": {"android": "https://dc.lft.to/lastmile_qr_scan", "ios": "https://dc.lft.to/lastmile_qr_scan"}, "fusion_lon": 0.0, "name": "52c4a1d2840c480deb7ba1c064c16e1f", "lon": -77.022826, "is_disabled": 0, "type": "electric_scooter"}, {"bike_id": "eb5bac9805854fe88c749cf1f1c2cd0d", "lat": 38.92437966666667, "is_reserved": 0, "fusion_lat": 0.0, "rental_uris": {"android": "https://dc.lft.to/lastmile_qr_scan", "ios": "https://dc.lft.to/lastmile_qr_scan"}, "fusion_lon": 0.0, "name": "eb5bac9805854fe88c749cf1f1c2cd0d", "lon": -77.0195225, "is_disabled": 0, "type": "electric_scooter"}, {"bike_id": "99bb736bff16fa76f83246a70870ba79", "lat": 38.92543766666667, "is_reserved": 0, "fusion_lat": 0.0, "rental_uris": {"android": "https://dc.lft.to/lastmile_qr_scan", "ios": "https://dc.lft.to/lastmile_qr_scan"}, "fusion_lon": 0.0, "name": "99bb736bff16fa76f83246a70870ba79", "lon": -77.03467233333333, "is_disabled": 0, "type": "electric_scooter"}, {"bike_id": "412e4868c2fc6611503089e181d6d775", "lat": 38.89219283333333, "is_reserved": 0, "fusion_lat": 0.0, "rental_uris": {"android": "https://dc.lft.to/lastmile_qr_scan", "ios": "https://dc.lft.to/lastmile_qr_scan"}, "fusion_lon": 0.0, "name": "412e4868c2fc6611503089e181d6d775", "lon": -77.032113, "is_disabled": 0, "type": "electric_scooter"}, {"bike_id": "ceae3dc8119e89e6628f784a34904e30", "lat": 38.905931, "is_reserved": 0, "fusion_lat": 0.0, "rental_uris": {"android": "https://dc.lft.to/lastmile_qr_scan", "ios": "https://dc.lft.to/lastmile_qr_scan"}, "fusion_lon": 0.0, "name": "ceae3dc8119e89e6628f784a34904e30", "lon": -77.04726, "is_disabled": 0, "type": "electric_scooter"}, {"bike_id": "0dca2a2f4c3612fbcb1a3bc68fdbc127", "lat": 38.923301333333335, "is_reserved": 0, "fusion_lat": 0.0, "rental_uris": {"android": "https://dc.lft.to/lastmile_qr_scan", "ios": "https://dc.lft.to/lastmile_qr_scan"}, "fusion_lon": 0.0, "name": "0dca2a2f4c3612fbcb1a3bc68fdbc127", "lon": -77.01950316666667, "is_disabled": 0, "type": "electric_scooter"}, {"bike_id": "f60b097c77ec2e76cdd4df6b3fe768ea", "lat": 38.9015625, "is_reserved": 0, "fusion_lat": 0.0, "rental_uris": {"android": "https://dc.lft.to/lastmile_qr_scan", "ios": "https://dc.lft.to/lastmile_qr_scan"}, "fusion_lon": 0.0, "name": "f60b097c77ec2e76cdd4df6b3fe768ea", "lon": -77.029768, "is_disabled": 0, "type": "electric_scooter"}, {"bike_id": "67f7b6fcb78f4e45d6d547b099e76934", "lat": 38.91720466666666, "is_reserved": 0, "fusion_lat": 0.0, "rental_uris": {"android": "https://dc.lft.to/lastmile_qr_scan", "ios": "https://dc.lft.to/lastmile_qr_scan"}, "fusion_lon": 0.0, "name": "67f7b6fcb78f4e45d6d547b099e76934", "lon": -77.0318385, "is_disabled": 0, "type": "electric_scooter"}, {"bike_id": "b316e69d3e9e1814d2b6fb149680bc9c", "lat": 38.8788505, "is_reserved": 0, "fusion_lat": 0.0, "rental_uris": {"android": "https://dc.lft.to/lastmile_qr_scan", "ios": "https://dc.lft.to/lastmile_qr_scan"}, "fusion_lon": 0.0, "name": "b316e69d3e9e1814d2b6fb149680bc9c", "lon": -77.0223385, "is_disabled": 0, "type": "electric_scooter"}, {"bike_id": "55dcc7c6e0e87b74bf43c5217eea689e", "lat": 38.92885866666667, "is_reserved": 0, "fusion_lat": 0.0, "rental_uris": {"android": "https://dc.lft.to/lastmile_qr_scan", "ios": "https://dc.lft.to/lastmile_qr_scan"}, "fusion_lon": 0.0, "name": "55dcc7c6e0e87b74bf43c5217eea689e", "lon": -77.03297366666666, "is_disabled": 0, "type": "electric_scooter"}, {"bike_id": "d8a49a39c0d5d84de8553b6b8349bc15", "lat": 38.90283, "is_reserved": 0, "fusion_lat": 0.0, "rental_uris": {"android": "https://dc.lft.to/lastmile_qr_scan", "ios": "https://dc.lft.to/lastmile_qr_scan"}, "fusion_lon": 0.0, "name": "d8a49a39c0d5d84de8553b6b8349bc15", "lon": -77.03845233333334, "is_disabled": 0, "type": "electric_scooter"}, {"bike_id": "3cf1209cdde95bcc23ff52f6669a34a9", "lat": 38.86530033333333, "is_reserved": 0, "fusion_lat": 0.0, "rental_uris": {"android": "https://dc.lft.to/lastmile_qr_scan", "ios": "https://dc.lft.to/lastmile_qr_scan"}, "fusion_lon": 0.0, "name": "3cf1209cdde95bcc23ff52f6669a34a9", "lon": -76.97326516666666, "is_disabled": 0, "type": "electric_scooter"}, {"bike_id": "916ac34990a8e9cefad31391d15ffd5a", "lat": 38.89910183333333, "is_reserved": 0, "fusion_lat": 0.0, "rental_uris": {"android": "https://dc.lft.to/lastmile_qr_scan", "ios": "https://dc.lft.to/lastmile_qr_scan"}, "fusion_lon": 0.0, "name": "916ac34990a8e9cefad31391d15ffd5a", "lon": -77.04478133333333, "is_disabled": 0, "type": "electric_scooter"}, {"bike_id": "c62abaab8a0a886661b75ee49e19405d", "lat": 38.93272733333333, "is_reserved": 0, "fusion_lat": 0.0, "rental_uris": {"android": "https://dc.lft.to/lastmile_qr_scan", "ios": "https://dc.lft.to/lastmile_qr_scan"}, "fusion_lon": 0.0, "name": "c62abaab8a0a886661b75ee49e19405d", "lon": -77.034978, "is_disabled": 0, "type": "electric_scooter"}, {"bike_id": "495c362b75fbcf918969f838cbe2b114", "lat": 38.9198215, "is_reserved": 0, "fusion_lat": 0.0, "rental_uris": {"android": "https://dc.lft.to/lastmile_qr_scan", "ios": "https://dc.lft.to/lastmile_qr_scan"}, "fusion_lon": 0.0, "name": "495c362b75fbcf918969f838cbe2b114", "lon": -77.02165316666667, "is_disabled": 0, "type": "electric_scooter"}, {"bike_id": "54f49d148cc903babb713f6f4fff491d", "lat": 38.938240666666665, "is_reserved": 0, "fusion_lat": 0.0, "rental_uris": {"android": "https://dc.lft.to/lastmile_qr_scan", "ios": "https://dc.lft.to/lastmile_qr_scan"}, "fusion_lon": 0.0, "name": "54f49d148cc903babb713f6f4fff491d", "lon": -77.07163466666667, "is_disabled": 0, "type": "electric_scooter"}, {"bike_id": "52f542da8dc3f8bc5bdbfac2a9e062ee", "lat": 38.90399766666667, "is_reserved": 0, "fusion_lat": 0.0, "rental_uris": {"android": "https://dc.lft.to/lastmile_qr_scan", "ios": "https://dc.lft.to/lastmile_qr_scan"}, "fusion_lon": 0.0, "name": "52f542da8dc3f8bc5bdbfac2a9e062ee", "lon": -77.0651265, "is_disabled": 0, "type": "electric_scooter"}, {"bike_id": "0987a122defd4e5ee9c9705f18ca60b0", "lat": 38.91098383333333, "is_reserved": 0, "fusion_lat": 0.0, "rental_uris": {"android": "https://dc.lft.to/lastmile_qr_scan", "ios": "https://dc.lft.to/lastmile_qr_scan"}, "fusion_lon": 0.0, "name": "0987a122defd4e5ee9c9705f18ca60b0", "lon": -77.03452083333333, "is_disabled": 0, "type": "electric_scooter"}, {"bike_id": "062a30635e961685c08e28c2b81910d9", "lat": 38.90861483333333, "is_reserved": 0, "fusion_lat": 0.0, "rental_uris": {"android": "https://dc.lft.to/lastmile_qr_scan", "ios": "https://dc.lft.to/lastmile_qr_scan"}, "fusion_lon": 0.0, "name": "062a30635e961685c08e28c2b81910d9", "lon": -77.02701933333333, "is_disabled": 0, "type": "electric_scooter"}, {"bike_id": "2ab5cc68ab53f99ce9fe29923cb20e54", "lat": 38.9111245, "is_reserved": 0, "fusion_lat": 0.0, "rental_uris": {"android": "https://dc.lft.to/lastmile_qr_scan", "ios": "https://dc.lft.to/lastmile_qr_scan"}, "fusion_lon": 0.0, "name": "2ab5cc68ab53f99ce9fe29923cb20e54", "lon": -77.038587, "is_disabled": 0, "type": "electric_scooter"}, {"bike_id": "1c7da496b2065c5cf3b3399e6cc33653", "lat": 38.92342983333333, "is_reserved": 0, "fusion_lat": 0.0, "rental_uris": {"android": "https://dc.lft.to/lastmile_qr_scan", "ios": "https://dc.lft.to/lastmile_qr_scan"}, "fusion_lon": 0.0, "name": "1c7da496b2065c5cf3b3399e6cc33653", "lon": -77.05121933333334, "is_disabled": 0, "type": "electric_scooter"}, {"bike_id": "8ad214d45d111d603a65ef2a09f5f1e0", "lat": 38.888255, "is_reserved": 0, "fusion_lat": 0.0, "rental_uris": {"android": "https://dc.lft.to/lastmile_qr_scan", "ios": "https://dc.lft.to/lastmile_qr_scan"}, "fusion_lon": 0.0, "name": "8ad214d45d111d603a65ef2a09f5f1e0", "lon": -76.99159833333333, "is_disabled": 0, "type": "electric_scooter"}, {"bike_id": "6dfa3165b1798b53bfeb789b9aadb846", "lat": 38.910113333333335, "is_reserved": 0, "fusion_lat": 0.0, "rental_uris": {"android": "https://dc.lft.to/lastmile_qr_scan", "ios": "https://dc.lft.to/lastmile_qr_scan"}, "fusion_lon": 0.0, "name": "6dfa3165b1798b53bfeb789b9aadb846", "lon": -77.01612166666666, "is_disabled": 0, "type": "electric_scooter"}, {"bike_id": "1552e676b5d3fd4cd2d8f1e033203f30", "lat": 38.9058785, "is_reserved": 0, "fusion_lat": 0.0, "rental_uris": {"android": "https://dc.lft.to/lastmile_qr_scan", "ios": "https://dc.lft.to/lastmile_qr_scan"}, "fusion_lon": 0.0, "name": "1552e676b5d3fd4cd2d8f1e033203f30", "lon": -77.045646, "is_disabled": 0, "type": "electric_scooter"}, {"bike_id": "4b92f204e77a5a4fe2e1dd30c6dc4159", "lat": 38.91783133333333, "is_reserved": 0, "fusion_lat": 0.0, "rental_uris": {"android": "https://dc.lft.to/lastmile_qr_scan", "ios": "https://dc.lft.to/lastmile_qr_scan"}, "fusion_lon": 0.0, "name": "4b92f204e77a5a4fe2e1dd30c6dc4159", "lon": -77.03181916666666, "is_disabled": 0, "type": "electric_scooter"}, {"bike_id": "56bd51778f3175cf592d8155e999d3c5", "lat": 38.915548333333334, "is_reserved": 0, "fusion_lat": 0.0, "rental_uris": {"android": "https://dc.lft.to/lastmile_qr_scan", "ios": "https://dc.lft.to/lastmile_qr_scan"}, "fusion_lon": 0.0, "name": "56bd51778f3175cf592d8155e999d3c5", "lon": -77.02209383333333, "is_disabled": 0, "type": "electric_scooter"}, {"bike_id": "2eca796c9861ba0d401b23cea8569af8", "lat": 38.942115, "is_reserved": 0, "fusion_lat": 0.0, "rental_uris": {"android": "https://dc.lft.to/lastmile_qr_scan", "ios": "https://dc.lft.to/lastmile_qr_scan"}, "fusion_lon": 0.0, "name": "2eca796c9861ba0d401b23cea8569af8", "lon": -77.02586116666667, "is_disabled": 0, "type": "electric_scooter"}, {"bike_id": "f713790f2e77d510b8a06d66a6eba8de", "lat": 39.056371166666665, "is_reserved": 0, "fusion_lat": 0.0, "rental_uris": {"android": "https://dc.lft.to/lastmile_qr_scan", "ios": "https://dc.lft.to/lastmile_qr_scan"}, "fusion_lon": 0.0, "name": "f713790f2e77d510b8a06d66a6eba8de", "lon": -77.12528083333333, "is_disabled": 0, "type": "electric_bike"}, {"bike_id": "513a6ce88b93d71616e29fbb5caaf106", "lat": 38.92257983333333, "is_reserved": 0, "fusion_lat": 0.0, "rental_uris": {"android": "https://dc.lft.to/lastmile_qr_scan", "ios": "https://dc.lft.to/lastmile_qr_scan"}, "fusion_lon": 0.0, "name": "513a6ce88b93d71616e29fbb5caaf106", "lon": -77.01950016666666, "is_disabled": 0, "type": "electric_scooter"}, {"bike_id": "47065ef7bd2f24fb58d6f6201a696187", "lat": 38.90853033333333, "is_reserved": 0, "fusion_lat": 0.0, "rental_uris": {"android": "https://dc.lft.to/lastmile_qr_scan", "ios": "https://dc.lft.to/lastmile_qr_scan"}, "fusion_lon": 0.0, "name": "47065ef7bd2f24fb58d6f6201a696187", "lon": -76.99969183333333, "is_disabled": 0, "type": "electric_scooter"}, {"bike_id": "ccb6e25e65e71b957b0f972232951630", "lat": 38.88778883333333, "is_reserved": 0, "fusion_lat": 0.0, "rental_uris": {"android": "https://dc.lft.to/lastmile_qr_scan", "ios": "https://dc.lft.to/lastmile_qr_scan"}, "fusion_lon": 0.0, "name": "ccb6e25e65e71b957b0f972232951630", "lon": -76.955332, "is_disabled": 0, "type": "electric_scooter"}, {"bike_id": "80f284e3b09f6eb0b314b1f216345e41", "lat": 38.86626066666667, "is_reserved": 0, "fusion_lat": 0.0, "rental_uris": {"android": "https://dc.lft.to/lastmile_qr_scan", "ios": "https://dc.lft.to/lastmile_qr_scan"}, "fusion_lon": 0.0, "name": "80f284e3b09f6eb0b314b1f216345e41", "lon": -76.9871515, "is_disabled": 0, "type": "electric_scooter"}, {"bike_id": "3907290e7002332a0d325c1c91c39425", "lat": 38.89634, "is_reserved": 0, "fusion_lat": 0.0, "rental_uris": {"android": "https://dc.lft.to/lastmile_qr_scan", "ios": "https://dc.lft.to/lastmile_qr_scan"}, "fusion_lon": 0.0, "name": "3907290e7002332a0d325c1c91c39425", "lon": -77.070689, "is_disabled": 0, "type": "electric_scooter"}, {"bike_id": "a61520cc2194af7db678640e823d860e", "lat": 38.89731533333333, "is_reserved": 0, "fusion_lat": 0.0, "rental_uris": {"android": "https://dc.lft.to/lastmile_qr_scan", "ios": "https://dc.lft.to/lastmile_qr_scan"}, "fusion_lon": 0.0, "name": "a61520cc2194af7db678640e823d860e", "lon": -77.02692183333333, "is_disabled": 0, "type": "electric_scooter"}, {"bike_id": "e29d62ac1a2687f30c87322b5d530f72", "lat": 38.928765, "is_reserved": 0, "fusion_lat": 0.0, "rental_uris": {"android": "https://dc.lft.to/lastmile_qr_scan", "ios": "https://dc.lft.to/lastmile_qr_scan"}, "fusion_lon": 0.0, "name": "e29d62ac1a2687f30c87322b5d530f72", "lon": -77.039275, "is_disabled": 0, "type": "electric_scooter"}, {"bike_id": "29be4f1064aa6d1858d8103aba8df81f", "lat": 38.93170666666666, "is_reserved": 0, "fusion_lat": 0.0, "rental_uris": {"android": "https://dc.lft.to/lastmile_qr_scan", "ios": "https://dc.lft.to/lastmile_qr_scan"}, "fusion_lon": 0.0, "name": "29be4f1064aa6d1858d8103aba8df81f", "lon": -77.03154683333334, "is_disabled": 0, "type": "electric_scooter"}, {"bike_id": "df20c0b689350eb73a3e742ad2a9e354", "lat": 38.90872316666667, "is_reserved": 0, "fusion_lat": 0.0, "rental_uris": {"android": "https://dc.lft.to/lastmile_qr_scan", "ios": "https://dc.lft.to/lastmile_qr_scan"}, "fusion_lon": 0.0, "name": "df20c0b689350eb73a3e742ad2a9e354", "lon": -77.03184983333334, "is_disabled": 0, "type": "electric_scooter"}, {"bike_id": "b73c70bba53aa49e9b2dcc66dbdfe0c2", "lat": 38.90799833333333, "is_reserved": 0, "fusion_lat": 0.0, "rental_uris": {"android": "https://dc.lft.to/lastmile_qr_scan", "ios": "https://dc.lft.to/lastmile_qr_scan"}, "fusion_lon": 0.0, "name": "b73c70bba53aa49e9b2dcc66dbdfe0c2", "lon": -77.0435325, "is_disabled": 0, "type": "electric_scooter"}, {"bike_id": "c903b98427ecf5775bfce42ac133bb2b", "lat": 38.90361816666667, "is_reserved": 0, "fusion_lat": 0.0, "rental_uris": {"android": "https://dc.lft.to/lastmile_qr_scan", "ios": "https://dc.lft.to/lastmile_qr_scan"}, "fusion_lon": 0.0, "name": "c903b98427ecf5775bfce42ac133bb2b", "lon": -77.03147316666667, "is_disabled": 0, "type": "electric_scooter"}, {"bike_id": "e40c10a00914cbdc4fe2843e1a661924", "lat": 38.89966233333333, "is_reserved": 0, "fusion_lat": 0.0, "rental_uris": {"android": "https://dc.lft.to/lastmile_qr_scan", "ios": "https://dc.lft.to/lastmile_qr_scan"}, "fusion_lon": 0.0, "name": "e40c10a00914cbdc4fe2843e1a661924", "lon": -77.01976016666667, "is_disabled": 0, "type": "electric_scooter"}, {"bike_id": "c37c6d07224a51cf0c65b76a6cb0cb1a", "lat": 38.923336166666665, "is_reserved": 0, "fusion_lat": 0.0, "rental_uris": {"android": "https://dc.lft.to/lastmile_qr_scan", "ios": "https://dc.lft.to/lastmile_qr_scan"}, "fusion_lon": 0.0, "name": "c37c6d07224a51cf0c65b76a6cb0cb1a", "lon": -77.0555815, "is_disabled": 0, "type": "electric_scooter"}, {"bike_id": "d8f27539f84392d904cba9e177da7b1c", "lat": 38.89887483333333, "is_reserved": 0, "fusion_lat": 0.0, "rental_uris": {"android": "https://dc.lft.to/lastmile_qr_scan", "ios": "https://dc.lft.to/lastmile_qr_scan"}, "fusion_lon": 0.0, "name": "d8f27539f84392d904cba9e177da7b1c", "lon": -76.93173683333333, "is_disabled": 0, "type": "electric_scooter"}, {"bike_id": "5728e8f0dfc675e8acefd349e1fd43d6", "lat": 38.91492366666667, "is_reserved": 0, "fusion_lat": 0.0, "rental_uris": {"android": "https://dc.lft.to/lastmile_qr_scan", "ios": "https://dc.lft.to/lastmile_qr_scan"}, "fusion_lon": 0.0, "name": "5728e8f0dfc675e8acefd349e1fd43d6", "lon": -77.03572366666667, "is_disabled": 0, "type": "electric_scooter"}, {"bike_id": "bb6e51a43a113488eca667f92b9fb571", "lat": 38.92751883333333, "is_reserved": 0, "fusion_lat": 0.0, "rental_uris": {"android": "https://dc.lft.to/lastmile_qr_scan", "ios": "https://dc.lft.to/lastmile_qr_scan"}, "fusion_lon": 0.0, "name": "bb6e51a43a113488eca667f92b9fb571", "lon": -77.02532916666667, "is_disabled": 0, "type": "electric_scooter"}, {"bike_id": "4232b7371e8f92e3e9fbcf1f626a6767", "lat": 38.868295333333336, "is_reserved": 0, "fusion_lat": 0.0, "rental_uris": {"android": "https://dc.lft.to/lastmile_qr_scan", "ios": "https://dc.lft.to/lastmile_qr_scan"}, "fusion_lon": 0.0, "name": "4232b7371e8f92e3e9fbcf1f626a6767", "lon": -76.98025316666667, "is_disabled": 0, "type": "electric_scooter"}, {"bike_id": "bdea6b350e15d7d8e99f546195de04b7", "lat": 38.901373166666666, "is_reserved": 0, "fusion_lat": 0.0, "rental_uris": {"android": "https://dc.lft.to/lastmile_qr_scan", "ios": "https://dc.lft.to/lastmile_qr_scan"}, "fusion_lon": 0.0, "name": "bdea6b350e15d7d8e99f546195de04b7", "lon": -77.02304933333333, "is_disabled": 0, "type": "electric_scooter"}, {"bike_id": "8bec6c4d8c3e0ad0063c51a26223db38", "lat": 38.90535966666667, "is_reserved": 0, "fusion_lat": 0.0, "rental_uris": {"android": "https://dc.lft.to/lastmile_qr_scan", "ios": "https://dc.lft.to/lastmile_qr_scan"}, "fusion_lon": 0.0, "name": "8bec6c4d8c3e0ad0063c51a26223db38", "lon": -77.017058, "is_disabled": 0, "type": "electric_scooter"}, {"bike_id": "761676eec6812ce5a1df7fd07937608f", "lat": 38.87421716666667, "is_reserved": 0, "fusion_lat": 0.0, "rental_uris": {"android": "https://dc.lft.to/lastmile_qr_scan", "ios": "https://dc.lft.to/lastmile_qr_scan"}, "fusion_lon": 0.0, "name": "761676eec6812ce5a1df7fd07937608f", "lon": -76.96909016666666, "is_disabled": 0, "type": "electric_scooter"}, {"bike_id": "d6228435446494c09e7bfbbda17e7518", "lat": 38.86688733333333, "is_reserved": 0, "fusion_lat": 0.0, "rental_uris": {"android": "https://dc.lft.to/lastmile_qr_scan", "ios": "https://dc.lft.to/lastmile_qr_scan"}, "fusion_lon": 0.0, "name": "d6228435446494c09e7bfbbda17e7518", "lon": -76.985759, "is_disabled": 0, "type": "electric_scooter"}, {"bike_id": "e20a4f5e90501b675ab200baabbe0b1a", "lat": 38.9289365, "is_reserved": 0, "fusion_lat": 0.0, "rental_uris": {"android": "https://dc.lft.to/lastmile_qr_scan", "ios": "https://dc.lft.to/lastmile_qr_scan"}, "fusion_lon": 0.0, "name": "e20a4f5e90501b675ab200baabbe0b1a", "lon": -77.023119, "is_disabled": 0, "type": "electric_scooter"}, {"bike_id": "58d206d780ccb073ba19ab92bae8c421", "lat": 38.922457333333334, "is_reserved": 0, "fusion_lat": 0.0, "rental_uris": {"android": "https://dc.lft.to/lastmile_qr_scan", "ios": "https://dc.lft.to/lastmile_qr_scan"}, "fusion_lon": 0.0, "name": "58d206d780ccb073ba19ab92bae8c421", "lon": -77.021541, "is_disabled": 0, "type": "electric_scooter"}, {"bike_id": "5aa64ce43adabddfcad5d488aebd8b0c", "lat": 38.8922185, "is_reserved": 0, "fusion_lat": 0.0, "rental_uris": {"android": "https://dc.lft.to/lastmile_qr_scan", "ios": "https://dc.lft.to/lastmile_qr_scan"}, "fusion_lon": 0.0, "name": "5aa64ce43adabddfcad5d488aebd8b0c", "lon": -77.02235883333333, "is_disabled": 0, "type": "electric_scooter"}, {"bike_id": "b44f0fc9eba0829ed28e6441bfb7d9c3", "lat": 38.8885215, "is_reserved": 0, "fusion_lat": 0.0, "rental_uris": {"android": "https://dc.lft.to/lastmile_qr_scan", "ios": "https://dc.lft.to/lastmile_qr_scan"}, "fusion_lon": 0.0, "name": "b44f0fc9eba0829ed28e6441bfb7d9c3", "lon": -76.92681233333333, "is_disabled": 0, "type": "electric_scooter"}, {"bike_id": "cf26480c7acd0894f256888d9ca75fe2", "lat": 38.88741816666667, "is_reserved": 0, "fusion_lat": 0.0, "rental_uris": {"android": "https://dc.lft.to/lastmile_qr_scan", "ios": "https://dc.lft.to/lastmile_qr_scan"}, "fusion_lon": 0.0, "name": "cf26480c7acd0894f256888d9ca75fe2", "lon": -77.02574933333334, "is_disabled": 0, "type": "electric_scooter"}, {"bike_id": "d5364fd3a9f51f2ae9366f439910d780", "lat": 38.919291333333334, "is_reserved": 0, "fusion_lat": 0.0, "rental_uris": {"android": "https://dc.lft.to/lastmile_qr_scan", "ios": "https://dc.lft.to/lastmile_qr_scan"}, "fusion_lon": 0.0, "name": "d5364fd3a9f51f2ae9366f439910d780", "lon": -77.03178066666666, "is_disabled": 0, "type": "electric_scooter"}, {"bike_id": "43afc544bf2b2cce27c44475647d74f3", "lat": 38.87864233333333, "is_reserved": 0, "fusion_lat": 0.0, "rental_uris": {"android": "https://dc.lft.to/lastmile_qr_scan", "ios": "https://dc.lft.to/lastmile_qr_scan"}, "fusion_lon": 0.0, "name": "43afc544bf2b2cce27c44475647d74f3", "lon": -76.9698685, "is_disabled": 0, "type": "electric_scooter"}, {"bike_id": "dfb8a4ac52e9654d0a87a8fdeb8e21aa", "lat": 38.8624805, "is_reserved": 0, "fusion_lat": 0.0, "rental_uris": {"android": "https://dc.lft.to/lastmile_qr_scan", "ios": "https://dc.lft.to/lastmile_qr_scan"}, "fusion_lon": 0.0, "name": "dfb8a4ac52e9654d0a87a8fdeb8e21aa", "lon": -76.9949925, "is_disabled": 0, "type": "electric_scooter"}, {"bike_id": "b73d6ee1602777f304a6fdb29baf9070", "lat": 38.922162, "is_reserved": 0, "fusion_lat": 0.0, "rental_uris": {"android": "https://dc.lft.to/lastmile_qr_scan", "ios": "https://dc.lft.to/lastmile_qr_scan"}, "fusion_lon": 0.0, "name": "b73d6ee1602777f304a6fdb29baf9070", "lon": -77.042396, "is_disabled": 0, "type": "electric_scooter"}, {"bike_id": "199863463824bf5efcaf07c54b6c0925", "lat": 38.91346216666667, "is_reserved": 0, "fusion_lat": 0.0, "rental_uris": {"android": "https://dc.lft.to/lastmile_qr_scan", "ios": "https://dc.lft.to/lastmile_qr_scan"}, "fusion_lon": 0.0, "name": "199863463824bf5efcaf07c54b6c0925", "lon": -77.07114883333334, "is_disabled": 0, "type": "electric_scooter"}, {"bike_id": "e001ab722674d74678e7fe22777d1708", "lat": 38.86192166666667, "is_reserved": 0, "fusion_lat": 0.0, "rental_uris": {"android": "https://dc.lft.to/lastmile_qr_scan", "ios": "https://dc.lft.to/lastmile_qr_scan"}, "fusion_lon": 0.0, "name": "e001ab722674d74678e7fe22777d1708", "lon": -76.95947133333334, "is_disabled": 0, "type": "electric_scooter"}, {"bike_id": "30406e1f08b4b1a639652028dca470be", "lat": 38.899640833333336, "is_reserved": 0, "fusion_lat": 0.0, "rental_uris": {"android": "https://dc.lft.to/lastmile_qr_scan", "ios": "https://dc.lft.to/lastmile_qr_scan"}, "fusion_lon": 0.0, "name": "30406e1f08b4b1a639652028dca470be", "lon": -77.047151, "is_disabled": 0, "type": "electric_scooter"}, {"bike_id": "8c67055fcd4f065d7ac695ed4c3e8279", "lat": 38.90022316666666, "is_reserved": 0, "fusion_lat": 0.0, "rental_uris": {"android": "https://dc.lft.to/lastmile_qr_scan", "ios": "https://dc.lft.to/lastmile_qr_scan"}, "fusion_lon": 0.0, "name": "8c67055fcd4f065d7ac695ed4c3e8279", "lon": -76.99865683333333, "is_disabled": 0, "type": "electric_scooter"}, {"bike_id": "5e3aaeb58b02e1a4d040304748700302", "lat": 38.876515, "is_reserved": 0, "fusion_lat": 0.0, "rental_uris": {"android": "https://dc.lft.to/lastmile_qr_scan", "ios": "https://dc.lft.to/lastmile_qr_scan"}, "fusion_lon": 0.0, "name": "5e3aaeb58b02e1a4d040304748700302", "lon": -76.9650335, "is_disabled": 0, "type": "electric_scooter"}, {"bike_id": "99f617bb2dc5234ce6c0be6ef05c25b4", "lat": 38.90268566666667, "is_reserved": 0, "fusion_lat": 0.0, "rental_uris": {"android": "https://dc.lft.to/lastmile_qr_scan", "ios": "https://dc.lft.to/lastmile_qr_scan"}, "fusion_lon": 0.0, "name": "99f617bb2dc5234ce6c0be6ef05c25b4", "lon": -77.0334505, "is_disabled": 0, "type": "electric_scooter"}, {"bike_id": "1867b1055a2de66788dfdd00cc8e9ff4", "lat": 38.92886333333333, "is_reserved": 0, "fusion_lat": 0.0, "rental_uris": {"android": "https://dc.lft.to/lastmile_qr_scan", "ios": "https://dc.lft.to/lastmile_qr_scan"}, "fusion_lon": 0.0, "name": "1867b1055a2de66788dfdd00cc8e9ff4", "lon": -77.03333733333334, "is_disabled": 0, "type": "electric_scooter"}, {"bike_id": "d9e862d1c6dc08ace2d6f733996890f6", "lat": 38.896072, "is_reserved": 0, "fusion_lat": 0.0, "rental_uris": {"android": "https://dc.lft.to/lastmile_qr_scan", "ios": "https://dc.lft.to/lastmile_qr_scan"}, "fusion_lon": 0.0, "name": "d9e862d1c6dc08ace2d6f733996890f6", "lon": -77.02213, "is_disabled": 0, "type": "electric_scooter"}, {"bike_id": "d951b6a4a99705f07e6be233d8f389fe", "lat": 38.9002215, "is_reserved": 0, "fusion_lat": 0.0, "rental_uris": {"android": "https://dc.lft.to/lastmile_qr_scan", "ios": "https://dc.lft.to/lastmile_qr_scan"}, "fusion_lon": 0.0, "name": "d951b6a4a99705f07e6be233d8f389fe", "lon": -77.00207933333333, "is_disabled": 0, "type": "electric_scooter"}, {"bike_id": "6539c98872013ad9f7f6bb3287096075", "lat": 38.96851433333333, "is_reserved": 0, "fusion_lat": 0.0, "rental_uris": {"android": "https://dc.lft.to/lastmile_qr_scan", "ios": "https://dc.lft.to/lastmile_qr_scan"}, "fusion_lon": 0.0, "name": "6539c98872013ad9f7f6bb3287096075", "lon": -77.02724116666667, "is_disabled": 0, "type": "electric_scooter"}, {"bike_id": "2270c24b9ec139bcf161db3c7a2f4c08", "lat": 38.93472583333333, "is_reserved": 0, "fusion_lat": 0.0, "rental_uris": {"android": "https://dc.lft.to/lastmile_qr_scan", "ios": "https://dc.lft.to/lastmile_qr_scan"}, "fusion_lon": 0.0, "name": "2270c24b9ec139bcf161db3c7a2f4c08", "lon": -77.07262283333333, "is_disabled": 0, "type": "electric_scooter"}, {"bike_id": "2170f53e12d6cc8fb78775f00921db31", "lat": 38.93216, "is_reserved": 0, "fusion_lat": 0.0, "rental_uris": {"android": "https://dc.lft.to/lastmile_qr_scan", "ios": "https://dc.lft.to/lastmile_qr_scan"}, "fusion_lon": 0.0, "name": "2170f53e12d6cc8fb78775f00921db31", "lon": -77.035065, "is_disabled": 0, "type": "electric_scooter"}, {"bike_id": "817d463edc2f77b6c460369034ec9b3b", "lat": 38.89482366666667, "is_reserved": 0, "fusion_lat": 0.0, "rental_uris": {"android": "https://dc.lft.to/lastmile_qr_scan", "ios": "https://dc.lft.to/lastmile_qr_scan"}, "fusion_lon": 0.0, "name": "817d463edc2f77b6c460369034ec9b3b", "lon": -76.94863333333333, "is_disabled": 0, "type": "electric_scooter"}, {"bike_id": "a7a038815648258a4b459c88af889ae4", "lat": 38.8771085, "is_reserved": 0, "fusion_lat": 0.0, "rental_uris": {"android": "https://dc.lft.to/lastmile_qr_scan", "ios": "https://dc.lft.to/lastmile_qr_scan"}, "fusion_lon": 0.0, "name": "a7a038815648258a4b459c88af889ae4", "lon": -77.0053205, "is_disabled": 0, "type": "electric_scooter"}, {"bike_id": "57bd207f141d4add4cc8f4ab7c5c0a6d", "lat": 38.90184583333333, "is_reserved": 0, "fusion_lat": 0.0, "rental_uris": {"android": "https://dc.lft.to/lastmile_qr_scan", "ios": "https://dc.lft.to/lastmile_qr_scan"}, "fusion_lon": 0.0, "name": "57bd207f141d4add4cc8f4ab7c5c0a6d", "lon": -77.046511, "is_disabled": 0, "type": "electric_scooter"}, {"bike_id": "b260ec62966e9edc019ea9a988c888e9", "lat": 38.900654833333334, "is_reserved": 0, "fusion_lat": 0.0, "rental_uris": {"android": "https://dc.lft.to/lastmile_qr_scan", "ios": "https://dc.lft.to/lastmile_qr_scan"}, "fusion_lon": 0.0, "name": "b260ec62966e9edc019ea9a988c888e9", "lon": -77.04531733333333, "is_disabled": 0, "type": "electric_scooter"}, {"bike_id": "6fb3be6d1c05d34e80f275fef4df44c3", "lat": 38.92043566666667, "is_reserved": 0, "fusion_lat": 0.0, "rental_uris": {"android": "https://dc.lft.to/lastmile_qr_scan", "ios": "https://dc.lft.to/lastmile_qr_scan"}, "fusion_lon": 0.0, "name": "6fb3be6d1c05d34e80f275fef4df44c3", "lon": -77.025781, "is_disabled": 0, "type": "electric_scooter"}, {"bike_id": "701d51b1a6dedbaea7ee62859efb993b", "lat": 38.8992045, "is_reserved": 0, "fusion_lat": 0.0, "rental_uris": {"android": "https://dc.lft.to/lastmile_qr_scan", "ios": "https://dc.lft.to/lastmile_qr_scan"}, "fusion_lon": 0.0, "name": "701d51b1a6dedbaea7ee62859efb993b", "lon": -77.003784, "is_disabled": 0, "type": "electric_scooter"}, {"bike_id": "a5b52894675a816a1a15870e4569e169", "lat": 38.89747666666667, "is_reserved": 0, "fusion_lat": 0.0, "rental_uris": {"android": "https://dc.lft.to/lastmile_qr_scan", "ios": "https://dc.lft.to/lastmile_qr_scan"}, "fusion_lon": 0.0, "name": "a5b52894675a816a1a15870e4569e169", "lon": -77.0274975, "is_disabled": 0, "type": "electric_scooter"}, {"bike_id": "0174fbbe89060d0b6fc5db35872e4ce7", "lat": 38.892227166666665, "is_reserved": 0, "fusion_lat": 0.0, "rental_uris": {"android": "https://dc.lft.to/lastmile_qr_scan", "ios": "https://dc.lft.to/lastmile_qr_scan"}, "fusion_lon": 0.0, "name": "0174fbbe89060d0b6fc5db35872e4ce7", "lon": -77.04369883333334, "is_disabled": 0, "type": "electric_scooter"}, {"bike_id": "8658bc1cbf242989d8cb79a63ce96e17", "lat": 38.94022566666666, "is_reserved": 0, "fusion_lat": 0.0, "rental_uris": {"android": "https://dc.lft.to/lastmile_qr_scan", "ios": "https://dc.lft.to/lastmile_qr_scan"}, "fusion_lon": 0.0, "name": "8658bc1cbf242989d8cb79a63ce96e17", "lon": -76.9760325, "is_disabled": 0, "type": "electric_scooter"}, {"bike_id": "97f8ae4a043b91d0d4934056905dfd68", "lat": 38.8943255, "is_reserved": 0, "fusion_lat": 0.0, "rental_uris": {"android": "https://dc.lft.to/lastmile_qr_scan", "ios": "https://dc.lft.to/lastmile_qr_scan"}, "fusion_lon": 0.0, "name": "97f8ae4a043b91d0d4934056905dfd68", "lon": -77.01045816666667, "is_disabled": 0, "type": "electric_scooter"}, {"bike_id": "43977b2d97cd90bbd1f63a4cd612f049", "lat": 38.892968833333335, "is_reserved": 0, "fusion_lat": 0.0, "rental_uris": {"android": "https://dc.lft.to/lastmile_qr_scan", "ios": "https://dc.lft.to/lastmile_qr_scan"}, "fusion_lon": 0.0, "name": "43977b2d97cd90bbd1f63a4cd612f049", "lon": -77.01993266666666, "is_disabled": 0, "type": "electric_scooter"}, {"bike_id": "e378816dd2a30135c597d3af0a2282ac", "lat": 38.9077205, "is_reserved": 0, "fusion_lat": 0.0, "rental_uris": {"android": "https://dc.lft.to/lastmile_qr_scan", "ios": "https://dc.lft.to/lastmile_qr_scan"}, "fusion_lon": 0.0, "name": "e378816dd2a30135c597d3af0a2282ac", "lon": -77.03445, "is_disabled": 0, "type": "electric_scooter"}, {"bike_id": "bd6b731e6636a9e93c7d47a973fb9eca", "lat": 38.91563633333333, "is_reserved": 0, "fusion_lat": 0.0, "rental_uris": {"android": "https://dc.lft.to/lastmile_qr_scan", "ios": "https://dc.lft.to/lastmile_qr_scan"}, "fusion_lon": 0.0, "name": "bd6b731e6636a9e93c7d47a973fb9eca", "lon": -77.03125266666666, "is_disabled": 0, "type": "electric_scooter"}, {"bike_id": "ddce7e53af58d7958624896c345cac21", "lat": 38.92627366666667, "is_reserved": 0, "fusion_lat": 0.0, "rental_uris": {"android": "https://dc.lft.to/lastmile_qr_scan", "ios": "https://dc.lft.to/lastmile_qr_scan"}, "fusion_lon": 0.0, "name": "ddce7e53af58d7958624896c345cac21", "lon": -77.03710266666667, "is_disabled": 0, "type": "electric_scooter"}, {"bike_id": "5d88a9858b5e28a16b847faaf5a382fb", "lat": 38.90413366666667, "is_reserved": 0, "fusion_lat": 0.0, "rental_uris": {"android": "https://dc.lft.to/lastmile_qr_scan", "ios": "https://dc.lft.to/lastmile_qr_scan"}, "fusion_lon": 0.0, "name": "5d88a9858b5e28a16b847faaf5a382fb", "lon": -76.973308, "is_disabled": 0, "type": "electric_scooter"}, {"bike_id": "b15b3376efa6ad9c47d032932c479e4c", "lat": 38.91348166666667, "is_reserved": 0, "fusion_lat": 0.0, "rental_uris": {"android": "https://dc.lft.to/lastmile_qr_scan", "ios": "https://dc.lft.to/lastmile_qr_scan"}, "fusion_lon": 0.0, "name": "b15b3376efa6ad9c47d032932c479e4c", "lon": -77.042205, "is_disabled": 0, "type": "electric_scooter"}, {"bike_id": "b5e525957c59bed8a5f3772e5e787200", "lat": 38.922476833333334, "is_reserved": 0, "fusion_lat": 0.0, "rental_uris": {"android": "https://dc.lft.to/lastmile_qr_scan", "ios": "https://dc.lft.to/lastmile_qr_scan"}, "fusion_lon": 0.0, "name": "b5e525957c59bed8a5f3772e5e787200", "lon": -77.02901433333334, "is_disabled": 0, "type": "electric_scooter"}, {"bike_id": "ac335d346bbc1a3931fb7e73a8834e8e", "lat": 38.91415633333333, "is_reserved": 0, "fusion_lat": 0.0, "rental_uris": {"android": "https://dc.lft.to/lastmile_qr_scan", "ios": "https://dc.lft.to/lastmile_qr_scan"}, "fusion_lon": 0.0, "name": "ac335d346bbc1a3931fb7e73a8834e8e", "lon": -77.02584066666667, "is_disabled": 0, "type": "electric_scooter"}, {"bike_id": "2e58002f0477a5e29dcc205d9d2900d1", "lat": 38.89612733333333, "is_reserved": 0, "fusion_lat": 0.0, "rental_uris": {"android": "https://dc.lft.to/lastmile_qr_scan", "ios": "https://dc.lft.to/lastmile_qr_scan"}, "fusion_lon": 0.0, "name": "2e58002f0477a5e29dcc205d9d2900d1", "lon": -76.9073585, "is_disabled": 0, "type": "electric_bike"}, {"bike_id": "9b524abef2ffadb15319791fe8f92eb7", "lat": 38.89902983333333, "is_reserved": 0, "fusion_lat": 0.0, "rental_uris": {"android": "https://dc.lft.to/lastmile_qr_scan", "ios": "https://dc.lft.to/lastmile_qr_scan"}, "fusion_lon": 0.0, "name": "9b524abef2ffadb15319791fe8f92eb7", "lon": -77.021739, "is_disabled": 0, "type": "electric_scooter"}, {"bike_id": "a2cf61c25fdebf11a04b8b669b6b3f47", "lat": 38.902887166666666, "is_reserved": 0, "fusion_lat": 0.0, "rental_uris": {"android": "https://dc.lft.to/lastmile_qr_scan", "ios": "https://dc.lft.to/lastmile_qr_scan"}, "fusion_lon": 0.0, "name": "a2cf61c25fdebf11a04b8b669b6b3f47", "lon": -77.03355816666667, "is_disabled": 0, "type": "electric_scooter"}, {"bike_id": "ecbd169a784329dee05585a2aa24570e", "lat": 38.94830833333333, "is_reserved": 0, "fusion_lat": 0.0, "rental_uris": {"android": "https://dc.lft.to/lastmile_qr_scan", "ios": "https://dc.lft.to/lastmile_qr_scan"}, "fusion_lon": 0.0, "name": "ecbd169a784329dee05585a2aa24570e", "lon": -77.0800595, "is_disabled": 0, "type": "electric_scooter"}, {"bike_id": "73d29e2597b4850bb96e98af6c4b95b6", "lat": 38.92025983333333, "is_reserved": 0, "fusion_lat": 0.0, "rental_uris": {"android": "https://dc.lft.to/lastmile_qr_scan", "ios": "https://dc.lft.to/lastmile_qr_scan"}, "fusion_lon": 0.0, "name": "73d29e2597b4850bb96e98af6c4b95b6", "lon": -77.04204783333333, "is_disabled": 0, "type": "electric_scooter"}, {"bike_id": "2f7806bf68f9a217093871024e86a4b6", "lat": 38.903899333333335, "is_reserved": 0, "fusion_lat": 0.0, "rental_uris": {"android": "https://dc.lft.to/lastmile_qr_scan", "ios": "https://dc.lft.to/lastmile_qr_scan"}, "fusion_lon": 0.0, "name": "2f7806bf68f9a217093871024e86a4b6", "lon": -77.02945216666667, "is_disabled": 0, "type": "electric_scooter"}, {"bike_id": "cbdce233d37a3857967b3ba6188517ac", "lat": 38.89790516666667, "is_reserved": 0, "fusion_lat": 0.0, "rental_uris": {"android": "https://dc.lft.to/lastmile_qr_scan", "ios": "https://dc.lft.to/lastmile_qr_scan"}, "fusion_lon": 0.0, "name": "cbdce233d37a3857967b3ba6188517ac", "lon": -77.02473816666667, "is_disabled": 0, "type": "electric_scooter"}, {"bike_id": "74c5bf12b9040db2b82cebe3cead4aba", "lat": 38.9351035, "is_reserved": 0, "fusion_lat": 0.0, "rental_uris": {"android": "https://dc.lft.to/lastmile_qr_scan", "ios": "https://dc.lft.to/lastmile_qr_scan"}, "fusion_lon": 0.0, "name": "74c5bf12b9040db2b82cebe3cead4aba", "lon": -77.03293, "is_disabled": 0, "type": "electric_scooter"}, {"bike_id": "2d2f405c5816639b85b13988fe5d2c6f", "lat": 38.892044166666665, "is_reserved": 0, "fusion_lat": 0.0, "rental_uris": {"android": "https://dc.lft.to/lastmile_qr_scan", "ios": "https://dc.lft.to/lastmile_qr_scan"}, "fusion_lon": 0.0, "name": "2d2f405c5816639b85b13988fe5d2c6f", "lon": -77.00292533333334, "is_disabled": 0, "type": "electric_scooter"}, {"bike_id": "db1a4adaf80851c5e30bc2947adbe59a", "lat": 38.916386, "is_reserved": 0, "fusion_lat": 0.0, "rental_uris": {"android": "https://dc.lft.to/lastmile_qr_scan", "ios": "https://dc.lft.to/lastmile_qr_scan"}, "fusion_lon": 0.0, "name": "db1a4adaf80851c5e30bc2947adbe59a", "lon": -77.00049916666667, "is_disabled": 0, "type": "electric_scooter"}, {"bike_id": "534ddfef36efa624b00f03640ecfd3c9", "lat": 38.919106, "is_reserved": 0, "fusion_lat": 0.0, "rental_uris": {"android": "https://dc.lft.to/lastmile_qr_scan", "ios": "https://dc.lft.to/lastmile_qr_scan"}, "fusion_lon": 0.0, "name": "534ddfef36efa624b00f03640ecfd3c9", "lon": -77.01362866666666, "is_disabled": 0, "type": "electric_scooter"}, {"bike_id": "c284f557dab8f0d6fef7ebc305e45352", "lat": 38.928629666666666, "is_reserved": 0, "fusion_lat": 0.0, "rental_uris": {"android": "https://dc.lft.to/lastmile_qr_scan", "ios": "https://dc.lft.to/lastmile_qr_scan"}, "fusion_lon": 0.0, "name": "c284f557dab8f0d6fef7ebc305e45352", "lon": -77.03626666666666, "is_disabled": 0, "type": "electric_scooter"}, {"bike_id": "a76c1249b7cd3981db0aba249124e7ee", "lat": 38.910294, "is_reserved": 0, "fusion_lat": 0.0, "rental_uris": {"android": "https://dc.lft.to/lastmile_qr_scan", "ios": "https://dc.lft.to/lastmile_qr_scan"}, "fusion_lon": 0.0, "name": "a76c1249b7cd3981db0aba249124e7ee", "lon": -76.98553283333334, "is_disabled": 0, "type": "electric_scooter"}, {"bike_id": "0e31e96d6f6fbf0749e95994f4412dc2", "lat": 38.916013666666665, "is_reserved": 0, "fusion_lat": 0.0, "rental_uris": {"android": "https://dc.lft.to/lastmile_qr_scan", "ios": "https://dc.lft.to/lastmile_qr_scan"}, "fusion_lon": 0.0, "name": "0e31e96d6f6fbf0749e95994f4412dc2", "lon": -77.0230135, "is_disabled": 0, "type": "electric_scooter"}, {"bike_id": "1cdae12e2513e9a503cbed707c6484e7", "lat": 38.859715666666666, "is_reserved": 0, "fusion_lat": 0.0, "rental_uris": {"android": "https://dc.lft.to/lastmile_qr_scan", "ios": "https://dc.lft.to/lastmile_qr_scan"}, "fusion_lon": 0.0, "name": "1cdae12e2513e9a503cbed707c6484e7", "lon": -76.991595, "is_disabled": 0, "type": "electric_scooter"}, {"bike_id": "c8ae9be4bad346d7034040ca18fa0132", "lat": 38.88549833333333, "is_reserved": 0, "fusion_lat": 0.0, "rental_uris": {"android": "https://dc.lft.to/lastmile_qr_scan", "ios": "https://dc.lft.to/lastmile_qr_scan"}, "fusion_lon": 0.0, "name": "c8ae9be4bad346d7034040ca18fa0132", "lon": -76.996157, "is_disabled": 0, "type": "electric_scooter"}, {"bike_id": "bcaa11617186e056b32a21eb57497b3b", "lat": 38.9419005, "is_reserved": 0, "fusion_lat": 0.0, "rental_uris": {"android": "https://dc.lft.to/lastmile_qr_scan", "ios": "https://dc.lft.to/lastmile_qr_scan"}, "fusion_lon": 0.0, "name": "bcaa11617186e056b32a21eb57497b3b", "lon": -77.02489516666667, "is_disabled": 0, "type": "electric_scooter"}, {"bike_id": "04f3d951a9a55baa1463edbcec2e4869", "lat": 38.90633066666667, "is_reserved": 0, "fusion_lat": 0.0, "rental_uris": {"android": "https://dc.lft.to/lastmile_qr_scan", "ios": "https://dc.lft.to/lastmile_qr_scan"}, "fusion_lon": 0.0, "name": "04f3d951a9a55baa1463edbcec2e4869", "lon": -77.03889716666667, "is_disabled": 0, "type": "electric_scooter"}, {"bike_id": "aaee46c0e2e7fdb9510bbeb9b0a1f0ca", "lat": 38.9288135, "is_reserved": 0, "fusion_lat": 0.0, "rental_uris": {"android": "https://dc.lft.to/lastmile_qr_scan", "ios": "https://dc.lft.to/lastmile_qr_scan"}, "fusion_lon": 0.0, "name": "aaee46c0e2e7fdb9510bbeb9b0a1f0ca", "lon": -77.03324066666667, "is_disabled": 0, "type": "electric_scooter"}, {"bike_id": "2498ef6654e716f1ebaebf8a340ff99a", "lat": 38.95652716666667, "is_reserved": 0, "fusion_lat": 0.0, "rental_uris": {"android": "https://dc.lft.to/lastmile_qr_scan", "ios": "https://dc.lft.to/lastmile_qr_scan"}, "fusion_lon": 0.0, "name": "2498ef6654e716f1ebaebf8a340ff99a", "lon": -77.01963816666667, "is_disabled": 0, "type": "electric_scooter"}, {"bike_id": "a4d73b1c73883832757bad190487dc9a", "lat": 38.93274616666667, "is_reserved": 0, "fusion_lat": 0.0, "rental_uris": {"android": "https://dc.lft.to/lastmile_qr_scan", "ios": "https://dc.lft.to/lastmile_qr_scan"}, "fusion_lon": 0.0, "name": "a4d73b1c73883832757bad190487dc9a", "lon": -77.03496833333334, "is_disabled": 0, "type": "electric_scooter"}, {"bike_id": "d8cfbfd4d215a612a7aa09c521f17257", "lat": 38.89238316666667, "is_reserved": 0, "fusion_lat": 0.0, "rental_uris": {"android": "https://dc.lft.to/lastmile_qr_scan", "ios": "https://dc.lft.to/lastmile_qr_scan"}, "fusion_lon": 0.0, "name": "d8cfbfd4d215a612a7aa09c521f17257", "lon": -76.94101333333333, "is_disabled": 0, "type": "electric_scooter"}, {"bike_id": "a291d5ac7e7a89f64ee7f698c23ea155", "lat": 38.9009285, "is_reserved": 0, "fusion_lat": 0.0, "rental_uris": {"android": "https://dc.lft.to/lastmile_qr_scan", "ios": "https://dc.lft.to/lastmile_qr_scan"}, "fusion_lon": 0.0, "name": "a291d5ac7e7a89f64ee7f698c23ea155", "lon": -76.983401, "is_disabled": 0, "type": "electric_scooter"}, {"bike_id": "d4b0bff4c45328745c654c80b506b187", "lat": 38.91655166666666, "is_reserved": 0, "fusion_lat": 0.0, "rental_uris": {"android": "https://dc.lft.to/lastmile_qr_scan", "ios": "https://dc.lft.to/lastmile_qr_scan"}, "fusion_lon": 0.0, "name": "d4b0bff4c45328745c654c80b506b187", "lon": -77.03194116666667, "is_disabled": 0, "type": "electric_scooter"}, {"bike_id": "a69c2d0a023a0fb01ee01d0e55cf91a2", "lat": 38.907520833333336, "is_reserved": 0, "fusion_lat": 0.0, "rental_uris": {"android": "https://dc.lft.to/lastmile_qr_scan", "ios": "https://dc.lft.to/lastmile_qr_scan"}, "fusion_lon": 0.0, "name": "a69c2d0a023a0fb01ee01d0e55cf91a2", "lon": -77.03208783333334, "is_disabled": 0, "type": "electric_scooter"}, {"bike_id": "3b1fbcb3f8346d12209dace1b01462c0", "lat": 38.90377383333333, "is_reserved": 0, "fusion_lat": 0.0, "rental_uris": {"android": "https://dc.lft.to/lastmile_qr_scan", "ios": "https://dc.lft.to/lastmile_qr_scan"}, "fusion_lon": 0.0, "name": "3b1fbcb3f8346d12209dace1b01462c0", "lon": -77.03873116666666, "is_disabled": 0, "type": "electric_scooter"}, {"bike_id": "38ba426da49238c394ceb1e15c8a7e3f", "lat": 38.91542366666667, "is_reserved": 0, "fusion_lat": 0.0, "rental_uris": {"android": "https://dc.lft.to/lastmile_qr_scan", "ios": "https://dc.lft.to/lastmile_qr_scan"}, "fusion_lon": 0.0, "name": "38ba426da49238c394ceb1e15c8a7e3f", "lon": -77.0445065, "is_disabled": 0, "type": "electric_scooter"}, {"bike_id": "f7df55bd761727d2924e96df8ed58dab", "lat": 38.8750225, "is_reserved": 0, "fusion_lat": 0.0, "rental_uris": {"android": "https://dc.lft.to/lastmile_qr_scan", "ios": "https://dc.lft.to/lastmile_qr_scan"}, "fusion_lon": 0.0, "name": "f7df55bd761727d2924e96df8ed58dab", "lon": -77.01232833333333, "is_disabled": 0, "type": "electric_scooter"}, {"bike_id": "63fc21d08c784d8a7e084546d78f7612", "lat": 38.878531333333335, "is_reserved": 0, "fusion_lat": 0.0, "rental_uris": {"android": "https://dc.lft.to/lastmile_qr_scan", "ios": "https://dc.lft.to/lastmile_qr_scan"}, "fusion_lon": 0.0, "name": "63fc21d08c784d8a7e084546d78f7612", "lon": -77.01769633333333, "is_disabled": 0, "type": "electric_scooter"}, {"bike_id": "89f6b062fcef1594b243d69cf46ac4f5", "lat": 38.809085333333336, "is_reserved": 0, "fusion_lat": 0.0, "rental_uris": {"android": "https://dc.lft.to/lastmile_qr_scan", "ios": "https://dc.lft.to/lastmile_qr_scan"}, "fusion_lon": 0.0, "name": "89f6b062fcef1594b243d69cf46ac4f5", "lon": -77.0865945, "is_disabled": 0, "type": "electric_bike"}, {"bike_id": "374ed71edba2864f6a4aae07c02fa82e", "lat": 38.865129833333334, "is_reserved": 0, "fusion_lat": 0.0, "rental_uris": {"android": "https://dc.lft.to/lastmile_qr_scan", "ios": "https://dc.lft.to/lastmile_qr_scan"}, "fusion_lon": 0.0, "name": "374ed71edba2864f6a4aae07c02fa82e", "lon": -76.9900935, "is_disabled": 0, "type": "electric_scooter"}, {"bike_id": "02b77db8bc15140ab726f002f046dd33", "lat": 38.902737, "is_reserved": 0, "fusion_lat": 0.0, "rental_uris": {"android": "https://dc.lft.to/lastmile_qr_scan", "ios": "https://dc.lft.to/lastmile_qr_scan"}, "fusion_lon": 0.0, "name": "02b77db8bc15140ab726f002f046dd33", "lon": -77.03928, "is_disabled": 0, "type": "electric_scooter"}, {"bike_id": "2475d6f639af8ffb6a4fa76f3db1f218", "lat": 38.92164016666667, "is_reserved": 0, "fusion_lat": 0.0, "rental_uris": {"android": "https://dc.lft.to/lastmile_qr_scan", "ios": "https://dc.lft.to/lastmile_qr_scan"}, "fusion_lon": 0.0, "name": "2475d6f639af8ffb6a4fa76f3db1f218", "lon": -77.02085616666666, "is_disabled": 0, "type": "electric_scooter"}, {"bike_id": "1c6d97838edd6110d45e70e16117b79e", "lat": 38.91774133333333, "is_reserved": 0, "fusion_lat": 0.0, "rental_uris": {"android": "https://dc.lft.to/lastmile_qr_scan", "ios": "https://dc.lft.to/lastmile_qr_scan"}, "fusion_lon": 0.0, "name": "1c6d97838edd6110d45e70e16117b79e", "lon": -77.0295175, "is_disabled": 0, "type": "electric_scooter"}, {"bike_id": "ef5d4eb3531a4a1be4dac76edcc353a4", "lat": 38.89239233333333, "is_reserved": 0, "fusion_lat": 0.0, "rental_uris": {"android": "https://dc.lft.to/lastmile_qr_scan", "ios": "https://dc.lft.to/lastmile_qr_scan"}, "fusion_lon": 0.0, "name": "ef5d4eb3531a4a1be4dac76edcc353a4", "lon": -76.95330716666666, "is_disabled": 0, "type": "electric_scooter"}, {"bike_id": "ce2203126c53f035e9b80721f668ea12", "lat": 38.92675633333333, "is_reserved": 0, "fusion_lat": 0.0, "rental_uris": {"android": "https://dc.lft.to/lastmile_qr_scan", "ios": "https://dc.lft.to/lastmile_qr_scan"}, "fusion_lon": 0.0, "name": "ce2203126c53f035e9b80721f668ea12", "lon": -77.07330566666667, "is_disabled": 0, "type": "electric_scooter"}, {"bike_id": "3cb6482726afe7164dfcd2059b093390", "lat": 38.892349333333335, "is_reserved": 0, "fusion_lat": 0.0, "rental_uris": {"android": "https://dc.lft.to/lastmile_qr_scan", "ios": "https://dc.lft.to/lastmile_qr_scan"}, "fusion_lon": 0.0, "name": "3cb6482726afe7164dfcd2059b093390", "lon": -77.0467345, "is_disabled": 0, "type": "electric_scooter"}, {"bike_id": "d9438fbeaf5ddd450cda91dfecde7cf0", "lat": 38.892444166666664, "is_reserved": 0, "fusion_lat": 0.0, "rental_uris": {"android": "https://dc.lft.to/lastmile_qr_scan", "ios": "https://dc.lft.to/lastmile_qr_scan"}, "fusion_lon": 0.0, "name": "d9438fbeaf5ddd450cda91dfecde7cf0", "lon": -77.04875316666667, "is_disabled": 0, "type": "electric_scooter"}, {"bike_id": "cef5e31704dd0fdbeeabe3bce6118373", "lat": 38.8624995, "is_reserved": 0, "fusion_lat": 0.0, "rental_uris": {"android": "https://dc.lft.to/lastmile_qr_scan", "ios": "https://dc.lft.to/lastmile_qr_scan"}, "fusion_lon": 0.0, "name": "cef5e31704dd0fdbeeabe3bce6118373", "lon": -76.99506066666666, "is_disabled": 0, "type": "electric_scooter"}, {"bike_id": "3503cc3098f67cd00b862ae8d9af878c", "lat": 38.92023483333333, "is_reserved": 0, "fusion_lat": 0.0, "rental_uris": {"android": "https://dc.lft.to/lastmile_qr_scan", "ios": "https://dc.lft.to/lastmile_qr_scan"}, "fusion_lon": 0.0, "name": "3503cc3098f67cd00b862ae8d9af878c", "lon": -77.0420585, "is_disabled": 0, "type": "electric_scooter"}, {"bike_id": "ce28c5f6e9a05c20c96ce0e93c4a6929", "lat": 38.9167035, "is_reserved": 0, "fusion_lat": 0.0, "rental_uris": {"android": "https://dc.lft.to/lastmile_qr_scan", "ios": "https://dc.lft.to/lastmile_qr_scan"}, "fusion_lon": 0.0, "name": "ce28c5f6e9a05c20c96ce0e93c4a6929", "lon": -77.023913, "is_disabled": 0, "type": "electric_scooter"}, {"bike_id": "c67484067c6b68f1b3b049f5111db088", "lat": 38.9027755, "is_reserved": 0, "fusion_lat": 0.0, "rental_uris": {"android": "https://dc.lft.to/lastmile_qr_scan", "ios": "https://dc.lft.to/lastmile_qr_scan"}, "fusion_lon": 0.0, "name": "c67484067c6b68f1b3b049f5111db088", "lon": -77.03839783333333, "is_disabled": 0, "type": "electric_scooter"}, {"bike_id": "358ed960110f529af8a063a7ae1f711b", "lat": 38.9318805, "is_reserved": 0, "fusion_lat": 0.0, "rental_uris": {"android": "https://dc.lft.to/lastmile_qr_scan", "ios": "https://dc.lft.to/lastmile_qr_scan"}, "fusion_lon": 0.0, "name": "358ed960110f529af8a063a7ae1f711b", "lon": -77.02676683333334, "is_disabled": 0, "type": "electric_scooter"}, {"bike_id": "b975afebb332bc7e57149f08bf1fc3c4", "lat": 38.94833533333333, "is_reserved": 0, "fusion_lat": 0.0, "rental_uris": {"android": "https://dc.lft.to/lastmile_qr_scan", "ios": "https://dc.lft.to/lastmile_qr_scan"}, "fusion_lon": 0.0, "name": "b975afebb332bc7e57149f08bf1fc3c4", "lon": -77.03902183333334, "is_disabled": 0, "type": "electric_bike"}, {"bike_id": "c260a2ba20cff8af0bb316031f2ceda9", "lat": 38.923883000000004, "is_reserved": 0, "fusion_lat": 0.0, "rental_uris": {"android": "https://dc.lft.to/lastmile_qr_scan", "ios": "https://dc.lft.to/lastmile_qr_scan"}, "fusion_lon": 0.0, "name": "c260a2ba20cff8af0bb316031f2ceda9", "lon": -77.0365895, "is_disabled": 0, "type": "electric_scooter"}, {"bike_id": "2bc7ba9524881fe28e18d81e4c57e253", "lat": 38.9287975, "is_reserved": 0, "fusion_lat": 0.0, "rental_uris": {"android": "https://dc.lft.to/lastmile_qr_scan", "ios": "https://dc.lft.to/lastmile_qr_scan"}, "fusion_lon": 0.0, "name": "2bc7ba9524881fe28e18d81e4c57e253", "lon": -77.01841216666666, "is_disabled": 0, "type": "electric_scooter"}, {"bike_id": "a4f6a806f9d24842387ee8de9f06f86c", "lat": 38.800418, "is_reserved": 0, "fusion_lat": 0.0, "rental_uris": {"android": "https://dc.lft.to/lastmile_qr_scan", "ios": "https://dc.lft.to/lastmile_qr_scan"}, "fusion_lon": 0.0, "name": "a4f6a806f9d24842387ee8de9f06f86c", "lon": -77.06308816666666, "is_disabled": 0, "type": "electric_bike"}, {"bike_id": "cbc5cc82520ed6261641a77cc345f8e6", "lat": 38.91818816666667, "is_reserved": 0, "fusion_lat": 0.0, "rental_uris": {"android": "https://dc.lft.to/lastmile_qr_scan", "ios": "https://dc.lft.to/lastmile_qr_scan"}, "fusion_lon": 0.0, "name": "cbc5cc82520ed6261641a77cc345f8e6", "lon": -77.02473516666667, "is_disabled": 0, "type": "electric_scooter"}, {"bike_id": "e96094750878fdc4acf84cbc5f58b7e9", "lat": 38.927289333333334, "is_reserved": 0, "fusion_lat": 0.0, "rental_uris": {"android": "https://dc.lft.to/lastmile_qr_scan", "ios": "https://dc.lft.to/lastmile_qr_scan"}, "fusion_lon": 0.0, "name": "e96094750878fdc4acf84cbc5f58b7e9", "lon": -77.02975166666667, "is_disabled": 0, "type": "electric_scooter"}, {"bike_id": "66d24ec8110eb7345688a4312dd35016", "lat": 38.901506166666664, "is_reserved": 0, "fusion_lat": 0.0, "rental_uris": {"android": "https://dc.lft.to/lastmile_qr_scan", "ios": "https://dc.lft.to/lastmile_qr_scan"}, "fusion_lon": 0.0, "name": "66d24ec8110eb7345688a4312dd35016", "lon": -77.0406435, "is_disabled": 0, "type": "electric_scooter"}, {"bike_id": "93160b398807a06202e9b219211a60e0", "lat": 38.9242915, "is_reserved": 0, "fusion_lat": 0.0, "rental_uris": {"android": "https://dc.lft.to/lastmile_qr_scan", "ios": "https://dc.lft.to/lastmile_qr_scan"}, "fusion_lon": 0.0, "name": "93160b398807a06202e9b219211a60e0", "lon": -77.051823, "is_disabled": 0, "type": "electric_scooter"}, {"bike_id": "a2322bc461ac8112746ad1f056fda47c", "lat": 38.916177833333336, "is_reserved": 0, "fusion_lat": 0.0, "rental_uris": {"android": "https://dc.lft.to/lastmile_qr_scan", "ios": "https://dc.lft.to/lastmile_qr_scan"}, "fusion_lon": 0.0, "name": "a2322bc461ac8112746ad1f056fda47c", "lon": -77.03385066666667, "is_disabled": 0, "type": "electric_scooter"}, {"bike_id": "7055153ed6ccb6a81969789dd8144198", "lat": 38.907151166666665, "is_reserved": 0, "fusion_lat": 0.0, "rental_uris": {"android": "https://dc.lft.to/lastmile_qr_scan", "ios": "https://dc.lft.to/lastmile_qr_scan"}, "fusion_lon": 0.0, "name": "7055153ed6ccb6a81969789dd8144198", "lon": -77.019263, "is_disabled": 0, "type": "electric_scooter"}, {"bike_id": "29b348d1d453b53eeffce783c197e479", "lat": 38.933651833333336, "is_reserved": 0, "fusion_lat": 0.0, "rental_uris": {"android": "https://dc.lft.to/lastmile_qr_scan", "ios": "https://dc.lft.to/lastmile_qr_scan"}, "fusion_lon": 0.0, "name": "29b348d1d453b53eeffce783c197e479", "lon": -77.04122933333333, "is_disabled": 0, "type": "electric_scooter"}, {"bike_id": "6771c9044b8556d5894d63448aa4546d", "lat": 38.8668665, "is_reserved": 0, "fusion_lat": 0.0, "rental_uris": {"android": "https://dc.lft.to/lastmile_qr_scan", "ios": "https://dc.lft.to/lastmile_qr_scan"}, "fusion_lon": 0.0, "name": "6771c9044b8556d5894d63448aa4546d", "lon": -76.98570933333333, "is_disabled": 0, "type": "electric_scooter"}, {"bike_id": "d946e8a96f7b893c62408cf5a6763a7d", "lat": 38.89709916666666, "is_reserved": 0, "fusion_lat": 0.0, "rental_uris": {"android": "https://dc.lft.to/lastmile_qr_scan", "ios": "https://dc.lft.to/lastmile_qr_scan"}, "fusion_lon": 0.0, "name": "d946e8a96f7b893c62408cf5a6763a7d", "lon": -77.02710966666666, "is_disabled": 0, "type": "electric_scooter"}, {"bike_id": "6140191418835bdb53078bbe54afa9f5", "lat": 38.9308065, "is_reserved": 0, "fusion_lat": 0.0, "rental_uris": {"android": "https://dc.lft.to/lastmile_qr_scan", "ios": "https://dc.lft.to/lastmile_qr_scan"}, "fusion_lon": 0.0, "name": "6140191418835bdb53078bbe54afa9f5", "lon": -77.02795916666666, "is_disabled": 0, "type": "electric_scooter"}, {"bike_id": "f6c875ed3178068d45c1f45c3b5df409", "lat": 38.90285266666667, "is_reserved": 0, "fusion_lat": 0.0, "rental_uris": {"android": "https://dc.lft.to/lastmile_qr_scan", "ios": "https://dc.lft.to/lastmile_qr_scan"}, "fusion_lon": 0.0, "name": "f6c875ed3178068d45c1f45c3b5df409", "lon": -77.03263983333333, "is_disabled": 0, "type": "electric_scooter"}, {"bike_id": "f0eb68ede5b2f3dc5abc21c37a459876", "lat": 38.89327016666667, "is_reserved": 0, "fusion_lat": 0.0, "rental_uris": {"android": "https://dc.lft.to/lastmile_qr_scan", "ios": "https://dc.lft.to/lastmile_qr_scan"}, "fusion_lon": 0.0, "name": "f0eb68ede5b2f3dc5abc21c37a459876", "lon": -77.0157775, "is_disabled": 0, "type": "electric_scooter"}, {"bike_id": "d033f9363b2a3e0f51e696df64e24976", "lat": 38.90030516666667, "is_reserved": 0, "fusion_lat": 0.0, "rental_uris": {"android": "https://dc.lft.to/lastmile_qr_scan", "ios": "https://dc.lft.to/lastmile_qr_scan"}, "fusion_lon": 0.0, "name": "d033f9363b2a3e0f51e696df64e24976", "lon": -77.04020033333333, "is_disabled": 0, "type": "electric_scooter"}, {"bike_id": "91406450e219a15d37317bc146227648", "lat": 38.902672, "is_reserved": 0, "fusion_lat": 0.0, "rental_uris": {"android": "https://dc.lft.to/lastmile_qr_scan", "ios": "https://dc.lft.to/lastmile_qr_scan"}, "fusion_lon": 0.0, "name": "91406450e219a15d37317bc146227648", "lon": -77.03923983333334, "is_disabled": 0, "type": "electric_scooter"}, {"bike_id": "c56b525ac0cd01d6a922ea5a38f13095", "lat": 38.91567633333333, "is_reserved": 0, "fusion_lat": 0.0, "rental_uris": {"android": "https://dc.lft.to/lastmile_qr_scan", "ios": "https://dc.lft.to/lastmile_qr_scan"}, "fusion_lon": 0.0, "name": "c56b525ac0cd01d6a922ea5a38f13095", "lon": -77.01034966666667, "is_disabled": 0, "type": "electric_scooter"}, {"bike_id": "e9d667d670b7491d5d957f7c65be76e9", "lat": 38.905416333333335, "is_reserved": 0, "fusion_lat": 0.0, "rental_uris": {"android": "https://dc.lft.to/lastmile_qr_scan", "ios": "https://dc.lft.to/lastmile_qr_scan"}, "fusion_lon": 0.0, "name": "e9d667d670b7491d5d957f7c65be76e9", "lon": -77.05020366666666, "is_disabled": 0, "type": "electric_scooter"}, {"bike_id": "6b3ec4b1940192c1ee7ddf43c84062cd", "lat": 38.91543216666667, "is_reserved": 0, "fusion_lat": 0.0, "rental_uris": {"android": "https://dc.lft.to/lastmile_qr_scan", "ios": "https://dc.lft.to/lastmile_qr_scan"}, "fusion_lon": 0.0, "name": "6b3ec4b1940192c1ee7ddf43c84062cd", "lon": -77.04457116666667, "is_disabled": 0, "type": "electric_scooter"}, {"bike_id": "3c667a7510d26fe8fbe4e34be1288df0", "lat": 38.949251333333336, "is_reserved": 0, "fusion_lat": 0.0, "rental_uris": {"android": "https://dc.lft.to/lastmile_qr_scan", "ios": "https://dc.lft.to/lastmile_qr_scan"}, "fusion_lon": 0.0, "name": "3c667a7510d26fe8fbe4e34be1288df0", "lon": -77.01856616666667, "is_disabled": 0, "type": "electric_scooter"}, {"bike_id": "9ac1e58f2680edef819cfb84e4e453fa", "lat": 38.892453333333336, "is_reserved": 0, "fusion_lat": 0.0, "rental_uris": {"android": "https://dc.lft.to/lastmile_qr_scan", "ios": "https://dc.lft.to/lastmile_qr_scan"}, "fusion_lon": 0.0, "name": "9ac1e58f2680edef819cfb84e4e453fa", "lon": -77.04502783333334, "is_disabled": 0, "type": "electric_scooter"}, {"bike_id": "92d43951d49b1803158bd4dc742e3d9b", "lat": 38.91539233333334, "is_reserved": 0, "fusion_lat": 0.0, "rental_uris": {"android": "https://dc.lft.to/lastmile_qr_scan", "ios": "https://dc.lft.to/lastmile_qr_scan"}, "fusion_lon": 0.0, "name": "92d43951d49b1803158bd4dc742e3d9b", "lon": -77.03210866666667, "is_disabled": 0, "type": "electric_scooter"}, {"bike_id": "21c2a1afc2d39781cad40c34ff77ed57", "lat": 38.9074215, "is_reserved": 0, "fusion_lat": 0.0, "rental_uris": {"android": "https://dc.lft.to/lastmile_qr_scan", "ios": "https://dc.lft.to/lastmile_qr_scan"}, "fusion_lon": 0.0, "name": "21c2a1afc2d39781cad40c34ff77ed57", "lon": -77.002759, "is_disabled": 0, "type": "electric_scooter"}, {"bike_id": "cfcab62e4c82613f13ca30c4d60712c4", "lat": 38.923182, "is_reserved": 0, "fusion_lat": 0.0, "rental_uris": {"android": "https://dc.lft.to/lastmile_qr_scan", "ios": "https://dc.lft.to/lastmile_qr_scan"}, "fusion_lon": 0.0, "name": "cfcab62e4c82613f13ca30c4d60712c4", "lon": -77.03749966666666, "is_disabled": 0, "type": "electric_scooter"}, {"bike_id": "70223a94f60d541fd5ab92364a9611e5", "lat": 38.91549933333334, "is_reserved": 0, "fusion_lat": 0.0, "rental_uris": {"android": "https://dc.lft.to/lastmile_qr_scan", "ios": "https://dc.lft.to/lastmile_qr_scan"}, "fusion_lon": 0.0, "name": "70223a94f60d541fd5ab92364a9611e5", "lon": -77.06679266666667, "is_disabled": 0, "type": "electric_bike"}, {"bike_id": "c3d9ae98a33511747bf59abac4fbe372", "lat": 38.937076, "is_reserved": 0, "fusion_lat": 0.0, "rental_uris": {"android": "https://dc.lft.to/lastmile_qr_scan", "ios": "https://dc.lft.to/lastmile_qr_scan"}, "fusion_lon": 0.0, "name": "c3d9ae98a33511747bf59abac4fbe372", "lon": -77.0560605, "is_disabled": 0, "type": "electric_bike"}, {"bike_id": "8954316411b28a29fe83b62c9309bc88", "lat": 38.933064333333334, "is_reserved": 0, "fusion_lat": 0.0, "rental_uris": {"android": "https://dc.lft.to/lastmile_qr_scan", "ios": "https://dc.lft.to/lastmile_qr_scan"}, "fusion_lon": 0.0, "name": "8954316411b28a29fe83b62c9309bc88", "lon": -77.07253183333333, "is_disabled": 0, "type": "electric_scooter"}, {"bike_id": "40bca7907a78e40e81f4ac1595fe6baa", "lat": 38.905029666666664, "is_reserved": 0, "fusion_lat": 0.0, "rental_uris": {"android": "https://dc.lft.to/lastmile_qr_scan", "ios": "https://dc.lft.to/lastmile_qr_scan"}, "fusion_lon": 0.0, "name": "40bca7907a78e40e81f4ac1595fe6baa", "lon": -77.06885416666667, "is_disabled": 0, "type": "electric_scooter"}, {"bike_id": "86d6ac4d1e7e6e7ac52aaed40abe809b", "lat": 38.89727083333333, "is_reserved": 0, "fusion_lat": 0.0, "rental_uris": {"android": "https://dc.lft.to/lastmile_qr_scan", "ios": "https://dc.lft.to/lastmile_qr_scan"}, "fusion_lon": 0.0, "name": "86d6ac4d1e7e6e7ac52aaed40abe809b", "lon": -77.0269195, "is_disabled": 0, "type": "electric_scooter"}, {"bike_id": "12e139bcc2768fbfb9a53806562b14bc", "lat": 38.9002865, "is_reserved": 0, "fusion_lat": 0.0, "rental_uris": {"android": "https://dc.lft.to/lastmile_qr_scan", "ios": "https://dc.lft.to/lastmile_qr_scan"}, "fusion_lon": 0.0, "name": "12e139bcc2768fbfb9a53806562b14bc", "lon": -76.98652866666667, "is_disabled": 0, "type": "electric_scooter"}, {"bike_id": "b38df2e06e434ce4665aeed26b35f91f", "lat": 38.903814833333335, "is_reserved": 0, "fusion_lat": 0.0, "rental_uris": {"android": "https://dc.lft.to/lastmile_qr_scan", "ios": "https://dc.lft.to/lastmile_qr_scan"}, "fusion_lon": 0.0, "name": "b38df2e06e434ce4665aeed26b35f91f", "lon": -77.00768716666667, "is_disabled": 0, "type": "electric_scooter"}, {"bike_id": "68813ef6ef9b9f384a693d36b9bca4e6", "lat": 38.91683466666667, "is_reserved": 0, "fusion_lat": 0.0, "rental_uris": {"android": "https://dc.lft.to/lastmile_qr_scan", "ios": "https://dc.lft.to/lastmile_qr_scan"}, "fusion_lon": 0.0, "name": "68813ef6ef9b9f384a693d36b9bca4e6", "lon": -77.02308116666667, "is_disabled": 0, "type": "electric_scooter"}, {"bike_id": "85d0238f18c6dc92f24bd95a6ef42baa", "lat": 38.9247655, "is_reserved": 0, "fusion_lat": 0.0, "rental_uris": {"android": "https://dc.lft.to/lastmile_qr_scan", "ios": "https://dc.lft.to/lastmile_qr_scan"}, "fusion_lon": 0.0, "name": "85d0238f18c6dc92f24bd95a6ef42baa", "lon": -77.02201466666666, "is_disabled": 0, "type": "electric_scooter"}, {"bike_id": "e16d57655d4ca642b52998ca5e6a91b9", "lat": 38.929261333333336, "is_reserved": 0, "fusion_lat": 0.0, "rental_uris": {"android": "https://dc.lft.to/lastmile_qr_scan", "ios": "https://dc.lft.to/lastmile_qr_scan"}, "fusion_lon": 0.0, "name": "e16d57655d4ca642b52998ca5e6a91b9", "lon": -77.03268833333334, "is_disabled": 0, "type": "electric_bike"}, {"bike_id": "67e6575e4a82ee7ccc42d6769bffafc1", "lat": 38.887150166666665, "is_reserved": 0, "fusion_lat": 0.0, "rental_uris": {"android": "https://dc.lft.to/lastmile_qr_scan", "ios": "https://dc.lft.to/lastmile_qr_scan"}, "fusion_lon": 0.0, "name": "67e6575e4a82ee7ccc42d6769bffafc1", "lon": -77.01776333333333, "is_disabled": 0, "type": "electric_scooter"}, {"bike_id": "d376dc6ad940d5eb0f48e5598106880b", "lat": 38.901059333333336, "is_reserved": 0, "fusion_lat": 0.0, "rental_uris": {"android": "https://dc.lft.to/lastmile_qr_scan", "ios": "https://dc.lft.to/lastmile_qr_scan"}, "fusion_lon": 0.0, "name": "d376dc6ad940d5eb0f48e5598106880b", "lon": -77.01234483333333, "is_disabled": 0, "type": "electric_scooter"}, {"bike_id": "3cb19c64d815e861e57fd67fbd8f04f0", "lat": 38.89048983333333, "is_reserved": 0, "fusion_lat": 0.0, "rental_uris": {"android": "https://dc.lft.to/lastmile_qr_scan", "ios": "https://dc.lft.to/lastmile_qr_scan"}, "fusion_lon": 0.0, "name": "3cb19c64d815e861e57fd67fbd8f04f0", "lon": -76.93750566666667, "is_disabled": 0, "type": "electric_scooter"}, {"bike_id": "c23feb4c64bd90cd948aee5771b7905c", "lat": 38.92050016666666, "is_reserved": 0, "fusion_lat": 0.0, "rental_uris": {"android": "https://dc.lft.to/lastmile_qr_scan", "ios": "https://dc.lft.to/lastmile_qr_scan"}, "fusion_lon": 0.0, "name": "c23feb4c64bd90cd948aee5771b7905c", "lon": -77.03397516666666, "is_disabled": 0, "type": "electric_scooter"}, {"bike_id": "64ccbb9cfd199fe098568a491a37c2e4", "lat": 38.905606666666664, "is_reserved": 0, "fusion_lat": 0.0, "rental_uris": {"android": "https://dc.lft.to/lastmile_qr_scan", "ios": "https://dc.lft.to/lastmile_qr_scan"}, "fusion_lon": 0.0, "name": "64ccbb9cfd199fe098568a491a37c2e4", "lon": -77.02174916666667, "is_disabled": 0, "type": "electric_scooter"}, {"bike_id": "79462b43d6cde0275df968af5f011494", "lat": 38.958232333333335, "is_reserved": 0, "fusion_lat": 0.0, "rental_uris": {"android": "https://dc.lft.to/lastmile_qr_scan", "ios": "https://dc.lft.to/lastmile_qr_scan"}, "fusion_lon": 0.0, "name": "79462b43d6cde0275df968af5f011494", "lon": -77.0283495, "is_disabled": 0, "type": "electric_scooter"}, {"bike_id": "0e81c9870ceb661d230b93b8deb86555", "lat": 38.89738833333333, "is_reserved": 0, "fusion_lat": 0.0, "rental_uris": {"android": "https://dc.lft.to/lastmile_qr_scan", "ios": "https://dc.lft.to/lastmile_qr_scan"}, "fusion_lon": 0.0, "name": "0e81c9870ceb661d230b93b8deb86555", "lon": -76.94724683333334, "is_disabled": 0, "type": "electric_scooter"}, {"bike_id": "37d6a0113976c04005c4a49da973e25d", "lat": 38.89195333333333, "is_reserved": 0, "fusion_lat": 0.0, "rental_uris": {"android": "https://dc.lft.to/lastmile_qr_scan", "ios": "https://dc.lft.to/lastmile_qr_scan"}, "fusion_lon": 0.0, "name": "37d6a0113976c04005c4a49da973e25d", "lon": -77.02405216666666, "is_disabled": 0, "type": "electric_scooter"}, {"bike_id": "5fd012933f52e880aa1067f15b659020", "lat": 38.9233275, "is_reserved": 0, "fusion_lat": 0.0, "rental_uris": {"android": "https://dc.lft.to/lastmile_qr_scan", "ios": "https://dc.lft.to/lastmile_qr_scan"}, "fusion_lon": 0.0, "name": "5fd012933f52e880aa1067f15b659020", "lon": -77.05332366666667, "is_disabled": 0, "type": "electric_scooter"}, {"bike_id": "c06edc27421b3354e08665195a29bbc1", "lat": 38.905578166666665, "is_reserved": 0, "fusion_lat": 0.0, "rental_uris": {"android": "https://dc.lft.to/lastmile_qr_scan", "ios": "https://dc.lft.to/lastmile_qr_scan"}, "fusion_lon": 0.0, "name": "c06edc27421b3354e08665195a29bbc1", "lon": -77.005952, "is_disabled": 0, "type": "electric_scooter"}, {"bike_id": "970d284f79aadf25b814315459d4891d", "lat": 38.890478, "is_reserved": 0, "fusion_lat": 0.0, "rental_uris": {"android": "https://dc.lft.to/lastmile_qr_scan", "ios": "https://dc.lft.to/lastmile_qr_scan"}, "fusion_lon": 0.0, "name": "970d284f79aadf25b814315459d4891d", "lon": -76.9375815, "is_disabled": 0, "type": "electric_scooter"}, {"bike_id": "9fe59d83f1bd7fe09aa364d72cf3a211", "lat": 38.929789666666665, "is_reserved": 0, "fusion_lat": 0.0, "rental_uris": {"android": "https://dc.lft.to/lastmile_qr_scan", "ios": "https://dc.lft.to/lastmile_qr_scan"}, "fusion_lon": 0.0, "name": "9fe59d83f1bd7fe09aa364d72cf3a211", "lon": -77.013004, "is_disabled": 0, "type": "electric_scooter"}, {"bike_id": "3d2ff9aa6d0d516b27ce2308e4ae61ee", "lat": 38.90674633333333, "is_reserved": 0, "fusion_lat": 0.0, "rental_uris": {"android": "https://dc.lft.to/lastmile_qr_scan", "ios": "https://dc.lft.to/lastmile_qr_scan"}, "fusion_lon": 0.0, "name": "3d2ff9aa6d0d516b27ce2308e4ae61ee", "lon": -77.0380265, "is_disabled": 0, "type": "electric_scooter"}, {"bike_id": "5950abfe62f6cf5e5f7fe881a293ca17", "lat": 38.900499833333335, "is_reserved": 0, "fusion_lat": 0.0, "rental_uris": {"android": "https://dc.lft.to/lastmile_qr_scan", "ios": "https://dc.lft.to/lastmile_qr_scan"}, "fusion_lon": 0.0, "name": "5950abfe62f6cf5e5f7fe881a293ca17", "lon": -77.00069283333333, "is_disabled": 0, "type": "electric_scooter"},