{"data": {"bikes": [{"is_reserved": 0, "type": "electric_scooter", "fusion_lat": 0.0, "is_disabled": 0, "rental_uris": {"ios": "https://dc.lft.to/lastmile_qr_scan", "android": "https://dc.lft.to/lastmile_qr_scan"}, "bike_id": "9650e368b440bc3121094e3afba3fec8", "lat": 38.92131783333333, "name": "9650e368b440bc3121094e3afba3fec8", "lon": -77.04428383333334, "fusion_lon": 0.0}, {"is_reserved": 0, "type": "electric_scooter", "fusion_lat": 0.0, "is_disabled": 0, "rental_uris": {"ios": "https://dc.lft.to/lastmile_qr_scan", "android": "https://dc.lft.to/lastmile_qr_scan"}, "bike_id": "b17fb3e114b85dafe12371905950ab8d", "lat": 38.903626333333335, "name": "b17fb3e114b85dafe12371905950ab8d", "lon": -77.06010316666666, "fusion_lon": 0.0}, {"is_reserved": 0, "type": "electric_scooter", "fusion_lat": 0.0, "is_disabled": 0, "rental_uris": {"ios": "https://dc.lft.to/lastmile_qr_scan", "android": "https://dc.lft.to/lastmile_qr_scan"}, "bike_id": "428620f5b8f3046be2b85dddbc442808", "lat": 38.89936816666667, "name": "428620f5b8f3046be2b85dddbc442808", "lon": -77.05396133333333, "fusion_lon": 0.0}, {"is_reserved": 0, "type": "electric_scooter", "fusion_lat": 0.0, "is_disabled": 0, "rental_uris": {"ios": "https://dc.lft.to/lastmile_qr_scan", "android": "https://dc.lft.to/lastmile_qr_scan"}, "bike_id": "4f5e52775b90006d2757e9076bf6b013", "lat": 38.88530266666667, "name": "4f5e52775b90006d2757e9076bf6b013", "lon": -76.98052066666666, "fusion_lon": 0.0}, {"is_reserved": 0, "type": "electric_scooter", "fusion_lat": 0.0, "is_disabled": 0, "rental_uris": {"ios": "https://dc.lft.to/lastmile_qr_scan", "android": "https://dc.lft.to/lastmile_qr_scan"}, "bike_id": "82b17714753c57672e17c65f752a4ca5", "lat": 38.9348665, "name": "82b17714753c57672e17c65f752a4ca5", "lon": -77.03635483333333, "fusion_lon": 0.0}, {"is_reserved": 0, "type": "electric_bike", "fusion_lat": 0.0, "is_disabled": 0, "rental_uris": {"ios": "https://dc.lft.to/lastmile_qr_scan", "android": "https://dc.lft.to/lastmile_qr_scan"}, "bike_id": "267abcdfb9232054b8ee78373cdc0822", "lat": 38.838644333333335, "name": "267abcdfb9232054b8ee78373cdc0822", "lon": -76.99696416666667, "fusion_lon": 0.0}, {"is_reserved": 0, "type": "electric_scooter", "fusion_lat": 0.0, "is_disabled": 0, "rental_uris": {"ios": "https://dc.lft.to/lastmile_qr_scan", "android": "https://dc.lft.to/lastmile_qr_scan"}, "bike_id": "9695b6200a93dafd05eac8380a092748", "lat": 38.9156355, "name": "9695b6200a93dafd05eac8380a092748", "lon": -77.04097633333333, "fusion_lon": 0.0}, {"is_reserved": 0, "type": "electric_scooter", "fusion_lat": 0.0, "is_disabled": 0, "rental_uris": {"ios": "https://dc.lft.to/lastmile_qr_scan", "android": "https://dc.lft.to/lastmile_qr_scan"}, "bike_id": "e8ccad8f7607cfe5ea8567764899aa7a", "lat": 38.90360366666667, "name": "e8ccad8f7607cfe5ea8567764899aa7a", "lon": -77.00750833333333, "fusion_lon": 0.0}, {"is_reserved": 0, "type": "electric_bike", "fusion_lat": 0.0, "is_disabled": 0, "rental_uris": {"ios": "https://dc.lft.to/lastmile_qr_scan", "android": "https://dc.lft.to/lastmile_qr_scan"}, "bike_id": "5678a9b09a13651c000cf896b137eac1", "lat": 38.90380066666667, "name": "5678a9b09a13651c000cf896b137eac1", "lon": -76.937576, "fusion_lon": 0.0}, {"is_reserved": 0, "type": "electric_scooter", "fusion_lat": 0.0, "is_disabled": 0, "rental_uris": {"ios": "https://dc.lft.to/lastmile_qr_scan", "android": "https://dc.lft.to/lastmile_qr_scan"}, "bike_id": "282b8b9870ae3adeda3ce7c21c44a90a", "lat": 38.9360045, "name": "282b8b9870ae3adeda3ce7c21c44a90a", "lon": -77.05596483333333, "fusion_lon": 0.0}, {"is_reserved": 0, "type": "electric_scooter", "fusion_lat": 0.0, "is_disabled": 0, "rental_uris": {"ios": "https://dc.lft.to/lastmile_qr_scan", "android": "https://dc.lft.to/lastmile_qr_scan"}, "bike_id": "9f00248f7fde654cb5318753b57d2948", "lat": 38.91459066666667, "name": "9f00248f7fde654cb5318753b57d2948", "lon": -77.02287983333333, "fusion_lon": 0.0}, {"is_reserved": 0, "type": "electric_bike", "fusion_lat": 0.0, "is_disabled": 0, "rental_uris": {"ios": "https://dc.lft.to/lastmile_qr_scan", "android": "https://dc.lft.to/lastmile_qr_scan"}, "bike_id": "c1f33d1c890b548ccb89c17d1a281f24", "lat": 38.865097, "name": "c1f33d1c890b548ccb89c17d1a281f24", "lon": -76.97340433333333, "fusion_lon": 0.0}, {"is_reserved": 0, "type": "electric_scooter", "fusion_lat": 0.0, "is_disabled": 0, "rental_uris": {"ios": "https://dc.lft.to/lastmile_qr_scan", "android": "https://dc.lft.to/lastmile_qr_scan"}, "bike_id": "fb14eb20f511a2cc96814eb86da23c30", "lat": 38.91912216666667, "name": "fb14eb20f511a2cc96814eb86da23c30", "lon": -77.02512583333333, "fusion_lon": 0.0}, {"is_reserved": 0, "type": "electric_bike", "fusion_lat": 0.0, "is_disabled": 0, "rental_uris": {"ios": "https://dc.lft.to/lastmile_qr_scan", "android": "https://dc.lft.to/lastmile_qr_scan"}, "bike_id": "024450877646cd00e908cceee6e6d60f", "lat": 38.87739466666667, "name": "024450877646cd00e908cceee6e6d60f", "lon": -77.14873183333333, "fusion_lon": 0.0}, {"is_reserved": 0, "type": "electric_scooter", "fusion_lat": 0.0, "is_disabled": 0, "rental_uris": {"ios": "https://dc.lft.to/lastmile_qr_scan", "android": "https://dc.lft.to/lastmile_qr_scan"}, "bike_id": "40ef5427491ea7f1053ea73753b2be2a", "lat": 38.878393333333335, "name": "40ef5427491ea7f1053ea73753b2be2a", "lon": -77.008562, "fusion_lon": 0.0}, {"is_reserved": 0, "type": "electric_scooter", "fusion_lat": 0.0, "is_disabled": 0, "rental_uris": {"ios": "https://dc.lft.to/lastmile_qr_scan", "android": "https://dc.lft.to/lastmile_qr_scan"}, "bike_id": "9bd7f8696e6fdcfdffcca8975fff49fc", "lat": 38.885231, "name": "9bd7f8696e6fdcfdffcca8975fff49fc", "lon": -76.9962135, "fusion_lon": 0.0}, {"is_reserved": 0, "type": "electric_scooter", "fusion_lat": 0.0, "is_disabled": 0, "rental_uris": {"ios": "https://dc.lft.to/lastmile_qr_scan", "android": "https://dc.lft.to/lastmile_qr_scan"}, "bike_id": "250adc98b9b6973faf18174f7dbed7bb", "lat": 38.90569966666666, "name": "250adc98b9b6973faf18174f7dbed7bb", "lon": -77.0311965, "fusion_lon": 0.0}, {"is_reserved": 0, "type": "electric_bike", "fusion_lat": 0.0, "is_disabled": 0, "rental_uris": {"ios": "https://dc.lft.to/lastmile_qr_scan", "android": "https://dc.lft.to/lastmile_qr_scan"}, "bike_id": "6f2235b6767f9971c9b3bb194d3a7a95", "lat": 39.0053155, "name": "6f2235b6767f9971c9b3bb194d3a7a95", "lon": -77.104017, "fusion_lon": 0.0}, {"is_reserved": 0, "type": "electric_scooter", "fusion_lat": 0.0, "is_disabled": 0, "rental_uris": {"ios": "https://dc.lft.to/lastmile_qr_scan", "android": "https://dc.lft.to/lastmile_qr_scan"}, "bike_id": "c36b6815691923dfc742f2075024fef5", "lat": 38.929667, "name": "c36b6815691923dfc742f2075024fef5", "lon": -77.02344066666667, "fusion_lon": 0.0}, {"is_reserved": 0, "type": "electric_scooter", "fusion_lat": 0.0, "is_disabled": 0, "rental_uris": {"ios": "https://dc.lft.to/lastmile_qr_scan", "android": "https://dc.lft.to/lastmile_qr_scan"}, "bike_id": "3090ba2b720f5598f0e2094292247129", "lat": 38.91472566666667, "name": "3090ba2b720f5598f0e2094292247129", "lon": -77.00924716666667, "fusion_lon": 0.0}, {"is_reserved": 0, "type": "electric_scooter", "fusion_lat": 0.0, "is_disabled": 0, "rental_uris": {"ios": "https://dc.lft.to/lastmile_qr_scan", "android": "https://dc.lft.to/lastmile_qr_scan"}, "bike_id": "8570ae966771a9d25d2b5c9f392b24fd", "lat": 38.898473, "name": "8570ae966771a9d25d2b5c9f392b24fd", "lon": -76.99484066666666, "fusion_lon": 0.0}, {"is_reserved": 0, "type": "electric_scooter", "fusion_lat": 0.0, "is_disabled": 0, "rental_uris": {"ios": "https://dc.lft.to/lastmile_qr_scan", "android": "https://dc.lft.to/lastmile_qr_scan"}, "bike_id": "e404b6160f75c1b4b7aac77877e74e3e", "lat": 38.8977995, "name": "e404b6160f75c1b4b7aac77877e74e3e", "lon": -77.01218416666667, "fusion_lon": 0.0}, {"is_reserved": 0, "type": "electric_scooter", "fusion_lat": 0.0, "is_disabled": 0, "rental_uris": {"ios": "https://dc.lft.to/lastmile_qr_scan", "android": "https://dc.lft.to/lastmile_qr_scan"}, "bike_id": "db99616cd30a2b8355d74cf1e64c6829", "lat": 38.8814465, "name": "db99616cd30a2b8355d74cf1e64c6829", "lon": -77.01303916666667, "fusion_lon": 0.0}, {"is_reserved": 0, "type": "electric_scooter", "fusion_lat": 0.0, "is_disabled": 0, "rental_uris": {"ios": "https://dc.lft.to/lastmile_qr_scan", "android": "https://dc.lft.to/lastmile_qr_scan"}, "bike_id": "c04301b611e17027897f79c7d15bf53a", "lat": 38.92463133333333, "name": "c04301b611e17027897f79c7d15bf53a", "lon": -77.0223775, "fusion_lon": 0.0}, {"is_reserved": 0, "type": "electric_bike", "fusion_lat": 0.0, "is_disabled": 0, "rental_uris": {"ios": "https://dc.lft.to/lastmile_qr_scan", "android": "https://dc.lft.to/lastmile_qr_scan"}, "bike_id": "da6273412536f84eb0cd9a022a36be26", "lat": 38.942629, "name": "da6273412536f84eb0cd9a022a36be26", "lon": -76.99071133333334, "fusion_lon": 0.0}, {"is_reserved": 0, "type": "electric_scooter", "fusion_lat": 0.0, "is_disabled": 0, "rental_uris": {"ios": "https://dc.lft.to/lastmile_qr_scan", "android": "https://dc.lft.to/lastmile_qr_scan"}, "bike_id": "0741aefd9856cba40cefb60a4c06d2ea", "lat": 38.900969333333336, "name": "0741aefd9856cba40cefb60a4c06d2ea", "lon": -77.04500266666666, "fusion_lon": 0.0}, {"is_reserved": 0, "type": "electric_scooter", "fusion_lat": 0.0, "is_disabled": 0, "rental_uris": {"ios": "https://dc.lft.to/lastmile_qr_scan", "android": "https://dc.lft.to/lastmile_qr_scan"}, "bike_id": "851f7b7e404e1a1444ce0a6ed32980cf", "lat": 38.92421183333333, "name": "851f7b7e404e1a1444ce0a6ed32980cf", "lon": -77.01950333333333, "fusion_lon": 0.0}, {"is_reserved": 0, "type": "electric_scooter", "fusion_lat": 0.0, "is_disabled": 0, "rental_uris": {"ios": "https://dc.lft.to/lastmile_qr_scan", "android": "https://dc.lft.to/lastmile_qr_scan"}, "bike_id": "de79ee22fda032d589d1ea79330abf95", "lat": 38.916899666666666, "name": "de79ee22fda032d589d1ea79330abf95", "lon": -77.015786, "fusion_lon": 0.0}, {"is_reserved": 0, "type": "electric_scooter", "fusion_lat": 0.0, "is_disabled": 0, "rental_uris": {"ios": "https://dc.lft.to/lastmile_qr_scan", "android": "https://dc.lft.to/lastmile_qr_scan"}, "bike_id": "cf3320e7187f03fa17bbac8d8ddb5274", "lat": 38.909528333333334, "name": "cf3320e7187f03fa17bbac8d8ddb5274", "lon": -77.023797, "fusion_lon": 0.0}, {"is_reserved": 0, "type": "electric_scooter", "fusion_lat": 0.0, "is_disabled": 0, "rental_uris": {"ios": "https://dc.lft.to/lastmile_qr_scan", "android": "https://dc.lft.to/lastmile_qr_scan"}, "bike_id": "f18325d099513ef39839a98927607dc5", "lat": 38.917240666666665, "name": "f18325d099513ef39839a98927607dc5", "lon": -77.02968566666667, "fusion_lon": 0.0}, {"is_reserved": 0, "type": "electric_scooter", "fusion_lat": 0.0, "is_disabled": 0, "rental_uris": {"ios": "https://dc.lft.to/lastmile_qr_scan", "android": "https://dc.lft.to/lastmile_qr_scan"}, "bike_id": "4fdb0a6fea2ccfd46caa63946952674d", "lat": 38.91562966666667, "name": "4fdb0a6fea2ccfd46caa63946952674d", "lon": -77.040921, "fusion_lon": 0.0}, {"is_reserved": 0, "type": "electric_scooter", "fusion_lat": 0.0, "is_disabled": 0, "rental_uris": {"ios": "https://dc.lft.to/lastmile_qr_scan", "android": "https://dc.lft.to/lastmile_qr_scan"}, "bike_id": "c8d35d03f04a76ff0b8bf6562112ac24", "lat": 38.91346033333333, "name": "c8d35d03f04a76ff0b8bf6562112ac24", "lon": -77.0435445, "fusion_lon": 0.0}, {"is_reserved": 0, "type": "electric_scooter", "fusion_lat": 0.0, "is_disabled": 0, "rental_uris": {"ios": "https://dc.lft.to/lastmile_qr_scan", "android": "https://dc.lft.to/lastmile_qr_scan"}, "bike_id": "11066f07889fa100bd28986d373af60a", "lat": 38.92037966666667, "name": "11066f07889fa100bd28986d373af60a", "lon": -77.01968066666667, "fusion_lon": 0.0}, {"is_reserved": 0, "type": "electric_scooter", "fusion_lat": 0.0, "is_disabled": 0, "rental_uris": {"ios": "https://dc.lft.to/lastmile_qr_scan", "android": "https://dc.lft.to/lastmile_qr_scan"}, "bike_id": "e3a1c0a1a54d6521dfc9747731ca8f28", "lat": 38.879392333333335, "name": "e3a1c0a1a54d6521dfc9747731ca8f28", "lon": -77.01003066666667, "fusion_lon": 0.0}, {"is_reserved": 0, "type": "electric_scooter", "fusion_lat": 0.0, "is_disabled": 0, "rental_uris": {"ios": "https://dc.lft.to/lastmile_qr_scan", "android": "https://dc.lft.to/lastmile_qr_scan"}, "bike_id": "e4c84d6e15fb55efd44688ab320fe742", "lat": 38.92666216666667, "name": "e4c84d6e15fb55efd44688ab320fe742", "lon": -77.02687816666666, "fusion_lon": 0.0}, {"is_reserved": 0, "type": "electric_scooter", "fusion_lat": 0.0, "is_disabled": 0, "rental_uris": {"ios": "https://dc.lft.to/lastmile_qr_scan", "android": "https://dc.lft.to/lastmile_qr_scan"}, "bike_id": "ea34e39f5b8266032275c04c18f756bf", "lat": 38.907309166666664, "name": "ea34e39f5b8266032275c04c18f756bf", "lon": -77.00392883333333, "fusion_lon": 0.0}, {"is_reserved": 0, "type": "electric_scooter", "fusion_lat": 0.0, "is_disabled": 0, "rental_uris": {"ios": "https://dc.lft.to/lastmile_qr_scan", "android": "https://dc.lft.to/lastmile_qr_scan"}, "bike_id": "f1c630a4cc7e510aeecca227ab156a41", "lat": 38.874211333333335, "name": "f1c630a4cc7e510aeecca227ab156a41", "lon": -76.971826, "fusion_lon": 0.0}, {"is_reserved": 0, "type": "electric_scooter", "fusion_lat": 0.0, "is_disabled": 0, "rental_uris": {"ios": "https://dc.lft.to/lastmile_qr_scan", "android": "https://dc.lft.to/lastmile_qr_scan"}, "bike_id": "2f175a5fb3c1e20f74159707d0212cf1", "lat": 38.900008, "name": "2f175a5fb3c1e20f74159707d0212cf1", "lon": -77.00389816666667, "fusion_lon": 0.0}, {"is_reserved": 0, "type": "electric_scooter", "fusion_lat": 0.0, "is_disabled": 0, "rental_uris": {"ios": "https://dc.lft.to/lastmile_qr_scan", "android": "https://dc.lft.to/lastmile_qr_scan"}, "bike_id": "2d64337b041cb06114f4d2f6860930ba", "lat": 38.91044566666667, "name": "2d64337b041cb06114f4d2f6860930ba", "lon": -77.01025333333334, "fusion_lon": 0.0}, {"is_reserved": 0, "type": "electric_scooter", "fusion_lat": 0.0, "is_disabled": 0, "rental_uris": {"ios": "https://dc.lft.to/lastmile_qr_scan", "android": "https://dc.lft.to/lastmile_qr_scan"}, "bike_id": "6ba5278e16b836baf7c1641f7843ab61", "lat": 38.93061633333333, "name": "6ba5278e16b836baf7c1641f7843ab61", "lon": -77.0367125, "fusion_lon": 0.0}, {"is_reserved": 0, "type": "electric_scooter", "fusion_lat": 0.0, "is_disabled": 0, "rental_uris": {"ios": "https://dc.lft.to/lastmile_qr_scan", "android": "https://dc.lft.to/lastmile_qr_scan"}, "bike_id": "4a6481618481c4dcb7bdde065c7c8a64", "lat": 38.91159, "name": "4a6481618481c4dcb7bdde065c7c8a64", "lon": -77.04480466666666, "fusion_lon": 0.0}, {"is_reserved": 0, "type": "electric_bike", "fusion_lat": 0.0, "is_disabled": 0, "rental_uris": {"ios": "https://dc.lft.to/lastmile_qr_scan", "android": "https://dc.lft.to/lastmile_qr_scan"}, "bike_id": "cd9a261fc18c55e287820ea4d111ab91", "lat": 38.86563483333333, "name": "cd9a261fc18c55e287820ea4d111ab91", "lon": -76.97477533333333, "fusion_lon": 0.0}, {"is_reserved": 0, "type": "electric_scooter", "fusion_lat": 0.0, "is_disabled": 0, "rental_uris": {"ios": "https://dc.lft.to/lastmile_qr_scan", "android": "https://dc.lft.to/lastmile_qr_scan"}, "bike_id": "da60ab32d0e26179ccfb97d0c640b440", "lat": 38.885785, "name": "da60ab32d0e26179ccfb97d0c640b440", "lon": -77.01227483333334, "fusion_lon": 0.0}, {"is_reserved": 0, "type": "electric_scooter", "fusion_lat": 0.0, "is_disabled": 0, "rental_uris": {"ios": "https://dc.lft.to/lastmile_qr_scan", "android": "https://dc.lft.to/lastmile_qr_scan"}, "bike_id": "835b8b09299d57fb0ee371e6e393784f", "lat": 38.90076616666666, "name": "835b8b09299d57fb0ee371e6e393784f", "lon": -77.01332016666667, "fusion_lon": 0.0}, {"is_reserved": 0, "type": "electric_bike", "fusion_lat": 0.0, "is_disabled": 0, "rental_uris": {"ios": "https://dc.lft.to/lastmile_qr_scan", "android": "https://dc.lft.to/lastmile_qr_scan"}, "bike_id": "8a8743646cb88276013be3c42f6fcf66", "lat": 38.82429166666667, "name": "8a8743646cb88276013be3c42f6fcf66", "lon": -77.12041983333333, "fusion_lon": 0.0}, {"is_reserved": 0, "type": "electric_bike", "fusion_lat": 0.0, "is_disabled": 0, "rental_uris": {"ios": "https://dc.lft.to/lastmile_qr_scan", "android": "https://dc.lft.to/lastmile_qr_scan"}, "bike_id": "1f63e3e8bd828b38a72f7f441f5aa049", "lat": 38.880263666666664, "name": "1f63e3e8bd828b38a72f7f441f5aa049", "lon": -76.9862505, "fusion_lon": 0.0}, {"is_reserved": 0, "type": "electric_scooter", "fusion_lat": 0.0, "is_disabled": 0, "rental_uris": {"ios": "https://dc.lft.to/lastmile_qr_scan", "android": "https://dc.lft.to/lastmile_qr_scan"}, "bike_id": "2fbb1f6d197dafca87c41e0aec5a7aa9", "lat": 38.914696666666664, "name": "2fbb1f6d197dafca87c41e0aec5a7aa9", "lon": -77.00207366666666, "fusion_lon": 0.0}, {"is_reserved": 0, "type": "electric_scooter", "fusion_lat": 0.0, "is_disabled": 0, "rental_uris": {"ios": "https://dc.lft.to/lastmile_qr_scan", "android": "https://dc.lft.to/lastmile_qr_scan"}, "bike_id": "603777fd13362e7d4139304b3dbd5853", "lat": 38.91696533333333, "name": "603777fd13362e7d4139304b3dbd5853", "lon": -77.0530055, "fusion_lon": 0.0}, {"is_reserved": 0, "type": "electric_scooter", "fusion_lat": 0.0, "is_disabled": 0, "rental_uris": {"ios": "https://dc.lft.to/lastmile_qr_scan", "android": "https://dc.lft.to/lastmile_qr_scan"}, "bike_id": "d26d3f108f803bf2bb4e764f304059ef", "lat": 38.91719966666667, "name": "d26d3f108f803bf2bb4e764f304059ef", "lon": -77.0683795, "fusion_lon": 0.0}, {"is_reserved": 0, "type": "electric_scooter", "fusion_lat": 0.0, "is_disabled": 0, "rental_uris": {"ios": "https://dc.lft.to/lastmile_qr_scan", "android": "https://dc.lft.to/lastmile_qr_scan"}, "bike_id": "625c168b278640990c8b7388cb65b1d5", "lat": 38.91960316666667, "name": "625c168b278640990c8b7388cb65b1d5", "lon": -77.02374816666666, "fusion_lon": 0.0}, {"is_reserved": 0, "type": "electric_scooter", "fusion_lat": 0.0, "is_disabled": 0, "rental_uris": {"ios": "https://dc.lft.to/lastmile_qr_scan", "android": "https://dc.lft.to/lastmile_qr_scan"}, "bike_id": "c54c9a90dfbc4e1ffaca84823b786109", "lat": 38.896604333333336, "name": "c54c9a90dfbc4e1ffaca84823b786109", "lon": -77.04337866666667, "fusion_lon": 0.0}, {"is_reserved": 0, "type": "electric_scooter", "fusion_lat": 0.0, "is_disabled": 0, "rental_uris": {"ios": "https://dc.lft.to/lastmile_qr_scan", "android": "https://dc.lft.to/lastmile_qr_scan"}, "bike_id": "b229f30806ad2cefae098a42f2c34919", "lat": 38.917290666666666, "name": "b229f30806ad2cefae098a42f2c34919", "lon": -77.0458255, "fusion_lon": 0.0}, {"is_reserved": 0, "type": "electric_scooter", "fusion_lat": 0.0, "is_disabled": 0, "rental_uris": {"ios": "https://dc.lft.to/lastmile_qr_scan", "android": "https://dc.lft.to/lastmile_qr_scan"}, "bike_id": "94c36c8f6b6ea8562b6931f76e51436d", "lat": 38.929609, "name": "94c36c8f6b6ea8562b6931f76e51436d", "lon": -77.03284233333333, "fusion_lon": 0.0}, {"is_reserved": 0, "type": "electric_bike", "fusion_lat": 0.0, "is_disabled": 0, "rental_uris": {"ios": "https://dc.lft.to/lastmile_qr_scan", "android": "https://dc.lft.to/lastmile_qr_scan"}, "bike_id": "23beb0ffca26806e889dc6d6c51c35ed", "lat": 38.8220905, "name": "23beb0ffca26806e889dc6d6c51c35ed", "lon": -76.97701683333334, "fusion_lon": 0.0}, {"is_reserved": 0, "type": "electric_scooter", "fusion_lat": 0.0, "is_disabled": 0, "rental_uris": {"ios": "https://dc.lft.to/lastmile_qr_scan", "android": "https://dc.lft.to/lastmile_qr_scan"}, "bike_id": "567b1a6718db98a2e4b9e80ce8bfbca8", "lat": 38.92166133333333, "name": "567b1a6718db98a2e4b9e80ce8bfbca8", "lon": -77.04122633333333, "fusion_lon": 0.0}, {"is_reserved": 0, "type": "electric_scooter", "fusion_lat": 0.0, "is_disabled": 0, "rental_uris": {"ios": "https://dc.lft.to/lastmile_qr_scan", "android": "https://dc.lft.to/lastmile_qr_scan"}, "bike_id": "2abc9fe0d731c4fdb014f594fd077554", "lat": 38.883663166666665, "name": "2abc9fe0d731c4fdb014f594fd077554", "lon": -76.99518783333333, "fusion_lon": 0.0}, {"is_reserved": 0, "type": "electric_scooter", "fusion_lat": 0.0, "is_disabled": 0, "rental_uris": {"ios": "https://dc.lft.to/lastmile_qr_scan", "android": "https://dc.lft.to/lastmile_qr_scan"}, "bike_id": "d3d9dc44ea30805d75d950e7890e5393", "lat": 38.931035333333334, "name": "d3d9dc44ea30805d75d950e7890e5393", "lon": -77.02475516666667, "fusion_lon": 0.0}, {"is_reserved": 0, "type": "electric_scooter", "fusion_lat": 0.0, "is_disabled": 0, "rental_uris": {"ios": "https://dc.lft.to/lastmile_qr_scan", "android": "https://dc.lft.to/lastmile_qr_scan"}, "bike_id": "1638efb9d5b018f2445708373d9f6501", "lat": 38.899762333333335, "name": "1638efb9d5b018f2445708373d9f6501", "lon": -77.04189816666667, "fusion_lon": 0.0}, {"is_reserved": 0, "type": "electric_scooter", "fusion_lat": 0.0, "is_disabled": 0, "rental_uris": {"ios": "https://dc.lft.to/lastmile_qr_scan", "android": "https://dc.lft.to/lastmile_qr_scan"}, "bike_id": "2a1272d47c704955bb11a8028fce9723", "lat": 38.92007816666667, "name": "2a1272d47c704955bb11a8028fce9723", "lon": -77.041765, "fusion_lon": 0.0}, {"is_reserved": 0, "type": "electric_scooter", "fusion_lat": 0.0, "is_disabled": 0, "rental_uris": {"ios": "https://dc.lft.to/lastmile_qr_scan", "android": "https://dc.lft.to/lastmile_qr_scan"}, "bike_id": "e529e8012425f926a62b016a76abfc7f", "lat": 38.88543583333333, "name": "e529e8012425f926a62b016a76abfc7f", "lon": -76.95449366666666, "fusion_lon": 0.0}, {"is_reserved": 0, "type": "electric_scooter", "fusion_lat": 0.0, "is_disabled": 0, "rental_uris": {"ios": "https://dc.lft.to/lastmile_qr_scan", "android": "https://dc.lft.to/lastmile_qr_scan"}, "bike_id": "b550d71a9ab1bdac76facf4f2f950796", "lat": 38.943162666666666, "name": "b550d71a9ab1bdac76facf4f2f950796", "lon": -77.07638033333333, "fusion_lon": 0.0}, {"is_reserved": 0, "type": "electric_scooter", "fusion_lat": 0.0, "is_disabled": 0, "rental_uris": {"ios": "https://dc.lft.to/lastmile_qr_scan", "android": "https://dc.lft.to/lastmile_qr_scan"}, "bike_id": "50615f0b08cc54c9117103460a080584", "lat": 38.9197065, "name": "50615f0b08cc54c9117103460a080584", "lon": -77.039616, "fusion_lon": 0.0}, {"is_reserved": 0, "type": "electric_scooter", "fusion_lat": 0.0, "is_disabled": 0, "rental_uris": {"ios": "https://dc.lft.to/lastmile_qr_scan", "android": "https://dc.lft.to/lastmile_qr_scan"}, "bike_id": "5c5e490e05b0a8fb7c4a64bfe91f89ff", "lat": 38.8923045, "name": "5c5e490e05b0a8fb7c4a64bfe91f89ff", "lon": -77.023837, "fusion_lon": 0.0}, {"is_reserved": 0, "type": "electric_scooter", "fusion_lat": 0.0, "is_disabled": 0, "rental_uris": {"ios": "https://dc.lft.to/lastmile_qr_scan", "android": "https://dc.lft.to/lastmile_qr_scan"}, "bike_id": "093726d6d797bbcd26e22323823607e8", "lat": 38.91534883333333, "name": "093726d6d797bbcd26e22323823607e8", "lon": -77.04435766666667, "fusion_lon": 0.0}, {"is_reserved": 0, "type": "electric_scooter", "fusion_lat": 0.0, "is_disabled": 0, "rental_uris": {"ios": "https://dc.lft.to/lastmile_qr_scan", "android": "https://dc.lft.to/lastmile_qr_scan"}, "bike_id": "848a152976a1c14a4fb6a37cbaa1622e", "lat": 38.90263866666667, "name": "848a152976a1c14a4fb6a37cbaa1622e", "lon": -77.039593, "fusion_lon": 0.0}, {"is_reserved": 0, "type": "electric_scooter", "fusion_lat": 0.0, "is_disabled": 0, "rental_uris": {"ios": "https://dc.lft.to/lastmile_qr_scan", "android": "https://dc.lft.to/lastmile_qr_scan"}, "bike_id": "b4b6ee96283780f5e331bb318eb1f9c0", "lat": 38.9094805, "name": "b4b6ee96283780f5e331bb318eb1f9c0", "lon": -77.046624, "fusion_lon": 0.0}, {"is_reserved": 0, "type": "electric_scooter", "fusion_lat": 0.0, "is_disabled": 0, "rental_uris": {"ios": "https://dc.lft.to/lastmile_qr_scan", "android": "https://dc.lft.to/lastmile_qr_scan"}, "bike_id": "af5cc371fd2a7f177af146e0c81f89f0", "lat": 38.921786833333336, "name": "af5cc371fd2a7f177af146e0c81f89f0", "lon": -77.04021, "fusion_lon": 0.0}, {"is_reserved": 0, "type": "electric_scooter", "fusion_lat": 0.0, "is_disabled": 0, "rental_uris": {"ios": "https://dc.lft.to/lastmile_qr_scan", "android": "https://dc.lft.to/lastmile_qr_scan"}, "bike_id": "d8d19d27292015e6189e6529e3dad4f4", "lat": 38.9023385, "name": "d8d19d27292015e6189e6529e3dad4f4", "lon": -77.02010283333334, "fusion_lon": 0.0}, {"is_reserved": 0, "type": "electric_scooter", "fusion_lat": 0.0, "is_disabled": 0, "rental_uris": {"ios": "https://dc.lft.to/lastmile_qr_scan", "android": "https://dc.lft.to/lastmile_qr_scan"}, "bike_id": "b596135a52faf1a91975e0ecc3cb3085", "lat": 38.904698333333336, "name": "b596135a52faf1a91975e0ecc3cb3085", "lon": -77.0355535, "fusion_lon": 0.0}, {"is_reserved": 0, "type": "electric_scooter", "fusion_lat": 0.0, "is_disabled": 0, "rental_uris": {"ios": "https://dc.lft.to/lastmile_qr_scan", "android": "https://dc.lft.to/lastmile_qr_scan"}, "bike_id": "3563e9fa91e083e0a794088e47d63607", "lat": 38.936074833333336, "name": "3563e9fa91e083e0a794088e47d63607", "lon": -77.0559245, "fusion_lon": 0.0}, {"is_reserved": 0, "type": "electric_scooter", "fusion_lat": 0.0, "is_disabled": 0, "rental_uris": {"ios": "https://dc.lft.to/lastmile_qr_scan", "android": "https://dc.lft.to/lastmile_qr_scan"}, "bike_id": "5cf812d6c6e67f036325ef2418beb4b6", "lat": 38.921480833333334, "name": "5cf812d6c6e67f036325ef2418beb4b6", "lon": -77.03509133333333, "fusion_lon": 0.0}, {"is_reserved": 0, "type": "electric_scooter", "fusion_lat": 0.0, "is_disabled": 0, "rental_uris": {"ios": "https://dc.lft.to/lastmile_qr_scan", "android": "https://dc.lft.to/lastmile_qr_scan"}, "bike_id": "8cd3e1b5ddcc46f332842e3457a650b3", "lat": 38.9182265, "name": "8cd3e1b5ddcc46f332842e3457a650b3", "lon": -77.02705333333333, "fusion_lon": 0.0}, {"is_reserved": 0, "type": "electric_scooter", "fusion_lat": 0.0, "is_disabled": 0, "rental_uris": {"ios": "https://dc.lft.to/lastmile_qr_scan", "android": "https://dc.lft.to/lastmile_qr_scan"}, "bike_id": "753450221d7edd8103b51f04f2fbe838", "lat": 38.897343166666666, "name": "753450221d7edd8103b51f04f2fbe838", "lon": -77.02804383333333, "fusion_lon": 0.0}, {"is_reserved": 0, "type": "electric_scooter", "fusion_lat": 0.0, "is_disabled": 0, "rental_uris": {"ios": "https://dc.lft.to/lastmile_qr_scan", "android": "https://dc.lft.to/lastmile_qr_scan"}, "bike_id": "da7e202c1f9d3831005d20edafdceab9", "lat": 38.901031833333334, "name": "da7e202c1f9d3831005d20edafdceab9", "lon": -77.03436216666667, "fusion_lon": 0.0}, {"is_reserved": 0, "type": "electric_scooter", "fusion_lat": 0.0, "is_disabled": 0, "rental_uris": {"ios": "https://dc.lft.to/lastmile_qr_scan", "android": "https://dc.lft.to/lastmile_qr_scan"}, "bike_id": "0f6e08cfa66dadc91540cc6bb1f247cb", "lat": 38.92352566666667, "name": "0f6e08cfa66dadc91540cc6bb1f247cb", "lon": -77.0731505, "fusion_lon": 0.0}, {"is_reserved": 0, "type": "electric_bike", "fusion_lat": 0.0, "is_disabled": 0, "rental_uris": {"ios": "https://dc.lft.to/lastmile_qr_scan", "android": "https://dc.lft.to/lastmile_qr_scan"}, "bike_id": "1a19d4458bf391d15b2cb55d12142d61", "lat": 38.98283983333334, "name": "1a19d4458bf391d15b2cb55d12142d61", "lon": -76.97637533333334, "fusion_lon": 0.0}, {"is_reserved": 0, "type": "electric_scooter", "fusion_lat": 0.0, "is_disabled": 0, "rental_uris": {"ios": "https://dc.lft.to/lastmile_qr_scan", "android": "https://dc.lft.to/lastmile_qr_scan"}, "bike_id": "bdb7c399e9eb66d0fdc25e781fd40b4b", "lat": 38.93460283333334, "name": "bdb7c399e9eb66d0fdc25e781fd40b4b", "lon": -77.02792683333334, "fusion_lon": 0.0}, {"is_reserved": 0, "type": "electric_bike", "fusion_lat": 0.0, "is_disabled": 0, "rental_uris": {"ios": "https://dc.lft.to/lastmile_qr_scan", "android": "https://dc.lft.to/lastmile_qr_scan"}, "bike_id": "05b8187130e25deeb5e722e5010a4a38", "lat": 38.87731633333333, "name": "05b8187130e25deeb5e722e5010a4a38", "lon": -77.11849966666666, "fusion_lon": 0.0}, {"is_reserved": 0, "type": "electric_scooter", "fusion_lat": 0.0, "is_disabled": 0, "rental_uris": {"ios": "https://dc.lft.to/lastmile_qr_scan", "android": "https://dc.lft.to/lastmile_qr_scan"}, "bike_id": "a0196db1865da445ed1c04ee1e642a0f", "lat": 38.93090483333334, "name": "a0196db1865da445ed1c04ee1e642a0f", "lon": -77.03441283333333, "fusion_lon": 0.0}, {"is_reserved": 0, "type": "electric_scooter", "fusion_lat": 0.0, "is_disabled": 0, "rental_uris": {"ios": "https://dc.lft.to/lastmile_qr_scan", "android": "https://dc.lft.to/lastmile_qr_scan"}, "bike_id": "1b54abfa8866313168d58a1309a7a26e", "lat": 38.9160035, "name": "1b54abfa8866313168d58a1309a7a26e", "lon": -77.031844, "fusion_lon": 0.0}, {"is_reserved": 0, "type": "electric_scooter", "fusion_lat": 0.0, "is_disabled": 0, "rental_uris": {"ios": "https://dc.lft.to/lastmile_qr_scan", "android": "https://dc.lft.to/lastmile_qr_scan"}, "bike_id": "13946416dba3c8eee2662599564501e5", "lat": 38.957479, "name": "13946416dba3c8eee2662599564501e5", "lon": -77.02212466666667, "fusion_lon": 0.0}, {"is_reserved": 0, "type": "electric_bike", "fusion_lat": 0.0, "is_disabled": 0, "rental_uris": {"ios": "https://dc.lft.to/lastmile_qr_scan", "android": "https://dc.lft.to/lastmile_qr_scan"}, "bike_id": "f1ded613ba30e48ba9cf6d0f13810c81", "lat": 38.8961695, "name": "f1ded613ba30e48ba9cf6d0f13810c81", "lon": -76.90745183333334, "fusion_lon": 0.0}, {"is_reserved": 0, "type": "electric_scooter", "fusion_lat": 0.0, "is_disabled": 0, "rental_uris": {"ios": "https://dc.lft.to/lastmile_qr_scan", "android": "https://dc.lft.to/lastmile_qr_scan"}, "bike_id": "1433986e5ece0a6ea2fed942b22be5a6", "lat": 38.95659766666667, "name": "1433986e5ece0a6ea2fed942b22be5a6", "lon": -77.02404183333333, "fusion_lon": 0.0}, {"is_reserved": 0, "type": "electric_scooter", "fusion_lat": 0.0, "is_disabled": 0, "rental_uris": {"ios": "https://dc.lft.to/lastmile_qr_scan", "android": "https://dc.lft.to/lastmile_qr_scan"}, "bike_id": "f816ac6ec0c02079f8105f70fe6f7734", "lat": 38.90129266666667, "name": "f816ac6ec0c02079f8105f70fe6f7734", "lon": -77.0229265, "fusion_lon": 0.0}, {"is_reserved": 0, "type": "electric_scooter", "fusion_lat": 0.0, "is_disabled": 0, "rental_uris": {"ios": "https://dc.lft.to/lastmile_qr_scan", "android": "https://dc.lft.to/lastmile_qr_scan"}, "bike_id": "a3df959f3d3f340463d36c17eea6c09f", "lat": 38.8852655, "name": "a3df959f3d3f340463d36c17eea6c09f", "lon": -76.98060483333333, "fusion_lon": 0.0}, {"is_reserved": 0, "type": "electric_scooter", "fusion_lat": 0.0, "is_disabled": 0, "rental_uris": {"ios": "https://dc.lft.to/lastmile_qr_scan", "android": "https://dc.lft.to/lastmile_qr_scan"}, "bike_id": "e144d891656ff0b044e651cf8d0d592f", "lat": 38.8922415, "name": "e144d891656ff0b044e651cf8d0d592f", "lon": -77.04638416666667, "fusion_lon": 0.0}, {"is_reserved": 0, "type": "electric_scooter", "fusion_lat": 0.0, "is_disabled": 0, "rental_uris": {"ios": "https://dc.lft.to/lastmile_qr_scan", "android": "https://dc.lft.to/lastmile_qr_scan"}, "bike_id": "4c30764d759eb679314b8b96bb67df36", "lat": 38.921707, "name": "4c30764d759eb679314b8b96bb67df36", "lon": -77.04028433333333, "fusion_lon": 0.0}, {"is_reserved": 0, "type": "electric_scooter", "fusion_lat": 0.0, "is_disabled": 0, "rental_uris": {"ios": "https://dc.lft.to/lastmile_qr_scan", "android": "https://dc.lft.to/lastmile_qr_scan"}, "bike_id": "fb9b9597d0e07e646d45f77e7e00f25c", "lat": 38.90471866666667, "name": "fb9b9597d0e07e646d45f77e7e00f25c", "lon": -77.05338983333333, "fusion_lon": 0.0}, {"is_reserved": 0, "type": "electric_scooter", "fusion_lat": 0.0, "is_disabled": 0, "rental_uris": {"ios": "https://dc.lft.to/lastmile_qr_scan", "android": "https://dc.lft.to/lastmile_qr_scan"}, "bike_id": "3cd589499e3d7d3020f4f612b8737c06", "lat": 38.898505166666666, "name": "3cd589499e3d7d3020f4f612b8737c06", "lon": -77.0394565, "fusion_lon": 0.0}, {"is_reserved": 0, "type": "electric_scooter", "fusion_lat": 0.0, "is_disabled": 0, "rental_uris": {"ios": "https://dc.lft.to/lastmile_qr_scan", "android": "https://dc.lft.to/lastmile_qr_scan"}, "bike_id": "722db97ab06d2f6b68d8612c14d70e71", "lat": 38.92408983333333, "name": "722db97ab06d2f6b68d8612c14d70e71", "lon": -77.020066, "fusion_lon": 0.0}, {"is_reserved": 0, "type": "electric_scooter", "fusion_lat": 0.0, "is_disabled": 0, "rental_uris": {"ios": "https://dc.lft.to/lastmile_qr_scan", "android": "https://dc.lft.to/lastmile_qr_scan"}, "bike_id": "d954fad0d1fd031ebf94c0c248269338", "lat": 38.885105, "name": "d954fad0d1fd031ebf94c0c248269338", "lon": -76.92438616666666, "fusion_lon": 0.0}, {"is_reserved": 0, "type": "electric_scooter", "fusion_lat": 0.0, "is_disabled": 0, "rental_uris": {"ios": "https://dc.lft.to/lastmile_qr_scan", "android": "https://dc.lft.to/lastmile_qr_scan"}, "bike_id": "326e0b7d243159269b6b9a1839418069", "lat": 38.90242633333333, "name": "326e0b7d243159269b6b9a1839418069", "lon": -77.03452283333333, "fusion_lon": 0.0}, {"is_reserved": 0, "type": "electric_bike", "fusion_lat": 0.0, "is_disabled": 0, "rental_uris": {"ios": "https://dc.lft.to/lastmile_qr_scan", "android": "https://dc.lft.to/lastmile_qr_scan"}, "bike_id": "c3a0fb34d94b7fb78130a44333cc4007", "lat": 38.933905833333334, "name": "c3a0fb34d94b7fb78130a44333cc4007", "lon": -77.023951, "fusion_lon": 0.0}, {"is_reserved": 0, "type": "electric_scooter", "fusion_lat": 0.0, "is_disabled": 0, "rental_uris": {"ios": "https://dc.lft.to/lastmile_qr_scan", "android": "https://dc.lft.to/lastmile_qr_scan"}, "bike_id": "8b1b7da25bb1acfbea14ff4fd8451173", "lat": 38.91988516666667, "name": "8b1b7da25bb1acfbea14ff4fd8451173", "lon": -77.041749, "fusion_lon": 0.0}, {"is_reserved": 0, "type": "electric_scooter", "fusion_lat": 0.0, "is_disabled": 0, "rental_uris": {"ios": "https://dc.lft.to/lastmile_qr_scan", "android": "https://dc.lft.to/lastmile_qr_scan"}, "bike_id": "80e5d004f4327cac7cb58c2f6b0d692b", "lat": 38.96796783333333, "name": "80e5d004f4327cac7cb58c2f6b0d692b", "lon": -77.02563433333333, "fusion_lon": 0.0}, {"is_reserved": 0, "type": "electric_bike", "fusion_lat": 0.0, "is_disabled": 0, "rental_uris": {"ios": "https://dc.lft.to/lastmile_qr_scan", "android": "https://dc.lft.to/lastmile_qr_scan"}, "bike_id": "1d857193f7b97e5ec21311c30ecee451", "lat": 38.95016116666667, "name": "1d857193f7b97e5ec21311c30ecee451", "lon": -77.014316, "fusion_lon": 0.0}, {"is_reserved": 0, "type": "electric_scooter", "fusion_lat": 0.0, "is_disabled": 0, "rental_uris": {"ios": "https://dc.lft.to/lastmile_qr_scan", "android": "https://dc.lft.to/lastmile_qr_scan"}, "bike_id": "793aa404aec64ed15f4026578bb1a09b", "lat": 38.9048555, "name": "793aa404aec64ed15f4026578bb1a09b", "lon": -76.94962233333334, "fusion_lon": 0.0}, {"is_reserved": 0, "type": "electric_scooter", "fusion_lat": 0.0, "is_disabled": 0, "rental_uris": {"ios": "https://dc.lft.to/lastmile_qr_scan", "android": "https://dc.lft.to/lastmile_qr_scan"}, "bike_id": "a85b639e5dc9d37c35c1f0e478463043", "lat": 38.9246565, "name": "a85b639e5dc9d37c35c1f0e478463043", "lon": -77.05229616666666, "fusion_lon": 0.0}, {"is_reserved": 0, "type": "electric_scooter", "fusion_lat": 0.0, "is_disabled": 0, "rental_uris": {"ios": "https://dc.lft.to/lastmile_qr_scan", "android": "https://dc.lft.to/lastmile_qr_scan"}, "bike_id": "09b5ccbddcd832cea10d0de439a48ade", "lat": 38.9028475, "name": "09b5ccbddcd832cea10d0de439a48ade", "lon": -77.04891466666666, "fusion_lon": 0.0}, {"is_reserved": 0, "type": "electric_scooter", "fusion_lat": 0.0, "is_disabled": 0, "rental_uris": {"ios": "https://dc.lft.to/lastmile_qr_scan", "android": "https://dc.lft.to/lastmile_qr_scan"}, "bike_id": "c02e48f170549eba09a93f56677864bd", "lat": 38.9275945, "name": "c02e48f170549eba09a93f56677864bd", "lon": -77.03266166666667, "fusion_lon": 0.0}, {"is_reserved": 0, "type": "electric_scooter", "fusion_lat": 0.0, "is_disabled": 0, "rental_uris": {"ios": "https://dc.lft.to/lastmile_qr_scan", "android": "https://dc.lft.to/lastmile_qr_scan"}, "bike_id": "2357e21b1d8c6d574c6bcfafda38098e", "lat": 38.90314266666667, "name": "2357e21b1d8c6d574c6bcfafda38098e", "lon": -77.0280855, "fusion_lon": 0.0}, {"is_reserved": 0, "type": "electric_scooter", "fusion_lat": 0.0, "is_disabled": 0, "rental_uris": {"ios": "https://dc.lft.to/lastmile_qr_scan", "android": "https://dc.lft.to/lastmile_qr_scan"}, "bike_id": "655f9d02df2ec9c5b6839756b5893030", "lat": 38.91737966666667, "name": "655f9d02df2ec9c5b6839756b5893030", "lon": -77.0211695, "fusion_lon": 0.0}, {"is_reserved": 0, "type": "electric_scooter", "fusion_lat": 0.0, "is_disabled": 0, "rental_uris": {"ios": "https://dc.lft.to/lastmile_qr_scan", "android": "https://dc.lft.to/lastmile_qr_scan"}, "bike_id": "848a7808118dd7426a94bb9a43b95e2d", "lat": 38.90716466666667, "name": "848a7808118dd7426a94bb9a43b95e2d", "lon": -77.0038235, "fusion_lon": 0.0}, {"is_reserved": 0, "type": "electric_scooter", "fusion_lat": 0.0, "is_disabled": 0, "rental_uris": {"ios": "https://dc.lft.to/lastmile_qr_scan", "android": "https://dc.lft.to/lastmile_qr_scan"}, "bike_id": "ca9cb02c64a2e745b10c8a6369655324", "lat": 38.924885, "name": "ca9cb02c64a2e745b10c8a6369655324", "lon": -77.021364, "fusion_lon": 0.0}, {"is_reserved": 0, "type": "electric_scooter", "fusion_lat": 0.0, "is_disabled": 0, "rental_uris": {"ios": "https://dc.lft.to/lastmile_qr_scan", "android": "https://dc.lft.to/lastmile_qr_scan"}, "bike_id": "91304ab454a402e45a9c6a710e5ccd38", "lat": 38.908326333333335, "name": "91304ab454a402e45a9c6a710e5ccd38", "lon": -77.04362516666667, "fusion_lon": 0.0}, {"is_reserved": 0, "type": "electric_scooter", "fusion_lat": 0.0, "is_disabled": 0, "rental_uris": {"ios": "https://dc.lft.to/lastmile_qr_scan", "android": "https://dc.lft.to/lastmile_qr_scan"}, "bike_id": "c0d2859691bce3de0a7a6979b2f0d68b", "lat": 38.906275666666666, "name": "c0d2859691bce3de0a7a6979b2f0d68b", "lon": -77.00909833333333, "fusion_lon": 0.0}, {"is_reserved": 0, "type": "electric_scooter", "fusion_lat": 0.0, "is_disabled": 0, "rental_uris": {"ios": "https://dc.lft.to/lastmile_qr_scan", "android": "https://dc.lft.to/lastmile_qr_scan"}, "bike_id": "ab3f781b2423f18c27ff2616e3c80339", "lat": 38.93264683333334, "name": "ab3f781b2423f18c27ff2616e3c80339", "lon": -77.03264616666667, "fusion_lon": 0.0}, {"is_reserved": 0, "type": "electric_scooter", "fusion_lat": 0.0, "is_disabled": 0, "rental_uris": {"ios": "https://dc.lft.to/lastmile_qr_scan", "android": "https://dc.lft.to/lastmile_qr_scan"}, "bike_id": "fe1d99da4a4c9d5aff55acbb27e13e4b", "lat": 38.925703666666664, "name": "fe1d99da4a4c9d5aff55acbb27e13e4b", "lon": -77.02985716666667, "fusion_lon": 0.0}, {"is_reserved": 0, "type": "electric_scooter", "fusion_lat": 0.0, "is_disabled": 0, "rental_uris": {"ios": "https://dc.lft.to/lastmile_qr_scan", "android": "https://dc.lft.to/lastmile_qr_scan"}, "bike_id": "03d38a40cd7bbdc94e1f2a6ee89caf58", "lat": 38.93103716666667, "name": "03d38a40cd7bbdc94e1f2a6ee89caf58", "lon": -77.02470016666666, "fusion_lon": 0.0}, {"is_reserved": 0, "type": "electric_scooter", "fusion_lat": 0.0, "is_disabled": 0, "rental_uris": {"ios": "https://dc.lft.to/lastmile_qr_scan", "android": "https://dc.lft.to/lastmile_qr_scan"}, "bike_id": "cb04827abf574bb25904b8529681c842", "lat": 38.8608155, "name": "cb04827abf574bb25904b8529681c842", "lon": -76.98376566666667, "fusion_lon": 0.0}, {"is_reserved": 0, "type": "electric_bike", "fusion_lat": 0.0, "is_disabled": 0, "rental_uris": {"ios": "https://dc.lft.to/lastmile_qr_scan", "android": "https://dc.lft.to/lastmile_qr_scan"}, "bike_id": "a981ab79a514709bfd40ddd188f865a0", "lat": 38.8505645, "name": "a981ab79a514709bfd40ddd188f865a0", "lon": -76.95831, "fusion_lon": 0.0}, {"is_reserved": 0, "type": "electric_scooter", "fusion_lat": 0.0, "is_disabled": 0, "rental_uris": {"ios": "https://dc.lft.to/lastmile_qr_scan", "android": "https://dc.lft.to/lastmile_qr_scan"}, "bike_id": "ca6252b791a9230988711b8a8a8d71b6", "lat": 38.8857765, "name": "ca6252b791a9230988711b8a8a8d71b6", "lon": -77.0121365, "fusion_lon": 0.0}, {"is_reserved": 0, "type": "electric_scooter", "fusion_lat": 0.0, "is_disabled": 0, "rental_uris": {"ios": "https://dc.lft.to/lastmile_qr_scan", "android": "https://dc.lft.to/lastmile_qr_scan"}, "bike_id": "6b96b606ee459bacf5129ae1ea02f56e", "lat": 38.896458, "name": "6b96b606ee459bacf5129ae1ea02f56e", "lon": -77.04655066666666, "fusion_lon": 0.0}, {"is_reserved": 0, "type": "electric_scooter", "fusion_lat": 0.0, "is_disabled": 0, "rental_uris": {"ios": "https://dc.lft.to/lastmile_qr_scan", "android": "https://dc.lft.to/lastmile_qr_scan"}, "bike_id": "fdbbf0f6bc7a7c02fba1020cb1582af6", "lat": 38.904380833333335, "name": "fdbbf0f6bc7a7c02fba1020cb1582af6", "lon": -76.997318, "fusion_lon": 0.0}, {"is_reserved": 0, "type": "electric_scooter", "fusion_lat": 0.0, "is_disabled": 0, "rental_uris": {"ios": "https://dc.lft.to/lastmile_qr_scan", "android": "https://dc.lft.to/lastmile_qr_scan"}, "bike_id": "d77595c37f1d45a49a6583d61c4697ca", "lat": 38.9301005, "name": "d77595c37f1d45a49a6583d61c4697ca", "lon": -77.04048516666667, "fusion_lon": 0.0}, {"is_reserved": 0, "type": "electric_scooter", "fusion_lat": 0.0, "is_disabled": 0, "rental_uris": {"ios": "https://dc.lft.to/lastmile_qr_scan", "android": "https://dc.lft.to/lastmile_qr_scan"}, "bike_id": "d7003f49c12227dd27e774e7c49b4695", "lat": 38.92383983333333, "name": "d7003f49c12227dd27e774e7c49b4695", "lon": -77.04116483333334, "fusion_lon": 0.0}, {"is_reserved": 0, "type": "electric_scooter", "fusion_lat": 0.0, "is_disabled": 0, "rental_uris": {"ios": "https://dc.lft.to/lastmile_qr_scan", "android": "https://dc.lft.to/lastmile_qr_scan"}, "bike_id": "b2e1133d9871ad6ee5ba53bb502b6b75", "lat": 38.909504166666665, "name": "b2e1133d9871ad6ee5ba53bb502b6b75", "lon": -76.99577116666667, "fusion_lon": 0.0}, {"is_reserved": 0, "type": "electric_bike", "fusion_lat": 0.0, "is_disabled": 0, "rental_uris": {"ios": "https://dc.lft.to/lastmile_qr_scan", "android": "https://dc.lft.to/lastmile_qr_scan"}, "bike_id": "4ad9864eea4e5f96115727d82c4d209d", "lat": 38.964330833333335, "name": "4ad9864eea4e5f96115727d82c4d209d", "lon": -77.031906, "fusion_lon": 0.0}, {"is_reserved": 0, "type": "electric_scooter", "fusion_lat": 0.0, "is_disabled": 0, "rental_uris": {"ios": "https://dc.lft.to/lastmile_qr_scan", "android": "https://dc.lft.to/lastmile_qr_scan"}, "bike_id": "1617978d47e8fc5cd4ecccb4d31d30a2", "lat": 38.92654516666666, "name": "1617978d47e8fc5cd4ecccb4d31d30a2", "lon": -77.02432333333333, "fusion_lon": 0.0}, {"is_reserved": 0, "type": "electric_scooter", "fusion_lat": 0.0, "is_disabled": 0, "rental_uris": {"ios": "https://dc.lft.to/lastmile_qr_scan", "android": "https://dc.lft.to/lastmile_qr_scan"}, "bike_id": "87133cdfa83558a681a604a183b2f51a", "lat": 38.9003595, "name": "87133cdfa83558a681a604a183b2f51a", "lon": -76.9982905, "fusion_lon": 0.0}, {"is_reserved": 0, "type": "electric_scooter", "fusion_lat": 0.0, "is_disabled": 0, "rental_uris": {"ios": "https://dc.lft.to/lastmile_qr_scan", "android": "https://dc.lft.to/lastmile_qr_scan"}, "bike_id": "df65697be40fbc5373546964fcb4fd3c", "lat": 38.9026235, "name": "df65697be40fbc5373546964fcb4fd3c", "lon": -77.02712966666667, "fusion_lon": 0.0}, {"is_reserved": 0, "type": "electric_scooter", "fusion_lat": 0.0, "is_disabled": 0, "rental_uris": {"ios": "https://dc.lft.to/lastmile_qr_scan", "android": "https://dc.lft.to/lastmile_qr_scan"}, "bike_id": "c4ba5cb2441d385223e1740befb8ad1f", "lat": 38.915609, "name": "c4ba5cb2441d385223e1740befb8ad1f", "lon": -77.03674333333333, "fusion_lon": 0.0}, {"is_reserved": 0, "type": "electric_scooter", "fusion_lat": 0.0, "is_disabled": 0, "rental_uris": {"ios": "https://dc.lft.to/lastmile_qr_scan", "android": "https://dc.lft.to/lastmile_qr_scan"}, "bike_id": "df3d35efa7309d174e995a3ac4c39a69", "lat": 38.936579, "name": "df3d35efa7309d174e995a3ac4c39a69", "lon": -77.06612083333333, "fusion_lon": 0.0}, {"is_reserved": 0, "type": "electric_bike", "fusion_lat": 0.0, "is_disabled": 0, "rental_uris": {"ios": "https://dc.lft.to/lastmile_qr_scan", "android": "https://dc.lft.to/lastmile_qr_scan"}, "bike_id": "441b81fe6addb4c43e49daf1923ec11c", "lat": 38.925360166666664, "name": "441b81fe6addb4c43e49daf1923ec11c", "lon": -77.073316, "fusion_lon": 0.0}, {"is_reserved": 0, "type": "electric_bike", "fusion_lat": 0.0, "is_disabled": 0, "rental_uris": {"ios": "https://dc.lft.to/lastmile_qr_scan", "android": "https://dc.lft.to/lastmile_qr_scan"}, "bike_id": "f2576ba3916d7c3cc801cea851e2d59f", "lat": 38.95620866666667, "name": "f2576ba3916d7c3cc801cea851e2d59f", "lon": -76.93878133333334, "fusion_lon": 0.0}, {"is_reserved": 0, "type": "electric_bike", "fusion_lat": 0.0, "is_disabled": 0, "rental_uris": {"ios": "https://dc.lft.to/lastmile_qr_scan", "android": "https://dc.lft.to/lastmile_qr_scan"}, "bike_id": "1f0db18217454d150eacd783189a1d94", "lat": 38.85802983333333, "name": "1f0db18217454d150eacd783189a1d94", "lon": -76.98754466666666, "fusion_lon": 0.0}, {"is_reserved": 0, "type": "electric_scooter", "fusion_lat": 0.0, "is_disabled": 0, "rental_uris": {"ios": "https://dc.lft.to/lastmile_qr_scan", "android": "https://dc.lft.to/lastmile_qr_scan"}, "bike_id": "474796d4ff0b82563c965f6212e43f6b", "lat": 38.927114, "name": "474796d4ff0b82563c965f6212e43f6b", "lon": -77.05994283333334, "fusion_lon": 0.0}, {"is_reserved": 0, "type": "electric_bike", "fusion_lat": 0.0, "is_disabled": 0, "rental_uris": {"ios": "https://dc.lft.to/lastmile_qr_scan", "android": "https://dc.lft.to/lastmile_qr_scan"}, "bike_id": "8355893fc6625fee3331adc3d6a7614f", "lat": 39.026220333333335, "name": "8355893fc6625fee3331adc3d6a7614f", "lon": -77.03881016666666, "fusion_lon": 0.0}, {"is_reserved": 0, "type": "electric_scooter", "fusion_lat": 0.0, "is_disabled": 0, "rental_uris": {"ios": "https://dc.lft.to/lastmile_qr_scan", "android": "https://dc.lft.to/lastmile_qr_scan"}, "bike_id": "31d6f49cd3ba16b27cc616f1bf50cb55", "lat": 38.8903955, "name": "31d6f49cd3ba16b27cc616f1bf50cb55", "lon": -76.988372, "fusion_lon": 0.0}, {"is_reserved": 0, "type": "electric_scooter", "fusion_lat": 0.0, "is_disabled": 0, "rental_uris": {"ios": "https://dc.lft.to/lastmile_qr_scan", "android": "https://dc.lft.to/lastmile_qr_scan"}, "bike_id": "d4c7729dda896bcbd20c089d95ba6bcb", "lat": 38.938788833333334, "name": "d4c7729dda896bcbd20c089d95ba6bcb", "lon": -77.02830566666667, "fusion_lon": 0.0}, {"is_reserved": 0, "type": "electric_scooter", "fusion_lat": 0.0, "is_disabled": 0, "rental_uris": {"ios": "https://dc.lft.to/lastmile_qr_scan", "android": "https://dc.lft.to/lastmile_qr_scan"}, "bike_id": "2ac2197940d42957055365cd336e68d2", "lat": 38.90664733333333, "name": "2ac2197940d42957055365cd336e68d2", "lon": -77.00925766666667, "fusion_lon": 0.0}, {"is_reserved": 0, "type": "electric_scooter", "fusion_lat": 0.0, "is_disabled": 0, "rental_uris": {"ios": "https://dc.lft.to/lastmile_qr_scan", "android": "https://dc.lft.to/lastmile_qr_scan"}, "bike_id": "28a1c04907e80d17b94915817816ee8d", "lat": 38.90874133333333, "name": "28a1c04907e80d17b94915817816ee8d", "lon": -77.04494916666667, "fusion_lon": 0.0}, {"is_reserved": 0, "type": "electric_bike", "fusion_lat": 0.0, "is_disabled": 0, "rental_uris": {"ios": "https://dc.lft.to/lastmile_qr_scan", "android": "https://dc.lft.to/lastmile_qr_scan"}, "bike_id": "d300bb433e694fa7937e944f0499de9c", "lat": 38.998285, "name": "d300bb433e694fa7937e944f0499de9c", "lon": -76.99730183333334, "fusion_lon": 0.0}, {"is_reserved": 0, "type": "electric_scooter", "fusion_lat": 0.0, "is_disabled": 0, "rental_uris": {"ios": "https://dc.lft.to/lastmile_qr_scan", "android": "https://dc.lft.to/lastmile_qr_scan"}, "bike_id": "d5945e6b888bc1f8c066f1f432467783", "lat": 38.91189083333333, "name": "d5945e6b888bc1f8c066f1f432467783", "lon": -77.017646, "fusion_lon": 0.0}, {"is_reserved": 0, "type": "electric_scooter", "fusion_lat": 0.0, "is_disabled": 0, "rental_uris": {"ios": "https://dc.lft.to/lastmile_qr_scan", "android": "https://dc.lft.to/lastmile_qr_scan"}, "bike_id": "7d7feff558f1ca0ebd0d41a812b9514e", "lat": 38.928843666666666, "name": "7d7feff558f1ca0ebd0d41a812b9514e", "lon": -77.03880483333333, "fusion_lon": 0.0}, {"is_reserved": 0, "type": "electric_scooter", "fusion_lat": 0.0, "is_disabled": 0, "rental_uris": {"ios": "https://dc.lft.to/lastmile_qr_scan", "android": "https://dc.lft.to/lastmile_qr_scan"}, "bike_id": "f694b91e63749830fd5a95c52eabf8ac", "lat": 38.90288266666667, "name": "f694b91e63749830fd5a95c52eabf8ac", "lon": -77.03347183333334, "fusion_lon": 0.0}, {"is_reserved": 0, "type": "electric_scooter", "fusion_lat": 0.0, "is_disabled": 0, "rental_uris": {"ios": "https://dc.lft.to/lastmile_qr_scan", "android": "https://dc.lft.to/lastmile_qr_scan"}, "bike_id": "63aa53a0fe6b37511dc64873d2056d80", "lat": 38.92141816666667, "name": "63aa53a0fe6b37511dc64873d2056d80", "lon": -77.0338695, "fusion_lon": 0.0}, {"is_reserved": 0, "type": "electric_bike", "fusion_lat": 0.0, "is_disabled": 0, "rental_uris": {"ios": "https://dc.lft.to/lastmile_qr_scan", "android": "https://dc.lft.to/lastmile_qr_scan"}, "bike_id": "7a1c3dfbe6b6adf85aed98c5489d7de9", "lat": 38.944100166666665, "name": "7a1c3dfbe6b6adf85aed98c5489d7de9", "lon": -77.02182533333334, "fusion_lon": 0.0}, {"is_reserved": 0, "type": "electric_bike", "fusion_lat": 0.0, "is_disabled": 0, "rental_uris": {"ios": "https://dc.lft.to/lastmile_qr_scan", "android": "https://dc.lft.to/lastmile_qr_scan"}, "bike_id": "6a42861d3df1d78c25f4deae5eaefaba", "lat": 38.8755665, "name": "6a42861d3df1d78c25f4deae5eaefaba", "lon": -77.04734733333333, "fusion_lon": 0.0}, {"is_reserved": 0, "type": "electric_scooter", "fusion_lat": 0.0, "is_disabled": 0, "rental_uris": {"ios": "https://dc.lft.to/lastmile_qr_scan", "android": "https://dc.lft.to/lastmile_qr_scan"}, "bike_id": "08823a09d974d6c5086ab4fa23fbd770", "lat": 38.883849, "name": "08823a09d974d6c5086ab4fa23fbd770", "lon": -77.0460685, "fusion_lon": 0.0}, {"is_reserved": 0, "type": "electric_scooter", "fusion_lat": 0.0, "is_disabled": 0, "rental_uris": {"ios": "https://dc.lft.to/lastmile_qr_scan", "android": "https://dc.lft.to/lastmile_qr_scan"}, "bike_id": "cf840b609d1a8bb2fa8f29ed6ac6a595", "lat": 38.959528166666665, "name": "cf840b609d1a8bb2fa8f29ed6ac6a595", "lon": -77.0331945, "fusion_lon": 0.0}, {"is_reserved": 0, "type": "electric_scooter", "fusion_lat": 0.0, "is_disabled": 0, "rental_uris": {"ios": "https://dc.lft.to/lastmile_qr_scan", "android": "https://dc.lft.to/lastmile_qr_scan"}, "bike_id": "c6b15b45c7f8a94c3e8405b174c5fabd", "lat": 38.912745, "name": "c6b15b45c7f8a94c3e8405b174c5fabd", "lon": -77.0466, "fusion_lon": 0.0}, {"is_reserved": 0, "type": "electric_scooter", "fusion_lat": 0.0, "is_disabled": 0, "rental_uris": {"ios": "https://dc.lft.to/lastmile_qr_scan", "android": "https://dc.lft.to/lastmile_qr_scan"}, "bike_id": "caad81a86f0424cc58f8c582acd03e5c", "lat": 38.892078833333336, "name": "caad81a86f0424cc58f8c582acd03e5c", "lon": -76.96118766666666, "fusion_lon": 0.0}, {"is_reserved": 0, "type": "electric_scooter", "fusion_lat": 0.0, "is_disabled": 0, "rental_uris": {"ios": "https://dc.lft.to/lastmile_qr_scan", "android": "https://dc.lft.to/lastmile_qr_scan"}, "bike_id": "8bd97957dafeb07cc9ca3030dcdcd37f", "lat": 38.887122833333336, "name": "8bd97957dafeb07cc9ca3030dcdcd37f", "lon": -76.98379783333333, "fusion_lon": 0.0}, {"is_reserved": 0, "type": "electric_scooter", "fusion_lat": 0.0, "is_disabled": 0, "rental_uris": {"ios": "https://dc.lft.to/lastmile_qr_scan", "android": "https://dc.lft.to/lastmile_qr_scan"}, "bike_id": "e3a5a851635c677449cf9da43b857df3", "lat": 38.906874, "name": "e3a5a851635c677449cf9da43b857df3", "lon": -77.01013816666666, "fusion_lon": 0.0}, {"is_reserved": 0, "type": "electric_scooter", "fusion_lat": 0.0, "is_disabled": 0, "rental_uris": {"ios": "https://dc.lft.to/lastmile_qr_scan", "android": "https://dc.lft.to/lastmile_qr_scan"}, "bike_id": "40e9b66a2cf9c18a72e3a10bb1f2a544", "lat": 38.93007716666666, "name": "40e9b66a2cf9c18a72e3a10bb1f2a544", "lon": -77.0377585, "fusion_lon": 0.0}, {"is_reserved": 0, "type": "electric_scooter", "fusion_lat": 0.0, "is_disabled": 0, "rental_uris": {"ios": "https://dc.lft.to/lastmile_qr_scan", "android": "https://dc.lft.to/lastmile_qr_scan"}, "bike_id": "e355fa43bf8317f11e3c44143fff7aef", "lat": 38.925504, "name": "e355fa43bf8317f11e3c44143fff7aef", "lon": -77.00323666666667, "fusion_lon": 0.0}, {"is_reserved": 0, "type": "electric_scooter", "fusion_lat": 0.0, "is_disabled": 0, "rental_uris": {"ios": "https://dc.lft.to/lastmile_qr_scan", "android": "https://dc.lft.to/lastmile_qr_scan"}, "bike_id": "a8dd9aee592727954da061e17270ccff", "lat": 38.907847833333335, "name": "a8dd9aee592727954da061e17270ccff", "lon": -77.07265066666666, "fusion_lon": 0.0}, {"is_reserved": 0, "type": "electric_bike", "fusion_lat": 0.0, "is_disabled": 0, "rental_uris": {"ios": "https://dc.lft.to/lastmile_qr_scan", "android": "https://dc.lft.to/lastmile_qr_scan"}, "bike_id": "29943ed796494d100a841e49b79ef9dc", "lat": 38.94505616666667, "name": "29943ed796494d100a841e49b79ef9dc", "lon": -77.0067175, "fusion_lon": 0.0}, {"is_reserved": 0, "type": "electric_scooter", "fusion_lat": 0.0, "is_disabled": 0, "rental_uris": {"ios": "https://dc.lft.to/lastmile_qr_scan", "android": "https://dc.lft.to/lastmile_qr_scan"}, "bike_id": "e87ce8af3a579d48a0b13a93f388267c", "lat": 38.9365635, "name": "e87ce8af3a579d48a0b13a93f388267c", "lon": -77.0661025, "fusion_lon": 0.0}, {"is_reserved": 0, "type": "electric_scooter", "fusion_lat": 0.0, "is_disabled": 0, "rental_uris": {"ios": "https://dc.lft.to/lastmile_qr_scan", "android": "https://dc.lft.to/lastmile_qr_scan"}, "bike_id": "1846708485bb4148622370b4ed61b1a8", "lat": 38.901709833333335, "name": "1846708485bb4148622370b4ed61b1a8", "lon": -77.02486116666667, "fusion_lon": 0.0}, {"is_reserved": 0, "type": "electric_scooter", "fusion_lat": 0.0, "is_disabled": 0, "rental_uris": {"ios": "https://dc.lft.to/lastmile_qr_scan", "android": "https://dc.lft.to/lastmile_qr_scan"}, "bike_id": "b0f0d78aec4613b2c9147c4b3913036e", "lat": 38.90037483333333, "name": "b0f0d78aec4613b2c9147c4b3913036e", "lon": -77.033119, "fusion_lon": 0.0}, {"is_reserved": 0, "type": "electric_scooter", "fusion_lat": 0.0, "is_disabled": 0, "rental_uris": {"ios": "https://dc.lft.to/lastmile_qr_scan", "android": "https://dc.lft.to/lastmile_qr_scan"}, "bike_id": "0fc3588cf88187194bbf8ed2ef75bd38", "lat": 38.904477666666665, "name": "0fc3588cf88187194bbf8ed2ef75bd38", "lon": -77.01705433333333, "fusion_lon": 0.0}, {"is_reserved": 0, "type": "electric_scooter", "fusion_lat": 0.0, "is_disabled": 0, "rental_uris": {"ios": "https://dc.lft.to/lastmile_qr_scan", "android": "https://dc.lft.to/lastmile_qr_scan"}, "bike_id": "8ce373579fd228cf8b542b3f67ca9294", "lat": 38.90626733333333, "name": "8ce373579fd228cf8b542b3f67ca9294", "lon": -77.02980333333333, "fusion_lon": 0.0}, {"is_reserved": 0, "type": "electric_scooter", "fusion_lat": 0.0, "is_disabled": 0, "rental_uris": {"ios": "https://dc.lft.to/lastmile_qr_scan", "android": "https://dc.lft.to/lastmile_qr_scan"}, "bike_id": "bc2487ed28af773aad8eab02a87f0502", "lat": 38.920504333333334, "name": "bc2487ed28af773aad8eab02a87f0502", "lon": -77.0403355, "fusion_lon": 0.0}, {"is_reserved": 0, "type": "electric_scooter", "fusion_lat": 0.0, "is_disabled": 0, "rental_uris": {"ios": "https://dc.lft.to/lastmile_qr_scan", "android": "https://dc.lft.to/lastmile_qr_scan"}, "bike_id": "91da66d61c67b31149a9a46085eaf9d6", "lat": 38.920931333333336, "name": "91da66d61c67b31149a9a46085eaf9d6", "lon": -77.04128116666666, "fusion_lon": 0.0}, {"is_reserved": 0, "type": "electric_scooter", "fusion_lat": 0.0, "is_disabled": 0, "rental_uris": {"ios": "https://dc.lft.to/lastmile_qr_scan", "android": "https://dc.lft.to/lastmile_qr_scan"}, "bike_id": "b11e86a8cd014eb005432203c42e2330", "lat": 38.91592033333333, "name": "b11e86a8cd014eb005432203c42e2330", "lon": -76.98412116666667, "fusion_lon": 0.0}, {"is_reserved": 0, "type": "electric_scooter", "fusion_lat": 0.0, "is_disabled": 0, "rental_uris": {"ios": "https://dc.lft.to/lastmile_qr_scan", "android": "https://dc.lft.to/lastmile_qr_scan"}, "bike_id": "fa9b45ae4eacde95cba8f93c3941ff42", "lat": 38.912555166666664, "name": "fa9b45ae4eacde95cba8f93c3941ff42", "lon": -76.983497, "fusion_lon": 0.0}, {"is_reserved": 0, "type": "electric_scooter", "fusion_lat": 0.0, "is_disabled": 0, "rental_uris": {"ios": "https://dc.lft.to/lastmile_qr_scan", "android": "https://dc.lft.to/lastmile_qr_scan"}, "bike_id": "b0e01fc95208a3361e14fee1c87f6cd9", "lat": 38.915028, "name": "b0e01fc95208a3361e14fee1c87f6cd9", "lon": -77.01842016666667, "fusion_lon": 0.0}, {"is_reserved": 0, "type": "electric_scooter", "fusion_lat": 0.0, "is_disabled": 0, "rental_uris": {"ios": "https://dc.lft.to/lastmile_qr_scan", "android": "https://dc.lft.to/lastmile_qr_scan"}, "bike_id": "886260c11addfff7e1411cdc80bb35d4", "lat": 38.9286625, "name": "886260c11addfff7e1411cdc80bb35d4", "lon": -77.0342465, "fusion_lon": 0.0}, {"is_reserved": 0, "type": "electric_scooter", "fusion_lat": 0.0, "is_disabled": 0, "rental_uris": {"ios": "https://dc.lft.to/lastmile_qr_scan", "android": "https://dc.lft.to/lastmile_qr_scan"}, "bike_id": "cd61f3ccff0c6f4e7de1c0a86d350109", "lat": 38.91261316666667, "name": "cd61f3ccff0c6f4e7de1c0a86d350109", "lon": -77.030359, "fusion_lon": 0.0}, {"is_reserved": 0, "type": "electric_bike", "fusion_lat": 0.0, "is_disabled": 0, "rental_uris": {"ios": "https://dc.lft.to/lastmile_qr_scan", "android": "https://dc.lft.to/lastmile_qr_scan"}, "bike_id": "f1012d4c3b1fceb6b8d7b45cd0f05529", "lat": 38.846751, "name": "f1012d4c3b1fceb6b8d7b45cd0f05529", "lon": -77.13930033333334, "fusion_lon": 0.0}, {"is_reserved": 0, "type": "electric_scooter", "fusion_lat": 0.0, "is_disabled": 0, "rental_uris": {"ios": "https://dc.lft.to/lastmile_qr_scan", "android": "https://dc.lft.to/lastmile_qr_scan"}, "bike_id": "df79bc92243e081f456495906ca27a91", "lat": 38.900395833333334, "name": "df79bc92243e081f456495906ca27a91", "lon": -77.01236416666667, "fusion_lon": 0.0}, {"is_reserved": 0, "type": "electric_scooter", "fusion_lat": 0.0, "is_disabled": 0, "rental_uris": {"ios": "https://dc.lft.to/lastmile_qr_scan", "android": "https://dc.lft.to/lastmile_qr_scan"}, "bike_id": "1157bbfdd53bfd1f4642cf10ad47bde6", "lat": 38.9310785, "name": "1157bbfdd53bfd1f4642cf10ad47bde6", "lon": -77.03823966666667, "fusion_lon": 0.0}, {"is_reserved": 0, "type": "electric_scooter", "fusion_lat": 0.0, "is_disabled": 0, "rental_uris": {"ios": "https://dc.lft.to/lastmile_qr_scan", "android": "https://dc.lft.to/lastmile_qr_scan"}, "bike_id": "e7ca1edd3f3c155f4cbae79c86c11dc4", "lat": 38.905679666666664, "name": "e7ca1edd3f3c155f4cbae79c86c11dc4", "lon": -77.00436116666667, "fusion_lon": 0.0}, {"is_reserved": 0, "type": "electric_scooter", "fusion_lat": 0.0, "is_disabled": 0, "rental_uris": {"ios": "https://dc.lft.to/lastmile_qr_scan", "android": "https://dc.lft.to/lastmile_qr_scan"}, "bike_id": "e123f035693cb8016b94f362b2575989", "lat": 38.912946, "name": "e123f035693cb8016b94f362b2575989", "lon": -77.04543283333334, "fusion_lon": 0.0}, {"is_reserved": 0, "type": "electric_scooter", "fusion_lat": 0.0, "is_disabled": 0, "rental_uris": {"ios": "https://dc.lft.to/lastmile_qr_scan", "android": "https://dc.lft.to/lastmile_qr_scan"}, "bike_id": "6367d4136d6f1a47a220a86074b45659", "lat": 38.92410816666667, "name": "6367d4136d6f1a47a220a86074b45659", "lon": -77.03640683333333, "fusion_lon": 0.0}, {"is_reserved": 0, "type": "electric_scooter", "fusion_lat": 0.0, "is_disabled": 0, "rental_uris": {"ios": "https://dc.lft.to/lastmile_qr_scan", "android": "https://dc.lft.to/lastmile_qr_scan"}, "bike_id": "6b477b6ce89fde7b3acfce669ee777b6", "lat": 38.90390283333333, "name": "6b477b6ce89fde7b3acfce669ee777b6", "lon": -77.0507505, "fusion_lon": 0.0}, {"is_reserved": 0, "type": "electric_scooter", "fusion_lat": 0.0, "is_disabled": 0, "rental_uris": {"ios": "https://dc.lft.to/lastmile_qr_scan", "android": "https://dc.lft.to/lastmile_qr_scan"}, "bike_id": "2d4f322d12163fcaa613344bf583612a", "lat": 38.9219545, "name": "2d4f322d12163fcaa613344bf583612a", "lon": -77.01834716666667, "fusion_lon": 0.0}, {"is_reserved": 0, "type": "electric_scooter", "fusion_lat": 0.0, "is_disabled": 0, "rental_uris": {"ios": "https://dc.lft.to/lastmile_qr_scan", "android": "https://dc.lft.to/lastmile_qr_scan"}, "bike_id": "50dfd5fa90eabf7746aa5e6c63f8244b", "lat": 38.9510125, "name": "50dfd5fa90eabf7746aa5e6c63f8244b", "lon": -77.02199466666667, "fusion_lon": 0.0}, {"is_reserved": 0, "type": "electric_bike", "fusion_lat": 0.0, "is_disabled": 0, "rental_uris": {"ios": "https://dc.lft.to/lastmile_qr_scan", "android": "https://dc.lft.to/lastmile_qr_scan"}, "bike_id": "bce4f4b708e511f8779b9279abf47f4d", "lat": 38.925675, "name": "bce4f4b708e511f8779b9279abf47f4d", "lon": -77.04034783333333, "fusion_lon": 0.0}, {"is_reserved": 0, "type": "electric_scooter", "fusion_lat": 0.0, "is_disabled": 0, "rental_uris": {"ios": "https://dc.lft.to/lastmile_qr_scan", "android": "https://dc.lft.to/lastmile_qr_scan"}, "bike_id": "890a817c6693bcd6dac97273cb7809de", "lat": 38.909773666666666, "name": "890a817c6693bcd6dac97273cb7809de", "lon": -77.02207466666667, "fusion_lon": 0.0}, {"is_reserved": 0, "type": "electric_scooter", "fusion_lat": 0.0, "is_disabled": 0, "rental_uris": {"ios": "https://dc.lft.to/lastmile_qr_scan", "android": "https://dc.lft.to/lastmile_qr_scan"}, "bike_id": "7ed97f54e9eaa442c09ecccbc966a084", "lat": 38.91827883333333, "name": "7ed97f54e9eaa442c09ecccbc966a084", "lon": -77.0242025, "fusion_lon": 0.0}, {"is_reserved": 0, "type": "electric_scooter", "fusion_lat": 0.0, "is_disabled": 0, "rental_uris": {"ios": "https://dc.lft.to/lastmile_qr_scan", "android": "https://dc.lft.to/lastmile_qr_scan"}, "bike_id": "2c0b7eb2f74f8f713607b187a06d0eb6", "lat": 38.92750216666666, "name": "2c0b7eb2f74f8f713607b187a06d0eb6", "lon": -77.0261185, "fusion_lon": 0.0}, {"is_reserved": 0, "type": "electric_scooter", "fusion_lat": 0.0, "is_disabled": 0, "rental_uris": {"ios": "https://dc.lft.to/lastmile_qr_scan", "android": "https://dc.lft.to/lastmile_qr_scan"}, "bike_id": "b71bdc6104ca835c374d5266cb5ae607", "lat": 38.9231915, "name": "b71bdc6104ca835c374d5266cb5ae607", "lon": -77.01954983333333, "fusion_lon": 0.0}, {"is_reserved": 0, "type": "electric_scooter", "fusion_lat": 0.0, "is_disabled": 0, "rental_uris": {"ios": "https://dc.lft.to/lastmile_qr_scan", "android": "https://dc.lft.to/lastmile_qr_scan"}, "bike_id": "7046665d0b3aee1220151f07318c672b", "lat": 38.902363666666666, "name": "7046665d0b3aee1220151f07318c672b", "lon": -77.02779383333333, "fusion_lon": 0.0}, {"is_reserved": 0, "type": "electric_scooter", "fusion_lat": 0.0, "is_disabled": 0, "rental_uris": {"ios": "https://dc.lft.to/lastmile_qr_scan", "android": "https://dc.lft.to/lastmile_qr_scan"}, "bike_id": "483ff755dd45f5b97ee64e52ebee6ebf", "lat": 38.923169666666666, "name": "483ff755dd45f5b97ee64e52ebee6ebf", "lon": -77.04519016666667, "fusion_lon": 0.0}, {"is_reserved": 0, "type": "electric_scooter", "fusion_lat": 0.0, "is_disabled": 0, "rental_uris": {"ios": "https://dc.lft.to/lastmile_qr_scan", "android": "https://dc.lft.to/lastmile_qr_scan"}, "bike_id": "577c179d8d10df1710054355c9937bf1", "lat": 38.91849533333333, "name": "577c179d8d10df1710054355c9937bf1", "lon": -77.02594233333333, "fusion_lon": 0.0}, {"is_reserved": 0, "type": "electric_scooter", "fusion_lat": 0.0, "is_disabled": 0, "rental_uris": {"ios": "https://dc.lft.to/lastmile_qr_scan", "android": "https://dc.lft.to/lastmile_qr_scan"}, "bike_id": "83679b68ad591a39f7f0527dd67252c1", "lat": 38.92100833333333, "name": "83679b68ad591a39f7f0527dd67252c1", "lon": -77.03043216666667, "fusion_lon": 0.0}, {"is_reserved": 0, "type": "electric_scooter", "fusion_lat": 0.0, "is_disabled": 0, "rental_uris": {"ios": "https://dc.lft.to/lastmile_qr_scan", "android": "https://dc.lft.to/lastmile_qr_scan"}, "bike_id": "7705f9c2603e2342afb8e521cc7dedca", "lat": 38.914995, "name": "7705f9c2603e2342afb8e521cc7dedca", "lon": -77.032149, "fusion_lon": 0.0}, {"is_reserved": 0, "type": "electric_scooter", "fusion_lat": 0.0, "is_disabled": 0, "rental_uris": {"ios": "https://dc.lft.to/lastmile_qr_scan", "android": "https://dc.lft.to/lastmile_qr_scan"}, "bike_id": "0919e35fbcc85de19c6d71dd3fc1ea21", "lat": 38.8972905, "name": "0919e35fbcc85de19c6d71dd3fc1ea21", "lon": -77.00754266666667, "fusion_lon": 0.0}, {"is_reserved": 0, "type": "electric_bike", "fusion_lat": 0.0, "is_disabled": 0, "rental_uris": {"ios": "https://dc.lft.to/lastmile_qr_scan", "android": "https://dc.lft.to/lastmile_qr_scan"}, "bike_id": "c28199949aab950d9822b57efb34c1fb", "lat": 39.010664, "name": "c28199949aab950d9822b57efb34c1fb", "lon": -76.92244583333333, "fusion_lon": 0.0}, {"is_reserved": 0, "type": "electric_scooter", "fusion_lat": 0.0, "is_disabled": 0, "rental_uris": {"ios": "https://dc.lft.to/lastmile_qr_scan", "android": "https://dc.lft.to/lastmile_qr_scan"}, "bike_id": "b25a58c21a7b7edbbf6dc13b7f1a3887", "lat": 38.93128183333334, "name": "b25a58c21a7b7edbbf6dc13b7f1a3887", "lon": -77.022006, "fusion_lon": 0.0}, {"is_reserved": 0, "type": "electric_scooter", "fusion_lat": 0.0, "is_disabled": 0, "rental_uris": {"ios": "https://dc.lft.to/lastmile_qr_scan", "android": "https://dc.lft.to/lastmile_qr_scan"}, "bike_id": "5b3654c55156c326f14a6d95c5d27ed5", "lat": 38.9186445, "name": "5b3654c55156c326f14a6d95c5d27ed5", "lon": -77.01536816666666, "fusion_lon": 0.0}, {"is_reserved": 0, "type": "electric_scooter", "fusion_lat": 0.0, "is_disabled": 0, "rental_uris": {"ios": "https://dc.lft.to/lastmile_qr_scan", "android": "https://dc.lft.to/lastmile_qr_scan"}, "bike_id": "574feb78e0ab45a7d20798d3d25a9ee1", "lat": 38.873710333333335, "name": "574feb78e0ab45a7d20798d3d25a9ee1", "lon": -77.00185983333333, "fusion_lon": 0.0}, {"is_reserved": 0, "type": "electric_scooter", "fusion_lat": 0.0, "is_disabled": 0, "rental_uris": {"ios": "https://dc.lft.to/lastmile_qr_scan", "android": "https://dc.lft.to/lastmile_qr_scan"}, "bike_id": "62d428073730a79c365549f4333e71d0", "lat": 38.92246733333333, "name": "62d428073730a79c365549f4333e71d0", "lon": -77.03665766666667, "fusion_lon": 0.0}, {"is_reserved": 0, "type": "electric_scooter", "fusion_lat": 0.0, "is_disabled": 0, "rental_uris": {"ios": "https://dc.lft.to/lastmile_qr_scan", "android": "https://dc.lft.to/lastmile_qr_scan"}, "bike_id": "4430f9cfe3cccaae5091350d76c8cd70", "lat": 38.8784255, "name": "4430f9cfe3cccaae5091350d76c8cd70", "lon": -76.93128533333334, "fusion_lon": 0.0}, {"is_reserved": 0, "type": "electric_scooter", "fusion_lat": 0.0, "is_disabled": 0, "rental_uris": {"ios": "https://dc.lft.to/lastmile_qr_scan", "android": "https://dc.lft.to/lastmile_qr_scan"}, "bike_id": "f1a64e7b1d504ddc01a338e871d5804e", "lat": 38.90179033333333, "name": "f1a64e7b1d504ddc01a338e871d5804e", "lon": -76.98840033333333, "fusion_lon": 0.0}, {"is_reserved": 0, "type": "electric_scooter", "fusion_lat": 0.0, "is_disabled": 0, "rental_uris": {"ios": "https://dc.lft.to/lastmile_qr_scan", "android": "https://dc.lft.to/lastmile_qr_scan"}, "bike_id": "8392785a85bd2ec8997d777f9b6a75f5", "lat": 38.907201, "name": "8392785a85bd2ec8997d777f9b6a75f5", "lon": -77.04770283333333, "fusion_lon": 0.0}, {"is_reserved": 0, "type": "electric_bike", "fusion_lat": 0.0, "is_disabled": 0, "rental_uris": {"ios": "https://dc.lft.to/lastmile_qr_scan", "android": "https://dc.lft.to/lastmile_qr_scan"}, "bike_id": "7139ebf128d6dedd4bd0e4c5b7640521", "lat": 38.96729283333333, "name": "7139ebf128d6dedd4bd0e4c5b7640521", "lon": -77.0891045, "fusion_lon": 0.0}, {"is_reserved": 0, "type": "electric_scooter", "fusion_lat": 0.0, "is_disabled": 0, "rental_uris": {"ios": "https://dc.lft.to/lastmile_qr_scan", "android": "https://dc.lft.to/lastmile_qr_scan"}, "bike_id": "07cb6d0174711c6544a9f3988ea29801", "lat": 38.92954266666667, "name": "07cb6d0174711c6544a9f3988ea29801", "lon": -77.04407133333333, "fusion_lon": 0.0}, {"is_reserved": 0, "type": "electric_scooter", "fusion_lat": 0.0, "is_disabled": 0, "rental_uris": {"ios": "https://dc.lft.to/lastmile_qr_scan", "android": "https://dc.lft.to/lastmile_qr_scan"}, "bike_id": "82cf0fbc4d0baeb3b1187379d3a3d18e", "lat": 38.8876435, "name": "82cf0fbc4d0baeb3b1187379d3a3d18e", "lon": -77.00048616666666, "fusion_lon": 0.0}, {"is_reserved": 0, "type": "electric_bike", "fusion_lat": 0.0, "is_disabled": 0, "rental_uris": {"ios": "https://dc.lft.to/lastmile_qr_scan", "android": "https://dc.lft.to/lastmile_qr_scan"}, "bike_id": "2367ce781b4a61243131b81e2e8a8450", "lat": 38.835915666666665, "name": "2367ce781b4a61243131b81e2e8a8450", "lon": -76.99015066666666, "fusion_lon": 0.0}, {"is_reserved": 0, "type": "electric_bike", "fusion_lat": 0.0, "is_disabled": 0, "rental_uris": {"ios": "https://dc.lft.to/lastmile_qr_scan", "android": "https://dc.lft.to/lastmile_qr_scan"}, "bike_id": "c6d5f6f1be28f1879d534437f19bb279", "lat": 38.850857, "name": "c6d5f6f1be28f1879d534437f19bb279", "lon": -76.98158516666666, "fusion_lon": 0.0}, {"is_reserved": 0, "type": "electric_scooter", "fusion_lat": 0.0, "is_disabled": 0, "rental_uris": {"ios": "https://dc.lft.to/lastmile_qr_scan", "android": "https://dc.lft.to/lastmile_qr_scan"}, "bike_id": "eb5cd4f38d77cd6e2a1ddea298d08c8a", "lat": 38.909988166666665, "name": "eb5cd4f38d77cd6e2a1ddea298d08c8a", "lon": -77.02692666666667, "fusion_lon": 0.0}, {"is_reserved": 0, "type": "electric_scooter", "fusion_lat": 0.0, "is_disabled": 0, "rental_uris": {"ios": "https://dc.lft.to/lastmile_qr_scan", "android": "https://dc.lft.to/lastmile_qr_scan"}, "bike_id": "f95ed22d006fd1da91c0cc0ae81c4f1d", "lat": 38.92227783333333, "name": "f95ed22d006fd1da91c0cc0ae81c4f1d", "lon": -77.028263, "fusion_lon": 0.0}, {"is_reserved": 0, "type": "electric_scooter", "fusion_lat": 0.0, "is_disabled": 0, "rental_uris": {"ios": "https://dc.lft.to/lastmile_qr_scan", "android": "https://dc.lft.to/lastmile_qr_scan"}, "bike_id": "8660ad3a74844b3a5031e3a3e5097bfa", "lat": 38.9333275, "name": "8660ad3a74844b3a5031e3a3e5097bfa", "lon": -77.02912083333334, "fusion_lon": 0.0}, {"is_reserved": 0, "type": "electric_scooter", "fusion_lat": 0.0, "is_disabled": 0, "rental_uris": {"ios": "https://dc.lft.to/lastmile_qr_scan", "android": "https://dc.lft.to/lastmile_qr_scan"}, "bike_id": "13643b7e3736d8a3fe00a69accbb60a8", "lat": 38.92106483333333, "name": "13643b7e3736d8a3fe00a69accbb60a8", "lon": -77.03639183333334, "fusion_lon": 0.0}, {"is_reserved": 0, "type": "electric_scooter", "fusion_lat": 0.0, "is_disabled": 0, "rental_uris": {"ios": "https://dc.lft.to/lastmile_qr_scan", "android": "https://dc.lft.to/lastmile_qr_scan"}, "bike_id": "eeed73b1ca497f6a72cc45af54f4e031", "lat": 38.92209716666667, "name": "eeed73b1ca497f6a72cc45af54f4e031", "lon": -77.02032983333334, "fusion_lon": 0.0}, {"is_reserved": 0, "type": "electric_scooter", "fusion_lat": 0.0, "is_disabled": 0, "rental_uris": {"ios": "https://dc.lft.to/lastmile_qr_scan", "android": "https://dc.lft.to/lastmile_qr_scan"}, "bike_id": "97e9a6f26cc0acae6811bfb846f358ed", "lat": 38.9174515, "name": "97e9a6f26cc0acae6811bfb846f358ed", "lon": -77.01087883333334, "fusion_lon": 0.0}, {"is_reserved": 0, "type": "electric_bike", "fusion_lat": 0.0, "is_disabled": 0, "rental_uris": {"ios": "https://dc.lft.to/lastmile_qr_scan", "android": "https://dc.lft.to/lastmile_qr_scan"}, "bike_id": "69f41e87d9729af8da3810a9f2a63106", "lat": 38.931183833333336, "name": "69f41e87d9729af8da3810a9f2a63106", "lon": -77.0271815, "fusion_lon": 0.0}, {"is_reserved": 0, "type": "electric_scooter", "fusion_lat": 0.0, "is_disabled": 0, "rental_uris": {"ios": "https://dc.lft.to/lastmile_qr_scan", "android": "https://dc.lft.to/lastmile_qr_scan"}, "bike_id": "27436d92786e07b95e1087fa95b0aa06", "lat": 38.9013735, "name": "27436d92786e07b95e1087fa95b0aa06", "lon": -76.97417533333333, "fusion_lon": 0.0}, {"is_reserved": 0, "type": "electric_bike", "fusion_lat": 0.0, "is_disabled": 0, "rental_uris": {"ios": "https://dc.lft.to/lastmile_qr_scan", "android": "https://dc.lft.to/lastmile_qr_scan"}, "bike_id": "61d97ef7c8ffb7803571c0299dbdc583", "lat": 38.914517833333335, "name": "61d97ef7c8ffb7803571c0299dbdc583", "lon": -76.97280033333334, "fusion_lon": 0.0}, {"is_reserved": 0, "type": "electric_scooter", "fusion_lat": 0.0, "is_disabled": 0, "rental_uris": {"ios": "https://dc.lft.to/lastmile_qr_scan", "android": "https://dc.lft.to/lastmile_qr_scan"}, "bike_id": "f1d720cbc034b336f528621c789c5a34", "lat": 38.8706915, "name": "f1d720cbc034b336f528621c789c5a34", "lon": -76.9794655, "fusion_lon": 0.0}, {"is_reserved": 0, "type": "electric_scooter", "fusion_lat": 0.0, "is_disabled": 0, "rental_uris": {"ios": "https://dc.lft.to/lastmile_qr_scan", "android": "https://dc.lft.to/lastmile_qr_scan"}, "bike_id": "30b1754628dece4773aaf7f443ca1d65", "lat": 38.93567766666666, "name": "30b1754628dece4773aaf7f443ca1d65", "lon": -77.0284905, "fusion_lon": 0.0}, {"is_reserved": 0, "type": "electric_scooter", "fusion_lat": 0.0, "is_disabled": 0, "rental_uris": {"ios": "https://dc.lft.to/lastmile_qr_scan", "android": "https://dc.lft.to/lastmile_qr_scan"}, "bike_id": "0762e96a8ed3c49b28348721333cb8a1", "lat": 38.9033315, "name": "0762e96a8ed3c49b28348721333cb8a1", "lon": -77.02607166666667, "fusion_lon": 0.0}, {"is_reserved": 0, "type": "electric_scooter", "fusion_lat": 0.0, "is_disabled": 0, "rental_uris": {"ios": "https://dc.lft.to/lastmile_qr_scan", "android": "https://dc.lft.to/lastmile_qr_scan"}, "bike_id": "ca57c53028ea3fcfc3887f760a8fe6dc", "lat": 38.896779333333335, "name": "ca57c53028ea3fcfc3887f760a8fe6dc", "lon": -77.05005866666667, "fusion_lon": 0.0}, {"is_reserved": 0, "type": "electric_scooter", "fusion_lat": 0.0, "is_disabled": 0, "rental_uris": {"ios": "https://dc.lft.to/lastmile_qr_scan", "android": "https://dc.lft.to/lastmile_qr_scan"}, "bike_id": "a14a1ff67c310ec7cb4f81b3fe3499bf", "lat": 38.897385166666666, "name": "a14a1ff67c310ec7cb4f81b3fe3499bf", "lon": -77.0481765, "fusion_lon": 0.0}, {"is_reserved": 0, "type": "electric_bike", "fusion_lat": 0.0, "is_disabled": 0, "rental_uris": {"ios": "https://dc.lft.to/lastmile_qr_scan", "android": "https://dc.lft.to/lastmile_qr_scan"}, "bike_id": "ac8308f2df52d15561035a0a38a284fd", "lat": 39.003786166666664, "name": "ac8308f2df52d15561035a0a38a284fd", "lon": -77.01286116666667, "fusion_lon": 0.0}, {"is_reserved": 0, "type": "electric_scooter", "fusion_lat": 0.0, "is_disabled": 0, "rental_uris": {"ios": "https://dc.lft.to/lastmile_qr_scan", "android": "https://dc.lft.to/lastmile_qr_scan"}, "bike_id": "c99cf784a0bca73037f40ae1fc8fd96f", "lat": 38.907277666666666, "name": "c99cf784a0bca73037f40ae1fc8fd96f", "lon": -77.045494, "fusion_lon": 0.0}, {"is_reserved": 0, "type": "electric_scooter", "fusion_lat": 0.0, "is_disabled": 0, "rental_uris": {"ios": "https://dc.lft.to/lastmile_qr_scan", "android": "https://dc.lft.to/lastmile_qr_scan"}, "bike_id": "a51f9de423aaa9696fca0bb9d77a66e9", "lat": 38.89829966666667, "name": "a51f9de423aaa9696fca0bb9d77a66e9", "lon": -76.94633616666667, "fusion_lon": 0.0}, {"is_reserved": 0, "type": "electric_bike", "fusion_lat": 0.0, "is_disabled": 0, "rental_uris": {"ios": "https://dc.lft.to/lastmile_qr_scan", "android": "https://dc.lft.to/lastmile_qr_scan"}, "bike_id": "45f931ccb1f3af6a0e136cfa29c9d692", "lat": 38.83064733333333, "name": "45f931ccb1f3af6a0e136cfa29c9d692", "lon": -77.04078033333333, "fusion_lon": 0.0}, {"is_reserved": 0, "type": "electric_scooter", "fusion_lat": 0.0, "is_disabled": 0, "rental_uris": {"ios": "https://dc.lft.to/lastmile_qr_scan", "android": "https://dc.lft.to/lastmile_qr_scan"}, "bike_id": "fa840741b223200b714945ec5f874900", "lat": 38.906408666666664, "name": "fa840741b223200b714945ec5f874900", "lon": -77.0184925, "fusion_lon": 0.0}, {"is_reserved": 0, "type": "electric_scooter", "fusion_lat": 0.0, "is_disabled": 0, "rental_uris": {"ios": "https://dc.lft.to/lastmile_qr_scan", "android": "https://dc.lft.to/lastmile_qr_scan"}, "bike_id": "17ff67fb755419ff4093e4054ad264d2", "lat": 38.89223166666667, "name": "17ff67fb755419ff4093e4054ad264d2", "lon": -77.04486033333333, "fusion_lon": 0.0}, {"is_reserved": 0, "type": "electric_scooter", "fusion_lat": 0.0, "is_disabled": 0, "rental_uris": {"ios": "https://dc.lft.to/lastmile_qr_scan", "android": "https://dc.lft.to/lastmile_qr_scan"}, "bike_id": "89005cec98cd0fc5c643f0f67badb07c", "lat": 38.898564, "name": "89005cec98cd0fc5c643f0f67badb07c", "lon": -76.94643633333334, "fusion_lon": 0.0}, {"is_reserved": 0, "type": "electric_scooter", "fusion_lat": 0.0, "is_disabled": 0, "rental_uris": {"ios": "https://dc.lft.to/lastmile_qr_scan", "android": "https://dc.lft.to/lastmile_qr_scan"}, "bike_id": "e911fc9c47457d88c243e49e97945e10", "lat": 38.89194116666667, "name": "e911fc9c47457d88c243e49e97945e10", "lon": -77.0221975, "fusion_lon": 0.0}, {"is_reserved": 0, "type": "electric_scooter", "fusion_lat": 0.0, "is_disabled": 0, "rental_uris": {"ios": "https://dc.lft.to/lastmile_qr_scan", "android": "https://dc.lft.to/lastmile_qr_scan"}, "bike_id": "418f74f6e144df3444df993bff1997b6", "lat": 38.948350166666664, "name": "418f74f6e144df3444df993bff1997b6", "lon": -77.02713533333333, "fusion_lon": 0.0}, {"is_reserved": 0, "type": "electric_scooter", "fusion_lat": 0.0, "is_disabled": 0, "rental_uris": {"ios": "https://dc.lft.to/lastmile_qr_scan", "android": "https://dc.lft.to/lastmile_qr_scan"}, "bike_id": "3d962d32588a0163f29beb2171a19f6f", "lat": 38.9011785, "name": "3d962d32588a0163f29beb2171a19f6f", "lon": -77.01629883333334, "fusion_lon": 0.0}, {"is_reserved": 0, "type": "electric_scooter", "fusion_lat": 0.0, "is_disabled": 0, "rental_uris": {"ios": "https://dc.lft.to/lastmile_qr_scan", "android": "https://dc.lft.to/lastmile_qr_scan"}, "bike_id": "d8034df18dda14a2ea015ea6ce3dc6e6", "lat": 38.9163895, "name": "d8034df18dda14a2ea015ea6ce3dc6e6", "lon": -77.04819216666667, "fusion_lon": 0.0}, {"is_reserved": 0, "type": "electric_scooter", "fusion_lat": 0.0, "is_disabled": 0, "rental_uris": {"ios": "https://dc.lft.to/lastmile_qr_scan", "android": "https://dc.lft.to/lastmile_qr_scan"}, "bike_id": "9915489a264f1e2cd9c382af0e782837", "lat": 38.882396, "name": "9915489a264f1e2cd9c382af0e782837", "lon": -77.00633483333333, "fusion_lon": 0.0}, {"is_reserved": 0, "type": "electric_bike", "fusion_lat": 0.0, "is_disabled": 0, "rental_uris": {"ios": "https://dc.lft.to/lastmile_qr_scan", "android": "https://dc.lft.to/lastmile_qr_scan"}, "bike_id": "68e9492dcc7e801654471381d8bcd250", "lat": 38.8682035, "name": "68e9492dcc7e801654471381d8bcd250", "lon": -76.9802415, "fusion_lon": 0.0}, {"is_reserved": 0, "type": "electric_scooter", "fusion_lat": 0.0, "is_disabled": 0, "rental_uris": {"ios": "https://dc.lft.to/lastmile_qr_scan", "android": "https://dc.lft.to/lastmile_qr_scan"}, "bike_id": "c89f6387d55eebd2949ff464aadd2a39", "lat": 38.95152, "name": "c89f6387d55eebd2949ff464aadd2a39", "lon": -77.01866433333333, "fusion_lon": 0.0}, {"is_reserved": 0, "type": "electric_scooter", "fusion_lat": 0.0, "is_disabled": 0, "rental_uris": {"ios": "https://dc.lft.to/lastmile_qr_scan", "android": "https://dc.lft.to/lastmile_qr_scan"}, "bike_id": "ce894ab3e93ed6819c414b3e580c98f2", "lat": 38.919515, "name": "ce894ab3e93ed6819c414b3e580c98f2", "lon": -77.02307933333333, "fusion_lon": 0.0}, {"is_reserved": 0, "type": "electric_scooter", "fusion_lat": 0.0, "is_disabled": 0, "rental_uris": {"ios": "https://dc.lft.to/lastmile_qr_scan", "android": "https://dc.lft.to/lastmile_qr_scan"}, "bike_id": "f9d94513aca5dcd7b69b95897341de0b", "lat": 38.903682333333336, "name": "f9d94513aca5dcd7b69b95897341de0b", "lon": -77.009896, "fusion_lon": 0.0}, {"is_reserved": 0, "type": "electric_scooter", "fusion_lat": 0.0, "is_disabled": 0, "rental_uris": {"ios": "https://dc.lft.to/lastmile_qr_scan", "android": "https://dc.lft.to/lastmile_qr_scan"}, "bike_id": "893b2979aed52f66f2e1f036f0abbf04", "lat": 38.902677833333335, "name": "893b2979aed52f66f2e1f036f0abbf04", "lon": -77.0201225, "fusion_lon": 0.0}, {"is_reserved": 0, "type": "electric_scooter", "fusion_lat": 0.0, "is_disabled": 0, "rental_uris": {"ios": "https://dc.lft.to/lastmile_qr_scan", "android": "https://dc.lft.to/lastmile_qr_scan"}, "bike_id": "c394063c5261f0294291f5bccfe4e843", "lat": 38.917698, "name": "c394063c5261f0294291f5bccfe4e843", "lon": -77.0476425, "fusion_lon": 0.0}, {"is_reserved": 0, "type": "electric_scooter", "fusion_lat": 0.0, "is_disabled": 0, "rental_uris": {"ios": "https://dc.lft.to/lastmile_qr_scan", "android": "https://dc.lft.to/lastmile_qr_scan"}, "bike_id": "a421429c64881c55c45ad4af1f9cca1a", "lat": 38.907555333333335, "name": "a421429c64881c55c45ad4af1f9cca1a", "lon": -77.019006, "fusion_lon": 0.0}, {"is_reserved": 0, "type": "electric_scooter", "fusion_lat": 0.0, "is_disabled": 0, "rental_uris": {"ios": "https://dc.lft.to/lastmile_qr_scan", "android": "https://dc.lft.to/lastmile_qr_scan"}, "bike_id": "f61187a778f2c6d858b27a2aec1ec583", "lat": 38.917183333333334, "name": "f61187a778f2c6d858b27a2aec1ec583", "lon": -77.03451783333334, "fusion_lon": 0.0}, {"is_reserved": 0, "type": "electric_scooter", "fusion_lat": 0.0, "is_disabled": 0, "rental_uris": {"ios": "https://dc.lft.to/lastmile_qr_scan", "android": "https://dc.lft.to/lastmile_qr_scan"}, "bike_id": "361c8331aba90c7e4d59ae8586ae2f4e", "lat": 38.92354266666667, "name": "361c8331aba90c7e4d59ae8586ae2f4e", "lon": -77.033114, "fusion_lon": 0.0}, {"is_reserved": 0, "type": "electric_scooter", "fusion_lat": 0.0, "is_disabled": 0, "rental_uris": {"ios": "https://dc.lft.to/lastmile_qr_scan", "android": "https://dc.lft.to/lastmile_qr_scan"}, "bike_id": "5ed3f52d66d81d1fa6d91dec02df201c", "lat": 38.90582066666666, "name": "5ed3f52d66d81d1fa6d91dec02df201c", "lon": -77.0298955, "fusion_lon": 0.0}, {"is_reserved": 0, "type": "electric_scooter", "fusion_lat": 0.0, "is_disabled": 0, "rental_uris": {"ios": "https://dc.lft.to/lastmile_qr_scan", "android": "https://dc.lft.to/lastmile_qr_scan"}, "bike_id": "a5ae57da9aa539240f551f3336dcfb57", "lat": 38.902790833333334, "name": "a5ae57da9aa539240f551f3336dcfb57", "lon": -77.041808, "fusion_lon": 0.0}, {"is_reserved": 0, "type": "electric_scooter", "fusion_lat": 0.0, "is_disabled": 0, "rental_uris": {"ios": "https://dc.lft.to/lastmile_qr_scan", "android": "https://dc.lft.to/lastmile_qr_scan"}, "bike_id": "c92bd5e1664582fce32aa925249a17ec", "lat": 38.913663, "name": "c92bd5e1664582fce32aa925249a17ec", "lon": -77.04486883333334, "fusion_lon": 0.0}, {"is_reserved": 0, "type": "electric_scooter", "fusion_lat": 0.0, "is_disabled": 0, "rental_uris": {"ios": "https://dc.lft.to/lastmile_qr_scan", "android": "https://dc.lft.to/lastmile_qr_scan"}, "bike_id": "b0188c2e634ce9021e6f2b4f2f0a9d76", "lat": 38.953771833333334, "name": "b0188c2e634ce9021e6f2b4f2f0a9d76", "lon": -77.001901, "fusion_lon": 0.0}, {"is_reserved": 0, "type": "electric_scooter", "fusion_lat": 0.0, "is_disabled": 0, "rental_uris": {"ios": "https://dc.lft.to/lastmile_qr_scan", "android": "https://dc.lft.to/lastmile_qr_scan"}, "bike_id": "a3a0fee00d968a25cc46b20997327d3b", "lat": 38.944474166666666, "name": "a3a0fee00d968a25cc46b20997327d3b", "lon": -77.032871, "fusion_lon": 0.0}, {"is_reserved": 0, "type": "electric_scooter", "fusion_lat": 0.0, "is_disabled": 0, "rental_uris": {"ios": "https://dc.lft.to/lastmile_qr_scan", "android": "https://dc.lft.to/lastmile_qr_scan"}, "bike_id": "563a988daf33e1c6805c8d0ee6dd1c67", "lat": 38.9126465, "name": "563a988daf33e1c6805c8d0ee6dd1c67", "lon": -77.01438966666667, "fusion_lon": 0.0}, {"is_reserved": 0, "type": "electric_scooter", "fusion_lat": 0.0, "is_disabled": 0, "rental_uris": {"ios": "https://dc.lft.to/lastmile_qr_scan", "android": "https://dc.lft.to/lastmile_qr_scan"}, "bike_id": "b5de0e8dc19c14a109bd3a001e882a5b", "lat": 38.92875733333333, "name": "b5de0e8dc19c14a109bd3a001e882a5b", "lon": -77.03994416666667, "fusion_lon": 0.0}, {"is_reserved": 0, "type": "electric_scooter", "fusion_lat": 0.0, "is_disabled": 0, "rental_uris": {"ios": "https://dc.lft.to/lastmile_qr_scan", "android": "https://dc.lft.to/lastmile_qr_scan"}, "bike_id": "95404312d5db5e9b92aae6633da0fe82", "lat": 38.8932435, "name": "95404312d5db5e9b92aae6633da0fe82", "lon": -77.02011683333333, "fusion_lon": 0.0}, {"is_reserved": 0, "type": "electric_scooter", "fusion_lat": 0.0, "is_disabled": 0, "rental_uris": {"ios": "https://dc.lft.to/lastmile_qr_scan", "android": "https://dc.lft.to/lastmile_qr_scan"}, "bike_id": "f72a58bbc789a477d3a7ea1c380cb2d3", "lat": 38.90481283333333, "name": "f72a58bbc789a477d3a7ea1c380cb2d3", "lon": -77.02720233333334, "fusion_lon": 0.0}, {"is_reserved": 0, "type": "electric_scooter", "fusion_lat": 0.0, "is_disabled": 0, "rental_uris": {"ios": "https://dc.lft.to/lastmile_qr_scan", "android": "https://dc.lft.to/lastmile_qr_scan"}, "bike_id": "c7e347ff4b76a3e0ac77d6b58489d7cb", "lat": 38.8922465, "name": "c7e347ff4b76a3e0ac77d6b58489d7cb", "lon": -77.04485333333334, "fusion_lon": 0.0}, {"is_reserved": 0, "type": "electric_scooter", "fusion_lat": 0.0, "is_disabled": 0, "rental_uris": {"ios": "https://dc.lft.to/lastmile_qr_scan", "android": "https://dc.lft.to/lastmile_qr_scan"}, "bike_id": "f446293686a5ddbc6b2cb16a2f07d269", "lat": 38.907439, "name": "f446293686a5ddbc6b2cb16a2f07d269", "lon": -76.99916466666667, "fusion_lon": 0.0}, {"is_reserved": 0, "type": "electric_scooter", "fusion_lat": 0.0, "is_disabled": 0, "rental_uris": {"ios": "https://dc.lft.to/lastmile_qr_scan", "android": "https://dc.lft.to/lastmile_qr_scan"}, "bike_id": "10789ee20e6ebc41182a373896aaa98a", "lat": 38.8995955, "name": "10789ee20e6ebc41182a373896aaa98a", "lon": -77.04830016666666, "fusion_lon": 0.0}, {"is_reserved": 0, "type": "electric_scooter", "fusion_lat": 0.0, "is_disabled": 0, "rental_uris": {"ios": "https://dc.lft.to/lastmile_qr_scan", "android": "https://dc.lft.to/lastmile_qr_scan"}, "bike_id": "3e73abbbeb8dc06b266313f81bebf08d", "lat": 38.898162666666664, "name": "3e73abbbeb8dc06b266313f81bebf08d", "lon": -77.0467525, "fusion_lon": 0.0}, {"is_reserved": 0, "type": "electric_scooter", "fusion_lat": 0.0, "is_disabled": 0, "rental_uris": {"ios": "https://dc.lft.to/lastmile_qr_scan", "android": "https://dc.lft.to/lastmile_qr_scan"}, "bike_id": "262519f6fe899fe2faf9f0ad1a9581e5", "lat": 38.9095755, "name": "262519f6fe899fe2faf9f0ad1a9581e5", "lon": -77.023806, "fusion_lon": 0.0}, {"is_reserved": 0, "type": "electric_scooter", "fusion_lat": 0.0, "is_disabled": 0, "rental_uris": {"ios": "https://dc.lft.to/lastmile_qr_scan", "android": "https://dc.lft.to/lastmile_qr_scan"}, "bike_id": "1f193f57adaa3ed589bb4730220b9417", "lat": 38.93519766666667, "name": "1f193f57adaa3ed589bb4730220b9417", "lon": -77.05446616666667, "fusion_lon": 0.0}, {"is_reserved": 0, "type": "electric_scooter", "fusion_lat": 0.0, "is_disabled": 0, "rental_uris": {"ios": "https://dc.lft.to/lastmile_qr_scan", "android": "https://dc.lft.to/lastmile_qr_scan"}, "bike_id": "53b06a334c55c8c05831d6e9cb5192c4", "lat": 38.870729833333336, "name": "53b06a334c55c8c05831d6e9cb5192c4", "lon": -76.981258, "fusion_lon": 0.0}, {"is_reserved": 0, "type": "electric_scooter", "fusion_lat": 0.0, "is_disabled": 0, "rental_uris": {"ios": "https://dc.lft.to/lastmile_qr_scan", "android": "https://dc.lft.to/lastmile_qr_scan"}, "bike_id": "cd6ccae43094df113d19a0f5d9eb9e38", "lat": 38.922382666666664, "name": "cd6ccae43094df113d19a0f5d9eb9e38", "lon": -77.0281525, "fusion_lon": 0.0}, {"is_reserved": 0, "type": "electric_scooter", "fusion_lat": 0.0, "is_disabled": 0, "rental_uris": {"ios": "https://dc.lft.to/lastmile_qr_scan", "android": "https://dc.lft.to/lastmile_qr_scan"}, "bike_id": "28c42c088e12f572ff60d45b3dcd61c9", "lat": 38.904007666666665, "name": "28c42c088e12f572ff60d45b3dcd61c9", "lon": -77.01993033333333, "fusion_lon": 0.0}, {"is_reserved": 0, "type": "electric_scooter", "fusion_lat": 0.0, "is_disabled": 0, "rental_uris": {"ios": "https://dc.lft.to/lastmile_qr_scan", "android": "https://dc.lft.to/lastmile_qr_scan"}, "bike_id": "9797d9b3acbe942605f173ba32ce8cfb", "lat": 38.92825233333333, "name": "9797d9b3acbe942605f173ba32ce8cfb", "lon": -77.01402716666666, "fusion_lon": 0.0}, {"is_reserved": 0, "type": "electric_bike", "fusion_lat": 0.0, "is_disabled": 0, "rental_uris": {"ios": "https://dc.lft.to/lastmile_qr_scan", "android": "https://dc.lft.to/lastmile_qr_scan"}, "bike_id": "4b650fa1b0e221e0db3cc07cceb82014", "lat": 39.03474533333333, "name": "4b650fa1b0e221e0db3cc07cceb82014", "lon": -77.04105583333333, "fusion_lon": 0.0}, {"is_reserved": 0, "type": "electric_scooter", "fusion_lat": 0.0, "is_disabled": 0, "rental_uris": {"ios": "https://dc.lft.to/lastmile_qr_scan", "android": "https://dc.lft.to/lastmile_qr_scan"}, "bike_id": "aab741709fb4fa95667b1c447cf4146a", "lat": 38.9100535, "name": "aab741709fb4fa95667b1c447cf4146a", "lon": -77.04423, "fusion_lon": 0.0}, {"is_reserved": 0, "type": "electric_scooter", "fusion_lat": 0.0, "is_disabled": 0, "rental_uris": {"ios": "https://dc.lft.to/lastmile_qr_scan", "android": "https://dc.lft.to/lastmile_qr_scan"}, "bike_id": "4c468f7700cc11cd661749282b2ca09d", "lat": 38.907708, "name": "4c468f7700cc11cd661749282b2ca09d", "lon": -77.02400333333334, "fusion_lon": 0.0}, {"is_reserved": 0, "type": "electric_scooter", "fusion_lat": 0.0, "is_disabled": 0, "rental_uris": {"ios": "https://dc.lft.to/lastmile_qr_scan", "android": "https://dc.lft.to/lastmile_qr_scan"}, "bike_id": "63b27f36ec5aab57dfd289943aca9a9c", "lat": 38.92069733333334, "name": "63b27f36ec5aab57dfd289943aca9a9c", "lon": -77.04382066666666, "fusion_lon": 0.0}, {"is_reserved": 0, "type": "electric_scooter", "fusion_lat": 0.0, "is_disabled": 0, "rental_uris": {"ios": "https://dc.lft.to/lastmile_qr_scan", "android": "https://dc.lft.to/lastmile_qr_scan"}, "bike_id": "da571ad4b7fb938ca7501fadc5eec768", "lat": 38.903006, "name": "da571ad4b7fb938ca7501fadc5eec768", "lon": -76.99840766666667, "fusion_lon": 0.0}, {"is_reserved": 0, "type": "electric_scooter", "fusion_lat": 0.0, "is_disabled": 0, "rental_uris": {"ios": "https://dc.lft.to/lastmile_qr_scan", "android": "https://dc.lft.to/lastmile_qr_scan"}, "bike_id": "e2a685585844e184d495c6e0828dbdb1", "lat": 38.92483983333333, "name": "e2a685585844e184d495c6e0828dbdb1", "lon": -77.0255135, "fusion_lon": 0.0}, {"is_reserved": 0, "type": "electric_scooter", "fusion_lat": 0.0, "is_disabled": 0, "rental_uris": {"ios": "https://dc.lft.to/lastmile_qr_scan", "android": "https://dc.lft.to/lastmile_qr_scan"}, "bike_id": "5ee9d964e4fd24a49fb8095663c848b1", "lat": 38.88007783333333, "name": "5ee9d964e4fd24a49fb8095663c848b1", "lon": -76.9983775, "fusion_lon": 0.0}, {"is_reserved": 0, "type": "electric_scooter", "fusion_lat": 0.0, "is_disabled": 0, "rental_uris": {"ios": "https://dc.lft.to/lastmile_qr_scan", "android": "https://dc.lft.to/lastmile_qr_scan"}, "bike_id": "19a429730175197b995bcb1581f5060c", "lat": 38.89506883333333, "name": "19a429730175197b995bcb1581f5060c", "lon": -76.948872, "fusion_lon": 0.0}, {"is_reserved": 0, "type": "electric_scooter", "fusion_lat": 0.0, "is_disabled": 0, "rental_uris": {"ios": "https://dc.lft.to/lastmile_qr_scan", "android": "https://dc.lft.to/lastmile_qr_scan"}, "bike_id": "71cf4806f0cdf8976d48849790b9781c", "lat": 38.90364066666667, "name": "71cf4806f0cdf8976d48849790b9781c", "lon": -76.978154, "fusion_lon": 0.0}, {"is_reserved": 0, "type": "electric_scooter", "fusion_lat": 0.0, "is_disabled": 0, "rental_uris": {"ios": "https://dc.lft.to/lastmile_qr_scan", "android": "https://dc.lft.to/lastmile_qr_scan"}, "bike_id": "992829d8672e7f9e9656948965069776", "lat": 38.94008183333333, "name": "992829d8672e7f9e9656948965069776", "lon": -77.0772795, "fusion_lon": 0.0}, {"is_reserved": 0, "type": "electric_scooter", "fusion_lat": 0.0, "is_disabled": 0, "rental_uris": {"ios": "https://dc.lft.to/lastmile_qr_scan", "android": "https://dc.lft.to/lastmile_qr_scan"}, "bike_id": "261f783e9a6af4aff439b051252697e3", "lat": 38.930026, "name": "261f783e9a6af4aff439b051252697e3", "lon": -77.0211355, "fusion_lon": 0.0}, {"is_reserved": 0, "type": "electric_scooter", "fusion_lat": 0.0, "is_disabled": 0, "rental_uris": {"ios": "https://dc.lft.to/lastmile_qr_scan", "android": "https://dc.lft.to/lastmile_qr_scan"}, "bike_id": "389f2e5189f5f6d85e9949e5b62ef567", "lat": 38.878867166666666, "name": "389f2e5189f5f6d85e9949e5b62ef567", "lon": -76.96541333333333, "fusion_lon": 0.0}, {"is_reserved": 0, "type": "electric_scooter", "fusion_lat": 0.0, "is_disabled": 0, "rental_uris": {"ios": "https://dc.lft.to/lastmile_qr_scan", "android": "https://dc.lft.to/lastmile_qr_scan"}, "bike_id": "cc0d85f0679f00a55b9e89f9ad75c835", "lat": 38.95220116666667, "name": "cc0d85f0679f00a55b9e89f9ad75c835", "lon": -77.06887416666666, "fusion_lon": 0.0}, {"is_reserved": 0, "type": "electric_scooter", "fusion_lat": 0.0, "is_disabled": 0, "rental_uris": {"ios": "https://dc.lft.to/lastmile_qr_scan", "android": "https://dc.lft.to/lastmile_qr_scan"}, "bike_id": "ed501956a7704b161207401695caad26", "lat": 38.89936566666667, "name": "ed501956a7704b161207401695caad26", "lon": -76.93764383333334, "fusion_lon": 0.0}, {"is_reserved": 0, "type": "electric_scooter", "fusion_lat": 0.0, "is_disabled": 0, "rental_uris": {"ios": "https://dc.lft.to/lastmile_qr_scan", "android": "https://dc.lft.to/lastmile_qr_scan"}, "bike_id": "6c399b7d96995df2e01b2a68873b5d79", "lat": 38.901828333333334, "name": "6c399b7d96995df2e01b2a68873b5d79", "lon": -76.97671716666666, "fusion_lon": 0.0}, {"is_reserved": 0, "type": "electric_scooter", "fusion_lat": 0.0, "is_disabled": 0, "rental_uris": {"ios": "https://dc.lft.to/lastmile_qr_scan", "android": "https://dc.lft.to/lastmile_qr_scan"}, "bike_id": "3872d29630d30c61ad81e88f9d46bbf2", "lat": 38.90956083333333, "name": "3872d29630d30c61ad81e88f9d46bbf2", "lon": -77.02119833333333, "fusion_lon": 0.0}, {"is_reserved": 0, "type": "electric_scooter", "fusion_lat": 0.0, "is_disabled": 0, "rental_uris": {"ios": "https://dc.lft.to/lastmile_qr_scan", "android": "https://dc.lft.to/lastmile_qr_scan"}, "bike_id": "4ccbf91630c73429ed6eb8628e057d90", "lat": 38.90516, "name": "4ccbf91630c73429ed6eb8628e057d90", "lon": -77.03095666666667, "fusion_lon": 0.0}, {"is_reserved": 0, "type": "electric_bike", "fusion_lat": 0.0, "is_disabled": 0, "rental_uris": {"ios": "https://dc.lft.to/lastmile_qr_scan", "android": "https://dc.lft.to/lastmile_qr_scan"}, "bike_id": "257457427f92c80a0b34d96909713a68", "lat": 38.813303833333336, "name": "257457427f92c80a0b34d96909713a68", "lon": -77.05087366666666, "fusion_lon": 0.0}, {"is_reserved": 0, "type": "electric_scooter", "fusion_lat": 0.0, "is_disabled": 0, "rental_uris": {"ios": "https://dc.lft.to/lastmile_qr_scan", "android": "https://dc.lft.to/lastmile_qr_scan"}, "bike_id": "55d19e6eedea4b8e907fb7ad49e93026", "lat": 38.922922, "name": "55d19e6eedea4b8e907fb7ad49e93026", "lon": -77.0207365, "fusion_lon": 0.0}, {"is_reserved": 0, "type": "electric_bike", "fusion_lat": 0.0, "is_disabled": 0, "rental_uris": {"ios": "https://dc.lft.to/lastmile_qr_scan", "android": "https://dc.lft.to/lastmile_qr_scan"}, "bike_id": "457f7b335af044bdad0998bdac457180", "lat": 38.96122966666667, "name": "457f7b335af044bdad0998bdac457180", "lon": -77.03274516666667, "fusion_lon": 0.0}, {"is_reserved": 0, "type": "electric_scooter", "fusion_lat": 0.0, "is_disabled": 0, "rental_uris": {"ios": "https://dc.lft.to/lastmile_qr_scan", "android": "https://dc.lft.to/lastmile_qr_scan"}, "bike_id": "98d7f0efd658b1dcd9a091af281df3dd", "lat": 38.87741883333333, "name": "98d7f0efd658b1dcd9a091af281df3dd", "lon": -77.00593733333334, "fusion_lon": 0.0}, {"is_reserved": 0, "type": "electric_scooter", "fusion_lat": 0.0, "is_disabled": 0, "rental_uris": {"ios": "https://dc.lft.to/lastmile_qr_scan", "android": "https://dc.lft.to/lastmile_qr_scan"}, "bike_id": "d03a8200c2dc0fe45d029aa53687286f", "lat": 38.93901566666667, "name": "d03a8200c2dc0fe45d029aa53687286f", "lon": -77.032823, "fusion_lon": 0.0}, {"is_reserved": 0, "type": "electric_scooter", "fusion_lat": 0.0, "is_disabled": 0, "rental_uris": {"ios": "https://dc.lft.to/lastmile_qr_scan", "android": "https://dc.lft.to/lastmile_qr_scan"}, "bike_id": "b59c197e8668f5155f1ca40ddf74b5ce", "lat": 38.9468195, "name": "b59c197e8668f5155f1ca40ddf74b5ce", "lon": -77.03282966666667, "fusion_lon": 0.0}, {"is_reserved": 0, "type": "electric_scooter", "fusion_lat": 0.0, "is_disabled": 0, "rental_uris": {"ios": "https://dc.lft.to/lastmile_qr_scan", "android": "https://dc.lft.to/lastmile_qr_scan"}, "bike_id": "b06437bd00046cd8b9a718769f688992", "lat": 38.931945, "name": "b06437bd00046cd8b9a718769f688992", "lon": -77.032631, "fusion_lon": 0.0}, {"is_reserved": 0, "type": "electric_scooter", "fusion_lat": 0.0, "is_disabled": 0, "rental_uris": {"ios": "https://dc.lft.to/lastmile_qr_scan", "android": "https://dc.lft.to/lastmile_qr_scan"}, "bike_id": "999da75d8b233b0fbd6060796d2d6486", "lat": 38.88450683333333, "name": "999da75d8b233b0fbd6060796d2d6486", "lon": -76.95095983333333, "fusion_lon": 0.0}, {"is_reserved": 0, "type": "electric_scooter", "fusion_lat": 0.0, "is_disabled": 0, "rental_uris": {"ios": "https://dc.lft.to/lastmile_qr_scan", "android": "https://dc.lft.to/lastmile_qr_scan"}, "bike_id": "aabdd8aa47a1c211a11f7a13b2a50fe1", "lat": 38.893273, "name": "aabdd8aa47a1c211a11f7a13b2a50fe1", "lon": -76.93928016666666, "fusion_lon": 0.0}, {"is_reserved": 0, "type": "electric_scooter", "fusion_lat": 0.0, "is_disabled": 0, "rental_uris": {"ios": "https://dc.lft.to/lastmile_qr_scan", "android": "https://dc.lft.to/lastmile_qr_scan"}, "bike_id": "204d78aba9493ec9103e255fbabb85a6", "lat": 38.91256633333333, "name": "204d78aba9493ec9103e255fbabb85a6", "lon": -77.0102495, "fusion_lon": 0.0}, {"is_reserved": 0, "type": "electric_scooter", "fusion_lat": 0.0, "is_disabled": 0, "rental_uris": {"ios": "https://dc.lft.to/lastmile_qr_scan", "android": "https://dc.lft.to/lastmile_qr_scan"}, "bike_id": "d6eee99f41460a2ad616973fd8dc3bb3", "lat": 38.8858255, "name": "d6eee99f41460a2ad616973fd8dc3bb3", "lon": -77.012274, "fusion_lon": 0.0}, {"is_reserved": 0, "type": "electric_bike", "fusion_lat": 0.0, "is_disabled": 0, "rental_uris": {"ios": "https://dc.lft.to/lastmile_qr_scan", "android": "https://dc.lft.to/lastmile_qr_scan"}, "bike_id": "03804f4538ea990a62e4da5344fde015", "lat": 38.95686383333334, "name": "03804f4538ea990a62e4da5344fde015", "lon": -77.02225233333333, "fusion_lon": 0.0}, {"is_reserved": 0, "type": "electric_scooter", "fusion_lat": 0.0, "is_disabled": 0, "rental_uris": {"ios": "https://dc.lft.to/lastmile_qr_scan", "android": "https://dc.lft.to/lastmile_qr_scan"}, "bike_id": "016a1e210e6d1c35b741b23d46b0a576", "lat": 38.952568166666666, "name": "016a1e210e6d1c35b741b23d46b0a576", "lon": -77.02073633333333, "fusion_lon": 0.0}, {"is_reserved": 0, "type": "electric_scooter", "fusion_lat": 0.0, "is_disabled": 0, "rental_uris": {"ios": "https://dc.lft.to/lastmile_qr_scan", "android": "https://dc.lft.to/lastmile_qr_scan"}, "bike_id": "2038497282b8f4152e5162a9f9cd4f9b", "lat": 38.923606666666664, "name": "2038497282b8f4152e5162a9f9cd4f9b", "lon": -77.05239133333333, "fusion_lon": 0.0}, {"is_reserved": 0, "type": "electric_scooter", "fusion_lat": 0.0, "is_disabled": 0, "rental_uris": {"ios": "https://dc.lft.to/lastmile_qr_scan", "android": "https://dc.lft.to/lastmile_qr_scan"}, "bike_id": "875885009ba2bb1a5c73dd2af84979d0", "lat": 38.915629333333335, "name": "875885009ba2bb1a5c73dd2af84979d0", "lon": -77.04008733333333, "fusion_lon": 0.0}, {"is_reserved": 0, "type": "electric_scooter", "fusion_lat": 0.0, "is_disabled": 0, "rental_uris": {"ios": "https://dc.lft.to/lastmile_qr_scan", "android": "https://dc.lft.to/lastmile_qr_scan"}, "bike_id": "7aa00fdd38960e15b39ab8d13dfc8b09", "lat": 38.899095, "name": "7aa00fdd38960e15b39ab8d13dfc8b09", "lon": -77.02316416666666, "fusion_lon": 0.0}, {"is_reserved": 0, "type": "electric_scooter", "fusion_lat": 0.0, "is_disabled": 0, "rental_uris": {"ios": "https://dc.lft.to/lastmile_qr_scan", "android": "https://dc.lft.to/lastmile_qr_scan"}, "bike_id": "f35b7c4671d27845e9840edb80eaa08b", "lat": 38.94324983333333, "name": "f35b7c4671d27845e9840edb80eaa08b", "lon": -77.01312983333334, "fusion_lon": 0.0}, {"is_reserved": 0, "type": "electric_scooter", "fusion_lat": 0.0, "is_disabled": 0, "rental_uris": {"ios": "https://dc.lft.to/lastmile_qr_scan", "android": "https://dc.lft.to/lastmile_qr_scan"},