{"data": {"bikes": [{"lat": 38.91226016666667, "is_disabled": 0, "type": "electric_scooter", "lon": -77.0019655, "bike_id": "27a710f8d67be45bddf55b0942d3546c", "fusion_lat": 0.0, "name": "27a710f8d67be45bddf55b0942d3546c", "is_reserved": 0, "rental_uris": {"android": "https://dc.lft.to/lastmile_qr_scan", "ios": "https://dc.lft.to/lastmile_qr_scan"}, "fusion_lon": 0.0}, {"lat": 38.90584233333333, "is_disabled": 0, "type": "electric_scooter", "lon": -77.04045116666667, "bike_id": "f7a6f98eb1157b1953ce175791759da3", "fusion_lat": 0.0, "name": "f7a6f98eb1157b1953ce175791759da3", "is_reserved": 0, "rental_uris": {"android": "https://dc.lft.to/lastmile_qr_scan", "ios": "https://dc.lft.to/lastmile_qr_scan"}, "fusion_lon": 0.0}, {"lat": 38.8688695, "is_disabled": 0, "type": "electric_scooter", "lon": -76.983123, "bike_id": "db07fbec1bed8d611fd29766205dd694", "fusion_lat": 0.0, "name": "db07fbec1bed8d611fd29766205dd694", "is_reserved": 0, "rental_uris": {"android": "https://dc.lft.to/lastmile_qr_scan", "ios": "https://dc.lft.to/lastmile_qr_scan"}, "fusion_lon": 0.0}, {"lat": 38.90774416666667, "is_disabled": 0, "type": "electric_scooter", "lon": -77.042434, "bike_id": "08ddac94a58d3b8dd7f079659cff5b1a", "fusion_lat": 0.0, "name": "08ddac94a58d3b8dd7f079659cff5b1a", "is_reserved": 0, "rental_uris": {"android": "https://dc.lft.to/lastmile_qr_scan", "ios": "https://dc.lft.to/lastmile_qr_scan"}, "fusion_lon": 0.0}, {"lat": 38.91252633333333, "is_disabled": 0, "type": "electric_scooter", "lon": -77.02714566666667, "bike_id": "ad56d43ef59d25340f2461defa087182", "fusion_lat": 0.0, "name": "ad56d43ef59d25340f2461defa087182", "is_reserved": 0, "rental_uris": {"android": "https://dc.lft.to/lastmile_qr_scan", "ios": "https://dc.lft.to/lastmile_qr_scan"}, "fusion_lon": 0.0}, {"lat": 38.873439166666664, "is_disabled": 0, "type": "electric_scooter", "lon": -76.9916555, "bike_id": "b838301eded494a5f9ae863799d000d1", "fusion_lat": 0.0, "name": "b838301eded494a5f9ae863799d000d1", "is_reserved": 0, "rental_uris": {"android": "https://dc.lft.to/lastmile_qr_scan", "ios": "https://dc.lft.to/lastmile_qr_scan"}, "fusion_lon": 0.0}, {"lat": 38.93894866666667, "is_disabled": 0, "type": "electric_scooter", "lon": -77.0282865, "bike_id": "b10b158a6148818261eedbc6b10933d1", "fusion_lat": 0.0, "name": "b10b158a6148818261eedbc6b10933d1", "is_reserved": 0, "rental_uris": {"android": "https://dc.lft.to/lastmile_qr_scan", "ios": "https://dc.lft.to/lastmile_qr_scan"}, "fusion_lon": 0.0}, {"lat": 38.90918033333333, "is_disabled": 0, "type": "electric_scooter", "lon": -77.03650816666666, "bike_id": "cc1879f825864b899dc5956937e4f75c", "fusion_lat": 0.0, "name": "cc1879f825864b899dc5956937e4f75c", "is_reserved": 0, "rental_uris": {"android": "https://dc.lft.to/lastmile_qr_scan", "ios": "https://dc.lft.to/lastmile_qr_scan"}, "fusion_lon": 0.0}, {"lat": 38.9048855, "is_disabled": 0, "type": "electric_scooter", "lon": -77.019988, "bike_id": "e7bf9be4eef57992cfdca157eb36c631", "fusion_lat": 0.0, "name": "e7bf9be4eef57992cfdca157eb36c631", "is_reserved": 0, "rental_uris": {"android": "https://dc.lft.to/lastmile_qr_scan", "ios": "https://dc.lft.to/lastmile_qr_scan"}, "fusion_lon": 0.0}, {"lat": 38.916781666666665, "is_disabled": 0, "type": "electric_scooter", "lon": -77.02959933333334, "bike_id": "b89ddd7f89735523eb8acc366e648f4e", "fusion_lat": 0.0, "name": "b89ddd7f89735523eb8acc366e648f4e", "is_reserved": 0, "rental_uris": {"android": "https://dc.lft.to/lastmile_qr_scan", "ios": "https://dc.lft.to/lastmile_qr_scan"}, "fusion_lon": 0.0}, {"lat": 38.90492016666666, "is_disabled": 0, "type": "electric_scooter", "lon": -76.98714866666667, "bike_id": "8c0708f09e9b239cabe8393259257636", "fusion_lat": 0.0, "name": "8c0708f09e9b239cabe8393259257636", "is_reserved": 0, "rental_uris": {"android": "https://dc.lft.to/lastmile_qr_scan", "ios": "https://dc.lft.to/lastmile_qr_scan"}, "fusion_lon": 0.0}, {"lat": 38.88395466666667, "is_disabled": 0, "type": "electric_scooter", "lon": -77.01894816666666, "bike_id": "ff76584e8e9d245fd0becb6fec60eeb0", "fusion_lat": 0.0, "name": "ff76584e8e9d245fd0becb6fec60eeb0", "is_reserved": 0, "rental_uris": {"android": "https://dc.lft.to/lastmile_qr_scan", "ios": "https://dc.lft.to/lastmile_qr_scan"}, "fusion_lon": 0.0}, {"lat": 38.92234033333333, "is_disabled": 0, "type": "electric_scooter", "lon": -77.0388035, "bike_id": "5cc887740ddbe5f5dda7652abf0bd3e2", "fusion_lat": 0.0, "name": "5cc887740ddbe5f5dda7652abf0bd3e2", "is_reserved": 0, "rental_uris": {"android": "https://dc.lft.to/lastmile_qr_scan", "ios": "https://dc.lft.to/lastmile_qr_scan"}, "fusion_lon": 0.0}, {"lat": 38.903789833333335, "is_disabled": 0, "type": "electric_scooter", "lon": -77.04470083333334, "bike_id": "492545761f7273b7590acd2a04316ccd", "fusion_lat": 0.0, "name": "492545761f7273b7590acd2a04316ccd", "is_reserved": 0, "rental_uris": {"android": "https://dc.lft.to/lastmile_qr_scan", "ios": "https://dc.lft.to/lastmile_qr_scan"}, "fusion_lon": 0.0}, {"lat": 38.90462616666667, "is_disabled": 0, "type": "electric_scooter", "lon": -77.01460566666667, "bike_id": "5498a8aa559803848ec48a38e3360b22", "fusion_lat": 0.0, "name": "5498a8aa559803848ec48a38e3360b22", "is_reserved": 0, "rental_uris": {"android": "https://dc.lft.to/lastmile_qr_scan", "ios": "https://dc.lft.to/lastmile_qr_scan"}, "fusion_lon": 0.0}, {"lat": 38.90977916666667, "is_disabled": 0, "type": "electric_scooter", "lon": -77.03379016666666, "bike_id": "319e8c262f4ddb8c492b3b0fa74d90f3", "fusion_lat": 0.0, "name": "319e8c262f4ddb8c492b3b0fa74d90f3", "is_reserved": 0, "rental_uris": {"android": "https://dc.lft.to/lastmile_qr_scan", "ios": "https://dc.lft.to/lastmile_qr_scan"}, "fusion_lon": 0.0}, {"lat": 38.925006833333335, "is_disabled": 0, "type": "electric_scooter", "lon": -77.00892983333334, "bike_id": "d517cb6fac9e1b5524169a4cd534790b", "fusion_lat": 0.0, "name": "d517cb6fac9e1b5524169a4cd534790b", "is_reserved": 0, "rental_uris": {"android": "https://dc.lft.to/lastmile_qr_scan", "ios": "https://dc.lft.to/lastmile_qr_scan"}, "fusion_lon": 0.0}, {"lat": 38.8937205, "is_disabled": 0, "type": "electric_scooter", "lon": -76.949961, "bike_id": "5970df6b269a40f2c0c235c9f734e020", "fusion_lat": 0.0, "name": "5970df6b269a40f2c0c235c9f734e020", "is_reserved": 0, "rental_uris": {"android": "https://dc.lft.to/lastmile_qr_scan", "ios": "https://dc.lft.to/lastmile_qr_scan"}, "fusion_lon": 0.0}, {"lat": 38.88092, "is_disabled": 0, "type": "electric_scooter", "lon": -76.92719883333334, "bike_id": "e50e65b81d3531e6e9ee33b75fff1b31", "fusion_lat": 0.0, "name": "e50e65b81d3531e6e9ee33b75fff1b31", "is_reserved": 0, "rental_uris": {"android": "https://dc.lft.to/lastmile_qr_scan", "ios": "https://dc.lft.to/lastmile_qr_scan"}, "fusion_lon": 0.0}, {"lat": 38.83935616666667, "is_disabled": 0, "type": "electric_bike", "lon": -77.07914516666666, "bike_id": "19a3947cf5b718dbf1a12e2b59544d5d", "fusion_lat": 0.0, "name": "19a3947cf5b718dbf1a12e2b59544d5d", "is_reserved": 0, "rental_uris": {"android": "https://dc.lft.to/lastmile_qr_scan", "ios": "https://dc.lft.to/lastmile_qr_scan"}, "fusion_lon": 0.0}, {"lat": 38.93200816666667, "is_disabled": 0, "type": "electric_scooter", "lon": -77.03857916666666, "bike_id": "3d6882443493d1c59b33908a7d7f6dbc", "fusion_lat": 0.0, "name": "3d6882443493d1c59b33908a7d7f6dbc", "is_reserved": 0, "rental_uris": {"android": "https://dc.lft.to/lastmile_qr_scan", "ios": "https://dc.lft.to/lastmile_qr_scan"}, "fusion_lon": 0.0}, {"lat": 38.898294166666666, "is_disabled": 0, "type": "electric_scooter", "lon": -77.02530433333334, "bike_id": "8e2a0114da7e964782aa89a9335d3d69", "fusion_lat": 0.0, "name": "8e2a0114da7e964782aa89a9335d3d69", "is_reserved": 0, "rental_uris": {"android": "https://dc.lft.to/lastmile_qr_scan", "ios": "https://dc.lft.to/lastmile_qr_scan"}, "fusion_lon": 0.0}, {"lat": 38.92256316666667, "is_disabled": 0, "type": "electric_scooter", "lon": -77.01932816666667, "bike_id": "cf198aac0c8c74eb2c71b9b48fdd8bdd", "fusion_lat": 0.0, "name": "cf198aac0c8c74eb2c71b9b48fdd8bdd", "is_reserved": 0, "rental_uris": {"android": "https://dc.lft.to/lastmile_qr_scan", "ios": "https://dc.lft.to/lastmile_qr_scan"}, "fusion_lon": 0.0}, {"lat": 38.9065255, "is_disabled": 0, "type": "electric_scooter", "lon": -77.0141605, "bike_id": "f918218419719885ebafa69be3974ce6", "fusion_lat": 0.0, "name": "f918218419719885ebafa69be3974ce6", "is_reserved": 0, "rental_uris": {"android": "https://dc.lft.to/lastmile_qr_scan", "ios": "https://dc.lft.to/lastmile_qr_scan"}, "fusion_lon": 0.0}, {"lat": 38.90221183333333, "is_disabled": 0, "type": "electric_scooter", "lon": -77.03418466666666, "bike_id": "b39c9f8fdebcf4b40caf1ed6c7b96442", "fusion_lat": 0.0, "name": "b39c9f8fdebcf4b40caf1ed6c7b96442", "is_reserved": 0, "rental_uris": {"android": "https://dc.lft.to/lastmile_qr_scan", "ios": "https://dc.lft.to/lastmile_qr_scan"}, "fusion_lon": 0.0}, {"lat": 38.915739, "is_disabled": 0, "type": "electric_scooter", "lon": -77.05027316666667, "bike_id": "ca4b4a947f4fdedeb83b9a10296c521c", "fusion_lat": 0.0, "name": "ca4b4a947f4fdedeb83b9a10296c521c", "is_reserved": 0, "rental_uris": {"android": "https://dc.lft.to/lastmile_qr_scan", "ios": "https://dc.lft.to/lastmile_qr_scan"}, "fusion_lon": 0.0}, {"lat": 38.90331583333333, "is_disabled": 0, "type": "electric_scooter", "lon": -76.97594266666667, "bike_id": "d8e597d3a5735e740b9b2ea9806f5dc3", "fusion_lat": 0.0, "name": "d8e597d3a5735e740b9b2ea9806f5dc3", "is_reserved": 0, "rental_uris": {"android": "https://dc.lft.to/lastmile_qr_scan", "ios": "https://dc.lft.to/lastmile_qr_scan"}, "fusion_lon": 0.0}, {"lat": 38.921049833333335, "is_disabled": 0, "type": "electric_scooter", "lon": -77.04690716666667, "bike_id": "84abe4c80ed744a6de4f121305c46652", "fusion_lat": 0.0, "name": "84abe4c80ed744a6de4f121305c46652", "is_reserved": 0, "rental_uris": {"android": "https://dc.lft.to/lastmile_qr_scan", "ios": "https://dc.lft.to/lastmile_qr_scan"}, "fusion_lon": 0.0}, {"lat": 38.9125795, "is_disabled": 0, "type": "electric_scooter", "lon": -77.03865433333333, "bike_id": "dea91979af6b04843a1a9a3448319ef4", "fusion_lat": 0.0, "name": "dea91979af6b04843a1a9a3448319ef4", "is_reserved": 0, "rental_uris": {"android": "https://dc.lft.to/lastmile_qr_scan", "ios": "https://dc.lft.to/lastmile_qr_scan"}, "fusion_lon": 0.0}, {"lat": 38.9283975, "is_disabled": 0, "type": "electric_scooter", "lon": -77.05422933333334, "bike_id": "959b8db999afbb84fda69c278d22adef", "fusion_lat": 0.0, "name": "959b8db999afbb84fda69c278d22adef", "is_reserved": 0, "rental_uris": {"android": "https://dc.lft.to/lastmile_qr_scan", "ios": "https://dc.lft.to/lastmile_qr_scan"}, "fusion_lon": 0.0}, {"lat": 38.92667183333333, "is_disabled": 0, "type": "electric_scooter", "lon": -77.01473833333333, "bike_id": "ee8fe61a573edccab62281f4a874708a", "fusion_lat": 0.0, "name": "ee8fe61a573edccab62281f4a874708a", "is_reserved": 0, "rental_uris": {"android": "https://dc.lft.to/lastmile_qr_scan", "ios": "https://dc.lft.to/lastmile_qr_scan"}, "fusion_lon": 0.0}, {"lat": 38.905084333333335, "is_disabled": 0, "type": "electric_scooter", "lon": -77.034469, "bike_id": "c99bc459182e1079435004d34e865808", "fusion_lat": 0.0, "name": "c99bc459182e1079435004d34e865808", "is_reserved": 0, "rental_uris": {"android": "https://dc.lft.to/lastmile_qr_scan", "ios": "https://dc.lft.to/lastmile_qr_scan"}, "fusion_lon": 0.0}, {"lat": 38.93232033333334, "is_disabled": 0, "type": "electric_scooter", "lon": -77.0339755, "bike_id": "131e1bf964b3095f6bff0cea7ec5cb9f", "fusion_lat": 0.0, "name": "131e1bf964b3095f6bff0cea7ec5cb9f", "is_reserved": 0, "rental_uris": {"android": "https://dc.lft.to/lastmile_qr_scan", "ios": "https://dc.lft.to/lastmile_qr_scan"}, "fusion_lon": 0.0}, {"lat": 38.87244366666667, "is_disabled": 0, "type": "electric_scooter", "lon": -76.97728933333333, "bike_id": "e0bfd1156a56499565723eab189a814f", "fusion_lat": 0.0, "name": "e0bfd1156a56499565723eab189a814f", "is_reserved": 0, "rental_uris": {"android": "https://dc.lft.to/lastmile_qr_scan", "ios": "https://dc.lft.to/lastmile_qr_scan"}, "fusion_lon": 0.0}, {"lat": 38.886375666666666, "is_disabled": 0, "type": "electric_scooter", "lon": -76.95469283333334, "bike_id": "c3e1094f686a5442a4a236527dd31a22", "fusion_lat": 0.0, "name": "c3e1094f686a5442a4a236527dd31a22", "is_reserved": 0, "rental_uris": {"android": "https://dc.lft.to/lastmile_qr_scan", "ios": "https://dc.lft.to/lastmile_qr_scan"}, "fusion_lon": 0.0}, {"lat": 38.912904833333336, "is_disabled": 0, "type": "electric_scooter", "lon": -77.0451725, "bike_id": "fd669db524a8174cd09c9a27efd62b24", "fusion_lat": 0.0, "name": "fd669db524a8174cd09c9a27efd62b24", "is_reserved": 0, "rental_uris": {"android": "https://dc.lft.to/lastmile_qr_scan", "ios": "https://dc.lft.to/lastmile_qr_scan"}, "fusion_lon": 0.0}, {"lat": 38.94306066666667, "is_disabled": 0, "type": "electric_scooter", "lon": -77.06133316666667, "bike_id": "8d4f610679d5477741fd7233943a6aa4", "fusion_lat": 0.0, "name": "8d4f610679d5477741fd7233943a6aa4", "is_reserved": 0, "rental_uris": {"android": "https://dc.lft.to/lastmile_qr_scan", "ios": "https://dc.lft.to/lastmile_qr_scan"}, "fusion_lon": 0.0}, {"lat": 38.8876455, "is_disabled": 0, "type": "electric_scooter", "lon": -76.996058, "bike_id": "d5a2739703ccf1fa6c92acf77435edfb", "fusion_lat": 0.0, "name": "d5a2739703ccf1fa6c92acf77435edfb", "is_reserved": 0, "rental_uris": {"android": "https://dc.lft.to/lastmile_qr_scan", "ios": "https://dc.lft.to/lastmile_qr_scan"}, "fusion_lon": 0.0}, {"lat": 38.880188833333335, "is_disabled": 0, "type": "electric_scooter", "lon": -77.00572333333334, "bike_id": "02ab02e83e9cecc3d68199745a3f182b", "fusion_lat": 0.0, "name": "02ab02e83e9cecc3d68199745a3f182b", "is_reserved": 0, "rental_uris": {"android": "https://dc.lft.to/lastmile_qr_scan", "ios": "https://dc.lft.to/lastmile_qr_scan"}, "fusion_lon": 0.0}, {"lat": 38.81435233333333, "is_disabled": 0, "type": "electric_bike", "lon": -77.11890616666666, "bike_id": "acb6540e8d11bb0288a5473692e08841", "fusion_lat": 0.0, "name": "acb6540e8d11bb0288a5473692e08841", "is_reserved": 0, "rental_uris": {"android": "https://dc.lft.to/lastmile_qr_scan", "ios": "https://dc.lft.to/lastmile_qr_scan"}, "fusion_lon": 0.0}, {"lat": 38.86620383333333, "is_disabled": 0, "type": "electric_scooter", "lon": -76.98665166666666, "bike_id": "6ec4d46c47ea0838dfb6d42e64981d14", "fusion_lat": 0.0, "name": "6ec4d46c47ea0838dfb6d42e64981d14", "is_reserved": 0, "rental_uris": {"android": "https://dc.lft.to/lastmile_qr_scan", "ios": "https://dc.lft.to/lastmile_qr_scan"}, "fusion_lon": 0.0}, {"lat": 38.9404035, "is_disabled": 0, "type": "electric_scooter", "lon": -77.02909233333334, "bike_id": "815d517e25ba0a4c67546f41e2fd2ebe", "fusion_lat": 0.0, "name": "815d517e25ba0a4c67546f41e2fd2ebe", "is_reserved": 0, "rental_uris": {"android": "https://dc.lft.to/lastmile_qr_scan", "ios": "https://dc.lft.to/lastmile_qr_scan"}, "fusion_lon": 0.0}, {"lat": 38.90631316666666, "is_disabled": 0, "type": "electric_scooter", "lon": -77.013632, "bike_id": "edab18846c96e1955a18f1b6680728c7", "fusion_lat": 0.0, "name": "edab18846c96e1955a18f1b6680728c7", "is_reserved": 0, "rental_uris": {"android": "https://dc.lft.to/lastmile_qr_scan", "ios": "https://dc.lft.to/lastmile_qr_scan"}, "fusion_lon": 0.0}, {"lat": 38.876525666666666, "is_disabled": 0, "type": "electric_scooter", "lon": -77.00418933333333, "bike_id": "c952512ea583d2829a0d3fe6c4e9168d", "fusion_lat": 0.0, "name": "c952512ea583d2829a0d3fe6c4e9168d", "is_reserved": 0, "rental_uris": {"android": "https://dc.lft.to/lastmile_qr_scan", "ios": "https://dc.lft.to/lastmile_qr_scan"}, "fusion_lon": 0.0}, {"lat": 38.89253633333333, "is_disabled": 0, "type": "electric_scooter", "lon": -77.02208283333333, "bike_id": "6f789550d00f3596d8bf6a41779b8b38", "fusion_lat": 0.0, "name": "6f789550d00f3596d8bf6a41779b8b38", "is_reserved": 0, "rental_uris": {"android": "https://dc.lft.to/lastmile_qr_scan", "ios": "https://dc.lft.to/lastmile_qr_scan"}, "fusion_lon": 0.0}, {"lat": 38.8459315, "is_disabled": 0, "type": "electric_bike", "lon": -77.07678066666666, "bike_id": "d0df4c8ff33a333d5b97ee3f87e68615", "fusion_lat": 0.0, "name": "d0df4c8ff33a333d5b97ee3f87e68615", "is_reserved": 0, "rental_uris": {"android": "https://dc.lft.to/lastmile_qr_scan", "ios": "https://dc.lft.to/lastmile_qr_scan"}, "fusion_lon": 0.0}, {"lat": 38.905539, "is_disabled": 0, "type": "electric_scooter", "lon": -77.00591066666667, "bike_id": "306ff665837f88610f6b12c469075bec", "fusion_lat": 0.0, "name": "306ff665837f88610f6b12c469075bec", "is_reserved": 0, "rental_uris": {"android": "https://dc.lft.to/lastmile_qr_scan", "ios": "https://dc.lft.to/lastmile_qr_scan"}, "fusion_lon": 0.0}, {"lat": 38.924655333333334, "is_disabled": 0, "type": "electric_scooter", "lon": -77.05235483333334, "bike_id": "ce325cfb756257240019e070495a5a0c", "fusion_lat": 0.0, "name": "ce325cfb756257240019e070495a5a0c", "is_reserved": 0, "rental_uris": {"android": "https://dc.lft.to/lastmile_qr_scan", "ios": "https://dc.lft.to/lastmile_qr_scan"}, "fusion_lon": 0.0}, {"lat": 38.9042485, "is_disabled": 0, "type": "electric_scooter", "lon": -77.05320783333333, "bike_id": "e323ae27f181d39816d7e0f4ddc0c38a", "fusion_lat": 0.0, "name": "e323ae27f181d39816d7e0f4ddc0c38a", "is_reserved": 0, "rental_uris": {"android": "https://dc.lft.to/lastmile_qr_scan", "ios": "https://dc.lft.to/lastmile_qr_scan"}, "fusion_lon": 0.0}, {"lat": 38.8851755, "is_disabled": 0, "type": "electric_scooter", "lon": -77.00272316666667, "bike_id": "df807da1063510edbb00fbdccef2477e", "fusion_lat": 0.0, "name": "df807da1063510edbb00fbdccef2477e", "is_reserved": 0, "rental_uris": {"android": "https://dc.lft.to/lastmile_qr_scan", "ios": "https://dc.lft.to/lastmile_qr_scan"}, "fusion_lon": 0.0}, {"lat": 38.900394166666665, "is_disabled": 0, "type": "electric_scooter", "lon": -76.98836916666667, "bike_id": "2446a56f9e5d763e3daabf67ebca1063", "fusion_lat": 0.0, "name": "2446a56f9e5d763e3daabf67ebca1063", "is_reserved": 0, "rental_uris": {"android": "https://dc.lft.to/lastmile_qr_scan", "ios": "https://dc.lft.to/lastmile_qr_scan"}, "fusion_lon": 0.0}, {"lat": 38.9071225, "is_disabled": 0, "type": "electric_scooter", "lon": -77.0033035, "bike_id": "4b1f184aa003b253f81489f382e3bf8f", "fusion_lat": 0.0, "name": "4b1f184aa003b253f81489f382e3bf8f", "is_reserved": 0, "rental_uris": {"android": "https://dc.lft.to/lastmile_qr_scan", "ios": "https://dc.lft.to/lastmile_qr_scan"}, "fusion_lon": 0.0}, {"lat": 38.8957185, "is_disabled": 0, "type": "electric_scooter", "lon": -77.03346416666666, "bike_id": "92e3ca5f6b4ea01226250a2c42ea3dca", "fusion_lat": 0.0, "name": "92e3ca5f6b4ea01226250a2c42ea3dca", "is_reserved": 0, "rental_uris": {"android": "https://dc.lft.to/lastmile_qr_scan", "ios": "https://dc.lft.to/lastmile_qr_scan"}, "fusion_lon": 0.0}, {"lat": 38.89954183333333, "is_disabled": 0, "type": "electric_scooter", "lon": -77.05089783333334, "bike_id": "911d8b2d45253748c2a885362acc32fd", "fusion_lat": 0.0, "name": "911d8b2d45253748c2a885362acc32fd", "is_reserved": 0, "rental_uris": {"android": "https://dc.lft.to/lastmile_qr_scan", "ios": "https://dc.lft.to/lastmile_qr_scan"}, "fusion_lon": 0.0}, {"lat": 38.9570255, "is_disabled": 0, "type": "electric_scooter", "lon": -77.07096516666667, "bike_id": "270fcebb031a4f6f9e6330bc4be510b1", "fusion_lat": 0.0, "name": "270fcebb031a4f6f9e6330bc4be510b1", "is_reserved": 0, "rental_uris": {"android": "https://dc.lft.to/lastmile_qr_scan", "ios": "https://dc.lft.to/lastmile_qr_scan"}, "fusion_lon": 0.0}, {"lat": 38.8663055, "is_disabled": 0, "type": "electric_scooter", "lon": -76.98715816666666, "bike_id": "e169eb565dd7f6119f28216fb2795e90", "fusion_lat": 0.0, "name": "e169eb565dd7f6119f28216fb2795e90", "is_reserved": 0, "rental_uris": {"android": "https://dc.lft.to/lastmile_qr_scan", "ios": "https://dc.lft.to/lastmile_qr_scan"}, "fusion_lon": 0.0}, {"lat": 38.90157333333333, "is_disabled": 0, "type": "electric_scooter", "lon": -76.9863145, "bike_id": "73cef141a9959daac7914520a1577215", "fusion_lat": 0.0, "name": "73cef141a9959daac7914520a1577215", "is_reserved": 0, "rental_uris": {"android": "https://dc.lft.to/lastmile_qr_scan", "ios": "https://dc.lft.to/lastmile_qr_scan"}, "fusion_lon": 0.0}, {"lat": 38.8977165, "is_disabled": 0, "type": "electric_bike", "lon": -76.90435566666666, "bike_id": "c469476f71d395663a5581b67c504807", "fusion_lat": 0.0, "name": "c469476f71d395663a5581b67c504807", "is_reserved": 0, "rental_uris": {"android": "https://dc.lft.to/lastmile_qr_scan", "ios": "https://dc.lft.to/lastmile_qr_scan"}, "fusion_lon": 0.0}, {"lat": 38.892374, "is_disabled": 0, "type": "electric_scooter", "lon": -77.0279505, "bike_id": "2f4f06e326e002359e257a859b3769cd", "fusion_lat": 0.0, "name": "2f4f06e326e002359e257a859b3769cd", "is_reserved": 0, "rental_uris": {"android": "https://dc.lft.to/lastmile_qr_scan", "ios": "https://dc.lft.to/lastmile_qr_scan"}, "fusion_lon": 0.0}, {"lat": 38.95637583333333, "is_disabled": 0, "type": "electric_bike", "lon": -76.938835, "bike_id": "94db14ea165e846315d9b6465f76e0bf", "fusion_lat": 0.0, "name": "94db14ea165e846315d9b6465f76e0bf", "is_reserved": 0, "rental_uris": {"android": "https://dc.lft.to/lastmile_qr_scan", "ios": "https://dc.lft.to/lastmile_qr_scan"}, "fusion_lon": 0.0}, {"lat": 38.842757, "is_disabled": 0, "type": "electric_bike", "lon": -76.98846666666667, "bike_id": "9c761cae94f314fc2b5f1276f63b3c82", "fusion_lat": 0.0, "name": "9c761cae94f314fc2b5f1276f63b3c82", "is_reserved": 0, "rental_uris": {"android": "https://dc.lft.to/lastmile_qr_scan", "ios": "https://dc.lft.to/lastmile_qr_scan"}, "fusion_lon": 0.0}, {"lat": 38.91680983333333, "is_disabled": 0, "type": "electric_scooter", "lon": -77.02288616666667, "bike_id": "e5bcb9aa5cda4529832b451f729e9c1b", "fusion_lat": 0.0, "name": "e5bcb9aa5cda4529832b451f729e9c1b", "is_reserved": 0, "rental_uris": {"android": "https://dc.lft.to/lastmile_qr_scan", "ios": "https://dc.lft.to/lastmile_qr_scan"}, "fusion_lon": 0.0}, {"lat": 38.90873783333333, "is_disabled": 0, "type": "electric_scooter", "lon": -77.04327183333334, "bike_id": "9298f7faa305a56b3d6c66c406078cf0", "fusion_lat": 0.0, "name": "9298f7faa305a56b3d6c66c406078cf0", "is_reserved": 0, "rental_uris": {"android": "https://dc.lft.to/lastmile_qr_scan", "ios": "https://dc.lft.to/lastmile_qr_scan"}, "fusion_lon": 0.0}, {"lat": 38.944981, "is_disabled": 0, "type": "electric_scooter", "lon": -77.015443, "bike_id": "616494fd94bed095ca12a657a24b6edd", "fusion_lat": 0.0, "name": "616494fd94bed095ca12a657a24b6edd", "is_reserved": 0, "rental_uris": {"android": "https://dc.lft.to/lastmile_qr_scan", "ios": "https://dc.lft.to/lastmile_qr_scan"}, "fusion_lon": 0.0}, {"lat": 38.917183, "is_disabled": 0, "type": "electric_scooter", "lon": -77.0385995, "bike_id": "e1c75da1ff3f7ddf60797f1c5a83fb86", "fusion_lat": 0.0, "name": "e1c75da1ff3f7ddf60797f1c5a83fb86", "is_reserved": 0, "rental_uris": {"android": "https://dc.lft.to/lastmile_qr_scan", "ios": "https://dc.lft.to/lastmile_qr_scan"}, "fusion_lon": 0.0}, {"lat": 38.91348516666667, "is_disabled": 0, "type": "electric_scooter", "lon": -77.0318685, "bike_id": "d1283e2d77229025caf1ce7af371aebb", "fusion_lat": 0.0, "name": "d1283e2d77229025caf1ce7af371aebb", "is_reserved": 0, "rental_uris": {"android": "https://dc.lft.to/lastmile_qr_scan", "ios": "https://dc.lft.to/lastmile_qr_scan"}, "fusion_lon": 0.0}, {"lat": 38.9248365, "is_disabled": 0, "type": "electric_scooter", "lon": -77.05208366666666, "bike_id": "13793076a1db8c26a7b75589850e8444", "fusion_lat": 0.0, "name": "13793076a1db8c26a7b75589850e8444", "is_reserved": 0, "rental_uris": {"android": "https://dc.lft.to/lastmile_qr_scan", "ios": "https://dc.lft.to/lastmile_qr_scan"}, "fusion_lon": 0.0}, {"lat": 38.921864666666664, "is_disabled": 0, "type": "electric_scooter", "lon": -77.029807, "bike_id": "c6bc125a323a665b00fda2eb06f8b47c", "fusion_lat": 0.0, "name": "c6bc125a323a665b00fda2eb06f8b47c", "is_reserved": 0, "rental_uris": {"android": "https://dc.lft.to/lastmile_qr_scan", "ios": "https://dc.lft.to/lastmile_qr_scan"}, "fusion_lon": 0.0}, {"lat": 38.93064316666667, "is_disabled": 0, "type": "electric_scooter", "lon": -77.02819783333334, "bike_id": "93cf215da30ae5224f4c0b7f53475f69", "fusion_lat": 0.0, "name": "93cf215da30ae5224f4c0b7f53475f69", "is_reserved": 0, "rental_uris": {"android": "https://dc.lft.to/lastmile_qr_scan", "ios": "https://dc.lft.to/lastmile_qr_scan"}, "fusion_lon": 0.0}, {"lat": 38.92147716666667, "is_disabled": 0, "type": "electric_scooter", "lon": -77.01829983333333, "bike_id": "927289dc40d47c2a2a2c8b890c4abad5", "fusion_lat": 0.0, "name": "927289dc40d47c2a2a2c8b890c4abad5", "is_reserved": 0, "rental_uris": {"android": "https://dc.lft.to/lastmile_qr_scan", "ios": "https://dc.lft.to/lastmile_qr_scan"}, "fusion_lon": 0.0}, {"lat": 38.90905516666667, "is_disabled": 0, "type": "electric_scooter", "lon": -77.02707633333333, "bike_id": "e958f261c6aae9a6f0529776526f54f9", "fusion_lat": 0.0, "name": "e958f261c6aae9a6f0529776526f54f9", "is_reserved": 0, "rental_uris": {"android": "https://dc.lft.to/lastmile_qr_scan", "ios": "https://dc.lft.to/lastmile_qr_scan"}, "fusion_lon": 0.0}, {"lat": 38.900665833333335, "is_disabled": 0, "type": "electric_scooter", "lon": -77.05015383333334, "bike_id": "1db552334bf8fd26cea4bf91d549a5ca", "fusion_lat": 0.0, "name": "1db552334bf8fd26cea4bf91d549a5ca", "is_reserved": 0, "rental_uris": {"android": "https://dc.lft.to/lastmile_qr_scan", "ios": "https://dc.lft.to/lastmile_qr_scan"}, "fusion_lon": 0.0}, {"lat": 38.8986525, "is_disabled": 0, "type": "electric_scooter", "lon": -77.0188095, "bike_id": "f6307064cef6947363f107ebfa1ff903", "fusion_lat": 0.0, "name": "f6307064cef6947363f107ebfa1ff903", "is_reserved": 0, "rental_uris": {"android": "https://dc.lft.to/lastmile_qr_scan", "ios": "https://dc.lft.to/lastmile_qr_scan"}, "fusion_lon": 0.0}, {"lat": 38.897478166666666, "is_disabled": 0, "type": "electric_scooter", "lon": -77.00868483333333, "bike_id": "27a92b6b3c0578d83169d3bd860c063f", "fusion_lat": 0.0, "name": "27a92b6b3c0578d83169d3bd860c063f", "is_reserved": 0, "rental_uris": {"android": "https://dc.lft.to/lastmile_qr_scan", "ios": "https://dc.lft.to/lastmile_qr_scan"}, "fusion_lon": 0.0}, {"lat": 38.89968316666667, "is_disabled": 0, "type": "electric_scooter", "lon": -77.05702983333333, "bike_id": "56100a96c32554feff72e7766266625b", "fusion_lat": 0.0, "name": "56100a96c32554feff72e7766266625b", "is_reserved": 0, "rental_uris": {"android": "https://dc.lft.to/lastmile_qr_scan", "ios": "https://dc.lft.to/lastmile_qr_scan"}, "fusion_lon": 0.0}, {"lat": 38.914170166666665, "is_disabled": 0, "type": "electric_scooter", "lon": -77.03176066666667, "bike_id": "71a4f6ed2e693307b33d9b4b187496f9", "fusion_lat": 0.0, "name": "71a4f6ed2e693307b33d9b4b187496f9", "is_reserved": 0, "rental_uris": {"android": "https://dc.lft.to/lastmile_qr_scan", "ios": "https://dc.lft.to/lastmile_qr_scan"}, "fusion_lon": 0.0}, {"lat": 38.939918166666665, "is_disabled": 0, "type": "electric_scooter", "lon": -77.07174833333333, "bike_id": "8c4d91cdb1a98281c90c9eca489c8e7a", "fusion_lat": 0.0, "name": "8c4d91cdb1a98281c90c9eca489c8e7a", "is_reserved": 0, "rental_uris": {"android": "https://dc.lft.to/lastmile_qr_scan", "ios": "https://dc.lft.to/lastmile_qr_scan"}, "fusion_lon": 0.0}, {"lat": 38.9224045, "is_disabled": 0, "type": "electric_scooter", "lon": -77.04572483333334, "bike_id": "a02ac79d53e6df8b4893a6590f1eb4d9", "fusion_lat": 0.0, "name": "a02ac79d53e6df8b4893a6590f1eb4d9", "is_reserved": 0, "rental_uris": {"android": "https://dc.lft.to/lastmile_qr_scan", "ios": "https://dc.lft.to/lastmile_qr_scan"}, "fusion_lon": 0.0}, {"lat": 38.89751316666667, "is_disabled": 0, "type": "electric_scooter", "lon": -77.0296875, "bike_id": "517f4099408b35f87aeb204833a806cd", "fusion_lat": 0.0, "name": "517f4099408b35f87aeb204833a806cd", "is_reserved": 0, "rental_uris": {"android": "https://dc.lft.to/lastmile_qr_scan", "ios": "https://dc.lft.to/lastmile_qr_scan"}, "fusion_lon": 0.0}, {"lat": 38.91872816666667, "is_disabled": 0, "type": "electric_scooter", "lon": -77.04085, "bike_id": "84a1927889b9fd5594324037b29d1717", "fusion_lat": 0.0, "name": "84a1927889b9fd5594324037b29d1717", "is_reserved": 0, "rental_uris": {"android": "https://dc.lft.to/lastmile_qr_scan", "ios": "https://dc.lft.to/lastmile_qr_scan"}, "fusion_lon": 0.0}, {"lat": 38.89881483333333, "is_disabled": 0, "type": "electric_scooter", "lon": -76.931788, "bike_id": "e93b4e13a69dcff1ae4678f90da4936f", "fusion_lat": 0.0, "name": "e93b4e13a69dcff1ae4678f90da4936f", "is_reserved": 0, "rental_uris": {"android": "https://dc.lft.to/lastmile_qr_scan", "ios": "https://dc.lft.to/lastmile_qr_scan"}, "fusion_lon": 0.0}, {"lat": 38.850559833333335, "is_disabled": 0, "type": "electric_bike", "lon": -76.97315866666666, "bike_id": "9e1e86a9dfedbb4bcf06a24f14de6781", "fusion_lat": 0.0, "name": "9e1e86a9dfedbb4bcf06a24f14de6781", "is_reserved": 0, "rental_uris": {"android": "https://dc.lft.to/lastmile_qr_scan", "ios": "https://dc.lft.to/lastmile_qr_scan"}, "fusion_lon": 0.0}, {"lat": 38.905106333333336, "is_disabled": 0, "type": "electric_scooter", "lon": -77.06203833333333, "bike_id": "13398f9472cb5a01e45cb184c8c0d700", "fusion_lat": 0.0, "name": "13398f9472cb5a01e45cb184c8c0d700", "is_reserved": 0, "rental_uris": {"android": "https://dc.lft.to/lastmile_qr_scan", "ios": "https://dc.lft.to/lastmile_qr_scan"}, "fusion_lon": 0.0}, {"lat": 38.91218966666667, "is_disabled": 0, "type": "electric_scooter", "lon": -77.032053, "bike_id": "1783a9c148569188cf5348d328df240c", "fusion_lat": 0.0, "name": "1783a9c148569188cf5348d328df240c", "is_reserved": 0, "rental_uris": {"android": "https://dc.lft.to/lastmile_qr_scan", "ios": "https://dc.lft.to/lastmile_qr_scan"}, "fusion_lon": 0.0}, {"lat": 38.89742483333333, "is_disabled": 0, "type": "electric_scooter", "lon": -77.0476315, "bike_id": "42f5540c6eee3d31f79754a56b0baa2b", "fusion_lat": 0.0, "name": "42f5540c6eee3d31f79754a56b0baa2b", "is_reserved": 0, "rental_uris": {"android": "https://dc.lft.to/lastmile_qr_scan", "ios": "https://dc.lft.to/lastmile_qr_scan"}, "fusion_lon": 0.0}, {"lat": 38.8924925, "is_disabled": 0, "type": "electric_scooter", "lon": -77.0465575, "bike_id": "0234d6780414c3905fab4eae2fe691d8", "fusion_lat": 0.0, "name": "0234d6780414c3905fab4eae2fe691d8", "is_reserved": 0, "rental_uris": {"android": "https://dc.lft.to/lastmile_qr_scan", "ios": "https://dc.lft.to/lastmile_qr_scan"}, "fusion_lon": 0.0}, {"lat": 38.9006515, "is_disabled": 0, "type": "electric_scooter", "lon": -77.0505085, "bike_id": "9f8f07bdd38c8b14bdfe5f88e0a8a813", "fusion_lat": 0.0, "name": "9f8f07bdd38c8b14bdfe5f88e0a8a813", "is_reserved": 0, "rental_uris": {"android": "https://dc.lft.to/lastmile_qr_scan", "ios": "https://dc.lft.to/lastmile_qr_scan"}, "fusion_lon": 0.0}, {"lat": 38.854287166666666, "is_disabled": 0, "type": "electric_bike", "lon": -76.909756, "bike_id": "810b053f8f05be8ba20cdb0b8c52f5b3", "fusion_lat": 0.0, "name": "810b053f8f05be8ba20cdb0b8c52f5b3", "is_reserved": 0, "rental_uris": {"android": "https://dc.lft.to/lastmile_qr_scan", "ios": "https://dc.lft.to/lastmile_qr_scan"}, "fusion_lon": 0.0}, {"lat": 38.81052183333333, "is_disabled": 0, "type": "electric_bike", "lon": -77.08508316666666, "bike_id": "1f4b662648189178f1c05bee4a13b170", "fusion_lat": 0.0, "name": "1f4b662648189178f1c05bee4a13b170", "is_reserved": 0, "rental_uris": {"android": "https://dc.lft.to/lastmile_qr_scan", "ios": "https://dc.lft.to/lastmile_qr_scan"}, "fusion_lon": 0.0}, {"lat": 38.92381266666666, "is_disabled": 0, "type": "electric_scooter", "lon": -77.027612, "bike_id": "1fa14777e5ac552e62ac6feb95645aa0", "fusion_lat": 0.0, "name": "1fa14777e5ac552e62ac6feb95645aa0", "is_reserved": 0, "rental_uris": {"android": "https://dc.lft.to/lastmile_qr_scan", "ios": "https://dc.lft.to/lastmile_qr_scan"}, "fusion_lon": 0.0}, {"lat": 38.844261333333336, "is_disabled": 0, "type": "electric_scooter", "lon": -76.99781883333333, "bike_id": "53090fa0cb11d61b5c995f7672c76563", "fusion_lat": 0.0, "name": "53090fa0cb11d61b5c995f7672c76563", "is_reserved": 0, "rental_uris": {"android": "https://dc.lft.to/lastmile_qr_scan", "ios": "https://dc.lft.to/lastmile_qr_scan"}, "fusion_lon": 0.0}, {"lat": 38.9049055, "is_disabled": 0, "type": "electric_scooter", "lon": -76.99544516666667, "bike_id": "a554c1ad914f58450e05bb9463d737d3", "fusion_lat": 0.0, "name": "a554c1ad914f58450e05bb9463d737d3", "is_reserved": 0, "rental_uris": {"android": "https://dc.lft.to/lastmile_qr_scan", "ios": "https://dc.lft.to/lastmile_qr_scan"}, "fusion_lon": 0.0}, {"lat": 38.91976016666667, "is_disabled": 0, "type": "electric_scooter", "lon": -77.02384466666666, "bike_id": "2393aafc1e0afe098974f476070490a2", "fusion_lat": 0.0, "name": "2393aafc1e0afe098974f476070490a2", "is_reserved": 0, "rental_uris": {"android": "https://dc.lft.to/lastmile_qr_scan", "ios": "https://dc.lft.to/lastmile_qr_scan"}, "fusion_lon": 0.0}, {"lat": 38.94598933333333, "is_disabled": 0, "type": "electric_scooter", "lon": -77.0703585, "bike_id": "6c2c64c46fb1a868c45e7aed1e5e9bf2", "fusion_lat": 0.0, "name": "6c2c64c46fb1a868c45e7aed1e5e9bf2", "is_reserved": 0, "rental_uris": {"android": "https://dc.lft.to/lastmile_qr_scan", "ios": "https://dc.lft.to/lastmile_qr_scan"}, "fusion_lon": 0.0}, {"lat": 38.907725166666665, "is_disabled": 0, "type": "electric_scooter", "lon": -77.0386305, "bike_id": "985adb040f4af9748f9648d9a3c9668a", "fusion_lat": 0.0, "name": "985adb040f4af9748f9648d9a3c9668a", "is_reserved": 0, "rental_uris": {"android": "https://dc.lft.to/lastmile_qr_scan", "ios": "https://dc.lft.to/lastmile_qr_scan"}, "fusion_lon": 0.0}, {"lat": 38.920994666666665, "is_disabled": 0, "type": "electric_scooter", "lon": -77.04198533333333, "bike_id": "bec6fae0621f82a6af1d53f4262909fa", "fusion_lat": 0.0, "name": "bec6fae0621f82a6af1d53f4262909fa", "is_reserved": 0, "rental_uris": {"android": "https://dc.lft.to/lastmile_qr_scan", "ios": "https://dc.lft.to/lastmile_qr_scan"}, "fusion_lon": 0.0}, {"lat": 38.90181616666667, "is_disabled": 0, "type": "electric_scooter", "lon": -77.04998733333333, "bike_id": "a2ce01dc9eee929892142d000570ddec", "fusion_lat": 0.0, "name": "a2ce01dc9eee929892142d000570ddec", "is_reserved": 0, "rental_uris": {"android": "https://dc.lft.to/lastmile_qr_scan", "ios": "https://dc.lft.to/lastmile_qr_scan"}, "fusion_lon": 0.0}, {"lat": 38.8936665, "is_disabled": 0, "type": "electric_scooter", "lon": -76.9910665, "bike_id": "1693da15889fa78eaf833d49ffec8bb1", "fusion_lat": 0.0, "name": "1693da15889fa78eaf833d49ffec8bb1", "is_reserved": 0, "rental_uris": {"android": "https://dc.lft.to/lastmile_qr_scan", "ios": "https://dc.lft.to/lastmile_qr_scan"}, "fusion_lon": 0.0}, {"lat": 38.92610466666667, "is_disabled": 0, "type": "electric_scooter", "lon": -77.057021, "bike_id": "193c2689892973424fd952e68dba0edd", "fusion_lat": 0.0, "name": "193c2689892973424fd952e68dba0edd", "is_reserved": 0, "rental_uris": {"android": "https://dc.lft.to/lastmile_qr_scan", "ios": "https://dc.lft.to/lastmile_qr_scan"}, "fusion_lon": 0.0}, {"lat": 38.918738166666664, "is_disabled": 0, "type": "electric_scooter", "lon": -77.03502916666666, "bike_id": "d550fb3035977aa294e67d709e987a88", "fusion_lat": 0.0, "name": "d550fb3035977aa294e67d709e987a88", "is_reserved": 0, "rental_uris": {"android": "https://dc.lft.to/lastmile_qr_scan", "ios": "https://dc.lft.to/lastmile_qr_scan"}, "fusion_lon": 0.0}, {"lat": 38.915592833333335, "is_disabled": 0, "type": "electric_scooter", "lon": -77.0098155, "bike_id": "a94c4105f1bcfb338a15a693399f4500", "fusion_lat": 0.0, "name": "a94c4105f1bcfb338a15a693399f4500", "is_reserved": 0, "rental_uris": {"android": "https://dc.lft.to/lastmile_qr_scan", "ios": "https://dc.lft.to/lastmile_qr_scan"}, "fusion_lon": 0.0}, {"lat": 38.908417166666666, "is_disabled": 0, "type": "electric_scooter", "lon": -77.06352183333334, "bike_id": "6b4c2f4563d52ffd91a608877a0dba1b", "fusion_lat": 0.0, "name": "6b4c2f4563d52ffd91a608877a0dba1b", "is_reserved": 0, "rental_uris": {"android": "https://dc.lft.to/lastmile_qr_scan", "ios": "https://dc.lft.to/lastmile_qr_scan"}, "fusion_lon": 0.0}, {"lat": 38.9141605, "is_disabled": 0, "type": "electric_scooter", "lon": -77.02233383333333, "bike_id": "1aa54cc800867cdf60a42ba8aaf48471", "fusion_lat": 0.0, "name": "1aa54cc800867cdf60a42ba8aaf48471", "is_reserved": 0, "rental_uris": {"android": "https://dc.lft.to/lastmile_qr_scan", "ios": "https://dc.lft.to/lastmile_qr_scan"}, "fusion_lon": 0.0}, {"lat": 38.897160166666666, "is_disabled": 0, "type": "electric_scooter", "lon": -77.03174433333334, "bike_id": "f0c2e58ca8f94363df228ee6eaf7ce59", "fusion_lat": 0.0, "name": "f0c2e58ca8f94363df228ee6eaf7ce59", "is_reserved": 0, "rental_uris": {"android": "https://dc.lft.to/lastmile_qr_scan", "ios": "https://dc.lft.to/lastmile_qr_scan"}, "fusion_lon": 0.0}, {"lat": 38.858522, "is_disabled": 0, "type": "electric_bike", "lon": -77.09759316666667, "bike_id": "102c104eb735533fb7e11cbfc7ac6584", "fusion_lat": 0.0, "name": "102c104eb735533fb7e11cbfc7ac6584", "is_reserved": 0, "rental_uris": {"android": "https://dc.lft.to/lastmile_qr_scan", "ios": "https://dc.lft.to/lastmile_qr_scan"}, "fusion_lon": 0.0}, {"lat": 38.95887483333333, "is_disabled": 0, "type": "electric_bike", "lon": -76.92474216666666, "bike_id": "a3c4ffd9f6c77df97ba03091a68886e4", "fusion_lat": 0.0, "name": "a3c4ffd9f6c77df97ba03091a68886e4", "is_reserved": 0, "rental_uris": {"android": "https://dc.lft.to/lastmile_qr_scan", "ios": "https://dc.lft.to/lastmile_qr_scan"}, "fusion_lon": 0.0}, {"lat": 38.892757833333334, "is_disabled": 0, "type": "electric_scooter", "lon": -77.05032583333333, "bike_id": "757df903faf576424d66554c056b2f10", "fusion_lat": 0.0, "name": "757df903faf576424d66554c056b2f10", "is_reserved": 0, "rental_uris": {"android": "https://dc.lft.to/lastmile_qr_scan", "ios": "https://dc.lft.to/lastmile_qr_scan"}, "fusion_lon": 0.0}, {"lat": 38.89043866666667, "is_disabled": 0, "type": "electric_scooter", "lon": -76.9407895, "bike_id": "18399f92b7275432a903b716bd35ffd1", "fusion_lat": 0.0, "name": "18399f92b7275432a903b716bd35ffd1", "is_reserved": 0, "rental_uris": {"android": "https://dc.lft.to/lastmile_qr_scan", "ios": "https://dc.lft.to/lastmile_qr_scan"}, "fusion_lon": 0.0}, {"lat": 38.914172, "is_disabled": 0, "type": "electric_scooter", "lon": -77.0317475, "bike_id": "3c981ea5e42415eb82e8bc2163fc6608", "fusion_lat": 0.0, "name": "3c981ea5e42415eb82e8bc2163fc6608", "is_reserved": 0, "rental_uris": {"android": "https://dc.lft.to/lastmile_qr_scan", "ios": "https://dc.lft.to/lastmile_qr_scan"}, "fusion_lon": 0.0}, {"lat": 38.929119666666665, "is_disabled": 0, "type": "electric_scooter", "lon": -77.03181533333333, "bike_id": "3a15d450b25556f672f3ea33b47e5e25", "fusion_lat": 0.0, "name": "3a15d450b25556f672f3ea33b47e5e25", "is_reserved": 0, "rental_uris": {"android": "https://dc.lft.to/lastmile_qr_scan", "ios": "https://dc.lft.to/lastmile_qr_scan"}, "fusion_lon": 0.0}, {"lat": 38.93091533333333, "is_disabled": 0, "type": "electric_scooter", "lon": -77.037514, "bike_id": "edbc431ef106ce208d20a8b558562ee2", "fusion_lat": 0.0, "name": "edbc431ef106ce208d20a8b558562ee2", "is_reserved": 0, "rental_uris": {"android": "https://dc.lft.to/lastmile_qr_scan", "ios": "https://dc.lft.to/lastmile_qr_scan"}, "fusion_lon": 0.0}, {"lat": 38.935350666666665, "is_disabled": 0, "type": "electric_scooter", "lon": -77.03402433333333, "bike_id": "f15c74fafa6ecc555001c965ed571ce4", "fusion_lat": 0.0, "name": "f15c74fafa6ecc555001c965ed571ce4", "is_reserved": 0, "rental_uris": {"android": "https://dc.lft.to/lastmile_qr_scan", "ios": "https://dc.lft.to/lastmile_qr_scan"}, "fusion_lon": 0.0}, {"lat": 38.89619716666667, "is_disabled": 0, "type": "electric_scooter", "lon": -76.99300483333333, "bike_id": "c30be5e421366f849adb5a7c0934f2c4", "fusion_lat": 0.0, "name": "c30be5e421366f849adb5a7c0934f2c4", "is_reserved": 0, "rental_uris": {"android": "https://dc.lft.to/lastmile_qr_scan", "ios": "https://dc.lft.to/lastmile_qr_scan"}, "fusion_lon": 0.0}, {"lat": 38.891895833333336, "is_disabled": 0, "type": "electric_scooter", "lon": -76.99623466666667, "bike_id": "51075b38719e271dff97b5a13ab88434", "fusion_lat": 0.0, "name": "51075b38719e271dff97b5a13ab88434", "is_reserved": 0, "rental_uris": {"android": "https://dc.lft.to/lastmile_qr_scan", "ios": "https://dc.lft.to/lastmile_qr_scan"}, "fusion_lon": 0.0}, {"lat": 38.8764715, "is_disabled": 0, "type": "electric_bike", "lon": -77.11777216666667, "bike_id": "05e44b3854c74425d10faed824431da5", "fusion_lat": 0.0, "name": "05e44b3854c74425d10faed824431da5", "is_reserved": 0, "rental_uris": {"android": "https://dc.lft.to/lastmile_qr_scan", "ios": "https://dc.lft.to/lastmile_qr_scan"}, "fusion_lon": 0.0}, {"lat": 38.93092433333333, "is_disabled": 0, "type": "electric_scooter", "lon": -77.07747483333333, "bike_id": "dbe00d3f0ea115243b10d893fb6029b9", "fusion_lat": 0.0, "name": "dbe00d3f0ea115243b10d893fb6029b9", "is_reserved": 0, "rental_uris": {"android": "https://dc.lft.to/lastmile_qr_scan", "ios": "https://dc.lft.to/lastmile_qr_scan"}, "fusion_lon": 0.0}, {"lat": 38.907221666666665, "is_disabled": 0, "type": "electric_scooter", "lon": -76.9892725, "bike_id": "ab42f9a60323e29714a99e46f9fdfda2", "fusion_lat": 0.0, "name": "ab42f9a60323e29714a99e46f9fdfda2", "is_reserved": 0, "rental_uris": {"android": "https://dc.lft.to/lastmile_qr_scan", "ios": "https://dc.lft.to/lastmile_qr_scan"}, "fusion_lon": 0.0}, {"lat": 39.07007316666667, "is_disabled": 0, "type": "electric_bike", "lon": -77.1245515, "bike_id": "13a3f29bd9e89afb73ce48bebc1bc5cd", "fusion_lat": 0.0, "name": "13a3f29bd9e89afb73ce48bebc1bc5cd", "is_reserved": 0, "rental_uris": {"android": "https://dc.lft.to/lastmile_qr_scan", "ios": "https://dc.lft.to/lastmile_qr_scan"}, "fusion_lon": 0.0}, {"lat": 38.898135, "is_disabled": 0, "type": "electric_scooter", "lon": -77.0299845, "bike_id": "0f37222a12aabd9f1fde5f358fe15437", "fusion_lat": 0.0, "name": "0f37222a12aabd9f1fde5f358fe15437", "is_reserved": 0, "rental_uris": {"android": "https://dc.lft.to/lastmile_qr_scan", "ios": "https://dc.lft.to/lastmile_qr_scan"}, "fusion_lon": 0.0}, {"lat": 38.902727166666665, "is_disabled": 0, "type": "electric_scooter", "lon": -77.029114, "bike_id": "29f4b411ca87aa1c59ef15df6d28054b", "fusion_lat": 0.0, "name": "29f4b411ca87aa1c59ef15df6d28054b", "is_reserved": 0, "rental_uris": {"android": "https://dc.lft.to/lastmile_qr_scan", "ios": "https://dc.lft.to/lastmile_qr_scan"}, "fusion_lon": 0.0}, {"lat": 38.84033316666667, "is_disabled": 0, "type": "electric_bike", "lon": -76.9758975, "bike_id": "7cd875dc0c54b65f9f4bb0c60a526486", "fusion_lat": 0.0, "name": "7cd875dc0c54b65f9f4bb0c60a526486", "is_reserved": 0, "rental_uris": {"android": "https://dc.lft.to/lastmile_qr_scan", "ios": "https://dc.lft.to/lastmile_qr_scan"}, "fusion_lon": 0.0}, {"lat": 38.861144, "is_disabled": 0, "type": "electric_scooter", "lon": -76.98382466666666, "bike_id": "cd32538ce34eff91c7b3c3c6eda10bb3", "fusion_lat": 0.0, "name": "cd32538ce34eff91c7b3c3c6eda10bb3", "is_reserved": 0, "rental_uris": {"android": "https://dc.lft.to/lastmile_qr_scan", "ios": "https://dc.lft.to/lastmile_qr_scan"}, "fusion_lon": 0.0}, {"lat": 38.929974666666666, "is_disabled": 0, "type": "electric_scooter", "lon": -77.03238983333334, "bike_id": "6e670cbed7ad41aacbff27e797f4baca", "fusion_lat": 0.0, "name": "6e670cbed7ad41aacbff27e797f4baca", "is_reserved": 0, "rental_uris": {"android": "https://dc.lft.to/lastmile_qr_scan", "ios": "https://dc.lft.to/lastmile_qr_scan"}, "fusion_lon": 0.0}, {"lat": 38.907814, "is_disabled": 0, "type": "electric_scooter", "lon": -77.003491, "bike_id": "c00349e600575b4a8f80a9f8405f8d77", "fusion_lat": 0.0, "name": "c00349e600575b4a8f80a9f8405f8d77", "is_reserved": 0, "rental_uris": {"android": "https://dc.lft.to/lastmile_qr_scan", "ios": "https://dc.lft.to/lastmile_qr_scan"}, "fusion_lon": 0.0}, {"lat": 38.908991666666665, "is_disabled": 0, "type": "electric_scooter", "lon": -77.046601, "bike_id": "d7d2b5cf4439de9d7e8b295ac87c9849", "fusion_lat": 0.0, "name": "d7d2b5cf4439de9d7e8b295ac87c9849", "is_reserved": 0, "rental_uris": {"android": "https://dc.lft.to/lastmile_qr_scan", "ios": "https://dc.lft.to/lastmile_qr_scan"}, "fusion_lon": 0.0}, {"lat": 38.921888333333335, "is_disabled": 0, "type": "electric_scooter", "lon": -76.99623183333334, "bike_id": "993bde375ceffc3b546ea598857884b1", "fusion_lat": 0.0, "name": "993bde375ceffc3b546ea598857884b1", "is_reserved": 0, "rental_uris": {"android": "https://dc.lft.to/lastmile_qr_scan", "ios": "https://dc.lft.to/lastmile_qr_scan"}, "fusion_lon": 0.0}, {"lat": 38.92528766666667, "is_disabled": 0, "type": "electric_scooter", "lon": -77.007574, "bike_id": "c386568c417600dc79bcd09ecf516a6e", "fusion_lat": 0.0, "name": "c386568c417600dc79bcd09ecf516a6e", "is_reserved": 0, "rental_uris": {"android": "https://dc.lft.to/lastmile_qr_scan", "ios": "https://dc.lft.to/lastmile_qr_scan"}, "fusion_lon": 0.0}, {"lat": 38.90240416666666, "is_disabled": 0, "type": "electric_scooter", "lon": -77.01743633333334, "bike_id": "0c58f264ac7a2598add2fb76e68d548c", "fusion_lat": 0.0, "name": "0c58f264ac7a2598add2fb76e68d548c", "is_reserved": 0, "rental_uris": {"android": "https://dc.lft.to/lastmile_qr_scan", "ios": "https://dc.lft.to/lastmile_qr_scan"}, "fusion_lon": 0.0}, {"lat": 38.920896666666664, "is_disabled": 0, "type": "electric_scooter", "lon": -77.02198333333334, "bike_id": "d4433669cc45e17af6f4629a41366569", "fusion_lat": 0.0, "name": "d4433669cc45e17af6f4629a41366569", "is_reserved": 0, "rental_uris": {"android": "https://dc.lft.to/lastmile_qr_scan", "ios": "https://dc.lft.to/lastmile_qr_scan"}, "fusion_lon": 0.0}, {"lat": 38.8765985, "is_disabled": 0, "type": "electric_scooter", "lon": -77.00422516666667, "bike_id": "0f6dfb74fb930156a98e2f91e59eb9e0", "fusion_lat": 0.0, "name": "0f6dfb74fb930156a98e2f91e59eb9e0", "is_reserved": 0, "rental_uris": {"android": "https://dc.lft.to/lastmile_qr_scan", "ios": "https://dc.lft.to/lastmile_qr_scan"}, "fusion_lon": 0.0}, {"lat": 38.90164216666667, "is_disabled": 0, "type": "electric_scooter", "lon": -76.980406, "bike_id": "33dc70c9659d82890973ba036c58916a", "fusion_lat": 0.0, "name": "33dc70c9659d82890973ba036c58916a", "is_reserved": 0, "rental_uris": {"android": "https://dc.lft.to/lastmile_qr_scan", "ios": "https://dc.lft.to/lastmile_qr_scan"}, "fusion_lon": 0.0}, {"lat": 38.916687833333334, "is_disabled": 0, "type": "electric_scooter", "lon": -77.00663266666666, "bike_id": "af792aeb9a48e3383288e4dac42e87ea", "fusion_lat": 0.0, "name": "af792aeb9a48e3383288e4dac42e87ea", "is_reserved": 0, "rental_uris": {"android": "https://dc.lft.to/lastmile_qr_scan", "ios": "https://dc.lft.to/lastmile_qr_scan"}, "fusion_lon": 0.0}, {"lat": 38.84292833333333, "is_disabled": 0, "type": "electric_scooter", "lon": -76.99948266666667, "bike_id": "027ece8221e73e406cc04857b96dc3ac", "fusion_lat": 0.0, "name": "027ece8221e73e406cc04857b96dc3ac", "is_reserved": 0, "rental_uris": {"android": "https://dc.lft.to/lastmile_qr_scan", "ios": "https://dc.lft.to/lastmile_qr_scan"}, "fusion_lon": 0.0}, {"lat": 38.91980233333334, "is_disabled": 0, "type": "electric_scooter", "lon": -77.03967033333333, "bike_id": "0f608dda059b2b6d5ed7889bf7fb0eac", "fusion_lat": 0.0, "name": "0f608dda059b2b6d5ed7889bf7fb0eac", "is_reserved": 0, "rental_uris": {"android": "https://dc.lft.to/lastmile_qr_scan", "ios": "https://dc.lft.to/lastmile_qr_scan"}, "fusion_lon": 0.0}, {"lat": 38.8855025, "is_disabled": 0, "type": "electric_bike", "lon": -77.11788316666667, "bike_id": "0826b5d110b87640e6506d01ff34b2af", "fusion_lat": 0.0, "name": "0826b5d110b87640e6506d01ff34b2af", "is_reserved": 0, "rental_uris": {"android": "https://dc.lft.to/lastmile_qr_scan", "ios": "https://dc.lft.to/lastmile_qr_scan"}, "fusion_lon": 0.0}, {"lat": 38.928955333333334, "is_disabled": 0, "type": "electric_scooter", "lon": -77.01647433333333, "bike_id": "077cdc397a38859a95786fe74b36c280", "fusion_lat": 0.0, "name": "077cdc397a38859a95786fe74b36c280", "is_reserved": 0, "rental_uris": {"android": "https://dc.lft.to/lastmile_qr_scan", "ios": "https://dc.lft.to/lastmile_qr_scan"}, "fusion_lon": 0.0}, {"lat": 38.9343545, "is_disabled": 0, "type": "electric_scooter", "lon": -76.96519033333334, "bike_id": "91141e5974f12b2fe30cb9fd9adec05c", "fusion_lat": 0.0, "name": "91141e5974f12b2fe30cb9fd9adec05c", "is_reserved": 0, "rental_uris": {"android": "https://dc.lft.to/lastmile_qr_scan", "ios": "https://dc.lft.to/lastmile_qr_scan"}, "fusion_lon": 0.0}, {"lat": 38.93382183333333, "is_disabled": 0, "type": "electric_scooter", "lon": -77.0355885, "bike_id": "bfdcd472e8895eb6c59bf38e4802a836", "fusion_lat": 0.0, "name": "bfdcd472e8895eb6c59bf38e4802a836", "is_reserved": 0, "rental_uris": {"android": "https://dc.lft.to/lastmile_qr_scan", "ios": "https://dc.lft.to/lastmile_qr_scan"}, "fusion_lon": 0.0}, {"lat": 38.95703566666667, "is_disabled": 0, "type": "electric_scooter", "lon": -77.02398033333333, "bike_id": "44aacef6a660514728074351934dd929", "fusion_lat": 0.0, "name": "44aacef6a660514728074351934dd929", "is_reserved": 0, "rental_uris": {"android": "https://dc.lft.to/lastmile_qr_scan", "ios": "https://dc.lft.to/lastmile_qr_scan"}, "fusion_lon": 0.0}, {"lat": 38.8981045, "is_disabled": 0, "type": "electric_scooter", "lon": -77.03312266666667, "bike_id": "302e7ac773e592a605d3df6a9604f92d", "fusion_lat": 0.0, "name": "302e7ac773e592a605d3df6a9604f92d", "is_reserved": 0, "rental_uris": {"android": "https://dc.lft.to/lastmile_qr_scan", "ios": "https://dc.lft.to/lastmile_qr_scan"}, "fusion_lon": 0.0}, {"lat": 38.90246483333333, "is_disabled": 0, "type": "electric_scooter", "lon": -77.0269715, "bike_id": "501178d5f324a665459faaa440a6e2ed", "fusion_lat": 0.0, "name": "501178d5f324a665459faaa440a6e2ed", "is_reserved": 0, "rental_uris": {"android": "https://dc.lft.to/lastmile_qr_scan", "ios": "https://dc.lft.to/lastmile_qr_scan"}, "fusion_lon": 0.0}, {"lat": 38.99861633333333, "is_disabled": 0, "type": "electric_bike", "lon": -77.02896383333334, "bike_id": "ef9846c8fd4e9db7205145d518ad377e", "fusion_lat": 0.0, "name": "ef9846c8fd4e9db7205145d518ad377e", "is_reserved": 0, "rental_uris": {"android": "https://dc.lft.to/lastmile_qr_scan", "ios": "https://dc.lft.to/lastmile_qr_scan"}, "fusion_lon": 0.0}, {"lat": 38.88463383333333, "is_disabled": 0, "type": "electric_scooter", "lon": -76.929572, "bike_id": "1b84f99fd506234433b2a60a48f9b259", "fusion_lat": 0.0, "name": "1b84f99fd506234433b2a60a48f9b259", "is_reserved": 0, "rental_uris": {"android": "https://dc.lft.to/lastmile_qr_scan", "ios": "https://dc.lft.to/lastmile_qr_scan"}, "fusion_lon": 0.0}, {"lat": 38.90035233333333, "is_disabled": 0, "type": "electric_scooter", "lon": -77.00206566666667, "bike_id": "4d599e7bac8c9c43b9c762c97cc38d0a", "fusion_lat": 0.0, "name": "4d599e7bac8c9c43b9c762c97cc38d0a", "is_reserved": 0, "rental_uris": {"android": "https://dc.lft.to/lastmile_qr_scan", "ios": "https://dc.lft.to/lastmile_qr_scan"}, "fusion_lon": 0.0}, {"lat": 38.88716333333333, "is_disabled": 0, "type": "electric_bike", "lon": -77.13302616666667, "bike_id": "6f5beb04f21f700ce2ce94d000eb1d79", "fusion_lat": 0.0, "name": "6f5beb04f21f700ce2ce94d000eb1d79", "is_reserved": 0, "rental_uris": {"android": "https://dc.lft.to/lastmile_qr_scan", "ios": "https://dc.lft.to/lastmile_qr_scan"}, "fusion_lon": 0.0}, {"lat": 38.892490333333335, "is_disabled": 0, "type": "electric_scooter", "lon": -77.039574, "bike_id": "e05abf82b7f8fb103accd65cf15ffcc8", "fusion_lat": 0.0, "name": "e05abf82b7f8fb103accd65cf15ffcc8", "is_reserved": 0, "rental_uris": {"android": "https://dc.lft.to/lastmile_qr_scan", "ios": "https://dc.lft.to/lastmile_qr_scan"}, "fusion_lon": 0.0}, {"lat": 38.886242833333334, "is_disabled": 0, "type": "electric_scooter", "lon": -77.0192305, "bike_id": "2f80ce60878a4a1f464768746aada85d", "fusion_lat": 0.0, "name": "2f80ce60878a4a1f464768746aada85d", "is_reserved": 0, "rental_uris": {"android": "https://dc.lft.to/lastmile_qr_scan", "ios": "https://dc.lft.to/lastmile_qr_scan"}, "fusion_lon": 0.0}, {"lat": 38.876884, "is_disabled": 0, "type": "electric_scooter", "lon": -77.01616533333333, "bike_id": "d30c51c1e1e4a75aed3f4f7a3e8940b0", "fusion_lat": 0.0, "name": "d30c51c1e1e4a75aed3f4f7a3e8940b0", "is_reserved": 0, "rental_uris": {"android": "https://dc.lft.to/lastmile_qr_scan", "ios": "https://dc.lft.to/lastmile_qr_scan"}, "fusion_lon": 0.0}, {"lat": 38.896489333333335, "is_disabled": 0, "type": "electric_scooter", "lon": -77.04657433333334, "bike_id": "0ecaa77ac9bc6e7a9073a09f37277821", "fusion_lat": 0.0, "name": "0ecaa77ac9bc6e7a9073a09f37277821", "is_reserved": 0, "rental_uris": {"android": "https://dc.lft.to/lastmile_qr_scan", "ios": "https://dc.lft.to/lastmile_qr_scan"}, "fusion_lon": 0.0}, {"lat": 38.929611, "is_disabled": 0, "type": "electric_scooter", "lon": -77.0318195, "bike_id": "c1529e26d494f58b04f828931c2a9746", "fusion_lat": 0.0, "name": "c1529e26d494f58b04f828931c2a9746", "is_reserved": 0, "rental_uris": {"android": "https://dc.lft.to/lastmile_qr_scan", "ios": "https://dc.lft.to/lastmile_qr_scan"}, "fusion_lon": 0.0}, {"lat": 38.88128366666667, "is_disabled": 0, "type": "electric_scooter", "lon": -76.987239, "bike_id": "803db170dff7e237fcf2e9285f734e0b", "fusion_lat": 0.0, "name": "803db170dff7e237fcf2e9285f734e0b", "is_reserved": 0, "rental_uris": {"android": "https://dc.lft.to/lastmile_qr_scan", "ios": "https://dc.lft.to/lastmile_qr_scan"}, "fusion_lon": 0.0}, {"lat": 38.8666135, "is_disabled": 0, "type": "electric_scooter", "lon": -76.9891525, "bike_id": "9acc3e184d88bf124ceb966a69a715cc", "fusion_lat": 0.0, "name": "9acc3e184d88bf124ceb966a69a715cc", "is_reserved": 0, "rental_uris": {"android": "https://dc.lft.to/lastmile_qr_scan", "ios": "https://dc.lft.to/lastmile_qr_scan"}, "fusion_lon": 0.0}, {"lat": 38.909753, "is_disabled": 0, "type": "electric_scooter", "lon": -77.05258283333333, "bike_id": "5933a1fc3881247b43e68cff0a8a0573", "fusion_lat": 0.0, "name": "5933a1fc3881247b43e68cff0a8a0573", "is_reserved": 0, "rental_uris": {"android": "https://dc.lft.to/lastmile_qr_scan", "ios": "https://dc.lft.to/lastmile_qr_scan"}, "fusion_lon": 0.0}, {"lat": 38.92840183333333, "is_disabled": 0, "type": "electric_scooter", "lon": -77.05418483333334, "bike_id": "182d001770dbe6006db25ce20d60374f", "fusion_lat": 0.0, "name": "182d001770dbe6006db25ce20d60374f", "is_reserved": 0, "rental_uris": {"android": "https://dc.lft.to/lastmile_qr_scan", "ios": "https://dc.lft.to/lastmile_qr_scan"}, "fusion_lon": 0.0}, {"lat": 38.91010816666667, "is_disabled": 0, "type": "electric_scooter", "lon": -77.030178, "bike_id": "71594960dfa166e589d37769980420f2", "fusion_lat": 0.0, "name": "71594960dfa166e589d37769980420f2", "is_reserved": 0, "rental_uris": {"android": "https://dc.lft.to/lastmile_qr_scan", "ios": "https://dc.lft.to/lastmile_qr_scan"}, "fusion_lon": 0.0}, {"lat": 38.916976166666664, "is_disabled": 0, "type": "electric_scooter", "lon": -77.02898316666666, "bike_id": "9f491de9092821779e846f68a9008349", "fusion_lat": 0.0, "name": "9f491de9092821779e846f68a9008349", "is_reserved": 0, "rental_uris": {"android": "https://dc.lft.to/lastmile_qr_scan", "ios": "https://dc.lft.to/lastmile_qr_scan"}, "fusion_lon": 0.0}, {"lat": 38.897174666666665, "is_disabled": 0, "type": "electric_scooter", "lon": -77.02119933333333, "bike_id": "59ee9d3e13d12723f6807832e4f57996", "fusion_lat": 0.0, "name": "59ee9d3e13d12723f6807832e4f57996", "is_reserved": 0, "rental_uris": {"android": "https://dc.lft.to/lastmile_qr_scan", "ios": "https://dc.lft.to/lastmile_qr_scan"}, "fusion_lon": 0.0}, {"lat": 38.90647366666666, "is_disabled": 0, "type": "electric_scooter", "lon": -77.0083235, "bike_id": "8544baea15a1ab87fd957b0fc77ca6e8", "fusion_lat": 0.0, "name": "8544baea15a1ab87fd957b0fc77ca6e8", "is_reserved": 0, "rental_uris": {"android": "https://dc.lft.to/lastmile_qr_scan", "ios": "https://dc.lft.to/lastmile_qr_scan"}, "fusion_lon": 0.0}, {"lat": 38.93847016666667, "is_disabled": 0, "type": "electric_scooter", "lon": -77.03390316666666, "bike_id": "7027caa06e9acff7fd2638a32a270804", "fusion_lat": 0.0, "name": "7027caa06e9acff7fd2638a32a270804", "is_reserved": 0, "rental_uris": {"android": "https://dc.lft.to/lastmile_qr_scan", "ios": "https://dc.lft.to/lastmile_qr_scan"}, "fusion_lon": 0.0}, {"lat": 38.916975, "is_disabled": 0, "type": "electric_scooter", "lon": -77.0304285, "bike_id": "bccb9573f23be6cda6dc04d0666742f7", "fusion_lat": 0.0, "name": "bccb9573f23be6cda6dc04d0666742f7", "is_reserved": 0, "rental_uris": {"android": "https://dc.lft.to/lastmile_qr_scan", "ios": "https://dc.lft.to/lastmile_qr_scan"}, "fusion_lon": 0.0}, {"lat": 38.932500166666664, "is_disabled": 0, "type": "electric_scooter", "lon": -77.04010933333333, "bike_id": "5a0c5a413c8f9dcc238d4adf621d295e", "fusion_lat": 0.0, "name": "5a0c5a413c8f9dcc238d4adf621d295e", "is_reserved": 0, "rental_uris": {"android": "https://dc.lft.to/lastmile_qr_scan", "ios": "https://dc.lft.to/lastmile_qr_scan"}, "fusion_lon": 0.0}, {"lat": 38.884880333333335, "is_disabled": 0, "type": "electric_scooter", "lon": -77.0070435, "bike_id": "38eff9866d1eb6a9a955a15e2aab63f3", "fusion_lat": 0.0, "name": "38eff9866d1eb6a9a955a15e2aab63f3", "is_reserved": 0, "rental_uris": {"android": "https://dc.lft.to/lastmile_qr_scan", "ios": "https://dc.lft.to/lastmile_qr_scan"}, "fusion_lon": 0.0}, {"lat": 38.842951166666666, "is_disabled": 0, "type": "electric_scooter", "lon": -76.99946183333333, "bike_id": "568fd3456cde07b88279361544aa57ed", "fusion_lat": 0.0, "name": "568fd3456cde07b88279361544aa57ed", "is_reserved": 0, "rental_uris": {"android": "https://dc.lft.to/lastmile_qr_scan", "ios": "https://dc.lft.to/lastmile_qr_scan"}, "fusion_lon": 0.0}, {"lat": 38.842840833333334, "is_disabled": 0, "type": "electric_bike", "lon": -76.98838066666667, "bike_id": "d517bc681ff17f44bb9a73567fc4590e", "fusion_lat": 0.0, "name": "d517bc681ff17f44bb9a73567fc4590e", "is_reserved": 0, "rental_uris": {"android": "https://dc.lft.to/lastmile_qr_scan", "ios": "https://dc.lft.to/lastmile_qr_scan"}, "fusion_lon": 0.0}, {"lat": 38.93118116666667, "is_disabled": 0, "type": "electric_scooter", "lon": -77.03810016666667, "bike_id": "b114b27477e09494cf19e590fe7ee1c0", "fusion_lat": 0.0, "name": "b114b27477e09494cf19e590fe7ee1c0", "is_reserved": 0, "rental_uris": {"android": "https://dc.lft.to/lastmile_qr_scan", "ios": "https://dc.lft.to/lastmile_qr_scan"}, "fusion_lon": 0.0}, {"lat": 38.923610833333335, "is_disabled": 0, "type": "electric_scooter", "lon": -77.04026616666667, "bike_id": "fd5801ad3fd58eb07c12071dc06e58cc", "fusion_lat": 0.0, "name": "fd5801ad3fd58eb07c12071dc06e58cc", "is_reserved": 0, "rental_uris": {"android": "https://dc.lft.to/lastmile_qr_scan", "ios": "https://dc.lft.to/lastmile_qr_scan"}, "fusion_lon": 0.0}, {"lat": 38.909569833333336, "is_disabled": 0, "type": "electric_scooter", "lon": -77.0227365, "bike_id": "2b142fbcb11be4b16eb682679c7f4323", "fusion_lat": 0.0, "name": "2b142fbcb11be4b16eb682679c7f4323", "is_reserved": 0, "rental_uris": {"android": "https://dc.lft.to/lastmile_qr_scan", "ios": "https://dc.lft.to/lastmile_qr_scan"}, "fusion_lon": 0.0}, {"lat": 38.89372766666666, "is_disabled": 0, "type": "electric_scooter", "lon": -76.94995783333333, "bike_id": "4404eec17453fa18c252651608b84e43", "fusion_lat": 0.0, "name": "4404eec17453fa18c252651608b84e43", "is_reserved": 0, "rental_uris": {"android": "https://dc.lft.to/lastmile_qr_scan", "ios": "https://dc.lft.to/lastmile_qr_scan"}, "fusion_lon": 0.0}, {"lat": 38.849332833333335, "is_disabled": 0, "type": "electric_bike", "lon": -77.10015133333333, "bike_id": "73988823a1dc773f03e32a9180136852", "fusion_lat": 0.0, "name": "73988823a1dc773f03e32a9180136852", "is_reserved": 0, "rental_uris": {"android": "https://dc.lft.to/lastmile_qr_scan", "ios": "https://dc.lft.to/lastmile_qr_scan"}, "fusion_lon": 0.0}, {"lat": 38.921344833333336, "is_disabled": 0, "type": "electric_scooter", "lon": -77.010485, "bike_id": "385f054b6a4cb637182cb0c4e058ed9b", "fusion_lat": 0.0, "name": "385f054b6a4cb637182cb0c4e058ed9b", "is_reserved": 0, "rental_uris": {"android": "https://dc.lft.to/lastmile_qr_scan", "ios": "https://dc.lft.to/lastmile_qr_scan"}, "fusion_lon": 0.0}, {"lat": 38.90967966666667, "is_disabled": 0, "type": "electric_scooter", "lon": -77.04806083333334, "bike_id": "f8b6642a78b3ed25a9f69bc3322d64b3", "fusion_lat": 0.0, "name": "f8b6642a78b3ed25a9f69bc3322d64b3", "is_reserved": 0, "rental_uris": {"android": "https://dc.lft.to/lastmile_qr_scan", "ios": "https://dc.lft.to/lastmile_qr_scan"}, "fusion_lon": 0.0}, {"lat": 38.866254833333336, "is_disabled": 0, "type": "electric_scooter", "lon": -76.9870155, "bike_id": "856936cdf4a13e55ece01db764c6de14", "fusion_lat": 0.0, "name": "856936cdf4a13e55ece01db764c6de14", "is_reserved": 0, "rental_uris": {"android": "https://dc.lft.to/lastmile_qr_scan", "ios": "https://dc.lft.to/lastmile_qr_scan"}, "fusion_lon": 0.0}, {"lat": 38.862804, "is_disabled": 0, "type": "electric_scooter", "lon": -76.9922935, "bike_id": "34f72630227adc58483fa9218050b47f", "fusion_lat": 0.0, "name": "34f72630227adc58483fa9218050b47f", "is_reserved": 0, "rental_uris": {"android": "https://dc.lft.to/lastmile_qr_scan", "ios": "https://dc.lft.to/lastmile_qr_scan"}, "fusion_lon": 0.0}, {"lat": 38.895121833333334, "is_disabled": 0, "type": "electric_scooter", "lon": -77.04348966666667, "bike_id": "e399215b6e2d8de45633fe1105e7e8ab", "fusion_lat": 0.0, "name": "e399215b6e2d8de45633fe1105e7e8ab", "is_reserved": 0, "rental_uris": {"android": "https://dc.lft.to/lastmile_qr_scan", "ios": "https://dc.lft.to/lastmile_qr_scan"}, "fusion_lon": 0.0}, {"lat": 38.94130783333333, "is_disabled": 0, "type": "electric_bike", "lon": -76.99627883333334, "bike_id": "22d8f34f2eb673ea1651684fda159b42", "fusion_lat": 0.0, "name": "22d8f34f2eb673ea1651684fda159b42", "is_reserved": 0, "rental_uris": {"android": "https://dc.lft.to/lastmile_qr_scan", "ios": "https://dc.lft.to/lastmile_qr_scan"}, "fusion_lon": 0.0}, {"lat": 38.92443866666667, "is_disabled": 0, "type": "electric_scooter", "lon": -77.033816, "bike_id": "d1de686b8269bd5295feacc6c7199e53", "fusion_lat": 0.0, "name": "d1de686b8269bd5295feacc6c7199e53", "is_reserved": 0, "rental_uris": {"android": "https://dc.lft.to/lastmile_qr_scan", "ios": "https://dc.lft.to/lastmile_qr_scan"}, "fusion_lon": 0.0}, {"lat": 38.909502333333336, "is_disabled": 0, "type": "electric_scooter", "lon": -77.04666833333333, "bike_id": "ff55a17fd3c878b1a295f2723ba61bc5", "fusion_lat": 0.0, "name": "ff55a17fd3c878b1a295f2723ba61bc5", "is_reserved": 0, "rental_uris": {"android": "https://dc.lft.to/lastmile_qr_scan", "ios": "https://dc.lft.to/lastmile_qr_scan"}, "fusion_lon": 0.0}, {"lat": 38.898426666666666, "is_disabled": 0, "type": "electric_scooter", "lon": -76.94478866666667, "bike_id": "035fb25af363f0d2ce24b376c8aec651", "fusion_lat": 0.0, "name": "035fb25af363f0d2ce24b376c8aec651", "is_reserved": 0, "rental_uris": {"android": "https://dc.lft.to/lastmile_qr_scan", "ios": "https://dc.lft.to/lastmile_qr_scan"}, "fusion_lon": 0.0}, {"lat": 38.90429866666667, "is_disabled": 0, "type": "electric_scooter", "lon": -77.03440166666667, "bike_id": "666b4d0616b4ce64fe50f802e4facb68", "fusion_lat": 0.0, "name": "666b4d0616b4ce64fe50f802e4facb68", "is_reserved": 0, "rental_uris": {"android": "https://dc.lft.to/lastmile_qr_scan", "ios": "https://dc.lft.to/lastmile_qr_scan"}, "fusion_lon": 0.0}, {"lat": 38.916956, "is_disabled": 0, "type": "electric_scooter", "lon": -77.0291455, "bike_id": "a2f9d3e1b7807ed524f8c1ef9721aed3", "fusion_lat": 0.0, "name": "a2f9d3e1b7807ed524f8c1ef9721aed3", "is_reserved": 0, "rental_uris": {"android": "https://dc.lft.to/lastmile_qr_scan", "ios": "https://dc.lft.to/lastmile_qr_scan"}, "fusion_lon": 0.0}, {"lat": 38.93945866666667, "is_disabled": 0, "type": "electric_scooter", "lon": -77.02180316666667, "bike_id": "b51666de542acd57fa781058112d6ff9", "fusion_lat": 0.0, "name": "b51666de542acd57fa781058112d6ff9", "is_reserved": 0, "rental_uris": {"android": "https://dc.lft.to/lastmile_qr_scan", "ios": "https://dc.lft.to/lastmile_qr_scan"}, "fusion_lon": 0.0}, {"lat": 39.094392166666665, "is_disabled": 0, "type": "electric_bike", "lon": -77.13457716666667, "bike_id": "656034e05687a4c11547d7aa82b1d20e", "fusion_lat": 0.0, "name": "656034e05687a4c11547d7aa82b1d20e", "is_reserved": 0, "rental_uris": {"android": "https://dc.lft.to/lastmile_qr_scan", "ios": "https://dc.lft.to/lastmile_qr_scan"}, "fusion_lon": 0.0}, {"lat": 38.93197216666667, "is_disabled": 0, "type": "electric_scooter", "lon": -77.03862116666667, "bike_id": "82f892251a7541233b2e80bafc52128f", "fusion_lat": 0.0, "name": "82f892251a7541233b2e80bafc52128f", "is_reserved": 0, "rental_uris": {"android": "https://dc.lft.to/lastmile_qr_scan", "ios": "https://dc.lft.to/lastmile_qr_scan"}, "fusion_lon": 0.0}, {"lat": 38.897065833333336, "is_disabled": 0, "type": "electric_scooter", "lon": -77.00338983333333, "bike_id": "7854523ac13ad169894c6505fdabca86", "fusion_lat": 0.0, "name": "7854523ac13ad169894c6505fdabca86", "is_reserved": 0, "rental_uris": {"android": "https://dc.lft.to/lastmile_qr_scan", "ios": "https://dc.lft.to/lastmile_qr_scan"}, "fusion_lon": 0.0}, {"lat": 38.91659283333333, "is_disabled": 0, "type": "electric_scooter", "lon": -77.01916733333333, "bike_id": "38bca3cdd8d835a0a8a21c352bd4fde7", "fusion_lat": 0.0, "name": "38bca3cdd8d835a0a8a21c352bd4fde7", "is_reserved": 0, "rental_uris": {"android": "https://dc.lft.to/lastmile_qr_scan", "ios": "https://dc.lft.to/lastmile_qr_scan"}, "fusion_lon": 0.0}, {"lat": 38.924049833333335, "is_disabled": 0, "type": "electric_scooter", "lon": -77.02746683333334, "bike_id": "925783c5f43bc2a59439514b59ea8d25", "fusion_lat": 0.0, "name": "925783c5f43bc2a59439514b59ea8d25", "is_reserved": 0, "rental_uris": {"android": "https://dc.lft.to/lastmile_qr_scan", "ios": "https://dc.lft.to/lastmile_qr_scan"}, "fusion_lon": 0.0}, {"lat": 38.95404816666667, "is_disabled": 0, "type": "electric_scooter", "lon": -77.02750333333333, "bike_id": "2073046d029ce13f9cec3571cefefb90", "fusion_lat": 0.0, "name": "2073046d029ce13f9cec3571cefefb90", "is_reserved": 0, "rental_uris": {"android": "https://dc.lft.to/lastmile_qr_scan", "ios": "https://dc.lft.to/lastmile_qr_scan"}, "fusion_lon": 0.0}, {"lat": 38.9033115, "is_disabled": 0, "type": "electric_scooter", "lon": -77.04231416666667, "bike_id": "4fbbdebeaad4db955e1549e5610b4186", "fusion_lat": 0.0, "name": "4fbbdebeaad4db955e1549e5610b4186", "is_reserved": 0, "rental_uris": {"android": "https://dc.lft.to/lastmile_qr_scan", "ios": "https://dc.lft.to/lastmile_qr_scan"}, "fusion_lon": 0.0}, {"lat": 38.90270266666667, "is_disabled": 0, "type": "electric_scooter", "lon": -77.03430483333334, "bike_id": "8d335ad3c0e12c6949c6735f2927e6fe", "fusion_lat": 0.0, "name": "8d335ad3c0e12c6949c6735f2927e6fe", "is_reserved": 0, "rental_uris": {"android": "https://dc.lft.to/lastmile_qr_scan", "ios": "https://dc.lft.to/lastmile_qr_scan"}, "fusion_lon": 0.0}, {"lat": 38.9025535, "is_disabled": 0, "type": "electric_scooter", "lon": -77.01757066666667, "bike_id": "f870602ff130b2df85d0c1d9a4979c55", "fusion_lat": 0.0, "name": "f870602ff130b2df85d0c1d9a4979c55", "is_reserved": 0, "rental_uris": {"android": "https://dc.lft.to/lastmile_qr_scan", "ios": "https://dc.lft.to/lastmile_qr_scan"}, "fusion_lon": 0.0}, {"lat": 38.89048116666667, "is_disabled": 0, "type": "electric_scooter", "lon": -76.93754416666667, "bike_id": "3a67d7b895d0e91cb6440d3a1d932470", "fusion_lat": 0.0, "name": "3a67d7b895d0e91cb6440d3a1d932470", "is_reserved": 0, "rental_uris": {"android": "https://dc.lft.to/lastmile_qr_scan", "ios": "https://dc.lft.to/lastmile_qr_scan"}, "fusion_lon": 0.0}, {"lat": 38.9027465, "is_disabled": 0, "type": "electric_scooter", "lon": -77.04035916666666, "bike_id": "47aaf58f576b20a56ab1555c40a2398d", "fusion_lat": 0.0, "name": "47aaf58f576b20a56ab1555c40a2398d", "is_reserved": 0, "rental_uris": {"android": "https://dc.lft.to/lastmile_qr_scan", "ios": "https://dc.lft.to/lastmile_qr_scan"}, "fusion_lon": 0.0}, {"lat": 38.86525983333333, "is_disabled": 0, "type": "electric_scooter", "lon": -76.990397, "bike_id": "509a1636aec7846c11ade4271946b41f", "fusion_lat": 0.0, "name": "509a1636aec7846c11ade4271946b41f", "is_reserved": 0, "rental_uris": {"android": "https://dc.lft.to/lastmile_qr_scan", "ios": "https://dc.lft.to/lastmile_qr_scan"}, "fusion_lon": 0.0}, {"lat": 38.838128, "is_disabled": 0, "type": "electric_bike", "lon": -77.09522183333333, "bike_id": "548e791aa96c8ff4403b2c480c5213c4", "fusion_lat": 0.0, "name": "548e791aa96c8ff4403b2c480c5213c4", "is_reserved": 0, "rental_uris": {"android": "https://dc.lft.to/lastmile_qr_scan", "ios": "https://dc.lft.to/lastmile_qr_scan"}, "fusion_lon": 0.0}, {"lat": 38.9323915, "is_disabled": 0, "type": "electric_scooter", "lon": -77.030911, "bike_id": "8ef9aefc6096869860cef6e2c8ae3df0", "fusion_lat": 0.0, "name": "8ef9aefc6096869860cef6e2c8ae3df0", "is_reserved": 0, "rental_uris": {"android": "https://dc.lft.to/lastmile_qr_scan", "ios": "https://dc.lft.to/lastmile_qr_scan"}, "fusion_lon": 0.0}, {"lat": 38.9096115, "is_disabled": 0, "type": "electric_scooter", "lon": -77.03257616666667, "bike_id": "898735ad5be976a8861f83fde5f97500", "fusion_lat": 0.0, "name": "898735ad5be976a8861f83fde5f97500", "is_reserved": 0, "rental_uris": {"android": "https://dc.lft.to/lastmile_qr_scan", "ios": "https://dc.lft.to/lastmile_qr_scan"}, "fusion_lon": 0.0}, {"lat": 38.876295, "is_disabled": 0, "type": "electric_scooter", "lon": -76.965248, "bike_id": "a71dd424ba2db158ead44db07e45d44e", "fusion_lat": 0.0, "name": "a71dd424ba2db158ead44db07e45d44e", "is_reserved": 0, "rental_uris": {"android": "https://dc.lft.to/lastmile_qr_scan", "ios": "https://dc.lft.to/lastmile_qr_scan"}, "fusion_lon": 0.0}, {"lat": 38.8592925, "is_disabled": 0, "type": "electric_scooter", "lon": -76.9972005, "bike_id": "e481685b8b8bf1c5e12513eee6d969d9", "fusion_lat": 0.0, "name": "e481685b8b8bf1c5e12513eee6d969d9", "is_reserved": 0, "rental_uris": {"android": "https://dc.lft.to/lastmile_qr_scan", "ios": "https://dc.lft.to/lastmile_qr_scan"}, "fusion_lon": 0.0}, {"lat": 38.8578945, "is_disabled": 0, "type": "electric_bike", "lon": -77.09959516666666, "bike_id": "d0d13efd314440fb7e071f00dc51d2ea", "fusion_lat": 0.0, "name": "d0d13efd314440fb7e071f00dc51d2ea", "is_reserved": 0, "rental_uris": {"android": "https://dc.lft.to/lastmile_qr_scan", "ios": "https://dc.lft.to/lastmile_qr_scan"}, "fusion_lon": 0.0}, {"lat": 38.907228333333336, "is_disabled": 0, "type": "electric_scooter", "lon": -77.0134725, "bike_id": "ea1e9496fa8d0ac851173ee3f9eed8ba", "fusion_lat": 0.0, "name": "ea1e9496fa8d0ac851173ee3f9eed8ba", "is_reserved": 0, "rental_uris": {"android": "https://dc.lft.to/lastmile_qr_scan", "ios": "https://dc.lft.to/lastmile_qr_scan"}, "fusion_lon": 0.0}, {"lat": 38.92209166666667, "is_disabled": 0, "type": "electric_scooter", "lon": -77.03780733333333, "bike_id": "e677e56705ecb7ce485df673e95ea615", "fusion_lat": 0.0, "name": "e677e56705ecb7ce485df673e95ea615", "is_reserved": 0, "rental_uris": {"android": "https://dc.lft.to/lastmile_qr_scan", "ios": "https://dc.lft.to/lastmile_qr_scan"}, "fusion_lon": 0.0}, {"lat": 38.8769185, "is_disabled": 0, "type": "electric_scooter", "lon": -77.017622, "bike_id": "05da7bfe6d374ab6b9f866a4206ad50f", "fusion_lat": 0.0, "name": "05da7bfe6d374ab6b9f866a4206ad50f", "is_reserved": 0, "rental_uris": {"android": "https://dc.lft.to/lastmile_qr_scan", "ios": "https://dc.lft.to/lastmile_qr_scan"}, "fusion_lon": 0.0}, {"lat": 38.9154745, "is_disabled": 0, "type": "electric_scooter", "lon": -77.03192916666667, "bike_id": "2925158c4633b95946dfb4bd07e77bf5", "fusion_lat": 0.0, "name": "2925158c4633b95946dfb4bd07e77bf5", "is_reserved": 0, "rental_uris": {"android": "https://dc.lft.to/lastmile_qr_scan", "ios": "https://dc.lft.to/lastmile_qr_scan"}, "fusion_lon": 0.0}, {"lat": 38.91693466666667, "is_disabled": 0, "type": "electric_scooter", "lon": -77.04586066666667, "bike_id": "1c9219265b6feca1cbd0d69a6d28fe08", "fusion_lat": 0.0, "name": "1c9219265b6feca1cbd0d69a6d28fe08", "is_reserved": 0, "rental_uris": {"android": "https://dc.lft.to/lastmile_qr_scan", "ios": "https://dc.lft.to/lastmile_qr_scan"}, "fusion_lon": 0.0}, {"lat": 38.93266916666666, "is_disabled": 0, "type": "electric_scooter", "lon": -77.03261866666666, "bike_id": "0d2c3c2083d3aedf3192479425c84c05", "fusion_lat": 0.0, "name": "0d2c3c2083d3aedf3192479425c84c05", "is_reserved": 0, "rental_uris": {"android": "https://dc.lft.to/lastmile_qr_scan", "ios": "https://dc.lft.to/lastmile_qr_scan"}, "fusion_lon": 0.0}, {"lat": 38.88235783333333, "is_disabled": 0, "type": "electric_scooter", "lon": -76.99090583333333, "bike_id": "18936ec6e71e3613f8e909dc3ad99c2d", "fusion_lat": 0.0, "name": "18936ec6e71e3613f8e909dc3ad99c2d", "is_reserved": 0, "rental_uris": {"android": "https://dc.lft.to/lastmile_qr_scan", "ios": "https://dc.lft.to/lastmile_qr_scan"}, "fusion_lon": 0.0}, {"lat": 38.91565416666667, "is_disabled": 0, "type": "electric_scooter", "lon": -77.0315415, "bike_id": "d350a48094d2d0f454bd6551612c1a2b", "fusion_lat": 0.0, "name": "d350a48094d2d0f454bd6551612c1a2b", "is_reserved": 0, "rental_uris": {"android": "https://dc.lft.to/lastmile_qr_scan", "ios": "https://dc.lft.to/lastmile_qr_scan"}, "fusion_lon": 0.0}, {"lat": 38.91105733333333, "is_disabled": 0, "type": "electric_scooter", "lon": -77.03078016666667, "bike_id": "3fc37bd812f8fee328eadad8be0286df", "fusion_lat": 0.0, "name": "3fc37bd812f8fee328eadad8be0286df", "is_reserved": 0, "rental_uris": {"android": "https://dc.lft.to/lastmile_qr_scan", "ios": "https://dc.lft.to/lastmile_qr_scan"}, "fusion_lon": 0.0}, {"lat": 38.950753, "is_disabled": 0, "type": "electric_scooter", "lon": -77.00875633333334, "bike_id": "151aec34455464dea5fc89dff4833bf6", "fusion_lat": 0.0, "name": "151aec34455464dea5fc89dff4833bf6", "is_reserved": 0, "rental_uris": {"android": "https://dc.lft.to/lastmile_qr_scan", "ios": "https://dc.lft.to/lastmile_qr_scan"}, "fusion_lon": 0.0}, {"lat": 38.960232833333336, "is_disabled": 0, "type": "electric_bike", "lon": -77.01722533333333, "bike_id": "da7c5d7330efd5b33ca2298ccd640230", "fusion_lat": 0.0, "name": "da7c5d7330efd5b33ca2298ccd640230", "is_reserved": 0, "rental_uris": {"android": "https://dc.lft.to/lastmile_qr_scan", "ios": "https://dc.lft.to/lastmile_qr_scan"}, "fusion_lon": 0.0}, {"lat": 38.90401333333333, "is_disabled": 0, "type": "electric_scooter", "lon": -77.0630385, "bike_id": "b318bf5b79106e8e5173c9f09ff23dd9", "fusion_lat": 0.0, "name": "b318bf5b79106e8e5173c9f09ff23dd9", "is_reserved": 0, "rental_uris": {"android": "https://dc.lft.to/lastmile_qr_scan", "ios": "https://dc.lft.to/lastmile_qr_scan"}, "fusion_lon": 0.0}, {"lat": 38.95404283333333, "is_disabled": 0, "type": "electric_scooter", "lon": -77.02752016666666, "bike_id": "6729746e26233a4bee687586e3323dea", "fusion_lat": 0.0, "name": "6729746e26233a4bee687586e3323dea", "is_reserved": 0, "rental_uris": {"android": "https://dc.lft.to/lastmile_qr_scan", "ios": "https://dc.lft.to/lastmile_qr_scan"}, "fusion_lon": 0.0}, {"lat": 38.8997075, "is_disabled": 0, "type": "electric_scooter", "lon": -77.02289016666667, "bike_id": "c8e304bd2577f33d2f2cb096f6f39e85", "fusion_lat": 0.0, "name": "c8e304bd2577f33d2f2cb096f6f39e85", "is_reserved": 0, "rental_uris": {"android": "https://dc.lft.to/lastmile_qr_scan", "ios": "https://dc.lft.to/lastmile_qr_scan"}, "fusion_lon": 0.0}, {"lat": 39.02934316666666, "is_disabled": 0, "type": "electric_bike", "lon": -77.04931533333334, "bike_id": "98775ef9ef823ee7ff636c3e3c92fdab", "fusion_lat": 0.0, "name": "98775ef9ef823ee7ff636c3e3c92fdab", "is_reserved": 0, "rental_uris": {"android": "https://dc.lft.to/lastmile_qr_scan", "ios": "https://dc.lft.to/lastmile_qr_scan"}, "fusion_lon": 0.0}, {"lat": 38.87659633333333, "is_disabled": 0, "type": "electric_scooter", "lon": -77.00425933333334, "bike_id": "523f987aaf4c336dc06f85b819acd5bc", "fusion_lat": 0.0, "name": "523f987aaf4c336dc06f85b819acd5bc", "is_reserved": 0, "rental_uris": {"android": "https://dc.lft.to/lastmile_qr_scan", "ios": "https://dc.lft.to/lastmile_qr_scan"}, "fusion_lon": 0.0}, {"lat": 38.959303, "is_disabled": 0, "type": "electric_bike", "lon": -77.0312015, "bike_id": "ff8ce624bf19b4c4d5d6875e9fcb8f1c", "fusion_lat": 0.0, "name": "ff8ce624bf19b4c4d5d6875e9fcb8f1c", "is_reserved": 0, "rental_uris": {"android": "https://dc.lft.to/lastmile_qr_scan", "ios": "https://dc.lft.to/lastmile_qr_scan"}, "fusion_lon": 0.0}, {"lat": 38.91983066666667, "is_disabled": 0, "type": "electric_scooter", "lon": -76.97310833333333, "bike_id": "8e4ce1312cae2540eba43a0f198c4c1f", "fusion_lat": 0.0, "name": "8e4ce1312cae2540eba43a0f198c4c1f", "is_reserved": 0, "rental_uris": {"android": "https://dc.lft.to/lastmile_qr_scan", "ios": "https://dc.lft.to/lastmile_qr_scan"}, "fusion_lon": 0.0}, {"lat": 38.917198, "is_disabled": 0, "type": "electric_scooter", "lon": -77.04105633333333, "bike_id": "8736854bc440a46c1a3b3eab0308bc56", "fusion_lat": 0.0, "name": "8736854bc440a46c1a3b3eab0308bc56", "is_reserved": 0, "rental_uris": {"android": "https://dc.lft.to/lastmile_qr_scan", "ios": "https://dc.lft.to/lastmile_qr_scan"}, "fusion_lon": 0.0}, {"lat": 38.88471366666667, "is_disabled": 0, "type": "electric_scooter", "lon": -76.992659, "bike_id": "27814754b37e95d009f50bafcd45ce0f", "fusion_lat": 0.0, "name": "27814754b37e95d009f50bafcd45ce0f", "is_reserved": 0, "rental_uris": {"android": "https://dc.lft.to/lastmile_qr_scan", "ios": "https://dc.lft.to/lastmile_qr_scan"}, "fusion_lon": 0.0}, {"lat": 38.88081016666667, "is_disabled": 0, "type": "electric_scooter", "lon": -76.9853305, "bike_id": "7f02989ff38bbaa2c192f07e2b6b312a", "fusion_lat": 0.0, "name": "7f02989ff38bbaa2c192f07e2b6b312a", "is_reserved": 0, "rental_uris": {"android": "https://dc.lft.to/lastmile_qr_scan", "ios": "https://dc.lft.to/lastmile_qr_scan"}, "fusion_lon": 0.0}, {"lat": 38.90860416666666, "is_disabled": 0, "type": "electric_bike", "lon": -77.08078233333333, "bike_id": "d546f1f131470cbdcb15c4dac1c13356", "fusion_lat": 0.0, "name": "d546f1f131470cbdcb15c4dac1c13356", "is_reserved": 0, "rental_uris": {"android": "https://dc.lft.to/lastmile_qr_scan", "ios": "https://dc.lft.to/lastmile_qr_scan"}, "fusion_lon": 0.0}, {"lat": 38.9112155, "is_disabled": 0, "type": "electric_scooter", "lon": -77.00254616666666, "bike_id": "0f173a7309a67f426170eac6488d42e9", "fusion_lat": 0.0, "name": "0f173a7309a67f426170eac6488d42e9", "is_reserved": 0, "rental_uris": {"android": "https://dc.lft.to/lastmile_qr_scan", "ios": "https://dc.lft.to/lastmile_qr_scan"}, "fusion_lon": 0.0}, {"lat": 38.89834783333333, "is_disabled": 0, "type": "electric_scooter", "lon": -77.03022166666666, "bike_id": "e616487cab6b9aacb6b778e15f154b7f", "fusion_lat": 0.0, "name": "e616487cab6b9aacb6b778e15f154b7f", "is_reserved": 0, "rental_uris": {"android": "https://dc.lft.to/lastmile_qr_scan", "ios": "https://dc.lft.to/lastmile_qr_scan"}, "fusion_lon": 0.0}, {"lat": 38.8833345, "is_disabled": 0, "type": "electric_scooter", "lon": -77.03149883333333, "bike_id": "4ba4d52df7a9b6af32a34a2c9e9e9fc3", "fusion_lat": 0.0, "name": "4ba4d52df7a9b6af32a34a2c9e9e9fc3", "is_reserved": 0, "rental_uris": {"android": "https://dc.lft.to/lastmile_qr_scan", "ios": "https://dc.lft.to/lastmile_qr_scan"}, "fusion_lon": 0.0}, {"lat": 38.86106433333333, "is_disabled": 0, "type": "electric_scooter", "lon": -76.983564, "bike_id": "bec1641227f32f421dfcb2d98b41d89f", "fusion_lat": 0.0, "name": "bec1641227f32f421dfcb2d98b41d89f", "is_reserved": 0, "rental_uris": {"android": "https://dc.lft.to/lastmile_qr_scan", "ios": "https://dc.lft.to/lastmile_qr_scan"}, "fusion_lon": 0.0}, {"lat": 38.9155465, "is_disabled": 0, "type": "electric_scooter", "lon": -77.03835733333334, "bike_id": "e61ab7a4e7bd7f7ea527a6f5a1e217cb", "fusion_lat": 0.0, "name": "e61ab7a4e7bd7f7ea527a6f5a1e217cb", "is_reserved": 0, "rental_uris": {"android": "https://dc.lft.to/lastmile_qr_scan", "ios": "https://dc.lft.to/lastmile_qr_scan"}, "fusion_lon": 0.0}, {"lat": 38.897333, "is_disabled": 0, "type": "electric_scooter", "lon": -77.05528366666667, "bike_id": "d367748bf9de991d876fa0fb3a6ca8c1", "fusion_lat": 0.0, "name": "d367748bf9de991d876fa0fb3a6ca8c1", "is_reserved": 0, "rental_uris": {"android": "https://dc.lft.to/lastmile_qr_scan", "ios": "https://dc.lft.to/lastmile_qr_scan"}, "fusion_lon": 0.0}, {"lat": 38.9009905, "is_disabled": 0, "type": "electric_scooter", "lon": -77.05003466666666, "bike_id": "fe09c391e3432f03dbffe9d5751fdb84", "fusion_lat": 0.0, "name": "fe09c391e3432f03dbffe9d5751fdb84", "is_reserved": 0, "rental_uris": {"android": "https://dc.lft.to/lastmile_qr_scan", "ios": "https://dc.lft.to/lastmile_qr_scan"}, "fusion_lon": 0.0}, {"lat": 38.9134015, "is_disabled": 0, "type": "electric_scooter", "lon": -77.00223833333334, "bike_id": "37400906764bbbbb6040a523282a8dd8", "fusion_lat": 0.0, "name": "37400906764bbbbb6040a523282a8dd8", "is_reserved": 0, "rental_uris": {"android": "https://dc.lft.to/lastmile_qr_scan", "ios": "https://dc.lft.to/lastmile_qr_scan"}, "fusion_lon": 0.0}, {"lat": 38.9239175, "is_disabled": 0, "type": "electric_scooter", "lon": -77.00071366666667, "bike_id": "dae589da91f44b1f1f51907988e929c1", "fusion_lat": 0.0, "name": "dae589da91f44b1f1f51907988e929c1", "is_reserved": 0, "rental_uris": {"android": "https://dc.lft.to/lastmile_qr_scan", "ios": "https://dc.lft.to/lastmile_qr_scan"}, "fusion_lon": 0.0}, {"lat": 38.90029033333333, "is_disabled": 0, "type": "electric_scooter", "lon": -76.98739933333333, "bike_id": "61a659376777233af1ac2a6c707b931a", "fusion_lat": 0.0, "name": "61a659376777233af1ac2a6c707b931a", "is_reserved": 0, "rental_uris": {"android": "https://dc.lft.to/lastmile_qr_scan", "ios": "https://dc.lft.to/lastmile_qr_scan"}, "fusion_lon": 0.0}, {"lat": 38.91018316666667, "is_disabled": 0, "type": "electric_scooter", "lon": -76.9939375, "bike_id": "ed294c79075ffed554504bcc9c85123d", "fusion_lat": 0.0, "name": "ed294c79075ffed554504bcc9c85123d", "is_reserved": 0, "rental_uris": {"android": "https://dc.lft.to/lastmile_qr_scan", "ios": "https://dc.lft.to/lastmile_qr_scan"}, "fusion_lon": 0.0}, {"lat": 38.923408, "is_disabled": 0, "type": "electric_scooter", "lon": -77.0190365, "bike_id": "7e5587115b375728aafa25a16653cf38", "fusion_lat": 0.0, "name": "7e5587115b375728aafa25a16653cf38", "is_reserved": 0, "rental_uris": {"android": "https://dc.lft.to/lastmile_qr_scan", "ios": "https://dc.lft.to/lastmile_qr_scan"}, "fusion_lon": 0.0}, {"lat": 38.93221783333333, "is_disabled": 0, "type": "electric_scooter", "lon": -77.02730066666666, "bike_id": "55649004ca0f94e34d8b730f1733851d", "fusion_lat": 0.0, "name": "55649004ca0f94e34d8b730f1733851d", "is_reserved": 0, "rental_uris": {"android": "https://dc.lft.to/lastmile_qr_scan", "ios": "https://dc.lft.to/lastmile_qr_scan"}, "fusion_lon": 0.0}, {"lat": 38.866172666666664, "is_disabled": 0, "type": "electric_bike", "lon": -76.94572766666667, "bike_id": "50f0a1bfe3c5c3cf02cf915644d88878", "fusion_lat": 0.0, "name": "50f0a1bfe3c5c3cf02cf915644d88878", "is_reserved": 0, "rental_uris": {"android": "https://dc.lft.to/lastmile_qr_scan", "ios": "https://dc.lft.to/lastmile_qr_scan"}, "fusion_lon": 0.0}, {"lat": 38.8666145, "is_disabled": 0, "type": "electric_scooter", "lon": -76.988993, "bike_id": "e47658aa8e07dcb6b3447b8e61e6275a", "fusion_lat": 0.0, "name": "e47658aa8e07dcb6b3447b8e61e6275a", "is_reserved": 0, "rental_uris": {"android": "https://dc.lft.to/lastmile_qr_scan", "ios": "https://dc.lft.to/lastmile_qr_scan"}, "fusion_lon": 0.0}, {"lat": 38.90720366666667, "is_disabled": 0, "type": "electric_scooter", "lon": -77.02536766666667, "bike_id": "96f48411f27c9825d13646e536a7e975", "fusion_lat": 0.0, "name": "96f48411f27c9825d13646e536a7e975", "is_reserved": 0, "rental_uris": {"android": "https://dc.lft.to/lastmile_qr_scan", "ios": "https://dc.lft.to/lastmile_qr_scan"}, "fusion_lon": 0.0}, {"lat": 38.909748, "is_disabled": 0, "type": "electric_scooter", "lon": -77.03215933333334, "bike_id": "7a2494864a19d24c04ffd4e4213ec46c", "fusion_lat": 0.0, "name": "7a2494864a19d24c04ffd4e4213ec46c", "is_reserved": 0, "rental_uris": {"android": "https://dc.lft.to/lastmile_qr_scan", "ios": "https://dc.lft.to/lastmile_qr_scan"}, "fusion_lon": 0.0}, {"lat": 38.96497983333333, "is_disabled": 0, "type": "electric_bike", "lon": -77.06496233333333, "bike_id": "aec2f1853ad58db949e08448618a56ca", "fusion_lat": 0.0, "name": "aec2f1853ad58db949e08448618a56ca", "is_reserved": 0, "rental_uris": {"android": "https://dc.lft.to/lastmile_qr_scan", "ios": "https://dc.lft.to/lastmile_qr_scan"}, "fusion_lon": 0.0}, {"lat": 38.909607333333334, "is_disabled": 0, "type": "electric_scooter", "lon": -77.02109216666666, "bike_id": "daf9defedcd107c4d5f1a556b5655be9", "fusion_lat": 0.0, "name": "daf9defedcd107c4d5f1a556b5655be9", "is_reserved": 0, "rental_uris": {"android": "https://dc.lft.to/lastmile_qr_scan", "ios": "https://dc.lft.to/lastmile_qr_scan"}, "fusion_lon": 0.0}, {"lat": 38.87458866666667, "is_disabled": 0, "type": "electric_scooter", "lon": -77.004919, "bike_id": "504b2d228fe204ddc17248a4141465e8", "fusion_lat": 0.0, "name": "504b2d228fe204ddc17248a4141465e8", "is_reserved": 0, "rental_uris": {"android": "https://dc.lft.to/lastmile_qr_scan", "ios": "https://dc.lft.to/lastmile_qr_scan"}, "fusion_lon": 0.0}, {"lat": 38.88431383333333, "is_disabled": 0, "type": "electric_scooter", "lon": -76.95757833333333, "bike_id": "302b107d52a5747ca85e63573d0376ad", "fusion_lat": 0.0, "name": "302b107d52a5747ca85e63573d0376ad", "is_reserved": 0, "rental_uris": {"android": "https://dc.lft.to/lastmile_qr_scan", "ios": "https://dc.lft.to/lastmile_qr_scan"}, "fusion_lon": 0.0}, {"lat": 38.892208333333336, "is_disabled": 0, "type": "electric_scooter", "lon": -76.93299033333334, "bike_id": "75eaa2d632329d6c868c1f30ed92ecd4", "fusion_lat": 0.0, "name": "75eaa2d632329d6c868c1f30ed92ecd4", "is_reserved": 0, "rental_uris": {"android": "https://dc.lft.to/lastmile_qr_scan", "ios": "https://dc.lft.to/lastmile_qr_scan"}, "fusion_lon": 0.0}, {"lat": 38.90459, "is_disabled": 0, "type": "electric_scooter", "lon": -77.029491, "bike_id": "464472f120a860aa0b84f6217f0d0de5", "fusion_lat": 0.0, "name": "464472f120a860aa0b84f6217f0d0de5", "is_reserved": 0, "rental_uris": {"android": "https://dc.lft.to/lastmile_qr_scan", "ios": "https://dc.lft.to/lastmile_qr_scan"}, "fusion_lon": 0.0}, {"lat": 38.907722, "is_disabled": 0, "type": "electric_scooter", "lon": -77.038597, "bike_id": "fd27108a887940aa89d5c9715eda591a", "fusion_lat": 0.0, "name": "fd27108a887940aa89d5c9715eda591a", "is_reserved": 0, "rental_uris": {"android": "https://dc.lft.to/lastmile_qr_scan", "ios": "https://dc.lft.to/lastmile_qr_scan"}, "fusion_lon": 0.0}, {"lat": 38.88973383333333, "is_disabled": 0, "type": "electric_scooter", "lon": -76.93744316666667, "bike_id": "7a35163688468d4f09ab58e7849050f9", "fusion_lat": 0.0, "name": "7a35163688468d4f09ab58e7849050f9", "is_reserved": 0, "rental_uris": {"android": "https://dc.lft.to/lastmile_qr_scan", "ios": "https://dc.lft.to/lastmile_qr_scan"}, "fusion_lon": 0.0}, {"lat": 38.903883666666665, "is_disabled": 0, "type": "electric_scooter", "lon": -77.0438605, "bike_id": "e6110c43ff66ddfba1bb01d1e8cb2760", "fusion_lat": 0.0, "name": "e6110c43ff66ddfba1bb01d1e8cb2760", "is_reserved": 0, "rental_uris": {"android": "https://dc.lft.to/lastmile_qr_scan", "ios": "https://dc.lft.to/lastmile_qr_scan"}, "fusion_lon": 0.0}, {"lat": 38.945162833333335, "is_disabled": 0, "type": "electric_scooter", "lon": -77.02172733333333, "bike_id": "1253c2059bb6ff78baac1d844d1d8a09", "fusion_lat": 0.0, "name": "1253c2059bb6ff78baac1d844d1d8a09", "is_reserved": 0, "rental_uris": {"android": "https://dc.lft.to/lastmile_qr_scan", "ios": "https://dc.lft.to/lastmile_qr_scan"}, "fusion_lon": 0.0}, {"lat": 38.89773566666667, "is_disabled": 0, "type": "electric_scooter", "lon": -77.05152983333333, "bike_id": "bf6e23c5e30fc13c5f0cd4e8cfbc527d", "fusion_lat": 0.0, "name": "bf6e23c5e30fc13c5f0cd4e8cfbc527d", "is_reserved": 0, "rental_uris": {"android": "https://dc.lft.to/lastmile_qr_scan", "ios": "https://dc.lft.to/lastmile_qr_scan"}, "fusion_lon": 0.0}, {"lat": 38.897086, "is_disabled": 0, "type": "electric_scooter", "lon": -77.00728283333333, "bike_id": "dfb3a1db89f61e467ee04fd24673fcd7", "fusion_lat": 0.0, "name": "dfb3a1db89f61e467ee04fd24673fcd7", "is_reserved": 0, "rental_uris": {"android": "https://dc.lft.to/lastmile_qr_scan", "ios": "https://dc.lft.to/lastmile_qr_scan"}, "fusion_lon": 0.0}, {"lat": 38.917154, "is_disabled": 0, "type": "electric_scooter", "lon": -77.03860766666666, "bike_id": "73efa15a3e43269aac32b2ce9a76220a", "fusion_lat": 0.0, "name": "73efa15a3e43269aac32b2ce9a76220a", "is_reserved": 0, "rental_uris": {"android": "https://dc.lft.to/lastmile_qr_scan", "ios": "https://dc.lft.to/lastmile_qr_scan"}, "fusion_lon": 0.0}, {"lat": 38.9229905, "is_disabled": 0, "type": "electric_scooter", "lon": -77.04144616666666, "bike_id": "d5a3c938e092823da48d912946730a53", "fusion_lat": 0.0, "name": "d5a3c938e092823da48d912946730a53", "is_reserved": 0, "rental_uris": {"android": "https://dc.lft.to/lastmile_qr_scan", "ios": "https://dc.lft.to/lastmile_qr_scan"}, "fusion_lon": 0.0}, {"lat": 38.923063, "is_disabled": 0, "type": "electric_scooter", "lon": -77.03963016666667, "bike_id": "82ecf7cbaf092380140a6b088e14d441", "fusion_lat": 0.0, "name": "82ecf7cbaf092380140a6b088e14d441", "is_reserved": 0, "rental_uris": {"android": "https://dc.lft.to/lastmile_qr_scan", "ios": "https://dc.lft.to/lastmile_qr_scan"}, "fusion_lon": 0.0}, {"lat": 38.866491833333335, "is_disabled": 0, "type": "electric_scooter", "lon": -76.98891133333333, "bike_id": "7f2070af681ee37c4153aefe0f99ee7a", "fusion_lat": 0.0, "name": "7f2070af681ee37c4153aefe0f99ee7a", "is_reserved": 0, "rental_uris": {"android": "https://dc.lft.to/lastmile_qr_scan", "ios": "https://dc.lft.to/lastmile_qr_scan"}, "fusion_lon": 0.0}, {"lat": 38.92489583333333, "is_disabled": 0, "type": "electric_scooter", "lon": -77.05215383333334, "bike_id": "564cec2c40e5e22d6cc267e770e7c9d0", "fusion_lat": 0.0, "name": "564cec2c40e5e22d6cc267e770e7c9d0", "is_reserved": 0, "rental_uris": {"android": "https://dc.lft.to/lastmile_qr_scan", "ios": "https://dc.lft.to/lastmile_qr_scan"}, "fusion_lon": 0.0}, {"lat": 38.9057175, "is_disabled": 0, "type": "electric_scooter", "lon": -76.98875133333334, "bike_id": "639ab652ab94c5dec24eeee59d937ef4", "fusion_lat": 0.0, "name": "639ab652ab94c5dec24eeee59d937ef4", "is_reserved": 0, "rental_uris": {"android": "https://dc.lft.to/lastmile_qr_scan", "ios": "https://dc.lft.to/lastmile_qr_scan"}, "fusion_lon": 0.0}, {"lat": 38.91176033333333, "is_disabled": 0, "type": "electric_scooter", "lon": -77.03865466666667, "bike_id": "8b472cd0c30752d45455f5d417b72c61", "fusion_lat": 0.0, "name": "8b472cd0c30752d45455f5d417b72c61", "is_reserved": 0, "rental_uris": {"android": "https://dc.lft.to/lastmile_qr_scan", "ios": "https://dc.lft.to/lastmile_qr_scan"}, "fusion_lon": 0.0}, {"lat": 38.933488833333335, "is_disabled": 0, "type": "electric_scooter", "lon": -77.05865166666666, "bike_id": "e352468204aaa4225b736ad48c2ff8dd", "fusion_lat": 0.0, "name": "e352468204aaa4225b736ad48c2ff8dd", "is_reserved": 0, "rental_uris": {"android": "https://dc.lft.to/lastmile_qr_scan", "ios": "https://dc.lft.to/lastmile_qr_scan"}, "fusion_lon": 0.0}, {"lat": 38.9232085, "is_disabled": 0, "type": "electric_scooter", "lon": -77.02973983333334, "bike_id": "e63f58bf60ac41c6662f45b888fa2b5e", "fusion_lat": 0.0, "name": "e63f58bf60ac41c6662f45b888fa2b5e", "is_reserved": 0, "rental_uris": {"android": "https://dc.lft.to/lastmile_qr_scan", "ios": "https://dc.lft.to/lastmile_qr_scan"}, "fusion_lon": 0.0}, {"lat": 38.93831316666667, "is_disabled": 0, "type": "electric_scooter", "lon": -77.0604475, "bike_id": "3c352a60d0daeac2d4556a6fd2e1aba6", "fusion_lat": 0.0, "name": "3c352a60d0daeac2d4556a6fd2e1aba6", "is_reserved": 0, "rental_uris": {"android": "https://dc.lft.to/lastmile_qr_scan", "ios": "https://dc.lft.to/lastmile_qr_scan"}, "fusion_lon": 0.0}, {"lat": 38.8983915, "is_disabled": 0, "type": "electric_scooter", "lon": -76.93104866666667, "bike_id": "e936f05d1509a0d35b078403458b278f", "fusion_lat": 0.0, "name": "e936f05d1509a0d35b078403458b278f", "is_reserved": 0, "rental_uris": {"android": "https://dc.lft.to/lastmile_qr_scan", "ios": "https://dc.lft.to/lastmile_qr_scan"}, "fusion_lon": 0.0}, {"lat": 38.902329333333334, "is_disabled": 0, "type": "electric_scooter", "lon": -77.05333733333333, "bike_id": "0412294453ccecd15d7cb064a96172cc", "fusion_lat": 0.0, "name": "0412294453ccecd15d7cb064a96172cc", "is_reserved": 0, "rental_uris": {"android": "https://dc.lft.to/lastmile_qr_scan", "ios": "https://dc.lft.to/lastmile_qr_scan"}, "fusion_lon": 0.0}, {"lat": 38.936689333333334, "is_disabled": 0, "type": "electric_scooter", "lon": -77.03640583333333, "bike_id": "5e2a06774b0eacc69fc5b40b25317fe0", "fusion_lat": 0.0, "name": "5e2a06774b0eacc69fc5b40b25317fe0", "is_reserved": 0, "rental_uris": {"android": "https://dc.lft.to/lastmile_qr_scan", "ios": "https://dc.lft.to/lastmile_qr_scan"}, "fusion_lon": 0.0}, {"lat": 38.966058, "is_disabled": 0, "type": "electric_bike", "lon": -76.98338016666666, "bike_id": "d3cb096e02bec2a1ffef7c1fe21a1852", "fusion_lat": 0.0, "name": "d3cb096e02bec2a1ffef7c1fe21a1852", "is_reserved": 0, "rental_uris": {"android": "https://dc.lft.to/lastmile_qr_scan", "ios": "https://dc.lft.to/lastmile_qr_scan"}, "fusion_lon": 0.0}, {"lat": 38.93353483333333, "is_disabled": 0, "type": "electric_scooter", "lon": -77.07378716666666, "bike_id": "9ed7a2da0cd0c4f89e74358716bb2cdd", "fusion_lat": 0.0, "name": "9ed7a2da0cd0c4f89e74358716bb2cdd", "is_reserved": 0, "rental_uris": {"android": "https://dc.lft.to/lastmile_qr_scan", "ios": "https://dc.lft.to/lastmile_qr_scan"}, "fusion_lon": 0.0}, {"lat": 38.892427, "is_disabled": 0, "type": "electric_scooter", "lon": -77.0489445, "bike_id": "d7bb16a2e817ac951025ddf07cffdab8", "fusion_lat": 0.0, "name": "d7bb16a2e817ac951025ddf07cffdab8", "is_reserved": 0, "rental_uris": {"android": "https://dc.lft.to/lastmile_qr_scan", "ios": "https://dc.lft.to/lastmile_qr_scan"}, "fusion_lon": 0.0}, {"lat": 38.899823833333336, "is_disabled": 0, "type": "electric_bike", "lon": -76.98543466666666, "bike_id": "35bdd713b120ae5d853796cdc171174b", "fusion_lat": 0.0, "name": "35bdd713b120ae5d853796cdc171174b", "is_reserved": 0, "rental_uris": {"android": "https://dc.lft.to/lastmile_qr_scan", "ios": "https://dc.lft.to/lastmile_qr_scan"}, "fusion_lon": 0.0}, {"lat": 38.9616235, "is_disabled": 0, "type": "electric_scooter", "lon": -77.02789583333333, "bike_id": "241a758d808ac8ad9ce9305393967066", "fusion_lat": 0.0, "name": "241a758d808ac8ad9ce9305393967066", "is_reserved": 0, "rental_uris": {"android": "https://dc.lft.to/lastmile_qr_scan", "ios": "https://dc.lft.to/lastmile_qr_scan"}, "fusion_lon": 0.0}, {"lat": 38.95077233333333, "is_disabled": 0, "type": "electric_bike", "lon": -77.01198916666667, "bike_id": "f2886ebd2e61b6d91c7dbdc40ea8f7bb", "fusion_lat": 0.0, "name": "f2886ebd2e61b6d91c7dbdc40ea8f7bb", "is_reserved": 0, "rental_uris": {"android": "https://dc.lft.to/lastmile_qr_scan", "ios": "https://dc.lft.to/lastmile_qr_scan"}, "fusion_lon": 0.0}, {"lat": 38.9197775, "is_disabled": 0, "type": "electric_scooter", "lon": -77.0237895, "bike_id": "90e555dd7091086d5e920c6f7ddf9faa", "fusion_lat": 0.0, "name": "90e555dd7091086d5e920c6f7ddf9faa", "is_reserved": 0, "rental_uris": {"android": "https://dc.lft.to/lastmile_qr_scan", "ios": "https://dc.lft.to/lastmile_qr_scan"}, "fusion_lon": 0.0}, {"lat": 38.87933116666667, "is_disabled": 0, "type": "electric_scooter", "lon": -77.00746966666667, "bike_id": "e7793642e12be6334a423879ef0f072a", "fusion_lat": 0.0, "name": "e7793642e12be6334a423879ef0f072a", "is_reserved": 0, "rental_uris": {"android": "https://dc.lft.to/lastmile_qr_scan", "ios": "https://dc.lft.to/lastmile_qr_scan"}, "fusion_lon": 0.0}, {"lat": 38.90339433333333, "is_disabled": 0, "type": "electric_scooter", "lon": -76.970561, "bike_id": "e85b73bc155a62a32888d0859540485f", "fusion_lat": 0.0, "name": "e85b73bc155a62a32888d0859540485f", "is_reserved": 0, "rental_uris": {"android": "https://dc.lft.to/lastmile_qr_scan", "ios": "https://dc.lft.to/lastmile_qr_scan"}, "fusion_lon": 0.0}, {"lat": 38.892262, "is_disabled": 0, "type": "electric_scooter", "lon": -77.04867866666666, "bike_id": "531f6f0210affdbeea14d4a58797781b", "fusion_lat": 0.0, "name": "531f6f0210affdbeea14d4a58797781b", "is_reserved": 0, "rental_uris": {"android": "https://dc.lft.to/lastmile_qr_scan", "ios": "https://dc.lft.to/lastmile_qr_scan"}, "fusion_lon": 0.0}, {"lat": 38.862269166666664, "is_disabled": 0, "type": "electric_scooter", "lon": -76.98362516666667, "bike_id": "0db3bfa3a03a4e163a725a5704f5d31f", "fusion_lat": 0.0, "name": "0db3bfa3a03a4e163a725a5704f5d31f", "is_reserved": 0, "rental_uris": {"android": "https://dc.lft.to/lastmile_qr_scan", "ios": "https://dc.lft.to/lastmile_qr_scan"}, "fusion_lon": 0.0}, {"lat": 38.898519666666665, "is_disabled": 0, "type": "electric_scooter", "lon": -77.0295665, "bike_id": "d679e3efa4a2e3a18a60968e3aaf8ac2", "fusion_lat": 0.0, "name": "d679e3efa4a2e3a18a60968e3aaf8ac2", "is_reserved": 0, "rental_uris": {"android": "https://dc.lft.to/lastmile_qr_scan", "ios": "https://dc.lft.to/lastmile_qr_scan"}, "fusion_lon": 0.0}, {"lat": 38.94080916666667, "is_disabled": 0, "type": "electric_bike", "lon": -77.021207, "bike_id": "032f71924394b87b57cfe514e37aadb1", "fusion_lat": 0.0, "name": "032f71924394b87b57cfe514e37aadb1", "is_reserved": 0, "rental_uris": {"android": "https://dc.lft.to/lastmile_qr_scan", "ios": "https://dc.lft.to/lastmile_qr_scan"}, "fusion_lon": 0.0}, {"lat": 38.9168205, "is_disabled": 0, "type": "electric_scooter", "lon": -77.029448, "bike_id": "30d91e2edbc56bd339e7339e96f513c9", "fusion_lat": 0.0, "name": "30d91e2edbc56bd339e7339e96f513c9", "is_reserved": 0, "rental_uris": {"android": "https://dc.lft.to/lastmile_qr_scan", "ios": "https://dc.lft.to/lastmile_qr_scan"}, "fusion_lon": 0.0}, {"lat": 38.8828175, "is_disabled": 0, "type": "electric_bike", "lon": -76.93240533333334, "bike_id": "5382f39822a369afb462844b047fc95e", "fusion_lat": 0.0, "name": "5382f39822a369afb462844b047fc95e", "is_reserved": 0, "rental_uris": {"android": "https://dc.lft.to/lastmile_qr_scan", "ios": "https://dc.lft.to/lastmile_qr_scan"}, "fusion_lon": 0.0}, {"lat": 38.866138, "is_disabled": 0, "type": "electric_scooter", "lon": -76.98664, "bike_id": "7c7a7837e5b10e09a9c909b94b96bb34", "fusion_lat": 0.0, "name": "7c7a7837e5b10e09a9c909b94b96bb34", "is_reserved": 0, "rental_uris": {"android": "https://dc.lft.to/lastmile_qr_scan", "ios": "https://dc.lft.to/lastmile_qr_scan"}, "fusion_lon": 0.0}, {"lat": 38.915605666666664, "is_disabled": 0, "type": "electric_scooter", "lon": -77.00973433333333, "bike_id": "33a3bf48063a7289632d5d9bcd6aaac2", "fusion_lat": 0.0, "name": "33a3bf48063a7289632d5d9bcd6aaac2", "is_reserved": 0, "rental_uris": {"android": "https://dc.lft.to/lastmile_qr_scan", "ios": "https://dc.lft.to/lastmile_qr_scan"}, "fusion_lon": 0.0}, {"lat": 38.92241583333333, "is_disabled": 0, "type": "electric_scooter", "lon": -77.02915483333334, "bike_id": "ae962624546284323db37d4d2fb65a40", "fusion_lat": 0.0, "name": "ae962624546284323db37d4d2fb65a40", "is_reserved": 0, "rental_uris": {"android": "https://dc.lft.to/lastmile_qr_scan", "ios": "https://dc.lft.to/lastmile_qr_scan"}, "fusion_lon": 0.0}, {"lat": 38.908840833333336, "is_disabled": 0, "type": "electric_scooter", "lon": -77.03663016666667, "bike_id": "312aa75443b15b00ad2748b6e99aeabc", "fusion_lat": 0.0, "name": "312aa75443b15b00ad2748b6e99aeabc", "is_reserved": 0, "rental_uris": {"android": "https://dc.lft.to/lastmile_qr_scan", "ios": "https://dc.lft.to/lastmile_qr_scan"}, "fusion_lon": 0.0},