{"data": {"bikes": [{"lon": -77.03473833333334, "bike_id": "a919665c20972c9655252018ef630c01", "lat": 38.91693333333333, "fusion_lon": 0.0, "fusion_lat": 0.0, "type": "electric_scooter", "name": "a919665c20972c9655252018ef630c01", "is_disabled": 0, "rental_uris": {"ios": "https://dc.lft.to/lastmile_qr_scan", "android": "https://dc.lft.to/lastmile_qr_scan"}, "is_reserved": 0}, {"lon": -76.9904875, "bike_id": "52ab4c7e4e57d6a56b41ede014fb8c64", "lat": 38.86375916666667, "fusion_lon": 0.0, "fusion_lat": 0.0, "type": "electric_scooter", "name": "52ab4c7e4e57d6a56b41ede014fb8c64", "is_disabled": 0, "rental_uris": {"ios": "https://dc.lft.to/lastmile_qr_scan", "android": "https://dc.lft.to/lastmile_qr_scan"}, "is_reserved": 0}, {"lon": -77.01867133333333, "bike_id": "02b3ec2d22dc28bd2eb187d6254c845f", "lat": 38.9302015, "fusion_lon": 0.0, "fusion_lat": 0.0, "type": "electric_bike", "name": "02b3ec2d22dc28bd2eb187d6254c845f", "is_disabled": 0, "rental_uris": {"ios": "https://dc.lft.to/lastmile_qr_scan", "android": "https://dc.lft.to/lastmile_qr_scan"}, "is_reserved": 0}, {"lon": -77.02952466666666, "bike_id": "e86a546ee8bc26041d51501d667e9f18", "lat": 38.91687066666667, "fusion_lon": 0.0, "fusion_lat": 0.0, "type": "electric_scooter", "name": "e86a546ee8bc26041d51501d667e9f18", "is_disabled": 0, "rental_uris": {"ios": "https://dc.lft.to/lastmile_qr_scan", "android": "https://dc.lft.to/lastmile_qr_scan"}, "is_reserved": 0}, {"lon": -77.03274, "bike_id": "0ee7c0d7d3d99fb42a1c619c24b856b4", "lat": 38.92932783333333, "fusion_lon": 0.0, "fusion_lat": 0.0, "type": "electric_scooter", "name": "0ee7c0d7d3d99fb42a1c619c24b856b4", "is_disabled": 0, "rental_uris": {"ios": "https://dc.lft.to/lastmile_qr_scan", "android": "https://dc.lft.to/lastmile_qr_scan"}, "is_reserved": 0}, {"lon": -77.17834533333334, "bike_id": "d5cbf7691ece2b10d2fcc3338e5e3053", "lat": 39.088584833333336, "fusion_lon": 0.0, "fusion_lat": 0.0, "type": "electric_bike", "name": "d5cbf7691ece2b10d2fcc3338e5e3053", "is_disabled": 0, "rental_uris": {"ios": "https://dc.lft.to/lastmile_qr_scan", "android": "https://dc.lft.to/lastmile_qr_scan"}, "is_reserved": 0}, {"lon": -77.0365785, "bike_id": "f6e913db5859eddb7dfbb2db51814d50", "lat": 38.93618933333333, "fusion_lon": 0.0, "fusion_lat": 0.0, "type": "electric_scooter", "name": "f6e913db5859eddb7dfbb2db51814d50", "is_disabled": 0, "rental_uris": {"ios": "https://dc.lft.to/lastmile_qr_scan", "android": "https://dc.lft.to/lastmile_qr_scan"}, "is_reserved": 0}, {"lon": -77.07862466666667, "bike_id": "946d2995a387acd57809741b7a406475", "lat": 38.9246145, "fusion_lon": 0.0, "fusion_lat": 0.0, "type": "electric_scooter", "name": "946d2995a387acd57809741b7a406475", "is_disabled": 0, "rental_uris": {"ios": "https://dc.lft.to/lastmile_qr_scan", "android": "https://dc.lft.to/lastmile_qr_scan"}, "is_reserved": 0}, {"lon": -77.03285116666666, "bike_id": "a333e449dfb4c232fb846f6ca846441b", "lat": 38.956454666666666, "fusion_lon": 0.0, "fusion_lat": 0.0, "type": "electric_scooter", "name": "a333e449dfb4c232fb846f6ca846441b", "is_disabled": 0, "rental_uris": {"ios": "https://dc.lft.to/lastmile_qr_scan", "android": "https://dc.lft.to/lastmile_qr_scan"}, "is_reserved": 0}, {"lon": -77.11780916666666, "bike_id": "5720df71fdba9b94518a92d1a08e2059", "lat": 39.054901666666666, "fusion_lon": 0.0, "fusion_lat": 0.0, "type": "electric_bike", "name": "5720df71fdba9b94518a92d1a08e2059", "is_disabled": 0, "rental_uris": {"ios": "https://dc.lft.to/lastmile_qr_scan", "android": "https://dc.lft.to/lastmile_qr_scan"}, "is_reserved": 0}, {"lon": -77.056106, "bike_id": "585b5b97ff0ce80cf8e36cc39615c1ae", "lat": 38.93701633333333, "fusion_lon": 0.0, "fusion_lat": 0.0, "type": "electric_bike", "name": "585b5b97ff0ce80cf8e36cc39615c1ae", "is_disabled": 0, "rental_uris": {"ios": "https://dc.lft.to/lastmile_qr_scan", "android": "https://dc.lft.to/lastmile_qr_scan"}, "is_reserved": 0}, {"lon": -77.032202, "bike_id": "534e8b724f7c02b22855970682a168e1", "lat": 38.919385, "fusion_lon": 0.0, "fusion_lat": 0.0, "type": "electric_scooter", "name": "534e8b724f7c02b22855970682a168e1", "is_disabled": 0, "rental_uris": {"ios": "https://dc.lft.to/lastmile_qr_scan", "android": "https://dc.lft.to/lastmile_qr_scan"}, "is_reserved": 0}, {"lon": -76.9937445, "bike_id": "2ce722943bf000465681467c9e0ee815", "lat": 38.9718555, "fusion_lon": 0.0, "fusion_lat": 0.0, "type": "electric_bike", "name": "2ce722943bf000465681467c9e0ee815", "is_disabled": 0, "rental_uris": {"ios": "https://dc.lft.to/lastmile_qr_scan", "android": "https://dc.lft.to/lastmile_qr_scan"}, "is_reserved": 0}, {"lon": -77.04874633333333, "bike_id": "57b193514a72e99673597df6cbbfcc9a", "lat": 38.89233566666667, "fusion_lon": 0.0, "fusion_lat": 0.0, "type": "electric_scooter", "name": "57b193514a72e99673597df6cbbfcc9a", "is_disabled": 0, "rental_uris": {"ios": "https://dc.lft.to/lastmile_qr_scan", "android": "https://dc.lft.to/lastmile_qr_scan"}, "is_reserved": 0}, {"lon": -77.0130085, "bike_id": "f18b23fd83e76a8660f7f06615d5e376", "lat": 38.9432455, "fusion_lon": 0.0, "fusion_lat": 0.0, "type": "electric_scooter", "name": "f18b23fd83e76a8660f7f06615d5e376", "is_disabled": 0, "rental_uris": {"ios": "https://dc.lft.to/lastmile_qr_scan", "android": "https://dc.lft.to/lastmile_qr_scan"}, "is_reserved": 0}, {"lon": -76.98097733333333, "bike_id": "52f9b3be90edcbd925b80a1f1dcb44b8", "lat": 38.90530616666667, "fusion_lon": 0.0, "fusion_lat": 0.0, "type": "electric_scooter", "name": "52f9b3be90edcbd925b80a1f1dcb44b8", "is_disabled": 0, "rental_uris": {"ios": "https://dc.lft.to/lastmile_qr_scan", "android": "https://dc.lft.to/lastmile_qr_scan"}, "is_reserved": 0}, {"lon": -77.07001166666667, "bike_id": "f7312b40868693854ad3f5431e752aee", "lat": 38.958500666666666, "fusion_lon": 0.0, "fusion_lat": 0.0, "type": "electric_scooter", "name": "f7312b40868693854ad3f5431e752aee", "is_disabled": 0, "rental_uris": {"ios": "https://dc.lft.to/lastmile_qr_scan", "android": "https://dc.lft.to/lastmile_qr_scan"}, "is_reserved": 0}, {"lon": -77.03666983333333, "bike_id": "211ab31111f5791fca89092e8096e145", "lat": 38.923297, "fusion_lon": 0.0, "fusion_lat": 0.0, "type": "electric_scooter", "name": "211ab31111f5791fca89092e8096e145", "is_disabled": 0, "rental_uris": {"ios": "https://dc.lft.to/lastmile_qr_scan", "android": "https://dc.lft.to/lastmile_qr_scan"}, "is_reserved": 0}, {"lon": -77.0392015, "bike_id": "0f64b9ef84be87800ad9f0b047cb9608", "lat": 38.90052016666667, "fusion_lon": 0.0, "fusion_lat": 0.0, "type": "electric_scooter", "name": "0f64b9ef84be87800ad9f0b047cb9608", "is_disabled": 0, "rental_uris": {"ios": "https://dc.lft.to/lastmile_qr_scan", "android": "https://dc.lft.to/lastmile_qr_scan"}, "is_reserved": 0}, {"lon": -76.99951233333333, "bike_id": "faee2a44881d9322d5b521890b7adb59", "lat": 38.89828033333333, "fusion_lon": 0.0, "fusion_lat": 0.0, "type": "electric_scooter", "name": "faee2a44881d9322d5b521890b7adb59", "is_disabled": 0, "rental_uris": {"ios": "https://dc.lft.to/lastmile_qr_scan", "android": "https://dc.lft.to/lastmile_qr_scan"}, "is_reserved": 0}, {"lon": -77.00574266666666, "bike_id": "fe2699e0af82585388443fdbfb2210d4", "lat": 38.8359155, "fusion_lon": 0.0, "fusion_lat": 0.0, "type": "electric_scooter", "name": "fe2699e0af82585388443fdbfb2210d4", "is_disabled": 0, "rental_uris": {"ios": "https://dc.lft.to/lastmile_qr_scan", "android": "https://dc.lft.to/lastmile_qr_scan"}, "is_reserved": 0}, {"lon": -77.04200833333333, "bike_id": "a117b60eaadcaec68c4b7d0b42ec189a", "lat": 38.92100083333333, "fusion_lon": 0.0, "fusion_lat": 0.0, "type": "electric_scooter", "name": "a117b60eaadcaec68c4b7d0b42ec189a", "is_disabled": 0, "rental_uris": {"ios": "https://dc.lft.to/lastmile_qr_scan", "android": "https://dc.lft.to/lastmile_qr_scan"}, "is_reserved": 0}, {"lon": -77.05135566666667, "bike_id": "07d5d0e43e7709a15629c57ef5728425", "lat": 38.905295833333334, "fusion_lon": 0.0, "fusion_lat": 0.0, "type": "electric_scooter", "name": "07d5d0e43e7709a15629c57ef5728425", "is_disabled": 0, "rental_uris": {"ios": "https://dc.lft.to/lastmile_qr_scan", "android": "https://dc.lft.to/lastmile_qr_scan"}, "is_reserved": 0}, {"lon": -77.07106683333333, "bike_id": "b1e9a88241eb1c53babcaf86ca400022", "lat": 38.919752833333334, "fusion_lon": 0.0, "fusion_lat": 0.0, "type": "electric_scooter", "name": "b1e9a88241eb1c53babcaf86ca400022", "is_disabled": 0, "rental_uris": {"ios": "https://dc.lft.to/lastmile_qr_scan", "android": "https://dc.lft.to/lastmile_qr_scan"}, "is_reserved": 0}, {"lon": -77.01779933333333, "bike_id": "c5bfff5a60d530da9a73c33f48a5fb2b", "lat": 38.9040785, "fusion_lon": 0.0, "fusion_lat": 0.0, "type": "electric_scooter", "name": "c5bfff5a60d530da9a73c33f48a5fb2b", "is_disabled": 0, "rental_uris": {"ios": "https://dc.lft.to/lastmile_qr_scan", "android": "https://dc.lft.to/lastmile_qr_scan"}, "is_reserved": 0}, {"lon": -76.9880565, "bike_id": "501b52a00507ed70feab46f14793c95a", "lat": 38.8673145, "fusion_lon": 0.0, "fusion_lat": 0.0, "type": "electric_scooter", "name": "501b52a00507ed70feab46f14793c95a", "is_disabled": 0, "rental_uris": {"ios": "https://dc.lft.to/lastmile_qr_scan", "android": "https://dc.lft.to/lastmile_qr_scan"}, "is_reserved": 0}, {"lon": -76.98857283333334, "bike_id": "727ee43a81395f55e7d0a41cd80a3330", "lat": 38.891713333333335, "fusion_lon": 0.0, "fusion_lat": 0.0, "type": "electric_scooter", "name": "727ee43a81395f55e7d0a41cd80a3330", "is_disabled": 0, "rental_uris": {"ios": "https://dc.lft.to/lastmile_qr_scan", "android": "https://dc.lft.to/lastmile_qr_scan"}, "is_reserved": 0}, {"lon": -77.03830666666667, "bike_id": "a3c8364cb9c546559b9e4cd06df6b7ff", "lat": 38.90677216666667, "fusion_lon": 0.0, "fusion_lat": 0.0, "type": "electric_scooter", "name": "a3c8364cb9c546559b9e4cd06df6b7ff", "is_disabled": 0, "rental_uris": {"ios": "https://dc.lft.to/lastmile_qr_scan", "android": "https://dc.lft.to/lastmile_qr_scan"}, "is_reserved": 0}, {"lon": -77.02451166666667, "bike_id": "49fc6d3e250180ac4ed33724c08c0bc4", "lat": 38.925061166666666, "fusion_lon": 0.0, "fusion_lat": 0.0, "type": "electric_scooter", "name": "49fc6d3e250180ac4ed33724c08c0bc4", "is_disabled": 0, "rental_uris": {"ios": "https://dc.lft.to/lastmile_qr_scan", "android": "https://dc.lft.to/lastmile_qr_scan"}, "is_reserved": 0}, {"lon": -77.02416166666667, "bike_id": "34c8e8e2ede3b5745d6ec27a11ef771f", "lat": 38.892312, "fusion_lon": 0.0, "fusion_lat": 0.0, "type": "electric_scooter", "name": "34c8e8e2ede3b5745d6ec27a11ef771f", "is_disabled": 0, "rental_uris": {"ios": "https://dc.lft.to/lastmile_qr_scan", "android": "https://dc.lft.to/lastmile_qr_scan"}, "is_reserved": 0}, {"lon": -76.97667583333333, "bike_id": "b29b4628899cb5a44c8fea301d763547", "lat": 38.952443, "fusion_lon": 0.0, "fusion_lat": 0.0, "type": "electric_bike", "name": "b29b4628899cb5a44c8fea301d763547", "is_disabled": 0, "rental_uris": {"ios": "https://dc.lft.to/lastmile_qr_scan", "android": "https://dc.lft.to/lastmile_qr_scan"}, "is_reserved": 0}, {"lon": -77.02383716666667, "bike_id": "9f8dcee3e8d901ca95b48627ee8933ab", "lat": 38.90722933333333, "fusion_lon": 0.0, "fusion_lat": 0.0, "type": "electric_scooter", "name": "9f8dcee3e8d901ca95b48627ee8933ab", "is_disabled": 0, "rental_uris": {"ios": "https://dc.lft.to/lastmile_qr_scan", "android": "https://dc.lft.to/lastmile_qr_scan"}, "is_reserved": 0}, {"lon": -76.9815155, "bike_id": "c5dc5436c4b82f79e077d3168cccc7cc", "lat": 38.90322033333333, "fusion_lon": 0.0, "fusion_lat": 0.0, "type": "electric_scooter", "name": "c5dc5436c4b82f79e077d3168cccc7cc", "is_disabled": 0, "rental_uris": {"ios": "https://dc.lft.to/lastmile_qr_scan", "android": "https://dc.lft.to/lastmile_qr_scan"}, "is_reserved": 0}, {"lon": -76.99458166666666, "bike_id": "bfd14af11298c48502ca3984e7fa2658", "lat": 38.940665333333335, "fusion_lon": 0.0, "fusion_lat": 0.0, "type": "electric_scooter", "name": "bfd14af11298c48502ca3984e7fa2658", "is_disabled": 0, "rental_uris": {"ios": "https://dc.lft.to/lastmile_qr_scan", "android": "https://dc.lft.to/lastmile_qr_scan"}, "is_reserved": 0}, {"lon": -77.0790725, "bike_id": "18495034fce12781859eedbcc80dc3f6", "lat": 38.9312145, "fusion_lon": 0.0, "fusion_lat": 0.0, "type": "electric_scooter", "name": "18495034fce12781859eedbcc80dc3f6", "is_disabled": 0, "rental_uris": {"ios": "https://dc.lft.to/lastmile_qr_scan", "android": "https://dc.lft.to/lastmile_qr_scan"}, "is_reserved": 0}, {"lon": -77.0516785, "bike_id": "9c2369de47dae6abe27354ea0d1f8eb7", "lat": 38.9234525, "fusion_lon": 0.0, "fusion_lat": 0.0, "type": "electric_scooter", "name": "9c2369de47dae6abe27354ea0d1f8eb7", "is_disabled": 0, "rental_uris": {"ios": "https://dc.lft.to/lastmile_qr_scan", "android": "https://dc.lft.to/lastmile_qr_scan"}, "is_reserved": 0}, {"lon": -76.99071183333334, "bike_id": "437180de7f97e0bd6e31b81a8dc6c3ae", "lat": 38.89810216666667, "fusion_lon": 0.0, "fusion_lat": 0.0, "type": "electric_bike", "name": "437180de7f97e0bd6e31b81a8dc6c3ae", "is_disabled": 0, "rental_uris": {"ios": "https://dc.lft.to/lastmile_qr_scan", "android": "https://dc.lft.to/lastmile_qr_scan"}, "is_reserved": 0}, {"lon": -76.97241183333334, "bike_id": "62517706367497193fb3b3adcb7a11a3", "lat": 38.90341733333333, "fusion_lon": 0.0, "fusion_lat": 0.0, "type": "electric_scooter", "name": "62517706367497193fb3b3adcb7a11a3", "is_disabled": 0, "rental_uris": {"ios": "https://dc.lft.to/lastmile_qr_scan", "android": "https://dc.lft.to/lastmile_qr_scan"}, "is_reserved": 0}, {"lon": -77.03829633333334, "bike_id": "b4a6e50924c43aadc12f46ecaa0c9309", "lat": 38.91114, "fusion_lon": 0.0, "fusion_lat": 0.0, "type": "electric_scooter", "name": "b4a6e50924c43aadc12f46ecaa0c9309", "is_disabled": 0, "rental_uris": {"ios": "https://dc.lft.to/lastmile_qr_scan", "android": "https://dc.lft.to/lastmile_qr_scan"}, "is_reserved": 0}, {"lon": -76.98333933333333, "bike_id": "b9031772285ebe7dfc57558de02fd838", "lat": 38.895446, "fusion_lon": 0.0, "fusion_lat": 0.0, "type": "electric_scooter", "name": "b9031772285ebe7dfc57558de02fd838", "is_disabled": 0, "rental_uris": {"ios": "https://dc.lft.to/lastmile_qr_scan", "android": "https://dc.lft.to/lastmile_qr_scan"}, "is_reserved": 0}, {"lon": -77.0198, "bike_id": "d5eeee726da29e32f3a10f14ebf92597", "lat": 38.88574933333334, "fusion_lon": 0.0, "fusion_lat": 0.0, "type": "electric_scooter", "name": "d5eeee726da29e32f3a10f14ebf92597", "is_disabled": 0, "rental_uris": {"ios": "https://dc.lft.to/lastmile_qr_scan", "android": "https://dc.lft.to/lastmile_qr_scan"}, "is_reserved": 0}, {"lon": -76.99711883333333, "bike_id": "aa5ea146d0efc887f8cd3f46727916cc", "lat": 38.8925135, "fusion_lon": 0.0, "fusion_lat": 0.0, "type": "electric_scooter", "name": "aa5ea146d0efc887f8cd3f46727916cc", "is_disabled": 0, "rental_uris": {"ios": "https://dc.lft.to/lastmile_qr_scan", "android": "https://dc.lft.to/lastmile_qr_scan"}, "is_reserved": 0}, {"lon": -77.02302366666666, "bike_id": "747b9b97ec82552fbf730328aeef03c7", "lat": 38.916675833333336, "fusion_lon": 0.0, "fusion_lat": 0.0, "type": "electric_scooter", "name": "747b9b97ec82552fbf730328aeef03c7", "is_disabled": 0, "rental_uris": {"ios": "https://dc.lft.to/lastmile_qr_scan", "android": "https://dc.lft.to/lastmile_qr_scan"}, "is_reserved": 0}, {"lon": -77.02981066666666, "bike_id": "c37bd67dd1e70c1464bbc0be576fc5e3", "lat": 38.94520766666667, "fusion_lon": 0.0, "fusion_lat": 0.0, "type": "electric_scooter", "name": "c37bd67dd1e70c1464bbc0be576fc5e3", "is_disabled": 0, "rental_uris": {"ios": "https://dc.lft.to/lastmile_qr_scan", "android": "https://dc.lft.to/lastmile_qr_scan"}, "is_reserved": 0}, {"lon": -77.03828083333333, "bike_id": "40c4422aefc20c58e2e23cfbe0d05db6", "lat": 38.91110283333333, "fusion_lon": 0.0, "fusion_lat": 0.0, "type": "electric_scooter", "name": "40c4422aefc20c58e2e23cfbe0d05db6", "is_disabled": 0, "rental_uris": {"ios": "https://dc.lft.to/lastmile_qr_scan", "android": "https://dc.lft.to/lastmile_qr_scan"}, "is_reserved": 0}, {"lon": -77.01513483333333, "bike_id": "f7cc83b80b8e8d74ba480f03163588d0", "lat": 38.9186915, "fusion_lon": 0.0, "fusion_lat": 0.0, "type": "electric_scooter", "name": "f7cc83b80b8e8d74ba480f03163588d0", "is_disabled": 0, "rental_uris": {"ios": "https://dc.lft.to/lastmile_qr_scan", "android": "https://dc.lft.to/lastmile_qr_scan"}, "is_reserved": 0}, {"lon": -77.01835033333333, "bike_id": "3e8cbaba815cdd63e69836ef748f784e", "lat": 38.909318999999996, "fusion_lon": 0.0, "fusion_lat": 0.0, "type": "electric_scooter", "name": "3e8cbaba815cdd63e69836ef748f784e", "is_disabled": 0, "rental_uris": {"ios": "https://dc.lft.to/lastmile_qr_scan", "android": "https://dc.lft.to/lastmile_qr_scan"}, "is_reserved": 0}, {"lon": -77.048557, "bike_id": "fee8f988319197158dd5081c0181d22a", "lat": 38.905947, "fusion_lon": 0.0, "fusion_lat": 0.0, "type": "electric_scooter", "name": "fee8f988319197158dd5081c0181d22a", "is_disabled": 0, "rental_uris": {"ios": "https://dc.lft.to/lastmile_qr_scan", "android": "https://dc.lft.to/lastmile_qr_scan"}, "is_reserved": 0}, {"lon": -77.0172735, "bike_id": "2c177feb9a6d3517bac01d61f7a904f6", "lat": 38.90487066666667, "fusion_lon": 0.0, "fusion_lat": 0.0, "type": "electric_scooter", "name": "2c177feb9a6d3517bac01d61f7a904f6", "is_disabled": 0, "rental_uris": {"ios": "https://dc.lft.to/lastmile_qr_scan", "android": "https://dc.lft.to/lastmile_qr_scan"}, "is_reserved": 0}, {"lon": -77.034262, "bike_id": "84e86a23c466eb1567f1fa2ae13cae5f", "lat": 38.919293, "fusion_lon": 0.0, "fusion_lat": 0.0, "type": "electric_scooter", "name": "84e86a23c466eb1567f1fa2ae13cae5f", "is_disabled": 0, "rental_uris": {"ios": "https://dc.lft.to/lastmile_qr_scan", "android": "https://dc.lft.to/lastmile_qr_scan"}, "is_reserved": 0}, {"lon": -77.025323, "bike_id": "b60ca11f9c1d3b4bdaebeae6f767113f", "lat": 38.927407333333335, "fusion_lon": 0.0, "fusion_lat": 0.0, "type": "electric_scooter", "name": "b60ca11f9c1d3b4bdaebeae6f767113f", "is_disabled": 0, "rental_uris": {"ios": "https://dc.lft.to/lastmile_qr_scan", "android": "https://dc.lft.to/lastmile_qr_scan"}, "is_reserved": 0}, {"lon": -77.04231133333333, "bike_id": "ce687dcc888c1c47015c94df01e2954e", "lat": 38.91705666666667, "fusion_lon": 0.0, "fusion_lat": 0.0, "type": "electric_scooter", "name": "ce687dcc888c1c47015c94df01e2954e", "is_disabled": 0, "rental_uris": {"ios": "https://dc.lft.to/lastmile_qr_scan", "android": "https://dc.lft.to/lastmile_qr_scan"}, "is_reserved": 0}, {"lon": -77.01008316666666, "bike_id": "bcd1a070de5eab64134cf72e3fac6c06", "lat": 38.89475083333333, "fusion_lon": 0.0, "fusion_lat": 0.0, "type": "electric_scooter", "name": "bcd1a070de5eab64134cf72e3fac6c06", "is_disabled": 0, "rental_uris": {"ios": "https://dc.lft.to/lastmile_qr_scan", "android": "https://dc.lft.to/lastmile_qr_scan"}, "is_reserved": 0}, {"lon": -77.02630533333334, "bike_id": "6526587214b1fc5ada9d7595195db581", "lat": 38.96232366666667, "fusion_lon": 0.0, "fusion_lat": 0.0, "type": "electric_bike", "name": "6526587214b1fc5ada9d7595195db581", "is_disabled": 0, "rental_uris": {"ios": "https://dc.lft.to/lastmile_qr_scan", "android": "https://dc.lft.to/lastmile_qr_scan"}, "is_reserved": 0}, {"lon": -77.01926316666666, "bike_id": "d1022b185a06d714f2f9683fd15f4ee8", "lat": 38.88639366666666, "fusion_lon": 0.0, "fusion_lat": 0.0, "type": "electric_scooter", "name": "d1022b185a06d714f2f9683fd15f4ee8", "is_disabled": 0, "rental_uris": {"ios": "https://dc.lft.to/lastmile_qr_scan", "android": "https://dc.lft.to/lastmile_qr_scan"}, "is_reserved": 0}, {"lon": -76.9953305, "bike_id": "bb39cd2e40b4db632edefcb4c79b9670", "lat": 38.883753666666664, "fusion_lon": 0.0, "fusion_lat": 0.0, "type": "electric_scooter", "name": "bb39cd2e40b4db632edefcb4c79b9670", "is_disabled": 0, "rental_uris": {"ios": "https://dc.lft.to/lastmile_qr_scan", "android": "https://dc.lft.to/lastmile_qr_scan"}, "is_reserved": 0}, {"lon": -77.0095575, "bike_id": "a9f84d733e392cb0601220ab7460b362", "lat": 38.92137566666667, "fusion_lon": 0.0, "fusion_lat": 0.0, "type": "electric_scooter", "name": "a9f84d733e392cb0601220ab7460b362", "is_disabled": 0, "rental_uris": {"ios": "https://dc.lft.to/lastmile_qr_scan", "android": "https://dc.lft.to/lastmile_qr_scan"}, "is_reserved": 0}, {"lon": -76.99916083333333, "bike_id": "77b931a7ece1b20113c4874916e612c1", "lat": 38.8897685, "fusion_lon": 0.0, "fusion_lat": 0.0, "type": "electric_scooter", "name": "77b931a7ece1b20113c4874916e612c1", "is_disabled": 0, "rental_uris": {"ios": "https://dc.lft.to/lastmile_qr_scan", "android": "https://dc.lft.to/lastmile_qr_scan"}, "is_reserved": 0}, {"lon": -77.02703833333334, "bike_id": "27e32eaa526a357c03eb79b275bccff3", "lat": 38.89762283333334, "fusion_lon": 0.0, "fusion_lat": 0.0, "type": "electric_scooter", "name": "27e32eaa526a357c03eb79b275bccff3", "is_disabled": 0, "rental_uris": {"ios": "https://dc.lft.to/lastmile_qr_scan", "android": "https://dc.lft.to/lastmile_qr_scan"}, "is_reserved": 0}, {"lon": -77.031881, "bike_id": "c67a176ac1a45ef01458a78688c3059a", "lat": 38.9096845, "fusion_lon": 0.0, "fusion_lat": 0.0, "type": "electric_scooter", "name": "c67a176ac1a45ef01458a78688c3059a", "is_disabled": 0, "rental_uris": {"ios": "https://dc.lft.to/lastmile_qr_scan", "android": "https://dc.lft.to/lastmile_qr_scan"}, "is_reserved": 0}, {"lon": -77.03660166666667, "bike_id": "dad97f05bfd562b52215104e7a2404a2", "lat": 38.933273, "fusion_lon": 0.0, "fusion_lat": 0.0, "type": "electric_scooter", "name": "dad97f05bfd562b52215104e7a2404a2", "is_disabled": 0, "rental_uris": {"ios": "https://dc.lft.to/lastmile_qr_scan", "android": "https://dc.lft.to/lastmile_qr_scan"}, "is_reserved": 0}, {"lon": -76.98244833333334, "bike_id": "2f61951702406c1fd9578419c65ca377", "lat": 38.864585166666664, "fusion_lon": 0.0, "fusion_lat": 0.0, "type": "electric_scooter", "name": "2f61951702406c1fd9578419c65ca377", "is_disabled": 0, "rental_uris": {"ios": "https://dc.lft.to/lastmile_qr_scan", "android": "https://dc.lft.to/lastmile_qr_scan"}, "is_reserved": 0}, {"lon": -77.0334545, "bike_id": "f46981319bee0517c1c6b12b1d580600", "lat": 38.93512233333333, "fusion_lon": 0.0, "fusion_lat": 0.0, "type": "electric_scooter", "name": "f46981319bee0517c1c6b12b1d580600", "is_disabled": 0, "rental_uris": {"ios": "https://dc.lft.to/lastmile_qr_scan", "android": "https://dc.lft.to/lastmile_qr_scan"}, "is_reserved": 0}, {"lon": -77.04689866666666, "bike_id": "c3c10c0c5f48ee752e8632d2c4ad4ecc", "lat": 38.919004666666666, "fusion_lon": 0.0, "fusion_lat": 0.0, "type": "electric_scooter", "name": "c3c10c0c5f48ee752e8632d2c4ad4ecc", "is_disabled": 0, "rental_uris": {"ios": "https://dc.lft.to/lastmile_qr_scan", "android": "https://dc.lft.to/lastmile_qr_scan"}, "is_reserved": 0}, {"lon": -77.0366235, "bike_id": "5f0c72224008394bb0aae240b41013ee", "lat": 38.933373333333336, "fusion_lon": 0.0, "fusion_lat": 0.0, "type": "electric_scooter", "name": "5f0c72224008394bb0aae240b41013ee", "is_disabled": 0, "rental_uris": {"ios": "https://dc.lft.to/lastmile_qr_scan", "android": "https://dc.lft.to/lastmile_qr_scan"}, "is_reserved": 0}, {"lon": -77.04703316666667, "bike_id": "33449b550dd638e70eeb8e856fe58052", "lat": 38.920559833333336, "fusion_lon": 0.0, "fusion_lat": 0.0, "type": "electric_scooter", "name": "33449b550dd638e70eeb8e856fe58052", "is_disabled": 0, "rental_uris": {"ios": "https://dc.lft.to/lastmile_qr_scan", "android": "https://dc.lft.to/lastmile_qr_scan"}, "is_reserved": 0}, {"lon": -76.949421, "bike_id": "7688f0376239c1bcee303058b66c0e08", "lat": 38.903716833333334, "fusion_lon": 0.0, "fusion_lat": 0.0, "type": "electric_scooter", "name": "7688f0376239c1bcee303058b66c0e08", "is_disabled": 0, "rental_uris": {"ios": "https://dc.lft.to/lastmile_qr_scan", "android": "https://dc.lft.to/lastmile_qr_scan"}, "is_reserved": 0}, {"lon": -77.03259466666667, "bike_id": "b617df12b342c9872f690ff3bbdbe9ab", "lat": 38.932239333333335, "fusion_lon": 0.0, "fusion_lat": 0.0, "type": "electric_scooter", "name": "b617df12b342c9872f690ff3bbdbe9ab", "is_disabled": 0, "rental_uris": {"ios": "https://dc.lft.to/lastmile_qr_scan", "android": "https://dc.lft.to/lastmile_qr_scan"}, "is_reserved": 0}, {"lon": -77.001866, "bike_id": "1301eadb719250d3de7cb861406ce073", "lat": 38.89476633333334, "fusion_lon": 0.0, "fusion_lat": 0.0, "type": "electric_scooter", "name": "1301eadb719250d3de7cb861406ce073", "is_disabled": 0, "rental_uris": {"ios": "https://dc.lft.to/lastmile_qr_scan", "android": "https://dc.lft.to/lastmile_qr_scan"}, "is_reserved": 0}, {"lon": -76.9978405, "bike_id": "f22fdab03e5c72dccb3d885fcd50f2c9", "lat": 38.890851833333336, "fusion_lon": 0.0, "fusion_lat": 0.0, "type": "electric_scooter", "name": "f22fdab03e5c72dccb3d885fcd50f2c9", "is_disabled": 0, "rental_uris": {"ios": "https://dc.lft.to/lastmile_qr_scan", "android": "https://dc.lft.to/lastmile_qr_scan"}, "is_reserved": 0}, {"lon": -76.98108766666667, "bike_id": "97f016157050f056aaf4d270091061bb", "lat": 38.877321, "fusion_lon": 0.0, "fusion_lat": 0.0, "type": "electric_bike", "name": "97f016157050f056aaf4d270091061bb", "is_disabled": 0, "rental_uris": {"ios": "https://dc.lft.to/lastmile_qr_scan", "android": "https://dc.lft.to/lastmile_qr_scan"}, "is_reserved": 0}, {"lon": -77.01477016666666, "bike_id": "96679d4edb33910a683a1a172ccb5c79", "lat": 38.91928933333333, "fusion_lon": 0.0, "fusion_lat": 0.0, "type": "electric_scooter", "name": "96679d4edb33910a683a1a172ccb5c79", "is_disabled": 0, "rental_uris": {"ios": "https://dc.lft.to/lastmile_qr_scan", "android": "https://dc.lft.to/lastmile_qr_scan"}, "is_reserved": 0}, {"lon": -77.02695683333333, "bike_id": "c0e7a1777ee70fe4378f2f609b54e9f0", "lat": 38.903991500000004, "fusion_lon": 0.0, "fusion_lat": 0.0, "type": "electric_scooter", "name": "c0e7a1777ee70fe4378f2f609b54e9f0", "is_disabled": 0, "rental_uris": {"ios": "https://dc.lft.to/lastmile_qr_scan", "android": "https://dc.lft.to/lastmile_qr_scan"}, "is_reserved": 0}, {"lon": -76.99869783333334, "bike_id": "487020deeba87f9d4ce706b03b96fbc5", "lat": 38.900253, "fusion_lon": 0.0, "fusion_lat": 0.0, "type": "electric_scooter", "name": "487020deeba87f9d4ce706b03b96fbc5", "is_disabled": 0, "rental_uris": {"ios": "https://dc.lft.to/lastmile_qr_scan", "android": "https://dc.lft.to/lastmile_qr_scan"}, "is_reserved": 0}, {"lon": -76.99003516666667, "bike_id": "4b403827c5878bffbef905ba61ac0f74", "lat": 38.86512316666666, "fusion_lon": 0.0, "fusion_lat": 0.0, "type": "electric_scooter", "name": "4b403827c5878bffbef905ba61ac0f74", "is_disabled": 0, "rental_uris": {"ios": "https://dc.lft.to/lastmile_qr_scan", "android": "https://dc.lft.to/lastmile_qr_scan"}, "is_reserved": 0}, {"lon": -77.09863933333334, "bike_id": "f5a29f1e06f47b6197fd86d11ea55ae8", "lat": 38.949665833333334, "fusion_lon": 0.0, "fusion_lat": 0.0, "type": "electric_scooter", "name": "f5a29f1e06f47b6197fd86d11ea55ae8", "is_disabled": 0, "rental_uris": {"ios": "https://dc.lft.to/lastmile_qr_scan", "android": "https://dc.lft.to/lastmile_qr_scan"}, "is_reserved": 0}, {"lon": -77.01320116666666, "bike_id": "4d8591eb6557f28524579e89909544ef", "lat": 38.8715845, "fusion_lon": 0.0, "fusion_lat": 0.0, "type": "electric_scooter", "name": "4d8591eb6557f28524579e89909544ef", "is_disabled": 0, "rental_uris": {"ios": "https://dc.lft.to/lastmile_qr_scan", "android": "https://dc.lft.to/lastmile_qr_scan"}, "is_reserved": 0}, {"lon": -77.03743633333333, "bike_id": "dbe246699a2daee016db27150629afee", "lat": 38.918091833333335, "fusion_lon": 0.0, "fusion_lat": 0.0, "type": "electric_scooter", "name": "dbe246699a2daee016db27150629afee", "is_disabled": 0, "rental_uris": {"ios": "https://dc.lft.to/lastmile_qr_scan", "android": "https://dc.lft.to/lastmile_qr_scan"}, "is_reserved": 0}, {"lon": -76.99455966666666, "bike_id": "8e284e66ea7bef63c368fabbc455c294", "lat": 38.966203666666665, "fusion_lon": 0.0, "fusion_lat": 0.0, "type": "electric_bike", "name": "8e284e66ea7bef63c368fabbc455c294", "is_disabled": 0, "rental_uris": {"ios": "https://dc.lft.to/lastmile_qr_scan", "android": "https://dc.lft.to/lastmile_qr_scan"}, "is_reserved": 0}, {"lon": -77.011495, "bike_id": "a6b147613e25d0aa164c693f092728bc", "lat": 38.900075666666666, "fusion_lon": 0.0, "fusion_lat": 0.0, "type": "electric_scooter", "name": "a6b147613e25d0aa164c693f092728bc", "is_disabled": 0, "rental_uris": {"ios": "https://dc.lft.to/lastmile_qr_scan", "android": "https://dc.lft.to/lastmile_qr_scan"}, "is_reserved": 0}, {"lon": -77.0275515, "bike_id": "683af3c62c92375e9ece46612335dee3", "lat": 38.897543666666664, "fusion_lon": 0.0, "fusion_lat": 0.0, "type": "electric_scooter", "name": "683af3c62c92375e9ece46612335dee3", "is_disabled": 0, "rental_uris": {"ios": "https://dc.lft.to/lastmile_qr_scan", "android": "https://dc.lft.to/lastmile_qr_scan"}, "is_reserved": 0}, {"lon": -77.02723016666667, "bike_id": "526e78b83b1ad009b143d97522d25468", "lat": 38.9133635, "fusion_lon": 0.0, "fusion_lat": 0.0, "type": "electric_scooter", "name": "526e78b83b1ad009b143d97522d25468", "is_disabled": 0, "rental_uris": {"ios": "https://dc.lft.to/lastmile_qr_scan", "android": "https://dc.lft.to/lastmile_qr_scan"}, "is_reserved": 0}, {"lon": -77.04329666666666, "bike_id": "2b620c2e3ee83d7135a869073ccfdf54", "lat": 38.9071825, "fusion_lon": 0.0, "fusion_lat": 0.0, "type": "electric_scooter", "name": "2b620c2e3ee83d7135a869073ccfdf54", "is_disabled": 0, "rental_uris": {"ios": "https://dc.lft.to/lastmile_qr_scan", "android": "https://dc.lft.to/lastmile_qr_scan"}, "is_reserved": 0}, {"lon": -76.9486525, "bike_id": "272a801813e8becdfa8415623f09d591", "lat": 38.89563783333333, "fusion_lon": 0.0, "fusion_lat": 0.0, "type": "electric_scooter", "name": "272a801813e8becdfa8415623f09d591", "is_disabled": 0, "rental_uris": {"ios": "https://dc.lft.to/lastmile_qr_scan", "android": "https://dc.lft.to/lastmile_qr_scan"}, "is_reserved": 0}, {"lon": -76.990278, "bike_id": "fa7254820253c4a07ed90a29f9800b4c", "lat": 38.898518833333334, "fusion_lon": 0.0, "fusion_lat": 0.0, "type": "electric_scooter", "name": "fa7254820253c4a07ed90a29f9800b4c", "is_disabled": 0, "rental_uris": {"ios": "https://dc.lft.to/lastmile_qr_scan", "android": "https://dc.lft.to/lastmile_qr_scan"}, "is_reserved": 0}, {"lon": -77.03786366666667, "bike_id": "dec6bea68f49364b272b408a9cc503f1", "lat": 38.925742666666665, "fusion_lon": 0.0, "fusion_lat": 0.0, "type": "electric_scooter", "name": "dec6bea68f49364b272b408a9cc503f1", "is_disabled": 0, "rental_uris": {"ios": "https://dc.lft.to/lastmile_qr_scan", "android": "https://dc.lft.to/lastmile_qr_scan"}, "is_reserved": 0}, {"lon": -76.97927483333333, "bike_id": "b8ff79912d31a801ace646a046f7de94", "lat": 38.90503316666667, "fusion_lon": 0.0, "fusion_lat": 0.0, "type": "electric_scooter", "name": "b8ff79912d31a801ace646a046f7de94", "is_disabled": 0, "rental_uris": {"ios": "https://dc.lft.to/lastmile_qr_scan", "android": "https://dc.lft.to/lastmile_qr_scan"}, "is_reserved": 0}, {"lon": -76.99367266666667, "bike_id": "427f10ebf9e5d543a8ac48bf702f931e", "lat": 38.87974366666667, "fusion_lon": 0.0, "fusion_lat": 0.0, "type": "electric_scooter", "name": "427f10ebf9e5d543a8ac48bf702f931e", "is_disabled": 0, "rental_uris": {"ios": "https://dc.lft.to/lastmile_qr_scan", "android": "https://dc.lft.to/lastmile_qr_scan"}, "is_reserved": 0}, {"lon": -76.94890783333334, "bike_id": "56e517ab8c245c3cbbeefd24bacebfa4", "lat": 38.895302666666666, "fusion_lon": 0.0, "fusion_lat": 0.0, "type": "electric_scooter", "name": "56e517ab8c245c3cbbeefd24bacebfa4", "is_disabled": 0, "rental_uris": {"ios": "https://dc.lft.to/lastmile_qr_scan", "android": "https://dc.lft.to/lastmile_qr_scan"}, "is_reserved": 0}, {"lon": -77.02476, "bike_id": "c83c8f422bb0f1cbaa60dc490cc7159c", "lat": 38.925858166666664, "fusion_lon": 0.0, "fusion_lat": 0.0, "type": "electric_scooter", "name": "c83c8f422bb0f1cbaa60dc490cc7159c", "is_disabled": 0, "rental_uris": {"ios": "https://dc.lft.to/lastmile_qr_scan", "android": "https://dc.lft.to/lastmile_qr_scan"}, "is_reserved": 0}, {"lon": -77.02443283333334, "bike_id": "290817f298a36fb97e82d4f284cc30ef", "lat": 38.936010333333336, "fusion_lon": 0.0, "fusion_lat": 0.0, "type": "electric_scooter", "name": "290817f298a36fb97e82d4f284cc30ef", "is_disabled": 0, "rental_uris": {"ios": "https://dc.lft.to/lastmile_qr_scan", "android": "https://dc.lft.to/lastmile_qr_scan"}, "is_reserved": 0}, {"lon": -77.0389335, "bike_id": "1199b87fe8a9c5eec5c32628fd522846", "lat": 38.923388, "fusion_lon": 0.0, "fusion_lat": 0.0, "type": "electric_scooter", "name": "1199b87fe8a9c5eec5c32628fd522846", "is_disabled": 0, "rental_uris": {"ios": "https://dc.lft.to/lastmile_qr_scan", "android": "https://dc.lft.to/lastmile_qr_scan"}, "is_reserved": 0}, {"lon": -77.02806983333333, "bike_id": "a90ee022278206647a3bd767b5c05d7d", "lat": 38.94193716666667, "fusion_lon": 0.0, "fusion_lat": 0.0, "type": "electric_scooter", "name": "a90ee022278206647a3bd767b5c05d7d", "is_disabled": 0, "rental_uris": {"ios": "https://dc.lft.to/lastmile_qr_scan", "android": "https://dc.lft.to/lastmile_qr_scan"}, "is_reserved": 0}, {"lon": -77.02823266666667, "bike_id": "7ecee79d6a5000f65c58545f824dcf63", "lat": 38.895272166666665, "fusion_lon": 0.0, "fusion_lat": 0.0, "type": "electric_scooter", "name": "7ecee79d6a5000f65c58545f824dcf63", "is_disabled": 0, "rental_uris": {"ios": "https://dc.lft.to/lastmile_qr_scan", "android": "https://dc.lft.to/lastmile_qr_scan"}, "is_reserved": 0}, {"lon": -77.02762833333334, "bike_id": "e100aa2af508c848ae9716e1c53eabfa", "lat": 38.89747033333333, "fusion_lon": 0.0, "fusion_lat": 0.0, "type": "electric_scooter", "name": "e100aa2af508c848ae9716e1c53eabfa", "is_disabled": 0, "rental_uris": {"ios": "https://dc.lft.to/lastmile_qr_scan", "android": "https://dc.lft.to/lastmile_qr_scan"}, "is_reserved": 0}, {"lon": -77.03590033333333, "bike_id": "4da82047806b6bc09a43589666d4c49d", "lat": 38.91769933333333, "fusion_lon": 0.0, "fusion_lat": 0.0, "type": "electric_scooter", "name": "4da82047806b6bc09a43589666d4c49d", "is_disabled": 0, "rental_uris": {"ios": "https://dc.lft.to/lastmile_qr_scan", "android": "https://dc.lft.to/lastmile_qr_scan"}, "is_reserved": 0}, {"lon": -76.9700835, "bike_id": "a6590adac50fa2080ce412e501621f1d", "lat": 38.863654833333335, "fusion_lon": 0.0, "fusion_lat": 0.0, "type": "electric_bike", "name": "a6590adac50fa2080ce412e501621f1d", "is_disabled": 0, "rental_uris": {"ios": "https://dc.lft.to/lastmile_qr_scan", "android": "https://dc.lft.to/lastmile_qr_scan"}, "is_reserved": 0}, {"lon": -77.023806, "bike_id": "ef63e712e7ddce8385827ab295ace95c", "lat": 38.90720266666667, "fusion_lon": 0.0, "fusion_lat": 0.0, "type": "electric_scooter", "name": "ef63e712e7ddce8385827ab295ace95c", "is_disabled": 0, "rental_uris": {"ios": "https://dc.lft.to/lastmile_qr_scan", "android": "https://dc.lft.to/lastmile_qr_scan"}, "is_reserved": 0}, {"lon": -76.9784245, "bike_id": "b64272ab01fca6b5c0c29aa9d20f46a5", "lat": 38.86567433333333, "fusion_lon": 0.0, "fusion_lat": 0.0, "type": "electric_scooter", "name": "b64272ab01fca6b5c0c29aa9d20f46a5", "is_disabled": 0, "rental_uris": {"ios": "https://dc.lft.to/lastmile_qr_scan", "android": "https://dc.lft.to/lastmile_qr_scan"}, "is_reserved": 0}, {"lon": -77.04364116666666, "bike_id": "1b055d213efaf44380bc035f8bd964f1", "lat": 39.01545183333333, "fusion_lon": 0.0, "fusion_lat": 0.0, "type": "electric_bike", "name": "1b055d213efaf44380bc035f8bd964f1", "is_disabled": 0, "rental_uris": {"ios": "https://dc.lft.to/lastmile_qr_scan", "android": "https://dc.lft.to/lastmile_qr_scan"}, "is_reserved": 0}, {"lon": -77.074529, "bike_id": "de3c485acad28237f970ac3c44606bda", "lat": 38.945145, "fusion_lon": 0.0, "fusion_lat": 0.0, "type": "electric_scooter", "name": "de3c485acad28237f970ac3c44606bda", "is_disabled": 0, "rental_uris": {"ios": "https://dc.lft.to/lastmile_qr_scan", "android": "https://dc.lft.to/lastmile_qr_scan"}, "is_reserved": 0}, {"lon": -77.12529433333333, "bike_id": "08edbc8a6aa43c6f844e44e70dea3ee2", "lat": 39.056348666666665, "fusion_lon": 0.0, "fusion_lat": 0.0, "type": "electric_bike", "name": "08edbc8a6aa43c6f844e44e70dea3ee2", "is_disabled": 0, "rental_uris": {"ios": "https://dc.lft.to/lastmile_qr_scan", "android": "https://dc.lft.to/lastmile_qr_scan"}, "is_reserved": 0}, {"lon": -76.99926933333333, "bike_id": "73f5805a33dfc8c91b5c6e55b524f855", "lat": 38.843151166666665, "fusion_lon": 0.0, "fusion_lat": 0.0, "type": "electric_scooter", "name": "73f5805a33dfc8c91b5c6e55b524f855", "is_disabled": 0, "rental_uris": {"ios": "https://dc.lft.to/lastmile_qr_scan", "android": "https://dc.lft.to/lastmile_qr_scan"}, "is_reserved": 0}, {"lon": -77.02713766666666, "bike_id": "f2b72309a6c49533eb97de80f9ae30ab", "lat": 38.906686, "fusion_lon": 0.0, "fusion_lat": 0.0, "type": "electric_scooter", "name": "f2b72309a6c49533eb97de80f9ae30ab", "is_disabled": 0, "rental_uris": {"ios": "https://dc.lft.to/lastmile_qr_scan", "android": "https://dc.lft.to/lastmile_qr_scan"}, "is_reserved": 0}, {"lon": -77.03438933333334, "bike_id": "6ed5e410ab9551a0257ccd56f4d2390b", "lat": 38.90976033333333, "fusion_lon": 0.0, "fusion_lat": 0.0, "type": "electric_scooter", "name": "6ed5e410ab9551a0257ccd56f4d2390b", "is_disabled": 0, "rental_uris": {"ios": "https://dc.lft.to/lastmile_qr_scan", "android": "https://dc.lft.to/lastmile_qr_scan"}, "is_reserved": 0}, {"lon": -77.03660733333334, "bike_id": "c34148db7e0c58a7a728f576654fc082", "lat": 38.917502, "fusion_lon": 0.0, "fusion_lat": 0.0, "type": "electric_scooter", "name": "c34148db7e0c58a7a728f576654fc082", "is_disabled": 0, "rental_uris": {"ios": "https://dc.lft.to/lastmile_qr_scan", "android": "https://dc.lft.to/lastmile_qr_scan"}, "is_reserved": 0}, {"lon": -77.03622416666667, "bike_id": "ea96d10bd67c2a8d9013e21796680c60", "lat": 38.93293966666667, "fusion_lon": 0.0, "fusion_lat": 0.0, "type": "electric_scooter", "name": "ea96d10bd67c2a8d9013e21796680c60", "is_disabled": 0, "rental_uris": {"ios": "https://dc.lft.to/lastmile_qr_scan", "android": "https://dc.lft.to/lastmile_qr_scan"}, "is_reserved": 0}, {"lon": -77.02857666666667, "bike_id": "e8db6cb84535cdcc6ffa3045d8bbd381", "lat": 38.887440166666664, "fusion_lon": 0.0, "fusion_lat": 0.0, "type": "electric_scooter", "name": "e8db6cb84535cdcc6ffa3045d8bbd381", "is_disabled": 0, "rental_uris": {"ios": "https://dc.lft.to/lastmile_qr_scan", "android": "https://dc.lft.to/lastmile_qr_scan"}, "is_reserved": 0}, {"lon": -76.97626883333334, "bike_id": "63f1306fb4d97c08061fbb375612fafb", "lat": 38.90571, "fusion_lon": 0.0, "fusion_lat": 0.0, "type": "electric_scooter", "name": "63f1306fb4d97c08061fbb375612fafb", "is_disabled": 0, "rental_uris": {"ios": "https://dc.lft.to/lastmile_qr_scan", "android": "https://dc.lft.to/lastmile_qr_scan"}, "is_reserved": 0}, {"lon": -77.02500333333333, "bike_id": "94d18eeac96772ad8b34668f7a3729b4", "lat": 38.93981083333333, "fusion_lon": 0.0, "fusion_lat": 0.0, "type": "electric_scooter", "name": "94d18eeac96772ad8b34668f7a3729b4", "is_disabled": 0, "rental_uris": {"ios": "https://dc.lft.to/lastmile_qr_scan", "android": "https://dc.lft.to/lastmile_qr_scan"}, "is_reserved": 0}, {"lon": -77.02387733333333, "bike_id": "01de381620913e6d2cec0cd20ee59d6e", "lat": 38.9077645, "fusion_lon": 0.0, "fusion_lat": 0.0, "type": "electric_scooter", "name": "01de381620913e6d2cec0cd20ee59d6e", "is_disabled": 0, "rental_uris": {"ios": "https://dc.lft.to/lastmile_qr_scan", "android": "https://dc.lft.to/lastmile_qr_scan"}, "is_reserved": 0}, {"lon": -77.05509483333333, "bike_id": "93789d3f5ed90f4caea7952f0633b82d", "lat": 38.89967033333333, "fusion_lon": 0.0, "fusion_lat": 0.0, "type": "electric_scooter", "name": "93789d3f5ed90f4caea7952f0633b82d", "is_disabled": 0, "rental_uris": {"ios": "https://dc.lft.to/lastmile_qr_scan", "android": "https://dc.lft.to/lastmile_qr_scan"}, "is_reserved": 0}, {"lon": -77.0448885, "bike_id": "7866d5c69a10c42f139b7ee79656e37b", "lat": 38.919496, "fusion_lon": 0.0, "fusion_lat": 0.0, "type": "electric_scooter", "name": "7866d5c69a10c42f139b7ee79656e37b", "is_disabled": 0, "rental_uris": {"ios": "https://dc.lft.to/lastmile_qr_scan", "android": "https://dc.lft.to/lastmile_qr_scan"}, "is_reserved": 0}, {"lon": -77.02411616666667, "bike_id": "70134bb2b54e9b9203f6543a5fda3902", "lat": 38.92156933333333, "fusion_lon": 0.0, "fusion_lat": 0.0, "type": "electric_scooter", "name": "70134bb2b54e9b9203f6543a5fda3902", "is_disabled": 0, "rental_uris": {"ios": "https://dc.lft.to/lastmile_qr_scan", "android": "https://dc.lft.to/lastmile_qr_scan"}, "is_reserved": 0}, {"lon": -77.0278735, "bike_id": "4d62f4ec40dbe2509964feba43aaa74f", "lat": 38.9277545, "fusion_lon": 0.0, "fusion_lat": 0.0, "type": "electric_scooter", "name": "4d62f4ec40dbe2509964feba43aaa74f", "is_disabled": 0, "rental_uris": {"ios": "https://dc.lft.to/lastmile_qr_scan", "android": "https://dc.lft.to/lastmile_qr_scan"}, "is_reserved": 0}, {"lon": -76.98656566666666, "bike_id": "1969f1dcdd812b0f3b7d0851d964a3d5", "lat": 38.91245266666667, "fusion_lon": 0.0, "fusion_lat": 0.0, "type": "electric_scooter", "name": "1969f1dcdd812b0f3b7d0851d964a3d5", "is_disabled": 0, "rental_uris": {"ios": "https://dc.lft.to/lastmile_qr_scan", "android": "https://dc.lft.to/lastmile_qr_scan"}, "is_reserved": 0}, {"lon": -77.03628683333334, "bike_id": "e5a0f6584165e758cf653685d0a4af66", "lat": 38.903442166666665, "fusion_lon": 0.0, "fusion_lat": 0.0, "type": "electric_scooter", "name": "e5a0f6584165e758cf653685d0a4af66", "is_disabled": 0, "rental_uris": {"ios": "https://dc.lft.to/lastmile_qr_scan", "android": "https://dc.lft.to/lastmile_qr_scan"}, "is_reserved": 0}, {"lon": -77.0241445, "bike_id": "34015a92b6c6de99d2da7ce59842ed3d", "lat": 38.91141616666667, "fusion_lon": 0.0, "fusion_lat": 0.0, "type": "electric_scooter", "name": "34015a92b6c6de99d2da7ce59842ed3d", "is_disabled": 0, "rental_uris": {"ios": "https://dc.lft.to/lastmile_qr_scan", "android": "https://dc.lft.to/lastmile_qr_scan"}, "is_reserved": 0}, {"lon": -77.04877566666667, "bike_id": "18d9d7a016ffbf8a59d8710e74aad8c3", "lat": 38.892323166666664, "fusion_lon": 0.0, "fusion_lat": 0.0, "type": "electric_scooter", "name": "18d9d7a016ffbf8a59d8710e74aad8c3", "is_disabled": 0, "rental_uris": {"ios": "https://dc.lft.to/lastmile_qr_scan", "android": "https://dc.lft.to/lastmile_qr_scan"}, "is_reserved": 0}, {"lon": -76.98839416666667, "bike_id": "61567e364edfc2253ee92df97b67f7b1", "lat": 38.90133816666667, "fusion_lon": 0.0, "fusion_lat": 0.0, "type": "electric_scooter", "name": "61567e364edfc2253ee92df97b67f7b1", "is_disabled": 0, "rental_uris": {"ios": "https://dc.lft.to/lastmile_qr_scan", "android": "https://dc.lft.to/lastmile_qr_scan"}, "is_reserved": 0}, {"lon": -77.032049, "bike_id": "11fe4bf0aa00f5afa364ffb347938094", "lat": 38.93044716666667, "fusion_lon": 0.0, "fusion_lat": 0.0, "type": "electric_scooter", "name": "11fe4bf0aa00f5afa364ffb347938094", "is_disabled": 0, "rental_uris": {"ios": "https://dc.lft.to/lastmile_qr_scan", "android": "https://dc.lft.to/lastmile_qr_scan"}, "is_reserved": 0}, {"lon": -77.07429016666667, "bike_id": "ff699a6129c159a30d94f1337197b15c", "lat": 38.999456, "fusion_lon": 0.0, "fusion_lat": 0.0, "type": "electric_bike", "name": "ff699a6129c159a30d94f1337197b15c", "is_disabled": 0, "rental_uris": {"ios": "https://dc.lft.to/lastmile_qr_scan", "android": "https://dc.lft.to/lastmile_qr_scan"}, "is_reserved": 0}, {"lon": -77.04043483333334, "bike_id": "66730dd65cdd1863af3686cd50463795", "lat": 38.923841333333336, "fusion_lon": 0.0, "fusion_lat": 0.0, "type": "electric_scooter", "name": "66730dd65cdd1863af3686cd50463795", "is_disabled": 0, "rental_uris": {"ios": "https://dc.lft.to/lastmile_qr_scan", "android": "https://dc.lft.to/lastmile_qr_scan"}, "is_reserved": 0}, {"lon": -77.0001475, "bike_id": "209f2e72a28b2ee23e3223cfd54d90cd", "lat": 38.91977266666667, "fusion_lon": 0.0, "fusion_lat": 0.0, "type": "electric_scooter", "name": "209f2e72a28b2ee23e3223cfd54d90cd", "is_disabled": 0, "rental_uris": {"ios": "https://dc.lft.to/lastmile_qr_scan", "android": "https://dc.lft.to/lastmile_qr_scan"}, "is_reserved": 0}, {"lon": -77.02030633333334, "bike_id": "5729fde9b48fbc888e19c00485d29522", "lat": 38.924414, "fusion_lon": 0.0, "fusion_lat": 0.0, "type": "electric_scooter", "name": "5729fde9b48fbc888e19c00485d29522", "is_disabled": 0, "rental_uris": {"ios": "https://dc.lft.to/lastmile_qr_scan", "android": "https://dc.lft.to/lastmile_qr_scan"}, "is_reserved": 0}, {"lon": -77.021789, "bike_id": "3ba5319e77c8dbbe9b027662cb633f7b", "lat": 38.906931666666665, "fusion_lon": 0.0, "fusion_lat": 0.0, "type": "electric_bike", "name": "3ba5319e77c8dbbe9b027662cb633f7b", "is_disabled": 0, "rental_uris": {"ios": "https://dc.lft.to/lastmile_qr_scan", "android": "https://dc.lft.to/lastmile_qr_scan"}, "is_reserved": 0}, {"lon": -76.98711583333333, "bike_id": "ece3f9c6c36a8c259b5a7b2ab501b9e9", "lat": 38.866255, "fusion_lon": 0.0, "fusion_lat": 0.0, "type": "electric_scooter", "name": "ece3f9c6c36a8c259b5a7b2ab501b9e9", "is_disabled": 0, "rental_uris": {"ios": "https://dc.lft.to/lastmile_qr_scan", "android": "https://dc.lft.to/lastmile_qr_scan"}, "is_reserved": 0}, {"lon": -77.03183883333334, "bike_id": "2367be7b53a902fd037a723f490b40dd", "lat": 38.91342133333333, "fusion_lon": 0.0, "fusion_lat": 0.0, "type": "electric_scooter", "name": "2367be7b53a902fd037a723f490b40dd", "is_disabled": 0, "rental_uris": {"ios": "https://dc.lft.to/lastmile_qr_scan", "android": "https://dc.lft.to/lastmile_qr_scan"}, "is_reserved": 0}, {"lon": -77.07331633333334, "bike_id": "8cff7ad956bbda00d841fb882fc4425f", "lat": 38.924027, "fusion_lon": 0.0, "fusion_lat": 0.0, "type": "electric_scooter", "name": "8cff7ad956bbda00d841fb882fc4425f", "is_disabled": 0, "rental_uris": {"ios": "https://dc.lft.to/lastmile_qr_scan", "android": "https://dc.lft.to/lastmile_qr_scan"}, "is_reserved": 0}, {"lon": -77.01385316666666, "bike_id": "93b8be10a4d073ea082b97eb6f714438", "lat": 38.88681, "fusion_lon": 0.0, "fusion_lat": 0.0, "type": "electric_scooter", "name": "93b8be10a4d073ea082b97eb6f714438", "is_disabled": 0, "rental_uris": {"ios": "https://dc.lft.to/lastmile_qr_scan", "android": "https://dc.lft.to/lastmile_qr_scan"}, "is_reserved": 0}, {"lon": -77.02193116666666, "bike_id": "4804005f132042d4dfe186910f8996ba", "lat": 38.9002595, "fusion_lon": 0.0, "fusion_lat": 0.0, "type": "electric_scooter", "name": "4804005f132042d4dfe186910f8996ba", "is_disabled": 0, "rental_uris": {"ios": "https://dc.lft.to/lastmile_qr_scan", "android": "https://dc.lft.to/lastmile_qr_scan"}, "is_reserved": 0}, {"lon": -77.00973483333334, "bike_id": "51da632a1a084b531b50a2a269f6f57d", "lat": 38.89484, "fusion_lon": 0.0, "fusion_lat": 0.0, "type": "electric_scooter", "name": "51da632a1a084b531b50a2a269f6f57d", "is_disabled": 0, "rental_uris": {"ios": "https://dc.lft.to/lastmile_qr_scan", "android": "https://dc.lft.to/lastmile_qr_scan"}, "is_reserved": 0}, {"lon": -77.033196, "bike_id": "04d49c34e6f5590b248628e7f7ba60fe", "lat": 38.919725166666666, "fusion_lon": 0.0, "fusion_lat": 0.0, "type": "electric_scooter", "name": "04d49c34e6f5590b248628e7f7ba60fe", "is_disabled": 0, "rental_uris": {"ios": "https://dc.lft.to/lastmile_qr_scan", "android": "https://dc.lft.to/lastmile_qr_scan"}, "is_reserved": 0}, {"lon": -76.98348766666666, "bike_id": "c90f7a8ca281ab30bbd5dd09b7868414", "lat": 38.90454116666667, "fusion_lon": 0.0, "fusion_lat": 0.0, "type": "electric_scooter", "name": "c90f7a8ca281ab30bbd5dd09b7868414", "is_disabled": 0, "rental_uris": {"ios": "https://dc.lft.to/lastmile_qr_scan", "android": "https://dc.lft.to/lastmile_qr_scan"}, "is_reserved": 0}, {"lon": -77.058536, "bike_id": "5801cc7548b4b2abae8e7233fddcfc59", "lat": 38.936050333333334, "fusion_lon": 0.0, "fusion_lat": 0.0, "type": "electric_scooter", "name": "5801cc7548b4b2abae8e7233fddcfc59", "is_disabled": 0, "rental_uris": {"ios": "https://dc.lft.to/lastmile_qr_scan", "android": "https://dc.lft.to/lastmile_qr_scan"}, "is_reserved": 0}, {"lon": -76.9492135, "bike_id": "2ef8ba72b920ff9f659a71565d90984d", "lat": 38.893542, "fusion_lon": 0.0, "fusion_lat": 0.0, "type": "electric_scooter", "name": "2ef8ba72b920ff9f659a71565d90984d", "is_disabled": 0, "rental_uris": {"ios": "https://dc.lft.to/lastmile_qr_scan", "android": "https://dc.lft.to/lastmile_qr_scan"}, "is_reserved": 0}, {"lon": -77.03526566666666, "bike_id": "1cce3eed8817e955c68916eed08d1e89", "lat": 38.907184, "fusion_lon": 0.0, "fusion_lat": 0.0, "type": "electric_scooter", "name": "1cce3eed8817e955c68916eed08d1e89", "is_disabled": 0, "rental_uris": {"ios": "https://dc.lft.to/lastmile_qr_scan", "android": "https://dc.lft.to/lastmile_qr_scan"}, "is_reserved": 0}, {"lon": -76.97611933333333, "bike_id": "ae644e0e5ff8ef89ed1b3a8405e600f3", "lat": 38.90386566666667, "fusion_lon": 0.0, "fusion_lat": 0.0, "type": "electric_scooter", "name": "ae644e0e5ff8ef89ed1b3a8405e600f3", "is_disabled": 0, "rental_uris": {"ios": "https://dc.lft.to/lastmile_qr_scan", "android": "https://dc.lft.to/lastmile_qr_scan"}, "is_reserved": 0}, {"lon": -77.03179116666666, "bike_id": "349ddf48bb5da2ddbad9187340fde840", "lat": 38.9191785, "fusion_lon": 0.0, "fusion_lat": 0.0, "type": "electric_scooter", "name": "349ddf48bb5da2ddbad9187340fde840", "is_disabled": 0, "rental_uris": {"ios": "https://dc.lft.to/lastmile_qr_scan", "android": "https://dc.lft.to/lastmile_qr_scan"}, "is_reserved": 0}, {"lon": -77.0221565, "bike_id": "ace9ef23213f2fb76f48c9a1a3bd9400", "lat": 38.90001816666667, "fusion_lon": 0.0, "fusion_lat": 0.0, "type": "electric_scooter", "name": "ace9ef23213f2fb76f48c9a1a3bd9400", "is_disabled": 0, "rental_uris": {"ios": "https://dc.lft.to/lastmile_qr_scan", "android": "https://dc.lft.to/lastmile_qr_scan"}, "is_reserved": 0}, {"lon": -77.00064466666667, "bike_id": "578bbc3c0f2eb62599e4e65d0bda3a5c", "lat": 38.92436283333333, "fusion_lon": 0.0, "fusion_lat": 0.0, "type": "electric_scooter", "name": "578bbc3c0f2eb62599e4e65d0bda3a5c", "is_disabled": 0, "rental_uris": {"ios": "https://dc.lft.to/lastmile_qr_scan", "android": "https://dc.lft.to/lastmile_qr_scan"}, "is_reserved": 0}, {"lon": -76.99744616666666, "bike_id": "e2adda6cbac02f68a120314cc465aace", "lat": 38.92271016666667, "fusion_lon": 0.0, "fusion_lat": 0.0, "type": "electric_scooter", "name": "e2adda6cbac02f68a120314cc465aace", "is_disabled": 0, "rental_uris": {"ios": "https://dc.lft.to/lastmile_qr_scan", "android": "https://dc.lft.to/lastmile_qr_scan"}, "is_reserved": 0}, {"lon": -76.96357666666667, "bike_id": "1e0e541732da1a2476e69b8bfa84fe74", "lat": 38.9349955, "fusion_lon": 0.0, "fusion_lat": 0.0, "type": "electric_scooter", "name": "1e0e541732da1a2476e69b8bfa84fe74", "is_disabled": 0, "rental_uris": {"ios": "https://dc.lft.to/lastmile_qr_scan", "android": "https://dc.lft.to/lastmile_qr_scan"}, "is_reserved": 0}, {"lon": -77.03193333333333, "bike_id": "9f0a8574667cbbe0162698d835c93570", "lat": 38.90553283333333, "fusion_lon": 0.0, "fusion_lat": 0.0, "type": "electric_scooter", "name": "9f0a8574667cbbe0162698d835c93570", "is_disabled": 0, "rental_uris": {"ios": "https://dc.lft.to/lastmile_qr_scan", "android": "https://dc.lft.to/lastmile_qr_scan"}, "is_reserved": 0}, {"lon": -77.00918616666667, "bike_id": "d9ecafb2fadc96f1c0935ed829f5b15c", "lat": 38.82789233333333, "fusion_lon": 0.0, "fusion_lat": 0.0, "type": "electric_bike", "name": "d9ecafb2fadc96f1c0935ed829f5b15c", "is_disabled": 0, "rental_uris": {"ios": "https://dc.lft.to/lastmile_qr_scan", "android": "https://dc.lft.to/lastmile_qr_scan"}, "is_reserved": 0}, {"lon": -77.047061, "bike_id": "0f13f27171f2d20c52a41c3ccf0c0b15", "lat": 38.92237983333333, "fusion_lon": 0.0, "fusion_lat": 0.0, "type": "electric_scooter", "name": "0f13f27171f2d20c52a41c3ccf0c0b15", "is_disabled": 0, "rental_uris": {"ios": "https://dc.lft.to/lastmile_qr_scan", "android": "https://dc.lft.to/lastmile_qr_scan"}, "is_reserved": 0}, {"lon": -77.021085, "bike_id": "2712f6d760e2ce57d0f29436d776e43c", "lat": 38.936899333333336, "fusion_lon": 0.0, "fusion_lat": 0.0, "type": "electric_scooter", "name": "2712f6d760e2ce57d0f29436d776e43c", "is_disabled": 0, "rental_uris": {"ios": "https://dc.lft.to/lastmile_qr_scan", "android": "https://dc.lft.to/lastmile_qr_scan"}, "is_reserved": 0}, {"lon": -76.99459616666667, "bike_id": "84a860cc3af88dc4c556ee63735062ef", "lat": 38.940702333333334, "fusion_lon": 0.0, "fusion_lat": 0.0, "type": "electric_bike", "name": "84a860cc3af88dc4c556ee63735062ef", "is_disabled": 0, "rental_uris": {"ios": "https://dc.lft.to/lastmile_qr_scan", "android": "https://dc.lft.to/lastmile_qr_scan"}, "is_reserved": 0}, {"lon": -77.02218083333334, "bike_id": "a9e10ae79595ee14fa161da57374c36d", "lat": 38.94094066666667, "fusion_lon": 0.0, "fusion_lat": 0.0, "type": "electric_scooter", "name": "a9e10ae79595ee14fa161da57374c36d", "is_disabled": 0, "rental_uris": {"ios": "https://dc.lft.to/lastmile_qr_scan", "android": "https://dc.lft.to/lastmile_qr_scan"}, "is_reserved": 0}, {"lon": -76.98876533333333, "bike_id": "5f54d7dfbc1d40e45d4a129ac90a145d", "lat": 38.866542833333334, "fusion_lon": 0.0, "fusion_lat": 0.0, "type": "electric_scooter", "name": "5f54d7dfbc1d40e45d4a129ac90a145d", "is_disabled": 0, "rental_uris": {"ios": "https://dc.lft.to/lastmile_qr_scan", "android": "https://dc.lft.to/lastmile_qr_scan"}, "is_reserved": 0}, {"lon": -77.0359285, "bike_id": "175fdc83632c23f7a4134970ae4843a0", "lat": 38.936714, "fusion_lon": 0.0, "fusion_lat": 0.0, "type": "electric_scooter", "name": "175fdc83632c23f7a4134970ae4843a0", "is_disabled": 0, "rental_uris": {"ios": "https://dc.lft.to/lastmile_qr_scan", "android": "https://dc.lft.to/lastmile_qr_scan"}, "is_reserved": 0}, {"lon": -77.02582116666666, "bike_id": "8b34754e4dad72d4412fe1e5b655f639", "lat": 38.88736516666667, "fusion_lon": 0.0, "fusion_lat": 0.0, "type": "electric_scooter", "name": "8b34754e4dad72d4412fe1e5b655f639", "is_disabled": 0, "rental_uris": {"ios": "https://dc.lft.to/lastmile_qr_scan", "android": "https://dc.lft.to/lastmile_qr_scan"}, "is_reserved": 0}, {"lon": -77.029507, "bike_id": "3b54b1839d978f9a12a9f2b3fc30d20d", "lat": 38.90505683333333, "fusion_lon": 0.0, "fusion_lat": 0.0, "type": "electric_scooter", "name": "3b54b1839d978f9a12a9f2b3fc30d20d", "is_disabled": 0, "rental_uris": {"ios": "https://dc.lft.to/lastmile_qr_scan", "android": "https://dc.lft.to/lastmile_qr_scan"}, "is_reserved": 0}, {"lon": -77.00573683333333, "bike_id": "1fbdc5a3a356afc6939280d436e4a840", "lat": 38.9055465, "fusion_lon": 0.0, "fusion_lat": 0.0, "type": "electric_scooter", "name": "1fbdc5a3a356afc6939280d436e4a840", "is_disabled": 0, "rental_uris": {"ios": "https://dc.lft.to/lastmile_qr_scan", "android": "https://dc.lft.to/lastmile_qr_scan"}, "is_reserved": 0}, {"lon": -77.03076033333333, "bike_id": "d32fa7e708760158358d2c49121a77ef", "lat": 38.88041833333333, "fusion_lon": 0.0, "fusion_lat": 0.0, "type": "electric_scooter", "name": "d32fa7e708760158358d2c49121a77ef", "is_disabled": 0, "rental_uris": {"ios": "https://dc.lft.to/lastmile_qr_scan", "android": "https://dc.lft.to/lastmile_qr_scan"}, "is_reserved": 0}, {"lon": -77.03471983333333, "bike_id": "ae7d4739880a495304496c7906278f60", "lat": 38.926466, "fusion_lon": 0.0, "fusion_lat": 0.0, "type": "electric_scooter", "name": "ae7d4739880a495304496c7906278f60", "is_disabled": 0, "rental_uris": {"ios": "https://dc.lft.to/lastmile_qr_scan", "android": "https://dc.lft.to/lastmile_qr_scan"}, "is_reserved": 0}, {"lon": -77.03168716666667, "bike_id": "c7e53be9472b9ffbb737d2b3ae13d5e4", "lat": 38.920996333333335, "fusion_lon": 0.0, "fusion_lat": 0.0, "type": "electric_scooter", "name": "c7e53be9472b9ffbb737d2b3ae13d5e4", "is_disabled": 0, "rental_uris": {"ios": "https://dc.lft.to/lastmile_qr_scan", "android": "https://dc.lft.to/lastmile_qr_scan"}, "is_reserved": 0}, {"lon": -77.0236105, "bike_id": "7c77f9893d3d92830dee468dfa44d2ac", "lat": 38.89631283333333, "fusion_lon": 0.0, "fusion_lat": 0.0, "type": "electric_scooter", "name": "7c77f9893d3d92830dee468dfa44d2ac", "is_disabled": 0, "rental_uris": {"ios": "https://dc.lft.to/lastmile_qr_scan", "android": "https://dc.lft.to/lastmile_qr_scan"}, "is_reserved": 0}, {"lon": -77.02671466666666, "bike_id": "f242448209371372ada4ed4cfe554fb6", "lat": 38.897555, "fusion_lon": 0.0, "fusion_lat": 0.0, "type": "electric_scooter", "name": "f242448209371372ada4ed4cfe554fb6", "is_disabled": 0, "rental_uris": {"ios": "https://dc.lft.to/lastmile_qr_scan", "android": "https://dc.lft.to/lastmile_qr_scan"}, "is_reserved": 0}, {"lon": -77.042757, "bike_id": "cb6507402f41b5d0aa840f6861ad8faa", "lat": 38.93411916666667, "fusion_lon": 0.0, "fusion_lat": 0.0, "type": "electric_scooter", "name": "cb6507402f41b5d0aa840f6861ad8faa", "is_disabled": 0, "rental_uris": {"ios": "https://dc.lft.to/lastmile_qr_scan", "android": "https://dc.lft.to/lastmile_qr_scan"}, "is_reserved": 0}, {"lon": -76.96600966666666, "bike_id": "44a325b8b07ba4c8bd890baa56cb7af2", "lat": 38.87113733333333, "fusion_lon": 0.0, "fusion_lat": 0.0, "type": "electric_scooter", "name": "44a325b8b07ba4c8bd890baa56cb7af2", "is_disabled": 0, "rental_uris": {"ios": "https://dc.lft.to/lastmile_qr_scan", "android": "https://dc.lft.to/lastmile_qr_scan"}, "is_reserved": 0}, {"lon": -77.03672916666666, "bike_id": "5fafe688f5ea7ebf5227a7429630a99e", "lat": 38.91820383333334, "fusion_lon": 0.0, "fusion_lat": 0.0, "type": "electric_scooter", "name": "5fafe688f5ea7ebf5227a7429630a99e", "is_disabled": 0, "rental_uris": {"ios": "https://dc.lft.to/lastmile_qr_scan", "android": "https://dc.lft.to/lastmile_qr_scan"}, "is_reserved": 0}, {"lon": -77.03215666666667, "bike_id": "a63c0490b1fa5108467c4007c76751c1", "lat": 38.9073375, "fusion_lon": 0.0, "fusion_lat": 0.0, "type": "electric_scooter", "name": "a63c0490b1fa5108467c4007c76751c1", "is_disabled": 0, "rental_uris": {"ios": "https://dc.lft.to/lastmile_qr_scan", "android": "https://dc.lft.to/lastmile_qr_scan"}, "is_reserved": 0}, {"lon": -77.0217235, "bike_id": "65bc49f0abe7ca0bbdb34f14ce14ff9d", "lat": 38.89755383333333, "fusion_lon": 0.0, "fusion_lat": 0.0, "type": "electric_scooter", "name": "65bc49f0abe7ca0bbdb34f14ce14ff9d", "is_disabled": 0, "rental_uris": {"ios": "https://dc.lft.to/lastmile_qr_scan", "android": "https://dc.lft.to/lastmile_qr_scan"}, "is_reserved": 0}, {"lon": -77.02181316666666, "bike_id": "cc8c8e16369590c72c1708b48889e5c5", "lat": 38.909529166666665, "fusion_lon": 0.0, "fusion_lat": 0.0, "type": "electric_scooter", "name": "cc8c8e16369590c72c1708b48889e5c5", "is_disabled": 0, "rental_uris": {"ios": "https://dc.lft.to/lastmile_qr_scan", "android": "https://dc.lft.to/lastmile_qr_scan"}, "is_reserved": 0}, {"lon": -77.024041, "bike_id": "b4ecab6df04967d6e1c94b4277797a06", "lat": 38.88285666666667, "fusion_lon": 0.0, "fusion_lat": 0.0, "type": "electric_scooter", "name": "b4ecab6df04967d6e1c94b4277797a06", "is_disabled": 0, "rental_uris": {"ios": "https://dc.lft.to/lastmile_qr_scan", "android": "https://dc.lft.to/lastmile_qr_scan"}, "is_reserved": 0}, {"lon": -77.0103435, "bike_id": "229af92dde17968ed52750bc77644ba7", "lat": 38.92121133333333, "fusion_lon": 0.0, "fusion_lat": 0.0, "type": "electric_scooter", "name": "229af92dde17968ed52750bc77644ba7", "is_disabled": 0, "rental_uris": {"ios": "https://dc.lft.to/lastmile_qr_scan", "android": "https://dc.lft.to/lastmile_qr_scan"}, "is_reserved": 0}, {"lon": -77.03798683333333, "bike_id": "a83e5278c4ee4ea03e89ea4bab3f1d60", "lat": 38.936005, "fusion_lon": 0.0, "fusion_lat": 0.0, "type": "electric_scooter", "name": "a83e5278c4ee4ea03e89ea4bab3f1d60", "is_disabled": 0, "rental_uris": {"ios": "https://dc.lft.to/lastmile_qr_scan", "android": "https://dc.lft.to/lastmile_qr_scan"}, "is_reserved": 0}, {"lon": -77.03667633333333, "bike_id": "819ff810b78256afff54e60758cece58", "lat": 38.9083815, "fusion_lon": 0.0, "fusion_lat": 0.0, "type": "electric_scooter", "name": "819ff810b78256afff54e60758cece58", "is_disabled": 0, "rental_uris": {"ios": "https://dc.lft.to/lastmile_qr_scan", "android": "https://dc.lft.to/lastmile_qr_scan"}, "is_reserved": 0}, {"lon": -77.04639133333333, "bike_id": "623c5cd44669847db603b6b33587c91d", "lat": 38.9054795, "fusion_lon": 0.0, "fusion_lat": 0.0, "type": "electric_scooter", "name": "623c5cd44669847db603b6b33587c91d", "is_disabled": 0, "rental_uris": {"ios": "https://dc.lft.to/lastmile_qr_scan", "android": "https://dc.lft.to/lastmile_qr_scan"}, "is_reserved": 0}, {"lon": -77.0417345, "bike_id": "43cd2405936b60074103faf67f05bccb", "lat": 38.9231345, "fusion_lon": 0.0, "fusion_lat": 0.0, "type": "electric_scooter", "name": "43cd2405936b60074103faf67f05bccb", "is_disabled": 0, "rental_uris": {"ios": "https://dc.lft.to/lastmile_qr_scan", "android": "https://dc.lft.to/lastmile_qr_scan"}, "is_reserved": 0}, {"lon": -77.05042916666666, "bike_id": "30fb8f89e16966d0bb757f8908a67b7e", "lat": 38.9241495, "fusion_lon": 0.0, "fusion_lat": 0.0, "type": "electric_bike", "name": "30fb8f89e16966d0bb757f8908a67b7e", "is_disabled": 0, "rental_uris": {"ios": "https://dc.lft.to/lastmile_qr_scan", "android": "https://dc.lft.to/lastmile_qr_scan"}, "is_reserved": 0}, {"lon": -77.01058583333334, "bike_id": "c3fa6372bdfa6fec064a1392166901e8", "lat": 38.87871916666667, "fusion_lon": 0.0, "fusion_lat": 0.0, "type": "electric_scooter", "name": "c3fa6372bdfa6fec064a1392166901e8", "is_disabled": 0, "rental_uris": {"ios": "https://dc.lft.to/lastmile_qr_scan", "android": "https://dc.lft.to/lastmile_qr_scan"}, "is_reserved": 0}, {"lon": -77.03315866666667, "bike_id": "562c7c899b3f977d9a70303786a5ebb4", "lat": 38.90081383333333, "fusion_lon": 0.0, "fusion_lat": 0.0, "type": "electric_scooter", "name": "562c7c899b3f977d9a70303786a5ebb4", "is_disabled": 0, "rental_uris": {"ios": "https://dc.lft.to/lastmile_qr_scan", "android": "https://dc.lft.to/lastmile_qr_scan"}, "is_reserved": 0}, {"lon": -77.01530483333333, "bike_id": "b3a96b192be890f4f5a13ec27c470669", "lat": 38.8873935, "fusion_lon": 0.0, "fusion_lat": 0.0, "type": "electric_scooter", "name": "b3a96b192be890f4f5a13ec27c470669", "is_disabled": 0, "rental_uris": {"ios": "https://dc.lft.to/lastmile_qr_scan", "android": "https://dc.lft.to/lastmile_qr_scan"}, "is_reserved": 0}, {"lon": -76.99354166666667, "bike_id": "3526218bc671c76a3d634bc0950263e5", "lat": 38.845076666666664, "fusion_lon": 0.0, "fusion_lat": 0.0, "type": "electric_bike", "name": "3526218bc671c76a3d634bc0950263e5", "is_disabled": 0, "rental_uris": {"ios": "https://dc.lft.to/lastmile_qr_scan", "android": "https://dc.lft.to/lastmile_qr_scan"}, "is_reserved": 0}, {"lon": -76.973024, "bike_id": "8ea990d00ae2ca63f0c04c3ec5c06100", "lat": 38.916489166666665, "fusion_lon": 0.0, "fusion_lat": 0.0, "type": "electric_scooter", "name": "8ea990d00ae2ca63f0c04c3ec5c06100", "is_disabled": 0, "rental_uris": {"ios": "https://dc.lft.to/lastmile_qr_scan", "android": "https://dc.lft.to/lastmile_qr_scan"}, "is_reserved": 0}, {"lon": -77.00587283333333, "bike_id": "8f2c890ed0ff953f276f7d3913c8a510", "lat": 38.905634666666664, "fusion_lon": 0.0, "fusion_lat": 0.0, "type": "electric_scooter", "name": "8f2c890ed0ff953f276f7d3913c8a510", "is_disabled": 0, "rental_uris": {"ios": "https://dc.lft.to/lastmile_qr_scan", "android": "https://dc.lft.to/lastmile_qr_scan"}, "is_reserved": 0}, {"lon": -76.94408466666667, "bike_id": "701bc9d62dfc6f278c0efff4e6cc1a64", "lat": 38.881459, "fusion_lon": 0.0, "fusion_lat": 0.0, "type": "electric_scooter", "name": "701bc9d62dfc6f278c0efff4e6cc1a64", "is_disabled": 0, "rental_uris": {"ios": "https://dc.lft.to/lastmile_qr_scan", "android": "https://dc.lft.to/lastmile_qr_scan"}, "is_reserved": 0}, {"lon": -76.99881966666666, "bike_id": "c9068dc1b3541937a7e7925f5eed8401", "lat": 38.92054266666667, "fusion_lon": 0.0, "fusion_lat": 0.0, "type": "electric_scooter", "name": "c9068dc1b3541937a7e7925f5eed8401", "is_disabled": 0, "rental_uris": {"ios": "https://dc.lft.to/lastmile_qr_scan", "android": "https://dc.lft.to/lastmile_qr_scan"}, "is_reserved": 0}, {"lon": -77.02272483333333, "bike_id": "0bd6d3896c84eaa936eb59ad7e928b2a", "lat": 38.912122833333335, "fusion_lon": 0.0, "fusion_lat": 0.0, "type": "electric_scooter", "name": "0bd6d3896c84eaa936eb59ad7e928b2a", "is_disabled": 0, "rental_uris": {"ios": "https://dc.lft.to/lastmile_qr_scan", "android": "https://dc.lft.to/lastmile_qr_scan"}, "is_reserved": 0}, {"lon": -77.03292933333333, "bike_id": "c33b51dbdd630123d6c00a440dd10388", "lat": 38.93026283333333, "fusion_lon": 0.0, "fusion_lat": 0.0, "type": "electric_scooter", "name": "c33b51dbdd630123d6c00a440dd10388", "is_disabled": 0, "rental_uris": {"ios": "https://dc.lft.to/lastmile_qr_scan", "android": "https://dc.lft.to/lastmile_qr_scan"}, "is_reserved": 0}, {"lon": -77.046598, "bike_id": "bbd5ca4d1310f45a1c2d61109e4bffed", "lat": 38.907859, "fusion_lon": 0.0, "fusion_lat": 0.0, "type": "electric_scooter", "name": "bbd5ca4d1310f45a1c2d61109e4bffed", "is_disabled": 0, "rental_uris": {"ios": "https://dc.lft.to/lastmile_qr_scan", "android": "https://dc.lft.to/lastmile_qr_scan"}, "is_reserved": 0}, {"lon": -77.0413395, "bike_id": "0062e532a69ee29daa1f86e1ae586fae", "lat": 38.94263016666667, "fusion_lon": 0.0, "fusion_lat": 0.0, "type": "electric_scooter", "name": "0062e532a69ee29daa1f86e1ae586fae", "is_disabled": 0, "rental_uris": {"ios": "https://dc.lft.to/lastmile_qr_scan", "android": "https://dc.lft.to/lastmile_qr_scan"}, "is_reserved": 0}, {"lon": -76.98675633333333, "bike_id": "4ae5fba62f9b106e4fbf7f8a1e6e3a61", "lat": 38.867368166666665, "fusion_lon": 0.0, "fusion_lat": 0.0, "type": "electric_scooter", "name": "4ae5fba62f9b106e4fbf7f8a1e6e3a61", "is_disabled": 0, "rental_uris": {"ios": "https://dc.lft.to/lastmile_qr_scan", "android": "https://dc.lft.to/lastmile_qr_scan"}, "is_reserved": 0}, {"lon": -77.02355783333333, "bike_id": "eb3ee277f116e6e09b7f2e0577e28b17", "lat": 38.9205065, "fusion_lon": 0.0, "fusion_lat": 0.0, "type": "electric_scooter", "name": "eb3ee277f116e6e09b7f2e0577e28b17", "is_disabled": 0, "rental_uris": {"ios": "https://dc.lft.to/lastmile_qr_scan", "android": "https://dc.lft.to/lastmile_qr_scan"}, "is_reserved": 0}, {"lon": -77.03432316666667, "bike_id": "67f1da315c1e1501c807a75f7bc9dc01", "lat": 38.934301833333336, "fusion_lon": 0.0, "fusion_lat": 0.0, "type": "electric_scooter", "name": "67f1da315c1e1501c807a75f7bc9dc01", "is_disabled": 0, "rental_uris": {"ios": "https://dc.lft.to/lastmile_qr_scan", "android": "https://dc.lft.to/lastmile_qr_scan"}, "is_reserved": 0}, {"lon": -77.0351025, "bike_id": "82d6d05807e0e8ad04fdd4c5e0b4ec48", "lat": 38.91828016666667, "fusion_lon": 0.0, "fusion_lat": 0.0, "type": "electric_scooter", "name": "82d6d05807e0e8ad04fdd4c5e0b4ec48", "is_disabled": 0, "rental_uris": {"ios": "https://dc.lft.to/lastmile_qr_scan", "android": "https://dc.lft.to/lastmile_qr_scan"}, "is_reserved": 0}, {"lon": -76.9952465, "bike_id": "1e4e8b1f771b95dc30c7c9ebdf8143a1", "lat": 38.89173533333334, "fusion_lon": 0.0, "fusion_lat": 0.0, "type": "electric_scooter", "name": "1e4e8b1f771b95dc30c7c9ebdf8143a1", "is_disabled": 0, "rental_uris": {"ios": "https://dc.lft.to/lastmile_qr_scan", "android": "https://dc.lft.to/lastmile_qr_scan"}, "is_reserved": 0}, {"lon": -77.03279383333333, "bike_id": "24250169cc1a0d9df4f24872a01d28d2", "lat": 38.94091516666667, "fusion_lon": 0.0, "fusion_lat": 0.0, "type": "electric_scooter", "name": "24250169cc1a0d9df4f24872a01d28d2", "is_disabled": 0, "rental_uris": {"ios": "https://dc.lft.to/lastmile_qr_scan", "android": "https://dc.lft.to/lastmile_qr_scan"}, "is_reserved": 0}, {"lon": -77.16628183333333, "bike_id": "91531d657d1b546a5aadb427258e580d", "lat": 38.88837933333333, "fusion_lon": 0.0, "fusion_lat": 0.0, "type": "electric_bike", "name": "91531d657d1b546a5aadb427258e580d", "is_disabled": 0, "rental_uris": {"ios": "https://dc.lft.to/lastmile_qr_scan", "android": "https://dc.lft.to/lastmile_qr_scan"}, "is_reserved": 0}, {"lon": -77.04655166666667, "bike_id": "bd72d80011a572cd641889db859012a9", "lat": 38.913676833333334, "fusion_lon": 0.0, "fusion_lat": 0.0, "type": "electric_scooter", "name": "bd72d80011a572cd641889db859012a9", "is_disabled": 0, "rental_uris": {"ios": "https://dc.lft.to/lastmile_qr_scan", "android": "https://dc.lft.to/lastmile_qr_scan"}, "is_reserved": 0}, {"lon": -77.03742683333333, "bike_id": "5504685418cc9f349377cbbcfc05ea0a", "lat": 38.928978666666666, "fusion_lon": 0.0, "fusion_lat": 0.0, "type": "electric_scooter", "name": "5504685418cc9f349377cbbcfc05ea0a", "is_disabled": 0, "rental_uris": {"ios": "https://dc.lft.to/lastmile_qr_scan", "android": "https://dc.lft.to/lastmile_qr_scan"}, "is_reserved": 0}, {"lon": -76.99606, "bike_id": "bb0db85007cc2943ce0a166a05390bb1", "lat": 38.930834833333336, "fusion_lon": 0.0, "fusion_lat": 0.0, "type": "electric_scooter", "name": "bb0db85007cc2943ce0a166a05390bb1", "is_disabled": 0, "rental_uris": {"ios": "https://dc.lft.to/lastmile_qr_scan", "android": "https://dc.lft.to/lastmile_qr_scan"}, "is_reserved": 0}, {"lon": -77.03172216666667, "bike_id": "618051d544e25ac806b94c6b2160e3c5", "lat": 38.914162833333336, "fusion_lon": 0.0, "fusion_lat": 0.0, "type": "electric_scooter", "name": "618051d544e25ac806b94c6b2160e3c5", "is_disabled": 0, "rental_uris": {"ios": "https://dc.lft.to/lastmile_qr_scan", "android": "https://dc.lft.to/lastmile_qr_scan"}, "is_reserved": 0}, {"lon": -77.02493733333333, "bike_id": "1fd99fc6f8f6ef49513f5e77c4c46ae8", "lat": 38.925882, "fusion_lon": 0.0, "fusion_lat": 0.0, "type": "electric_scooter", "name": "1fd99fc6f8f6ef49513f5e77c4c46ae8", "is_disabled": 0, "rental_uris": {"ios": "https://dc.lft.to/lastmile_qr_scan", "android": "https://dc.lft.to/lastmile_qr_scan"}, "is_reserved": 0}, {"lon": -77.03802116666667, "bike_id": "72cf72022ce60fa48d3ec7ef8b72ca2f", "lat": 38.92065383333333, "fusion_lon": 0.0, "fusion_lat": 0.0, "type": "electric_scooter", "name": "72cf72022ce60fa48d3ec7ef8b72ca2f", "is_disabled": 0, "rental_uris": {"ios": "https://dc.lft.to/lastmile_qr_scan", "android": "https://dc.lft.to/lastmile_qr_scan"}, "is_reserved": 0}, {"lon": -77.03218633333333, "bike_id": "6803f25708fefbac12730404c7f19e89", "lat": 38.9171045, "fusion_lon": 0.0, "fusion_lat": 0.0, "type": "electric_scooter", "name": "6803f25708fefbac12730404c7f19e89", "is_disabled": 0, "rental_uris": {"ios": "https://dc.lft.to/lastmile_qr_scan", "android": "https://dc.lft.to/lastmile_qr_scan"}, "is_reserved": 0}, {"lon": -77.00581883333334, "bike_id": "2b86cd7f58bd311bdc1f5ae99cd5aeba", "lat": 38.87477033333333, "fusion_lon": 0.0, "fusion_lat": 0.0, "type": "electric_scooter", "name": "2b86cd7f58bd311bdc1f5ae99cd5aeba", "is_disabled": 0, "rental_uris": {"ios": "https://dc.lft.to/lastmile_qr_scan", "android": "https://dc.lft.to/lastmile_qr_scan"}, "is_reserved": 0}, {"lon": -77.08196583333333, "bike_id": "2e960b41e8207e80547f58ad01ce4e94", "lat": 38.92209583333333, "fusion_lon": 0.0, "fusion_lat": 0.0, "type": "electric_bike", "name": "2e960b41e8207e80547f58ad01ce4e94", "is_disabled": 0, "rental_uris": {"ios": "https://dc.lft.to/lastmile_qr_scan", "android": "https://dc.lft.to/lastmile_qr_scan"}, "is_reserved": 0}, {"lon": -77.04118216666667, "bike_id": "aa29af141ae11a5472cd017aa4bae654", "lat": 38.944064, "fusion_lon": 0.0, "fusion_lat": 0.0, "type": "electric_bike", "name": "aa29af141ae11a5472cd017aa4bae654", "is_disabled": 0, "rental_uris": {"ios": "https://dc.lft.to/lastmile_qr_scan", "android": "https://dc.lft.to/lastmile_qr_scan"}, "is_reserved": 0}, {"lon": -77.04000833333333, "bike_id": "8ac137aa7199851cc3257bf7db583a72", "lat": 38.9330045, "fusion_lon": 0.0, "fusion_lat": 0.0, "type": "electric_scooter", "name": "8ac137aa7199851cc3257bf7db583a72", "is_disabled": 0, "rental_uris": {"ios": "https://dc.lft.to/lastmile_qr_scan", "android": "https://dc.lft.to/lastmile_qr_scan"}, "is_reserved": 0}, {"lon": -77.01654266666667, "bike_id": "97a5e941e822f063bf9e4b1ab4c54e04", "lat": 38.88120333333333, "fusion_lon": 0.0, "fusion_lat": 0.0, "type": "electric_scooter", "name": "97a5e941e822f063bf9e4b1ab4c54e04", "is_disabled": 0, "rental_uris": {"ios": "https://dc.lft.to/lastmile_qr_scan", "android": "https://dc.lft.to/lastmile_qr_scan"}, "is_reserved": 0}, {"lon": -77.04331466666666, "bike_id": "3b2b6728db1c54ba1c7e2910d76fba61", "lat": 38.907195, "fusion_lon": 0.0, "fusion_lat": 0.0, "type": "electric_scooter", "name": "3b2b6728db1c54ba1c7e2910d76fba61", "is_disabled": 0, "rental_uris": {"ios": "https://dc.lft.to/lastmile_qr_scan", "android": "https://dc.lft.to/lastmile_qr_scan"}, "is_reserved": 0}, {"lon": -77.03333066666667, "bike_id": "3f3af974419e9564aec1bbbb7b6979fa", "lat": 38.915611166666665, "fusion_lon": 0.0, "fusion_lat": 0.0, "type": "electric_scooter", "name": "3f3af974419e9564aec1bbbb7b6979fa", "is_disabled": 0, "rental_uris": {"ios": "https://dc.lft.to/lastmile_qr_scan", "android": "https://dc.lft.to/lastmile_qr_scan"}, "is_reserved": 0}, {"lon": -77.022644, "bike_id": "48d77c3c3e090fa75cf3aafb2e15762e", "lat": 38.912737166666666, "fusion_lon": 0.0, "fusion_lat": 0.0, "type": "electric_scooter", "name": "48d77c3c3e090fa75cf3aafb2e15762e", "is_disabled": 0, "rental_uris": {"ios": "https://dc.lft.to/lastmile_qr_scan", "android": "https://dc.lft.to/lastmile_qr_scan"}, "is_reserved": 0}, {"lon": -77.07345283333333, "bike_id": "a67bd52e7ba7613aa063cbbba89923cf", "lat": 38.925068, "fusion_lon": 0.0, "fusion_lat": 0.0, "type": "electric_bike", "name": "a67bd52e7ba7613aa063cbbba89923cf", "is_disabled": 0, "rental_uris": {"ios": "https://dc.lft.to/lastmile_qr_scan", "android": "https://dc.lft.to/lastmile_qr_scan"}, "is_reserved": 0}, {"lon": -77.067537, "bike_id": "94563030142282d311c2218483acfe7c", "lat": 38.903341, "fusion_lon": 0.0, "fusion_lat": 0.0, "type": "electric_scooter", "name": "94563030142282d311c2218483acfe7c", "is_disabled": 0, "rental_uris": {"ios": "https://dc.lft.to/lastmile_qr_scan", "android": "https://dc.lft.to/lastmile_qr_scan"}, "is_reserved": 0}, {"lon": -77.0365465, "bike_id": "0e04478cff20328f956f79a0ddcbf7fa", "lat": 38.922602833333336, "fusion_lon": 0.0, "fusion_lat": 0.0, "type": "electric_scooter", "name": "0e04478cff20328f956f79a0ddcbf7fa", "is_disabled": 0, "rental_uris": {"ios": "https://dc.lft.to/lastmile_qr_scan", "android": "https://dc.lft.to/lastmile_qr_scan"}, "is_reserved": 0}, {"lon": -77.0297815, "bike_id": "2554b8b8810909d4288d977ce4ace4be", "lat": 38.932842666666666, "fusion_lon": 0.0, "fusion_lat": 0.0, "type": "electric_scooter", "name": "2554b8b8810909d4288d977ce4ace4be", "is_disabled": 0, "rental_uris": {"ios": "https://dc.lft.to/lastmile_qr_scan", "android": "https://dc.lft.to/lastmile_qr_scan"}, "is_reserved": 0}, {"lon": -77.039435, "bike_id": "d43fcefca5403ae9772cde9dd2dba1a5", "lat": 38.93063933333333, "fusion_lon": 0.0, "fusion_lat": 0.0, "type": "electric_scooter", "name": "d43fcefca5403ae9772cde9dd2dba1a5", "is_disabled": 0, "rental_uris": {"ios": "https://dc.lft.to/lastmile_qr_scan", "android": "https://dc.lft.to/lastmile_qr_scan"}, "is_reserved": 0}, {"lon": -77.03180666666667, "bike_id": "80acbc9aa8d1fb8e3956786a02db3868", "lat": 38.887316, "fusion_lon": 0.0, "fusion_lat": 0.0, "type": "electric_scooter", "name": "80acbc9aa8d1fb8e3956786a02db3868", "is_disabled": 0, "rental_uris": {"ios": "https://dc.lft.to/lastmile_qr_scan", "android": "https://dc.lft.to/lastmile_qr_scan"}, "is_reserved": 0}, {"lon": -77.04345316666667, "bike_id": "79e6fea7ba34fb53b520bd42f2aec898", "lat": 38.9296615, "fusion_lon": 0.0, "fusion_lat": 0.0, "type": "electric_scooter", "name": "79e6fea7ba34fb53b520bd42f2aec898", "is_disabled": 0, "rental_uris": {"ios": "https://dc.lft.to/lastmile_qr_scan", "android": "https://dc.lft.to/lastmile_qr_scan"}, "is_reserved": 0}, {"lon": -77.028223, "bike_id": "02afc833a39a526391e3ecade064601d", "lat": 38.902660833333336, "fusion_lon": 0.0, "fusion_lat": 0.0, "type": "electric_scooter", "name": "02afc833a39a526391e3ecade064601d", "is_disabled": 0, "rental_uris": {"ios": "https://dc.lft.to/lastmile_qr_scan", "android": "https://dc.lft.to/lastmile_qr_scan"}, "is_reserved": 0}, {"lon": -77.02380666666667, "bike_id": "ef80e2a2e7a4abcb2fbc988ec471e206", "lat": 38.907325666666665, "fusion_lon": 0.0, "fusion_lat": 0.0, "type": "electric_scooter", "name": "ef80e2a2e7a4abcb2fbc988ec471e206", "is_disabled": 0, "rental_uris": {"ios": "https://dc.lft.to/lastmile_qr_scan", "android": "https://dc.lft.to/lastmile_qr_scan"}, "is_reserved": 0}, {"lon": -76.98366583333333, "bike_id": "64ff195777ac7c916dc4ccd8e7e60a39", "lat": 38.8997915, "fusion_lon": 0.0, "fusion_lat": 0.0, "type": "electric_scooter", "name": "64ff195777ac7c916dc4ccd8e7e60a39", "is_disabled": 0, "rental_uris": {"ios": "https://dc.lft.to/lastmile_qr_scan", "android": "https://dc.lft.to/lastmile_qr_scan"}, "is_reserved": 0}, {"lon": -77.02287166666666, "bike_id": "051e59621b528f1a0eee299fdd774a7b", "lat": 38.9097725, "fusion_lon": 0.0, "fusion_lat": 0.0, "type": "electric_scooter", "name": "051e59621b528f1a0eee299fdd774a7b", "is_disabled": 0, "rental_uris": {"ios": "https://dc.lft.to/lastmile_qr_scan", "android": "https://dc.lft.to/lastmile_qr_scan"}, "is_reserved": 0}, {"lon": -76.93369566666667, "bike_id": "894560d7ef4aeb26d52e26d1e128a64d", "lat": 38.899142499999996, "fusion_lon": 0.0, "fusion_lat": 0.0, "type": "electric_scooter", "name": "894560d7ef4aeb26d52e26d1e128a64d", "is_disabled": 0, "rental_uris": {"ios": "https://dc.lft.to/lastmile_qr_scan", "android": "https://dc.lft.to/lastmile_qr_scan"}, "is_reserved": 0}, {"lon": -77.02308633333334, "bike_id": "7d7d2b3bb7034f4c3aa7d563210039a2", "lat": 38.941999833333334, "fusion_lon": 0.0, "fusion_lat": 0.0, "type": "electric_scooter", "name": "7d7d2b3bb7034f4c3aa7d563210039a2", "is_disabled": 0, "rental_uris": {"ios": "https://dc.lft.to/lastmile_qr_scan", "android": "https://dc.lft.to/lastmile_qr_scan"}, "is_reserved": 0}, {"lon": -77.04918483333333, "bike_id": "7ff4dafb0e10eef20352a1236efd00e5", "lat": 38.90856316666667, "fusion_lon": 0.0, "fusion_lat": 0.0, "type": "electric_scooter", "name": "7ff4dafb0e10eef20352a1236efd00e5", "is_disabled": 0, "rental_uris": {"ios": "https://dc.lft.to/lastmile_qr_scan", "android": "https://dc.lft.to/lastmile_qr_scan"}, "is_reserved": 0}, {"lon": -77.00064833333333, "bike_id": "0428b4da6c9fae23a312282474141922", "lat": 38.9239495, "fusion_lon": 0.0, "fusion_lat": 0.0, "type": "electric_scooter", "name": "0428b4da6c9fae23a312282474141922", "is_disabled": 0, "rental_uris": {"ios": "https://dc.lft.to/lastmile_qr_scan", "android": "https://dc.lft.to/lastmile_qr_scan"}, "is_reserved": 0}, {"lon": -76.9982535, "bike_id": "8dfb15ef169b80998c7c6df88bff2d6b", "lat": 38.90002583333333, "fusion_lon": 0.0, "fusion_lat": 0.0, "type": "electric_scooter", "name": "8dfb15ef169b80998c7c6df88bff2d6b", "is_disabled": 0, "rental_uris": {"ios": "https://dc.lft.to/lastmile_qr_scan", "android": "https://dc.lft.to/lastmile_qr_scan"}, "is_reserved": 0}, {"lon": -77.03178733333333, "bike_id": "4a08344f9f375b18626b45781c5025ad", "lat": 38.892190166666666, "fusion_lon": 0.0, "fusion_lat": 0.0, "type": "electric_scooter", "name": "4a08344f9f375b18626b45781c5025ad", "is_disabled": 0, "rental_uris": {"ios": "https://dc.lft.to/lastmile_qr_scan", "android": "https://dc.lft.to/lastmile_qr_scan"}, "is_reserved": 0}, {"lon": -77.05725016666666, "bike_id": "a11846c73348c7f7b04ab068ddd63f0d", "lat": 38.933612833333335, "fusion_lon": 0.0, "fusion_lat": 0.0, "type": "electric_scooter", "name": "a11846c73348c7f7b04ab068ddd63f0d", "is_disabled": 0, "rental_uris": {"ios": "https://dc.lft.to/lastmile_qr_scan", "android": "https://dc.lft.to/lastmile_qr_scan"}, "is_reserved": 0}, {"lon": -77.04821633333333, "bike_id": "0fa77a90c7171178d7ec5ca0f7d9e449", "lat": 38.89730083333333, "fusion_lon": 0.0, "fusion_lat": 0.0, "type": "electric_scooter", "name": "0fa77a90c7171178d7ec5ca0f7d9e449", "is_disabled": 0, "rental_uris": {"ios": "https://dc.lft.to/lastmile_qr_scan", "android": "https://dc.lft.to/lastmile_qr_scan"}, "is_reserved": 0}, {"lon": -77.0215995, "bike_id": "c9b787affe47daf45ad7ef028e22af30", "lat": 38.93071183333333, "fusion_lon": 0.0, "fusion_lat": 0.0, "type": "electric_scooter", "name": "c9b787affe47daf45ad7ef028e22af30", "is_disabled": 0, "rental_uris": {"ios": "https://dc.lft.to/lastmile_qr_scan", "android": "https://dc.lft.to/lastmile_qr_scan"}, "is_reserved": 0}, {"lon": -77.04007416666667, "bike_id": "3f9eeebbca7d19747e7edd0133548d3d", "lat": 38.91007883333333, "fusion_lon": 0.0, "fusion_lat": 0.0, "type": "electric_scooter", "name": "3f9eeebbca7d19747e7edd0133548d3d", "is_disabled": 0, "rental_uris": {"ios": "https://dc.lft.to/lastmile_qr_scan", "android": "https://dc.lft.to/lastmile_qr_scan"}, "is_reserved": 0}, {"lon": -77.04598416666667, "bike_id": "e06fe1a1077775143a379cc6efb72ff4", "lat": 38.85307383333333, "fusion_lon": 0.0, "fusion_lat": 0.0, "type": "electric_bike", "name": "e06fe1a1077775143a379cc6efb72ff4", "is_disabled": 0, "rental_uris": {"ios": "https://dc.lft.to/lastmile_qr_scan", "android": "https://dc.lft.to/lastmile_qr_scan"}, "is_reserved": 0}, {"lon": -77.038328, "bike_id": "4870b63be03ae5c9ca60899ce48c28da", "lat": 38.91474083333333, "fusion_lon": 0.0, "fusion_lat": 0.0, "type": "electric_scooter", "name": "4870b63be03ae5c9ca60899ce48c28da", "is_disabled": 0, "rental_uris": {"ios": "https://dc.lft.to/lastmile_qr_scan", "android": "https://dc.lft.to/lastmile_qr_scan"}, "is_reserved": 0}, {"lon": -77.01261583333333, "bike_id": "53956b53ec0e92c949e77c486a1ef235", "lat": 38.8646645, "fusion_lon": 0.0, "fusion_lat": 0.0, "type": "electric_scooter", "name": "53956b53ec0e92c949e77c486a1ef235", "is_disabled": 0, "rental_uris": {"ios": "https://dc.lft.to/lastmile_qr_scan", "android": "https://dc.lft.to/lastmile_qr_scan"}, "is_reserved": 0}, {"lon": -76.98842916666666, "bike_id": "c9580358fd0c2fe7e68cf312d970ae45", "lat": 38.8427725, "fusion_lon": 0.0, "fusion_lat": 0.0, "type": "electric_bike", "name": "c9580358fd0c2fe7e68cf312d970ae45", "is_disabled": 0, "rental_uris": {"ios": "https://dc.lft.to/lastmile_qr_scan", "android": "https://dc.lft.to/lastmile_qr_scan"}, "is_reserved": 0}, {"lon": -76.99458416666667, "bike_id": "e54f230e701fea948e3019c39b073c72", "lat": 38.903711, "fusion_lon": 0.0, "fusion_lat": 0.0, "type": "electric_scooter", "name": "e54f230e701fea948e3019c39b073c72", "is_disabled": 0, "rental_uris": {"ios": "https://dc.lft.to/lastmile_qr_scan", "android": "https://dc.lft.to/lastmile_qr_scan"}, "is_reserved": 0}, {"lon": -76.97238916666667, "bike_id": "5533a1a0569c9469c8c40ffa6b73b10d", "lat": 38.9034355, "fusion_lon": 0.0, "fusion_lat": 0.0, "type": "electric_scooter", "name": "5533a1a0569c9469c8c40ffa6b73b10d", "is_disabled": 0, "rental_uris": {"ios": "https://dc.lft.to/lastmile_qr_scan", "android": "https://dc.lft.to/lastmile_qr_scan"}, "is_reserved": 0}, {"lon": -77.0225375, "bike_id": "6aeb6f2aa668d971a2ac9d60c2aade35", "lat": 38.92684066666666, "fusion_lon": 0.0, "fusion_lat": 0.0, "type": "electric_scooter", "name": "6aeb6f2aa668d971a2ac9d60c2aade35", "is_disabled": 0, "rental_uris": {"ios": "https://dc.lft.to/lastmile_qr_scan", "android": "https://dc.lft.to/lastmile_qr_scan"}, "is_reserved": 0}, {"lon": -77.07234133333333, "bike_id": "3ca701bdfe8c931cfe93f5a175a24e4b", "lat": 38.898861, "fusion_lon": 0.0, "fusion_lat": 0.0, "type": "electric_scooter", "name": "3ca701bdfe8c931cfe93f5a175a24e4b", "is_disabled": 0, "rental_uris": {"ios": "https://dc.lft.to/lastmile_qr_scan", "android": "https://dc.lft.to/lastmile_qr_scan"}, "is_reserved": 0}, {"lon": -77.038098, "bike_id": "721222d39c886b4c18eb9fa8f1ca64a2", "lat": 38.903384, "fusion_lon": 0.0, "fusion_lat": 0.0, "type": "electric_scooter", "name": "721222d39c886b4c18eb9fa8f1ca64a2", "is_disabled": 0, "rental_uris": {"ios": "https://dc.lft.to/lastmile_qr_scan", "android": "https://dc.lft.to/lastmile_qr_scan"}, "is_reserved": 0}, {"lon": -77.03196183333333, "bike_id": "567907457f97398c5b4616e33e2283e1", "lat": 38.90799716666667, "fusion_lon": 0.0, "fusion_lat": 0.0, "type": "electric_scooter", "name": "567907457f97398c5b4616e33e2283e1", "is_disabled": 0, "rental_uris": {"ios": "https://dc.lft.to/lastmile_qr_scan", "android": "https://dc.lft.to/lastmile_qr_scan"}, "is_reserved": 0}, {"lon": -76.99929233333333, "bike_id": "5bffa0ebb39819531303376a711efdff", "lat": 38.843172833333334, "fusion_lon": 0.0, "fusion_lat": 0.0, "type": "electric_scooter", "name": "5bffa0ebb39819531303376a711efdff", "is_disabled": 0, "rental_uris": {"ios": "https://dc.lft.to/lastmile_qr_scan", "android": "https://dc.lft.to/lastmile_qr_scan"}, "is_reserved": 0}, {"lon": -76.99056066666667, "bike_id": "1cd7e9991a6dc3d3b49d9151b33800d5", "lat": 38.86381266666667, "fusion_lon": 0.0, "fusion_lat": 0.0, "type": "electric_scooter", "name": "1cd7e9991a6dc3d3b49d9151b33800d5", "is_disabled": 0, "rental_uris": {"ios": "https://dc.lft.to/lastmile_qr_scan", "android": "https://dc.lft.to/lastmile_qr_scan"}, "is_reserved": 0}, {"lon": -76.990556, "bike_id": "641c3d255f0eb5cc66c7daaae11bf026", "lat": 38.9273615, "fusion_lon": 0.0, "fusion_lat": 0.0, "type": "electric_scooter", "name": "641c3d255f0eb5cc66c7daaae11bf026", "is_disabled": 0, "rental_uris": {"ios": "https://dc.lft.to/lastmile_qr_scan", "android": "https://dc.lft.to/lastmile_qr_scan"}, "is_reserved": 0}, {"lon": -77.11591366666667, "bike_id": "3c7ca35b255a99e8689c2cca5bad2472", "lat": 39.07494366666667, "fusion_lon": 0.0, "fusion_lat": 0.0, "type": "electric_bike", "name": "3c7ca35b255a99e8689c2cca5bad2472", "is_disabled": 0, "rental_uris": {"ios": "https://dc.lft.to/lastmile_qr_scan", "android": "https://dc.lft.to/lastmile_qr_scan"}, "is_reserved": 0}, {"lon": -77.03260283333333, "bike_id": "520e0fb8a57b4d1100363db73d86bb66", "lat": 38.93201883333333, "fusion_lon": 0.0, "fusion_lat": 0.0, "type": "electric_scooter", "name": "520e0fb8a57b4d1100363db73d86bb66", "is_disabled": 0, "rental_uris": {"ios": "https://dc.lft.to/lastmile_qr_scan", "android": "https://dc.lft.to/lastmile_qr_scan"}, "is_reserved": 0}, {"lon": -76.96914266666667, "bike_id": "140d469e91369a4f55efe7fb80463adc", "lat": 38.84619216666667, "fusion_lon": 0.0, "fusion_lat": 0.0, "type": "electric_bike", "name": "140d469e91369a4f55efe7fb80463adc", "is_disabled": 0, "rental_uris": {"ios": "https://dc.lft.to/lastmile_qr_scan", "android": "https://dc.lft.to/lastmile_qr_scan"}, "is_reserved": 0}, {"lon": -77.02263683333334, "bike_id": "ae705f3bc78e511141e94f608c94dd19", "lat": 38.9127225, "fusion_lon": 0.0, "fusion_lat": 0.0, "type": "electric_scooter", "name": "ae705f3bc78e511141e94f608c94dd19", "is_disabled": 0, "rental_uris": {"ios": "https://dc.lft.to/lastmile_qr_scan", "android": "https://dc.lft.to/lastmile_qr_scan"}, "is_reserved": 0}, {"lon": -77.02659533333333, "bike_id": "71e4113bbe6afcbfd067167d58f56ab5", "lat": 38.92584033333333, "fusion_lon": 0.0, "fusion_lat": 0.0, "type": "electric_scooter", "name": "71e4113bbe6afcbfd067167d58f56ab5", "is_disabled": 0, "rental_uris": {"ios": "https://dc.lft.to/lastmile_qr_scan", "android": "https://dc.lft.to/lastmile_qr_scan"}, "is_reserved": 0}, {"lon": -77.03650266666666, "bike_id": "42b46600bd82988d2181bf5ad4a36890", "lat": 38.912387333333335, "fusion_lon": 0.0, "fusion_lat": 0.0, "type": "electric_scooter", "name": "42b46600bd82988d2181bf5ad4a36890", "is_disabled": 0, "rental_uris": {"ios": "https://dc.lft.to/lastmile_qr_scan", "android": "https://dc.lft.to/lastmile_qr_scan"}, "is_reserved": 0}, {"lon": -77.0585805, "bike_id": "54392f837fb2580b70cf2bc6f94014ca", "lat": 38.936086, "fusion_lon": 0.0, "fusion_lat": 0.0, "type": "electric_scooter", "name": "54392f837fb2580b70cf2bc6f94014ca", "is_disabled": 0, "rental_uris": {"ios": "https://dc.lft.to/lastmile_qr_scan", "android": "https://dc.lft.to/lastmile_qr_scan"}, "is_reserved": 0}, {"lon": -76.973301, "bike_id": "404df138b290a340f6782545bbbd4c08", "lat": 38.8652095, "fusion_lon": 0.0, "fusion_lat": 0.0, "type": "electric_bike", "name": "404df138b290a340f6782545bbbd4c08", "is_disabled": 0, "rental_uris": {"ios": "https://dc.lft.to/lastmile_qr_scan", "android": "https://dc.lft.to/lastmile_qr_scan"}, "is_reserved": 0}, {"lon": -77.03654016666667, "bike_id": "60bf0497d44c11483cc3ef15de0203d2", "lat": 38.91242616666667, "fusion_lon": 0.0, "fusion_lat": 0.0, "type": "electric_scooter", "name": "60bf0497d44c11483cc3ef15de0203d2", "is_disabled": 0, "rental_uris": {"ios": "https://dc.lft.to/lastmile_qr_scan", "android": "https://dc.lft.to/lastmile_qr_scan"}, "is_reserved": 0}, {"lon": -77.021795, "bike_id": "0e2ea72a90745ca035fb079052bfdb95", "lat": 38.893577, "fusion_lon": 0.0, "fusion_lat": 0.0, "type": "electric_scooter", "name": "0e2ea72a90745ca035fb079052bfdb95", "is_disabled": 0, "rental_uris": {"ios": "https://dc.lft.to/lastmile_qr_scan", "android": "https://dc.lft.to/lastmile_qr_scan"}, "is_reserved": 0}, {"lon": -77.03478933333334, "bike_id": "5d01effc2118cd3b6f0455a2b1b79c94", "lat": 38.919159666666665, "fusion_lon": 0.0, "fusion_lat": 0.0, "type": "electric_scooter", "name": "5d01effc2118cd3b6f0455a2b1b79c94", "is_disabled": 0, "rental_uris": {"ios": "https://dc.lft.to/lastmile_qr_scan", "android": "https://dc.lft.to/lastmile_qr_scan"}, "is_reserved": 0}, {"lon": -76.98078466666666, "bike_id": "975784cebfda69ffccb22dfdd0514e14", "lat": 38.88421683333333, "fusion_lon": 0.0, "fusion_lat": 0.0, "type": "electric_scooter", "name": "975784cebfda69ffccb22dfdd0514e14", "is_disabled": 0, "rental_uris": {"ios": "https://dc.lft.to/lastmile_qr_scan", "android": "https://dc.lft.to/lastmile_qr_scan"}, "is_reserved": 0}, {"lon": -77.04895733333333, "bike_id": "27d2a4bf9c7b015b831e5b481b471db3", "lat": 38.916082, "fusion_lon": 0.0, "fusion_lat": 0.0, "type": "electric_scooter", "name": "27d2a4bf9c7b015b831e5b481b471db3", "is_disabled": 0, "rental_uris": {"ios": "https://dc.lft.to/lastmile_qr_scan", "android": "https://dc.lft.to/lastmile_qr_scan"}, "is_reserved": 0}, {"lon": -77.03210933333334, "bike_id": "6059364e851ae559b437d6713041598c", "lat": 38.892193666666664, "fusion_lon": 0.0, "fusion_lat": 0.0, "type": "electric_scooter", "name": "6059364e851ae559b437d6713041598c", "is_disabled": 0, "rental_uris": {"ios": "https://dc.lft.to/lastmile_qr_scan", "android": "https://dc.lft.to/lastmile_qr_scan"}, "is_reserved": 0}, {"lon": -76.9836485, "bike_id": "b4bc2db5b54512eb2f209b57df544ca0", "lat": 38.9029125, "fusion_lon": 0.0, "fusion_lat": 0.0, "type": "electric_scooter", "name": "b4bc2db5b54512eb2f209b57df544ca0", "is_disabled": 0, "rental_uris": {"ios": "https://dc.lft.to/lastmile_qr_scan", "android": "https://dc.lft.to/lastmile_qr_scan"}, "is_reserved": 0}, {"lon": -76.97996683333334, "bike_id": "963a1a6e64425d3f93b4b3dbcb077ea2", "lat": 38.906809333333335, "fusion_lon": 0.0, "fusion_lat": 0.0, "type": "electric_scooter", "name": "963a1a6e64425d3f93b4b3dbcb077ea2", "is_disabled": 0, "rental_uris": {"ios": "https://dc.lft.to/lastmile_qr_scan", "android": "https://dc.lft.to/lastmile_qr_scan"}, "is_reserved": 0}, {"lon": -77.02136483333334, "bike_id": "03f283af079fb2cd011b498886aa02b9", "lat": 38.92484116666667, "fusion_lon": 0.0, "fusion_lat": 0.0, "type": "electric_scooter", "name": "03f283af079fb2cd011b498886aa02b9", "is_disabled": 0, "rental_uris": {"ios": "https://dc.lft.to/lastmile_qr_scan", "android": "https://dc.lft.to/lastmile_qr_scan"}, "is_reserved": 0}, {"lon": -77.03573966666667, "bike_id": "42b2817a6baab92161b10a76fe2e788c", "lat": 38.93677666666667, "fusion_lon": 0.0, "fusion_lat": 0.0, "type": "electric_scooter", "name": "42b2817a6baab92161b10a76fe2e788c", "is_disabled": 0, "rental_uris": {"ios": "https://dc.lft.to/lastmile_qr_scan", "android": "https://dc.lft.to/lastmile_qr_scan"}, "is_reserved": 0}, {"lon": -76.9871535, "bike_id": "c548bcd030344943004043bec03e06b5", "lat": 38.86628, "fusion_lon": 0.0, "fusion_lat": 0.0, "type": "electric_scooter", "name": "c548bcd030344943004043bec03e06b5", "is_disabled": 0, "rental_uris": {"ios": "https://dc.lft.to/lastmile_qr_scan", "android": "https://dc.lft.to/lastmile_qr_scan"}, "is_reserved": 0}, {"lon": -77.08753533333334, "bike_id": "aa7c418b1f34a542ee521957feeb3e8e", "lat": 38.889342, "fusion_lon": 0.0, "fusion_lat": 0.0, "type": "electric_bike", "name": "aa7c418b1f34a542ee521957feeb3e8e", "is_disabled": 0, "rental_uris": {"ios": "https://dc.lft.to/lastmile_qr_scan", "android": "https://dc.lft.to/lastmile_qr_scan"}, "is_reserved": 0}, {"lon": -77.01747833333333, "bike_id": "ecc7b737f29b6b2dc248afb7a9e3e595", "lat": 38.87795083333334, "fusion_lon": 0.0, "fusion_lat": 0.0, "type": "electric_scooter", "name": "ecc7b737f29b6b2dc248afb7a9e3e595", "is_disabled": 0, "rental_uris": {"ios": "https://dc.lft.to/lastmile_qr_scan", "android": "https://dc.lft.to/lastmile_qr_scan"}, "is_reserved": 0}, {"lon": -77.0789625, "bike_id": "f3fa434c8108a430bf682a8a7a5379e2", "lat": 38.83932933333333, "fusion_lon": 0.0, "fusion_lat": 0.0, "type": "electric_bike", "name": "f3fa434c8108a430bf682a8a7a5379e2", "is_disabled": 0, "rental_uris": {"ios": "https://dc.lft.to/lastmile_qr_scan", "android": "https://dc.lft.to/lastmile_qr_scan"}, "is_reserved": 0}, {"lon": -76.95183766666666, "bike_id": "98df4afac3ae5b8a9b64badacee03c78", "lat": 38.907377, "fusion_lon": 0.0, "fusion_lat": 0.0, "type": "electric_scooter", "name": "98df4afac3ae5b8a9b64badacee03c78", "is_disabled": 0, "rental_uris": {"ios": "https://dc.lft.to/lastmile_qr_scan", "android": "https://dc.lft.to/lastmile_qr_scan"}, "is_reserved": 0}, {"lon": -76.98208533333333, "bike_id": "800241c10adf6de2940db6699201c962", "lat": 38.89944416666667, "fusion_lon": 0.0, "fusion_lat": 0.0, "type": "electric_scooter", "name": "800241c10adf6de2940db6699201c962", "is_disabled": 0, "rental_uris": {"ios": "https://dc.lft.to/lastmile_qr_scan", "android": "https://dc.lft.to/lastmile_qr_scan"}, "is_reserved": 0}, {"lon": -77.02719133333333, "bike_id": "df3db336f35a869dbaaf7c3169dcd67c", "lat": 38.913348166666665, "fusion_lon": 0.0, "fusion_lat": 0.0, "type": "electric_scooter", "name": "df3db336f35a869dbaaf7c3169dcd67c", "is_disabled": 0, "rental_uris": {"ios": "https://dc.lft.to/lastmile_qr_scan", "android": "https://dc.lft.to/lastmile_qr_scan"}, "is_reserved": 0}, {"lon": -77.0194785, "bike_id": "5672a8736a3bb88a3ac3ab67c680b8db", "lat": 38.9224585, "fusion_lon": 0.0, "fusion_lat": 0.0, "type": "electric_scooter", "name": "5672a8736a3bb88a3ac3ab67c680b8db", "is_disabled": 0, "rental_uris": {"ios": "https://dc.lft.to/lastmile_qr_scan", "android": "https://dc.lft.to/lastmile_qr_scan"}, "is_reserved": 0}, {"lon": -76.98265783333333, "bike_id": "73b085db3b0fcdbd6e2aa9e6bd19b7cd", "lat": 38.90859366666667, "fusion_lon": 0.0, "fusion_lat": 0.0, "type": "electric_scooter", "name": "73b085db3b0fcdbd6e2aa9e6bd19b7cd", "is_disabled": 0, "rental_uris": {"ios": "https://dc.lft.to/lastmile_qr_scan", "android": "https://dc.lft.to/lastmile_qr_scan"}, "is_reserved": 0}, {"lon": -77.02797633333333, "bike_id": "abea8e86a3ba32436b0cfab7fca37953", "lat": 38.92964816666667, "fusion_lon": 0.0, "fusion_lat": 0.0, "type": "electric_scooter", "name": "abea8e86a3ba32436b0cfab7fca37953", "is_disabled": 0, "rental_uris": {"ios": "https://dc.lft.to/lastmile_qr_scan", "android": "https://dc.lft.to/lastmile_qr_scan"}, "is_reserved": 0}, {"lon": -77.0281375, "bike_id": "fea2faeb559e39b08c0c819412dc5779", "lat": 38.9564575, "fusion_lon": 0.0, "fusion_lat": 0.0, "type": "electric_bike", "name": "fea2faeb559e39b08c0c819412dc5779", "is_disabled": 0, "rental_uris": {"ios": "https://dc.lft.to/lastmile_qr_scan", "android": "https://dc.lft.to/lastmile_qr_scan"}, "is_reserved": 0}, {"lon": -77.00205566666666, "bike_id": "ef0b8f410923f6b852c17e62d1c73839", "lat": 38.91460983333333, "fusion_lon": 0.0, "fusion_lat": 0.0, "type": "electric_scooter", "name": "ef0b8f410923f6b852c17e62d1c73839", "is_disabled": 0, "rental_uris": {"ios": "https://dc.lft.to/lastmile_qr_scan", "android": "https://dc.lft.to/lastmile_qr_scan"}, "is_reserved": 0}, {"lon": -77.044912, "bike_id": "27736f7bf166d863acb07585b1d56c48", "lat": 38.913500666666664, "fusion_lon": 0.0, "fusion_lat": 0.0, "type": "electric_scooter", "name": "27736f7bf166d863acb07585b1d56c48", "is_disabled": 0, "rental_uris": {"ios": "https://dc.lft.to/lastmile_qr_scan", "android": "https://dc.lft.to/lastmile_qr_scan"}, "is_reserved": 0}, {"lon": -77.02621966666666, "bike_id": "9ee432386d293c98d428b61fd13b0a36", "lat": 38.90582416666667, "fusion_lon": 0.0, "fusion_lat": 0.0, "type": "electric_scooter", "name": "9ee432386d293c98d428b61fd13b0a36", "is_disabled": 0, "rental_uris": {"ios": "https://dc.lft.to/lastmile_qr_scan", "android": "https://dc.lft.to/lastmile_qr_scan"}, "is_reserved": 0}, {"lon": -77.0415415, "bike_id": "238b9cfe503b52de16973626a3c86afb", "lat": 38.93142783333333, "fusion_lon": 0.0, "fusion_lat": 0.0, "type": "electric_scooter", "name": "238b9cfe503b52de16973626a3c86afb", "is_disabled": 0, "rental_uris": {"ios": "https://dc.lft.to/lastmile_qr_scan", "android": "https://dc.lft.to/lastmile_qr_scan"}, "is_reserved": 0}, {"lon": -77.03503333333333, "bike_id": "65510adbbd370a3a32e5e3a513342797", "lat": 38.93272283333334, "fusion_lon": 0.0, "fusion_lat": 0.0, "type": "electric_scooter", "name": "65510adbbd370a3a32e5e3a513342797", "is_disabled": 0, "rental_uris": {"ios": "https://dc.lft.to/lastmile_qr_scan", "android": "https://dc.lft.to/lastmile_qr_scan"}, "is_reserved": 0}, {"lon": -76.94202316666667, "bike_id": "7e868485cff1c05d20e0829d3e45f215", "lat": 38.89314516666666, "fusion_lon": 0.0, "fusion_lat": 0.0, "type": "electric_bike", "name": "7e868485cff1c05d20e0829d3e45f215", "is_disabled": 0, "rental_uris": {"ios": "https://dc.lft.to/lastmile_qr_scan", "android": "https://dc.lft.to/lastmile_qr_scan"}, "is_reserved": 0}, {"lon": -77.03661366666667, "bike_id": "696b09926a8289405850dea71126115e", "lat": 38.912783166666664, "fusion_lon": 0.0, "fusion_lat": 0.0, "type": "electric_scooter", "name": "696b09926a8289405850dea71126115e", "is_disabled": 0, "rental_uris": {"ios": "https://dc.lft.to/lastmile_qr_scan", "android": "https://dc.lft.to/lastmile_qr_scan"}, "is_reserved": 0}, {"lon": -77.01624883333334, "bike_id": "3c29e761089dccb97af5d0cb7c72e57f", "lat": 38.9086975, "fusion_lon": 0.0, "fusion_lat": 0.0, "type": "electric_scooter", "name": "3c29e761089dccb97af5d0cb7c72e57f", "is_disabled": 0, "rental_uris": {"ios": "https://dc.lft.to/lastmile_qr_scan", "android": "https://dc.lft.to/lastmile_qr_scan"}, "is_reserved": 0}, {"lon": -77.0485725, "bike_id": "dd9a040f18ac5b393b5df66154eaa43d", "lat": 38.90954716666667, "fusion_lon": 0.0, "fusion_lat": 0.0, "type": "electric_scooter", "name": "dd9a040f18ac5b393b5df66154eaa43d", "is_disabled": 0, "rental_uris": {"ios": "https://dc.lft.to/lastmile_qr_scan", "android": "https://dc.lft.to/lastmile_qr_scan"}, "is_reserved": 0}, {"lon": -76.9987045, "bike_id": "e1d150de0d6c54d245aa73e0f72d860b", "lat": 38.90026133333333, "fusion_lon": 0.0, "fusion_lat": 0.0, "type": "electric_scooter", "name": "e1d150de0d6c54d245aa73e0f72d860b", "is_disabled": 0, "rental_uris": {"ios": "https://dc.lft.to/lastmile_qr_scan", "android": "https://dc.lft.to/lastmile_qr_scan"}, "is_reserved": 0}, {"lon": -77.05235, "bike_id": "0cae408636ba946f5bc23bdc264122e4", "lat": 38.92342766666667, "fusion_lon": 0.0, "fusion_lat": 0.0, "type": "electric_scooter", "name": "0cae408636ba946f5bc23bdc264122e4", "is_disabled": 0, "rental_uris": {"ios": "https://dc.lft.to/lastmile_qr_scan", "android": "https://dc.lft.to/lastmile_qr_scan"}, "is_reserved": 0}, {"lon": -77.03218766666667, "bike_id": "14d0af861eec35df047db557688e65f6", "lat": 38.917079333333334, "fusion_lon": 0.0, "fusion_lat": 0.0, "type": "electric_scooter", "name": "14d0af861eec35df047db557688e65f6", "is_disabled": 0, "rental_uris": {"ios": "https://dc.lft.to/lastmile_qr_scan", "android": "https://dc.lft.to/lastmile_qr_scan"}, "is_reserved": 0}, {"lon": -77.0682855, "bike_id": "36b2397e47d9965234f269ee1e316414", "lat": 38.80567633333333, "fusion_lon": 0.0, "fusion_lat": 0.0, "type": "electric_bike", "name": "36b2397e47d9965234f269ee1e316414", "is_disabled": 0, "rental_uris": {"ios": "https://dc.lft.to/lastmile_qr_scan", "android": "https://dc.lft.to/lastmile_qr_scan"}, "is_reserved": 0},