{"data": {"bikes": [{"is_disabled": 0, "fusion_lon": 0.0, "fusion_lat": 0.0, "lat": 38.91935733333333, "type": "electric_bike", "lon": -76.97503016666667, "bike_id": "dcc45a285279e6037ed6f5c1750975b9", "rental_uris": {"android": "https://dc.lft.to/lastmile_qr_scan", "ios": "https://dc.lft.to/lastmile_qr_scan"}, "name": "dcc45a285279e6037ed6f5c1750975b9", "is_reserved": 0}, {"is_disabled": 0, "fusion_lon": 0.0, "fusion_lat": 0.0, "lat": 38.883201, "type": "electric_scooter", "lon": -77.01634266666667, "bike_id": "31cb67bd24be13208923132974123c56", "rental_uris": {"android": "https://dc.lft.to/lastmile_qr_scan", "ios": "https://dc.lft.to/lastmile_qr_scan"}, "name": "31cb67bd24be13208923132974123c56", "is_reserved": 0}, {"is_disabled": 0, "fusion_lon": 0.0, "fusion_lat": 0.0, "lat": 38.917397333333334, "type": "electric_scooter", "lon": -77.04165333333333, "bike_id": "d0d3b2fcf54faba7573e696ba9554769", "rental_uris": {"android": "https://dc.lft.to/lastmile_qr_scan", "ios": "https://dc.lft.to/lastmile_qr_scan"}, "name": "d0d3b2fcf54faba7573e696ba9554769", "is_reserved": 0}, {"is_disabled": 0, "fusion_lon": 0.0, "fusion_lat": 0.0, "lat": 38.94303716666667, "type": "electric_scooter", "lon": -77.02763633333333, "bike_id": "4982f25193f52e88db542135f6080ac9", "rental_uris": {"android": "https://dc.lft.to/lastmile_qr_scan", "ios": "https://dc.lft.to/lastmile_qr_scan"}, "name": "4982f25193f52e88db542135f6080ac9", "is_reserved": 0}, {"is_disabled": 0, "fusion_lon": 0.0, "fusion_lat": 0.0, "lat": 38.91563433333334, "type": "electric_scooter", "lon": -77.03148666666667, "bike_id": "fbf9cf2b255dc8235a098c60067ff3c0", "rental_uris": {"android": "https://dc.lft.to/lastmile_qr_scan", "ios": "https://dc.lft.to/lastmile_qr_scan"}, "name": "fbf9cf2b255dc8235a098c60067ff3c0", "is_reserved": 0}, {"is_disabled": 0, "fusion_lon": 0.0, "fusion_lat": 0.0, "lat": 38.90510716666667, "type": "electric_scooter", "lon": -77.05134483333333, "bike_id": "f3d5b057f16b5ede9ec98b4fc5026acc", "rental_uris": {"android": "https://dc.lft.to/lastmile_qr_scan", "ios": "https://dc.lft.to/lastmile_qr_scan"}, "name": "f3d5b057f16b5ede9ec98b4fc5026acc", "is_reserved": 0}, {"is_disabled": 0, "fusion_lon": 0.0, "fusion_lat": 0.0, "lat": 38.9010965, "type": "electric_scooter", "lon": -77.05985483333333, "bike_id": "b0a4d48c77e83c9a175e69becff16816", "rental_uris": {"android": "https://dc.lft.to/lastmile_qr_scan", "ios": "https://dc.lft.to/lastmile_qr_scan"}, "name": "b0a4d48c77e83c9a175e69becff16816", "is_reserved": 0}, {"is_disabled": 0, "fusion_lon": 0.0, "fusion_lat": 0.0, "lat": 38.89741133333333, "type": "electric_scooter", "lon": -77.0334845, "bike_id": "e78bad699ea1c7ffe98e31b89ebad1cb", "rental_uris": {"android": "https://dc.lft.to/lastmile_qr_scan", "ios": "https://dc.lft.to/lastmile_qr_scan"}, "name": "e78bad699ea1c7ffe98e31b89ebad1cb", "is_reserved": 0}, {"is_disabled": 0, "fusion_lon": 0.0, "fusion_lat": 0.0, "lat": 38.8844415, "type": "electric_scooter", "lon": -76.95192066666667, "bike_id": "d46014367736b76a10ad9f6be463643b", "rental_uris": {"android": "https://dc.lft.to/lastmile_qr_scan", "ios": "https://dc.lft.to/lastmile_qr_scan"}, "name": "d46014367736b76a10ad9f6be463643b", "is_reserved": 0}, {"is_disabled": 0, "fusion_lon": 0.0, "fusion_lat": 0.0, "lat": 38.91202833333333, "type": "electric_scooter", "lon": -77.00086883333333, "bike_id": "237fe0cea10f12f9726a132dfc866a84", "rental_uris": {"android": "https://dc.lft.to/lastmile_qr_scan", "ios": "https://dc.lft.to/lastmile_qr_scan"}, "name": "237fe0cea10f12f9726a132dfc866a84", "is_reserved": 0}, {"is_disabled": 0, "fusion_lon": 0.0, "fusion_lat": 0.0, "lat": 38.91824716666667, "type": "electric_scooter", "lon": -77.03456733333333, "bike_id": "f057ee8754b36b4327958b4bc3bdf0de", "rental_uris": {"android": "https://dc.lft.to/lastmile_qr_scan", "ios": "https://dc.lft.to/lastmile_qr_scan"}, "name": "f057ee8754b36b4327958b4bc3bdf0de", "is_reserved": 0}, {"is_disabled": 0, "fusion_lon": 0.0, "fusion_lat": 0.0, "lat": 38.9103665, "type": "electric_scooter", "lon": -77.0149095, "bike_id": "e39c9d8b3ed65e7aa5d8570439d157af", "rental_uris": {"android": "https://dc.lft.to/lastmile_qr_scan", "ios": "https://dc.lft.to/lastmile_qr_scan"}, "name": "e39c9d8b3ed65e7aa5d8570439d157af", "is_reserved": 0}, {"is_disabled": 0, "fusion_lon": 0.0, "fusion_lat": 0.0, "lat": 38.9135035, "type": "electric_scooter", "lon": -77.03207916666666, "bike_id": "1eec8cd8f511ccf544bca28f03031ee1", "rental_uris": {"android": "https://dc.lft.to/lastmile_qr_scan", "ios": "https://dc.lft.to/lastmile_qr_scan"}, "name": "1eec8cd8f511ccf544bca28f03031ee1", "is_reserved": 0}, {"is_disabled": 0, "fusion_lon": 0.0, "fusion_lat": 0.0, "lat": 38.90964266666667, "type": "electric_scooter", "lon": -77.0238495, "bike_id": "164079af360f195f456f102db5e87b02", "rental_uris": {"android": "https://dc.lft.to/lastmile_qr_scan", "ios": "https://dc.lft.to/lastmile_qr_scan"}, "name": "164079af360f195f456f102db5e87b02", "is_reserved": 0}, {"is_disabled": 0, "fusion_lon": 0.0, "fusion_lat": 0.0, "lat": 38.92232533333333, "type": "electric_scooter", "lon": -76.9753525, "bike_id": "0a9babb48c74443fd51e098f05f43d0e", "rental_uris": {"android": "https://dc.lft.to/lastmile_qr_scan", "ios": "https://dc.lft.to/lastmile_qr_scan"}, "name": "0a9babb48c74443fd51e098f05f43d0e", "is_reserved": 0}, {"is_disabled": 0, "fusion_lon": 0.0, "fusion_lat": 0.0, "lat": 38.91683916666667, "type": "electric_scooter", "lon": -77.0318475, "bike_id": "b89d705f1868cde7db427aac9e99f893", "rental_uris": {"android": "https://dc.lft.to/lastmile_qr_scan", "ios": "https://dc.lft.to/lastmile_qr_scan"}, "name": "b89d705f1868cde7db427aac9e99f893", "is_reserved": 0}, {"is_disabled": 0, "fusion_lon": 0.0, "fusion_lat": 0.0, "lat": 38.9118075, "type": "electric_scooter", "lon": -77.0397605, "bike_id": "be5a4070ddb90ebc746115cc60a53be4", "rental_uris": {"android": "https://dc.lft.to/lastmile_qr_scan", "ios": "https://dc.lft.to/lastmile_qr_scan"}, "name": "be5a4070ddb90ebc746115cc60a53be4", "is_reserved": 0}, {"is_disabled": 0, "fusion_lon": 0.0, "fusion_lat": 0.0, "lat": 38.93702316666667, "type": "electric_bike", "lon": -77.0298365, "bike_id": "15205882c12c307ce994aa257744d5e8", "rental_uris": {"android": "https://dc.lft.to/lastmile_qr_scan", "ios": "https://dc.lft.to/lastmile_qr_scan"}, "name": "15205882c12c307ce994aa257744d5e8", "is_reserved": 0}, {"is_disabled": 0, "fusion_lon": 0.0, "fusion_lat": 0.0, "lat": 38.897213, "type": "electric_scooter", "lon": -77.02150666666667, "bike_id": "37c21c680eac9f6976b05bb657f331a7", "rental_uris": {"android": "https://dc.lft.to/lastmile_qr_scan", "ios": "https://dc.lft.to/lastmile_qr_scan"}, "name": "37c21c680eac9f6976b05bb657f331a7", "is_reserved": 0}, {"is_disabled": 0, "fusion_lon": 0.0, "fusion_lat": 0.0, "lat": 38.87737933333333, "type": "electric_scooter", "lon": -77.01735566666666, "bike_id": "5777d64deba060f3e2363f675be00541", "rental_uris": {"android": "https://dc.lft.to/lastmile_qr_scan", "ios": "https://dc.lft.to/lastmile_qr_scan"}, "name": "5777d64deba060f3e2363f675be00541", "is_reserved": 0}, {"is_disabled": 0, "fusion_lon": 0.0, "fusion_lat": 0.0, "lat": 38.89971633333333, "type": "electric_scooter", "lon": -77.0478235, "bike_id": "3e3c1ca02618c24ab7430b7f6019b077", "rental_uris": {"android": "https://dc.lft.to/lastmile_qr_scan", "ios": "https://dc.lft.to/lastmile_qr_scan"}, "name": "3e3c1ca02618c24ab7430b7f6019b077", "is_reserved": 0}, {"is_disabled": 0, "fusion_lon": 0.0, "fusion_lat": 0.0, "lat": 38.910371, "type": "electric_scooter", "lon": -77.033726, "bike_id": "04f15609895553fec8d8e9c0ac8ae31d", "rental_uris": {"android": "https://dc.lft.to/lastmile_qr_scan", "ios": "https://dc.lft.to/lastmile_qr_scan"}, "name": "04f15609895553fec8d8e9c0ac8ae31d", "is_reserved": 0}, {"is_disabled": 0, "fusion_lon": 0.0, "fusion_lat": 0.0, "lat": 38.86359383333333, "type": "electric_scooter", "lon": -76.99069483333334, "bike_id": "9df1dfb4e30a5fefffc3d92546af963e", "rental_uris": {"android": "https://dc.lft.to/lastmile_qr_scan", "ios": "https://dc.lft.to/lastmile_qr_scan"}, "name": "9df1dfb4e30a5fefffc3d92546af963e", "is_reserved": 0}, {"is_disabled": 0, "fusion_lon": 0.0, "fusion_lat": 0.0, "lat": 38.90700833333333, "type": "electric_scooter", "lon": -76.98693383333334, "bike_id": "dc19f079ae1756a88aced089489e05a4", "rental_uris": {"android": "https://dc.lft.to/lastmile_qr_scan", "ios": "https://dc.lft.to/lastmile_qr_scan"}, "name": "dc19f079ae1756a88aced089489e05a4", "is_reserved": 0}, {"is_disabled": 0, "fusion_lon": 0.0, "fusion_lat": 0.0, "lat": 38.925293333333336, "type": "electric_scooter", "lon": -77.07665166666666, "bike_id": "08902cb02b25ef2226fdcf95190c7547", "rental_uris": {"android": "https://dc.lft.to/lastmile_qr_scan", "ios": "https://dc.lft.to/lastmile_qr_scan"}, "name": "08902cb02b25ef2226fdcf95190c7547", "is_reserved": 0}, {"is_disabled": 0, "fusion_lon": 0.0, "fusion_lat": 0.0, "lat": 38.894769, "type": "electric_scooter", "lon": -76.99416783333334, "bike_id": "2ec6b49f41a014728e082032b53613b8", "rental_uris": {"android": "https://dc.lft.to/lastmile_qr_scan", "ios": "https://dc.lft.to/lastmile_qr_scan"}, "name": "2ec6b49f41a014728e082032b53613b8", "is_reserved": 0}, {"is_disabled": 0, "fusion_lon": 0.0, "fusion_lat": 0.0, "lat": 38.8998385, "type": "electric_scooter", "lon": -77.02006216666666, "bike_id": "9d6bc3845434d7ffcae468ee00dd36c6", "rental_uris": {"android": "https://dc.lft.to/lastmile_qr_scan", "ios": "https://dc.lft.to/lastmile_qr_scan"}, "name": "9d6bc3845434d7ffcae468ee00dd36c6", "is_reserved": 0}, {"is_disabled": 0, "fusion_lon": 0.0, "fusion_lat": 0.0, "lat": 38.893603166666665, "type": "electric_scooter", "lon": -76.98469033333333, "bike_id": "c3bb39e41b6f3b006697e24cd8c8f2ac", "rental_uris": {"android": "https://dc.lft.to/lastmile_qr_scan", "ios": "https://dc.lft.to/lastmile_qr_scan"}, "name": "c3bb39e41b6f3b006697e24cd8c8f2ac", "is_reserved": 0}, {"is_disabled": 0, "fusion_lon": 0.0, "fusion_lat": 0.0, "lat": 38.88739616666667, "type": "electric_scooter", "lon": -77.01536216666666, "bike_id": "897a938c23412d8475124af8443a808e", "rental_uris": {"android": "https://dc.lft.to/lastmile_qr_scan", "ios": "https://dc.lft.to/lastmile_qr_scan"}, "name": "897a938c23412d8475124af8443a808e", "is_reserved": 0}, {"is_disabled": 0, "fusion_lon": 0.0, "fusion_lat": 0.0, "lat": 38.90032333333333, "type": "electric_scooter", "lon": -77.00211633333333, "bike_id": "d74d646e9cb09c79ccb992283ea064e5", "rental_uris": {"android": "https://dc.lft.to/lastmile_qr_scan", "ios": "https://dc.lft.to/lastmile_qr_scan"}, "name": "d74d646e9cb09c79ccb992283ea064e5", "is_reserved": 0}, {"is_disabled": 0, "fusion_lon": 0.0, "fusion_lat": 0.0, "lat": 38.91411, "type": "electric_scooter", "lon": -77.0399405, "bike_id": "3a556878b236f263e6b2ae1a2e31d821", "rental_uris": {"android": "https://dc.lft.to/lastmile_qr_scan", "ios": "https://dc.lft.to/lastmile_qr_scan"}, "name": "3a556878b236f263e6b2ae1a2e31d821", "is_reserved": 0}, {"is_disabled": 0, "fusion_lon": 0.0, "fusion_lat": 0.0, "lat": 38.91816266666667, "type": "electric_scooter", "lon": -77.0247615, "bike_id": "b3161fcbf4c954867626ab3141f0bf36", "rental_uris": {"android": "https://dc.lft.to/lastmile_qr_scan", "ios": "https://dc.lft.to/lastmile_qr_scan"}, "name": "b3161fcbf4c954867626ab3141f0bf36", "is_reserved": 0}, {"is_disabled": 0, "fusion_lon": 0.0, "fusion_lat": 0.0, "lat": 38.905067, "type": "electric_scooter", "lon": -77.03454566666667, "bike_id": "dbf8203675f587785cb27103923bdb8c", "rental_uris": {"android": "https://dc.lft.to/lastmile_qr_scan", "ios": "https://dc.lft.to/lastmile_qr_scan"}, "name": "dbf8203675f587785cb27103923bdb8c", "is_reserved": 0}, {"is_disabled": 0, "fusion_lon": 0.0, "fusion_lat": 0.0, "lat": 38.924750333333336, "type": "electric_scooter", "lon": -77.02815383333333, "bike_id": "eefc36e74b13f868e096ed437c14c813", "rental_uris": {"android": "https://dc.lft.to/lastmile_qr_scan", "ios": "https://dc.lft.to/lastmile_qr_scan"}, "name": "eefc36e74b13f868e096ed437c14c813", "is_reserved": 0}, {"is_disabled": 0, "fusion_lon": 0.0, "fusion_lat": 0.0, "lat": 38.88316616666667, "type": "electric_scooter", "lon": -77.01626333333333, "bike_id": "e3b79fd4d30b741c960689062cfb8d78", "rental_uris": {"android": "https://dc.lft.to/lastmile_qr_scan", "ios": "https://dc.lft.to/lastmile_qr_scan"}, "name": "e3b79fd4d30b741c960689062cfb8d78", "is_reserved": 0}, {"is_disabled": 0, "fusion_lon": 0.0, "fusion_lat": 0.0, "lat": 38.901576, "type": "electric_scooter", "lon": -77.02574766666666, "bike_id": "05753da64fb5e5d9f136063242be7866", "rental_uris": {"android": "https://dc.lft.to/lastmile_qr_scan", "ios": "https://dc.lft.to/lastmile_qr_scan"}, "name": "05753da64fb5e5d9f136063242be7866", "is_reserved": 0}, {"is_disabled": 0, "fusion_lon": 0.0, "fusion_lat": 0.0, "lat": 38.8921995, "type": "electric_scooter", "lon": -77.03187083333333, "bike_id": "59f76360fc82d4f32ea40ef226c2cc60", "rental_uris": {"android": "https://dc.lft.to/lastmile_qr_scan", "ios": "https://dc.lft.to/lastmile_qr_scan"}, "name": "59f76360fc82d4f32ea40ef226c2cc60", "is_reserved": 0}, {"is_disabled": 0, "fusion_lon": 0.0, "fusion_lat": 0.0, "lat": 38.920905166666664, "type": "electric_scooter", "lon": -77.031831, "bike_id": "aea02d8c14e8b6112dcbf1f832bedb92", "rental_uris": {"android": "https://dc.lft.to/lastmile_qr_scan", "ios": "https://dc.lft.to/lastmile_qr_scan"}, "name": "aea02d8c14e8b6112dcbf1f832bedb92", "is_reserved": 0}, {"is_disabled": 0, "fusion_lon": 0.0, "fusion_lat": 0.0, "lat": 38.9012595, "type": "electric_scooter", "lon": -77.04002233333334, "bike_id": "fa5459a8d6ac158f6cd1e1d7ef9672d7", "rental_uris": {"android": "https://dc.lft.to/lastmile_qr_scan", "ios": "https://dc.lft.to/lastmile_qr_scan"}, "name": "fa5459a8d6ac158f6cd1e1d7ef9672d7", "is_reserved": 0}, {"is_disabled": 0, "fusion_lon": 0.0, "fusion_lat": 0.0, "lat": 38.94492233333333, "type": "electric_bike", "lon": -76.98660816666667, "bike_id": "454d59e5172ae65624f1d56db1ca4fd4", "rental_uris": {"android": "https://dc.lft.to/lastmile_qr_scan", "ios": "https://dc.lft.to/lastmile_qr_scan"}, "name": "454d59e5172ae65624f1d56db1ca4fd4", "is_reserved": 0}, {"is_disabled": 0, "fusion_lon": 0.0, "fusion_lat": 0.0, "lat": 38.9126885, "type": "electric_scooter", "lon": -77.0415295, "bike_id": "dd4458758e76c7e81f1c47e802b33f98", "rental_uris": {"android": "https://dc.lft.to/lastmile_qr_scan", "ios": "https://dc.lft.to/lastmile_qr_scan"}, "name": "dd4458758e76c7e81f1c47e802b33f98", "is_reserved": 0}, {"is_disabled": 0, "fusion_lon": 0.0, "fusion_lat": 0.0, "lat": 38.9192945, "type": "electric_scooter", "lon": -77.02510833333334, "bike_id": "601e9ea38e3206919f648112a8e39898", "rental_uris": {"android": "https://dc.lft.to/lastmile_qr_scan", "ios": "https://dc.lft.to/lastmile_qr_scan"}, "name": "601e9ea38e3206919f648112a8e39898", "is_reserved": 0}, {"is_disabled": 0, "fusion_lon": 0.0, "fusion_lat": 0.0, "lat": 38.895939166666665, "type": "electric_scooter", "lon": -77.022969, "bike_id": "22613f7213de848c3514ae3f15b3f680", "rental_uris": {"android": "https://dc.lft.to/lastmile_qr_scan", "ios": "https://dc.lft.to/lastmile_qr_scan"}, "name": "22613f7213de848c3514ae3f15b3f680", "is_reserved": 0}, {"is_disabled": 0, "fusion_lon": 0.0, "fusion_lat": 0.0, "lat": 38.89492633333333, "type": "electric_scooter", "lon": -77.02291233333334, "bike_id": "353fb007ceaaf3b9bde20679346ad018", "rental_uris": {"android": "https://dc.lft.to/lastmile_qr_scan", "ios": "https://dc.lft.to/lastmile_qr_scan"}, "name": "353fb007ceaaf3b9bde20679346ad018", "is_reserved": 0}, {"is_disabled": 0, "fusion_lon": 0.0, "fusion_lat": 0.0, "lat": 38.876548166666666, "type": "electric_scooter", "lon": -77.00402533333333, "bike_id": "6f01e7fd2ddee7e48642032c30f094bc", "rental_uris": {"android": "https://dc.lft.to/lastmile_qr_scan", "ios": "https://dc.lft.to/lastmile_qr_scan"}, "name": "6f01e7fd2ddee7e48642032c30f094bc", "is_reserved": 0}, {"is_disabled": 0, "fusion_lon": 0.0, "fusion_lat": 0.0, "lat": 38.916794833333334, "type": "electric_scooter", "lon": -77.0297505, "bike_id": "84593c353dcfb7ad276dcaea4c4f24e1", "rental_uris": {"android": "https://dc.lft.to/lastmile_qr_scan", "ios": "https://dc.lft.to/lastmile_qr_scan"}, "name": "84593c353dcfb7ad276dcaea4c4f24e1", "is_reserved": 0}, {"is_disabled": 0, "fusion_lon": 0.0, "fusion_lat": 0.0, "lat": 38.924281, "type": "electric_scooter", "lon": -77.04477033333333, "bike_id": "c41ea9fdfe858df4c9b50af348b5330c", "rental_uris": {"android": "https://dc.lft.to/lastmile_qr_scan", "ios": "https://dc.lft.to/lastmile_qr_scan"}, "name": "c41ea9fdfe858df4c9b50af348b5330c", "is_reserved": 0}, {"is_disabled": 0, "fusion_lon": 0.0, "fusion_lat": 0.0, "lat": 38.901088, "type": "electric_scooter", "lon": -77.02728433333333, "bike_id": "7cba178cb50769a518e0f1cbbff8e233", "rental_uris": {"android": "https://dc.lft.to/lastmile_qr_scan", "ios": "https://dc.lft.to/lastmile_qr_scan"}, "name": "7cba178cb50769a518e0f1cbbff8e233", "is_reserved": 0}, {"is_disabled": 0, "fusion_lon": 0.0, "fusion_lat": 0.0, "lat": 38.935464, "type": "electric_scooter", "lon": -77.05807883333334, "bike_id": "4eeb6318bc9c4f323a1e7c0523c2ab76", "rental_uris": {"android": "https://dc.lft.to/lastmile_qr_scan", "ios": "https://dc.lft.to/lastmile_qr_scan"}, "name": "4eeb6318bc9c4f323a1e7c0523c2ab76", "is_reserved": 0}, {"is_disabled": 0, "fusion_lon": 0.0, "fusion_lat": 0.0, "lat": 38.9117545, "type": "electric_scooter", "lon": -77.02706833333333, "bike_id": "ca31393201ede48cab8ce15dad2ba1a4", "rental_uris": {"android": "https://dc.lft.to/lastmile_qr_scan", "ios": "https://dc.lft.to/lastmile_qr_scan"}, "name": "ca31393201ede48cab8ce15dad2ba1a4", "is_reserved": 0}, {"is_disabled": 0, "fusion_lon": 0.0, "fusion_lat": 0.0, "lat": 38.942842166666665, "type": "electric_scooter", "lon": -77.02346966666667, "bike_id": "4cf1bfad1a8814ab03cdd24a46e7d2e0", "rental_uris": {"android": "https://dc.lft.to/lastmile_qr_scan", "ios": "https://dc.lft.to/lastmile_qr_scan"}, "name": "4cf1bfad1a8814ab03cdd24a46e7d2e0", "is_reserved": 0}, {"is_disabled": 0, "fusion_lon": 0.0, "fusion_lat": 0.0, "lat": 39.115064333333336, "type": "electric_bike", "lon": -77.19550016666666, "bike_id": "634333393a3ea090a7c542d3c4a7d1a2", "rental_uris": {"android": "https://dc.lft.to/lastmile_qr_scan", "ios": "https://dc.lft.to/lastmile_qr_scan"}, "name": "634333393a3ea090a7c542d3c4a7d1a2", "is_reserved": 0}, {"is_disabled": 0, "fusion_lon": 0.0, "fusion_lat": 0.0, "lat": 38.85717116666667, "type": "electric_bike", "lon": -76.981155, "bike_id": "b34f7a41d7a50ceb7d28fb09c3097660", "rental_uris": {"android": "https://dc.lft.to/lastmile_qr_scan", "ios": "https://dc.lft.to/lastmile_qr_scan"}, "name": "b34f7a41d7a50ceb7d28fb09c3097660", "is_reserved": 0}, {"is_disabled": 0, "fusion_lon": 0.0, "fusion_lat": 0.0, "lat": 38.838112, "type": "electric_scooter", "lon": -77.00432983333333, "bike_id": "deaf1484f82e066c638752ec8c716702", "rental_uris": {"android": "https://dc.lft.to/lastmile_qr_scan", "ios": "https://dc.lft.to/lastmile_qr_scan"}, "name": "deaf1484f82e066c638752ec8c716702", "is_reserved": 0}, {"is_disabled": 0, "fusion_lon": 0.0, "fusion_lat": 0.0, "lat": 38.9156355, "type": "electric_scooter", "lon": -77.03874016666667, "bike_id": "aabc120e6f9d795c073baa26082de15b", "rental_uris": {"android": "https://dc.lft.to/lastmile_qr_scan", "ios": "https://dc.lft.to/lastmile_qr_scan"}, "name": "aabc120e6f9d795c073baa26082de15b", "is_reserved": 0}, {"is_disabled": 0, "fusion_lon": 0.0, "fusion_lat": 0.0, "lat": 38.93046666666667, "type": "electric_scooter", "lon": -77.00417933333334, "bike_id": "ef0d8ce60730cc9e4ab5db6cce588932", "rental_uris": {"android": "https://dc.lft.to/lastmile_qr_scan", "ios": "https://dc.lft.to/lastmile_qr_scan"}, "name": "ef0d8ce60730cc9e4ab5db6cce588932", "is_reserved": 0}, {"is_disabled": 0, "fusion_lon": 0.0, "fusion_lat": 0.0, "lat": 38.928602, "type": "electric_scooter", "lon": -77.03420133333333, "bike_id": "13e15265dcf1c09fc7062fb8bc306186", "rental_uris": {"android": "https://dc.lft.to/lastmile_qr_scan", "ios": "https://dc.lft.to/lastmile_qr_scan"}, "name": "13e15265dcf1c09fc7062fb8bc306186", "is_reserved": 0}, {"is_disabled": 0, "fusion_lon": 0.0, "fusion_lat": 0.0, "lat": 38.86245683333333, "type": "electric_scooter", "lon": -76.99493816666667, "bike_id": "a857f25e1ebe3ec8ddc6fe0e96776c84", "rental_uris": {"android": "https://dc.lft.to/lastmile_qr_scan", "ios": "https://dc.lft.to/lastmile_qr_scan"}, "name": "a857f25e1ebe3ec8ddc6fe0e96776c84", "is_reserved": 0}, {"is_disabled": 0, "fusion_lon": 0.0, "fusion_lat": 0.0, "lat": 38.99257166666666, "type": "electric_bike", "lon": -77.04997966666667, "bike_id": "d5609019573bec35f6cde2e0d0fd9c2a", "rental_uris": {"android": "https://dc.lft.to/lastmile_qr_scan", "ios": "https://dc.lft.to/lastmile_qr_scan"}, "name": "d5609019573bec35f6cde2e0d0fd9c2a", "is_reserved": 0}, {"is_disabled": 0, "fusion_lon": 0.0, "fusion_lat": 0.0, "lat": 38.86594216666667, "type": "electric_bike", "lon": -76.9322755, "bike_id": "dbf0584b1ce3c451d1260c5f4fd8bbf8", "rental_uris": {"android": "https://dc.lft.to/lastmile_qr_scan", "ios": "https://dc.lft.to/lastmile_qr_scan"}, "name": "dbf0584b1ce3c451d1260c5f4fd8bbf8", "is_reserved": 0}, {"is_disabled": 0, "fusion_lon": 0.0, "fusion_lat": 0.0, "lat": 38.91758166666666, "type": "electric_scooter", "lon": -77.03195533333333, "bike_id": "21a0c15ecb8caca0163f4dc2541ea0ff", "rental_uris": {"android": "https://dc.lft.to/lastmile_qr_scan", "ios": "https://dc.lft.to/lastmile_qr_scan"}, "name": "21a0c15ecb8caca0163f4dc2541ea0ff", "is_reserved": 0}, {"is_disabled": 0, "fusion_lon": 0.0, "fusion_lat": 0.0, "lat": 38.91533066666667, "type": "electric_scooter", "lon": -77.02185466666667, "bike_id": "03e1f5c84b89d416e9b24137de8cc9ca", "rental_uris": {"android": "https://dc.lft.to/lastmile_qr_scan", "ios": "https://dc.lft.to/lastmile_qr_scan"}, "name": "03e1f5c84b89d416e9b24137de8cc9ca", "is_reserved": 0}, {"is_disabled": 0, "fusion_lon": 0.0, "fusion_lat": 0.0, "lat": 38.915466333333335, "type": "electric_scooter", "lon": -77.03149833333333, "bike_id": "b4055f388d4d8cb6287ae471e940eb81", "rental_uris": {"android": "https://dc.lft.to/lastmile_qr_scan", "ios": "https://dc.lft.to/lastmile_qr_scan"}, "name": "b4055f388d4d8cb6287ae471e940eb81", "is_reserved": 0}, {"is_disabled": 0, "fusion_lon": 0.0, "fusion_lat": 0.0, "lat": 38.918080833333335, "type": "electric_scooter", "lon": -77.0356685, "bike_id": "5f38232d0ea8a1963ae299880e73b3e5", "rental_uris": {"android": "https://dc.lft.to/lastmile_qr_scan", "ios": "https://dc.lft.to/lastmile_qr_scan"}, "name": "5f38232d0ea8a1963ae299880e73b3e5", "is_reserved": 0}, {"is_disabled": 0, "fusion_lon": 0.0, "fusion_lat": 0.0, "lat": 38.892497666666664, "type": "electric_scooter", "lon": -76.9985295, "bike_id": "792c722ee9157f3d3e3d066f68149659", "rental_uris": {"android": "https://dc.lft.to/lastmile_qr_scan", "ios": "https://dc.lft.to/lastmile_qr_scan"}, "name": "792c722ee9157f3d3e3d066f68149659", "is_reserved": 0}, {"is_disabled": 0, "fusion_lon": 0.0, "fusion_lat": 0.0, "lat": 38.85213266666667, "type": "electric_bike", "lon": -77.12753566666666, "bike_id": "65df21c0de3d529def5ffb9816bdcf0b", "rental_uris": {"android": "https://dc.lft.to/lastmile_qr_scan", "ios": "https://dc.lft.to/lastmile_qr_scan"}, "name": "65df21c0de3d529def5ffb9816bdcf0b", "is_reserved": 0}, {"is_disabled": 0, "fusion_lon": 0.0, "fusion_lat": 0.0, "lat": 38.90873116666667, "type": "electric_scooter", "lon": -77.043541, "bike_id": "644eb734c63ce79a82872a8969b99804", "rental_uris": {"android": "https://dc.lft.to/lastmile_qr_scan", "ios": "https://dc.lft.to/lastmile_qr_scan"}, "name": "644eb734c63ce79a82872a8969b99804", "is_reserved": 0}, {"is_disabled": 0, "fusion_lon": 0.0, "fusion_lat": 0.0, "lat": 38.91929916666667, "type": "electric_scooter", "lon": -77.03424033333333, "bike_id": "309694733f977441b31647aab40e5e96", "rental_uris": {"android": "https://dc.lft.to/lastmile_qr_scan", "ios": "https://dc.lft.to/lastmile_qr_scan"}, "name": "309694733f977441b31647aab40e5e96", "is_reserved": 0}, {"is_disabled": 0, "fusion_lon": 0.0, "fusion_lat": 0.0, "lat": 38.94498383333333, "type": "electric_bike", "lon": -77.00683583333333, "bike_id": "0e2e8ce175215ac4709994f124a58549", "rental_uris": {"android": "https://dc.lft.to/lastmile_qr_scan", "ios": "https://dc.lft.to/lastmile_qr_scan"}, "name": "0e2e8ce175215ac4709994f124a58549", "is_reserved": 0}, {"is_disabled": 0, "fusion_lon": 0.0, "fusion_lat": 0.0, "lat": 38.89732016666667, "type": "electric_scooter", "lon": -77.04720516666667, "bike_id": "0090b5d8beb12a7e3d327eaffb763fef", "rental_uris": {"android": "https://dc.lft.to/lastmile_qr_scan", "ios": "https://dc.lft.to/lastmile_qr_scan"}, "name": "0090b5d8beb12a7e3d327eaffb763fef", "is_reserved": 0}, {"is_disabled": 0, "fusion_lon": 0.0, "fusion_lat": 0.0, "lat": 38.89966733333333, "type": "electric_scooter", "lon": -76.98707316666666, "bike_id": "a64f34a4df22f8a3bf107eeeb8025163", "rental_uris": {"android": "https://dc.lft.to/lastmile_qr_scan", "ios": "https://dc.lft.to/lastmile_qr_scan"}, "name": "a64f34a4df22f8a3bf107eeeb8025163", "is_reserved": 0}, {"is_disabled": 0, "fusion_lon": 0.0, "fusion_lat": 0.0, "lat": 38.9199285, "type": "electric_scooter", "lon": -76.98400816666667, "bike_id": "80065136cc2e47f3a1c83d0c6979ff88", "rental_uris": {"android": "https://dc.lft.to/lastmile_qr_scan", "ios": "https://dc.lft.to/lastmile_qr_scan"}, "name": "80065136cc2e47f3a1c83d0c6979ff88", "is_reserved": 0}, {"is_disabled": 0, "fusion_lon": 0.0, "fusion_lat": 0.0, "lat": 38.91552933333333, "type": "electric_scooter", "lon": -77.023714, "bike_id": "478b0211c298443a340fb6b50d38feba", "rental_uris": {"android": "https://dc.lft.to/lastmile_qr_scan", "ios": "https://dc.lft.to/lastmile_qr_scan"}, "name": "478b0211c298443a340fb6b50d38feba", "is_reserved": 0}, {"is_disabled": 0, "fusion_lon": 0.0, "fusion_lat": 0.0, "lat": 38.93313166666667, "type": "electric_scooter", "lon": -77.03266766666667, "bike_id": "20ad49fa13f04176362e0e501b672b11", "rental_uris": {"android": "https://dc.lft.to/lastmile_qr_scan", "ios": "https://dc.lft.to/lastmile_qr_scan"}, "name": "20ad49fa13f04176362e0e501b672b11", "is_reserved": 0}, {"is_disabled": 0, "fusion_lon": 0.0, "fusion_lat": 0.0, "lat": 38.922414, "type": "electric_scooter", "lon": -77.0366975, "bike_id": "3e7d7fd4dd262cbc9c2efd448aaf970b", "rental_uris": {"android": "https://dc.lft.to/lastmile_qr_scan", "ios": "https://dc.lft.to/lastmile_qr_scan"}, "name": "3e7d7fd4dd262cbc9c2efd448aaf970b", "is_reserved": 0}, {"is_disabled": 0, "fusion_lon": 0.0, "fusion_lat": 0.0, "lat": 38.91564833333333, "type": "electric_scooter", "lon": -77.03874716666667, "bike_id": "6adedf16b79f5292ac4caabe99c1afa8", "rental_uris": {"android": "https://dc.lft.to/lastmile_qr_scan", "ios": "https://dc.lft.to/lastmile_qr_scan"}, "name": "6adedf16b79f5292ac4caabe99c1afa8", "is_reserved": 0}, {"is_disabled": 0, "fusion_lon": 0.0, "fusion_lat": 0.0, "lat": 38.89749283333333, "type": "electric_scooter", "lon": -77.0512575, "bike_id": "595ef2e30a9c607392205f1b381f1de8", "rental_uris": {"android": "https://dc.lft.to/lastmile_qr_scan", "ios": "https://dc.lft.to/lastmile_qr_scan"}, "name": "595ef2e30a9c607392205f1b381f1de8", "is_reserved": 0}, {"is_disabled": 0, "fusion_lon": 0.0, "fusion_lat": 0.0, "lat": 38.863602, "type": "electric_scooter", "lon": -76.99063833333334, "bike_id": "b18a284494b4704d12f97c2f26e4da68", "rental_uris": {"android": "https://dc.lft.to/lastmile_qr_scan", "ios": "https://dc.lft.to/lastmile_qr_scan"}, "name": "b18a284494b4704d12f97c2f26e4da68", "is_reserved": 0}, {"is_disabled": 0, "fusion_lon": 0.0, "fusion_lat": 0.0, "lat": 38.898397, "type": "electric_scooter", "lon": -77.0317575, "bike_id": "719bccd7937a66731392c0e8287dd747", "rental_uris": {"android": "https://dc.lft.to/lastmile_qr_scan", "ios": "https://dc.lft.to/lastmile_qr_scan"}, "name": "719bccd7937a66731392c0e8287dd747", "is_reserved": 0}, {"is_disabled": 0, "fusion_lon": 0.0, "fusion_lat": 0.0, "lat": 38.9214755, "type": "electric_scooter", "lon": -77.0386905, "bike_id": "8c08a4cce345dcb1914abc46269dffd8", "rental_uris": {"android": "https://dc.lft.to/lastmile_qr_scan", "ios": "https://dc.lft.to/lastmile_qr_scan"}, "name": "8c08a4cce345dcb1914abc46269dffd8", "is_reserved": 0}, {"is_disabled": 0, "fusion_lon": 0.0, "fusion_lat": 0.0, "lat": 38.931141, "type": "electric_scooter", "lon": -77.0124855, "bike_id": "b6f102e556f05079d31792056f363997", "rental_uris": {"android": "https://dc.lft.to/lastmile_qr_scan", "ios": "https://dc.lft.to/lastmile_qr_scan"}, "name": "b6f102e556f05079d31792056f363997", "is_reserved": 0}, {"is_disabled": 0, "fusion_lon": 0.0, "fusion_lat": 0.0, "lat": 38.90960066666667, "type": "electric_scooter", "lon": -77.0406135, "bike_id": "698455aaac961f7d53da1a262e629244", "rental_uris": {"android": "https://dc.lft.to/lastmile_qr_scan", "ios": "https://dc.lft.to/lastmile_qr_scan"}, "name": "698455aaac961f7d53da1a262e629244", "is_reserved": 0}, {"is_disabled": 0, "fusion_lon": 0.0, "fusion_lat": 0.0, "lat": 38.94754483333333, "type": "electric_scooter", "lon": -77.02978, "bike_id": "aa80a34d29d94ab921de6840177b5d79", "rental_uris": {"android": "https://dc.lft.to/lastmile_qr_scan", "ios": "https://dc.lft.to/lastmile_qr_scan"}, "name": "aa80a34d29d94ab921de6840177b5d79", "is_reserved": 0}, {"is_disabled": 0, "fusion_lon": 0.0, "fusion_lat": 0.0, "lat": 38.92648833333333, "type": "electric_scooter", "lon": -77.037179, "bike_id": "eefa7c052eef90123520f76f269058a6", "rental_uris": {"android": "https://dc.lft.to/lastmile_qr_scan", "ios": "https://dc.lft.to/lastmile_qr_scan"}, "name": "eefa7c052eef90123520f76f269058a6", "is_reserved": 0}, {"is_disabled": 0, "fusion_lon": 0.0, "fusion_lat": 0.0, "lat": 38.90658783333333, "type": "electric_scooter", "lon": -77.02721566666666, "bike_id": "e0fcd4332c00bbd085eb2e817b85a89f", "rental_uris": {"android": "https://dc.lft.to/lastmile_qr_scan", "ios": "https://dc.lft.to/lastmile_qr_scan"}, "name": "e0fcd4332c00bbd085eb2e817b85a89f", "is_reserved": 0}, {"is_disabled": 0, "fusion_lon": 0.0, "fusion_lat": 0.0, "lat": 38.907732833333334, "type": "electric_scooter", "lon": -77.03860983333334, "bike_id": "6bbcc47dc4e252b61a69be3f2eef5097", "rental_uris": {"android": "https://dc.lft.to/lastmile_qr_scan", "ios": "https://dc.lft.to/lastmile_qr_scan"}, "name": "6bbcc47dc4e252b61a69be3f2eef5097", "is_reserved": 0}, {"is_disabled": 0, "fusion_lon": 0.0, "fusion_lat": 0.0, "lat": 38.901750666666665, "type": "electric_scooter", "lon": -77.0182615, "bike_id": "c57ab141334aaed605a9a867abfc6af4", "rental_uris": {"android": "https://dc.lft.to/lastmile_qr_scan", "ios": "https://dc.lft.to/lastmile_qr_scan"}, "name": "c57ab141334aaed605a9a867abfc6af4", "is_reserved": 0}, {"is_disabled": 0, "fusion_lon": 0.0, "fusion_lat": 0.0, "lat": 38.88516033333333, "type": "electric_scooter", "lon": -76.99856733333333, "bike_id": "3d20cc5f63df4ec95a9b4bcdc8ebac2a", "rental_uris": {"android": "https://dc.lft.to/lastmile_qr_scan", "ios": "https://dc.lft.to/lastmile_qr_scan"}, "name": "3d20cc5f63df4ec95a9b4bcdc8ebac2a", "is_reserved": 0}, {"is_disabled": 0, "fusion_lon": 0.0, "fusion_lat": 0.0, "lat": 38.88020316666667, "type": "electric_scooter", "lon": -76.93115916666666, "bike_id": "53a768490d3469d8fb85372be02b5f57", "rental_uris": {"android": "https://dc.lft.to/lastmile_qr_scan", "ios": "https://dc.lft.to/lastmile_qr_scan"}, "name": "53a768490d3469d8fb85372be02b5f57", "is_reserved": 0}, {"is_disabled": 0, "fusion_lon": 0.0, "fusion_lat": 0.0, "lat": 38.90572, "type": "electric_scooter", "lon": -77.023857, "bike_id": "5b0fe174ec90aaeaf427cbd3f02533de", "rental_uris": {"android": "https://dc.lft.to/lastmile_qr_scan", "ios": "https://dc.lft.to/lastmile_qr_scan"}, "name": "5b0fe174ec90aaeaf427cbd3f02533de", "is_reserved": 0}, {"is_disabled": 0, "fusion_lon": 0.0, "fusion_lat": 0.0, "lat": 38.9203685, "type": "electric_scooter", "lon": -77.02583516666667, "bike_id": "2a53f2a92e21c98042bc8974e40b2e66", "rental_uris": {"android": "https://dc.lft.to/lastmile_qr_scan", "ios": "https://dc.lft.to/lastmile_qr_scan"}, "name": "2a53f2a92e21c98042bc8974e40b2e66", "is_reserved": 0}, {"is_disabled": 0, "fusion_lon": 0.0, "fusion_lat": 0.0, "lat": 38.915412333333336, "type": "electric_scooter", "lon": -77.032103, "bike_id": "ead62950259a6201abe55d70744b00cc", "rental_uris": {"android": "https://dc.lft.to/lastmile_qr_scan", "ios": "https://dc.lft.to/lastmile_qr_scan"}, "name": "ead62950259a6201abe55d70744b00cc", "is_reserved": 0}, {"is_disabled": 0, "fusion_lon": 0.0, "fusion_lat": 0.0, "lat": 38.895253333333336, "type": "electric_scooter", "lon": -77.0284165, "bike_id": "3e1e13c3c61d9ce2b3cf3de68a6e6130", "rental_uris": {"android": "https://dc.lft.to/lastmile_qr_scan", "ios": "https://dc.lft.to/lastmile_qr_scan"}, "name": "3e1e13c3c61d9ce2b3cf3de68a6e6130", "is_reserved": 0}, {"is_disabled": 0, "fusion_lon": 0.0, "fusion_lat": 0.0, "lat": 38.85336616666667, "type": "electric_scooter", "lon": -76.9659595, "bike_id": "dd1c1f2599172a1fbd947c055536ae16", "rental_uris": {"android": "https://dc.lft.to/lastmile_qr_scan", "ios": "https://dc.lft.to/lastmile_qr_scan"}, "name": "dd1c1f2599172a1fbd947c055536ae16", "is_reserved": 0}, {"is_disabled": 0, "fusion_lon": 0.0, "fusion_lat": 0.0, "lat": 38.98825816666667, "type": "electric_bike", "lon": -76.98760316666667, "bike_id": "d9309cc656cd32b1c5dafc7e3b21642b", "rental_uris": {"android": "https://dc.lft.to/lastmile_qr_scan", "ios": "https://dc.lft.to/lastmile_qr_scan"}, "name": "d9309cc656cd32b1c5dafc7e3b21642b", "is_reserved": 0}, {"is_disabled": 0, "fusion_lon": 0.0, "fusion_lat": 0.0, "lat": 38.906576, "type": "electric_scooter", "lon": -77.02943666666667, "bike_id": "d435956ac99018cb4888c34c9f861cd2", "rental_uris": {"android": "https://dc.lft.to/lastmile_qr_scan", "ios": "https://dc.lft.to/lastmile_qr_scan"}, "name": "d435956ac99018cb4888c34c9f861cd2", "is_reserved": 0}, {"is_disabled": 0, "fusion_lon": 0.0, "fusion_lat": 0.0, "lat": 38.9147985, "type": "electric_scooter", "lon": -77.03468616666666, "bike_id": "91f3dcbf1e8a5429f8b0a4694c536774", "rental_uris": {"android": "https://dc.lft.to/lastmile_qr_scan", "ios": "https://dc.lft.to/lastmile_qr_scan"}, "name": "91f3dcbf1e8a5429f8b0a4694c536774", "is_reserved": 0}, {"is_disabled": 0, "fusion_lon": 0.0, "fusion_lat": 0.0, "lat": 38.88417666666667, "type": "electric_scooter", "lon": -76.95419433333333, "bike_id": "60ab6a6c2223ba385c53b3b693441da7", "rental_uris": {"android": "https://dc.lft.to/lastmile_qr_scan", "ios": "https://dc.lft.to/lastmile_qr_scan"}, "name": "60ab6a6c2223ba385c53b3b693441da7", "is_reserved": 0}, {"is_disabled": 0, "fusion_lon": 0.0, "fusion_lat": 0.0, "lat": 38.898265333333335, "type": "electric_scooter", "lon": -77.03364783333333, "bike_id": "b38eb0f3c33961ca4b720ba8068bf028", "rental_uris": {"android": "https://dc.lft.to/lastmile_qr_scan", "ios": "https://dc.lft.to/lastmile_qr_scan"}, "name": "b38eb0f3c33961ca4b720ba8068bf028", "is_reserved": 0}, {"is_disabled": 0, "fusion_lon": 0.0, "fusion_lat": 0.0, "lat": 38.91794183333333, "type": "electric_scooter", "lon": -77.0346785, "bike_id": "4b9a5c8dc3ba6ddbabda4530c72890be", "rental_uris": {"android": "https://dc.lft.to/lastmile_qr_scan", "ios": "https://dc.lft.to/lastmile_qr_scan"}, "name": "4b9a5c8dc3ba6ddbabda4530c72890be", "is_reserved": 0}, {"is_disabled": 0, "fusion_lon": 0.0, "fusion_lat": 0.0, "lat": 38.892086666666664, "type": "electric_scooter", "lon": -76.98810783333333, "bike_id": "490b5d85fffc4eaa19c9ca31d6b07acc", "rental_uris": {"android": "https://dc.lft.to/lastmile_qr_scan", "ios": "https://dc.lft.to/lastmile_qr_scan"}, "name": "490b5d85fffc4eaa19c9ca31d6b07acc", "is_reserved": 0}, {"is_disabled": 0, "fusion_lon": 0.0, "fusion_lat": 0.0, "lat": 38.9133975, "type": "electric_scooter", "lon": -77.03260583333333, "bike_id": "6b049dea08fc4858893dd5414c7f0e59", "rental_uris": {"android": "https://dc.lft.to/lastmile_qr_scan", "ios": "https://dc.lft.to/lastmile_qr_scan"}, "name": "6b049dea08fc4858893dd5414c7f0e59", "is_reserved": 0}, {"is_disabled": 0, "fusion_lon": 0.0, "fusion_lat": 0.0, "lat": 38.93197216666667, "type": "electric_scooter", "lon": -77.02829733333333, "bike_id": "ca49c9ab3e7a4d022341d8bea7a81e49", "rental_uris": {"android": "https://dc.lft.to/lastmile_qr_scan", "ios": "https://dc.lft.to/lastmile_qr_scan"}, "name": "ca49c9ab3e7a4d022341d8bea7a81e49", "is_reserved": 0}, {"is_disabled": 0, "fusion_lon": 0.0, "fusion_lat": 0.0, "lat": 39.0884565, "type": "electric_bike", "lon": -77.17800533333333, "bike_id": "076748748fc77263f32b83ed25249000", "rental_uris": {"android": "https://dc.lft.to/lastmile_qr_scan", "ios": "https://dc.lft.to/lastmile_qr_scan"}, "name": "076748748fc77263f32b83ed25249000", "is_reserved": 0}, {"is_disabled": 0, "fusion_lon": 0.0, "fusion_lat": 0.0, "lat": 38.90548533333333, "type": "electric_scooter", "lon": -77.04886016666667, "bike_id": "7e503868170bdf9522a051cf3daae9b1", "rental_uris": {"android": "https://dc.lft.to/lastmile_qr_scan", "ios": "https://dc.lft.to/lastmile_qr_scan"}, "name": "7e503868170bdf9522a051cf3daae9b1", "is_reserved": 0}, {"is_disabled": 0, "fusion_lon": 0.0, "fusion_lat": 0.0, "lat": 38.97394, "type": "electric_bike", "lon": -77.02500783333333, "bike_id": "567b946f080703c5d5ef4dd4ceaaa027", "rental_uris": {"android": "https://dc.lft.to/lastmile_qr_scan", "ios": "https://dc.lft.to/lastmile_qr_scan"}, "name": "567b946f080703c5d5ef4dd4ceaaa027", "is_reserved": 0}, {"is_disabled": 0, "fusion_lon": 0.0, "fusion_lat": 0.0, "lat": 38.9098175, "type": "electric_scooter", "lon": -77.03438066666666, "bike_id": "7a211593fc47cee7f0300d3aa88a2778", "rental_uris": {"android": "https://dc.lft.to/lastmile_qr_scan", "ios": "https://dc.lft.to/lastmile_qr_scan"}, "name": "7a211593fc47cee7f0300d3aa88a2778", "is_reserved": 0}, {"is_disabled": 0, "fusion_lon": 0.0, "fusion_lat": 0.0, "lat": 38.9006435, "type": "electric_scooter", "lon": -76.93385133333334, "bike_id": "dbdc9eb04f7d7d9dfcf46ea17a212b0c", "rental_uris": {"android": "https://dc.lft.to/lastmile_qr_scan", "ios": "https://dc.lft.to/lastmile_qr_scan"}, "name": "dbdc9eb04f7d7d9dfcf46ea17a212b0c", "is_reserved": 0}, {"is_disabled": 0, "fusion_lon": 0.0, "fusion_lat": 0.0, "lat": 38.907696333333334, "type": "electric_scooter", "lon": -77.02704416666667, "bike_id": "8459bacb33bce78e660041794fa03d5f", "rental_uris": {"android": "https://dc.lft.to/lastmile_qr_scan", "ios": "https://dc.lft.to/lastmile_qr_scan"}, "name": "8459bacb33bce78e660041794fa03d5f", "is_reserved": 0}, {"is_disabled": 0, "fusion_lon": 0.0, "fusion_lat": 0.0, "lat": 38.927438333333335, "type": "electric_scooter", "lon": -77.034841, "bike_id": "13bed0e03ee7576c9e6b3f9323601b98", "rental_uris": {"android": "https://dc.lft.to/lastmile_qr_scan", "ios": "https://dc.lft.to/lastmile_qr_scan"}, "name": "13bed0e03ee7576c9e6b3f9323601b98", "is_reserved": 0}, {"is_disabled": 0, "fusion_lon": 0.0, "fusion_lat": 0.0, "lat": 38.931349, "type": "electric_scooter", "lon": -77.0572915, "bike_id": "1a495ae52ef68dc56636d3da75442dd6", "rental_uris": {"android": "https://dc.lft.to/lastmile_qr_scan", "ios": "https://dc.lft.to/lastmile_qr_scan"}, "name": "1a495ae52ef68dc56636d3da75442dd6", "is_reserved": 0}, {"is_disabled": 0, "fusion_lon": 0.0, "fusion_lat": 0.0, "lat": 38.89361133333333, "type": "electric_scooter", "lon": -77.039603, "bike_id": "a1786a849a078373e1c31ffd2b755b09", "rental_uris": {"android": "https://dc.lft.to/lastmile_qr_scan", "ios": "https://dc.lft.to/lastmile_qr_scan"}, "name": "a1786a849a078373e1c31ffd2b755b09", "is_reserved": 0}, {"is_disabled": 0, "fusion_lon": 0.0, "fusion_lat": 0.0, "lat": 38.918175, "type": "electric_scooter", "lon": -77.024783, "bike_id": "5766e2a91b13156da872a844b324c5c3", "rental_uris": {"android": "https://dc.lft.to/lastmile_qr_scan", "ios": "https://dc.lft.to/lastmile_qr_scan"}, "name": "5766e2a91b13156da872a844b324c5c3", "is_reserved": 0}, {"is_disabled": 0, "fusion_lon": 0.0, "fusion_lat": 0.0, "lat": 38.8922205, "type": "electric_scooter", "lon": -77.0226305, "bike_id": "a1e75cb655a7a402ab167659c2ad0c98", "rental_uris": {"android": "https://dc.lft.to/lastmile_qr_scan", "ios": "https://dc.lft.to/lastmile_qr_scan"}, "name": "a1e75cb655a7a402ab167659c2ad0c98", "is_reserved": 0}, {"is_disabled": 0, "fusion_lon": 0.0, "fusion_lat": 0.0, "lat": 38.911385333333335, "type": "electric_scooter", "lon": -77.02198883333334, "bike_id": "81af2b6807b32dba21492b15e45243bc", "rental_uris": {"android": "https://dc.lft.to/lastmile_qr_scan", "ios": "https://dc.lft.to/lastmile_qr_scan"}, "name": "81af2b6807b32dba21492b15e45243bc", "is_reserved": 0}, {"is_disabled": 0, "fusion_lon": 0.0, "fusion_lat": 0.0, "lat": 38.878967, "type": "electric_scooter", "lon": -76.93521716666666, "bike_id": "9b40707d2aa776dcd569990606434b07", "rental_uris": {"android": "https://dc.lft.to/lastmile_qr_scan", "ios": "https://dc.lft.to/lastmile_qr_scan"}, "name": "9b40707d2aa776dcd569990606434b07", "is_reserved": 0}, {"is_disabled": 0, "fusion_lon": 0.0, "fusion_lat": 0.0, "lat": 38.87700133333333, "type": "electric_scooter", "lon": -77.0051575, "bike_id": "a4efaa238834dda55510e567114a9907", "rental_uris": {"android": "https://dc.lft.to/lastmile_qr_scan", "ios": "https://dc.lft.to/lastmile_qr_scan"}, "name": "a4efaa238834dda55510e567114a9907", "is_reserved": 0}, {"is_disabled": 0, "fusion_lon": 0.0, "fusion_lat": 0.0, "lat": 38.934997833333334, "type": "electric_bike", "lon": -76.94958716666666, "bike_id": "75c77e7936c588e437b402f1b01f3dcc", "rental_uris": {"android": "https://dc.lft.to/lastmile_qr_scan", "ios": "https://dc.lft.to/lastmile_qr_scan"}, "name": "75c77e7936c588e437b402f1b01f3dcc", "is_reserved": 0}, {"is_disabled": 0, "fusion_lon": 0.0, "fusion_lat": 0.0, "lat": 38.916819, "type": "electric_scooter", "lon": -77.0297615, "bike_id": "6e8ffa5e05e86d3d71b45dbe5c457b3f", "rental_uris": {"android": "https://dc.lft.to/lastmile_qr_scan", "ios": "https://dc.lft.to/lastmile_qr_scan"}, "name": "6e8ffa5e05e86d3d71b45dbe5c457b3f", "is_reserved": 0}, {"is_disabled": 0, "fusion_lon": 0.0, "fusion_lat": 0.0, "lat": 38.90249, "type": "electric_scooter", "lon": -76.9896725, "bike_id": "d1b16e08ccdf6067ae74a794c43f19ee", "rental_uris": {"android": "https://dc.lft.to/lastmile_qr_scan", "ios": "https://dc.lft.to/lastmile_qr_scan"}, "name": "d1b16e08ccdf6067ae74a794c43f19ee", "is_reserved": 0}, {"is_disabled": 0, "fusion_lon": 0.0, "fusion_lat": 0.0, "lat": 38.8429595, "type": "electric_scooter", "lon": -76.99962516666666, "bike_id": "58ea8841fd9cfad2853f41adc66cfe70", "rental_uris": {"android": "https://dc.lft.to/lastmile_qr_scan", "ios": "https://dc.lft.to/lastmile_qr_scan"}, "name": "58ea8841fd9cfad2853f41adc66cfe70", "is_reserved": 0}, {"is_disabled": 0, "fusion_lon": 0.0, "fusion_lat": 0.0, "lat": 38.88609916666667, "type": "electric_scooter", "lon": -76.99503383333334, "bike_id": "db51f624e1b78b213a49dbc5ecf1ff80", "rental_uris": {"android": "https://dc.lft.to/lastmile_qr_scan", "ios": "https://dc.lft.to/lastmile_qr_scan"}, "name": "db51f624e1b78b213a49dbc5ecf1ff80", "is_reserved": 0}, {"is_disabled": 0, "fusion_lon": 0.0, "fusion_lat": 0.0, "lat": 38.91574416666667, "type": "electric_scooter", "lon": -77.04170383333333, "bike_id": "22a27786784e3dbfbc50ba4e6b8150d7", "rental_uris": {"android": "https://dc.lft.to/lastmile_qr_scan", "ios": "https://dc.lft.to/lastmile_qr_scan"}, "name": "22a27786784e3dbfbc50ba4e6b8150d7", "is_reserved": 0}, {"is_disabled": 0, "fusion_lon": 0.0, "fusion_lat": 0.0, "lat": 39.100046166666665, "type": "electric_bike", "lon": -77.1863905, "bike_id": "7d3325cb6d44a483ab45e69608ded1fb", "rental_uris": {"android": "https://dc.lft.to/lastmile_qr_scan", "ios": "https://dc.lft.to/lastmile_qr_scan"}, "name": "7d3325cb6d44a483ab45e69608ded1fb", "is_reserved": 0}, {"is_disabled": 0, "fusion_lon": 0.0, "fusion_lat": 0.0, "lat": 38.90581783333333, "type": "electric_scooter", "lon": -77.02606383333334, "bike_id": "1ba51fcb778f38d65f84d40406daa6db", "rental_uris": {"android": "https://dc.lft.to/lastmile_qr_scan", "ios": "https://dc.lft.to/lastmile_qr_scan"}, "name": "1ba51fcb778f38d65f84d40406daa6db", "is_reserved": 0}, {"is_disabled": 0, "fusion_lon": 0.0, "fusion_lat": 0.0, "lat": 38.916656833333334, "type": "electric_scooter", "lon": -77.02289033333334, "bike_id": "b7737d5f46d911f75f29cdf687dbd358", "rental_uris": {"android": "https://dc.lft.to/lastmile_qr_scan", "ios": "https://dc.lft.to/lastmile_qr_scan"}, "name": "b7737d5f46d911f75f29cdf687dbd358", "is_reserved": 0}, {"is_disabled": 0, "fusion_lon": 0.0, "fusion_lat": 0.0, "lat": 38.83813, "type": "electric_scooter", "lon": -77.004335, "bike_id": "fe144d42727c60c3684d12320b4bbc30", "rental_uris": {"android": "https://dc.lft.to/lastmile_qr_scan", "ios": "https://dc.lft.to/lastmile_qr_scan"}, "name": "fe144d42727c60c3684d12320b4bbc30", "is_reserved": 0}, {"is_disabled": 0, "fusion_lon": 0.0, "fusion_lat": 0.0, "lat": 38.89501533333333, "type": "electric_scooter", "lon": -76.94878633333333, "bike_id": "c1499eb7dbcb9079194bb59ef404ad1c", "rental_uris": {"android": "https://dc.lft.to/lastmile_qr_scan", "ios": "https://dc.lft.to/lastmile_qr_scan"}, "name": "c1499eb7dbcb9079194bb59ef404ad1c", "is_reserved": 0}, {"is_disabled": 0, "fusion_lon": 0.0, "fusion_lat": 0.0, "lat": 38.9037025, "type": "electric_scooter", "lon": -76.98970033333333, "bike_id": "f5bd41ff4232faf5222c6a5a45ebf1a7", "rental_uris": {"android": "https://dc.lft.to/lastmile_qr_scan", "ios": "https://dc.lft.to/lastmile_qr_scan"}, "name": "f5bd41ff4232faf5222c6a5a45ebf1a7", "is_reserved": 0}, {"is_disabled": 0, "fusion_lon": 0.0, "fusion_lat": 0.0, "lat": 38.90672383333333, "type": "electric_scooter", "lon": -77.00901266666666, "bike_id": "2133d2b89ec9af9e09e78ba758b32805", "rental_uris": {"android": "https://dc.lft.to/lastmile_qr_scan", "ios": "https://dc.lft.to/lastmile_qr_scan"}, "name": "2133d2b89ec9af9e09e78ba758b32805", "is_reserved": 0}, {"is_disabled": 0, "fusion_lon": 0.0, "fusion_lat": 0.0, "lat": 38.90877583333334, "type": "electric_scooter", "lon": -77.02691283333333, "bike_id": "99371cc79eecf3033cb3613a415ac85e", "rental_uris": {"android": "https://dc.lft.to/lastmile_qr_scan", "ios": "https://dc.lft.to/lastmile_qr_scan"}, "name": "99371cc79eecf3033cb3613a415ac85e", "is_reserved": 0}, {"is_disabled": 0, "fusion_lon": 0.0, "fusion_lat": 0.0, "lat": 38.942044333333335, "type": "electric_scooter", "lon": -77.01830666666666, "bike_id": "3d777a80470b1af52009fbb9af2bfa5f", "rental_uris": {"android": "https://dc.lft.to/lastmile_qr_scan", "ios": "https://dc.lft.to/lastmile_qr_scan"}, "name": "3d777a80470b1af52009fbb9af2bfa5f", "is_reserved": 0}, {"is_disabled": 0, "fusion_lon": 0.0, "fusion_lat": 0.0, "lat": 38.9146455, "type": "electric_scooter", "lon": -77.01980383333333, "bike_id": "fdf36c3b73fc839bf2a2334525d23a2a", "rental_uris": {"android": "https://dc.lft.to/lastmile_qr_scan", "ios": "https://dc.lft.to/lastmile_qr_scan"}, "name": "fdf36c3b73fc839bf2a2334525d23a2a", "is_reserved": 0}, {"is_disabled": 0, "fusion_lon": 0.0, "fusion_lat": 0.0, "lat": 38.90363266666667, "type": "electric_scooter", "lon": -77.0034425, "bike_id": "d92edae6390ea9a886b8592a3a8e1e28", "rental_uris": {"android": "https://dc.lft.to/lastmile_qr_scan", "ios": "https://dc.lft.to/lastmile_qr_scan"}, "name": "d92edae6390ea9a886b8592a3a8e1e28", "is_reserved": 0}, {"is_disabled": 0, "fusion_lon": 0.0, "fusion_lat": 0.0, "lat": 38.91699, "type": "electric_scooter", "lon": -77.03346766666667, "bike_id": "016f73859e8f9d1949615c3f0df00a1d", "rental_uris": {"android": "https://dc.lft.to/lastmile_qr_scan", "ios": "https://dc.lft.to/lastmile_qr_scan"}, "name": "016f73859e8f9d1949615c3f0df00a1d", "is_reserved": 0}, {"is_disabled": 0, "fusion_lon": 0.0, "fusion_lat": 0.0, "lat": 38.923635833333336, "type": "electric_bike", "lon": -77.0512975, "bike_id": "75de40782904a9deb90b1e0e0a9df786", "rental_uris": {"android": "https://dc.lft.to/lastmile_qr_scan", "ios": "https://dc.lft.to/lastmile_qr_scan"}, "name": "75de40782904a9deb90b1e0e0a9df786", "is_reserved": 0}, {"is_disabled": 0, "fusion_lon": 0.0, "fusion_lat": 0.0, "lat": 38.930658333333334, "type": "electric_scooter", "lon": -77.02981083333333, "bike_id": "445df69d1fc9b03572de33171c19b15b", "rental_uris": {"android": "https://dc.lft.to/lastmile_qr_scan", "ios": "https://dc.lft.to/lastmile_qr_scan"}, "name": "445df69d1fc9b03572de33171c19b15b", "is_reserved": 0}, {"is_disabled": 0, "fusion_lon": 0.0, "fusion_lat": 0.0, "lat": 38.92315466666667, "type": "electric_scooter", "lon": -77.039151, "bike_id": "1c2487382a7d0eb694fe6f9120c2b230", "rental_uris": {"android": "https://dc.lft.to/lastmile_qr_scan", "ios": "https://dc.lft.to/lastmile_qr_scan"}, "name": "1c2487382a7d0eb694fe6f9120c2b230", "is_reserved": 0}, {"is_disabled": 0, "fusion_lon": 0.0, "fusion_lat": 0.0, "lat": 38.91174216666667, "type": "electric_scooter", "lon": -77.02696466666667, "bike_id": "1676a44e574d77c4ae74f668ca1fa263", "rental_uris": {"android": "https://dc.lft.to/lastmile_qr_scan", "ios": "https://dc.lft.to/lastmile_qr_scan"}, "name": "1676a44e574d77c4ae74f668ca1fa263", "is_reserved": 0}, {"is_disabled": 0, "fusion_lon": 0.0, "fusion_lat": 0.0, "lat": 38.8812875, "type": "electric_scooter", "lon": -77.020787, "bike_id": "4f0f4d213be07a0d4d5acdd5fb2ca5cc", "rental_uris": {"android": "https://dc.lft.to/lastmile_qr_scan", "ios": "https://dc.lft.to/lastmile_qr_scan"}, "name": "4f0f4d213be07a0d4d5acdd5fb2ca5cc", "is_reserved": 0}, {"is_disabled": 0, "fusion_lon": 0.0, "fusion_lat": 0.0, "lat": 38.917856666666665, "type": "electric_scooter", "lon": -77.04359416666667, "bike_id": "807a1d0491febb04276193ff41bfe0b3", "rental_uris": {"android": "https://dc.lft.to/lastmile_qr_scan", "ios": "https://dc.lft.to/lastmile_qr_scan"}, "name": "807a1d0491febb04276193ff41bfe0b3", "is_reserved": 0}, {"is_disabled": 0, "fusion_lon": 0.0, "fusion_lat": 0.0, "lat": 38.88413533333333, "type": "electric_scooter", "lon": -77.03303683333333, "bike_id": "2037abd0b0bc0a4d7657c32926cfa160", "rental_uris": {"android": "https://dc.lft.to/lastmile_qr_scan", "ios": "https://dc.lft.to/lastmile_qr_scan"}, "name": "2037abd0b0bc0a4d7657c32926cfa160", "is_reserved": 0}, {"is_disabled": 0, "fusion_lon": 0.0, "fusion_lat": 0.0, "lat": 38.990749, "type": "electric_bike", "lon": -77.02379666666667, "bike_id": "e947f512f64a6ebc75f8857caebb240d", "rental_uris": {"android": "https://dc.lft.to/lastmile_qr_scan", "ios": "https://dc.lft.to/lastmile_qr_scan"}, "name": "e947f512f64a6ebc75f8857caebb240d", "is_reserved": 0}, {"is_disabled": 0, "fusion_lon": 0.0, "fusion_lat": 0.0, "lat": 38.90646666666667, "type": "electric_scooter", "lon": -77.02708116666666, "bike_id": "8996c4fba4454171c6cbfb9130c7cc38", "rental_uris": {"android": "https://dc.lft.to/lastmile_qr_scan", "ios": "https://dc.lft.to/lastmile_qr_scan"}, "name": "8996c4fba4454171c6cbfb9130c7cc38", "is_reserved": 0}, {"is_disabled": 0, "fusion_lon": 0.0, "fusion_lat": 0.0, "lat": 38.89728983333333, "type": "electric_scooter", "lon": -77.02661433333333, "bike_id": "b4fb4d1ecf79bc16e8a1eabbcc281941", "rental_uris": {"android": "https://dc.lft.to/lastmile_qr_scan", "ios": "https://dc.lft.to/lastmile_qr_scan"}, "name": "b4fb4d1ecf79bc16e8a1eabbcc281941", "is_reserved": 0}, {"is_disabled": 0, "fusion_lon": 0.0, "fusion_lat": 0.0, "lat": 38.903757, "type": "electric_scooter", "lon": -77.0220805, "bike_id": "8bf62cff18eafc87e53bf38a6a5afa10", "rental_uris": {"android": "https://dc.lft.to/lastmile_qr_scan", "ios": "https://dc.lft.to/lastmile_qr_scan"}, "name": "8bf62cff18eafc87e53bf38a6a5afa10", "is_reserved": 0}, {"is_disabled": 0, "fusion_lon": 0.0, "fusion_lat": 0.0, "lat": 38.92346883333333, "type": "electric_bike", "lon": -76.99255533333333, "bike_id": "465cea0bfaa3ae9b99c46e9a0c6ad5ed", "rental_uris": {"android": "https://dc.lft.to/lastmile_qr_scan", "ios": "https://dc.lft.to/lastmile_qr_scan"}, "name": "465cea0bfaa3ae9b99c46e9a0c6ad5ed", "is_reserved": 0}, {"is_disabled": 0, "fusion_lon": 0.0, "fusion_lat": 0.0, "lat": 38.90979016666667, "type": "electric_bike", "lon": -77.088284, "bike_id": "0099a73b982f7ffea115d5b2a519dec9", "rental_uris": {"android": "https://dc.lft.to/lastmile_qr_scan", "ios": "https://dc.lft.to/lastmile_qr_scan"}, "name": "0099a73b982f7ffea115d5b2a519dec9", "is_reserved": 0}, {"is_disabled": 0, "fusion_lon": 0.0, "fusion_lat": 0.0, "lat": 38.86662183333333, "type": "electric_scooter", "lon": -76.98883583333334, "bike_id": "32999de90397b090edf4d45d69cb2957", "rental_uris": {"android": "https://dc.lft.to/lastmile_qr_scan", "ios": "https://dc.lft.to/lastmile_qr_scan"}, "name": "32999de90397b090edf4d45d69cb2957", "is_reserved": 0}, {"is_disabled": 0, "fusion_lon": 0.0, "fusion_lat": 0.0, "lat": 38.920359, "type": "electric_scooter", "lon": -77.048181, "bike_id": "7852780edd2e5dc5ffd70ba0272107ef", "rental_uris": {"android": "https://dc.lft.to/lastmile_qr_scan", "ios": "https://dc.lft.to/lastmile_qr_scan"}, "name": "7852780edd2e5dc5ffd70ba0272107ef", "is_reserved": 0}, {"is_disabled": 0, "fusion_lon": 0.0, "fusion_lat": 0.0, "lat": 38.898501, "type": "electric_scooter", "lon": -77.02938416666667, "bike_id": "21eef7ae7292461524a26c61aa08e9c8", "rental_uris": {"android": "https://dc.lft.to/lastmile_qr_scan", "ios": "https://dc.lft.to/lastmile_qr_scan"}, "name": "21eef7ae7292461524a26c61aa08e9c8", "is_reserved": 0}, {"is_disabled": 0, "fusion_lon": 0.0, "fusion_lat": 0.0, "lat": 38.866628166666665, "type": "electric_scooter", "lon": -76.98885166666666, "bike_id": "bfb67726b27be3e5070a22d0fe404d15", "rental_uris": {"android": "https://dc.lft.to/lastmile_qr_scan", "ios": "https://dc.lft.to/lastmile_qr_scan"}, "name": "bfb67726b27be3e5070a22d0fe404d15", "is_reserved": 0}, {"is_disabled": 0, "fusion_lon": 0.0, "fusion_lat": 0.0, "lat": 38.892122, "type": "electric_bike", "lon": -76.98557516666666, "bike_id": "931e2d5e33e5d570bf3604b6cfbcfacb", "rental_uris": {"android": "https://dc.lft.to/lastmile_qr_scan", "ios": "https://dc.lft.to/lastmile_qr_scan"}, "name": "931e2d5e33e5d570bf3604b6cfbcfacb", "is_reserved": 0}, {"is_disabled": 0, "fusion_lon": 0.0, "fusion_lat": 0.0, "lat": 38.917125666666664, "type": "electric_bike", "lon": -77.221204, "bike_id": "db50c276ef517701588a03cf94948fec", "rental_uris": {"android": "https://dc.lft.to/lastmile_qr_scan", "ios": "https://dc.lft.to/lastmile_qr_scan"}, "name": "db50c276ef517701588a03cf94948fec", "is_reserved": 0}, {"is_disabled": 0, "fusion_lon": 0.0, "fusion_lat": 0.0, "lat": 39.03883416666667, "type": "electric_bike", "lon": -77.10911316666666, "bike_id": "087709a1b99eb9f41f0b5350df4d1fbb", "rental_uris": {"android": "https://dc.lft.to/lastmile_qr_scan", "ios": "https://dc.lft.to/lastmile_qr_scan"}, "name": "087709a1b99eb9f41f0b5350df4d1fbb", "is_reserved": 0}, {"is_disabled": 0, "fusion_lon": 0.0, "fusion_lat": 0.0, "lat": 38.936711, "type": "electric_bike", "lon": -76.952038, "bike_id": "d4cf674bf99092a9020fa1afba08c249", "rental_uris": {"android": "https://dc.lft.to/lastmile_qr_scan", "ios": "https://dc.lft.to/lastmile_qr_scan"}, "name": "d4cf674bf99092a9020fa1afba08c249", "is_reserved": 0}, {"is_disabled": 0, "fusion_lon": 0.0, "fusion_lat": 0.0, "lat": 38.897326, "type": "electric_scooter", "lon": -77.00375616666666, "bike_id": "eb266a49a369d795624a48de4e12c6cd", "rental_uris": {"android": "https://dc.lft.to/lastmile_qr_scan", "ios": "https://dc.lft.to/lastmile_qr_scan"}, "name": "eb266a49a369d795624a48de4e12c6cd", "is_reserved": 0}, {"is_disabled": 0, "fusion_lon": 0.0, "fusion_lat": 0.0, "lat": 38.93860333333333, "type": "electric_scooter", "lon": -77.02652883333333, "bike_id": "57080de49b7a930a4c600a618722db1e", "rental_uris": {"android": "https://dc.lft.to/lastmile_qr_scan", "ios": "https://dc.lft.to/lastmile_qr_scan"}, "name": "57080de49b7a930a4c600a618722db1e", "is_reserved": 0}, {"is_disabled": 0, "fusion_lon": 0.0, "fusion_lat": 0.0, "lat": 38.956072, "type": "electric_scooter", "lon": -77.02790733333333, "bike_id": "626a2a901a170b01310ed70e95da575a", "rental_uris": {"android": "https://dc.lft.to/lastmile_qr_scan", "ios": "https://dc.lft.to/lastmile_qr_scan"}, "name": "626a2a901a170b01310ed70e95da575a", "is_reserved": 0}, {"is_disabled": 0, "fusion_lon": 0.0, "fusion_lat": 0.0, "lat": 38.876461666666664, "type": "electric_scooter", "lon": -77.00820233333333, "bike_id": "20ab0b740b889055f4f1fa0633fafabc", "rental_uris": {"android": "https://dc.lft.to/lastmile_qr_scan", "ios": "https://dc.lft.to/lastmile_qr_scan"}, "name": "20ab0b740b889055f4f1fa0633fafabc", "is_reserved": 0}, {"is_disabled": 0, "fusion_lon": 0.0, "fusion_lat": 0.0, "lat": 38.931087166666664, "type": "electric_scooter", "lon": -77.04121766666667, "bike_id": "199494283962cb7860afa94d738466cd", "rental_uris": {"android": "https://dc.lft.to/lastmile_qr_scan", "ios": "https://dc.lft.to/lastmile_qr_scan"}, "name": "199494283962cb7860afa94d738466cd", "is_reserved": 0}, {"is_disabled": 0, "fusion_lon": 0.0, "fusion_lat": 0.0, "lat": 38.911288666666664, "type": "electric_scooter", "lon": -77.03184183333333, "bike_id": "fd2ffc91bfde9bc9cdf76d1221e98d37", "rental_uris": {"android": "https://dc.lft.to/lastmile_qr_scan", "ios": "https://dc.lft.to/lastmile_qr_scan"}, "name": "fd2ffc91bfde9bc9cdf76d1221e98d37", "is_reserved": 0}, {"is_disabled": 0, "fusion_lon": 0.0, "fusion_lat": 0.0, "lat": 38.910374, "type": "electric_scooter", "lon": -77.0137885, "bike_id": "9f716c0827026b43ce6c8518fc3ff62b", "rental_uris": {"android": "https://dc.lft.to/lastmile_qr_scan", "ios": "https://dc.lft.to/lastmile_qr_scan"}, "name": "9f716c0827026b43ce6c8518fc3ff62b", "is_reserved": 0}, {"is_disabled": 0, "fusion_lon": 0.0, "fusion_lat": 0.0, "lat": 38.89220233333333, "type": "electric_scooter", "lon": -77.02260266666667, "bike_id": "a454a9f4049b4b8f09432b1a3ae8c346", "rental_uris": {"android": "https://dc.lft.to/lastmile_qr_scan", "ios": "https://dc.lft.to/lastmile_qr_scan"}, "name": "a454a9f4049b4b8f09432b1a3ae8c346", "is_reserved": 0}, {"is_disabled": 0, "fusion_lon": 0.0, "fusion_lat": 0.0, "lat": 38.91916066666667, "type": "electric_scooter", "lon": -77.03025533333333, "bike_id": "dca4ac7713b0b481f404f08807e405ea", "rental_uris": {"android": "https://dc.lft.to/lastmile_qr_scan", "ios": "https://dc.lft.to/lastmile_qr_scan"}, "name": "dca4ac7713b0b481f404f08807e405ea", "is_reserved": 0}, {"is_disabled": 0, "fusion_lon": 0.0, "fusion_lat": 0.0, "lat": 38.949819166666664, "type": "electric_scooter", "lon": -77.027049, "bike_id": "2e29665216aefd75240043e13a796492", "rental_uris": {"android": "https://dc.lft.to/lastmile_qr_scan", "ios": "https://dc.lft.to/lastmile_qr_scan"}, "name": "2e29665216aefd75240043e13a796492", "is_reserved": 0}, {"is_disabled": 0, "fusion_lon": 0.0, "fusion_lat": 0.0, "lat": 38.89510466666667, "type": "electric_scooter", "lon": -77.010969, "bike_id": "933c55d8ef3471e5101d67621fdf30e1", "rental_uris": {"android": "https://dc.lft.to/lastmile_qr_scan", "ios": "https://dc.lft.to/lastmile_qr_scan"}, "name": "933c55d8ef3471e5101d67621fdf30e1", "is_reserved": 0}, {"is_disabled": 0, "fusion_lon": 0.0, "fusion_lat": 0.0, "lat": 38.89164666666667, "type": "electric_scooter", "lon": -77.015493, "bike_id": "853505a3fb325e3d7d583e2f8a8ef2d7", "rental_uris": {"android": "https://dc.lft.to/lastmile_qr_scan", "ios": "https://dc.lft.to/lastmile_qr_scan"}, "name": "853505a3fb325e3d7d583e2f8a8ef2d7", "is_reserved": 0}, {"is_disabled": 0, "fusion_lon": 0.0, "fusion_lat": 0.0, "lat": 38.9230565, "type": "electric_scooter", "lon": -77.04044816666666, "bike_id": "1d9ab9bf0996302ef14e8f7da3c53ae9", "rental_uris": {"android": "https://dc.lft.to/lastmile_qr_scan", "ios": "https://dc.lft.to/lastmile_qr_scan"}, "name": "1d9ab9bf0996302ef14e8f7da3c53ae9", "is_reserved": 0}, {"is_disabled": 0, "fusion_lon": 0.0, "fusion_lat": 0.0, "lat": 38.93095916666667, "type": "electric_scooter", "lon": -77.02474483333333, "bike_id": "80aa28afccc5d5addd47b431c673d878", "rental_uris": {"android": "https://dc.lft.to/lastmile_qr_scan", "ios": "https://dc.lft.to/lastmile_qr_scan"}, "name": "80aa28afccc5d5addd47b431c673d878", "is_reserved": 0}, {"is_disabled": 0, "fusion_lon": 0.0, "fusion_lat": 0.0, "lat": 38.918823833333335, "type": "electric_scooter", "lon": -77.04171883333333, "bike_id": "90b05b21c059dfe2eb40b8589f817181", "rental_uris": {"android": "https://dc.lft.to/lastmile_qr_scan", "ios": "https://dc.lft.to/lastmile_qr_scan"}, "name": "90b05b21c059dfe2eb40b8589f817181", "is_reserved": 0}, {"is_disabled": 0, "fusion_lon": 0.0, "fusion_lat": 0.0, "lat": 38.87632116666666, "type": "electric_scooter", "lon": -77.012587, "bike_id": "04d6d0092fee3a77dd1220264b2b36cd", "rental_uris": {"android": "https://dc.lft.to/lastmile_qr_scan", "ios": "https://dc.lft.to/lastmile_qr_scan"}, "name": "04d6d0092fee3a77dd1220264b2b36cd", "is_reserved": 0}, {"is_disabled": 0, "fusion_lon": 0.0, "fusion_lat": 0.0, "lat": 38.918157, "type": "electric_scooter", "lon": -77.02476366666667, "bike_id": "03273b3ac06fa8bf3f5c0ca5589fde64", "rental_uris": {"android": "https://dc.lft.to/lastmile_qr_scan", "ios": "https://dc.lft.to/lastmile_qr_scan"}, "name": "03273b3ac06fa8bf3f5c0ca5589fde64", "is_reserved": 0}, {"is_disabled": 0, "fusion_lon": 0.0, "fusion_lat": 0.0, "lat": 38.912705, "type": "electric_scooter", "lon": -77.0222945, "bike_id": "9994d3603ea193cdb83ed9a0c1e9d726", "rental_uris": {"android": "https://dc.lft.to/lastmile_qr_scan", "ios": "https://dc.lft.to/lastmile_qr_scan"}, "name": "9994d3603ea193cdb83ed9a0c1e9d726", "is_reserved": 0}, {"is_disabled": 0, "fusion_lon": 0.0, "fusion_lat": 0.0, "lat": 38.90308066666667, "type": "electric_scooter", "lon": -77.02372616666666, "bike_id": "42fc147be8f95f97e1df47fb921515c0", "rental_uris": {"android": "https://dc.lft.to/lastmile_qr_scan", "ios": "https://dc.lft.to/lastmile_qr_scan"}, "name": "42fc147be8f95f97e1df47fb921515c0", "is_reserved": 0}, {"is_disabled": 0, "fusion_lon": 0.0, "fusion_lat": 0.0, "lat": 38.946236999999996, "type": "electric_bike", "lon": -76.9341305, "bike_id": "d7d900940bc8a2092d9f4061208ed27b", "rental_uris": {"android": "https://dc.lft.to/lastmile_qr_scan", "ios": "https://dc.lft.to/lastmile_qr_scan"}, "name": "d7d900940bc8a2092d9f4061208ed27b", "is_reserved": 0}, {"is_disabled": 0, "fusion_lon": 0.0, "fusion_lat": 0.0, "lat": 38.916944666666666, "type": "electric_scooter", "lon": -77.04013883333333, "bike_id": "5353c8848f1e27568b4e4222cad81b59", "rental_uris": {"android": "https://dc.lft.to/lastmile_qr_scan", "ios": "https://dc.lft.to/lastmile_qr_scan"}, "name": "5353c8848f1e27568b4e4222cad81b59", "is_reserved": 0}, {"is_disabled": 0, "fusion_lon": 0.0, "fusion_lat": 0.0, "lat": 38.9315695, "type": "electric_scooter", "lon": -77.04372983333333, "bike_id": "4aad66c2d917a4ad7faf7c7c1215e02f", "rental_uris": {"android": "https://dc.lft.to/lastmile_qr_scan", "ios": "https://dc.lft.to/lastmile_qr_scan"}, "name": "4aad66c2d917a4ad7faf7c7c1215e02f", "is_reserved": 0}, {"is_disabled": 0, "fusion_lon": 0.0, "fusion_lat": 0.0, "lat": 38.912659, "type": "electric_scooter", "lon": -77.04775633333334, "bike_id": "099672fbe1ba1c1b227ab4d8c2b5b049", "rental_uris": {"android": "https://dc.lft.to/lastmile_qr_scan", "ios": "https://dc.lft.to/lastmile_qr_scan"}, "name": "099672fbe1ba1c1b227ab4d8c2b5b049", "is_reserved": 0}, {"is_disabled": 0, "fusion_lon": 0.0, "fusion_lat": 0.0, "lat": 38.91268316666667, "type": "electric_scooter", "lon": -77.01694, "bike_id": "d8d8eb2e0b93d6e9dfc73e80bcf377c7", "rental_uris": {"android": "https://dc.lft.to/lastmile_qr_scan", "ios": "https://dc.lft.to/lastmile_qr_scan"}, "name": "d8d8eb2e0b93d6e9dfc73e80bcf377c7", "is_reserved": 0}, {"is_disabled": 0, "fusion_lon": 0.0, "fusion_lat": 0.0, "lat": 38.928225, "type": "electric_scooter", "lon": -77.0225745, "bike_id": "25d7d3bd903f908c56d33ecabda073bf", "rental_uris": {"android": "https://dc.lft.to/lastmile_qr_scan", "ios": "https://dc.lft.to/lastmile_qr_scan"}, "name": "25d7d3bd903f908c56d33ecabda073bf", "is_reserved": 0}, {"is_disabled": 0, "fusion_lon": 0.0, "fusion_lat": 0.0, "lat": 38.90129133333333, "type": "electric_scooter", "lon": -77.0120175, "bike_id": "cd3fd7910bccc482ae91d9693f09a604", "rental_uris": {"android": "https://dc.lft.to/lastmile_qr_scan", "ios": "https://dc.lft.to/lastmile_qr_scan"}, "name": "cd3fd7910bccc482ae91d9693f09a604", "is_reserved": 0}, {"is_disabled": 0, "fusion_lon": 0.0, "fusion_lat": 0.0, "lat": 38.84208183333333, "type": "electric_bike", "lon": -77.10678333333334, "bike_id": "5304d581507d755533ed69244f90e1c5", "rental_uris": {"android": "https://dc.lft.to/lastmile_qr_scan", "ios": "https://dc.lft.to/lastmile_qr_scan"}, "name": "5304d581507d755533ed69244f90e1c5", "is_reserved": 0}, {"is_disabled": 0, "fusion_lon": 0.0, "fusion_lat": 0.0, "lat": 38.89518133333333, "type": "electric_scooter", "lon": -77.0295, "bike_id": "79a6d25dd4342c417be68a29136b4cae", "rental_uris": {"android": "https://dc.lft.to/lastmile_qr_scan", "ios": "https://dc.lft.to/lastmile_qr_scan"}, "name": "79a6d25dd4342c417be68a29136b4cae", "is_reserved": 0}, {"is_disabled": 0, "fusion_lon": 0.0, "fusion_lat": 0.0, "lat": 38.90724866666667, "type": "electric_scooter", "lon": -77.046752, "bike_id": "7ca59913a9d8f3ca3140bee85a9589bf", "rental_uris": {"android": "https://dc.lft.to/lastmile_qr_scan", "ios": "https://dc.lft.to/lastmile_qr_scan"}, "name": "7ca59913a9d8f3ca3140bee85a9589bf", "is_reserved": 0}, {"is_disabled": 0, "fusion_lon": 0.0, "fusion_lat": 0.0, "lat": 38.88892633333333, "type": "electric_scooter", "lon": -77.015518, "bike_id": "d1fd83df6f7d6e460ebcf158825e3da9", "rental_uris": {"android": "https://dc.lft.to/lastmile_qr_scan", "ios": "https://dc.lft.to/lastmile_qr_scan"}, "name": "d1fd83df6f7d6e460ebcf158825e3da9", "is_reserved": 0}, {"is_disabled": 0, "fusion_lon": 0.0, "fusion_lat": 0.0, "lat": 38.928501, "type": "electric_scooter", "lon": -77.01400383333333, "bike_id": "059c58cbfa267783b64216396c969c14", "rental_uris": {"android": "https://dc.lft.to/lastmile_qr_scan", "ios": "https://dc.lft.to/lastmile_qr_scan"}, "name": "059c58cbfa267783b64216396c969c14", "is_reserved": 0}, {"is_disabled": 0, "fusion_lon": 0.0, "fusion_lat": 0.0, "lat": 38.99865966666667, "type": "electric_bike", "lon": -77.0287965, "bike_id": "2c872e00e58b103570468b735d0e9ffb", "rental_uris": {"android": "https://dc.lft.to/lastmile_qr_scan", "ios": "https://dc.lft.to/lastmile_qr_scan"}, "name": "2c872e00e58b103570468b735d0e9ffb", "is_reserved": 0}, {"is_disabled": 0, "fusion_lon": 0.0, "fusion_lat": 0.0, "lat": 38.8922745, "type": "electric_scooter", "lon": -77.04661916666667, "bike_id": "976aa27a9adcdb6a5b8e944fec80a037", "rental_uris": {"android": "https://dc.lft.to/lastmile_qr_scan", "ios": "https://dc.lft.to/lastmile_qr_scan"}, "name": "976aa27a9adcdb6a5b8e944fec80a037", "is_reserved": 0}, {"is_disabled": 0, "fusion_lon": 0.0, "fusion_lat": 0.0, "lat": 38.93132466666667, "type": "electric_scooter", "lon": -77.02810866666667, "bike_id": "0b3e2a250b66ef93c9719504d99dc7be", "rental_uris": {"android": "https://dc.lft.to/lastmile_qr_scan", "ios": "https://dc.lft.to/lastmile_qr_scan"}, "name": "0b3e2a250b66ef93c9719504d99dc7be", "is_reserved": 0}, {"is_disabled": 0, "fusion_lon": 0.0, "fusion_lat": 0.0, "lat": 38.967653, "type": "electric_bike", "lon": -77.09152066666667, "bike_id": "057970d38c926998d2ecafd6c4be8d86", "rental_uris": {"android": "https://dc.lft.to/lastmile_qr_scan", "ios": "https://dc.lft.to/lastmile_qr_scan"}, "name": "057970d38c926998d2ecafd6c4be8d86", "is_reserved": 0}, {"is_disabled": 0, "fusion_lon": 0.0, "fusion_lat": 0.0, "lat": 38.8580775, "type": "electric_scooter", "lon": -76.986549, "bike_id": "918265ebdd44e882d7ec9d1b047dabaa", "rental_uris": {"android": "https://dc.lft.to/lastmile_qr_scan", "ios": "https://dc.lft.to/lastmile_qr_scan"}, "name": "918265ebdd44e882d7ec9d1b047dabaa", "is_reserved": 0}, {"is_disabled": 0, "fusion_lon": 0.0, "fusion_lat": 0.0, "lat": 38.90848666666667, "type": "electric_scooter", "lon": -77.00980333333334, "bike_id": "240dd50074890da46a6b18c33b35199d", "rental_uris": {"android": "https://dc.lft.to/lastmile_qr_scan", "ios": "https://dc.lft.to/lastmile_qr_scan"}, "name": "240dd50074890da46a6b18c33b35199d", "is_reserved": 0}, {"is_disabled": 0, "fusion_lon": 0.0, "fusion_lat": 0.0, "lat": 38.92328233333333, "type": "electric_scooter", "lon": -77.04306933333334, "bike_id": "102cc80343926ac266026f4044f6d1ea", "rental_uris": {"android": "https://dc.lft.to/lastmile_qr_scan", "ios": "https://dc.lft.to/lastmile_qr_scan"}, "name": "102cc80343926ac266026f4044f6d1ea", "is_reserved": 0}, {"is_disabled": 0, "fusion_lon": 0.0, "fusion_lat": 0.0, "lat": 38.915931, "type": "electric_bike", "lon": -76.97149383333333, "bike_id": "37ef92870817a8e97b79a766ed405b8f", "rental_uris": {"android": "https://dc.lft.to/lastmile_qr_scan", "ios": "https://dc.lft.to/lastmile_qr_scan"}, "name": "37ef92870817a8e97b79a766ed405b8f", "is_reserved": 0}, {"is_disabled": 0, "fusion_lon": 0.0, "fusion_lat": 0.0, "lat": 38.916920833333336, "type": "electric_scooter", "lon": -77.02988533333334, "bike_id": "6fa752bdcd3aa79fc4fa3cba60fef21f", "rental_uris": {"android": "https://dc.lft.to/lastmile_qr_scan", "ios": "https://dc.lft.to/lastmile_qr_scan"}, "name": "6fa752bdcd3aa79fc4fa3cba60fef21f", "is_reserved": 0}, {"is_disabled": 0, "fusion_lon": 0.0, "fusion_lat": 0.0, "lat": 38.9115295, "type": "electric_scooter", "lon": -77.02380233333334, "bike_id": "7db3b8cec2e2875d1186dd4d9b8ff7ed", "rental_uris": {"android": "https://dc.lft.to/lastmile_qr_scan", "ios": "https://dc.lft.to/lastmile_qr_scan"}, "name": "7db3b8cec2e2875d1186dd4d9b8ff7ed", "is_reserved": 0}, {"is_disabled": 0, "fusion_lon": 0.0, "fusion_lat": 0.0, "lat": 38.93563133333333, "type": "electric_bike", "lon": -77.08193816666666, "bike_id": "ca6c80a69d1faeac7a2307d3fd647898", "rental_uris": {"android": "https://dc.lft.to/lastmile_qr_scan", "ios": "https://dc.lft.to/lastmile_qr_scan"}, "name": "ca6c80a69d1faeac7a2307d3fd647898", "is_reserved": 0}, {"is_disabled": 0, "fusion_lon": 0.0, "fusion_lat": 0.0, "lat": 38.86906416666667, "type": "electric_bike", "lon": -77.13181933333334, "bike_id": "b164bc361ae4e8339120743c1279a42e", "rental_uris": {"android": "https://dc.lft.to/lastmile_qr_scan", "ios": "https://dc.lft.to/lastmile_qr_scan"}, "name": "b164bc361ae4e8339120743c1279a42e", "is_reserved": 0}, {"is_disabled": 0, "fusion_lon": 0.0, "fusion_lat": 0.0, "lat": 38.9198655, "type": "electric_bike", "lon": -76.97318716666666, "bike_id": "e8c886e4f1514fc6f21ca0843a158d67", "rental_uris": {"android": "https://dc.lft.to/lastmile_qr_scan", "ios": "https://dc.lft.to/lastmile_qr_scan"}, "name": "e8c886e4f1514fc6f21ca0843a158d67", "is_reserved": 0}, {"is_disabled": 0, "fusion_lon": 0.0, "fusion_lat": 0.0, "lat": 38.90505916666667, "type": "electric_scooter", "lon": -77.02947433333334, "bike_id": "9fa63109f1cfaafc9401f92206843448", "rental_uris": {"android": "https://dc.lft.to/lastmile_qr_scan", "ios": "https://dc.lft.to/lastmile_qr_scan"}, "name": "9fa63109f1cfaafc9401f92206843448", "is_reserved": 0}, {"is_disabled": 0, "fusion_lon": 0.0, "fusion_lat": 0.0, "lat": 38.88493, "type": "electric_scooter", "lon": -77.020744, "bike_id": "440c4ca436b2ae1b469d3e842d8927b2", "rental_uris": {"android": "https://dc.lft.to/lastmile_qr_scan", "ios": "https://dc.lft.to/lastmile_qr_scan"}, "name": "440c4ca436b2ae1b469d3e842d8927b2", "is_reserved": 0}, {"is_disabled": 0, "fusion_lon": 0.0, "fusion_lat": 0.0, "lat": 38.94924616666667, "type": "electric_bike", "lon": -77.0079905, "bike_id": "098b759fdb4baa2d55b5c9776630ce23", "rental_uris": {"android": "https://dc.lft.to/lastmile_qr_scan", "ios": "https://dc.lft.to/lastmile_qr_scan"}, "name": "098b759fdb4baa2d55b5c9776630ce23", "is_reserved": 0}, {"is_disabled": 0, "fusion_lon": 0.0, "fusion_lat": 0.0, "lat": 38.899113666666665, "type": "electric_scooter", "lon": -77.02955266666666, "bike_id": "e7ca26bd571f6fc21da05b2dd2c9b18e", "rental_uris": {"android": "https://dc.lft.to/lastmile_qr_scan", "ios": "https://dc.lft.to/lastmile_qr_scan"}, "name": "e7ca26bd571f6fc21da05b2dd2c9b18e", "is_reserved": 0}, {"is_disabled": 0, "fusion_lon": 0.0, "fusion_lat": 0.0, "lat": 38.90832983333333, "type": "electric_scooter", "lon": -76.9970255, "bike_id": "cd277c9a483076a5644000df9d7e0e05", "rental_uris": {"android": "https://dc.lft.to/lastmile_qr_scan", "ios": "https://dc.lft.to/lastmile_qr_scan"}, "name": "cd277c9a483076a5644000df9d7e0e05", "is_reserved": 0}, {"is_disabled": 0, "fusion_lon": 0.0, "fusion_lat": 0.0, "lat": 38.88991683333333, "type": "electric_scooter", "lon": -77.04896283333333, "bike_id": "b083a843a0ea383c5dd320acd66418dd", "rental_uris": {"android": "https://dc.lft.to/lastmile_qr_scan", "ios": "https://dc.lft.to/lastmile_qr_scan"}, "name": "b083a843a0ea383c5dd320acd66418dd", "is_reserved": 0}, {"is_disabled": 0, "fusion_lon": 0.0, "fusion_lat": 0.0, "lat": 38.90950333333333, "type": "electric_scooter", "lon": -77.02718033333333, "bike_id": "7dad0babba5a0431a6d931e47f58aa54", "rental_uris": {"android": "https://dc.lft.to/lastmile_qr_scan", "ios": "https://dc.lft.to/lastmile_qr_scan"}, "name": "7dad0babba5a0431a6d931e47f58aa54", "is_reserved": 0}, {"is_disabled": 0, "fusion_lon": 0.0, "fusion_lat": 0.0, "lat": 38.89602583333333, "type": "electric_scooter", "lon": -77.0230785, "bike_id": "d999b7a19b184d760afa190cca9e5f68", "rental_uris": {"android": "https://dc.lft.to/lastmile_qr_scan", "ios": "https://dc.lft.to/lastmile_qr_scan"}, "name": "d999b7a19b184d760afa190cca9e5f68", "is_reserved": 0}, {"is_disabled": 0, "fusion_lon": 0.0, "fusion_lat": 0.0, "lat": 38.91599316666667, "type": "electric_scooter", "lon": -77.0401745, "bike_id": "5a8fd893f2c3c9a9afc7d58852156424", "rental_uris": {"android": "https://dc.lft.to/lastmile_qr_scan", "ios": "https://dc.lft.to/lastmile_qr_scan"}, "name": "5a8fd893f2c3c9a9afc7d58852156424", "is_reserved": 0}, {"is_disabled": 0, "fusion_lon": 0.0, "fusion_lat": 0.0, "lat": 38.975418166666664, "type": "electric_bike", "lon": -76.99535383333334, "bike_id": "cbaaa2feb3dd7c1d9773dda5e431a5fc", "rental_uris": {"android": "https://dc.lft.to/lastmile_qr_scan", "ios": "https://dc.lft.to/lastmile_qr_scan"}, "name": "cbaaa2feb3dd7c1d9773dda5e431a5fc", "is_reserved": 0}, {"is_disabled": 0, "fusion_lon": 0.0, "fusion_lat": 0.0, "lat": 38.933183166666666, "type": "electric_scooter", "lon": -77.0326405, "bike_id": "a7e5249b917d2c7710f1ca15683ac055", "rental_uris": {"android": "https://dc.lft.to/lastmile_qr_scan", "ios": "https://dc.lft.to/lastmile_qr_scan"}, "name": "a7e5249b917d2c7710f1ca15683ac055", "is_reserved": 0}, {"is_disabled": 0, "fusion_lon": 0.0, "fusion_lat": 0.0, "lat": 38.898337833333336, "type": "electric_scooter", "lon": -76.9463335, "bike_id": "996d5bb3699e81e271e081c759335811", "rental_uris": {"android": "https://dc.lft.to/lastmile_qr_scan", "ios": "https://dc.lft.to/lastmile_qr_scan"}, "name": "996d5bb3699e81e271e081c759335811", "is_reserved": 0}, {"is_disabled": 0, "fusion_lon": 0.0, "fusion_lat": 0.0, "lat": 38.90888483333333, "type": "electric_scooter", "lon": -77.03386266666666, "bike_id": "4aa8aecf5f0eb35d3d12e4dd7ccfe83b", "rental_uris": {"android": "https://dc.lft.to/lastmile_qr_scan", "ios": "https://dc.lft.to/lastmile_qr_scan"}, "name": "4aa8aecf5f0eb35d3d12e4dd7ccfe83b", "is_reserved": 0}, {"is_disabled": 0, "fusion_lon": 0.0, "fusion_lat": 0.0, "lat": 38.870902666666666, "type": "electric_bike", "lon": -77.01206583333334, "bike_id": "cd3d9af0b6d10e00b3817956297f0fa1", "rental_uris": {"android": "https://dc.lft.to/lastmile_qr_scan", "ios": "https://dc.lft.to/lastmile_qr_scan"}, "name": "cd3d9af0b6d10e00b3817956297f0fa1", "is_reserved": 0}, {"is_disabled": 0, "fusion_lon": 0.0, "fusion_lat": 0.0, "lat": 38.929989666666664, "type": "electric_scooter", "lon": -77.02205133333334, "bike_id": "292af02654d81da389c535da29ada3ff", "rental_uris": {"android": "https://dc.lft.to/lastmile_qr_scan", "ios": "https://dc.lft.to/lastmile_qr_scan"}, "name": "292af02654d81da389c535da29ada3ff", "is_reserved": 0}, {"is_disabled": 0, "fusion_lon": 0.0, "fusion_lat": 0.0, "lat": 38.90373483333333, "type": "electric_scooter", "lon": -77.0175885, "bike_id": "5f2a26bc7dc8ef94a6e76be8c8acd08d", "rental_uris": {"android": "https://dc.lft.to/lastmile_qr_scan", "ios": "https://dc.lft.to/lastmile_qr_scan"}, "name": "5f2a26bc7dc8ef94a6e76be8c8acd08d", "is_reserved": 0}, {"is_disabled": 0, "fusion_lon": 0.0, "fusion_lat": 0.0, "lat": 39.00018566666667, "type": "electric_bike", "lon": -76.87287366666666, "bike_id": "764e36f31120211528d28b888a0b5ba9", "rental_uris": {"android": "https://dc.lft.to/lastmile_qr_scan", "ios": "https://dc.lft.to/lastmile_qr_scan"}, "name": "764e36f31120211528d28b888a0b5ba9", "is_reserved": 0}, {"is_disabled": 0, "fusion_lon": 0.0, "fusion_lat": 0.0, "lat": 38.82872283333333, "type": "electric_bike", "lon": -77.11221483333334, "bike_id": "b676a9b9066c18d152c944db2b047cd4", "rental_uris": {"android": "https://dc.lft.to/lastmile_qr_scan", "ios": "https://dc.lft.to/lastmile_qr_scan"}, "name": "b676a9b9066c18d152c944db2b047cd4", "is_reserved": 0}, {"is_disabled": 0, "fusion_lon": 0.0, "fusion_lat": 0.0, "lat": 38.90170833333333, "type": "electric_scooter", "lon": -77.022164, "bike_id": "ec9299adc8e3737c6e4d31ed8c00677c", "rental_uris": {"android": "https://dc.lft.to/lastmile_qr_scan", "ios": "https://dc.lft.to/lastmile_qr_scan"}, "name": "ec9299adc8e3737c6e4d31ed8c00677c", "is_reserved": 0}, {"is_disabled": 0, "fusion_lon": 0.0, "fusion_lat": 0.0, "lat": 38.917184666666664, "type": "electric_scooter", "lon": -77.02847133333333, "bike_id": "17b757e882b77ac7aa159e299c4a06b3", "rental_uris": {"android": "https://dc.lft.to/lastmile_qr_scan", "ios": "https://dc.lft.to/lastmile_qr_scan"}, "name": "17b757e882b77ac7aa159e299c4a06b3", "is_reserved": 0}, {"is_disabled": 0, "fusion_lon": 0.0, "fusion_lat": 0.0, "lat": 38.91824916666667, "type": "electric_scooter", "lon": -77.040098, "bike_id": "fde09f52695fe7afd31f0abd1cf3458c", "rental_uris": {"android": "https://dc.lft.to/lastmile_qr_scan", "ios": "https://dc.lft.to/lastmile_qr_scan"}, "name": "fde09f52695fe7afd31f0abd1cf3458c", "is_reserved": 0}, {"is_disabled": 0, "fusion_lon": 0.0, "fusion_lat": 0.0, "lat": 38.902418, "type": "electric_scooter", "lon": -77.06090066666667, "bike_id": "aadf643ca7937f804609d126b2e0ca3f", "rental_uris": {"android": "https://dc.lft.to/lastmile_qr_scan", "ios": "https://dc.lft.to/lastmile_qr_scan"}, "name": "aadf643ca7937f804609d126b2e0ca3f", "is_reserved": 0}, {"is_disabled": 0, "fusion_lon": 0.0, "fusion_lat": 0.0, "lat": 38.89728383333333, "type": "electric_scooter", "lon": -77.02160733333334, "bike_id": "46f5deb2834dabae7413a05d7fe4888f", "rental_uris": {"android": "https://dc.lft.to/lastmile_qr_scan", "ios": "https://dc.lft.to/lastmile_qr_scan"}, "name": "46f5deb2834dabae7413a05d7fe4888f", "is_reserved": 0}, {"is_disabled": 0, "fusion_lon": 0.0, "fusion_lat": 0.0, "lat": 38.934952333333335, "type": "electric_scooter", "lon": -77.032861, "bike_id": "28e18afabd6f68d181652b9df312d00b", "rental_uris": {"android": "https://dc.lft.to/lastmile_qr_scan", "ios": "https://dc.lft.to/lastmile_qr_scan"}, "name": "28e18afabd6f68d181652b9df312d00b", "is_reserved": 0}, {"is_disabled": 0, "fusion_lon": 0.0, "fusion_lat": 0.0, "lat": 38.92553016666667, "type": "electric_scooter", "lon": -77.05300683333333, "bike_id": "0bfef1a8dc1ede20588436891765eaa6", "rental_uris": {"android": "https://dc.lft.to/lastmile_qr_scan", "ios": "https://dc.lft.to/lastmile_qr_scan"}, "name": "0bfef1a8dc1ede20588436891765eaa6", "is_reserved": 0}, {"is_disabled": 0, "fusion_lon": 0.0, "fusion_lat": 0.0, "lat": 39.03001316666667, "type": "electric_bike", "lon": -77.10654216666667, "bike_id": "aef623e56da2233d9bd39a9d1a68d824", "rental_uris": {"android": "https://dc.lft.to/lastmile_qr_scan", "ios": "https://dc.lft.to/lastmile_qr_scan"}, "name": "aef623e56da2233d9bd39a9d1a68d824", "is_reserved": 0}, {"is_disabled": 0, "fusion_lon": 0.0, "fusion_lat": 0.0, "lat": 38.908326, "type": "electric_scooter", "lon": -76.9970595, "bike_id": "77c7aa5a0689622b68b193bacf668480", "rental_uris": {"android": "https://dc.lft.to/lastmile_qr_scan", "ios": "https://dc.lft.to/lastmile_qr_scan"}, "name": "77c7aa5a0689622b68b193bacf668480", "is_reserved": 0}, {"is_disabled": 0, "fusion_lon": 0.0, "fusion_lat": 0.0, "lat": 38.897283, "type": "electric_scooter", "lon": -77.0468035, "bike_id": "71e3acc8a098fc9b64eb15326f071f92", "rental_uris": {"android": "https://dc.lft.to/lastmile_qr_scan", "ios": "https://dc.lft.to/lastmile_qr_scan"}, "name": "71e3acc8a098fc9b64eb15326f071f92", "is_reserved": 0}, {"is_disabled": 0, "fusion_lon": 0.0, "fusion_lat": 0.0, "lat": 38.914152, "type": "electric_scooter", "lon": -77.02230616666667, "bike_id": "8f49e797fb025bc6d66b4c30e8aa647d", "rental_uris": {"android": "https://dc.lft.to/lastmile_qr_scan", "ios": "https://dc.lft.to/lastmile_qr_scan"}, "name": "8f49e797fb025bc6d66b4c30e8aa647d", "is_reserved": 0}, {"is_disabled": 0, "fusion_lon": 0.0, "fusion_lat": 0.0, "lat": 38.9371965, "type": "electric_scooter", "lon": -77.03356366666667, "bike_id": "cc4a572688311c814462c89251aa1869", "rental_uris": {"android": "https://dc.lft.to/lastmile_qr_scan", "ios": "https://dc.lft.to/lastmile_qr_scan"}, "name": "cc4a572688311c814462c89251aa1869", "is_reserved": 0}, {"is_disabled": 0, "fusion_lon": 0.0, "fusion_lat": 0.0, "lat": 38.94037866666667, "type": "electric_scooter", "lon": -77.025201, "bike_id": "c42fb910a279b033e2eadeff3fc138fb", "rental_uris": {"android": "https://dc.lft.to/lastmile_qr_scan", "ios": "https://dc.lft.to/lastmile_qr_scan"}, "name": "c42fb910a279b033e2eadeff3fc138fb", "is_reserved": 0}, {"is_disabled": 0, "fusion_lon": 0.0, "fusion_lat": 0.0, "lat": 38.911894833333335, "type": "electric_scooter", "lon": -77.0187855, "bike_id": "96746d12c8aa0b20a41897f21617c267", "rental_uris": {"android": "https://dc.lft.to/lastmile_qr_scan", "ios": "https://dc.lft.to/lastmile_qr_scan"}, "name": "96746d12c8aa0b20a41897f21617c267", "is_reserved": 0}, {"is_disabled": 0, "fusion_lon": 0.0, "fusion_lat": 0.0, "lat": 38.90524816666667, "type": "electric_scooter", "lon": -77.05092733333333, "bike_id": "a8dbe2f8a4378bd09d0d700e3f4c48a7", "rental_uris": {"android": "https://dc.lft.to/lastmile_qr_scan", "ios": "https://dc.lft.to/lastmile_qr_scan"}, "name": "a8dbe2f8a4378bd09d0d700e3f4c48a7", "is_reserved": 0}, {"is_disabled": 0, "fusion_lon": 0.0, "fusion_lat": 0.0, "lat": 38.9856395, "type": "electric_bike", "lon": -76.98829216666667, "bike_id": "57397248aa9b9fc871e233448e16b165", "rental_uris": {"android": "https://dc.lft.to/lastmile_qr_scan", "ios": "https://dc.lft.to/lastmile_qr_scan"}, "name": "57397248aa9b9fc871e233448e16b165", "is_reserved": 0}, {"is_disabled": 0, "fusion_lon": 0.0, "fusion_lat": 0.0, "lat": 38.899584833333336, "type": "electric_scooter", "lon": -77.052246, "bike_id": "fa33dda88935b17e9ec285ef65639475", "rental_uris": {"android": "https://dc.lft.to/lastmile_qr_scan", "ios": "https://dc.lft.to/lastmile_qr_scan"}, "name": "fa33dda88935b17e9ec285ef65639475", "is_reserved": 0}, {"is_disabled": 0, "fusion_lon": 0.0, "fusion_lat": 0.0, "lat": 38.92896533333333, "type": "electric_scooter", "lon": -77.03242483333334, "bike_id": "3a878d6e4fcbd6afeb950b4c717860e5", "rental_uris": {"android": "https://dc.lft.to/lastmile_qr_scan", "ios": "https://dc.lft.to/lastmile_qr_scan"}, "name": "3a878d6e4fcbd6afeb950b4c717860e5", "is_reserved": 0}, {"is_disabled": 0, "fusion_lon": 0.0, "fusion_lat": 0.0, "lat": 38.916928, "type": "electric_scooter", "lon": -76.98090266666667, "bike_id": "1cfe6c305f6cd4847bf8e5059c06e0ba", "rental_uris": {"android": "https://dc.lft.to/lastmile_qr_scan", "ios": "https://dc.lft.to/lastmile_qr_scan"}, "name": "1cfe6c305f6cd4847bf8e5059c06e0ba", "is_reserved": 0}, {"is_disabled": 0, "fusion_lon": 0.0, "fusion_lat": 0.0, "lat": 38.91825883333333, "type": "electric_scooter", "lon": -77.03641883333333, "bike_id": "46c6a6c01166b37c2521b924360716e0", "rental_uris": {"android": "https://dc.lft.to/lastmile_qr_scan", "ios": "https://dc.lft.to/lastmile_qr_scan"}, "name": "46c6a6c01166b37c2521b924360716e0", "is_reserved": 0}, {"is_disabled": 0, "fusion_lon": 0.0, "fusion_lat": 0.0, "lat": 38.8429245, "type": "electric_scooter", "lon": -76.99948016666667, "bike_id": "15060d87aff629bed680e569d6858aa0", "rental_uris": {"android": "https://dc.lft.to/lastmile_qr_scan", "ios": "https://dc.lft.to/lastmile_qr_scan"}, "name": "15060d87aff629bed680e569d6858aa0", "is_reserved": 0}, {"is_disabled": 0, "fusion_lon": 0.0, "fusion_lat": 0.0, "lat": 38.9813745, "type": "electric_bike", "lon": -77.00765283333334, "bike_id": "2f186accd32432ed140b7ba03027905d", "rental_uris": {"android": "https://dc.lft.to/lastmile_qr_scan", "ios": "https://dc.lft.to/lastmile_qr_scan"}, "name": "2f186accd32432ed140b7ba03027905d", "is_reserved": 0}, {"is_disabled": 0, "fusion_lon": 0.0, "fusion_lat": 0.0, "lat": 38.920713, "type": "electric_scooter", "lon": -77.02400966666667, "bike_id": "694eeabc2d1b45ebeeacc46e2253fa3c", "rental_uris": {"android": "https://dc.lft.to/lastmile_qr_scan", "ios": "https://dc.lft.to/lastmile_qr_scan"}, "name": "694eeabc2d1b45ebeeacc46e2253fa3c", "is_reserved": 0}, {"is_disabled": 0, "fusion_lon": 0.0, "fusion_lat": 0.0, "lat": 38.9180655, "type": "electric_scooter", "lon": -77.04163533333333, "bike_id": "713163a42ce9cb3098af1b9cf5b244ea", "rental_uris": {"android": "https://dc.lft.to/lastmile_qr_scan", "ios": "https://dc.lft.to/lastmile_qr_scan"}, "name": "713163a42ce9cb3098af1b9cf5b244ea", "is_reserved": 0}, {"is_disabled": 0, "fusion_lon": 0.0, "fusion_lat": 0.0, "lat": 38.900659833333336, "type": "electric_scooter", "lon": -77.00752066666666, "bike_id": "2682fb2a8d75cbaff168d58d0fa98944", "rental_uris": {"android": "https://dc.lft.to/lastmile_qr_scan", "ios": "https://dc.lft.to/lastmile_qr_scan"}, "name": "2682fb2a8d75cbaff168d58d0fa98944", "is_reserved": 0}, {"is_disabled": 0, "fusion_lon": 0.0, "fusion_lat": 0.0, "lat": 38.8965785, "type": "electric_scooter", "lon": -77.043468, "bike_id": "7d2a64487d707d9a126785d39d7fa82c", "rental_uris": {"android": "https://dc.lft.to/lastmile_qr_scan", "ios": "https://dc.lft.to/lastmile_qr_scan"}, "name": "7d2a64487d707d9a126785d39d7fa82c", "is_reserved": 0}, {"is_disabled": 0, "fusion_lon": 0.0, "fusion_lat": 0.0, "lat": 38.848813, "type": "electric_scooter", "lon": -77.00518016666666, "bike_id": "52e8b033b998efe11abf3672116a9148", "rental_uris": {"android": "https://dc.lft.to/lastmile_qr_scan", "ios": "https://dc.lft.to/lastmile_qr_scan"}, "name": "52e8b033b998efe11abf3672116a9148", "is_reserved": 0}, {"is_disabled": 0, "fusion_lon": 0.0, "fusion_lat": 0.0, "lat": 38.877748, "type": "electric_scooter", "lon": -77.01425983333333, "bike_id": "bdfdc482d34d016d93946f559ad584c8", "rental_uris": {"android": "https://dc.lft.to/lastmile_qr_scan", "ios": "https://dc.lft.to/lastmile_qr_scan"}, "name": "bdfdc482d34d016d93946f559ad584c8", "is_reserved": 0}, {"is_disabled": 0, "fusion_lon": 0.0, "fusion_lat": 0.0, "lat": 38.91710783333333, "type": "electric_scooter", "lon": -77.01071633333333, "bike_id": "c5e12c952698e8a3790ce0d2daa4236e", "rental_uris": {"android": "https://dc.lft.to/lastmile_qr_scan", "ios": "https://dc.lft.to/lastmile_qr_scan"}, "name": "c5e12c952698e8a3790ce0d2daa4236e", "is_reserved": 0}, {"is_disabled": 0, "fusion_lon": 0.0, "fusion_lat": 0.0, "lat": 38.91422166666667, "type": "electric_scooter", "lon": -77.0322295, "bike_id": "b5a25f35c5ddbe24db8e54e314083333", "rental_uris": {"android": "https://dc.lft.to/lastmile_qr_scan", "ios": "https://dc.lft.to/lastmile_qr_scan"}, "name": "b5a25f35c5ddbe24db8e54e314083333", "is_reserved": 0}, {"is_disabled": 0, "fusion_lon": 0.0, "fusion_lat": 0.0, "lat": 38.92593516666667, "type": "electric_bike", "lon": -76.8890805, "bike_id": "8b8942f0ce4fa6799d630b25e4bba444", "rental_uris": {"android": "https://dc.lft.to/lastmile_qr_scan", "ios": "https://dc.lft.to/lastmile_qr_scan"}, "name": "8b8942f0ce4fa6799d630b25e4bba444", "is_reserved": 0}, {"is_disabled": 0, "fusion_lon": 0.0, "fusion_lat": 0.0, "lat": 38.896038, "type": "electric_scooter", "lon": -77.00924616666667, "bike_id": "b7a6811a13ff8a6cb8c4644136841e31", "rental_uris": {"android": "https://dc.lft.to/lastmile_qr_scan", "ios": "https://dc.lft.to/lastmile_qr_scan"}, "name": "b7a6811a13ff8a6cb8c4644136841e31", "is_reserved": 0}, {"is_disabled": 0, "fusion_lon": 0.0, "fusion_lat": 0.0, "lat": 38.905608666666666, "type": "electric_scooter", "lon": -77.04663666666667, "bike_id": "6809a7ab0b1b7752c9abcea1bd88cbbe", "rental_uris": {"android": "https://dc.lft.to/lastmile_qr_scan", "ios": "https://dc.lft.to/lastmile_qr_scan"}, "name": "6809a7ab0b1b7752c9abcea1bd88cbbe", "is_reserved": 0}, {"is_disabled": 0, "fusion_lon": 0.0, "fusion_lat": 0.0, "lat": 38.954168833333334, "type": "electric_scooter", "lon": -77.028403, "bike_id": "886318e73300f172637c17182699b004", "rental_uris": {"android": "https://dc.lft.to/lastmile_qr_scan", "ios": "https://dc.lft.to/lastmile_qr_scan"}, "name": "886318e73300f172637c17182699b004", "is_reserved": 0}, {"is_disabled": 0, "fusion_lon": 0.0, "fusion_lat": 0.0, "lat": 38.976794, "type": "electric_bike", "lon": -76.97167283333333, "bike_id": "46939b15ace0122147df145d0fb59bf4", "rental_uris": {"android": "https://dc.lft.to/lastmile_qr_scan", "ios": "https://dc.lft.to/lastmile_qr_scan"}, "name": "46939b15ace0122147df145d0fb59bf4", "is_reserved": 0}, {"is_disabled": 0, "fusion_lon": 0.0, "fusion_lat": 0.0, "lat": 38.9187685, "type": "electric_scooter", "lon": -77.04489, "bike_id": "6a07515aea6bae84e7703f3d45fa4730", "rental_uris": {"android": "https://dc.lft.to/lastmile_qr_scan", "ios": "https://dc.lft.to/lastmile_qr_scan"}, "name": "6a07515aea6bae84e7703f3d45fa4730", "is_reserved": 0}, {"is_disabled": 0, "fusion_lon": 0.0, "fusion_lat": 0.0, "lat": 38.8923945, "type": "electric_bike", "lon": -76.9522015, "bike_id": "9a597b484e4feedfc0124e4dff110de1", "rental_uris": {"android": "https://dc.lft.to/lastmile_qr_scan", "ios": "https://dc.lft.to/lastmile_qr_scan"}, "name": "9a597b484e4feedfc0124e4dff110de1", "is_reserved": 0}, {"is_disabled": 0, "fusion_lon": 0.0, "fusion_lat": 0.0, "lat": 38.924805666666664, "type": "electric_scooter", "lon": -77.030004, "bike_id": "c98a8a8dae08e4b911439c653d2b140a", "rental_uris": {"android": "https://dc.lft.to/lastmile_qr_scan", "ios": "https://dc.lft.to/lastmile_qr_scan"}, "name": "c98a8a8dae08e4b911439c653d2b140a", "is_reserved": 0}, {"is_disabled": 0, "fusion_lon": 0.0, "fusion_lat": 0.0, "lat": 38.918101, "type": "electric_scooter", "lon": -77.03564633333333, "bike_id": "c83c0fdc1699dc2ee51cfbbc215b6939", "rental_uris": {"android": "https://dc.lft.to/lastmile_qr_scan", "ios": "https://dc.lft.to/lastmile_qr_scan"}, "name": "c83c0fdc1699dc2ee51cfbbc215b6939", "is_reserved": 0}, {"is_disabled": 0, "fusion_lon": 0.0, "fusion_lat": 0.0, "lat": 38.93481233333333, "type": "electric_scooter", "lon": -77.024188, "bike_id": "cfbf73ea1ce3221fc5fb6382ecce04e2", "rental_uris": {"android": "https://dc.lft.to/lastmile_qr_scan", "ios": "https://dc.lft.to/lastmile_qr_scan"}, "name": "cfbf73ea1ce3221fc5fb6382ecce04e2", "is_reserved": 0}, {"is_disabled": 0, "fusion_lon": 0.0, "fusion_lat": 0.0, "lat": 38.913153666666666, "type": "electric_scooter", "lon": -77.03654916666666, "bike_id": "1b97f6c97960d31f6610ab35722c4e20", "rental_uris": {"android": "https://dc.lft.to/lastmile_qr_scan", "ios": "https://dc.lft.to/lastmile_qr_scan"}, "name": "1b97f6c97960d31f6610ab35722c4e20", "is_reserved": 0}, {"is_disabled": 0, "fusion_lon": 0.0, "fusion_lat": 0.0, "lat": 38.80297733333333, "type": "electric_bike", "lon": -77.03988316666667, "bike_id": "0822e3f6afe6a8f166b4fab8a497fb68", "rental_uris": {"android": "https://dc.lft.to/lastmile_qr_scan", "ios": "https://dc.lft.to/lastmile_qr_scan"}, "name": "0822e3f6afe6a8f166b4fab8a497fb68", "is_reserved": 0}, {"is_disabled": 0, "fusion_lon": 0.0, "fusion_lat": 0.0, "lat": 38.9203175, "type": "electric_scooter", "lon": -77.01907433333334, "bike_id": "9bcbad79356e2bbf281b80b8bb8d1f6b", "rental_uris": {"android": "https://dc.lft.to/lastmile_qr_scan", "ios": "https://dc.lft.to/lastmile_qr_scan"}, "name": "9bcbad79356e2bbf281b80b8bb8d1f6b", "is_reserved": 0}, {"is_disabled": 0, "fusion_lon": 0.0, "fusion_lat": 0.0, "lat": 38.88739966666667, "type": "electric_scooter", "lon": -77.0153455, "bike_id": "422d981f23fe2f1db165f2c6d717e5cd", "rental_uris": {"android": "https://dc.lft.to/lastmile_qr_scan", "ios": "https://dc.lft.to/lastmile_qr_scan"}, "name": "422d981f23fe2f1db165f2c6d717e5cd", "is_reserved": 0}, {"is_disabled": 0, "fusion_lon": 0.0, "fusion_lat": 0.0, "lat": 38.919520166666665, "type": "electric_scooter", "lon": -77.01406666666666, "bike_id": "4906ff820cbb7492d3e2ac8e89aa2681", "rental_uris": {"android": "https://dc.lft.to/lastmile_qr_scan", "ios": "https://dc.lft.to/lastmile_qr_scan"}, "name": "4906ff820cbb7492d3e2ac8e89aa2681", "is_reserved": 0}, {"is_disabled": 0, "fusion_lon": 0.0, "fusion_lat": 0.0, "lat": 38.9226675, "type": "electric_scooter", "lon": -77.03300533333334, "bike_id": "424bae5efb33beed3b15d0bad48db1f9", "rental_uris": {"android": "https://dc.lft.to/lastmile_qr_scan", "ios": "https://dc.lft.to/lastmile_qr_scan"}, "name": "424bae5efb33beed3b15d0bad48db1f9", "is_reserved": 0}, {"is_disabled": 0, "fusion_lon": 0.0, "fusion_lat": 0.0, "lat": 38.917044833333335, "type": "electric_scooter", "lon": -77.02882, "bike_id": "f947ea90caf8437b627277dab8b4b5f2", "rental_uris": {"android": "https://dc.lft.to/lastmile_qr_scan", "ios": "https://dc.lft.to/lastmile_qr_scan"}, "name": "f947ea90caf8437b627277dab8b4b5f2", "is_reserved": 0}, {"is_disabled": 0, "fusion_lon": 0.0, "fusion_lat": 0.0, "lat": 38.89594833333334, "type": "electric_scooter", "lon": -77.02326416666666, "bike_id": "ffe268b5888221ec50e0059e14a6c84d", "rental_uris": {"android": "https://dc.lft.to/lastmile_qr_scan", "ios": "https://dc.lft.to/lastmile_qr_scan"}, "name": "ffe268b5888221ec50e0059e14a6c84d", "is_reserved": 0}, {"is_disabled": 0, "fusion_lon": 0.0, "fusion_lat": 0.0, "lat": 38.8971085, "type": "electric_scooter", "lon": -76.94718366666666, "bike_id": "e323b217a005bcbc3811ada24eeb09e5", "rental_uris": {"android": "https://dc.lft.to/lastmile_qr_scan", "ios": "https://dc.lft.to/lastmile_qr_scan"}, "name": "e323b217a005bcbc3811ada24eeb09e5", "is_reserved": 0}, {"is_disabled": 0, "fusion_lon": 0.0, "fusion_lat": 0.0, "lat": 38.88745266666667, "type": "electric_scooter", "lon": -76.99623983333333, "bike_id": "ead31357cc7b5020a7017cc0d0e0f232", "rental_uris": {"android": "https://dc.lft.to/lastmile_qr_scan", "ios": "https://dc.lft.to/lastmile_qr_scan"}, "name": "ead31357cc7b5020a7017cc0d0e0f232", "is_reserved": 0}, {"is_disabled": 0, "fusion_lon": 0.0, "fusion_lat": 0.0, "lat": 38.910335333333336, "type": "electric_scooter", "lon": -77.0147615, "bike_id": "84e7834efb2361d08e5dfc6894f94f50", "rental_uris": {"android": "https://dc.lft.to/lastmile_qr_scan", "ios": "https://dc.lft.to/lastmile_qr_scan"}, "name": "84e7834efb2361d08e5dfc6894f94f50", "is_reserved": 0}, {"is_disabled": 0, "fusion_lon": 0.0, "fusion_lat": 0.0, "lat": 38.92157683333333, "type": "electric_scooter", "lon": -77.03460433333333, "bike_id": "8a760a6945145caf83581b57cf565918", "rental_uris": {"android": "https://dc.lft.to/lastmile_qr_scan", "ios": "https://dc.lft.to/lastmile_qr_scan"}, "name": "8a760a6945145caf83581b57cf565918", "is_reserved": 0}, {"is_disabled": 0, "fusion_lon": 0.0, "fusion_lat": 0.0, "lat": 38.936444, "type": "electric_scooter", "lon": -77.03676133333333, "bike_id": "17985368b673aed9e26d5e4f041e7b98", "rental_uris": {"android": "https://dc.lft.to/lastmile_qr_scan", "ios": "https://dc.lft.to/lastmile_qr_scan"}, "name": "17985368b673aed9e26d5e4f041e7b98", "is_reserved": 0}, {"is_disabled": 0, "fusion_lon": 0.0, "fusion_lat": 0.0, "lat": 38.900207333333334, "type": "electric_scooter", "lon": -76.99840633333334, "bike_id": "a1fafb9d7506cfe73c6440f7a2eefeae", "rental_uris": {"android": "https://dc.lft.to/lastmile_qr_scan", "ios": "https://dc.lft.to/lastmile_qr_scan"}, "name": "a1fafb9d7506cfe73c6440f7a2eefeae", "is_reserved": 0}, {"is_disabled": 0, "fusion_lon": 0.0, "fusion_lat": 0.0, "lat": 38.903749, "type": "electric_scooter", "lon": -77.04633116666666, "bike_id": "1e743dfaa3305525f5662b08fe151473", "rental_uris": {"android": "https://dc.lft.to/lastmile_qr_scan", "ios": "https://dc.lft.to/lastmile_qr_scan"}, "name": "1e743dfaa3305525f5662b08fe151473", "is_reserved": 0}, {"is_disabled": 0, "fusion_lon": 0.0, "fusion_lat": 0.0, "lat": 38.9243835, "type": "electric_scooter", "lon": -77.03507483333334, "bike_id": "b67aa5e991d45b71726625658b037b5c", "rental_uris": {"android": "https://dc.lft.to/lastmile_qr_scan", "ios": "https://dc.lft.to/lastmile_qr_scan"}, "name": "b67aa5e991d45b71726625658b037b5c", "is_reserved": 0}, {"is_disabled": 0, "fusion_lon": 0.0, "fusion_lat": 0.0, "lat": 38.904921333333334, "type": "electric_scooter", "lon": -77.029422, "bike_id": "8d8ab081572f2abdc4ff153f21bd2fc5", "rental_uris": {"android": "https://dc.lft.to/lastmile_qr_scan", "ios": "https://dc.lft.to/lastmile_qr_scan"}, "name": "8d8ab081572f2abdc4ff153f21bd2fc5", "is_reserved": 0}, {"is_disabled": 0, "fusion_lon": 0.0, "fusion_lat": 0.0, "lat": 38.921463833333334, "type": "electric_scooter", "lon": -77.02962183333334, "bike_id": "5b9fa5bcf5745be2b493f982a80ba8f9", "rental_uris": {"android": "https://dc.lft.to/lastmile_qr_scan", "ios": "https://dc.lft.to/lastmile_qr_scan"}, "name": "5b9fa5bcf5745be2b493f982a80ba8f9", "is_reserved": 0}, {"is_disabled": 0, "fusion_lon": 0.0, "fusion_lat": 0.0, "lat": 38.90254316666667, "type": "electric_scooter", "lon": -77.0181165, "bike_id": "614309c9346ce6328027fb85f9ad02e4", "rental_uris": {"android": "https://dc.lft.to/lastmile_qr_scan", "ios": "https://dc.lft.to/lastmile_qr_scan"}, "name": "614309c9346ce6328027fb85f9ad02e4", "is_reserved": 0}, {"is_disabled": 0, "fusion_lon": 0.0, "fusion_lat": 0.0, "lat": 38.885342333333334, "type": "electric_scooter", "lon": -76.9270545, "bike_id": "1f0002613f3cbc81fd01676b0a46614f", "rental_uris": {"android": "https://dc.lft.to/lastmile_qr_scan", "ios": "https://dc.lft.to/lastmile_qr_scan"}, "name": "1f0002613f3cbc81fd01676b0a46614f", "is_reserved": 0}, {"is_disabled": 0, "fusion_lon": 0.0, "fusion_lat": 0.0, "lat": 38.93339616666667, "type": "electric_scooter", "lon": -77.04129783333333, "bike_id": "5bc076e01abda44f1f262e0b6d44f490", "rental_uris": {"android": "https://dc.lft.to/lastmile_qr_scan", "ios": "https://dc.lft.to/lastmile_qr_scan"}, "name": "5bc076e01abda44f1f262e0b6d44f490", "is_reserved": 0}, {"is_disabled": 0, "fusion_lon": 0.0, "fusion_lat": 0.0, "lat": 38.86726266666667, "type": "electric_scooter", "lon": -76.97943116666667, "bike_id": "3c609dfc8e3b4956e364b078301b360a", "rental_uris": {"android": "https://dc.lft.to/lastmile_qr_scan", "ios": "https://dc.lft.to/lastmile_qr_scan"}, "name": "3c609dfc8e3b4956e364b078301b360a", "is_reserved": 0}, {"is_disabled": 0, "fusion_lon": 0.0, "fusion_lat": 0.0, "lat": 38.9069305, "type": "electric_bike", "lon": -77.03667783333333, "bike_id": "79c0f9170f814e6f24f03e5d7a209e1c", "rental_uris": {"android": "https://dc.lft.to/lastmile_qr_scan", "ios": "https://dc.lft.to/lastmile_qr_scan"}, "name": "79c0f9170f814e6f24f03e5d7a209e1c", "is_reserved": 0}, {"is_disabled": 0, "fusion_lon": 0.0, "fusion_lat": 0.0, "lat": 38.909705333333335, "type": "electric_scooter", "lon": -77.02179666666666, "bike_id": "c5fb2ab4d076437d1419e184d7630f94", "rental_uris": {"android": "https://dc.lft.to/lastmile_qr_scan", "ios": "https://dc.lft.to/lastmile_qr_scan"}, "name": "c5fb2ab4d076437d1419e184d7630f94", "is_reserved": 0}, {"is_disabled": 0, "fusion_lon": 0.0, "fusion_lat": 0.0, "lat": 38.92321533333333, "type": "electric_scooter", "lon": -77.04627233333333, "bike_id": "5160fab4eacfdf5459efeeeddfec8835", "rental_uris": {"android": "https://dc.lft.to/lastmile_qr_scan", "ios": "https://dc.lft.to/lastmile_qr_scan"},