{"data": {"bikes": [{"name": "b556614218f3cf86edf94c8f6bdcda88", "fusion_lat": 0.0, "type": "electric_scooter", "lat": 38.856212666666664, "is_reserved": 0, "is_disabled": 0, "fusion_lon": 0.0, "bike_id": "b556614218f3cf86edf94c8f6bdcda88", "lon": -76.98023883333333, "rental_uris": {"ios": "https://dc.lft.to/lastmile_qr_scan", "android": "https://dc.lft.to/lastmile_qr_scan"}}, {"name": "6e2450df0a0f8663bd3d6ee46ee2e939", "fusion_lat": 0.0, "type": "electric_scooter", "lat": 38.903157, "is_reserved": 0, "is_disabled": 0, "fusion_lon": 0.0, "bike_id": "6e2450df0a0f8663bd3d6ee46ee2e939", "lon": -77.034564, "rental_uris": {"ios": "https://dc.lft.to/lastmile_qr_scan", "android": "https://dc.lft.to/lastmile_qr_scan"}}, {"name": "61a0228c73a3e34f39c2790ce5d4257a", "fusion_lat": 0.0, "type": "electric_scooter", "lat": 38.91256666666666, "is_reserved": 0, "is_disabled": 0, "fusion_lon": 0.0, "bike_id": "61a0228c73a3e34f39c2790ce5d4257a", "lon": -77.08160466666666, "rental_uris": {"ios": "https://dc.lft.to/lastmile_qr_scan", "android": "https://dc.lft.to/lastmile_qr_scan"}}, {"name": "7e66a3480cd2da193f36f5e6dda95d89", "fusion_lat": 0.0, "type": "electric_scooter", "lat": 38.918166166666666, "is_reserved": 0, "is_disabled": 0, "fusion_lon": 0.0, "bike_id": "7e66a3480cd2da193f36f5e6dda95d89", "lon": -77.010213, "rental_uris": {"ios": "https://dc.lft.to/lastmile_qr_scan", "android": "https://dc.lft.to/lastmile_qr_scan"}}, {"name": "38ce7d907f8e93bd7902dd9c21067579", "fusion_lat": 0.0, "type": "electric_scooter", "lat": 38.912764333333335, "is_reserved": 0, "is_disabled": 0, "fusion_lon": 0.0, "bike_id": "38ce7d907f8e93bd7902dd9c21067579", "lon": -77.06088866666667, "rental_uris": {"ios": "https://dc.lft.to/lastmile_qr_scan", "android": "https://dc.lft.to/lastmile_qr_scan"}}, {"name": "7cc99e5a3ff4597316e3cd2f714af184", "fusion_lat": 0.0, "type": "electric_scooter", "lat": 38.8807045, "is_reserved": 0, "is_disabled": 0, "fusion_lon": 0.0, "bike_id": "7cc99e5a3ff4597316e3cd2f714af184", "lon": -76.93530533333333, "rental_uris": {"ios": "https://dc.lft.to/lastmile_qr_scan", "android": "https://dc.lft.to/lastmile_qr_scan"}}, {"name": "bea5aa9f6bf601fbae1e0b55529111b2", "fusion_lat": 0.0, "type": "electric_scooter", "lat": 38.842962, "is_reserved": 0, "is_disabled": 0, "fusion_lon": 0.0, "bike_id": "bea5aa9f6bf601fbae1e0b55529111b2", "lon": -76.9994875, "rental_uris": {"ios": "https://dc.lft.to/lastmile_qr_scan", "android": "https://dc.lft.to/lastmile_qr_scan"}}, {"name": "feb7713c2485e4f4cc29b4551104db65", "fusion_lat": 0.0, "type": "electric_scooter", "lat": 38.90948133333333, "is_reserved": 0, "is_disabled": 0, "fusion_lon": 0.0, "bike_id": "feb7713c2485e4f4cc29b4551104db65", "lon": -77.0318275, "rental_uris": {"ios": "https://dc.lft.to/lastmile_qr_scan", "android": "https://dc.lft.to/lastmile_qr_scan"}}, {"name": "153ebe9d0eedda9d36f44839e78ac525", "fusion_lat": 0.0, "type": "electric_scooter", "lat": 38.885052, "is_reserved": 0, "is_disabled": 0, "fusion_lon": 0.0, "bike_id": "153ebe9d0eedda9d36f44839e78ac525", "lon": -77.0220535, "rental_uris": {"ios": "https://dc.lft.to/lastmile_qr_scan", "android": "https://dc.lft.to/lastmile_qr_scan"}}, {"name": "277103dfb0b9b8da8f90ded8ffefe135", "fusion_lat": 0.0, "type": "electric_bike", "lat": 38.92009483333333, "is_reserved": 0, "is_disabled": 0, "fusion_lon": 0.0, "bike_id": "277103dfb0b9b8da8f90ded8ffefe135", "lon": -76.97490383333333, "rental_uris": {"ios": "https://dc.lft.to/lastmile_qr_scan", "android": "https://dc.lft.to/lastmile_qr_scan"}}, {"name": "4e3fd25322e930cdb528af289e4f3830", "fusion_lat": 0.0, "type": "electric_scooter", "lat": 38.909733, "is_reserved": 0, "is_disabled": 0, "fusion_lon": 0.0, "bike_id": "4e3fd25322e930cdb528af289e4f3830", "lon": -77.04551233333333, "rental_uris": {"ios": "https://dc.lft.to/lastmile_qr_scan", "android": "https://dc.lft.to/lastmile_qr_scan"}}, {"name": "925d3858e406a94448730ed043df0b03", "fusion_lat": 0.0, "type": "electric_scooter", "lat": 38.9045145, "is_reserved": 0, "is_disabled": 0, "fusion_lon": 0.0, "bike_id": "925d3858e406a94448730ed043df0b03", "lon": -76.99627366666667, "rental_uris": {"ios": "https://dc.lft.to/lastmile_qr_scan", "android": "https://dc.lft.to/lastmile_qr_scan"}}, {"name": "826cf86f7335d4c2e9ec33f0359b7168", "fusion_lat": 0.0, "type": "electric_scooter", "lat": 38.918212, "is_reserved": 0, "is_disabled": 0, "fusion_lon": 0.0, "bike_id": "826cf86f7335d4c2e9ec33f0359b7168", "lon": -77.012095, "rental_uris": {"ios": "https://dc.lft.to/lastmile_qr_scan", "android": "https://dc.lft.to/lastmile_qr_scan"}}, {"name": "a10d34202e08aa734a69fee231aa5df3", "fusion_lat": 0.0, "type": "electric_scooter", "lat": 38.8958995, "is_reserved": 0, "is_disabled": 0, "fusion_lon": 0.0, "bike_id": "a10d34202e08aa734a69fee231aa5df3", "lon": -76.93718616666666, "rental_uris": {"ios": "https://dc.lft.to/lastmile_qr_scan", "android": "https://dc.lft.to/lastmile_qr_scan"}}, {"name": "6b0103cc540053bde287e99580f5dc78", "fusion_lat": 0.0, "type": "electric_scooter", "lat": 38.9191695, "is_reserved": 0, "is_disabled": 0, "fusion_lon": 0.0, "bike_id": "6b0103cc540053bde287e99580f5dc78", "lon": -77.01341116666667, "rental_uris": {"ios": "https://dc.lft.to/lastmile_qr_scan", "android": "https://dc.lft.to/lastmile_qr_scan"}}, {"name": "66416dcb55962cc6860f8b6329fd4a23", "fusion_lat": 0.0, "type": "electric_scooter", "lat": 38.877636, "is_reserved": 0, "is_disabled": 0, "fusion_lon": 0.0, "bike_id": "66416dcb55962cc6860f8b6329fd4a23", "lon": -76.99426866666667, "rental_uris": {"ios": "https://dc.lft.to/lastmile_qr_scan", "android": "https://dc.lft.to/lastmile_qr_scan"}}, {"name": "1027fbddb3d692f0df77f6011220a6c9", "fusion_lat": 0.0, "type": "electric_scooter", "lat": 38.9031205, "is_reserved": 0, "is_disabled": 0, "fusion_lon": 0.0, "bike_id": "1027fbddb3d692f0df77f6011220a6c9", "lon": -77.03661316666667, "rental_uris": {"ios": "https://dc.lft.to/lastmile_qr_scan", "android": "https://dc.lft.to/lastmile_qr_scan"}}, {"name": "7679d9610c0e2098e05520f5b0f5d106", "fusion_lat": 0.0, "type": "electric_scooter", "lat": 38.91016116666667, "is_reserved": 0, "is_disabled": 0, "fusion_lon": 0.0, "bike_id": "7679d9610c0e2098e05520f5b0f5d106", "lon": -77.04425116666667, "rental_uris": {"ios": "https://dc.lft.to/lastmile_qr_scan", "android": "https://dc.lft.to/lastmile_qr_scan"}}, {"name": "6706126c91520b8825eb96926a4f9ecf", "fusion_lat": 0.0, "type": "electric_scooter", "lat": 38.9012565, "is_reserved": 0, "is_disabled": 0, "fusion_lon": 0.0, "bike_id": "6706126c91520b8825eb96926a4f9ecf", "lon": -77.04979216666666, "rental_uris": {"ios": "https://dc.lft.to/lastmile_qr_scan", "android": "https://dc.lft.to/lastmile_qr_scan"}}, {"name": "262d8fe1229b5ae24fd1e5cc2c7734de", "fusion_lat": 0.0, "type": "electric_scooter", "lat": 38.89888066666666, "is_reserved": 0, "is_disabled": 0, "fusion_lon": 0.0, "bike_id": "262d8fe1229b5ae24fd1e5cc2c7734de", "lon": -76.98571833333334, "rental_uris": {"ios": "https://dc.lft.to/lastmile_qr_scan", "android": "https://dc.lft.to/lastmile_qr_scan"}}, {"name": "7aae468d4cfb54da039536509771c89c", "fusion_lat": 0.0, "type": "electric_scooter", "lat": 38.926416833333334, "is_reserved": 0, "is_disabled": 0, "fusion_lon": 0.0, "bike_id": "7aae468d4cfb54da039536509771c89c", "lon": -77.03464333333334, "rental_uris": {"ios": "https://dc.lft.to/lastmile_qr_scan", "android": "https://dc.lft.to/lastmile_qr_scan"}}, {"name": "d66ca7a2dd30c4255d99624248a6f9fd", "fusion_lat": 0.0, "type": "electric_scooter", "lat": 38.89899333333334, "is_reserved": 0, "is_disabled": 0, "fusion_lon": 0.0, "bike_id": "d66ca7a2dd30c4255d99624248a6f9fd", "lon": -76.9329955, "rental_uris": {"ios": "https://dc.lft.to/lastmile_qr_scan", "android": "https://dc.lft.to/lastmile_qr_scan"}}, {"name": "b330f40e9bb3fe53a5716b3d101797e0", "fusion_lat": 0.0, "type": "electric_scooter", "lat": 38.91831416666667, "is_reserved": 0, "is_disabled": 0, "fusion_lon": 0.0, "bike_id": "b330f40e9bb3fe53a5716b3d101797e0", "lon": -77.034441, "rental_uris": {"ios": "https://dc.lft.to/lastmile_qr_scan", "android": "https://dc.lft.to/lastmile_qr_scan"}}, {"name": "4083fc5f23e9e3dce5e71249d68e6b1d", "fusion_lat": 0.0, "type": "electric_scooter", "lat": 38.8961155, "is_reserved": 0, "is_disabled": 0, "fusion_lon": 0.0, "bike_id": "4083fc5f23e9e3dce5e71249d68e6b1d", "lon": -77.0112455, "rental_uris": {"ios": "https://dc.lft.to/lastmile_qr_scan", "android": "https://dc.lft.to/lastmile_qr_scan"}}, {"name": "516c54e7b6447d449f205e14e479d860", "fusion_lat": 0.0, "type": "electric_scooter", "lat": 38.922374166666664, "is_reserved": 0, "is_disabled": 0, "fusion_lon": 0.0, "bike_id": "516c54e7b6447d449f205e14e479d860", "lon": -77.0222275, "rental_uris": {"ios": "https://dc.lft.to/lastmile_qr_scan", "android": "https://dc.lft.to/lastmile_qr_scan"}}, {"name": "707a387fd81593dd70654f1b3bb91b4f", "fusion_lat": 0.0, "type": "electric_scooter", "lat": 38.929739, "is_reserved": 0, "is_disabled": 0, "fusion_lon": 0.0, "bike_id": "707a387fd81593dd70654f1b3bb91b4f", "lon": -77.00530166666667, "rental_uris": {"ios": "https://dc.lft.to/lastmile_qr_scan", "android": "https://dc.lft.to/lastmile_qr_scan"}}, {"name": "1cf40495d9e4fe2135364d78ab19ef3f", "fusion_lat": 0.0, "type": "electric_scooter", "lat": 38.91632, "is_reserved": 0, "is_disabled": 0, "fusion_lon": 0.0, "bike_id": "1cf40495d9e4fe2135364d78ab19ef3f", "lon": -77.0010775, "rental_uris": {"ios": "https://dc.lft.to/lastmile_qr_scan", "android": "https://dc.lft.to/lastmile_qr_scan"}}, {"name": "326da8e5c46799cb77c872a08c688068", "fusion_lat": 0.0, "type": "electric_scooter", "lat": 38.909744, "is_reserved": 0, "is_disabled": 0, "fusion_lon": 0.0, "bike_id": "326da8e5c46799cb77c872a08c688068", "lon": -77.01690183333334, "rental_uris": {"ios": "https://dc.lft.to/lastmile_qr_scan", "android": "https://dc.lft.to/lastmile_qr_scan"}}, {"name": "be653cfd2fc11a6d44b6afa5fbf3f394", "fusion_lat": 0.0, "type": "electric_scooter", "lat": 38.975052166666664, "is_reserved": 0, "is_disabled": 0, "fusion_lon": 0.0, "bike_id": "be653cfd2fc11a6d44b6afa5fbf3f394", "lon": -77.0168965, "rental_uris": {"ios": "https://dc.lft.to/lastmile_qr_scan", "android": "https://dc.lft.to/lastmile_qr_scan"}}, {"name": "1123c276d1e486a64779b019d99f511a", "fusion_lat": 0.0, "type": "electric_scooter", "lat": 38.89650966666667, "is_reserved": 0, "is_disabled": 0, "fusion_lon": 0.0, "bike_id": "1123c276d1e486a64779b019d99f511a", "lon": -77.02589133333333, "rental_uris": {"ios": "https://dc.lft.to/lastmile_qr_scan", "android": "https://dc.lft.to/lastmile_qr_scan"}}, {"name": "6a7f8c2051d028626afdb3a49fa0db62", "fusion_lat": 0.0, "type": "electric_scooter", "lat": 38.91180116666666, "is_reserved": 0, "is_disabled": 0, "fusion_lon": 0.0, "bike_id": "6a7f8c2051d028626afdb3a49fa0db62", "lon": -77.06088183333334, "rental_uris": {"ios": "https://dc.lft.to/lastmile_qr_scan", "android": "https://dc.lft.to/lastmile_qr_scan"}}, {"name": "68361dc249b6486839aff56b7bc4b19d", "fusion_lat": 0.0, "type": "electric_scooter", "lat": 38.89002083333333, "is_reserved": 0, "is_disabled": 0, "fusion_lon": 0.0, "bike_id": "68361dc249b6486839aff56b7bc4b19d", "lon": -76.95415566666667, "rental_uris": {"ios": "https://dc.lft.to/lastmile_qr_scan", "android": "https://dc.lft.to/lastmile_qr_scan"}}, {"name": "4ba254fb71e73ae43aaee0a5035a53fc", "fusion_lat": 0.0, "type": "electric_scooter", "lat": 38.9014925, "is_reserved": 0, "is_disabled": 0, "fusion_lon": 0.0, "bike_id": "4ba254fb71e73ae43aaee0a5035a53fc", "lon": -77.03985816666666, "rental_uris": {"ios": "https://dc.lft.to/lastmile_qr_scan", "android": "https://dc.lft.to/lastmile_qr_scan"}}, {"name": "b70249790c6cba4e591ceabdc97aa018", "fusion_lat": 0.0, "type": "electric_scooter", "lat": 38.90251883333333, "is_reserved": 0, "is_disabled": 0, "fusion_lon": 0.0, "bike_id": "b70249790c6cba4e591ceabdc97aa018", "lon": -77.01779883333333, "rental_uris": {"ios": "https://dc.lft.to/lastmile_qr_scan", "android": "https://dc.lft.to/lastmile_qr_scan"}}, {"name": "26b4a66d745399f670d872f39df36fec", "fusion_lat": 0.0, "type": "electric_scooter", "lat": 38.9234365, "is_reserved": 0, "is_disabled": 0, "fusion_lon": 0.0, "bike_id": "26b4a66d745399f670d872f39df36fec", "lon": -77.050151, "rental_uris": {"ios": "https://dc.lft.to/lastmile_qr_scan", "android": "https://dc.lft.to/lastmile_qr_scan"}}, {"name": "d2122b82d2ff3eddb346a747c1648b8f", "fusion_lat": 0.0, "type": "electric_scooter", "lat": 38.842978333333335, "is_reserved": 0, "is_disabled": 0, "fusion_lon": 0.0, "bike_id": "d2122b82d2ff3eddb346a747c1648b8f", "lon": -76.99945533333333, "rental_uris": {"ios": "https://dc.lft.to/lastmile_qr_scan", "android": "https://dc.lft.to/lastmile_qr_scan"}}, {"name": "5d3b27495616b0131c3e50cd7861c4c1", "fusion_lat": 0.0, "type": "electric_scooter", "lat": 38.894898833333336, "is_reserved": 0, "is_disabled": 0, "fusion_lon": 0.0, "bike_id": "5d3b27495616b0131c3e50cd7861c4c1", "lon": -76.94874616666667, "rental_uris": {"ios": "https://dc.lft.to/lastmile_qr_scan", "android": "https://dc.lft.to/lastmile_qr_scan"}}, {"name": "d6725204e9f80b1c439a57c83ffd9dae", "fusion_lat": 0.0, "type": "electric_scooter", "lat": 38.91805266666667, "is_reserved": 0, "is_disabled": 0, "fusion_lon": 0.0, "bike_id": "d6725204e9f80b1c439a57c83ffd9dae", "lon": -77.06832066666666, "rental_uris": {"ios": "https://dc.lft.to/lastmile_qr_scan", "android": "https://dc.lft.to/lastmile_qr_scan"}}, {"name": "b367ebda73e952f894e061c8d1d84c7f", "fusion_lat": 0.0, "type": "electric_scooter", "lat": 38.905460166666664, "is_reserved": 0, "is_disabled": 0, "fusion_lon": 0.0, "bike_id": "b367ebda73e952f894e061c8d1d84c7f", "lon": -77.05050733333333, "rental_uris": {"ios": "https://dc.lft.to/lastmile_qr_scan", "android": "https://dc.lft.to/lastmile_qr_scan"}}, {"name": "66f8f0febe077c93d2b25b6a3696be88", "fusion_lat": 0.0, "type": "electric_bike", "lat": 38.88642333333333, "is_reserved": 0, "is_disabled": 0, "fusion_lon": 0.0, "bike_id": "66f8f0febe077c93d2b25b6a3696be88", "lon": -76.95462983333333, "rental_uris": {"ios": "https://dc.lft.to/lastmile_qr_scan", "android": "https://dc.lft.to/lastmile_qr_scan"}}, {"name": "901ebc07e065d9dea2d6bda17170e8a7", "fusion_lat": 0.0, "type": "electric_scooter", "lat": 38.93308966666667, "is_reserved": 0, "is_disabled": 0, "fusion_lon": 0.0, "bike_id": "901ebc07e065d9dea2d6bda17170e8a7", "lon": -77.03094666666667, "rental_uris": {"ios": "https://dc.lft.to/lastmile_qr_scan", "android": "https://dc.lft.to/lastmile_qr_scan"}}, {"name": "6c309780cac02b471c9b904a0b39dad5", "fusion_lat": 0.0, "type": "electric_scooter", "lat": 38.9318635, "is_reserved": 0, "is_disabled": 0, "fusion_lon": 0.0, "bike_id": "6c309780cac02b471c9b904a0b39dad5", "lon": -77.0278915, "rental_uris": {"ios": "https://dc.lft.to/lastmile_qr_scan", "android": "https://dc.lft.to/lastmile_qr_scan"}}, {"name": "5d8919d9e2fc57da63b761c2f665b369", "fusion_lat": 0.0, "type": "electric_scooter", "lat": 38.92388166666667, "is_reserved": 0, "is_disabled": 0, "fusion_lon": 0.0, "bike_id": "5d8919d9e2fc57da63b761c2f665b369", "lon": -77.02956783333333, "rental_uris": {"ios": "https://dc.lft.to/lastmile_qr_scan", "android": "https://dc.lft.to/lastmile_qr_scan"}}, {"name": "b625a682df4a49526676110559d30026", "fusion_lat": 0.0, "type": "electric_scooter", "lat": 38.90426883333333, "is_reserved": 0, "is_disabled": 0, "fusion_lon": 0.0, "bike_id": "b625a682df4a49526676110559d30026", "lon": -77.0435645, "rental_uris": {"ios": "https://dc.lft.to/lastmile_qr_scan", "android": "https://dc.lft.to/lastmile_qr_scan"}}, {"name": "e60255d9c9b8040f16faad07b3088c5b", "fusion_lat": 0.0, "type": "electric_bike", "lat": 38.914057, "is_reserved": 0, "is_disabled": 0, "fusion_lon": 0.0, "bike_id": "e60255d9c9b8040f16faad07b3088c5b", "lon": -77.03224266666666, "rental_uris": {"ios": "https://dc.lft.to/lastmile_qr_scan", "android": "https://dc.lft.to/lastmile_qr_scan"}}, {"name": "48bf332bdb4eba5255dd5650307b61cf", "fusion_lat": 0.0, "type": "electric_bike", "lat": 38.89839666666666, "is_reserved": 0, "is_disabled": 0, "fusion_lon": 0.0, "bike_id": "48bf332bdb4eba5255dd5650307b61cf", "lon": -77.118011, "rental_uris": {"ios": "https://dc.lft.to/lastmile_qr_scan", "android": "https://dc.lft.to/lastmile_qr_scan"}}, {"name": "6982e8afea322ac95f6394f0c04930cd", "fusion_lat": 0.0, "type": "electric_scooter", "lat": 38.9141915, "is_reserved": 0, "is_disabled": 0, "fusion_lon": 0.0, "bike_id": "6982e8afea322ac95f6394f0c04930cd", "lon": -77.04163366666667, "rental_uris": {"ios": "https://dc.lft.to/lastmile_qr_scan", "android": "https://dc.lft.to/lastmile_qr_scan"}}, {"name": "dc52af2b72599977b0824072cc521eb1", "fusion_lat": 0.0, "type": "electric_scooter", "lat": 38.90652216666667, "is_reserved": 0, "is_disabled": 0, "fusion_lon": 0.0, "bike_id": "dc52af2b72599977b0824072cc521eb1", "lon": -76.98371483333334, "rental_uris": {"ios": "https://dc.lft.to/lastmile_qr_scan", "android": "https://dc.lft.to/lastmile_qr_scan"}}, {"name": "ef443c71ecbd816d27867a20126a2834", "fusion_lat": 0.0, "type": "electric_scooter", "lat": 38.912552833333336, "is_reserved": 0, "is_disabled": 0, "fusion_lon": 0.0, "bike_id": "ef443c71ecbd816d27867a20126a2834", "lon": -77.00781416666666, "rental_uris": {"ios": "https://dc.lft.to/lastmile_qr_scan", "android": "https://dc.lft.to/lastmile_qr_scan"}}, {"name": "30f405921278bd6c4981034af956efa1", "fusion_lat": 0.0, "type": "electric_scooter", "lat": 38.9098385, "is_reserved": 0, "is_disabled": 0, "fusion_lon": 0.0, "bike_id": "30f405921278bd6c4981034af956efa1", "lon": -76.98715933333334, "rental_uris": {"ios": "https://dc.lft.to/lastmile_qr_scan", "android": "https://dc.lft.to/lastmile_qr_scan"}}, {"name": "19bee5d8b30d3c76c14857ed7ca48e42", "fusion_lat": 0.0, "type": "electric_scooter", "lat": 38.88609266666667, "is_reserved": 0, "is_disabled": 0, "fusion_lon": 0.0, "bike_id": "19bee5d8b30d3c76c14857ed7ca48e42", "lon": -76.9781675, "rental_uris": {"ios": "https://dc.lft.to/lastmile_qr_scan", "android": "https://dc.lft.to/lastmile_qr_scan"}}, {"name": "a285ed83b62ad98fd6736ce0a25f083c", "fusion_lat": 0.0, "type": "electric_scooter", "lat": 38.9213155, "is_reserved": 0, "is_disabled": 0, "fusion_lon": 0.0, "bike_id": "a285ed83b62ad98fd6736ce0a25f083c", "lon": -77.04578066666667, "rental_uris": {"ios": "https://dc.lft.to/lastmile_qr_scan", "android": "https://dc.lft.to/lastmile_qr_scan"}}, {"name": "22f8ded0539c9bd5642c3b92c94d030b", "fusion_lat": 0.0, "type": "electric_scooter", "lat": 38.93363183333334, "is_reserved": 0, "is_disabled": 0, "fusion_lon": 0.0, "bike_id": "22f8ded0539c9bd5642c3b92c94d030b", "lon": -77.0573215, "rental_uris": {"ios": "https://dc.lft.to/lastmile_qr_scan", "android": "https://dc.lft.to/lastmile_qr_scan"}}, {"name": "12f4ac82077ffaede478206a97afd8c1", "fusion_lat": 0.0, "type": "electric_scooter", "lat": 38.90392416666667, "is_reserved": 0, "is_disabled": 0, "fusion_lon": 0.0, "bike_id": "12f4ac82077ffaede478206a97afd8c1", "lon": -77.04507616666666, "rental_uris": {"ios": "https://dc.lft.to/lastmile_qr_scan", "android": "https://dc.lft.to/lastmile_qr_scan"}}, {"name": "680cfba4e6681c35d571e52c81324ebf", "fusion_lat": 0.0, "type": "electric_bike", "lat": 38.8968995, "is_reserved": 0, "is_disabled": 0, "fusion_lon": 0.0, "bike_id": "680cfba4e6681c35d571e52c81324ebf", "lon": -76.9406905, "rental_uris": {"ios": "https://dc.lft.to/lastmile_qr_scan", "android": "https://dc.lft.to/lastmile_qr_scan"}}, {"name": "894cb62a23072dbf56bb215db8935c80", "fusion_lat": 0.0, "type": "electric_scooter", "lat": 38.9206275, "is_reserved": 0, "is_disabled": 0, "fusion_lon": 0.0, "bike_id": "894cb62a23072dbf56bb215db8935c80", "lon": -77.029359, "rental_uris": {"ios": "https://dc.lft.to/lastmile_qr_scan", "android": "https://dc.lft.to/lastmile_qr_scan"}}, {"name": "9c044a241e808a7c46865bc92aa5829c", "fusion_lat": 0.0, "type": "electric_scooter", "lat": 38.90962016666667, "is_reserved": 0, "is_disabled": 0, "fusion_lon": 0.0, "bike_id": "9c044a241e808a7c46865bc92aa5829c", "lon": -77.03869433333334, "rental_uris": {"ios": "https://dc.lft.to/lastmile_qr_scan", "android": "https://dc.lft.to/lastmile_qr_scan"}}, {"name": "b36514139c0e9e2af452aa6db094c691", "fusion_lat": 0.0, "type": "electric_scooter", "lat": 38.904506833333336, "is_reserved": 0, "is_disabled": 0, "fusion_lon": 0.0, "bike_id": "b36514139c0e9e2af452aa6db094c691", "lon": -77.03255816666666, "rental_uris": {"ios": "https://dc.lft.to/lastmile_qr_scan", "android": "https://dc.lft.to/lastmile_qr_scan"}}, {"name": "59d60152811f3b371057496b15651a5a", "fusion_lat": 0.0, "type": "electric_scooter", "lat": 38.93368516666666, "is_reserved": 0, "is_disabled": 0, "fusion_lon": 0.0, "bike_id": "59d60152811f3b371057496b15651a5a", "lon": -77.05723416666666, "rental_uris": {"ios": "https://dc.lft.to/lastmile_qr_scan", "android": "https://dc.lft.to/lastmile_qr_scan"}}, {"name": "e2aadefc98bc00d468a75aac37e89c29", "fusion_lat": 0.0, "type": "electric_scooter", "lat": 38.929008, "is_reserved": 0, "is_disabled": 0, "fusion_lon": 0.0, "bike_id": "e2aadefc98bc00d468a75aac37e89c29", "lon": -77.059409, "rental_uris": {"ios": "https://dc.lft.to/lastmile_qr_scan", "android": "https://dc.lft.to/lastmile_qr_scan"}}, {"name": "967db2a05730b30361f8d9ab73a2af6a", "fusion_lat": 0.0, "type": "electric_scooter", "lat": 38.933026166666664, "is_reserved": 0, "is_disabled": 0, "fusion_lon": 0.0, "bike_id": "967db2a05730b30361f8d9ab73a2af6a", "lon": -77.024726, "rental_uris": {"ios": "https://dc.lft.to/lastmile_qr_scan", "android": "https://dc.lft.to/lastmile_qr_scan"}}, {"name": "e177d7058a2b89ff60b5dd4b8310b856", "fusion_lat": 0.0, "type": "electric_scooter", "lat": 38.911103, "is_reserved": 0, "is_disabled": 0, "fusion_lon": 0.0, "bike_id": "e177d7058a2b89ff60b5dd4b8310b856", "lon": -77.034821, "rental_uris": {"ios": "https://dc.lft.to/lastmile_qr_scan", "android": "https://dc.lft.to/lastmile_qr_scan"}}, {"name": "f5cab7208bffd82c0588f042f111e9d0", "fusion_lat": 0.0, "type": "electric_bike", "lat": 38.95485733333334, "is_reserved": 0, "is_disabled": 0, "fusion_lon": 0.0, "bike_id": "f5cab7208bffd82c0588f042f111e9d0", "lon": -77.08245383333333, "rental_uris": {"ios": "https://dc.lft.to/lastmile_qr_scan", "android": "https://dc.lft.to/lastmile_qr_scan"}}, {"name": "c713f1fafb414d851779e732df27f92c", "fusion_lat": 0.0, "type": "electric_scooter", "lat": 38.904825, "is_reserved": 0, "is_disabled": 0, "fusion_lon": 0.0, "bike_id": "c713f1fafb414d851779e732df27f92c", "lon": -77.04154516666667, "rental_uris": {"ios": "https://dc.lft.to/lastmile_qr_scan", "android": "https://dc.lft.to/lastmile_qr_scan"}}, {"name": "8735ffec4f8cb0784c49befa10c76b54", "fusion_lat": 0.0, "type": "electric_scooter", "lat": 38.900915833333336, "is_reserved": 0, "is_disabled": 0, "fusion_lon": 0.0, "bike_id": "8735ffec4f8cb0784c49befa10c76b54", "lon": -77.05024466666667, "rental_uris": {"ios": "https://dc.lft.to/lastmile_qr_scan", "android": "https://dc.lft.to/lastmile_qr_scan"}}, {"name": "2907f211492b594664df48b187840de4", "fusion_lat": 0.0, "type": "electric_scooter", "lat": 38.896606166666665, "is_reserved": 0, "is_disabled": 0, "fusion_lon": 0.0, "bike_id": "2907f211492b594664df48b187840de4", "lon": -77.0489795, "rental_uris": {"ios": "https://dc.lft.to/lastmile_qr_scan", "android": "https://dc.lft.to/lastmile_qr_scan"}}, {"name": "bd49b4acc9e8ce7a73cf1e959069d2ba", "fusion_lat": 0.0, "type": "electric_scooter", "lat": 38.924257, "is_reserved": 0, "is_disabled": 0, "fusion_lon": 0.0, "bike_id": "bd49b4acc9e8ce7a73cf1e959069d2ba", "lon": -77.01951083333333, "rental_uris": {"ios": "https://dc.lft.to/lastmile_qr_scan", "android": "https://dc.lft.to/lastmile_qr_scan"}}, {"name": "1dbde4c604f8d3ec93f2febc5bd78f8d", "fusion_lat": 0.0, "type": "electric_scooter", "lat": 38.92878783333333, "is_reserved": 0, "is_disabled": 0, "fusion_lon": 0.0, "bike_id": "1dbde4c604f8d3ec93f2febc5bd78f8d", "lon": -77.04131016666666, "rental_uris": {"ios": "https://dc.lft.to/lastmile_qr_scan", "android": "https://dc.lft.to/lastmile_qr_scan"}}, {"name": "590a4fdde37c002e7ba1f518b2391652", "fusion_lat": 0.0, "type": "electric_scooter", "lat": 38.92883583333333, "is_reserved": 0, "is_disabled": 0, "fusion_lon": 0.0, "bike_id": "590a4fdde37c002e7ba1f518b2391652", "lon": -77.02715716666667, "rental_uris": {"ios": "https://dc.lft.to/lastmile_qr_scan", "android": "https://dc.lft.to/lastmile_qr_scan"}}, {"name": "a9c5bb7d5ace81da5db26ad68b228ae1", "fusion_lat": 0.0, "type": "electric_scooter", "lat": 38.911826, "is_reserved": 0, "is_disabled": 0, "fusion_lon": 0.0, "bike_id": "a9c5bb7d5ace81da5db26ad68b228ae1", "lon": -77.0319715, "rental_uris": {"ios": "https://dc.lft.to/lastmile_qr_scan", "android": "https://dc.lft.to/lastmile_qr_scan"}}, {"name": "308fead93fde4fdbd2dadfb90d1aebd0", "fusion_lat": 0.0, "type": "electric_scooter", "lat": 38.902861333333334, "is_reserved": 0, "is_disabled": 0, "fusion_lon": 0.0, "bike_id": "308fead93fde4fdbd2dadfb90d1aebd0", "lon": -77.03989433333334, "rental_uris": {"ios": "https://dc.lft.to/lastmile_qr_scan", "android": "https://dc.lft.to/lastmile_qr_scan"}}, {"name": "c9c5a1f33ba1b48638ee6a77f96ae61d", "fusion_lat": 0.0, "type": "electric_scooter", "lat": 38.899630333333334, "is_reserved": 0, "is_disabled": 0, "fusion_lon": 0.0, "bike_id": "c9c5a1f33ba1b48638ee6a77f96ae61d", "lon": -77.052966, "rental_uris": {"ios": "https://dc.lft.to/lastmile_qr_scan", "android": "https://dc.lft.to/lastmile_qr_scan"}}, {"name": "863a4ac56c1fd030d6df1ce3a372ceaf", "fusion_lat": 0.0, "type": "electric_scooter", "lat": 38.92743216666667, "is_reserved": 0, "is_disabled": 0, "fusion_lon": 0.0, "bike_id": "863a4ac56c1fd030d6df1ce3a372ceaf", "lon": -77.02249766666667, "rental_uris": {"ios": "https://dc.lft.to/lastmile_qr_scan", "android": "https://dc.lft.to/lastmile_qr_scan"}}, {"name": "96a27e643251ba6001ec997e7f3b5c01", "fusion_lat": 0.0, "type": "electric_scooter", "lat": 38.90733616666667, "is_reserved": 0, "is_disabled": 0, "fusion_lon": 0.0, "bike_id": "96a27e643251ba6001ec997e7f3b5c01", "lon": -77.03191366666667, "rental_uris": {"ios": "https://dc.lft.to/lastmile_qr_scan", "android": "https://dc.lft.to/lastmile_qr_scan"}}, {"name": "1e6358cc2c587ed85b66f172ffaebcce", "fusion_lat": 0.0, "type": "electric_bike", "lat": 38.9279915, "is_reserved": 0, "is_disabled": 0, "fusion_lon": 0.0, "bike_id": "1e6358cc2c587ed85b66f172ffaebcce", "lon": -77.03261066666667, "rental_uris": {"ios": "https://dc.lft.to/lastmile_qr_scan", "android": "https://dc.lft.to/lastmile_qr_scan"}}, {"name": "022e1d339ce6530740f952fd8cbd02f8", "fusion_lat": 0.0, "type": "electric_scooter", "lat": 38.88337683333334, "is_reserved": 0, "is_disabled": 0, "fusion_lon": 0.0, "bike_id": "022e1d339ce6530740f952fd8cbd02f8", "lon": -77.01539916666667, "rental_uris": {"ios": "https://dc.lft.to/lastmile_qr_scan", "android": "https://dc.lft.to/lastmile_qr_scan"}}, {"name": "70b662ecf915dbfe52d8ecfa83d71aac", "fusion_lat": 0.0, "type": "electric_scooter", "lat": 38.939137833333334, "is_reserved": 0, "is_disabled": 0, "fusion_lon": 0.0, "bike_id": "70b662ecf915dbfe52d8ecfa83d71aac", "lon": -77.06045566666667, "rental_uris": {"ios": "https://dc.lft.to/lastmile_qr_scan", "android": "https://dc.lft.to/lastmile_qr_scan"}}, {"name": "f542ec37dffbff224c3977cba5338c86", "fusion_lat": 0.0, "type": "electric_scooter", "lat": 38.90169316666667, "is_reserved": 0, "is_disabled": 0, "fusion_lon": 0.0, "bike_id": "f542ec37dffbff224c3977cba5338c86", "lon": -77.04724866666666, "rental_uris": {"ios": "https://dc.lft.to/lastmile_qr_scan", "android": "https://dc.lft.to/lastmile_qr_scan"}}, {"name": "9420e70d887e1ba5e0660ab0eef9a69d", "fusion_lat": 0.0, "type": "electric_scooter", "lat": 38.90564066666666, "is_reserved": 0, "is_disabled": 0, "fusion_lon": 0.0, "bike_id": "9420e70d887e1ba5e0660ab0eef9a69d", "lon": -77.0058355, "rental_uris": {"ios": "https://dc.lft.to/lastmile_qr_scan", "android": "https://dc.lft.to/lastmile_qr_scan"}}, {"name": "1b234758d93f8b2bfa792bde9cc1c039", "fusion_lat": 0.0, "type": "electric_scooter", "lat": 38.910049, "is_reserved": 0, "is_disabled": 0, "fusion_lon": 0.0, "bike_id": "1b234758d93f8b2bfa792bde9cc1c039", "lon": -76.99676683333334, "rental_uris": {"ios": "https://dc.lft.to/lastmile_qr_scan", "android": "https://dc.lft.to/lastmile_qr_scan"}}, {"name": "a63997b55056f2311694758dc862a7aa", "fusion_lat": 0.0, "type": "electric_scooter", "lat": 38.87826833333333, "is_reserved": 0, "is_disabled": 0, "fusion_lon": 0.0, "bike_id": "a63997b55056f2311694758dc862a7aa", "lon": -76.9861535, "rental_uris": {"ios": "https://dc.lft.to/lastmile_qr_scan", "android": "https://dc.lft.to/lastmile_qr_scan"}}, {"name": "0f6d04e7763b44c2bcd9719952e17f0e", "fusion_lat": 0.0, "type": "electric_scooter", "lat": 38.927490666666664, "is_reserved": 0, "is_disabled": 0, "fusion_lon": 0.0, "bike_id": "0f6d04e7763b44c2bcd9719952e17f0e", "lon": -77.024958, "rental_uris": {"ios": "https://dc.lft.to/lastmile_qr_scan", "android": "https://dc.lft.to/lastmile_qr_scan"}}, {"name": "d9327c786fb5e34721c1de3e683b1fc5", "fusion_lat": 0.0, "type": "electric_scooter", "lat": 38.921243833333335, "is_reserved": 0, "is_disabled": 0, "fusion_lon": 0.0, "bike_id": "d9327c786fb5e34721c1de3e683b1fc5", "lon": -76.99384966666666, "rental_uris": {"ios": "https://dc.lft.to/lastmile_qr_scan", "android": "https://dc.lft.to/lastmile_qr_scan"}}, {"name": "1451c487884e8a0f76d80c9de79f5b8c", "fusion_lat": 0.0, "type": "electric_scooter", "lat": 38.90671833333333, "is_reserved": 0, "is_disabled": 0, "fusion_lon": 0.0, "bike_id": "1451c487884e8a0f76d80c9de79f5b8c", "lon": -77.027138, "rental_uris": {"ios": "https://dc.lft.to/lastmile_qr_scan", "android": "https://dc.lft.to/lastmile_qr_scan"}}, {"name": "9a131ff651ed35fe149d6a3c2c5fca74", "fusion_lat": 0.0, "type": "electric_bike", "lat": 39.026880166666665, "is_reserved": 0, "is_disabled": 0, "fusion_lon": 0.0, "bike_id": "9a131ff651ed35fe149d6a3c2c5fca74", "lon": -77.12601716666667, "rental_uris": {"ios": "https://dc.lft.to/lastmile_qr_scan", "android": "https://dc.lft.to/lastmile_qr_scan"}}, {"name": "baae29f87d6054c88b52ae6c964750d2", "fusion_lat": 0.0, "type": "electric_scooter", "lat": 38.9003845, "is_reserved": 0, "is_disabled": 0, "fusion_lon": 0.0, "bike_id": "baae29f87d6054c88b52ae6c964750d2", "lon": -77.0022475, "rental_uris": {"ios": "https://dc.lft.to/lastmile_qr_scan", "android": "https://dc.lft.to/lastmile_qr_scan"}}, {"name": "6a713cb49feeb21c48c7887a693d7a30", "fusion_lat": 0.0, "type": "electric_scooter", "lat": 38.9160025, "is_reserved": 0, "is_disabled": 0, "fusion_lon": 0.0, "bike_id": "6a713cb49feeb21c48c7887a693d7a30", "lon": -77.03846666666666, "rental_uris": {"ios": "https://dc.lft.to/lastmile_qr_scan", "android": "https://dc.lft.to/lastmile_qr_scan"}}, {"name": "8294d8127d8f8f605eb061ba2eda74b9", "fusion_lat": 0.0, "type": "electric_scooter", "lat": 38.93636983333333, "is_reserved": 0, "is_disabled": 0, "fusion_lon": 0.0, "bike_id": "8294d8127d8f8f605eb061ba2eda74b9", "lon": -77.02061083333334, "rental_uris": {"ios": "https://dc.lft.to/lastmile_qr_scan", "android": "https://dc.lft.to/lastmile_qr_scan"}}, {"name": "744950b6f25a59841597b8c5520e71f1", "fusion_lat": 0.0, "type": "electric_scooter", "lat": 38.89527016666667, "is_reserved": 0, "is_disabled": 0, "fusion_lon": 0.0, "bike_id": "744950b6f25a59841597b8c5520e71f1", "lon": -76.94892166666666, "rental_uris": {"ios": "https://dc.lft.to/lastmile_qr_scan", "android": "https://dc.lft.to/lastmile_qr_scan"}}, {"name": "0e0121ab5776baef7c93358fccc69f35", "fusion_lat": 0.0, "type": "electric_scooter", "lat": 38.935457166666666, "is_reserved": 0, "is_disabled": 0, "fusion_lon": 0.0, "bike_id": "0e0121ab5776baef7c93358fccc69f35", "lon": -77.034071, "rental_uris": {"ios": "https://dc.lft.to/lastmile_qr_scan", "android": "https://dc.lft.to/lastmile_qr_scan"}}, {"name": "2e13c18775b7a8996c33694cfd726895", "fusion_lat": 0.0, "type": "electric_bike", "lat": 38.85426666666667, "is_reserved": 0, "is_disabled": 0, "fusion_lon": 0.0, "bike_id": "2e13c18775b7a8996c33694cfd726895", "lon": -76.90958916666666, "rental_uris": {"ios": "https://dc.lft.to/lastmile_qr_scan", "android": "https://dc.lft.to/lastmile_qr_scan"}}, {"name": "6e27ed7a094b1878efc9bc1ae2818b3f", "fusion_lat": 0.0, "type": "electric_scooter", "lat": 38.90026133333333, "is_reserved": 0, "is_disabled": 0, "fusion_lon": 0.0, "bike_id": "6e27ed7a094b1878efc9bc1ae2818b3f", "lon": -77.00187066666666, "rental_uris": {"ios": "https://dc.lft.to/lastmile_qr_scan", "android": "https://dc.lft.to/lastmile_qr_scan"}}, {"name": "e97462e17fc43344f8fab97c0d94c320", "fusion_lat": 0.0, "type": "electric_scooter", "lat": 38.91712416666667, "is_reserved": 0, "is_disabled": 0, "fusion_lon": 0.0, "bike_id": "e97462e17fc43344f8fab97c0d94c320", "lon": -77.01202866666667, "rental_uris": {"ios": "https://dc.lft.to/lastmile_qr_scan", "android": "https://dc.lft.to/lastmile_qr_scan"}}, {"name": "101497094f535384d677fbb6cf6addda", "fusion_lat": 0.0, "type": "electric_bike", "lat": 38.810510666666666, "is_reserved": 0, "is_disabled": 0, "fusion_lon": 0.0, "bike_id": "101497094f535384d677fbb6cf6addda", "lon": -77.08505766666667, "rental_uris": {"ios": "https://dc.lft.to/lastmile_qr_scan", "android": "https://dc.lft.to/lastmile_qr_scan"}}, {"name": "be02d0aaf3937a2c9afab48dfe7172a9", "fusion_lat": 0.0, "type": "electric_scooter", "lat": 38.936159833333335, "is_reserved": 0, "is_disabled": 0, "fusion_lon": 0.0, "bike_id": "be02d0aaf3937a2c9afab48dfe7172a9", "lon": -77.05589616666667, "rental_uris": {"ios": "https://dc.lft.to/lastmile_qr_scan", "android": "https://dc.lft.to/lastmile_qr_scan"}}, {"name": "5350dd307fe6618e59a98d0eed81b3bd", "fusion_lat": 0.0, "type": "electric_scooter", "lat": 38.9097495, "is_reserved": 0, "is_disabled": 0, "fusion_lon": 0.0, "bike_id": "5350dd307fe6618e59a98d0eed81b3bd", "lon": -77.02182983333333, "rental_uris": {"ios": "https://dc.lft.to/lastmile_qr_scan", "android": "https://dc.lft.to/lastmile_qr_scan"}}, {"name": "4f902e68867c38a6de232933a1331672", "fusion_lat": 0.0, "type": "electric_scooter", "lat": 38.9135485, "is_reserved": 0, "is_disabled": 0, "fusion_lon": 0.0, "bike_id": "4f902e68867c38a6de232933a1331672", "lon": -77.00355566666667, "rental_uris": {"ios": "https://dc.lft.to/lastmile_qr_scan", "android": "https://dc.lft.to/lastmile_qr_scan"}}, {"name": "bcebad95d45cfdbfb5eaf3013229b3bf", "fusion_lat": 0.0, "type": "electric_scooter", "lat": 38.90028683333333, "is_reserved": 0, "is_disabled": 0, "fusion_lon": 0.0, "bike_id": "bcebad95d45cfdbfb5eaf3013229b3bf", "lon": -76.9884955, "rental_uris": {"ios": "https://dc.lft.to/lastmile_qr_scan", "android": "https://dc.lft.to/lastmile_qr_scan"}}, {"name": "e76bddacc038f7f56f9216140b3f168a", "fusion_lat": 0.0, "type": "electric_scooter", "lat": 38.92461316666667, "is_reserved": 0, "is_disabled": 0, "fusion_lon": 0.0, "bike_id": "e76bddacc038f7f56f9216140b3f168a", "lon": -77.03279083333334, "rental_uris": {"ios": "https://dc.lft.to/lastmile_qr_scan", "android": "https://dc.lft.to/lastmile_qr_scan"}}, {"name": "162b86a8214350cfa0a829feb0451f27", "fusion_lat": 0.0, "type": "electric_scooter", "lat": 38.90866166666667, "is_reserved": 0, "is_disabled": 0, "fusion_lon": 0.0, "bike_id": "162b86a8214350cfa0a829feb0451f27", "lon": -77.0859465, "rental_uris": {"ios": "https://dc.lft.to/lastmile_qr_scan", "android": "https://dc.lft.to/lastmile_qr_scan"}}, {"name": "c31fba1085944da51a84a7e30229beaf", "fusion_lat": 0.0, "type": "electric_scooter", "lat": 38.93562216666667, "is_reserved": 0, "is_disabled": 0, "fusion_lon": 0.0, "bike_id": "c31fba1085944da51a84a7e30229beaf", "lon": -77.02361933333333, "rental_uris": {"ios": "https://dc.lft.to/lastmile_qr_scan", "android": "https://dc.lft.to/lastmile_qr_scan"}}, {"name": "09f33c6f39fb3b68876c4f9fac486323", "fusion_lat": 0.0, "type": "electric_scooter", "lat": 38.93896316666667, "is_reserved": 0, "is_disabled": 0, "fusion_lon": 0.0, "bike_id": "09f33c6f39fb3b68876c4f9fac486323", "lon": -77.02465583333333, "rental_uris": {"ios": "https://dc.lft.to/lastmile_qr_scan", "android": "https://dc.lft.to/lastmile_qr_scan"}}, {"name": "8511d2447351e2ba30d1096b9c2db7cf", "fusion_lat": 0.0, "type": "electric_scooter", "lat": 38.91198833333333, "is_reserved": 0, "is_disabled": 0, "fusion_lon": 0.0, "bike_id": "8511d2447351e2ba30d1096b9c2db7cf", "lon": -77.03643666666666, "rental_uris": {"ios": "https://dc.lft.to/lastmile_qr_scan", "android": "https://dc.lft.to/lastmile_qr_scan"}}, {"name": "1007fb3b2f684f48b11a35024e25f6fb", "fusion_lat": 0.0, "type": "electric_scooter", "lat": 38.906646, "is_reserved": 0, "is_disabled": 0, "fusion_lon": 0.0, "bike_id": "1007fb3b2f684f48b11a35024e25f6fb", "lon": -77.0419205, "rental_uris": {"ios": "https://dc.lft.to/lastmile_qr_scan", "android": "https://dc.lft.to/lastmile_qr_scan"}}, {"name": "5efe266e1b54115acfbb1eaf609f8d29", "fusion_lat": 0.0, "type": "electric_scooter", "lat": 38.9161615, "is_reserved": 0, "is_disabled": 0, "fusion_lon": 0.0, "bike_id": "5efe266e1b54115acfbb1eaf609f8d29", "lon": -77.0217085, "rental_uris": {"ios": "https://dc.lft.to/lastmile_qr_scan", "android": "https://dc.lft.to/lastmile_qr_scan"}}, {"name": "37eba400ab9eb116bd955b1c04415fa7", "fusion_lat": 0.0, "type": "electric_bike", "lat": 38.948966, "is_reserved": 0, "is_disabled": 0, "fusion_lon": 0.0, "bike_id": "37eba400ab9eb116bd955b1c04415fa7", "lon": -76.963731, "rental_uris": {"ios": "https://dc.lft.to/lastmile_qr_scan", "android": "https://dc.lft.to/lastmile_qr_scan"}}, {"name": "741f7ac2ed67c871403f8d0c65ec24b2", "fusion_lat": 0.0, "type": "electric_scooter", "lat": 38.91492066666667, "is_reserved": 0, "is_disabled": 0, "fusion_lon": 0.0, "bike_id": "741f7ac2ed67c871403f8d0c65ec24b2", "lon": -77.03263833333334, "rental_uris": {"ios": "https://dc.lft.to/lastmile_qr_scan", "android": "https://dc.lft.to/lastmile_qr_scan"}}, {"name": "d650c4b7636c290123fc2ae30c3b6721", "fusion_lat": 0.0, "type": "electric_bike", "lat": 38.86393233333333, "is_reserved": 0, "is_disabled": 0, "fusion_lon": 0.0, "bike_id": "d650c4b7636c290123fc2ae30c3b6721", "lon": -76.98992016666666, "rental_uris": {"ios": "https://dc.lft.to/lastmile_qr_scan", "android": "https://dc.lft.to/lastmile_qr_scan"}}, {"name": "f41ef2074ffaa72db960eadda69e7efe", "fusion_lat": 0.0, "type": "electric_scooter", "lat": 38.94171566666667, "is_reserved": 0, "is_disabled": 0, "fusion_lon": 0.0, "bike_id": "f41ef2074ffaa72db960eadda69e7efe", "lon": -77.04134516666667, "rental_uris": {"ios": "https://dc.lft.to/lastmile_qr_scan", "android": "https://dc.lft.to/lastmile_qr_scan"}}, {"name": "72d6dda5ba7ea4aeee6f58e82c8197ac", "fusion_lat": 0.0, "type": "electric_bike", "lat": 38.9981515, "is_reserved": 0, "is_disabled": 0, "fusion_lon": 0.0, "bike_id": "72d6dda5ba7ea4aeee6f58e82c8197ac", "lon": -76.88362816666667, "rental_uris": {"ios": "https://dc.lft.to/lastmile_qr_scan", "android": "https://dc.lft.to/lastmile_qr_scan"}}, {"name": "7e64976dc17bb8cf4a41ae1a947bb307", "fusion_lat": 0.0, "type": "electric_scooter", "lat": 38.836015333333336, "is_reserved": 0, "is_disabled": 0, "fusion_lon": 0.0, "bike_id": "7e64976dc17bb8cf4a41ae1a947bb307", "lon": -76.99350633333333, "rental_uris": {"ios": "https://dc.lft.to/lastmile_qr_scan", "android": "https://dc.lft.to/lastmile_qr_scan"}}, {"name": "9815cc581909078b1c46383b98919456", "fusion_lat": 0.0, "type": "electric_scooter", "lat": 38.8742765, "is_reserved": 0, "is_disabled": 0, "fusion_lon": 0.0, "bike_id": "9815cc581909078b1c46383b98919456", "lon": -76.97181583333334, "rental_uris": {"ios": "https://dc.lft.to/lastmile_qr_scan", "android": "https://dc.lft.to/lastmile_qr_scan"}}, {"name": "90a82bdc998ddaf9070c391e395ada84", "fusion_lat": 0.0, "type": "electric_scooter", "lat": 38.91850383333333, "is_reserved": 0, "is_disabled": 0, "fusion_lon": 0.0, "bike_id": "90a82bdc998ddaf9070c391e395ada84", "lon": -77.02603766666667, "rental_uris": {"ios": "https://dc.lft.to/lastmile_qr_scan", "android": "https://dc.lft.to/lastmile_qr_scan"}}, {"name": "64ba31a0031ba77b853ea900b14dac07", "fusion_lat": 0.0, "type": "electric_scooter", "lat": 38.903415, "is_reserved": 0, "is_disabled": 0, "fusion_lon": 0.0, "bike_id": "64ba31a0031ba77b853ea900b14dac07", "lon": -77.06630783333334, "rental_uris": {"ios": "https://dc.lft.to/lastmile_qr_scan", "android": "https://dc.lft.to/lastmile_qr_scan"}}, {"name": "eabccc4f2bca2dd81199389f2ec088c6", "fusion_lat": 0.0, "type": "electric_scooter", "lat": 38.90367666666667, "is_reserved": 0, "is_disabled": 0, "fusion_lon": 0.0, "bike_id": "eabccc4f2bca2dd81199389f2ec088c6", "lon": -77.01106316666667, "rental_uris": {"ios": "https://dc.lft.to/lastmile_qr_scan", "android": "https://dc.lft.to/lastmile_qr_scan"}}, {"name": "ce7cd8b3d9bd1b598b92cf109b1b8c6d", "fusion_lat": 0.0, "type": "electric_scooter", "lat": 38.898787666666664, "is_reserved": 0, "is_disabled": 0, "fusion_lon": 0.0, "bike_id": "ce7cd8b3d9bd1b598b92cf109b1b8c6d", "lon": -76.9316095, "rental_uris": {"ios": "https://dc.lft.to/lastmile_qr_scan", "android": "https://dc.lft.to/lastmile_qr_scan"}}, {"name": "46610a1115e39d341abd9e8824716988", "fusion_lat": 0.0, "type": "electric_scooter", "lat": 38.9026595, "is_reserved": 0, "is_disabled": 0, "fusion_lon": 0.0, "bike_id": "46610a1115e39d341abd9e8824716988", "lon": -76.9961155, "rental_uris": {"ios": "https://dc.lft.to/lastmile_qr_scan", "android": "https://dc.lft.to/lastmile_qr_scan"}}, {"name": "6e7f55253c1317fe5ebfc3b55df28b3b", "fusion_lat": 0.0, "type": "electric_scooter", "lat": 38.937751, "is_reserved": 0, "is_disabled": 0, "fusion_lon": 0.0, "bike_id": "6e7f55253c1317fe5ebfc3b55df28b3b", "lon": -77.03285183333334, "rental_uris": {"ios": "https://dc.lft.to/lastmile_qr_scan", "android": "https://dc.lft.to/lastmile_qr_scan"}}, {"name": "4556a6a9eab9d569cbadc0d00468874f", "fusion_lat": 0.0, "type": "electric_scooter", "lat": 38.926460666666664, "is_reserved": 0, "is_disabled": 0, "fusion_lon": 0.0, "bike_id": "4556a6a9eab9d569cbadc0d00468874f", "lon": -77.03701033333333, "rental_uris": {"ios": "https://dc.lft.to/lastmile_qr_scan", "android": "https://dc.lft.to/lastmile_qr_scan"}}, {"name": "551de349a9ca86b53a483e5d671e0406", "fusion_lat": 0.0, "type": "electric_scooter", "lat": 38.909596666666665, "is_reserved": 0, "is_disabled": 0, "fusion_lon": 0.0, "bike_id": "551de349a9ca86b53a483e5d671e0406", "lon": -77.03379783333334, "rental_uris": {"ios": "https://dc.lft.to/lastmile_qr_scan", "android": "https://dc.lft.to/lastmile_qr_scan"}}, {"name": "0efc4dd9c6c81cf7af1a3c320f3b2595", "fusion_lat": 0.0, "type": "electric_scooter", "lat": 38.901159, "is_reserved": 0, "is_disabled": 0, "fusion_lon": 0.0, "bike_id": "0efc4dd9c6c81cf7af1a3c320f3b2595", "lon": -77.02176683333333, "rental_uris": {"ios": "https://dc.lft.to/lastmile_qr_scan", "android": "https://dc.lft.to/lastmile_qr_scan"}}, {"name": "7e7254726c219122dac2511ce563a582", "fusion_lat": 0.0, "type": "electric_scooter", "lat": 38.889224166666665, "is_reserved": 0, "is_disabled": 0, "fusion_lon": 0.0, "bike_id": "7e7254726c219122dac2511ce563a582", "lon": -76.95372783333333, "rental_uris": {"ios": "https://dc.lft.to/lastmile_qr_scan", "android": "https://dc.lft.to/lastmile_qr_scan"}}, {"name": "eb251a780e88405917a53669b3e9ff29", "fusion_lat": 0.0, "type": "electric_scooter", "lat": 38.92895133333333, "is_reserved": 0, "is_disabled": 0, "fusion_lon": 0.0, "bike_id": "eb251a780e88405917a53669b3e9ff29", "lon": -77.0230795, "rental_uris": {"ios": "https://dc.lft.to/lastmile_qr_scan", "android": "https://dc.lft.to/lastmile_qr_scan"}}, {"name": "7de44b9183c1a5f231a273af1e48140e", "fusion_lat": 0.0, "type": "electric_scooter", "lat": 38.90573, "is_reserved": 0, "is_disabled": 0, "fusion_lon": 0.0, "bike_id": "7de44b9183c1a5f231a273af1e48140e", "lon": -77.02762183333333, "rental_uris": {"ios": "https://dc.lft.to/lastmile_qr_scan", "android": "https://dc.lft.to/lastmile_qr_scan"}}, {"name": "404399c2482737c04be4d90e214535e7", "fusion_lat": 0.0, "type": "electric_scooter", "lat": 38.91201083333333, "is_reserved": 0, "is_disabled": 0, "fusion_lon": 0.0, "bike_id": "404399c2482737c04be4d90e214535e7", "lon": -77.0445775, "rental_uris": {"ios": "https://dc.lft.to/lastmile_qr_scan", "android": "https://dc.lft.to/lastmile_qr_scan"}}, {"name": "5f091f7282333b4ebc507a76c936c168", "fusion_lat": 0.0, "type": "electric_scooter", "lat": 38.89204316666667, "is_reserved": 0, "is_disabled": 0, "fusion_lon": 0.0, "bike_id": "5f091f7282333b4ebc507a76c936c168", "lon": -77.00238033333333, "rental_uris": {"ios": "https://dc.lft.to/lastmile_qr_scan", "android": "https://dc.lft.to/lastmile_qr_scan"}}, {"name": "348b60f7d8c225c7dca2ee4a78fade74", "fusion_lat": 0.0, "type": "electric_scooter", "lat": 38.93472883333333, "is_reserved": 0, "is_disabled": 0, "fusion_lon": 0.0, "bike_id": "348b60f7d8c225c7dca2ee4a78fade74", "lon": -77.0285335, "rental_uris": {"ios": "https://dc.lft.to/lastmile_qr_scan", "android": "https://dc.lft.to/lastmile_qr_scan"}}, {"name": "f2bb001314cd3b2755db0ef95c2f38a4", "fusion_lat": 0.0, "type": "electric_scooter", "lat": 38.90382133333333, "is_reserved": 0, "is_disabled": 0, "fusion_lon": 0.0, "bike_id": "f2bb001314cd3b2755db0ef95c2f38a4", "lon": -77.04506233333333, "rental_uris": {"ios": "https://dc.lft.to/lastmile_qr_scan", "android": "https://dc.lft.to/lastmile_qr_scan"}}, {"name": "15a3d21890c089a52f94913955f2b710", "fusion_lat": 0.0, "type": "electric_scooter", "lat": 38.90923516666667, "is_reserved": 0, "is_disabled": 0, "fusion_lon": 0.0, "bike_id": "15a3d21890c089a52f94913955f2b710", "lon": -77.0318965, "rental_uris": {"ios": "https://dc.lft.to/lastmile_qr_scan", "android": "https://dc.lft.to/lastmile_qr_scan"}}, {"name": "e51e45b8593b6d1185e11640a0e5a461", "fusion_lat": 0.0, "type": "electric_scooter", "lat": 38.8909445, "is_reserved": 0, "is_disabled": 0, "fusion_lon": 0.0, "bike_id": "e51e45b8593b6d1185e11640a0e5a461", "lon": -76.99153616666666, "rental_uris": {"ios": "https://dc.lft.to/lastmile_qr_scan", "android": "https://dc.lft.to/lastmile_qr_scan"}}, {"name": "3f8e91335ecd6578f1532e876ad7719e", "fusion_lat": 0.0, "type": "electric_scooter", "lat": 38.9396715, "is_reserved": 0, "is_disabled": 0, "fusion_lon": 0.0, "bike_id": "3f8e91335ecd6578f1532e876ad7719e", "lon": -77.02753433333334, "rental_uris": {"ios": "https://dc.lft.to/lastmile_qr_scan", "android": "https://dc.lft.to/lastmile_qr_scan"}}, {"name": "6108b0fa78fd6c13b95a8a4a8643d6e7", "fusion_lat": 0.0, "type": "electric_scooter", "lat": 38.892997333333334, "is_reserved": 0, "is_disabled": 0, "fusion_lon": 0.0, "bike_id": "6108b0fa78fd6c13b95a8a4a8643d6e7", "lon": -76.939332, "rental_uris": {"ios": "https://dc.lft.to/lastmile_qr_scan", "android": "https://dc.lft.to/lastmile_qr_scan"}}, {"name": "941c5a302c824e48054abe9b1caaab62", "fusion_lat": 0.0, "type": "electric_scooter", "lat": 38.901327, "is_reserved": 0, "is_disabled": 0, "fusion_lon": 0.0, "bike_id": "941c5a302c824e48054abe9b1caaab62", "lon": -77.023962, "rental_uris": {"ios": "https://dc.lft.to/lastmile_qr_scan", "android": "https://dc.lft.to/lastmile_qr_scan"}}, {"name": "5c18f9b24ceff7791e301085d1defcc5", "fusion_lat": 0.0, "type": "electric_bike", "lat": 38.832393833333334, "is_reserved": 0, "is_disabled": 0, "fusion_lon": 0.0, "bike_id": "5c18f9b24ceff7791e301085d1defcc5", "lon": -76.94623933333334, "rental_uris": {"ios": "https://dc.lft.to/lastmile_qr_scan", "android": "https://dc.lft.to/lastmile_qr_scan"}}, {"name": "3f79e9352cfdc0d19f8659eae545eb12", "fusion_lat": 0.0, "type": "electric_scooter", "lat": 38.9098575, "is_reserved": 0, "is_disabled": 0, "fusion_lon": 0.0, "bike_id": "3f79e9352cfdc0d19f8659eae545eb12", "lon": -77.04876816666666, "rental_uris": {"ios": "https://dc.lft.to/lastmile_qr_scan", "android": "https://dc.lft.to/lastmile_qr_scan"}}, {"name": "2d2752d00b3b5f98e7d92e0241d87b7f", "fusion_lat": 0.0, "type": "electric_scooter", "lat": 38.92080833333333, "is_reserved": 0, "is_disabled": 0, "fusion_lon": 0.0, "bike_id": "2d2752d00b3b5f98e7d92e0241d87b7f", "lon": -77.02399566666666, "rental_uris": {"ios": "https://dc.lft.to/lastmile_qr_scan", "android": "https://dc.lft.to/lastmile_qr_scan"}}, {"name": "5e2b5a7c8e2488e1a128783b5c083b02", "fusion_lat": 0.0, "type": "electric_scooter", "lat": 38.90787433333333, "is_reserved": 0, "is_disabled": 0, "fusion_lon": 0.0, "bike_id": "5e2b5a7c8e2488e1a128783b5c083b02", "lon": -77.03866733333334, "rental_uris": {"ios": "https://dc.lft.to/lastmile_qr_scan", "android": "https://dc.lft.to/lastmile_qr_scan"}}, {"name": "ad2ebcaac1be4fb1499b661cf1162fe3", "fusion_lat": 0.0, "type": "electric_bike", "lat": 38.939426, "is_reserved": 0, "is_disabled": 0, "fusion_lon": 0.0, "bike_id": "ad2ebcaac1be4fb1499b661cf1162fe3", "lon": -77.0326615, "rental_uris": {"ios": "https://dc.lft.to/lastmile_qr_scan", "android": "https://dc.lft.to/lastmile_qr_scan"}}, {"name": "33ac2a46bc9fe84f35731cb6d0864aea", "fusion_lat": 0.0, "type": "electric_bike", "lat": 38.992382, "is_reserved": 0, "is_disabled": 0, "fusion_lon": 0.0, "bike_id": "33ac2a46bc9fe84f35731cb6d0864aea", "lon": -77.10010066666666, "rental_uris": {"ios": "https://dc.lft.to/lastmile_qr_scan", "android": "https://dc.lft.to/lastmile_qr_scan"}}, {"name": "58f92423eb3441cc5eaa91f0bde9c3ba", "fusion_lat": 0.0, "type": "electric_scooter", "lat": 38.95784316666666, "is_reserved": 0, "is_disabled": 0, "fusion_lon": 0.0, "bike_id": "58f92423eb3441cc5eaa91f0bde9c3ba", "lon": -77.02771183333333, "rental_uris": {"ios": "https://dc.lft.to/lastmile_qr_scan", "android": "https://dc.lft.to/lastmile_qr_scan"}}, {"name": "aebfd0eae35f796b9206267318937fe2", "fusion_lat": 0.0, "type": "electric_scooter", "lat": 38.91969366666667, "is_reserved": 0, "is_disabled": 0, "fusion_lon": 0.0, "bike_id": "aebfd0eae35f796b9206267318937fe2", "lon": -77.03860716666667, "rental_uris": {"ios": "https://dc.lft.to/lastmile_qr_scan", "android": "https://dc.lft.to/lastmile_qr_scan"}}, {"name": "7640f18f3c7bcd8bc48a00f3ea6fa9d0", "fusion_lat": 0.0, "type": "electric_scooter", "lat": 38.91762966666667, "is_reserved": 0, "is_disabled": 0, "fusion_lon": 0.0, "bike_id": "7640f18f3c7bcd8bc48a00f3ea6fa9d0", "lon": -77.02513683333333, "rental_uris": {"ios": "https://dc.lft.to/lastmile_qr_scan", "android": "https://dc.lft.to/lastmile_qr_scan"}}, {"name": "aeb4aad49d35b13ad37eaa613af42f29", "fusion_lat": 0.0, "type": "electric_scooter", "lat": 38.912558833333335, "is_reserved": 0, "is_disabled": 0, "fusion_lon": 0.0, "bike_id": "aeb4aad49d35b13ad37eaa613af42f29", "lon": -77.03836916666667, "rental_uris": {"ios": "https://dc.lft.to/lastmile_qr_scan", "android": "https://dc.lft.to/lastmile_qr_scan"}}, {"name": "5dea61b3aa1a529bbb66c1c2c1983963", "fusion_lat": 0.0, "type": "electric_scooter", "lat": 38.897364333333336, "is_reserved": 0, "is_disabled": 0, "fusion_lon": 0.0, "bike_id": "5dea61b3aa1a529bbb66c1c2c1983963", "lon": -77.04650733333334, "rental_uris": {"ios": "https://dc.lft.to/lastmile_qr_scan", "android": "https://dc.lft.to/lastmile_qr_scan"}}, {"name": "a9292ee5511719139c24c3cec1c1f80e", "fusion_lat": 0.0, "type": "electric_scooter", "lat": 38.914178166666666, "is_reserved": 0, "is_disabled": 0, "fusion_lon": 0.0, "bike_id": "a9292ee5511719139c24c3cec1c1f80e", "lon": -77.04505866666666, "rental_uris": {"ios": "https://dc.lft.to/lastmile_qr_scan", "android": "https://dc.lft.to/lastmile_qr_scan"}}, {"name": "c807624a2a5a139a9fc2d0cda66d8d96", "fusion_lat": 0.0, "type": "electric_scooter", "lat": 38.912885833333334, "is_reserved": 0, "is_disabled": 0, "fusion_lon": 0.0, "bike_id": "c807624a2a5a139a9fc2d0cda66d8d96", "lon": -77.03927433333334, "rental_uris": {"ios": "https://dc.lft.to/lastmile_qr_scan", "android": "https://dc.lft.to/lastmile_qr_scan"}}, {"name": "dc2d6871894dbd3cd1249f437628dec0", "fusion_lat": 0.0, "type": "electric_bike", "lat": 38.90301916666667, "is_reserved": 0, "is_disabled": 0, "fusion_lon": 0.0, "bike_id": "dc2d6871894dbd3cd1249f437628dec0", "lon": -76.9444165, "rental_uris": {"ios": "https://dc.lft.to/lastmile_qr_scan", "android": "https://dc.lft.to/lastmile_qr_scan"}}, {"name": "86638e86a0f28b67641b628d6c76eedf", "fusion_lat": 0.0, "type": "electric_scooter", "lat": 38.91724766666667, "is_reserved": 0, "is_disabled": 0, "fusion_lon": 0.0, "bike_id": "86638e86a0f28b67641b628d6c76eedf", "lon": -77.01863616666667, "rental_uris": {"ios": "https://dc.lft.to/lastmile_qr_scan", "android": "https://dc.lft.to/lastmile_qr_scan"}}, {"name": "e880b83853b07d6973475ae3294fe5d1", "fusion_lat": 0.0, "type": "electric_scooter", "lat": 38.89767783333333, "is_reserved": 0, "is_disabled": 0, "fusion_lon": 0.0, "bike_id": "e880b83853b07d6973475ae3294fe5d1", "lon": -77.05156033333333, "rental_uris": {"ios": "https://dc.lft.to/lastmile_qr_scan", "android": "https://dc.lft.to/lastmile_qr_scan"}}, {"name": "919c9e53490afbe41e5084546eeca52a", "fusion_lat": 0.0, "type": "electric_scooter", "lat": 38.911176, "is_reserved": 0, "is_disabled": 0, "fusion_lon": 0.0, "bike_id": "919c9e53490afbe41e5084546eeca52a", "lon": -77.03923483333334, "rental_uris": {"ios": "https://dc.lft.to/lastmile_qr_scan", "android": "https://dc.lft.to/lastmile_qr_scan"}}, {"name": "b347ca965ec3636e328004e0ff9a4c80", "fusion_lat": 0.0, "type": "electric_scooter", "lat": 38.899310166666666, "is_reserved": 0, "is_disabled": 0, "fusion_lon": 0.0, "bike_id": "b347ca965ec3636e328004e0ff9a4c80", "lon": -77.00357416666667, "rental_uris": {"ios": "https://dc.lft.to/lastmile_qr_scan", "android": "https://dc.lft.to/lastmile_qr_scan"}}, {"name": "0fea7c3c77deb038e656a1546c867e16", "fusion_lat": 0.0, "type": "electric_bike", "lat": 38.8343985, "is_reserved": 0, "is_disabled": 0, "fusion_lon": 0.0, "bike_id": "0fea7c3c77deb038e656a1546c867e16", "lon": -77.00833583333333, "rental_uris": {"ios": "https://dc.lft.to/lastmile_qr_scan", "android": "https://dc.lft.to/lastmile_qr_scan"}}, {"name": "ac1d25b091a1b9025fd761b64a7c5c7f", "fusion_lat": 0.0, "type": "electric_scooter", "lat": 38.893697, "is_reserved": 0, "is_disabled": 0, "fusion_lon": 0.0, "bike_id": "ac1d25b091a1b9025fd761b64a7c5c7f", "lon": -76.94987566666667, "rental_uris": {"ios": "https://dc.lft.to/lastmile_qr_scan", "android": "https://dc.lft.to/lastmile_qr_scan"}}, {"name": "64b43f7243f05e846683bc9d2bd0ad7c", "fusion_lat": 0.0, "type": "electric_scooter", "lat": 38.89638133333333, "is_reserved": 0, "is_disabled": 0, "fusion_lon": 0.0, "bike_id": "64b43f7243f05e846683bc9d2bd0ad7c", "lon": -77.02841166666667, "rental_uris": {"ios": "https://dc.lft.to/lastmile_qr_scan", "android": "https://dc.lft.to/lastmile_qr_scan"}}, {"name": "fe642454d1e2c10d537a11caa7568ee6", "fusion_lat": 0.0, "type": "electric_scooter", "lat": 38.93285633333333, "is_reserved": 0, "is_disabled": 0, "fusion_lon": 0.0, "bike_id": "fe642454d1e2c10d537a11caa7568ee6", "lon": -77.02535666666667, "rental_uris": {"ios": "https://dc.lft.to/lastmile_qr_scan", "android": "https://dc.lft.to/lastmile_qr_scan"}}, {"name": "e7219a89434bdd4df97ebba81c410a6a", "fusion_lat": 0.0, "type": "electric_scooter", "lat": 38.917138666666666, "is_reserved": 0, "is_disabled": 0, "fusion_lon": 0.0, "bike_id": "e7219a89434bdd4df97ebba81c410a6a", "lon": -77.03334433333333, "rental_uris": {"ios": "https://dc.lft.to/lastmile_qr_scan", "android": "https://dc.lft.to/lastmile_qr_scan"}}, {"name": "38c87cb88fd73d9ecdf9a715cdafb2de", "fusion_lat": 0.0, "type": "electric_scooter", "lat": 38.84428066666667, "is_reserved": 0, "is_disabled": 0, "fusion_lon": 0.0, "bike_id": "38c87cb88fd73d9ecdf9a715cdafb2de", "lon": -76.9978295, "rental_uris": {"ios": "https://dc.lft.to/lastmile_qr_scan", "android": "https://dc.lft.to/lastmile_qr_scan"}}, {"name": "1e7c80cfdb7d00725dac44b6ffc9721d", "fusion_lat": 0.0, "type": "electric_scooter", "lat": 38.8922315, "is_reserved": 0, "is_disabled": 0, "fusion_lon": 0.0, "bike_id": "1e7c80cfdb7d00725dac44b6ffc9721d", "lon": -77.01374316666667, "rental_uris": {"ios": "https://dc.lft.to/lastmile_qr_scan", "android": "https://dc.lft.to/lastmile_qr_scan"}}, {"name": "f7b17f7c5cd054809284c671ffa6bc3d", "fusion_lat": 0.0, "type": "electric_bike", "lat": 38.86907766666667, "is_reserved": 0, "is_disabled": 0, "fusion_lon": 0.0, "bike_id": "f7b17f7c5cd054809284c671ffa6bc3d", "lon": -77.13180083333333, "rental_uris": {"ios": "https://dc.lft.to/lastmile_qr_scan", "android": "https://dc.lft.to/lastmile_qr_scan"}}, {"name": "92f0db6237ee060d6703e8ddb9d1d616", "fusion_lat": 0.0, "type": "electric_scooter", "lat": 38.905675333333335, "is_reserved": 0, "is_disabled": 0, "fusion_lon": 0.0, "bike_id": "92f0db6237ee060d6703e8ddb9d1d616", "lon": -77.0058865, "rental_uris": {"ios": "https://dc.lft.to/lastmile_qr_scan", "android": "https://dc.lft.to/lastmile_qr_scan"}}, {"name": "70ab34599f958338f2390d8601aef536", "fusion_lat": 0.0, "type": "electric_scooter", "lat": 38.90640416666667, "is_reserved": 0, "is_disabled": 0, "fusion_lon": 0.0, "bike_id": "70ab34599f958338f2390d8601aef536", "lon": -76.98576983333334, "rental_uris": {"ios": "https://dc.lft.to/lastmile_qr_scan", "android": "https://dc.lft.to/lastmile_qr_scan"}}, {"name": "c6da8b39444762e5c51357b6d12188ef", "fusion_lat": 0.0, "type": "electric_scooter", "lat": 38.9009315, "is_reserved": 0, "is_disabled": 0, "fusion_lon": 0.0, "bike_id": "c6da8b39444762e5c51357b6d12188ef", "lon": -77.01342433333333, "rental_uris": {"ios": "https://dc.lft.to/lastmile_qr_scan", "android": "https://dc.lft.to/lastmile_qr_scan"}}, {"name": "201326e49c9b9c541821344f6a843307", "fusion_lat": 0.0, "type": "electric_scooter", "lat": 38.917655833333335, "is_reserved": 0, "is_disabled": 0, "fusion_lon": 0.0, "bike_id": "201326e49c9b9c541821344f6a843307", "lon": -77.02713666666666, "rental_uris": {"ios": "https://dc.lft.to/lastmile_qr_scan", "android": "https://dc.lft.to/lastmile_qr_scan"}}, {"name": "eb1e0903b1dda20cf76489959f3395ab", "fusion_lat": 0.0, "type": "electric_scooter", "lat": 38.92249116666667, "is_reserved": 0, "is_disabled": 0, "fusion_lon": 0.0, "bike_id": "eb1e0903b1dda20cf76489959f3395ab", "lon": -77.04493766666667, "rental_uris": {"ios": "https://dc.lft.to/lastmile_qr_scan", "android": "https://dc.lft.to/lastmile_qr_scan"}}, {"name": "7541baa26aec915755a4fe067537e1a6", "fusion_lat": 0.0, "type": "electric_bike", "lat": 39.0305315, "is_reserved": 0, "is_disabled": 0, "fusion_lon": 0.0, "bike_id": "7541baa26aec915755a4fe067537e1a6", "lon": -77.09481366666667, "rental_uris": {"ios": "https://dc.lft.to/lastmile_qr_scan", "android": "https://dc.lft.to/lastmile_qr_scan"}}, {"name": "b6e0d22533182dcb984147edbf1f8961", "fusion_lat": 0.0, "type": "electric_scooter", "lat": 38.90031, "is_reserved": 0, "is_disabled": 0, "fusion_lon": 0.0, "bike_id": "b6e0d22533182dcb984147edbf1f8961", "lon": -76.98853333333334, "rental_uris": {"ios": "https://dc.lft.to/lastmile_qr_scan", "android": "https://dc.lft.to/lastmile_qr_scan"}}, {"name": "2693dc7373593ce1c03d30ea91ef7a58", "fusion_lat": 0.0, "type": "electric_scooter", "lat": 38.88439283333334, "is_reserved": 0, "is_disabled": 0, "fusion_lon": 0.0, "bike_id": "2693dc7373593ce1c03d30ea91ef7a58", "lon": -76.9959605, "rental_uris": {"ios": "https://dc.lft.to/lastmile_qr_scan", "android": "https://dc.lft.to/lastmile_qr_scan"}}, {"name": "e7aa0898e25a16e1a1211dd7a9d936ee", "fusion_lat": 0.0, "type": "electric_scooter", "lat": 38.900353333333335, "is_reserved": 0, "is_disabled": 0, "fusion_lon": 0.0, "bike_id": "e7aa0898e25a16e1a1211dd7a9d936ee", "lon": -76.99842116666667, "rental_uris": {"ios": "https://dc.lft.to/lastmile_qr_scan", "android": "https://dc.lft.to/lastmile_qr_scan"}}, {"name": "330fedbe18111bda80d0db0c1ded56a2", "fusion_lat": 0.0, "type": "electric_scooter", "lat": 38.896073666666666, "is_reserved": 0, "is_disabled": 0, "fusion_lon": 0.0, "bike_id": "330fedbe18111bda80d0db0c1ded56a2", "lon": -77.04138966666666, "rental_uris": {"ios": "https://dc.lft.to/lastmile_qr_scan", "android": "https://dc.lft.to/lastmile_qr_scan"}}, {"name": "5956041fc07b3b181e4034026f7f675b", "fusion_lat": 0.0, "type": "electric_scooter", "lat": 38.90653966666667, "is_reserved": 0, "is_disabled": 0, "fusion_lon": 0.0, "bike_id": "5956041fc07b3b181e4034026f7f675b", "lon": -77.014173, "rental_uris": {"ios": "https://dc.lft.to/lastmile_qr_scan", "android": "https://dc.lft.to/lastmile_qr_scan"}}, {"name": "b8a779b704ab1555d8e4e60f943141a0", "fusion_lat": 0.0, "type": "electric_scooter", "lat": 38.8708955, "is_reserved": 0, "is_disabled": 0, "fusion_lon": 0.0, "bike_id": "b8a779b704ab1555d8e4e60f943141a0", "lon": -76.9686595, "rental_uris": {"ios": "https://dc.lft.to/lastmile_qr_scan", "android": "https://dc.lft.to/lastmile_qr_scan"}}, {"name": "5b9b54dedfb08b9e3485c234e1aacae5", "fusion_lat": 0.0, "type": "electric_scooter", "lat": 38.927866333333334, "is_reserved": 0, "is_disabled": 0, "fusion_lon": 0.0, "bike_id": "5b9b54dedfb08b9e3485c234e1aacae5", "lon": -77.02654833333334, "rental_uris": {"ios": "https://dc.lft.to/lastmile_qr_scan", "android": "https://dc.lft.to/lastmile_qr_scan"}}, {"name": "edbb8d5eff176ebd219d1f6e0783809b", "fusion_lat": 0.0, "type": "electric_scooter", "lat": 38.92021066666667, "is_reserved": 0, "is_disabled": 0, "fusion_lon": 0.0, "bike_id": "edbb8d5eff176ebd219d1f6e0783809b", "lon": -77.03968033333334, "rental_uris": {"ios": "https://dc.lft.to/lastmile_qr_scan", "android": "https://dc.lft.to/lastmile_qr_scan"}}, {"name": "ec90fcc57d240a76b62ef1f800a18315", "fusion_lat": 0.0, "type": "electric_scooter", "lat": 38.87239316666667, "is_reserved": 0, "is_disabled": 0, "fusion_lon": 0.0, "bike_id": "ec90fcc57d240a76b62ef1f800a18315", "lon": -77.01160433333334, "rental_uris": {"ios": "https://dc.lft.to/lastmile_qr_scan", "android": "https://dc.lft.to/lastmile_qr_scan"}}, {"name": "cff14dd5b8ef1e8855e6883fb994d2d4", "fusion_lat": 0.0, "type": "electric_scooter", "lat": 38.9140715, "is_reserved": 0, "is_disabled": 0, "fusion_lon": 0.0, "bike_id": "cff14dd5b8ef1e8855e6883fb994d2d4", "lon": -77.02228816666667, "rental_uris": {"ios": "https://dc.lft.to/lastmile_qr_scan", "android": "https://dc.lft.to/lastmile_qr_scan"}}, {"name": "1a29615bc70ed17dc854789da7ea8a73", "fusion_lat": 0.0, "type": "electric_scooter", "lat": 38.95650116666667, "is_reserved": 0, "is_disabled": 0, "fusion_lon": 0.0, "bike_id": "1a29615bc70ed17dc854789da7ea8a73", "lon": -77.0329115, "rental_uris": {"ios": "https://dc.lft.to/lastmile_qr_scan", "android": "https://dc.lft.to/lastmile_qr_scan"}}, {"name": "bf60a2c5cb2d8ec244667edb539041bc", "fusion_lat": 0.0, "type": "electric_scooter", "lat": 38.907244666666664, "is_reserved": 0, "is_disabled": 0, "fusion_lon": 0.0, "bike_id": "bf60a2c5cb2d8ec244667edb539041bc", "lon": -77.032682, "rental_uris": {"ios": "https://dc.lft.to/lastmile_qr_scan", "android": "https://dc.lft.to/lastmile_qr_scan"}}, {"name": "ca4ad9b18d904c87ee464c93e65a49da", "fusion_lat": 0.0, "type": "electric_bike", "lat": 39.08859966666667, "is_reserved": 0, "is_disabled": 0, "fusion_lon": 0.0, "bike_id": "ca4ad9b18d904c87ee464c93e65a49da", "lon": -77.17847083333334, "rental_uris": {"ios": "https://dc.lft.to/lastmile_qr_scan", "android": "https://dc.lft.to/lastmile_qr_scan"}}, {"name": "b689b10e94f4cc0de2c1fb3680c958e7", "fusion_lat": 0.0, "type": "electric_bike", "lat": 39.053681833333336, "is_reserved": 0, "is_disabled": 0, "fusion_lon": 0.0, "bike_id": "b689b10e94f4cc0de2c1fb3680c958e7", "lon": -77.04736583333333, "rental_uris": {"ios": "https://dc.lft.to/lastmile_qr_scan", "android": "https://dc.lft.to/lastmile_qr_scan"}}, {"name": "51573382de25f0ec46350134751dcae2", "fusion_lat": 0.0, "type": "electric_bike", "lat": 38.935243166666666, "is_reserved": 0, "is_disabled": 0, "fusion_lon": 0.0, "bike_id": "51573382de25f0ec46350134751dcae2", "lon": -76.950658, "rental_uris": {"ios": "https://dc.lft.to/lastmile_qr_scan", "android": "https://dc.lft.to/lastmile_qr_scan"}}, {"name": "707448487ea839219c3525edefebc547", "fusion_lat": 0.0, "type": "electric_scooter", "lat": 38.9027645, "is_reserved": 0, "is_disabled": 0, "fusion_lon": 0.0, "bike_id": "707448487ea839219c3525edefebc547", "lon": -77.03635933333334, "rental_uris": {"ios": "https://dc.lft.to/lastmile_qr_scan", "android": "https://dc.lft.to/lastmile_qr_scan"}}, {"name": "8c5ab7280395c95c4c223e1278fe9bda", "fusion_lat": 0.0, "type": "electric_scooter", "lat": 38.922522666666666, "is_reserved": 0, "is_disabled": 0, "fusion_lon": 0.0, "bike_id": "8c5ab7280395c95c4c223e1278fe9bda", "lon": -76.99398066666667, "rental_uris": {"ios": "https://dc.lft.to/lastmile_qr_scan", "android": "https://dc.lft.to/lastmile_qr_scan"}}, {"name": "825c84e649b39a2b8f83d85cce310c57", "fusion_lat": 0.0, "type": "electric_scooter", "lat": 38.90563266666667, "is_reserved": 0, "is_disabled": 0, "fusion_lon": 0.0, "bike_id": "825c84e649b39a2b8f83d85cce310c57", "lon": -77.022318, "rental_uris": {"ios": "https://dc.lft.to/lastmile_qr_scan", "android": "https://dc.lft.to/lastmile_qr_scan"}}, {"name": "f75bfdf2e7a993dc9d3af0d4025588e7", "fusion_lat": 0.0, "type": "electric_scooter", "lat": 38.86537333333333, "is_reserved": 0, "is_disabled": 0, "fusion_lon": 0.0, "bike_id": "f75bfdf2e7a993dc9d3af0d4025588e7", "lon": -76.98712266666666, "rental_uris": {"ios": "https://dc.lft.to/lastmile_qr_scan", "android": "https://dc.lft.to/lastmile_qr_scan"}}, {"name": "3b7c3eb06149aa36b0a9a097de9d3bac", "fusion_lat": 0.0, "type": "electric_scooter", "lat": 38.90142566666667, "is_reserved": 0, "is_disabled": 0, "fusion_lon": 0.0, "bike_id": "3b7c3eb06149aa36b0a9a097de9d3bac", "lon": -77.04221566666666, "rental_uris": {"ios": "https://dc.lft.to/lastmile_qr_scan", "android": "https://dc.lft.to/lastmile_qr_scan"}}, {"name": "c162747ff244002c4c3abd4f050c6fae", "fusion_lat": 0.0, "type": "electric_bike", "lat": 38.92855016666667, "is_reserved": 0, "is_disabled": 0, "fusion_lon": 0.0, "bike_id": "c162747ff244002c4c3abd4f050c6fae", "lon": -77.22222933333333, "rental_uris": {"ios": "https://dc.lft.to/lastmile_qr_scan", "android": "https://dc.lft.to/lastmile_qr_scan"}}, {"name": "8a2cd176d285925c399359eb0170f496", "fusion_lat": 0.0, "type": "electric_scooter", "lat": 38.902729, "is_reserved": 0, "is_disabled": 0, "fusion_lon": 0.0, "bike_id": "8a2cd176d285925c399359eb0170f496", "lon": -76.98716166666667, "rental_uris": {"ios": "https://dc.lft.to/lastmile_qr_scan", "android": "https://dc.lft.to/lastmile_qr_scan"}}, {"name": "bddaac81080c44d2c4d492151e60f0e2", "fusion_lat": 0.0, "type": "electric_scooter", "lat": 38.899948333333334, "is_reserved": 0, "is_disabled": 0, "fusion_lon": 0.0, "bike_id": "bddaac81080c44d2c4d492151e60f0e2", "lon": -77.05581083333334, "rental_uris": {"ios": "https://dc.lft.to/lastmile_qr_scan", "android": "https://dc.lft.to/lastmile_qr_scan"}}, {"name": "8b6cf31f305187e8640820e3e085d218", "fusion_lat": 0.0, "type": "electric_bike", "lat": 38.9101135, "is_reserved": 0, "is_disabled": 0, "fusion_lon": 0.0, "bike_id": "8b6cf31f305187e8640820e3e085d218", "lon": -77.0616705, "rental_uris": {"ios": "https://dc.lft.to/lastmile_qr_scan", "android": "https://dc.lft.to/lastmile_qr_scan"}}, {"name": "54266760d1b1db7fd6e273b1e4778783", "fusion_lat": 0.0, "type": "electric_scooter", "lat": 38.911944, "is_reserved": 0, "is_disabled": 0, "fusion_lon": 0.0, "bike_id": "54266760d1b1db7fd6e273b1e4778783", "lon": -77.04543433333333, "rental_uris": {"ios": "https://dc.lft.to/lastmile_qr_scan", "android": "https://dc.lft.to/lastmile_qr_scan"}}, {"name": "9cd13d0030cea058e50ad11a945acefa", "fusion_lat": 0.0, "type": "electric_scooter", "lat": 38.9159115, "is_reserved": 0, "is_disabled": 0, "fusion_lon": 0.0, "bike_id": "9cd13d0030cea058e50ad11a945acefa", "lon": -77.01725833333333, "rental_uris": {"ios": "https://dc.lft.to/lastmile_qr_scan", "android": "https://dc.lft.to/lastmile_qr_scan"}}, {"name": "8d0f409f130960c7d4cf87816611a23f", "fusion_lat": 0.0, "type": "electric_scooter", "lat": 38.912758833333335, "is_reserved": 0, "is_disabled": 0, "fusion_lon": 0.0, "bike_id": "8d0f409f130960c7d4cf87816611a23f", "lon": -77.04510116666667, "rental_uris": {"ios": "https://dc.lft.to/lastmile_qr_scan", "android": "https://dc.lft.to/lastmile_qr_scan"}}, {"name": "b4c60e54788b0e8e95d0996c19053cd3", "fusion_lat": 0.0, "type": "electric_scooter", "lat": 38.89519033333333, "is_reserved": 0, "is_disabled": 0, "fusion_lon": 0.0, "bike_id": "b4c60e54788b0e8e95d0996c19053cd3", "lon": -77.01084666666667, "rental_uris": {"ios": "https://dc.lft.to/lastmile_qr_scan", "android": "https://dc.lft.to/lastmile_qr_scan"}}, {"name": "a124b9878bb72d58c02a509dc606eee7", "fusion_lat": 0.0, "type": "electric_scooter", "lat": 38.93540316666667, "is_reserved": 0, "is_disabled": 0, "fusion_lon": 0.0, "bike_id": "a124b9878bb72d58c02a509dc606eee7", "lon": -77.03407033333333, "rental_uris": {"ios": "https://dc.lft.to/lastmile_qr_scan", "android": "https://dc.lft.to/lastmile_qr_scan"}}, {"name": "8809790db61335ffe1c430d04d72f978", "fusion_lat": 0.0, "type": "electric_scooter", "lat": 38.92630833333333, "is_reserved": 0, "is_disabled": 0, "fusion_lon": 0.0, "bike_id": "8809790db61335ffe1c430d04d72f978", "lon": -77.03789833333333, "rental_uris": {"ios": "https://dc.lft.to/lastmile_qr_scan", "android": "https://dc.lft.to/lastmile_qr_scan"}}, {"name": "6153b89ce8fee1ccd83107d9a49a1b21", "fusion_lat": 0.0, "type": "electric_scooter", "lat": 38.9076515, "is_reserved": 0, "is_disabled": 0, "fusion_lon": 0.0, "bike_id": "6153b89ce8fee1ccd83107d9a49a1b21", "lon": -77.05979133333334, "rental_uris": {"ios": "https://dc.lft.to/lastmile_qr_scan", "android": "https://dc.lft.to/lastmile_qr_scan"}}, {"name": "22645e1a8a348eb1d0f04c03f4dca7a7", "fusion_lat": 0.0, "type": "electric_scooter", "lat": 38.90567583333333, "is_reserved": 0, "is_disabled": 0, "fusion_lon": 0.0, "bike_id": "22645e1a8a348eb1d0f04c03f4dca7a7", "lon": -77.005774, "rental_uris": {"ios": "https://dc.lft.to/lastmile_qr_scan", "android": "https://dc.lft.to/lastmile_qr_scan"}}, {"name": "40afcbdf6a48b5597d563fbe7b6fe57f", "fusion_lat": 0.0, "type": "electric_scooter", "lat": 38.923516, "is_reserved": 0, "is_disabled": 0, "fusion_lon": 0.0, "bike_id": "40afcbdf6a48b5597d563fbe7b6fe57f", "lon": -77.03395283333333, "rental_uris": {"ios": "https://dc.lft.to/lastmile_qr_scan", "android": "https://dc.lft.to/lastmile_qr_scan"}}, {"name": "759ce4c9f13d90edbc5f431329c3dee7", "fusion_lat": 0.0, "type": "electric_scooter", "lat": 38.907341833333334, "is_reserved": 0, "is_disabled": 0, "fusion_lon": 0.0, "bike_id": "759ce4c9f13d90edbc5f431329c3dee7", "lon": -77.04891, "rental_uris": {"ios": "https://dc.lft.to/lastmile_qr_scan", "android": "https://dc.lft.to/lastmile_qr_scan"}}, {"name": "a7294af04e85e460f77751af31c1a76c", "fusion_lat": 0.0, "type": "electric_bike", "lat": 38.97095066666667, "is_reserved": 0, "is_disabled": 0, "fusion_lon": 0.0, "bike_id": "a7294af04e85e460f77751af31c1a76c", "lon": -77.06966233333333, "rental_uris": {"ios": "https://dc.lft.to/lastmile_qr_scan", "android": "https://dc.lft.to/lastmile_qr_scan"}}, {"name": "181169394f4124d37d305417d019aaa4", "fusion_lat": 0.0, "type": "electric_scooter", "lat": 38.91339766666667, "is_reserved": 0, "is_disabled": 0, "fusion_lon": 0.0, "bike_id": "181169394f4124d37d305417d019aaa4", "lon": -77.0487455, "rental_uris": {"ios": "https://dc.lft.to/lastmile_qr_scan", "android": "https://dc.lft.to/lastmile_qr_scan"}}, {"name": "aef2a3fcc5ba98c197de70ab19a448e5", "fusion_lat": 0.0, "type": "electric_scooter", "lat": 38.9270165, "is_reserved": 0, "is_disabled": 0, "fusion_lon": 0.0, "bike_id": "aef2a3fcc5ba98c197de70ab19a448e5", "lon": -77.02428733333333, "rental_uris": {"ios": "https://dc.lft.to/lastmile_qr_scan", "android": "https://dc.lft.to/lastmile_qr_scan"}}, {"name": "7fd9ccc9f7baf6e8e5ef470369b043ff", "fusion_lat": 0.0, "type": "electric_bike", "lat": 39.094622, "is_reserved": 0, "is_disabled": 0, "fusion_lon": 0.0, "bike_id": "7fd9ccc9f7baf6e8e5ef470369b043ff", "lon": -77.14995916666666, "rental_uris": {"ios": "https://dc.lft.to/lastmile_qr_scan", "android": "https://dc.lft.to/lastmile_qr_scan"}}, {"name": "b3c83df992c5db2a39f5d2e784bb59d4", "fusion_lat": 0.0, "type": "electric_scooter", "lat": 38.92378016666667, "is_reserved": 0, "is_disabled": 0, "fusion_lon": 0.0, "bike_id": "b3c83df992c5db2a39f5d2e784bb59d4", "lon": -77.02994333333334, "rental_uris": {"ios": "https://dc.lft.to/lastmile_qr_scan", "android": "https://dc.lft.to/lastmile_qr_scan"}}, {"name": "6b1c21dbd90baa3dd95690f9468d0985", "fusion_lat": 0.0, "type": "electric_scooter", "lat": 38.8991825, "is_reserved": 0, "is_disabled": 0, "fusion_lon": 0.0, "bike_id": "6b1c21dbd90baa3dd95690f9468d0985", "lon": -76.93359866666667, "rental_uris": {"ios": "https://dc.lft.to/lastmile_qr_scan", "android": "https://dc.lft.to/lastmile_qr_scan"}}, {"name": "d9b789055dbea70fb03dee4034d2b3cf", "fusion_lat": 0.0, "type": "electric_scooter", "lat": 38.918145, "is_reserved": 0, "is_disabled": 0, "fusion_lon": 0.0, "bike_id": "d9b789055dbea70fb03dee4034d2b3cf", "lon": -77.0280525, "rental_uris": {"ios": "https://dc.lft.to/lastmile_qr_scan", "android": "https://dc.lft.to/lastmile_qr_scan"}}, {"name": "c7bc5bf84f8536a18ad76fa0a8a0da90", "fusion_lat": 0.0, "type": "electric_scooter", "lat": 38.90122366666667, "is_reserved": 0, "is_disabled": 0, "fusion_lon": 0.0, "bike_id": "c7bc5bf84f8536a18ad76fa0a8a0da90", "lon": -77.02719983333333, "rental_uris": {"ios": "https://dc.lft.to/lastmile_qr_scan", "android": "https://dc.lft.to/lastmile_qr_scan"}}, {"name": "97ce9313ea7e6d681eb3822186dcbd9d", "fusion_lat": 0.0, "type": "electric_scooter", "lat": 38.91266916666667, "is_reserved": 0, "is_disabled": 0, "fusion_lon": 0.0, "bike_id": "97ce9313ea7e6d681eb3822186dcbd9d", "lon": -77.03809616666666, "rental_uris": {"ios": "https://dc.lft.to/lastmile_qr_scan", "android": "https://dc.lft.to/lastmile_qr_scan"}}, {"name": "5eff30e3da47e68385cd62389903f5d8", "fusion_lat": 0.0, "type": "electric_bike", "lat": 38.8753385, "is_reserved": 0, "is_disabled": 0, "fusion_lon": 0.0, "bike_id": "5eff30e3da47e68385cd62389903f5d8", "lon": -77.19911933333333, "rental_uris": {"ios": "https://dc.lft.to/lastmile_qr_scan", "android": "https://dc.lft.to/lastmile_qr_scan"}}, {"name": "a43eb95e7ca376b6f59695529e59d923", "fusion_lat": 0.0, "type": "electric_scooter", "lat": 38.892205833333335, "is_reserved": 0, "is_disabled": 0, "fusion_lon": 0.0, "bike_id": "a43eb95e7ca376b6f59695529e59d923", "lon": -77.02226816666666, "rental_uris": {"ios": "https://dc.lft.to/lastmile_qr_scan", "android": "https://dc.lft.to/lastmile_qr_scan"}}, {"name": "de2c20cb5e1ec1656a68e56f42e411f5", "fusion_lat": 0.0, "type": "electric_scooter", "lat": 38.9273225, "is_reserved": 0, "is_disabled": 0, "fusion_lon": 0.0, "bike_id": "de2c20cb5e1ec1656a68e56f42e411f5", "lon": -77.0057145, "rental_uris": {"ios": "https://dc.lft.to/lastmile_qr_scan", "android": "https://dc.lft.to/lastmile_qr_scan"}}, {"name": "b594e7438252402acf1e1206aa54ec9f", "fusion_lat": 0.0, "type": "electric_bike", "lat": 38.8961225, "is_reserved": 0, "is_disabled": 0, "fusion_lon": 0.0, "bike_id": "b594e7438252402acf1e1206aa54ec9f", "lon": -76.992866, "rental_uris": {"ios": "https://dc.lft.to/lastmile_qr_scan", "android": "https://dc.lft.to/lastmile_qr_scan"}}, {"name": "f2117c476109d8129d5ba93ca7a1abcc", "fusion_lat": 0.0, "type": "electric_bike", "lat": 38.85797566666667, "is_reserved": 0, "is_disabled": 0, "fusion_lon": 0.0, "bike_id": "f2117c476109d8129d5ba93ca7a1abcc", "lon": -77.0996385, "rental_uris": {"ios": "https://dc.lft.to/lastmile_qr_scan", "android": "https://dc.lft.to/lastmile_qr_scan"}}, {"name": "8fb882686366b943381f39ee1a1128e6", "fusion_lat": 0.0, "type": "electric_scooter", "lat": 38.909878166666665, "is_reserved": 0, "is_disabled": 0, "fusion_lon": 0.0, "bike_id": "8fb882686366b943381f39ee1a1128e6", "lon": -77.04624683333333, "rental_uris": {"ios": "https://dc.lft.to/lastmile_qr_scan", "android": "https://dc.lft.to/lastmile_qr_scan"}}, {"name": "b0d679622501489c302a890634f8c708", "fusion_lat": 0.0, "type": "electric_bike", "lat": 38.8279145, "is_reserved": 0, "is_disabled": 0, "fusion_lon": 0.0, "bike_id": "b0d679622501489c302a890634f8c708", "lon": -77.00903933333333, "rental_uris": {"ios": "https://dc.lft.to/lastmile_qr_scan", "android": "https://dc.lft.to/lastmile_qr_scan"}}, {"name": "bd2b59b4d92b3e3a6b6910c2d59a0c52", "fusion_lat": 0.0, "type": "electric_scooter", "lat": 38.89728616666667, "is_reserved": 0, "is_disabled": 0, "fusion_lon": 0.0, "bike_id": "bd2b59b4d92b3e3a6b6910c2d59a0c52", "lon": -77.04347716666666, "rental_uris": {"ios": "https://dc.lft.to/lastmile_qr_scan", "android": "https://dc.lft.to/lastmile_qr_scan"}}, {"name": "f38626c5aa1221b35b3d65847e7acc33", "fusion_lat": 0.0, "type": "electric_scooter", "lat": 38.91257183333333, "is_reserved": 0, "is_disabled": 0, "fusion_lon": 0.0, "bike_id": "f38626c5aa1221b35b3d65847e7acc33", "lon": -77.00766883333333, "rental_uris": {"ios": "https://dc.lft.to/lastmile_qr_scan", "android": "https://dc.lft.to/lastmile_qr_scan"}}, {"name": "8f0c3cf611bcfde7917dd933cea70cf6", "fusion_lat": 0.0, "type": "electric_scooter", "lat": 38.93069466666667, "is_reserved": 0, "is_disabled": 0, "fusion_lon": 0.0, "bike_id": "8f0c3cf611bcfde7917dd933cea70cf6", "lon": -77.02328233333333, "rental_uris": {"ios": "https://dc.lft.to/lastmile_qr_scan", "android": "https://dc.lft.to/lastmile_qr_scan"}}, {"name": "9e872680b5cd0fb157a95f46b4337c65", "fusion_lat": 0.0, "type": "electric_scooter", "lat": 38.8973245, "is_reserved": 0, "is_disabled": 0, "fusion_lon": 0.0, "bike_id": "9e872680b5cd0fb157a95f46b4337c65", "lon": -77.04765733333333, "rental_uris": {"ios": "https://dc.lft.to/lastmile_qr_scan", "android": "https://dc.lft.to/lastmile_qr_scan"}}, {"name": "d4cd9505200626818c3dca55302ba0f2", "fusion_lat": 0.0, "type": "electric_scooter", "lat": 38.90897, "is_reserved": 0, "is_disabled": 0, "fusion_lon": 0.0, "bike_id": "d4cd9505200626818c3dca55302ba0f2", "lon": -77.0320945, "rental_uris": {"ios": "https://dc.lft.to/lastmile_qr_scan", "android": "https://dc.lft.to/lastmile_qr_scan"}}, {"name": "7694446cc7dfa0fcca1858b1649c5dcb", "fusion_lat": 0.0, "type": "electric_scooter", "lat": 38.924447666666666, "is_reserved": 0, "is_disabled": 0, "fusion_lon": 0.0, "bike_id": "7694446cc7dfa0fcca1858b1649c5dcb", "lon": -77.02977266666667, "rental_uris": {"ios": "https://dc.lft.to/lastmile_qr_scan", "android": "https://dc.lft.to/lastmile_qr_scan"}}, {"name": "511e0830cee5ee95ee7ce7692eb605ac", "fusion_lat": 0.0, "type": "electric_bike", "lat": 38.92854333333333, "is_reserved": 0, "is_disabled": 0, "fusion_lon": 0.0, "bike_id": "511e0830cee5ee95ee7ce7692eb605ac", "lon": -77.10677616666666, "rental_uris": {"ios": "https://dc.lft.to/lastmile_qr_scan", "android": "https://dc.lft.to/lastmile_qr_scan"}}, {"name": "78d141d62f9ef224e9e18c353bdb23d1", "fusion_lat": 0.0, "type": "electric_scooter", "lat": 38.925632, "is_reserved": 0, "is_disabled": 0, "fusion_lon": 0.0, "bike_id": "78d141d62f9ef224e9e18c353bdb23d1", "lon": -77.06284616666667, "rental_uris": {"ios": "https://dc.lft.to/lastmile_qr_scan", "android": "https://dc.lft.to/lastmile_qr_scan"}}, {"name": "770aa2ef63190a98f30fb9ea85f4742d", "fusion_lat": 0.0, "type": "electric_scooter", "lat": 38.8835595, "is_reserved": 0, "is_disabled": 0, "fusion_lon": 0.0, "bike_id": "770aa2ef63190a98f30fb9ea85f4742d", "lon": -76.94942616666667, "rental_uris": {"ios": "https://dc.lft.to/lastmile_qr_scan", "android": "https://dc.lft.to/lastmile_qr_scan"}}, {"name": "bdea6ed92b5af6791f6d2b5a6833c7e2", "fusion_lat": 0.0, "type": "electric_scooter", "lat": 38.902759833333334, "is_reserved": 0, "is_disabled": 0, "fusion_lon": 0.0, "bike_id": "bdea6ed92b5af6791f6d2b5a6833c7e2", "lon": -77.042698, "rental_uris": {"ios": "https://dc.lft.to/lastmile_qr_scan", "android": "https://dc.lft.to/lastmile_qr_scan"}}, {"name": "2acedcc386a3b0fa47bd4cabbf54ba47", "fusion_lat": 0.0, "type": "electric_scooter", "lat": 38.89483166666667, "is_reserved": 0, "is_disabled": 0, "fusion_lon": 0.0, "bike_id": "2acedcc386a3b0fa47bd4cabbf54ba47", "lon": -77.011012, "rental_uris": {"ios": "https://dc.lft.to/lastmile_qr_scan", "android": "https://dc.lft.to/lastmile_qr_scan"}}, {"name": "24b084099ae41b9898c8973039b69197", "fusion_lat": 0.0, "type": "electric_scooter", "lat": 38.863743, "is_reserved": 0, "is_disabled": 0, "fusion_lon": 0.0, "bike_id": "24b084099ae41b9898c8973039b69197", "lon": -77.01362983333334, "rental_uris": {"ios": "https://dc.lft.to/lastmile_qr_scan", "android": "https://dc.lft.to/lastmile_qr_scan"}}, {"name": "cfce7782cf0d447167dba3f44e64dac3", "fusion_lat": 0.0, "type": "electric_scooter", "lat": 38.9232225, "is_reserved": 0, "is_disabled": 0, "fusion_lon": 0.0, "bike_id": "cfce7782cf0d447167dba3f44e64dac3", "lon": -77.02982516666667, "rental_uris": {"ios": "https://dc.lft.to/lastmile_qr_scan", "android": "https://dc.lft.to/lastmile_qr_scan"}}, {"name": "1953bb4c3c71c04054e39a204b0e599b", "fusion_lat": 0.0, "type": "electric_scooter", "lat": 38.93255633333333, "is_reserved": 0, "is_disabled": 0, "fusion_lon": 0.0, "bike_id": "1953bb4c3c71c04054e39a204b0e599b", "lon": -77.023848, "rental_uris": {"ios": "https://dc.lft.to/lastmile_qr_scan", "android": "https://dc.lft.to/lastmile_qr_scan"}}, {"name": "616c975602eac8131e41dee11573872d", "fusion_lat": 0.0, "type": "electric_bike", "lat": 38.82448333333333, "is_reserved": 0, "is_disabled": 0, "fusion_lon": 0.0, "bike_id": "616c975602eac8131e41dee11573872d", "lon": -77.07045166666667, "rental_uris": {"ios": "https://dc.lft.to/lastmile_qr_scan", "android": "https://dc.lft.to/lastmile_qr_scan"}}, {"name": "c172edfe61d820f52d023f472e38c92b", "fusion_lat": 0.0, "type": "electric_scooter", "lat": 38.88431883333333, "is_reserved": 0, "is_disabled": 0, "fusion_lon": 0.0, "bike_id": "c172edfe61d820f52d023f472e38c92b", "lon": -77.030543, "rental_uris": {"ios": "https://dc.lft.to/lastmile_qr_scan", "android": "https://dc.lft.to/lastmile_qr_scan"}}, {"name": "2d731668fd224dddf656fb28cc1dbb1c", "fusion_lat": 0.0, "type": "electric_scooter", "lat": 38.90756783333333, "is_reserved": 0, "is_disabled": 0, "fusion_lon": 0.0, "bike_id": "2d731668fd224dddf656fb28cc1dbb1c", "lon": -77.02803216666666, "rental_uris": {"ios": "https://dc.lft.to/lastmile_qr_scan", "android": "https://dc.lft.to/lastmile_qr_scan"}}, {"name": "412ac896512a325379e8261916b1fe6d", "fusion_lat": 0.0, "type": "electric_bike", "lat": 38.92446316666667, "is_reserved": 0, "is_disabled": 0, "fusion_lon": 0.0, "bike_id": "412ac896512a325379e8261916b1fe6d", "lon": -76.99661816666666, "rental_uris": {"ios": "https://dc.lft.to/lastmile_qr_scan", "android": "https://dc.lft.to/lastmile_qr_scan"}}, {"name": "5d8ff422fd5cd85ac6dbb41477fb07df", "fusion_lat": 0.0, "type": "electric_scooter", "lat": 38.9172275, "is_reserved": 0, "is_disabled": 0, "fusion_lon": 0.0, "bike_id": "5d8ff422fd5cd85ac6dbb41477fb07df", "lon": -77.03840083333333, "rental_uris": {"ios": "https://dc.lft.to/lastmile_qr_scan", "android": "https://dc.lft.to/lastmile_qr_scan"}}, {"name": "48eb84525b4d04a66df512c87157fe2a", "fusion_lat": 0.0, "type": "electric_bike", "lat": 38.881147166666665, "is_reserved": 0, "is_disabled": 0, "fusion_lon": 0.0, "bike_id": "48eb84525b4d04a66df512c87157fe2a", "lon": -77.01659533333333, "rental_uris": {"ios": "https://dc.lft.to/lastmile_qr_scan", "android": "https://dc.lft.to/lastmile_qr_scan"}}, {"name": "b8a7bd3fbcb7ff588d8a11edbeb89703", "fusion_lat": 0.0, "type": "electric_scooter", "lat": 38.902812833333336, "is_reserved": 0, "is_disabled": 0, "fusion_lon": 0.0, "bike_id": "b8a7bd3fbcb7ff588d8a11edbeb89703", "lon": -77.03989333333334, "rental_uris": {"ios": "https://dc.lft.to/lastmile_qr_scan", "android": "https://dc.lft.to/lastmile_qr_scan"}}, {"name": "c1b862d14a17041e9f000f4d2ecbf2cb", "fusion_lat": 0.0, "type": "electric_scooter", "lat": 38.901623666666666, "is_reserved": 0, "is_disabled": 0, "fusion_lon": 0.0, "bike_id": "c1b862d14a17041e9f000f4d2ecbf2cb", "lon": -77.02177616666667, "rental_uris": {"ios": "https://dc.lft.to/lastmile_qr_scan", "android": "https://dc.lft.to/lastmile_qr_scan"}}, {"name": "dcbd84b1f41dd832264f05f155616194", "fusion_lat": 0.0, "type": "electric_scooter", "lat": 38.899206166666666, "is_reserved": 0, "is_disabled": 0, "fusion_lon": 0.0, "bike_id": "dcbd84b1f41dd832264f05f155616194", "lon": -76.93386933333333, "rental_uris": {"ios": "https://dc.lft.to/lastmile_qr_scan", "android": "https://dc.lft.to/lastmile_qr_scan"}}, {"name": "5f8bf90bf21f7495874cb5d30c43492f", "fusion_lat": 0.0, "type": "electric_scooter", "lat": 38.9235065, "is_reserved": 0, "is_disabled": 0, "fusion_lon": 0.0, "bike_id": "5f8bf90bf21f7495874cb5d30c43492f", "lon": -77.03548916666666, "rental_uris": {"ios": "https://dc.lft.to/lastmile_qr_scan", "android": "https://dc.lft.to/lastmile_qr_scan"}}, {"name": "5ca90042b45c12604325b89c551cb8c5", "fusion_lat": 0.0, "type": "electric_scooter", "lat": 38.89742116666667, "is_reserved": 0, "is_disabled": 0, "fusion_lon": 0.0, "bike_id": "5ca90042b45c12604325b89c551cb8c5", "lon": -77.04645283333333, "rental_uris": {"ios": "https://dc.lft.to/lastmile_qr_scan", "android": "https://dc.lft.to/lastmile_qr_scan"}}, {"name": "e22f5d10a9fcd39a64b50b2c16b8aa5f", "fusion_lat": 0.0, "type": "electric_bike", "lat": 38.9185845, "is_reserved": 0, "is_disabled": 0, "fusion_lon": 0.0, "bike_id": "e22f5d10a9fcd39a64b50b2c16b8aa5f", "lon": -76.96091583333333, "rental_uris": {"ios": "https://dc.lft.to/lastmile_qr_scan", "android": "https://dc.lft.to/lastmile_qr_scan"}}, {"name": "c00012412bfa8a9a5923f779e115a08e", "fusion_lat": 0.0, "type": "electric_scooter", "lat": 38.90322033333333, "is_reserved": 0, "is_disabled": 0, "fusion_lon": 0.0, "bike_id": "c00012412bfa8a9a5923f779e115a08e", "lon": -77.051849, "rental_uris": {"ios": "https://dc.lft.to/lastmile_qr_scan", "android": "https://dc.lft.to/lastmile_qr_scan"}}, {"name": "5d444904b8416ecb4aa42e633abd181a", "fusion_lat": 0.0, "type": "electric_scooter", "lat": 38.891292666666665, "is_reserved": 0, "is_disabled": 0, "fusion_lon": 0.0, "bike_id": "5d444904b8416ecb4aa42e633abd181a", "lon": -76.99165916666666, "rental_uris": {"ios": "https://dc.lft.to/lastmile_qr_scan", "android": "https://dc.lft.to/lastmile_qr_scan"}}, {"name": "7683d8d116fec3a4bc564a691b2e8170", "fusion_lat": 0.0, "type": "electric_bike", "lat": 38.85065483333333, "is_reserved": 0, "is_disabled": 0, "fusion_lon": 0.0, "bike_id": "7683d8d116fec3a4bc564a691b2e8170", "lon": -76.9733635, "rental_uris": {"ios": "https://dc.lft.to/lastmile_qr_scan", "android": "https://dc.lft.to/lastmile_qr_scan"}}, {"name": "59d8adf4520e843eea4b441546b6bfdb", "fusion_lat": 0.0, "type": "electric_scooter", "lat": 38.90325466666667, "is_reserved": 0, "is_disabled": 0, "fusion_lon": 0.0, "bike_id": "59d8adf4520e843eea4b441546b6bfdb", "lon": -77.0363745, "rental_uris": {"ios": "https://dc.lft.to/lastmile_qr_scan", "android": "https://dc.lft.to/lastmile_qr_scan"}}, {"name": "313c58f92ccc416d8ce43ee2d9a4dd38", "fusion_lat": 0.0, "type": "electric_scooter", "lat": 38.9315185, "is_reserved": 0, "is_disabled": 0, "fusion_lon": 0.0, "bike_id": "313c58f92ccc416d8ce43ee2d9a4dd38", "lon": -77.078453, "rental_uris": {"ios": "https://dc.lft.to/lastmile_qr_scan", "android": "https://dc.lft.to/lastmile_qr_scan"}}, {"name": "61957de985e70d9bc140ac335a2f3a27", "fusion_lat": 0.0, "type": "electric_scooter", "lat": 38.920125166666665, "is_reserved": 0, "is_disabled": 0, "fusion_lon": 0.0, "bike_id": "61957de985e70d9bc140ac335a2f3a27", "lon": -76.98494866666667, "rental_uris": {"ios": "https://dc.lft.to/lastmile_qr_scan", "android": "https://dc.lft.to/lastmile_qr_scan"}}, {"name": "1833d6024be406a8c7f2e0969d029adb", "fusion_lat": 0.0, "type": "electric_scooter", "lat": 38.90248883333334, "is_reserved": 0, "is_disabled": 0, "fusion_lon": 0.0, "bike_id": "1833d6024be406a8c7f2e0969d029adb", "lon": -77.00200283333334, "rental_uris": {"ios": "https://dc.lft.to/lastmile_qr_scan", "android": "https://dc.lft.to/lastmile_qr_scan"}}, {"name": "5cb9346ca0f5fdb5725637f40fdacb5c", "fusion_lat": 0.0, "type": "electric_scooter", "lat": 38.92544083333333, "is_reserved": 0, "is_disabled": 0, "fusion_lon": 0.0, "bike_id": "5cb9346ca0f5fdb5725637f40fdacb5c", "lon": -77.0263785, "rental_uris": {"ios": "https://dc.lft.to/lastmile_qr_scan", "android": "https://dc.lft.to/lastmile_qr_scan"}}, {"name": "06166572a59239693546bb349dea8609", "fusion_lat": 0.0, "type": "electric_scooter", "lat": 38.907006333333335, "is_reserved": 0, "is_disabled": 0, "fusion_lon": 0.0, "bike_id": "06166572a59239693546bb349dea8609", "lon": -77.032025, "rental_uris": {"ios": "https://dc.lft.to/lastmile_qr_scan", "android": "https://dc.lft.to/lastmile_qr_scan"}}, {"name": "ecd86dd62f4fc625f6f3c5beb88c3464", "fusion_lat": 0.0, "type": "electric_scooter", "lat": 38.916198, "is_reserved": 0, "is_disabled": 0, "fusion_lon": 0.0, "bike_id": "ecd86dd62f4fc625f6f3c5beb88c3464", "lon": -77.02293283333333, "rental_uris": {"ios": "https://dc.lft.to/lastmile_qr_scan", "android": "https://dc.lft.to/lastmile_qr_scan"}}, {"name": "6961e9010b33ae6198aa2779e1ce2c25", "fusion_lat": 0.0, "type": "electric_scooter", "lat": 38.9057895, "is_reserved": 0, "is_disabled": 0, "fusion_lon": 0.0, "bike_id": "6961e9010b33ae6198aa2779e1ce2c25", "lon": -77.03268266666667, "rental_uris": {"ios": "https://dc.lft.to/lastmile_qr_scan", "android": "https://dc.lft.to/lastmile_qr_scan"}}, {"name": "19a5eb28f46b1182b73bc7fd61fe65d0", "fusion_lat": 0.0, "type": "electric_scooter", "lat": 38.937790666666665, "is_reserved": 0, "is_disabled": 0, "fusion_lon": 0.0, "bike_id": "19a5eb28f46b1182b73bc7fd61fe65d0", "lon": -77.03265433333333, "rental_uris": {"ios": "https://dc.lft.to/lastmile_qr_scan", "android": "https://dc.lft.to/lastmile_qr_scan"}}, {"name": "1ca11479117034fdd48694f4cdfd2ec9", "fusion_lat": 0.0, "type": "electric_scooter", "lat": 38.92251, "is_reserved": 0, "is_disabled": 0, "fusion_lon": 0.0, "bike_id": "1ca11479117034fdd48694f4cdfd2ec9", "lon": -77.03900933333334, "rental_uris": {"ios": "https://dc.lft.to/lastmile_qr_scan", "android": "https://dc.lft.to/lastmile_qr_scan"}}, {"name": "71cc4f9f1219ee46089f5ef78dfe3f29", "fusion_lat": 0.0, "type": "electric_scooter", "lat": 38.96177816666667, "is_reserved": 0, "is_disabled": 0, "fusion_lon": 0.0, "bike_id": "71cc4f9f1219ee46089f5ef78dfe3f29", "lon": -77.03229316666666, "rental_uris": {"ios": "https://dc.lft.to/lastmile_qr_scan", "android": "https://dc.lft.to/lastmile_qr_scan"}}, {"name": "1b748232c63cbd16a522f23fb9123d0c", "fusion_lat": 0.0, "type": "electric_scooter", "lat": 38.92347216666667, "is_reserved": 0, "is_disabled": 0, "fusion_lon": 0.0, "bike_id": "1b748232c63cbd16a522f23fb9123d0c", "lon": -77.0509505, "rental_uris": {"ios": "https://dc.lft.to/lastmile_qr_scan", "android": "https://dc.lft.to/lastmile_qr_scan"}}, {"name": "40be0a3336a140be90c9536387b3030e", "fusion_lat": 0.0, "type": "electric_scooter", "lat": 38.913658833333336, "is_reserved": 0, "is_disabled": 0, "fusion_lon": 0.0, "bike_id": "40be0a3336a140be90c9536387b3030e", "lon": -77.045531, "rental_uris": {"ios": "https://dc.lft.to/lastmile_qr_scan", "android": "https://dc.lft.to/lastmile_qr_scan"}}, {"name": "2fe32012e58d31b0680108d96b61e17f", "fusion_lat": 0.0, "type": "electric_scooter", "lat": 38.947072, "is_reserved": 0, "is_disabled": 0, "fusion_lon": 0.0, "bike_id": "2fe32012e58d31b0680108d96b61e17f", "lon": -77.01955133333334, "rental_uris": {"ios": "https://dc.lft.to/lastmile_qr_scan", "android": "https://dc.lft.to/lastmile_qr_scan"}}, {"name": "d8c012c1d246ec1eeeb764580fc8a6a1", "fusion_lat": 0.0, "type": "electric_scooter", "lat": 38.9248985, "is_reserved": 0, "is_disabled": 0, "fusion_lon": 0.0, "bike_id": "d8c012c1d246ec1eeeb764580fc8a6a1", "lon": -77.0522165, "rental_uris": {"ios": "https://dc.lft.to/lastmile_qr_scan", "android": "https://dc.lft.to/lastmile_qr_scan"}}, {"name": "1ec3566784b5c3ff92d7d519bc1af128", "fusion_lat": 0.0, "type": "electric_bike", "lat": 39.00392316666667, "is_reserved": 0, "is_disabled": 0, "fusion_lon": 0.0, "bike_id": "1ec3566784b5c3ff92d7d519bc1af128", "lon": -77.01293033333333, "rental_uris": {"ios": "https://dc.lft.to/lastmile_qr_scan", "android": "https://dc.lft.to/lastmile_qr_scan"}}, {"name": "d09003438ce8eed67b8a38d9a502e0f3", "fusion_lat": 0.0, "type": "electric_scooter", "lat": 38.93207316666667, "is_reserved": 0, "is_disabled": 0, "fusion_lon": 0.0, "bike_id": "d09003438ce8eed67b8a38d9a502e0f3", "lon": -77.0366475, "rental_uris": {"ios": "https://dc.lft.to/lastmile_qr_scan", "android": "https://dc.lft.to/lastmile_qr_scan"}}, {"name": "041ac4bc25adbddedf80d262a8fdcd04", "fusion_lat": 0.0, "type": "electric_bike", "lat": 38.8079275, "is_reserved": 0, "is_disabled": 0, "fusion_lon": 0.0, "bike_id": "041ac4bc25adbddedf80d262a8fdcd04", "lon": -77.12970233333333, "rental_uris": {"ios": "https://dc.lft.to/lastmile_qr_scan", "android": "https://dc.lft.to/lastmile_qr_scan"}}, {"name": "f5f95405b29a850f63f4b102ed35fa6b", "fusion_lat": 0.0, "type": "electric_scooter", "lat": 38.912702333333336, "is_reserved": 0, "is_disabled": 0, "fusion_lon": 0.0, "bike_id": "f5f95405b29a850f63f4b102ed35fa6b", "lon": -77.0319175, "rental_uris": {"ios": "https://dc.lft.to/lastmile_qr_scan", "android": "https://dc.lft.to/lastmile_qr_scan"}}, {"name": "9ed277325ab48ee594a9c2bb2418f1c6", "fusion_lat": 0.0, "type": "electric_scooter", "lat": 38.959157, "is_reserved": 0, "is_disabled": 0, "fusion_lon": 0.0, "bike_id": "9ed277325ab48ee594a9c2bb2418f1c6", "lon": -77.08077583333333, "rental_uris": {"ios": "https://dc.lft.to/lastmile_qr_scan", "android": "https://dc.lft.to/lastmile_qr_scan"}}, {"name": "831983336152ea6d148b387c3331e37b", "fusion_lat": 0.0, "type": "electric_scooter", "lat": 38.90248616666667, "is_reserved": 0, "is_disabled": 0, "fusion_lon": 0.0, "bike_id": "831983336152ea6d148b387c3331e37b", "lon": -76.974173, "rental_uris": {"ios": "https://dc.lft.to/lastmile_qr_scan", "android": "https://dc.lft.to/lastmile_qr_scan"}}, {"name": "06e793fbe469407b05e3901061fac9d3", "fusion_lat": 0.0, "type": "electric_scooter", "lat": 38.85792333333333, "is_reserved": 0, "is_disabled": 0, "fusion_lon": 0.0, "bike_id": "06e793fbe469407b05e3901061fac9d3", "lon": -76.99087966666667, "rental_uris": {"ios": "https://dc.lft.to/lastmile_qr_scan", "android": "https://dc.lft.to/lastmile_qr_scan"}}, {"name": "a6c0c6dcc98ccf53c650c82979d3008a", "fusion_lat": 0.0, "type": "electric_scooter", "lat": 38.9263365, "is_reserved": 0, "is_disabled": 0, "fusion_lon": 0.0, "bike_id": "a6c0c6dcc98ccf53c650c82979d3008a", "lon": -77.03711633333333, "rental_uris": {"ios": "https://dc.lft.to/lastmile_qr_scan", "android": "https://dc.lft.to/lastmile_qr_scan"}}, {"name": "4c26224a0a200079f5809fa37b8b4c86", "fusion_lat": 0.0, "type": "electric_scooter", "lat": 38.91119333333333, "is_reserved": 0, "is_disabled": 0, "fusion_lon": 0.0, "bike_id": "4c26224a0a200079f5809fa37b8b4c86", "lon": -77.04607416666667, "rental_uris": {"ios": "https://dc.lft.to/lastmile_qr_scan", "android": "https://dc.lft.to/lastmile_qr_scan"}}, {"name": "5fbe356f23a1534ca816b21c491cf20c", "fusion_lat": 0.0, "type": "electric_scooter", "lat": 38.905873, "is_reserved": 0, "is_disabled": 0, "fusion_lon": 0.0, "bike_id": "5fbe356f23a1534ca816b21c491cf20c", "lon": -77.03442783333334, "rental_uris": {"ios": "https://dc.lft.to/lastmile_qr_scan", "android": "https://dc.lft.to/lastmile_qr_scan"}}, {"name": "eeae5bfb2212e24ea44f9f8a8afa62c6", "fusion_lat": 0.0, "type": "electric_scooter", "lat": 38.921059666666665, "is_reserved": 0, "is_disabled": 0, "fusion_lon": 0.0, "bike_id": "eeae5bfb2212e24ea44f9f8a8afa62c6", "lon": -76.99190516666667, "rental_uris": {"ios": "https://dc.lft.to/lastmile_qr_scan", "android": "https://dc.lft.to/lastmile_qr_scan"}}, {"name": "ad58d4261f036c4f17dca5eaf5060835", "fusion_lat": 0.0, "type": "electric_scooter", "lat": 38.90195833333333, "is_reserved": 0, "is_disabled": 0, "fusion_lon": 0.0, "bike_id": "ad58d4261f036c4f17dca5eaf5060835", "lon": -77.0252135, "rental_uris": {"ios": "https://dc.lft.to/lastmile_qr_scan", "android": "https://dc.lft.to/lastmile_qr_scan"}}, {"name": "0e35874b78ef4ccbd4d2a99091ce6051", "fusion_lat": 0.0, "type": "electric_scooter", "lat": 38.9565505, "is_reserved": 0, "is_disabled": 0, "fusion_lon": 0.0, "bike_id": "0e35874b78ef4ccbd4d2a99091ce6051", "lon": -77.03299166666666, "rental_uris": {"ios": "https://dc.lft.to/lastmile_qr_scan", "android": "https://dc.lft.to/lastmile_qr_scan"}}, {"name": "a1a7075565679a33eeb604c63e5d4bd4", "fusion_lat": 0.0, "type": "electric_scooter", "lat": 38.91114916666667, "is_reserved": 0, "is_disabled": 0, "fusion_lon": 0.0, "bike_id": "a1a7075565679a33eeb604c63e5d4bd4", "lon": -77.04934366666667, "rental_uris": {"ios": "https://dc.lft.to/lastmile_qr_scan", "android": "https://dc.lft.to/lastmile_qr_scan"}}, {"name": "cc4ff4baae8c63caf27aa822fd9a383d", "fusion_lat": 0.0, "type": "electric_scooter", "lat": 38.916089, "is_reserved": 0, "is_disabled": 0, "fusion_lon": 0.0, "bike_id": "cc4ff4baae8c63caf27aa822fd9a383d", "lon": -77.04169916666666, "rental_uris": {"ios": "https://dc.lft.to/lastmile_qr_scan", "android": "https://dc.lft.to/lastmile_qr_scan"}}, {"name": "527be9bc438bc3881b99da23b0253676", "fusion_lat": 0.0, "type": "electric_bike", "lat": 38.89188683333333, "is_reserved": 0, "is_disabled": 0, "fusion_lon": 0.0, "bike_id": "527be9bc438bc3881b99da23b0253676", "lon": -77.12258283333334, "rental_uris": {"ios": "https://dc.lft.to/lastmile_qr_scan", "android": "https://dc.lft.to/lastmile_qr_scan"}}, {"name": "b1bdaddc95bfc087f798136ff063efb2", "fusion_lat": 0.0, "type": "electric_scooter", "lat": 38.921768166666666, "is_reserved": 0, "is_disabled": 0, "fusion_lon": 0.0, "bike_id": "b1bdaddc95bfc087f798136ff063efb2", "lon": -77.0424495, "rental_uris": {"ios": "https://dc.lft.to/lastmile_qr_scan", "android": "https://dc.lft.to/lastmile_qr_scan"}}, {"name": "c9b4972fe500c86d2f747f7e2a49b2f7", "fusion_lat": 0.0, "type": "electric_scooter", "lat": 38.908721, "is_reserved": 0, "is_disabled": 0, "fusion_lon": 0.0, "bike_id": "c9b4972fe500c86d2f747f7e2a49b2f7", "lon": -76.999612, "rental_uris": {"ios": "https://dc.lft.to/lastmile_qr_scan", "android": "https://dc.lft.to/lastmile_qr_scan"}}, {"name": "920da4a45ceae53c7601ca70fff287c2", "fusion_lat": 0.0, "type": "electric_bike", "lat": 38.81522, "is_reserved": 0, "is_disabled": 0, "fusion_lon": 0.0, "bike_id": "920da4a45ceae53c7601ca70fff287c2", "lon": -77.12651233333334, "rental_uris": {"ios": "https://dc.lft.to/lastmile_qr_scan", "android": "https://dc.lft.to/lastmile_qr_scan"}}, {"name": "ac12f0b0c206f1249b501ae11f5e27fa", "fusion_lat": 0.0, "type": "electric_scooter", "lat": 38.936052, "is_reserved": 0, "is_disabled": 0, "fusion_lon": 0.0, "bike_id": "ac12f0b0c206f1249b501ae11f5e27fa", "lon": -77.03659916666666, "rental_uris": {"ios": "https://dc.lft.to/lastmile_qr_scan", "android": "https://dc.lft.to/lastmile_qr_scan"}}, {"name": "a00ff3d9b439d909c70c232e5ce1449f", "fusion_lat": 0.0, "type": "electric_scooter", "lat": 38.9192585, "is_reserved": 0, "is_disabled": 0, "fusion_lon": 0.0, "bike_id": "a00ff3d9b439d909c70c232e5ce1449f", "lon": -77.034334, "rental_uris": {"ios": "https://dc.lft.to/lastmile_qr_scan", "android": "https://dc.lft.to/lastmile_qr_scan"}}, {"name": "c6739b263d2ceb265dd89be5c881bbf0", "fusion_lat": 0.0, "type": "electric_scooter", "lat": 38.90152066666667, "is_reserved": 0, "is_disabled": 0, "fusion_lon": 0.0, "bike_id": "c6739b263d2ceb265dd89be5c881bbf0", "lon": -77.0591755, "rental_uris": {"ios": "https://dc.lft.to/lastmile_qr_scan", "android": "https://dc.lft.to/lastmile_qr_scan"}}, {"name": "c96bcb0c316ee97fb9ab9c35adb51223", "fusion_lat": 0.0, "type": "electric_scooter", "lat": 38.904721, "is_reserved": 0, "is_disabled": 0, "fusion_lon": 0.0, "bike_id": "c96bcb0c316ee97fb9ab9c35adb51223", "lon": -77.03855316666667, "rental_uris": {"ios": "https://dc.lft.to/lastmile_qr_scan", "android": "https://dc.lft.to/lastmile_qr_scan"}},