{"data": {"bikes": [{"is_reserved": 0, "type": "electric_scooter", "bike_id": "b54929f544cb32cbd12a39387f4e1e4b", "lat": 38.86489916666667, "lon": -76.977518, "rental_uris": {"android": "https://dc.lft.to/lastmile_qr_scan", "ios": "https://dc.lft.to/lastmile_qr_scan"}, "is_disabled": 0, "fusion_lat": 0.0, "name": "b54929f544cb32cbd12a39387f4e1e4b", "fusion_lon": 0.0}, {"is_reserved": 0, "type": "electric_scooter", "bike_id": "92a2f122b73e8f046ac25ca1246219ac", "lat": 38.91721016666666, "lon": -77.038618, "rental_uris": {"android": "https://dc.lft.to/lastmile_qr_scan", "ios": "https://dc.lft.to/lastmile_qr_scan"}, "is_disabled": 0, "fusion_lat": 0.0, "name": "92a2f122b73e8f046ac25ca1246219ac", "fusion_lon": 0.0}, {"is_reserved": 0, "type": "electric_bike", "bike_id": "e14354e1ef4391282d321ecb9ce35103", "lat": 38.8893375, "lon": -76.91329, "rental_uris": {"android": "https://dc.lft.to/lastmile_qr_scan", "ios": "https://dc.lft.to/lastmile_qr_scan"}, "is_disabled": 0, "fusion_lat": 0.0, "name": "e14354e1ef4391282d321ecb9ce35103", "fusion_lon": 0.0}, {"is_reserved": 0, "type": "electric_scooter", "bike_id": "021c4e71afae5224504a0624c21ba584", "lat": 38.92485216666667, "lon": -77.02275283333333, "rental_uris": {"android": "https://dc.lft.to/lastmile_qr_scan", "ios": "https://dc.lft.to/lastmile_qr_scan"}, "is_disabled": 0, "fusion_lat": 0.0, "name": "021c4e71afae5224504a0624c21ba584", "fusion_lon": 0.0}, {"is_reserved": 0, "type": "electric_scooter", "bike_id": "9ace3f159acc17bca1f2fcb7205ff6b0", "lat": 38.89717183333333, "lon": -77.0227465, "rental_uris": {"android": "https://dc.lft.to/lastmile_qr_scan", "ios": "https://dc.lft.to/lastmile_qr_scan"}, "is_disabled": 0, "fusion_lat": 0.0, "name": "9ace3f159acc17bca1f2fcb7205ff6b0", "fusion_lon": 0.0}, {"is_reserved": 0, "type": "electric_scooter", "bike_id": "528eb90ff9b58e950d9a6ed1b4411e5b", "lat": 38.913870333333335, "lon": -77.01704433333333, "rental_uris": {"android": "https://dc.lft.to/lastmile_qr_scan", "ios": "https://dc.lft.to/lastmile_qr_scan"}, "is_disabled": 0, "fusion_lat": 0.0, "name": "528eb90ff9b58e950d9a6ed1b4411e5b", "fusion_lon": 0.0}, {"is_reserved": 0, "type": "electric_scooter", "bike_id": "7dfd74f41a41324d404d5cdce13aa10c", "lat": 38.87748333333333, "lon": -77.01893, "rental_uris": {"android": "https://dc.lft.to/lastmile_qr_scan", "ios": "https://dc.lft.to/lastmile_qr_scan"}, "is_disabled": 0, "fusion_lat": 0.0, "name": "7dfd74f41a41324d404d5cdce13aa10c", "fusion_lon": 0.0}, {"is_reserved": 0, "type": "electric_scooter", "bike_id": "57b8f23cf07cab166b124f45efe20deb", "lat": 38.905723333333334, "lon": -77.007907, "rental_uris": {"android": "https://dc.lft.to/lastmile_qr_scan", "ios": "https://dc.lft.to/lastmile_qr_scan"}, "is_disabled": 0, "fusion_lat": 0.0, "name": "57b8f23cf07cab166b124f45efe20deb", "fusion_lon": 0.0}, {"is_reserved": 0, "type": "electric_scooter", "bike_id": "32bbb3aa6b9aae30efb3f81556f851f7", "lat": 38.93759566666667, "lon": -77.0283675, "rental_uris": {"android": "https://dc.lft.to/lastmile_qr_scan", "ios": "https://dc.lft.to/lastmile_qr_scan"}, "is_disabled": 0, "fusion_lat": 0.0, "name": "32bbb3aa6b9aae30efb3f81556f851f7", "fusion_lon": 0.0}, {"is_reserved": 0, "type": "electric_scooter", "bike_id": "7112525cd19296db2571db388b0cc582", "lat": 38.89223583333333, "lon": -77.04685316666666, "rental_uris": {"android": "https://dc.lft.to/lastmile_qr_scan", "ios": "https://dc.lft.to/lastmile_qr_scan"}, "is_disabled": 0, "fusion_lat": 0.0, "name": "7112525cd19296db2571db388b0cc582", "fusion_lon": 0.0}, {"is_reserved": 0, "type": "electric_scooter", "bike_id": "4e9244de95a9b89c1644563b10dd2ef6", "lat": 38.926618, "lon": -77.0371345, "rental_uris": {"android": "https://dc.lft.to/lastmile_qr_scan", "ios": "https://dc.lft.to/lastmile_qr_scan"}, "is_disabled": 0, "fusion_lat": 0.0, "name": "4e9244de95a9b89c1644563b10dd2ef6", "fusion_lon": 0.0}, {"is_reserved": 0, "type": "electric_scooter", "bike_id": "ba2de7e6af1d2f5a5ac0502d3664150e", "lat": 38.91467433333333, "lon": -76.984413, "rental_uris": {"android": "https://dc.lft.to/lastmile_qr_scan", "ios": "https://dc.lft.to/lastmile_qr_scan"}, "is_disabled": 0, "fusion_lat": 0.0, "name": "ba2de7e6af1d2f5a5ac0502d3664150e", "fusion_lon": 0.0}, {"is_reserved": 0, "type": "electric_scooter", "bike_id": "2fe5e8e11d65962409b2fe5caf9ddb76", "lat": 38.91994866666667, "lon": -77.033129, "rental_uris": {"android": "https://dc.lft.to/lastmile_qr_scan", "ios": "https://dc.lft.to/lastmile_qr_scan"}, "is_disabled": 0, "fusion_lat": 0.0, "name": "2fe5e8e11d65962409b2fe5caf9ddb76", "fusion_lon": 0.0}, {"is_reserved": 0, "type": "electric_scooter", "bike_id": "a05122ed3a76998595c1bc72b1cf3029", "lat": 38.903687833333336, "lon": -76.98493583333334, "rental_uris": {"android": "https://dc.lft.to/lastmile_qr_scan", "ios": "https://dc.lft.to/lastmile_qr_scan"}, "is_disabled": 0, "fusion_lat": 0.0, "name": "a05122ed3a76998595c1bc72b1cf3029", "fusion_lon": 0.0}, {"is_reserved": 0, "type": "electric_scooter", "bike_id": "104b06a3728faff9e1d4de07fe8dec7c", "lat": 38.934198, "lon": -77.0338225, "rental_uris": {"android": "https://dc.lft.to/lastmile_qr_scan", "ios": "https://dc.lft.to/lastmile_qr_scan"}, "is_disabled": 0, "fusion_lat": 0.0, "name": "104b06a3728faff9e1d4de07fe8dec7c", "fusion_lon": 0.0}, {"is_reserved": 0, "type": "electric_scooter", "bike_id": "0954af34d396bf37b2dbe7b1a6c9c5ff", "lat": 38.9248345, "lon": -77.027224, "rental_uris": {"android": "https://dc.lft.to/lastmile_qr_scan", "ios": "https://dc.lft.to/lastmile_qr_scan"}, "is_disabled": 0, "fusion_lat": 0.0, "name": "0954af34d396bf37b2dbe7b1a6c9c5ff", "fusion_lon": 0.0}, {"is_reserved": 0, "type": "electric_scooter", "bike_id": "7f40a0619d37bb9600216fd4a4c67b18", "lat": 38.899818333333336, "lon": -76.99486166666667, "rental_uris": {"android": "https://dc.lft.to/lastmile_qr_scan", "ios": "https://dc.lft.to/lastmile_qr_scan"}, "is_disabled": 0, "fusion_lat": 0.0, "name": "7f40a0619d37bb9600216fd4a4c67b18", "fusion_lon": 0.0}, {"is_reserved": 0, "type": "electric_scooter", "bike_id": "32f35dd91cf89dd5ea9685257f0cb5ee", "lat": 38.8949915, "lon": -77.02161716666667, "rental_uris": {"android": "https://dc.lft.to/lastmile_qr_scan", "ios": "https://dc.lft.to/lastmile_qr_scan"}, "is_disabled": 0, "fusion_lat": 0.0, "name": "32f35dd91cf89dd5ea9685257f0cb5ee", "fusion_lon": 0.0}, {"is_reserved": 0, "type": "electric_scooter", "bike_id": "6a2bba076c3830fd3eeb306914c47623", "lat": 38.914819666666666, "lon": -77.00222266666667, "rental_uris": {"android": "https://dc.lft.to/lastmile_qr_scan", "ios": "https://dc.lft.to/lastmile_qr_scan"}, "is_disabled": 0, "fusion_lat": 0.0, "name": "6a2bba076c3830fd3eeb306914c47623", "fusion_lon": 0.0}, {"is_reserved": 0, "type": "electric_scooter", "bike_id": "efba788c320428d6ebbc44d13f1c9167", "lat": 38.921268, "lon": -77.04581833333333, "rental_uris": {"android": "https://dc.lft.to/lastmile_qr_scan", "ios": "https://dc.lft.to/lastmile_qr_scan"}, "is_disabled": 0, "fusion_lat": 0.0, "name": "efba788c320428d6ebbc44d13f1c9167", "fusion_lon": 0.0}, {"is_reserved": 0, "type": "electric_scooter", "bike_id": "53d69f30af6a78aedb9944cbaa9ae86c", "lat": 38.9445055, "lon": -77.028005, "rental_uris": {"android": "https://dc.lft.to/lastmile_qr_scan", "ios": "https://dc.lft.to/lastmile_qr_scan"}, "is_disabled": 0, "fusion_lat": 0.0, "name": "53d69f30af6a78aedb9944cbaa9ae86c", "fusion_lon": 0.0}, {"is_reserved": 0, "type": "electric_scooter", "bike_id": "960c33099085ce0158792a493a476655", "lat": 38.92512583333333, "lon": -77.0228895, "rental_uris": {"android": "https://dc.lft.to/lastmile_qr_scan", "ios": "https://dc.lft.to/lastmile_qr_scan"}, "is_disabled": 0, "fusion_lat": 0.0, "name": "960c33099085ce0158792a493a476655", "fusion_lon": 0.0}, {"is_reserved": 0, "type": "electric_scooter", "bike_id": "9a44d28c56c1a4ab5d284d62fc7ab5ab", "lat": 38.929035999999996, "lon": -77.0249575, "rental_uris": {"android": "https://dc.lft.to/lastmile_qr_scan", "ios": "https://dc.lft.to/lastmile_qr_scan"}, "is_disabled": 0, "fusion_lat": 0.0, "name": "9a44d28c56c1a4ab5d284d62fc7ab5ab", "fusion_lon": 0.0}, {"is_reserved": 0, "type": "electric_scooter", "bike_id": "e76c9d4814a0bd360e0f18e922d9a24e", "lat": 38.91576366666666, "lon": -76.9839395, "rental_uris": {"android": "https://dc.lft.to/lastmile_qr_scan", "ios": "https://dc.lft.to/lastmile_qr_scan"}, "is_disabled": 0, "fusion_lat": 0.0, "name": "e76c9d4814a0bd360e0f18e922d9a24e", "fusion_lon": 0.0}, {"is_reserved": 0, "type": "electric_scooter", "bike_id": "206edd1c539e6ced4718ba097b1d1077", "lat": 38.92090683333333, "lon": -77.023995, "rental_uris": {"android": "https://dc.lft.to/lastmile_qr_scan", "ios": "https://dc.lft.to/lastmile_qr_scan"}, "is_disabled": 0, "fusion_lat": 0.0, "name": "206edd1c539e6ced4718ba097b1d1077", "fusion_lon": 0.0}, {"is_reserved": 0, "type": "electric_scooter", "bike_id": "48ad8f403af59496316f3d23df599c3a", "lat": 38.89230466666667, "lon": -77.04363016666667, "rental_uris": {"android": "https://dc.lft.to/lastmile_qr_scan", "ios": "https://dc.lft.to/lastmile_qr_scan"}, "is_disabled": 0, "fusion_lat": 0.0, "name": "48ad8f403af59496316f3d23df599c3a", "fusion_lon": 0.0}, {"is_reserved": 0, "type": "electric_bike", "bike_id": "deb12b8a014f0208e6cd13b88f2f06e0", "lat": 38.830315166666665, "lon": -77.08379533333333, "rental_uris": {"android": "https://dc.lft.to/lastmile_qr_scan", "ios": "https://dc.lft.to/lastmile_qr_scan"}, "is_disabled": 0, "fusion_lat": 0.0, "name": "deb12b8a014f0208e6cd13b88f2f06e0", "fusion_lon": 0.0}, {"is_reserved": 0, "type": "electric_scooter", "bike_id": "3311696a0878826a587eb0f99d138c91", "lat": 38.89728816666667, "lon": -76.99515183333334, "rental_uris": {"android": "https://dc.lft.to/lastmile_qr_scan", "ios": "https://dc.lft.to/lastmile_qr_scan"}, "is_disabled": 0, "fusion_lat": 0.0, "name": "3311696a0878826a587eb0f99d138c91", "fusion_lon": 0.0}, {"is_reserved": 0, "type": "electric_bike", "bike_id": "84d0394eb85e6541e912a601616d24ed", "lat": 38.85788483333333, "lon": -76.98763366666667, "rental_uris": {"android": "https://dc.lft.to/lastmile_qr_scan", "ios": "https://dc.lft.to/lastmile_qr_scan"}, "is_disabled": 0, "fusion_lat": 0.0, "name": "84d0394eb85e6541e912a601616d24ed", "fusion_lon": 0.0}, {"is_reserved": 0, "type": "electric_scooter", "bike_id": "6a688bdcd0a8a832358770b5fb97450e", "lat": 38.894249, "lon": -77.05600416666667, "rental_uris": {"android": "https://dc.lft.to/lastmile_qr_scan", "ios": "https://dc.lft.to/lastmile_qr_scan"}, "is_disabled": 0, "fusion_lat": 0.0, "name": "6a688bdcd0a8a832358770b5fb97450e", "fusion_lon": 0.0}, {"is_reserved": 0, "type": "electric_scooter", "bike_id": "2aad354d35bc00d315b7fa30fc360537", "lat": 38.92510633333333, "lon": -77.03879083333334, "rental_uris": {"android": "https://dc.lft.to/lastmile_qr_scan", "ios": "https://dc.lft.to/lastmile_qr_scan"}, "is_disabled": 0, "fusion_lat": 0.0, "name": "2aad354d35bc00d315b7fa30fc360537", "fusion_lon": 0.0}, {"is_reserved": 0, "type": "electric_scooter", "bike_id": "8ae127381eb7eb44dc6f9c69943d7bb3", "lat": 38.93191366666667, "lon": -77.028366, "rental_uris": {"android": "https://dc.lft.to/lastmile_qr_scan", "ios": "https://dc.lft.to/lastmile_qr_scan"}, "is_disabled": 0, "fusion_lat": 0.0, "name": "8ae127381eb7eb44dc6f9c69943d7bb3", "fusion_lon": 0.0}, {"is_reserved": 0, "type": "electric_bike", "bike_id": "32d402edcf6f5dea5701f3dc4b198243", "lat": 38.80253733333333, "lon": -77.11443766666666, "rental_uris": {"android": "https://dc.lft.to/lastmile_qr_scan", "ios": "https://dc.lft.to/lastmile_qr_scan"}, "is_disabled": 0, "fusion_lat": 0.0, "name": "32d402edcf6f5dea5701f3dc4b198243", "fusion_lon": 0.0}, {"is_reserved": 0, "type": "electric_scooter", "bike_id": "3ddc89dc189fce679ddcf327bb317672", "lat": 38.920777, "lon": -77.0231405, "rental_uris": {"android": "https://dc.lft.to/lastmile_qr_scan", "ios": "https://dc.lft.to/lastmile_qr_scan"}, "is_disabled": 0, "fusion_lat": 0.0, "name": "3ddc89dc189fce679ddcf327bb317672", "fusion_lon": 0.0}, {"is_reserved": 0, "type": "electric_scooter", "bike_id": "9da118c73c7fd8c9fc447a43b08e687d", "lat": 38.922523166666664, "lon": -77.031069, "rental_uris": {"android": "https://dc.lft.to/lastmile_qr_scan", "ios": "https://dc.lft.to/lastmile_qr_scan"}, "is_disabled": 0, "fusion_lat": 0.0, "name": "9da118c73c7fd8c9fc447a43b08e687d", "fusion_lon": 0.0}, {"is_reserved": 0, "type": "electric_scooter", "bike_id": "0b7f8335804574bf2d757f54edc18c69", "lat": 38.86526166666667, "lon": -76.96907166666666, "rental_uris": {"android": "https://dc.lft.to/lastmile_qr_scan", "ios": "https://dc.lft.to/lastmile_qr_scan"}, "is_disabled": 0, "fusion_lat": 0.0, "name": "0b7f8335804574bf2d757f54edc18c69", "fusion_lon": 0.0}, {"is_reserved": 0, "type": "electric_scooter", "bike_id": "29d9717a706b281e6bdf70e61e836029", "lat": 38.91556816666667, "lon": -77.031165, "rental_uris": {"android": "https://dc.lft.to/lastmile_qr_scan", "ios": "https://dc.lft.to/lastmile_qr_scan"}, "is_disabled": 0, "fusion_lat": 0.0, "name": "29d9717a706b281e6bdf70e61e836029", "fusion_lon": 0.0}, {"is_reserved": 0, "type": "electric_scooter", "bike_id": "fb9770cf7d2ddefc380a0fa06ee4edb9", "lat": 38.89609883333333, "lon": -77.04412666666667, "rental_uris": {"android": "https://dc.lft.to/lastmile_qr_scan", "ios": "https://dc.lft.to/lastmile_qr_scan"}, "is_disabled": 0, "fusion_lat": 0.0, "name": "fb9770cf7d2ddefc380a0fa06ee4edb9", "fusion_lon": 0.0}, {"is_reserved": 0, "type": "electric_scooter", "bike_id": "b74d976992a76cbead58578802d93770", "lat": 38.92363833333334, "lon": -77.01918233333333, "rental_uris": {"android": "https://dc.lft.to/lastmile_qr_scan", "ios": "https://dc.lft.to/lastmile_qr_scan"}, "is_disabled": 0, "fusion_lat": 0.0, "name": "b74d976992a76cbead58578802d93770", "fusion_lon": 0.0}, {"is_reserved": 0, "type": "electric_scooter", "bike_id": "98a820cf990cb7dab6e6a1f51b1ce8ab", "lat": 38.918601333333335, "lon": -77.0364755, "rental_uris": {"android": "https://dc.lft.to/lastmile_qr_scan", "ios": "https://dc.lft.to/lastmile_qr_scan"}, "is_disabled": 0, "fusion_lat": 0.0, "name": "98a820cf990cb7dab6e6a1f51b1ce8ab", "fusion_lon": 0.0}, {"is_reserved": 0, "type": "electric_scooter", "bike_id": "d04e0c793af68154b5a7f20376ad897e", "lat": 38.899976333333335, "lon": -77.02936483333333, "rental_uris": {"android": "https://dc.lft.to/lastmile_qr_scan", "ios": "https://dc.lft.to/lastmile_qr_scan"}, "is_disabled": 0, "fusion_lat": 0.0, "name": "d04e0c793af68154b5a7f20376ad897e", "fusion_lon": 0.0}, {"is_reserved": 0, "type": "electric_scooter", "bike_id": "31dfb38104842aec34f34dc58874521f", "lat": 38.931109, "lon": -77.03484966666667, "rental_uris": {"android": "https://dc.lft.to/lastmile_qr_scan", "ios": "https://dc.lft.to/lastmile_qr_scan"}, "is_disabled": 0, "fusion_lat": 0.0, "name": "31dfb38104842aec34f34dc58874521f", "fusion_lon": 0.0}, {"is_reserved": 0, "type": "electric_scooter", "bike_id": "502828a6e720e55e7a4d1fbdfa776551", "lat": 38.88736816666667, "lon": -77.02618866666667, "rental_uris": {"android": "https://dc.lft.to/lastmile_qr_scan", "ios": "https://dc.lft.to/lastmile_qr_scan"}, "is_disabled": 0, "fusion_lat": 0.0, "name": "502828a6e720e55e7a4d1fbdfa776551", "fusion_lon": 0.0}, {"is_reserved": 0, "type": "electric_scooter", "bike_id": "d03e00ea01fdf0e01209fb6b888da87b", "lat": 38.9232875, "lon": -77.029655, "rental_uris": {"android": "https://dc.lft.to/lastmile_qr_scan", "ios": "https://dc.lft.to/lastmile_qr_scan"}, "is_disabled": 0, "fusion_lat": 0.0, "name": "d03e00ea01fdf0e01209fb6b888da87b", "fusion_lon": 0.0}, {"is_reserved": 0, "type": "electric_scooter", "bike_id": "224d91b7531160d22c334dc2977774ff", "lat": 38.91092783333333, "lon": -76.98478133333333, "rental_uris": {"android": "https://dc.lft.to/lastmile_qr_scan", "ios": "https://dc.lft.to/lastmile_qr_scan"}, "is_disabled": 0, "fusion_lat": 0.0, "name": "224d91b7531160d22c334dc2977774ff", "fusion_lon": 0.0}, {"is_reserved": 0, "type": "electric_scooter", "bike_id": "5e2366813c5d9bd0d923a4218da0ff30", "lat": 38.915698666666664, "lon": -76.98401966666667, "rental_uris": {"android": "https://dc.lft.to/lastmile_qr_scan", "ios": "https://dc.lft.to/lastmile_qr_scan"}, "is_disabled": 0, "fusion_lat": 0.0, "name": "5e2366813c5d9bd0d923a4218da0ff30", "fusion_lon": 0.0}, {"is_reserved": 0, "type": "electric_bike", "bike_id": "8ecdf1369c2a7da6fd53c48b67bb0d2e", "lat": 38.90024866666667, "lon": -76.993577, "rental_uris": {"android": "https://dc.lft.to/lastmile_qr_scan", "ios": "https://dc.lft.to/lastmile_qr_scan"}, "is_disabled": 0, "fusion_lat": 0.0, "name": "8ecdf1369c2a7da6fd53c48b67bb0d2e", "fusion_lon": 0.0}, {"is_reserved": 0, "type": "electric_scooter", "bike_id": "7d645b2c2f72e84e8edcc179b590200d", "lat": 38.94923983333333, "lon": -77.02690533333333, "rental_uris": {"android": "https://dc.lft.to/lastmile_qr_scan", "ios": "https://dc.lft.to/lastmile_qr_scan"}, "is_disabled": 0, "fusion_lat": 0.0, "name": "7d645b2c2f72e84e8edcc179b590200d", "fusion_lon": 0.0}, {"is_reserved": 0, "type": "electric_scooter", "bike_id": "2b2f53f3331b99bbaaae7860ce51b0d2", "lat": 38.91686633333333, "lon": -77.02812966666667, "rental_uris": {"android": "https://dc.lft.to/lastmile_qr_scan", "ios": "https://dc.lft.to/lastmile_qr_scan"}, "is_disabled": 0, "fusion_lat": 0.0, "name": "2b2f53f3331b99bbaaae7860ce51b0d2", "fusion_lon": 0.0}, {"is_reserved": 0, "type": "electric_scooter", "bike_id": "b0e023523295afb2295fc337cac0dcf0", "lat": 38.893474166666664, "lon": -76.99384516666667, "rental_uris": {"android": "https://dc.lft.to/lastmile_qr_scan", "ios": "https://dc.lft.to/lastmile_qr_scan"}, "is_disabled": 0, "fusion_lat": 0.0, "name": "b0e023523295afb2295fc337cac0dcf0", "fusion_lon": 0.0}, {"is_reserved": 0, "type": "electric_scooter", "bike_id": "2bd1d982b0a4a1cfa153cb3ca1e2554d", "lat": 38.91107483333333, "lon": -77.0735055, "rental_uris": {"android": "https://dc.lft.to/lastmile_qr_scan", "ios": "https://dc.lft.to/lastmile_qr_scan"}, "is_disabled": 0, "fusion_lat": 0.0, "name": "2bd1d982b0a4a1cfa153cb3ca1e2554d", "fusion_lon": 0.0}, {"is_reserved": 0, "type": "electric_scooter", "bike_id": "42b3d2ea022ad55c21af03937c965446", "lat": 38.923105, "lon": -77.030232, "rental_uris": {"android": "https://dc.lft.to/lastmile_qr_scan", "ios": "https://dc.lft.to/lastmile_qr_scan"}, "is_disabled": 0, "fusion_lat": 0.0, "name": "42b3d2ea022ad55c21af03937c965446", "fusion_lon": 0.0}, {"is_reserved": 0, "type": "electric_scooter", "bike_id": "2569556729d5b410f8b0287cf915d389", "lat": 38.930057, "lon": -77.023103, "rental_uris": {"android": "https://dc.lft.to/lastmile_qr_scan", "ios": "https://dc.lft.to/lastmile_qr_scan"}, "is_disabled": 0, "fusion_lat": 0.0, "name": "2569556729d5b410f8b0287cf915d389", "fusion_lon": 0.0}, {"is_reserved": 0, "type": "electric_scooter", "bike_id": "1d27d0fb972e1992cae79a1ed6c13b79", "lat": 38.921596666666666, "lon": -77.03382783333333, "rental_uris": {"android": "https://dc.lft.to/lastmile_qr_scan", "ios": "https://dc.lft.to/lastmile_qr_scan"}, "is_disabled": 0, "fusion_lat": 0.0, "name": "1d27d0fb972e1992cae79a1ed6c13b79", "fusion_lon": 0.0}, {"is_reserved": 0, "type": "electric_scooter", "bike_id": "51c63eecc49a86da4d05c4e40ad9a261", "lat": 38.91867833333333, "lon": -77.04447233333333, "rental_uris": {"android": "https://dc.lft.to/lastmile_qr_scan", "ios": "https://dc.lft.to/lastmile_qr_scan"}, "is_disabled": 0, "fusion_lat": 0.0, "name": "51c63eecc49a86da4d05c4e40ad9a261", "fusion_lon": 0.0}, {"is_reserved": 0, "type": "electric_scooter", "bike_id": "5cb7f811c624bbfa2f9195aeff59358f", "lat": 38.9141835, "lon": -77.01878033333334, "rental_uris": {"android": "https://dc.lft.to/lastmile_qr_scan", "ios": "https://dc.lft.to/lastmile_qr_scan"}, "is_disabled": 0, "fusion_lat": 0.0, "name": "5cb7f811c624bbfa2f9195aeff59358f", "fusion_lon": 0.0}, {"is_reserved": 0, "type": "electric_scooter", "bike_id": "9f7459cc59d89173fca9ad4e81c01e87", "lat": 38.914054, "lon": -77.03172883333333, "rental_uris": {"android": "https://dc.lft.to/lastmile_qr_scan", "ios": "https://dc.lft.to/lastmile_qr_scan"}, "is_disabled": 0, "fusion_lat": 0.0, "name": "9f7459cc59d89173fca9ad4e81c01e87", "fusion_lon": 0.0}, {"is_reserved": 0, "type": "electric_scooter", "bike_id": "4a689d8176ab507cbddb3be62af669f3", "lat": 38.88304766666667, "lon": -76.94856866666666, "rental_uris": {"android": "https://dc.lft.to/lastmile_qr_scan", "ios": "https://dc.lft.to/lastmile_qr_scan"}, "is_disabled": 0, "fusion_lat": 0.0, "name": "4a689d8176ab507cbddb3be62af669f3", "fusion_lon": 0.0}, {"is_reserved": 0, "type": "electric_scooter", "bike_id": "c7483739796f3c1c286278b43941629b", "lat": 38.90094783333333, "lon": -77.04966733333333, "rental_uris": {"android": "https://dc.lft.to/lastmile_qr_scan", "ios": "https://dc.lft.to/lastmile_qr_scan"}, "is_disabled": 0, "fusion_lat": 0.0, "name": "c7483739796f3c1c286278b43941629b", "fusion_lon": 0.0}, {"is_reserved": 0, "type": "electric_scooter", "bike_id": "b412f2086736251b6d6ddbeca906c68d", "lat": 38.8783105, "lon": -77.0071005, "rental_uris": {"android": "https://dc.lft.to/lastmile_qr_scan", "ios": "https://dc.lft.to/lastmile_qr_scan"}, "is_disabled": 0, "fusion_lat": 0.0, "name": "b412f2086736251b6d6ddbeca906c68d", "fusion_lon": 0.0}, {"is_reserved": 0, "type": "electric_bike", "bike_id": "1adb1bf722d0586f383aefd9265ee8ca", "lat": 38.96618933333333, "lon": -77.03440916666666, "rental_uris": {"android": "https://dc.lft.to/lastmile_qr_scan", "ios": "https://dc.lft.to/lastmile_qr_scan"}, "is_disabled": 0, "fusion_lat": 0.0, "name": "1adb1bf722d0586f383aefd9265ee8ca", "fusion_lon": 0.0}, {"is_reserved": 0, "type": "electric_scooter", "bike_id": "623990f346cfaa63a98d7204a8b99b8b", "lat": 38.92035333333333, "lon": -77.01774066666667, "rental_uris": {"android": "https://dc.lft.to/lastmile_qr_scan", "ios": "https://dc.lft.to/lastmile_qr_scan"}, "is_disabled": 0, "fusion_lat": 0.0, "name": "623990f346cfaa63a98d7204a8b99b8b", "fusion_lon": 0.0}, {"is_reserved": 0, "type": "electric_scooter", "bike_id": "3abb500563f803b8183cdd79d1ff478f", "lat": 38.91286216666666, "lon": -77.07279816666667, "rental_uris": {"android": "https://dc.lft.to/lastmile_qr_scan", "ios": "https://dc.lft.to/lastmile_qr_scan"}, "is_disabled": 0, "fusion_lat": 0.0, "name": "3abb500563f803b8183cdd79d1ff478f", "fusion_lon": 0.0}, {"is_reserved": 0, "type": "electric_scooter", "bike_id": "6ef7479f223e9f7a98ed0f406138686a", "lat": 38.920796833333334, "lon": -77.0231835, "rental_uris": {"android": "https://dc.lft.to/lastmile_qr_scan", "ios": "https://dc.lft.to/lastmile_qr_scan"}, "is_disabled": 0, "fusion_lat": 0.0, "name": "6ef7479f223e9f7a98ed0f406138686a", "fusion_lon": 0.0}, {"is_reserved": 0, "type": "electric_scooter", "bike_id": "72f0fdf0dbaba68e5169813b6e86559f", "lat": 38.93091183333333, "lon": -77.025557, "rental_uris": {"android": "https://dc.lft.to/lastmile_qr_scan", "ios": "https://dc.lft.to/lastmile_qr_scan"}, "is_disabled": 0, "fusion_lat": 0.0, "name": "72f0fdf0dbaba68e5169813b6e86559f", "fusion_lon": 0.0}, {"is_reserved": 0, "type": "electric_scooter", "bike_id": "5ef78dc0ed03c3fde12dc1f091417fe5", "lat": 38.917380333333334, "lon": -77.01603416666667, "rental_uris": {"android": "https://dc.lft.to/lastmile_qr_scan", "ios": "https://dc.lft.to/lastmile_qr_scan"}, "is_disabled": 0, "fusion_lat": 0.0, "name": "5ef78dc0ed03c3fde12dc1f091417fe5", "fusion_lon": 0.0}, {"is_reserved": 0, "type": "electric_scooter", "bike_id": "07b0a5dfeaeda79d00846acf49629964", "lat": 38.9350625, "lon": -77.04279533333333, "rental_uris": {"android": "https://dc.lft.to/lastmile_qr_scan", "ios": "https://dc.lft.to/lastmile_qr_scan"}, "is_disabled": 0, "fusion_lat": 0.0, "name": "07b0a5dfeaeda79d00846acf49629964", "fusion_lon": 0.0}, {"is_reserved": 0, "type": "electric_scooter", "bike_id": "647cbcca70ab3c2ca7b7c497e669e55a", "lat": 38.92394933333333, "lon": -77.05061883333333, "rental_uris": {"android": "https://dc.lft.to/lastmile_qr_scan", "ios": "https://dc.lft.to/lastmile_qr_scan"}, "is_disabled": 0, "fusion_lat": 0.0, "name": "647cbcca70ab3c2ca7b7c497e669e55a", "fusion_lon": 0.0}, {"is_reserved": 0, "type": "electric_scooter", "bike_id": "d89bb0f451e5773a8ef0aaa5e6b3574c", "lat": 38.923975, "lon": -77.05056933333333, "rental_uris": {"android": "https://dc.lft.to/lastmile_qr_scan", "ios": "https://dc.lft.to/lastmile_qr_scan"}, "is_disabled": 0, "fusion_lat": 0.0, "name": "d89bb0f451e5773a8ef0aaa5e6b3574c", "fusion_lon": 0.0}, {"is_reserved": 0, "type": "electric_scooter", "bike_id": "ac99a185c9d875f0cab6b205a32f36dd", "lat": 38.92773616666667, "lon": -77.0277875, "rental_uris": {"android": "https://dc.lft.to/lastmile_qr_scan", "ios": "https://dc.lft.to/lastmile_qr_scan"}, "is_disabled": 0, "fusion_lat": 0.0, "name": "ac99a185c9d875f0cab6b205a32f36dd", "fusion_lon": 0.0}, {"is_reserved": 0, "type": "electric_scooter", "bike_id": "27a54db56b00fab83b0813629d2f031b", "lat": 38.947495, "lon": -77.01935166666667, "rental_uris": {"android": "https://dc.lft.to/lastmile_qr_scan", "ios": "https://dc.lft.to/lastmile_qr_scan"}, "is_disabled": 0, "fusion_lat": 0.0, "name": "27a54db56b00fab83b0813629d2f031b", "fusion_lon": 0.0}, {"is_reserved": 0, "type": "electric_scooter", "bike_id": "7ba0508180a7a40180d6abc90652792d", "lat": 38.897863, "lon": -77.01203216666667, "rental_uris": {"android": "https://dc.lft.to/lastmile_qr_scan", "ios": "https://dc.lft.to/lastmile_qr_scan"}, "is_disabled": 0, "fusion_lat": 0.0, "name": "7ba0508180a7a40180d6abc90652792d", "fusion_lon": 0.0}, {"is_reserved": 0, "type": "electric_scooter", "bike_id": "9647e0f13d21c7fb25adf0ebfadcbb5b", "lat": 38.9040675, "lon": -77.02004533333333, "rental_uris": {"android": "https://dc.lft.to/lastmile_qr_scan", "ios": "https://dc.lft.to/lastmile_qr_scan"}, "is_disabled": 0, "fusion_lat": 0.0, "name": "9647e0f13d21c7fb25adf0ebfadcbb5b", "fusion_lon": 0.0}, {"is_reserved": 0, "type": "electric_scooter", "bike_id": "551aa33d0107c30cbd56acfa0b26c334", "lat": 38.892302, "lon": -77.04361916666667, "rental_uris": {"android": "https://dc.lft.to/lastmile_qr_scan", "ios": "https://dc.lft.to/lastmile_qr_scan"}, "is_disabled": 0, "fusion_lat": 0.0, "name": "551aa33d0107c30cbd56acfa0b26c334", "fusion_lon": 0.0}, {"is_reserved": 0, "type": "electric_scooter", "bike_id": "e2260dae539c6b6a121b328c21eca434", "lat": 38.904104333333336, "lon": -77.06770983333334, "rental_uris": {"android": "https://dc.lft.to/lastmile_qr_scan", "ios": "https://dc.lft.to/lastmile_qr_scan"}, "is_disabled": 0, "fusion_lat": 0.0, "name": "e2260dae539c6b6a121b328c21eca434", "fusion_lon": 0.0}, {"is_reserved": 0, "type": "electric_scooter", "bike_id": "1db1ea7ee98e3c325851f2c6ae0a59af", "lat": 38.9058585, "lon": -77.0161575, "rental_uris": {"android": "https://dc.lft.to/lastmile_qr_scan", "ios": "https://dc.lft.to/lastmile_qr_scan"}, "is_disabled": 0, "fusion_lat": 0.0, "name": "1db1ea7ee98e3c325851f2c6ae0a59af", "fusion_lon": 0.0}, {"is_reserved": 0, "type": "electric_scooter", "bike_id": "7a9381a64477c7193130fd34a9aceb11", "lat": 38.916637, "lon": -77.02701133333333, "rental_uris": {"android": "https://dc.lft.to/lastmile_qr_scan", "ios": "https://dc.lft.to/lastmile_qr_scan"}, "is_disabled": 0, "fusion_lat": 0.0, "name": "7a9381a64477c7193130fd34a9aceb11", "fusion_lon": 0.0}, {"is_reserved": 0, "type": "electric_scooter", "bike_id": "4832f415771c83c50bf87ab2d1e00c45", "lat": 38.912007333333335, "lon": -77.01202033333334, "rental_uris": {"android": "https://dc.lft.to/lastmile_qr_scan", "ios": "https://dc.lft.to/lastmile_qr_scan"}, "is_disabled": 0, "fusion_lat": 0.0, "name": "4832f415771c83c50bf87ab2d1e00c45", "fusion_lon": 0.0}, {"is_reserved": 0, "type": "electric_scooter", "bike_id": "310c9e2ab5fb8b348e73d228d1a70553", "lat": 38.90565483333334, "lon": -77.018077, "rental_uris": {"android": "https://dc.lft.to/lastmile_qr_scan", "ios": "https://dc.lft.to/lastmile_qr_scan"}, "is_disabled": 0, "fusion_lat": 0.0, "name": "310c9e2ab5fb8b348e73d228d1a70553", "fusion_lon": 0.0}, {"is_reserved": 0, "type": "electric_scooter", "bike_id": "eb99107bd124ddd7dbd4c10fb4349e11", "lat": 38.9291865, "lon": -76.99813516666667, "rental_uris": {"android": "https://dc.lft.to/lastmile_qr_scan", "ios": "https://dc.lft.to/lastmile_qr_scan"}, "is_disabled": 0, "fusion_lat": 0.0, "name": "eb99107bd124ddd7dbd4c10fb4349e11", "fusion_lon": 0.0}, {"is_reserved": 0, "type": "electric_scooter", "bike_id": "10feff7e5d49d2c1e18e051607b157c6", "lat": 38.91172066666667, "lon": -77.01984483333334, "rental_uris": {"android": "https://dc.lft.to/lastmile_qr_scan", "ios": "https://dc.lft.to/lastmile_qr_scan"}, "is_disabled": 0, "fusion_lat": 0.0, "name": "10feff7e5d49d2c1e18e051607b157c6", "fusion_lon": 0.0}, {"is_reserved": 0, "type": "electric_scooter", "bike_id": "f29bb80e5b6f9450561f450f9c3ed1f1", "lat": 38.92134633333333, "lon": -77.01803833333334, "rental_uris": {"android": "https://dc.lft.to/lastmile_qr_scan", "ios": "https://dc.lft.to/lastmile_qr_scan"}, "is_disabled": 0, "fusion_lat": 0.0, "name": "f29bb80e5b6f9450561f450f9c3ed1f1", "fusion_lon": 0.0}, {"is_reserved": 0, "type": "electric_scooter", "bike_id": "e0404bd5cf3f7bb4d10a22a49b21c570", "lat": 38.914651666666664, "lon": -77.0217975, "rental_uris": {"android": "https://dc.lft.to/lastmile_qr_scan", "ios": "https://dc.lft.to/lastmile_qr_scan"}, "is_disabled": 0, "fusion_lat": 0.0, "name": "e0404bd5cf3f7bb4d10a22a49b21c570", "fusion_lon": 0.0}, {"is_reserved": 0, "type": "electric_scooter", "bike_id": "f4ae5964a6f022a8909db70806d1d595", "lat": 38.9525095, "lon": -77.02399716666666, "rental_uris": {"android": "https://dc.lft.to/lastmile_qr_scan", "ios": "https://dc.lft.to/lastmile_qr_scan"}, "is_disabled": 0, "fusion_lat": 0.0, "name": "f4ae5964a6f022a8909db70806d1d595", "fusion_lon": 0.0}, {"is_reserved": 0, "type": "electric_scooter", "bike_id": "7aefcb6b7f3c04ea8bd6da0b3d5ea83a", "lat": 38.917148, "lon": -77.03226883333333, "rental_uris": {"android": "https://dc.lft.to/lastmile_qr_scan", "ios": "https://dc.lft.to/lastmile_qr_scan"}, "is_disabled": 0, "fusion_lat": 0.0, "name": "7aefcb6b7f3c04ea8bd6da0b3d5ea83a", "fusion_lon": 0.0}, {"is_reserved": 0, "type": "electric_scooter", "bike_id": "a136a5654c27194b4285bebd5a422918", "lat": 38.90585733333333, "lon": -77.036459, "rental_uris": {"android": "https://dc.lft.to/lastmile_qr_scan", "ios": "https://dc.lft.to/lastmile_qr_scan"}, "is_disabled": 0, "fusion_lat": 0.0, "name": "a136a5654c27194b4285bebd5a422918", "fusion_lon": 0.0}, {"is_reserved": 0, "type": "electric_scooter", "bike_id": "e3dad392b0b13d9e8cb4031dba99d5ee", "lat": 38.918686, "lon": -77.01359766666667, "rental_uris": {"android": "https://dc.lft.to/lastmile_qr_scan", "ios": "https://dc.lft.to/lastmile_qr_scan"}, "is_disabled": 0, "fusion_lat": 0.0, "name": "e3dad392b0b13d9e8cb4031dba99d5ee", "fusion_lon": 0.0}, {"is_reserved": 0, "type": "electric_scooter", "bike_id": "e47de1c22a0e332d404e50436ce8d693", "lat": 38.93875033333333, "lon": -77.02560783333334, "rental_uris": {"android": "https://dc.lft.to/lastmile_qr_scan", "ios": "https://dc.lft.to/lastmile_qr_scan"}, "is_disabled": 0, "fusion_lat": 0.0, "name": "e47de1c22a0e332d404e50436ce8d693", "fusion_lon": 0.0}, {"is_reserved": 0, "type": "electric_scooter", "bike_id": "87ffbd44f1e417997bb99900ab417829", "lat": 38.966480833333335, "lon": -77.00892383333333, "rental_uris": {"android": "https://dc.lft.to/lastmile_qr_scan", "ios": "https://dc.lft.to/lastmile_qr_scan"}, "is_disabled": 0, "fusion_lat": 0.0, "name": "87ffbd44f1e417997bb99900ab417829", "fusion_lon": 0.0}, {"is_reserved": 0, "type": "electric_scooter", "bike_id": "1188e8daa7273a082ba5e8426024eb7c", "lat": 38.90574616666667, "lon": -77.00610066666667, "rental_uris": {"android": "https://dc.lft.to/lastmile_qr_scan", "ios": "https://dc.lft.to/lastmile_qr_scan"}, "is_disabled": 0, "fusion_lat": 0.0, "name": "1188e8daa7273a082ba5e8426024eb7c", "fusion_lon": 0.0}, {"is_reserved": 0, "type": "electric_scooter", "bike_id": "800d8850018f9006f37f4d59eb78db3a", "lat": 38.92613333333333, "lon": -77.0216185, "rental_uris": {"android": "https://dc.lft.to/lastmile_qr_scan", "ios": "https://dc.lft.to/lastmile_qr_scan"}, "is_disabled": 0, "fusion_lat": 0.0, "name": "800d8850018f9006f37f4d59eb78db3a", "fusion_lon": 0.0}, {"is_reserved": 0, "type": "electric_scooter", "bike_id": "84eafb07df365148237d41c9d52978e9", "lat": 38.900115666666665, "lon": -77.04465733333333, "rental_uris": {"android": "https://dc.lft.to/lastmile_qr_scan", "ios": "https://dc.lft.to/lastmile_qr_scan"}, "is_disabled": 0, "fusion_lat": 0.0, "name": "84eafb07df365148237d41c9d52978e9", "fusion_lon": 0.0}, {"is_reserved": 0, "type": "electric_bike", "bike_id": "dc2f28bb778022667c93b12caed0cae0", "lat": 38.995382, "lon": -77.07459016666667, "rental_uris": {"android": "https://dc.lft.to/lastmile_qr_scan", "ios": "https://dc.lft.to/lastmile_qr_scan"}, "is_disabled": 0, "fusion_lat": 0.0, "name": "dc2f28bb778022667c93b12caed0cae0", "fusion_lon": 0.0}, {"is_reserved": 0, "type": "electric_bike", "bike_id": "db2dcd825437e0b6bbb614493f875866", "lat": 38.85788816666667, "lon": -77.0996105, "rental_uris": {"android": "https://dc.lft.to/lastmile_qr_scan", "ios": "https://dc.lft.to/lastmile_qr_scan"}, "is_disabled": 0, "fusion_lat": 0.0, "name": "db2dcd825437e0b6bbb614493f875866", "fusion_lon": 0.0}, {"is_reserved": 0, "type": "electric_scooter", "bike_id": "3bc425e53e263b8aa39707e67cc1e582", "lat": 38.9164855, "lon": -77.02183883333333, "rental_uris": {"android": "https://dc.lft.to/lastmile_qr_scan", "ios": "https://dc.lft.to/lastmile_qr_scan"}, "is_disabled": 0, "fusion_lat": 0.0, "name": "3bc425e53e263b8aa39707e67cc1e582", "fusion_lon": 0.0}, {"is_reserved": 0, "type": "electric_scooter", "bike_id": "ebd39eae7e7185040823eebd66a798cd", "lat": 38.92398016666667, "lon": -77.0505675, "rental_uris": {"android": "https://dc.lft.to/lastmile_qr_scan", "ios": "https://dc.lft.to/lastmile_qr_scan"}, "is_disabled": 0, "fusion_lat": 0.0, "name": "ebd39eae7e7185040823eebd66a798cd", "fusion_lon": 0.0}, {"is_reserved": 0, "type": "electric_scooter", "bike_id": "80c59fbff8acfdb4d4448623dd818f28", "lat": 38.90369833333333, "lon": -77.00754816666667, "rental_uris": {"android": "https://dc.lft.to/lastmile_qr_scan", "ios": "https://dc.lft.to/lastmile_qr_scan"}, "is_disabled": 0, "fusion_lat": 0.0, "name": "80c59fbff8acfdb4d4448623dd818f28", "fusion_lon": 0.0}, {"is_reserved": 0, "type": "electric_scooter", "bike_id": "5914877a01b8b15c2b561facc203dc79", "lat": 38.92366333333333, "lon": -77.05110516666667, "rental_uris": {"android": "https://dc.lft.to/lastmile_qr_scan", "ios": "https://dc.lft.to/lastmile_qr_scan"}, "is_disabled": 0, "fusion_lat": 0.0, "name": "5914877a01b8b15c2b561facc203dc79", "fusion_lon": 0.0}, {"is_reserved": 0, "type": "electric_scooter", "bike_id": "0ddae47a5273f9b552da2c771797276b", "lat": 38.905527666666664, "lon": -77.00433216666667, "rental_uris": {"android": "https://dc.lft.to/lastmile_qr_scan", "ios": "https://dc.lft.to/lastmile_qr_scan"}, "is_disabled": 0, "fusion_lat": 0.0, "name": "0ddae47a5273f9b552da2c771797276b", "fusion_lon": 0.0}, {"is_reserved": 0, "type": "electric_bike", "bike_id": "bab251804e746989865ab98ad41d98f6", "lat": 38.958696833333335, "lon": -76.97059366666667, "rental_uris": {"android": "https://dc.lft.to/lastmile_qr_scan", "ios": "https://dc.lft.to/lastmile_qr_scan"}, "is_disabled": 0, "fusion_lat": 0.0, "name": "bab251804e746989865ab98ad41d98f6", "fusion_lon": 0.0}, {"is_reserved": 0, "type": "electric_scooter", "bike_id": "ba2e45f5f8f3be68c3fe6c0236cafeee", "lat": 38.92121733333333, "lon": -77.01904583333334, "rental_uris": {"android": "https://dc.lft.to/lastmile_qr_scan", "ios": "https://dc.lft.to/lastmile_qr_scan"}, "is_disabled": 0, "fusion_lat": 0.0, "name": "ba2e45f5f8f3be68c3fe6c0236cafeee", "fusion_lon": 0.0}, {"is_reserved": 0, "type": "electric_scooter", "bike_id": "b6c5e0ec2040c4b53f9570aaf22ac2cd", "lat": 38.916866, "lon": -77.02955016666667, "rental_uris": {"android": "https://dc.lft.to/lastmile_qr_scan", "ios": "https://dc.lft.to/lastmile_qr_scan"}, "is_disabled": 0, "fusion_lat": 0.0, "name": "b6c5e0ec2040c4b53f9570aaf22ac2cd", "fusion_lon": 0.0}, {"is_reserved": 0, "type": "electric_scooter", "bike_id": "773056954c0c411b749a965a7b2bbe26", "lat": 38.899543, "lon": -76.946352, "rental_uris": {"android": "https://dc.lft.to/lastmile_qr_scan", "ios": "https://dc.lft.to/lastmile_qr_scan"}, "is_disabled": 0, "fusion_lat": 0.0, "name": "773056954c0c411b749a965a7b2bbe26", "fusion_lon": 0.0}, {"is_reserved": 0, "type": "electric_scooter", "bike_id": "564c4cc6936e035e3f6f8daae65b2414", "lat": 38.90724616666667, "lon": -77.00804933333333, "rental_uris": {"android": "https://dc.lft.to/lastmile_qr_scan", "ios": "https://dc.lft.to/lastmile_qr_scan"}, "is_disabled": 0, "fusion_lat": 0.0, "name": "564c4cc6936e035e3f6f8daae65b2414", "fusion_lon": 0.0}, {"is_reserved": 0, "type": "electric_scooter", "bike_id": "f30cc2dd3120c9ecb2c2c42b3a1fb677", "lat": 38.93075566666667, "lon": -77.02815316666667, "rental_uris": {"android": "https://dc.lft.to/lastmile_qr_scan", "ios": "https://dc.lft.to/lastmile_qr_scan"}, "is_disabled": 0, "fusion_lat": 0.0, "name": "f30cc2dd3120c9ecb2c2c42b3a1fb677", "fusion_lon": 0.0}, {"is_reserved": 0, "type": "electric_scooter", "bike_id": "6aab3b0b7f3657b3a905cefb6f333211", "lat": 38.87473266666667, "lon": -77.00548933333333, "rental_uris": {"android": "https://dc.lft.to/lastmile_qr_scan", "ios": "https://dc.lft.to/lastmile_qr_scan"}, "is_disabled": 0, "fusion_lat": 0.0, "name": "6aab3b0b7f3657b3a905cefb6f333211", "fusion_lon": 0.0}, {"is_reserved": 0, "type": "electric_bike", "bike_id": "3543d7c3dd0bceddf447c46609dd6e29", "lat": 38.94567983333334, "lon": -76.95840833333334, "rental_uris": {"android": "https://dc.lft.to/lastmile_qr_scan", "ios": "https://dc.lft.to/lastmile_qr_scan"}, "is_disabled": 0, "fusion_lat": 0.0, "name": "3543d7c3dd0bceddf447c46609dd6e29", "fusion_lon": 0.0}, {"is_reserved": 0, "type": "electric_scooter", "bike_id": "891992af6f7a36820fe384a0d74dd7ef", "lat": 38.932375666666665, "lon": -76.99758366666667, "rental_uris": {"android": "https://dc.lft.to/lastmile_qr_scan", "ios": "https://dc.lft.to/lastmile_qr_scan"}, "is_disabled": 0, "fusion_lat": 0.0, "name": "891992af6f7a36820fe384a0d74dd7ef", "fusion_lon": 0.0}, {"is_reserved": 0, "type": "electric_scooter", "bike_id": "d90edee0ff97be00c8e0d7244230b825", "lat": 38.896219333333335, "lon": -76.99731266666667, "rental_uris": {"android": "https://dc.lft.to/lastmile_qr_scan", "ios": "https://dc.lft.to/lastmile_qr_scan"}, "is_disabled": 0, "fusion_lat": 0.0, "name": "d90edee0ff97be00c8e0d7244230b825", "fusion_lon": 0.0}, {"is_reserved": 0, "type": "electric_scooter", "bike_id": "662094d754967196a5c3625a9df7a156", "lat": 38.9166565, "lon": -77.024743, "rental_uris": {"android": "https://dc.lft.to/lastmile_qr_scan", "ios": "https://dc.lft.to/lastmile_qr_scan"}, "is_disabled": 0, "fusion_lat": 0.0, "name": "662094d754967196a5c3625a9df7a156", "fusion_lon": 0.0}, {"is_reserved": 0, "type": "electric_scooter", "bike_id": "3bbc4f20ff972ae583a8652738ca925d", "lat": 38.89229733333333, "lon": -77.05001566666667, "rental_uris": {"android": "https://dc.lft.to/lastmile_qr_scan", "ios": "https://dc.lft.to/lastmile_qr_scan"}, "is_disabled": 0, "fusion_lat": 0.0, "name": "3bbc4f20ff972ae583a8652738ca925d", "fusion_lon": 0.0}, {"is_reserved": 0, "type": "electric_scooter", "bike_id": "3e91f6e4943bc4232c48e0acb086cd0b", "lat": 38.919641, "lon": -77.01795616666666, "rental_uris": {"android": "https://dc.lft.to/lastmile_qr_scan", "ios": "https://dc.lft.to/lastmile_qr_scan"}, "is_disabled": 0, "fusion_lat": 0.0, "name": "3e91f6e4943bc4232c48e0acb086cd0b", "fusion_lon": 0.0}, {"is_reserved": 0, "type": "electric_scooter", "bike_id": "0abb4af31c82237ff4ef29b0cf436e2c", "lat": 38.8671685, "lon": -76.980756, "rental_uris": {"android": "https://dc.lft.to/lastmile_qr_scan", "ios": "https://dc.lft.to/lastmile_qr_scan"}, "is_disabled": 0, "fusion_lat": 0.0, "name": "0abb4af31c82237ff4ef29b0cf436e2c", "fusion_lon": 0.0}, {"is_reserved": 0, "type": "electric_scooter", "bike_id": "f60be6130e776ab86d112fe83c8f798f", "lat": 38.87656916666667, "lon": -77.02077133333333, "rental_uris": {"android": "https://dc.lft.to/lastmile_qr_scan", "ios": "https://dc.lft.to/lastmile_qr_scan"}, "is_disabled": 0, "fusion_lat": 0.0, "name": "f60be6130e776ab86d112fe83c8f798f", "fusion_lon": 0.0}, {"is_reserved": 0, "type": "electric_scooter", "bike_id": "ee1312a37ffb314383dd0f008501560d", "lat": 38.88536383333334, "lon": -76.98057883333334, "rental_uris": {"android": "https://dc.lft.to/lastmile_qr_scan", "ios": "https://dc.lft.to/lastmile_qr_scan"}, "is_disabled": 0, "fusion_lat": 0.0, "name": "ee1312a37ffb314383dd0f008501560d", "fusion_lon": 0.0}, {"is_reserved": 0, "type": "electric_scooter", "bike_id": "35c26df77481deb47ecfa09d441e53cd", "lat": 38.924833166666666, "lon": -77.03047133333334, "rental_uris": {"android": "https://dc.lft.to/lastmile_qr_scan", "ios": "https://dc.lft.to/lastmile_qr_scan"}, "is_disabled": 0, "fusion_lat": 0.0, "name": "35c26df77481deb47ecfa09d441e53cd", "fusion_lon": 0.0}, {"is_reserved": 0, "type": "electric_scooter", "bike_id": "d67ed8e4302c4e54165a04962bbfcdcd", "lat": 38.92460766666667, "lon": -77.052319, "rental_uris": {"android": "https://dc.lft.to/lastmile_qr_scan", "ios": "https://dc.lft.to/lastmile_qr_scan"}, "is_disabled": 0, "fusion_lat": 0.0, "name": "d67ed8e4302c4e54165a04962bbfcdcd", "fusion_lon": 0.0}, {"is_reserved": 0, "type": "electric_scooter", "bike_id": "f7ad7acaff5f49260dedb32cb56c468b", "lat": 38.8867455, "lon": -77.00198166666667, "rental_uris": {"android": "https://dc.lft.to/lastmile_qr_scan", "ios": "https://dc.lft.to/lastmile_qr_scan"}, "is_disabled": 0, "fusion_lat": 0.0, "name": "f7ad7acaff5f49260dedb32cb56c468b", "fusion_lon": 0.0}, {"is_reserved": 0, "type": "electric_scooter", "bike_id": "993f7e7aef3f74d8d8a171da6593a00e", "lat": 38.900302333333336, "lon": -77.00214783333334, "rental_uris": {"android": "https://dc.lft.to/lastmile_qr_scan", "ios": "https://dc.lft.to/lastmile_qr_scan"}, "is_disabled": 0, "fusion_lat": 0.0, "name": "993f7e7aef3f74d8d8a171da6593a00e", "fusion_lon": 0.0}, {"is_reserved": 0, "type": "electric_scooter", "bike_id": "f4a169d84378aadb6c29015c151bf7a6", "lat": 38.865963666666666, "lon": -76.974538, "rental_uris": {"android": "https://dc.lft.to/lastmile_qr_scan", "ios": "https://dc.lft.to/lastmile_qr_scan"}, "is_disabled": 0, "fusion_lat": 0.0, "name": "f4a169d84378aadb6c29015c151bf7a6", "fusion_lon": 0.0}, {"is_reserved": 0, "type": "electric_scooter", "bike_id": "b1b16d35c6d008faf3d6bce3d88ca20f", "lat": 38.91963466666667, "lon": -77.04366266666666, "rental_uris": {"android": "https://dc.lft.to/lastmile_qr_scan", "ios": "https://dc.lft.to/lastmile_qr_scan"}, "is_disabled": 0, "fusion_lat": 0.0, "name": "b1b16d35c6d008faf3d6bce3d88ca20f", "fusion_lon": 0.0}, {"is_reserved": 0, "type": "electric_scooter", "bike_id": "111b9b0fbb3fa25e3644e9522e2be1f2", "lat": 38.905762833333334, "lon": -77.00786766666667, "rental_uris": {"android": "https://dc.lft.to/lastmile_qr_scan", "ios": "https://dc.lft.to/lastmile_qr_scan"}, "is_disabled": 0, "fusion_lat": 0.0, "name": "111b9b0fbb3fa25e3644e9522e2be1f2", "fusion_lon": 0.0}, {"is_reserved": 0, "type": "electric_scooter", "bike_id": "2aa3cdca50bd51474f30d690bac7c2c1", "lat": 38.905457, "lon": -77.0055065, "rental_uris": {"android": "https://dc.lft.to/lastmile_qr_scan", "ios": "https://dc.lft.to/lastmile_qr_scan"}, "is_disabled": 0, "fusion_lat": 0.0, "name": "2aa3cdca50bd51474f30d690bac7c2c1", "fusion_lon": 0.0}, {"is_reserved": 0, "type": "electric_scooter", "bike_id": "f8dd4659f101d97525e686823c704d60", "lat": 38.936611166666665, "lon": -77.02135216666667, "rental_uris": {"android": "https://dc.lft.to/lastmile_qr_scan", "ios": "https://dc.lft.to/lastmile_qr_scan"}, "is_disabled": 0, "fusion_lat": 0.0, "name": "f8dd4659f101d97525e686823c704d60", "fusion_lon": 0.0}, {"is_reserved": 0, "type": "electric_scooter", "bike_id": "f4b662818f5545e0c39f3cd045fd3762", "lat": 38.90198683333333, "lon": -76.98218866666667, "rental_uris": {"android": "https://dc.lft.to/lastmile_qr_scan", "ios": "https://dc.lft.to/lastmile_qr_scan"}, "is_disabled": 0, "fusion_lat": 0.0, "name": "f4b662818f5545e0c39f3cd045fd3762", "fusion_lon": 0.0}, {"is_reserved": 0, "type": "electric_scooter", "bike_id": "b0154020945ea701c2e2c85649b85b26", "lat": 38.918023833333336, "lon": -77.03441466666666, "rental_uris": {"android": "https://dc.lft.to/lastmile_qr_scan", "ios": "https://dc.lft.to/lastmile_qr_scan"}, "is_disabled": 0, "fusion_lat": 0.0, "name": "b0154020945ea701c2e2c85649b85b26", "fusion_lon": 0.0}, {"is_reserved": 0, "type": "electric_scooter", "bike_id": "35ca36da8c2de6d28183389101538ffb", "lat": 38.900364, "lon": -77.00211816666666, "rental_uris": {"android": "https://dc.lft.to/lastmile_qr_scan", "ios": "https://dc.lft.to/lastmile_qr_scan"}, "is_disabled": 0, "fusion_lat": 0.0, "name": "35ca36da8c2de6d28183389101538ffb", "fusion_lon": 0.0}, {"is_reserved": 0, "type": "electric_scooter", "bike_id": "871190265f18a86987338f1a26e7a48c", "lat": 38.91556666666666, "lon": -77.03253733333334, "rental_uris": {"android": "https://dc.lft.to/lastmile_qr_scan", "ios": "https://dc.lft.to/lastmile_qr_scan"}, "is_disabled": 0, "fusion_lat": 0.0, "name": "871190265f18a86987338f1a26e7a48c", "fusion_lon": 0.0}, {"is_reserved": 0, "type": "electric_scooter", "bike_id": "bd28e8c19296fab624fbb150d1e4562d", "lat": 38.90828966666667, "lon": -77.021802, "rental_uris": {"android": "https://dc.lft.to/lastmile_qr_scan", "ios": "https://dc.lft.to/lastmile_qr_scan"}, "is_disabled": 0, "fusion_lat": 0.0, "name": "bd28e8c19296fab624fbb150d1e4562d", "fusion_lon": 0.0}, {"is_reserved": 0, "type": "electric_scooter", "bike_id": "733e09ea1a6b19c911dfe2233fd16fba", "lat": 38.92751466666667, "lon": -77.032762, "rental_uris": {"android": "https://dc.lft.to/lastmile_qr_scan", "ios": "https://dc.lft.to/lastmile_qr_scan"}, "is_disabled": 0, "fusion_lat": 0.0, "name": "733e09ea1a6b19c911dfe2233fd16fba", "fusion_lon": 0.0}, {"is_reserved": 0, "type": "electric_scooter", "bike_id": "3f48e61adbf967fd59c225327f3a9115", "lat": 38.944163333333336, "lon": -77.06328016666667, "rental_uris": {"android": "https://dc.lft.to/lastmile_qr_scan", "ios": "https://dc.lft.to/lastmile_qr_scan"}, "is_disabled": 0, "fusion_lat": 0.0, "name": "3f48e61adbf967fd59c225327f3a9115", "fusion_lon": 0.0}, {"is_reserved": 0, "type": "electric_scooter", "bike_id": "057d03a831a285fd0f3d27db61ed8724", "lat": 38.916731, "lon": -77.02390883333334, "rental_uris": {"android": "https://dc.lft.to/lastmile_qr_scan", "ios": "https://dc.lft.to/lastmile_qr_scan"}, "is_disabled": 0, "fusion_lat": 0.0, "name": "057d03a831a285fd0f3d27db61ed8724", "fusion_lon": 0.0}, {"is_reserved": 0, "type": "electric_scooter", "bike_id": "588f99b743c093c8e39fdfc43572ce12", "lat": 38.897441, "lon": -77.0248345, "rental_uris": {"android": "https://dc.lft.to/lastmile_qr_scan", "ios": "https://dc.lft.to/lastmile_qr_scan"}, "is_disabled": 0, "fusion_lat": 0.0, "name": "588f99b743c093c8e39fdfc43572ce12", "fusion_lon": 0.0}, {"is_reserved": 0, "type": "electric_scooter", "bike_id": "4b54b7f82deb1f3259dddf146a583cba", "lat": 38.853283833333336, "lon": -76.98013933333333, "rental_uris": {"android": "https://dc.lft.to/lastmile_qr_scan", "ios": "https://dc.lft.to/lastmile_qr_scan"}, "is_disabled": 0, "fusion_lat": 0.0, "name": "4b54b7f82deb1f3259dddf146a583cba", "fusion_lon": 0.0}, {"is_reserved": 0, "type": "electric_scooter", "bike_id": "4f17a3afe5cd389fb12d26cc9051e8e6", "lat": 38.92493433333333, "lon": -77.039334, "rental_uris": {"android": "https://dc.lft.to/lastmile_qr_scan", "ios": "https://dc.lft.to/lastmile_qr_scan"}, "is_disabled": 0, "fusion_lat": 0.0, "name": "4f17a3afe5cd389fb12d26cc9051e8e6", "fusion_lon": 0.0}, {"is_reserved": 0, "type": "electric_scooter", "bike_id": "7a2a3858f1e5bde8487c144d5c2b1fe2", "lat": 38.918097, "lon": -77.03304566666667, "rental_uris": {"android": "https://dc.lft.to/lastmile_qr_scan", "ios": "https://dc.lft.to/lastmile_qr_scan"}, "is_disabled": 0, "fusion_lat": 0.0, "name": "7a2a3858f1e5bde8487c144d5c2b1fe2", "fusion_lon": 0.0}, {"is_reserved": 0, "type": "electric_bike", "bike_id": "bc7cbee8537d4b4245f7f25fddef697f", "lat": 38.89159166666666, "lon": -77.18287033333333, "rental_uris": {"android": "https://dc.lft.to/lastmile_qr_scan", "ios": "https://dc.lft.to/lastmile_qr_scan"}, "is_disabled": 0, "fusion_lat": 0.0, "name": "bc7cbee8537d4b4245f7f25fddef697f", "fusion_lon": 0.0}, {"is_reserved": 0, "type": "electric_scooter", "bike_id": "fbdd1e67404d2004dd9410d1ab43e781", "lat": 38.902618833333335, "lon": -77.003337, "rental_uris": {"android": "https://dc.lft.to/lastmile_qr_scan", "ios": "https://dc.lft.to/lastmile_qr_scan"}, "is_disabled": 0, "fusion_lat": 0.0, "name": "fbdd1e67404d2004dd9410d1ab43e781", "fusion_lon": 0.0}, {"is_reserved": 0, "type": "electric_scooter", "bike_id": "8b30ba3b77ea2b9173f8c8a43e7c8e18", "lat": 38.91927583333333, "lon": -77.048038, "rental_uris": {"android": "https://dc.lft.to/lastmile_qr_scan", "ios": "https://dc.lft.to/lastmile_qr_scan"}, "is_disabled": 0, "fusion_lat": 0.0, "name": "8b30ba3b77ea2b9173f8c8a43e7c8e18", "fusion_lon": 0.0}, {"is_reserved": 0, "type": "electric_scooter", "bike_id": "a94e70f9b366c92c47ceac491ead5f22", "lat": 38.920439, "lon": -77.04823466666667, "rental_uris": {"android": "https://dc.lft.to/lastmile_qr_scan", "ios": "https://dc.lft.to/lastmile_qr_scan"}, "is_disabled": 0, "fusion_lat": 0.0, "name": "a94e70f9b366c92c47ceac491ead5f22", "fusion_lon": 0.0}, {"is_reserved": 0, "type": "electric_scooter", "bike_id": "e1449fda1142c6a7f536fa451f2ca123", "lat": 38.93718783333333, "lon": -77.03262933333333, "rental_uris": {"android": "https://dc.lft.to/lastmile_qr_scan", "ios": "https://dc.lft.to/lastmile_qr_scan"}, "is_disabled": 0, "fusion_lat": 0.0, "name": "e1449fda1142c6a7f536fa451f2ca123", "fusion_lon": 0.0}, {"is_reserved": 0, "type": "electric_scooter", "bike_id": "6fd489f57becbc95d90a6fc3cbb3872b", "lat": 38.901979, "lon": -77.0218155, "rental_uris": {"android": "https://dc.lft.to/lastmile_qr_scan", "ios": "https://dc.lft.to/lastmile_qr_scan"}, "is_disabled": 0, "fusion_lat": 0.0, "name": "6fd489f57becbc95d90a6fc3cbb3872b", "fusion_lon": 0.0}, {"is_reserved": 0, "type": "electric_bike", "bike_id": "5cc25501e5f2989a368528e2196cf55d", "lat": 38.942632, "lon": -76.99072483333333, "rental_uris": {"android": "https://dc.lft.to/lastmile_qr_scan", "ios": "https://dc.lft.to/lastmile_qr_scan"}, "is_disabled": 0, "fusion_lat": 0.0, "name": "5cc25501e5f2989a368528e2196cf55d", "fusion_lon": 0.0}, {"is_reserved": 0, "type": "electric_scooter", "bike_id": "d546987d4ac0391d1777871a8bf9f8c2", "lat": 38.896970333333336, "lon": -77.0434775, "rental_uris": {"android": "https://dc.lft.to/lastmile_qr_scan", "ios": "https://dc.lft.to/lastmile_qr_scan"}, "is_disabled": 0, "fusion_lat": 0.0, "name": "d546987d4ac0391d1777871a8bf9f8c2", "fusion_lon": 0.0}, {"is_reserved": 0, "type": "electric_scooter", "bike_id": "0eeadc1b28644790fdebd6fa8dd41811", "lat": 38.959122666666666, "lon": -77.00017866666667, "rental_uris": {"android": "https://dc.lft.to/lastmile_qr_scan", "ios": "https://dc.lft.to/lastmile_qr_scan"}, "is_disabled": 0, "fusion_lat": 0.0, "name": "0eeadc1b28644790fdebd6fa8dd41811", "fusion_lon": 0.0}, {"is_reserved": 0, "type": "electric_scooter", "bike_id": "1699960a51674972e3cb8f933124212b", "lat": 38.894702333333335, "lon": -76.997112, "rental_uris": {"android": "https://dc.lft.to/lastmile_qr_scan", "ios": "https://dc.lft.to/lastmile_qr_scan"}, "is_disabled": 0, "fusion_lat": 0.0, "name": "1699960a51674972e3cb8f933124212b", "fusion_lon": 0.0}, {"is_reserved": 0, "type": "electric_scooter", "bike_id": "c81e9ccbae31858523104bcb35961115", "lat": 38.90128683333333, "lon": -77.04152783333333, "rental_uris": {"android": "https://dc.lft.to/lastmile_qr_scan", "ios": "https://dc.lft.to/lastmile_qr_scan"}, "is_disabled": 0, "fusion_lat": 0.0, "name": "c81e9ccbae31858523104bcb35961115", "fusion_lon": 0.0}, {"is_reserved": 0, "type": "electric_scooter", "bike_id": "be02d453693e9695a439c0721b77c7eb", "lat": 38.92678866666667, "lon": -77.0320375, "rental_uris": {"android": "https://dc.lft.to/lastmile_qr_scan", "ios": "https://dc.lft.to/lastmile_qr_scan"}, "is_disabled": 0, "fusion_lat": 0.0, "name": "be02d453693e9695a439c0721b77c7eb", "fusion_lon": 0.0}, {"is_reserved": 0, "type": "electric_scooter", "bike_id": "7c0d36b2f84d64bebf47fffebf5032d1", "lat": 38.895981666666664, "lon": -77.0301195, "rental_uris": {"android": "https://dc.lft.to/lastmile_qr_scan", "ios": "https://dc.lft.to/lastmile_qr_scan"}, "is_disabled": 0, "fusion_lat": 0.0, "name": "7c0d36b2f84d64bebf47fffebf5032d1", "fusion_lon": 0.0}, {"is_reserved": 0, "type": "electric_scooter", "bike_id": "0db4702fcbad856e0056ae797b41a85d", "lat": 38.88739966666667, "lon": -77.00348183333334, "rental_uris": {"android": "https://dc.lft.to/lastmile_qr_scan", "ios": "https://dc.lft.to/lastmile_qr_scan"}, "is_disabled": 0, "fusion_lat": 0.0, "name": "0db4702fcbad856e0056ae797b41a85d", "fusion_lon": 0.0}, {"is_reserved": 0, "type": "electric_scooter", "bike_id": "f458e6e06a8b46826ff45ac5b2a19435", "lat": 38.9345225, "lon": -77.02918133333333, "rental_uris": {"android": "https://dc.lft.to/lastmile_qr_scan", "ios": "https://dc.lft.to/lastmile_qr_scan"}, "is_disabled": 0, "fusion_lat": 0.0, "name": "f458e6e06a8b46826ff45ac5b2a19435", "fusion_lon": 0.0}, {"is_reserved": 0, "type": "electric_scooter", "bike_id": "f18585977552d6d81a9cc2a442d08102", "lat": 38.89635483333333, "lon": -76.92799866666667, "rental_uris": {"android": "https://dc.lft.to/lastmile_qr_scan", "ios": "https://dc.lft.to/lastmile_qr_scan"}, "is_disabled": 0, "fusion_lat": 0.0, "name": "f18585977552d6d81a9cc2a442d08102", "fusion_lon": 0.0}, {"is_reserved": 0, "type": "electric_scooter", "bike_id": "1acec67bd33bba3d8f23fe8bf15676e1", "lat": 38.92347066666667, "lon": -77.03502966666667, "rental_uris": {"android": "https://dc.lft.to/lastmile_qr_scan", "ios": "https://dc.lft.to/lastmile_qr_scan"}, "is_disabled": 0, "fusion_lat": 0.0, "name": "1acec67bd33bba3d8f23fe8bf15676e1", "fusion_lon": 0.0}, {"is_reserved": 0, "type": "electric_scooter", "bike_id": "337e347f9db9118dd44c69f17afaf064", "lat": 38.900327, "lon": -76.99650083333333, "rental_uris": {"android": "https://dc.lft.to/lastmile_qr_scan", "ios": "https://dc.lft.to/lastmile_qr_scan"}, "is_disabled": 0, "fusion_lat": 0.0, "name": "337e347f9db9118dd44c69f17afaf064", "fusion_lon": 0.0}, {"is_reserved": 0, "type": "electric_scooter", "bike_id": "4ba36751a50d95b21cd049d2c0d1f3b9", "lat": 38.94592566666667, "lon": -77.02037466666667, "rental_uris": {"android": "https://dc.lft.to/lastmile_qr_scan", "ios": "https://dc.lft.to/lastmile_qr_scan"}, "is_disabled": 0, "fusion_lat": 0.0, "name": "4ba36751a50d95b21cd049d2c0d1f3b9", "fusion_lon": 0.0}, {"is_reserved": 0, "type": "electric_scooter", "bike_id": "a6c7b6079659fa3d612d9e24bc92e5b8", "lat": 38.91225383333333, "lon": -77.01124483333334, "rental_uris": {"android": "https://dc.lft.to/lastmile_qr_scan", "ios": "https://dc.lft.to/lastmile_qr_scan"}, "is_disabled": 0, "fusion_lat": 0.0, "name": "a6c7b6079659fa3d612d9e24bc92e5b8", "fusion_lon": 0.0}, {"is_reserved": 0, "type": "electric_scooter", "bike_id": "c70f4048981f91a6ea261c43f634a2b7", "lat": 38.9255415, "lon": -76.98151633333333, "rental_uris": {"android": "https://dc.lft.to/lastmile_qr_scan", "ios": "https://dc.lft.to/lastmile_qr_scan"}, "is_disabled": 0, "fusion_lat": 0.0, "name": "c70f4048981f91a6ea261c43f634a2b7", "fusion_lon": 0.0}, {"is_reserved": 0, "type": "electric_scooter", "bike_id": "606cd1b19c67db78220bf5758b829cab", "lat": 38.94327833333333, "lon": -77.065255, "rental_uris": {"android": "https://dc.lft.to/lastmile_qr_scan", "ios": "https://dc.lft.to/lastmile_qr_scan"}, "is_disabled": 0, "fusion_lat": 0.0, "name": "606cd1b19c67db78220bf5758b829cab", "fusion_lon": 0.0}, {"is_reserved": 0, "type": "electric_scooter", "bike_id": "8b41edb570594d46ed5b9281e0074f75", "lat": 38.9338215, "lon": -77.02039566666667, "rental_uris": {"android": "https://dc.lft.to/lastmile_qr_scan", "ios": "https://dc.lft.to/lastmile_qr_scan"}, "is_disabled": 0, "fusion_lat": 0.0, "name": "8b41edb570594d46ed5b9281e0074f75", "fusion_lon": 0.0}, {"is_reserved": 0, "type": "electric_scooter", "bike_id": "641842d5264e3f9205398430913e2870", "lat": 38.8729235, "lon": -77.00988466666666, "rental_uris": {"android": "https://dc.lft.to/lastmile_qr_scan", "ios": "https://dc.lft.to/lastmile_qr_scan"}, "is_disabled": 0, "fusion_lat": 0.0, "name": "641842d5264e3f9205398430913e2870", "fusion_lon": 0.0}, {"is_reserved": 0, "type": "electric_scooter", "bike_id": "cbb8a6552a018a0bdc8b5ecda79c4c62", "lat": 38.90442316666667, "lon": -77.06269383333333, "rental_uris": {"android": "https://dc.lft.to/lastmile_qr_scan", "ios": "https://dc.lft.to/lastmile_qr_scan"}, "is_disabled": 0, "fusion_lat": 0.0, "name": "cbb8a6552a018a0bdc8b5ecda79c4c62", "fusion_lon": 0.0}, {"is_reserved": 0, "type": "electric_scooter", "bike_id": "185393ddabb0ae28f380ccae0fc3dbcc", "lat": 38.904028833333335, "lon": -77.01850783333333, "rental_uris": {"android": "https://dc.lft.to/lastmile_qr_scan", "ios": "https://dc.lft.to/lastmile_qr_scan"}, "is_disabled": 0, "fusion_lat": 0.0, "name": "185393ddabb0ae28f380ccae0fc3dbcc", "fusion_lon": 0.0}, {"is_reserved": 0, "type": "electric_scooter", "bike_id": "34609de8125323fd05ca5c24551ba249", "lat": 38.92793183333333, "lon": -77.03087766666667, "rental_uris": {"android": "https://dc.lft.to/lastmile_qr_scan", "ios": "https://dc.lft.to/lastmile_qr_scan"}, "is_disabled": 0, "fusion_lat": 0.0, "name": "34609de8125323fd05ca5c24551ba249", "fusion_lon": 0.0}, {"is_reserved": 0, "type": "electric_scooter", "bike_id": "298c409c3114deb0ce63be21fdcd1934", "lat": 38.892269, "lon": -77.050008, "rental_uris": {"android": "https://dc.lft.to/lastmile_qr_scan", "ios": "https://dc.lft.to/lastmile_qr_scan"}, "is_disabled": 0, "fusion_lat": 0.0, "name": "298c409c3114deb0ce63be21fdcd1934", "fusion_lon": 0.0}, {"is_reserved": 0, "type": "electric_scooter", "bike_id": "1ff72047f760d73d137bafe4a25efaa6", "lat": 38.92066716666667, "lon": -77.025098, "rental_uris": {"android": "https://dc.lft.to/lastmile_qr_scan", "ios": "https://dc.lft.to/lastmile_qr_scan"}, "is_disabled": 0, "fusion_lat": 0.0, "name": "1ff72047f760d73d137bafe4a25efaa6", "fusion_lon": 0.0}, {"is_reserved": 0, "type": "electric_scooter", "bike_id": "8e8dd7ed1e99fe4ece94a38bd925dfef", "lat": 38.92336266666667, "lon": -77.0466715, "rental_uris": {"android": "https://dc.lft.to/lastmile_qr_scan", "ios": "https://dc.lft.to/lastmile_qr_scan"}, "is_disabled": 0, "fusion_lat": 0.0, "name": "8e8dd7ed1e99fe4ece94a38bd925dfef", "fusion_lon": 0.0}, {"is_reserved": 0, "type": "electric_scooter", "bike_id": "1dd6ff0919644aa5e643d7f3cd148046", "lat": 38.897291, "lon": -77.05524266666667, "rental_uris": {"android": "https://dc.lft.to/lastmile_qr_scan", "ios": "https://dc.lft.to/lastmile_qr_scan"}, "is_disabled": 0, "fusion_lat": 0.0, "name": "1dd6ff0919644aa5e643d7f3cd148046", "fusion_lon": 0.0}, {"is_reserved": 0, "type": "electric_bike", "bike_id": "d1d6663cd920abb9895b13058ac70061", "lat": 38.95755883333333, "lon": -76.96745883333334, "rental_uris": {"android": "https://dc.lft.to/lastmile_qr_scan", "ios": "https://dc.lft.to/lastmile_qr_scan"}, "is_disabled": 0, "fusion_lat": 0.0, "name": "d1d6663cd920abb9895b13058ac70061", "fusion_lon": 0.0}, {"is_reserved": 0, "type": "electric_scooter", "bike_id": "c27299047889f813c0a4089f50e0667e", "lat": 38.89220433333333, "lon": -77.02420016666666, "rental_uris": {"android": "https://dc.lft.to/lastmile_qr_scan", "ios": "https://dc.lft.to/lastmile_qr_scan"}, "is_disabled": 0, "fusion_lat": 0.0, "name": "c27299047889f813c0a4089f50e0667e", "fusion_lon": 0.0}, {"is_reserved": 0, "type": "electric_scooter", "bike_id": "d1763197dbcfa657fab983a3aaf39b7f", "lat": 38.925586333333335, "lon": -77.03659933333333, "rental_uris": {"android": "https://dc.lft.to/lastmile_qr_scan", "ios": "https://dc.lft.to/lastmile_qr_scan"}, "is_disabled": 0, "fusion_lat": 0.0, "name": "d1763197dbcfa657fab983a3aaf39b7f", "fusion_lon": 0.0}, {"is_reserved": 0, "type": "electric_bike", "bike_id": "cafe9435324ed09d0187d3408f15053d", "lat": 38.80867683333334, "lon": -77.112571, "rental_uris": {"android": "https://dc.lft.to/lastmile_qr_scan", "ios": "https://dc.lft.to/lastmile_qr_scan"}, "is_disabled": 0, "fusion_lat": 0.0, "name": "cafe9435324ed09d0187d3408f15053d", "fusion_lon": 0.0}, {"is_reserved": 0, "type": "electric_scooter", "bike_id": "ec1ab3057e6d0854d9092463dc249399", "lat": 38.92519266666667, "lon": -77.02567316666666, "rental_uris": {"android": "https://dc.lft.to/lastmile_qr_scan", "ios": "https://dc.lft.to/lastmile_qr_scan"}, "is_disabled": 0, "fusion_lat": 0.0, "name": "ec1ab3057e6d0854d9092463dc249399", "fusion_lon": 0.0}, {"is_reserved": 0, "type": "electric_scooter", "bike_id": "bb2dab1e966d2c712f7bfe49c896c206", "lat": 38.89039266666666, "lon": -76.93754716666666, "rental_uris": {"android": "https://dc.lft.to/lastmile_qr_scan", "ios": "https://dc.lft.to/lastmile_qr_scan"}, "is_disabled": 0, "fusion_lat": 0.0, "name": "bb2dab1e966d2c712f7bfe49c896c206", "fusion_lon": 0.0}, {"is_reserved": 0, "type": "electric_scooter", "bike_id": "753309c592d8fa461d14c7914e629f17", "lat": 38.9200155, "lon": -77.03883016666667, "rental_uris": {"android": "https://dc.lft.to/lastmile_qr_scan", "ios": "https://dc.lft.to/lastmile_qr_scan"}, "is_disabled": 0, "fusion_lat": 0.0, "name": "753309c592d8fa461d14c7914e629f17", "fusion_lon": 0.0}, {"is_reserved": 0, "type": "electric_scooter", "bike_id": "cfaddaa374829956908f0bfe935e6e29", "lat": 38.93589433333333, "lon": -77.05876566666667, "rental_uris": {"android": "https://dc.lft.to/lastmile_qr_scan", "ios": "https://dc.lft.to/lastmile_qr_scan"}, "is_disabled": 0, "fusion_lat": 0.0, "name": "cfaddaa374829956908f0bfe935e6e29", "fusion_lon": 0.0}, {"is_reserved": 0, "type": "electric_bike", "bike_id": "24922716aeed3893fef246b1b92db088", "lat": 38.900513333333336, "lon": -76.97794483333334, "rental_uris": {"android": "https://dc.lft.to/lastmile_qr_scan", "ios": "https://dc.lft.to/lastmile_qr_scan"}, "is_disabled": 0, "fusion_lat": 0.0, "name": "24922716aeed3893fef246b1b92db088", "fusion_lon": 0.0}, {"is_reserved": 0, "type": "electric_scooter", "bike_id": "fdcdf17b6ea762c4decbde4d6304775c", "lat": 38.872713166666664, "lon": -77.01709383333333, "rental_uris": {"android": "https://dc.lft.to/lastmile_qr_scan", "ios": "https://dc.lft.to/lastmile_qr_scan"}, "is_disabled": 0, "fusion_lat": 0.0, "name": "fdcdf17b6ea762c4decbde4d6304775c", "fusion_lon": 0.0}, {"is_reserved": 0, "type": "electric_scooter", "bike_id": "aa8d9bb082f6ac2883e325462a64e7ef", "lat": 38.87152866666667, "lon": -77.01319683333334, "rental_uris": {"android": "https://dc.lft.to/lastmile_qr_scan", "ios": "https://dc.lft.to/lastmile_qr_scan"}, "is_disabled": 0, "fusion_lat": 0.0, "name": "aa8d9bb082f6ac2883e325462a64e7ef", "fusion_lon": 0.0}, {"is_reserved": 0, "type": "electric_scooter", "bike_id": "c6c06818d1efd90269132bea30faa6d5", "lat": 38.923638, "lon": -77.01920583333333, "rental_uris": {"android": "https://dc.lft.to/lastmile_qr_scan", "ios": "https://dc.lft.to/lastmile_qr_scan"}, "is_disabled": 0, "fusion_lat": 0.0, "name": "c6c06818d1efd90269132bea30faa6d5", "fusion_lon": 0.0}, {"is_reserved": 0, "type": "electric_scooter", "bike_id": "bd1e0f6d588715046c19b998d36576d9", "lat": 38.912594166666665, "lon": -77.030339, "rental_uris": {"android": "https://dc.lft.to/lastmile_qr_scan", "ios": "https://dc.lft.to/lastmile_qr_scan"}, "is_disabled": 0, "fusion_lat": 0.0, "name": "bd1e0f6d588715046c19b998d36576d9", "fusion_lon": 0.0}, {"is_reserved": 0, "type": "electric_scooter", "bike_id": "8d79ef8e44b544c3a23b1178c3e52909", "lat": 38.914222333333335, "lon": -77.02214516666666, "rental_uris": {"android": "https://dc.lft.to/lastmile_qr_scan", "ios": "https://dc.lft.to/lastmile_qr_scan"}, "is_disabled": 0, "fusion_lat": 0.0, "name": "8d79ef8e44b544c3a23b1178c3e52909", "fusion_lon": 0.0}, {"is_reserved": 0, "type": "electric_scooter", "bike_id": "af48ff3d06b5e2dd2e0f95ba676923c3", "lat": 38.92115966666667, "lon": -77.04215766666667, "rental_uris": {"android": "https://dc.lft.to/lastmile_qr_scan", "ios": "https://dc.lft.to/lastmile_qr_scan"}, "is_disabled": 0, "fusion_lat": 0.0, "name": "af48ff3d06b5e2dd2e0f95ba676923c3", "fusion_lon": 0.0}, {"is_reserved": 0, "type": "electric_scooter", "bike_id": "0cdc4cfd28d810fb8edf4543bd96ce95", "lat": 38.93105383333334, "lon": -77.02393066666667, "rental_uris": {"android": "https://dc.lft.to/lastmile_qr_scan", "ios": "https://dc.lft.to/lastmile_qr_scan"}, "is_disabled": 0, "fusion_lat": 0.0, "name": "0cdc4cfd28d810fb8edf4543bd96ce95", "fusion_lon": 0.0}, {"is_reserved": 0, "type": "electric_bike", "bike_id": "0109cb7bf8277cec7e85ba2648a8973b", "lat": 38.9731715, "lon": -76.99487166666667, "rental_uris": {"android": "https://dc.lft.to/lastmile_qr_scan", "ios": "https://dc.lft.to/lastmile_qr_scan"}, "is_disabled": 0, "fusion_lat": 0.0, "name": "0109cb7bf8277cec7e85ba2648a8973b", "fusion_lon": 0.0}, {"is_reserved": 0, "type": "electric_scooter", "bike_id": "a37291d51d597531ca72f9a824ab9887", "lat": 38.89904583333333, "lon": -76.98005666666667, "rental_uris": {"android": "https://dc.lft.to/lastmile_qr_scan", "ios": "https://dc.lft.to/lastmile_qr_scan"}, "is_disabled": 0, "fusion_lat": 0.0, "name": "a37291d51d597531ca72f9a824ab9887", "fusion_lon": 0.0}, {"is_reserved": 0, "type": "electric_scooter", "bike_id": "e9c473d30539b40cf3723706f139a7ef", "lat": 38.91480933333333, "lon": -77.0318005, "rental_uris": {"android": "https://dc.lft.to/lastmile_qr_scan", "ios": "https://dc.lft.to/lastmile_qr_scan"}, "is_disabled": 0, "fusion_lat": 0.0, "name": "e9c473d30539b40cf3723706f139a7ef", "fusion_lon": 0.0}, {"is_reserved": 0, "type": "electric_scooter", "bike_id": "daa2c9e35687d61a2a7c7d8aca9206ba", "lat": 38.9282505, "lon": -77.06218066666666, "rental_uris": {"android": "https://dc.lft.to/lastmile_qr_scan", "ios": "https://dc.lft.to/lastmile_qr_scan"}, "is_disabled": 0, "fusion_lat": 0.0, "name": "daa2c9e35687d61a2a7c7d8aca9206ba", "fusion_lon": 0.0}, {"is_reserved": 0, "type": "electric_scooter", "bike_id": "113d03422af3b2aedc0244535dbd6051", "lat": 38.88728233333333, "lon": -77.0221665, "rental_uris": {"android": "https://dc.lft.to/lastmile_qr_scan", "ios": "https://dc.lft.to/lastmile_qr_scan"}, "is_disabled": 0, "fusion_lat": 0.0, "name": "113d03422af3b2aedc0244535dbd6051", "fusion_lon": 0.0}, {"is_reserved": 0, "type": "electric_scooter", "bike_id": "f8384acff97d1e95cd054e0b92fb8f9a", "lat": 38.9359585, "lon": -77.0337145, "rental_uris": {"android": "https://dc.lft.to/lastmile_qr_scan", "ios": "https://dc.lft.to/lastmile_qr_scan"}, "is_disabled": 0, "fusion_lat": 0.0, "name": "f8384acff97d1e95cd054e0b92fb8f9a", "fusion_lon": 0.0}, {"is_reserved": 0, "type": "electric_scooter", "bike_id": "d64fabdc6e02af059c4ae1461e01b157", "lat": 38.91419366666667, "lon": -77.028301, "rental_uris": {"android": "https://dc.lft.to/lastmile_qr_scan", "ios": "https://dc.lft.to/lastmile_qr_scan"}, "is_disabled": 0, "fusion_lat": 0.0, "name": "d64fabdc6e02af059c4ae1461e01b157", "fusion_lon": 0.0}, {"is_reserved": 0, "type": "electric_scooter", "bike_id": "ceeea5070b9c9528dd21548ca0d0a382", "lat": 38.903741833333335, "lon": -77.021959, "rental_uris": {"android": "https://dc.lft.to/lastmile_qr_scan", "ios": "https://dc.lft.to/lastmile_qr_scan"}, "is_disabled": 0, "fusion_lat": 0.0, "name": "ceeea5070b9c9528dd21548ca0d0a382", "fusion_lon": 0.0}, {"is_reserved": 0, "type": "electric_scooter", "bike_id": "84e9377e8e5cf1ff4bd764d2b82413b4", "lat": 38.91922, "lon": -77.07272283333333, "rental_uris": {"android": "https://dc.lft.to/lastmile_qr_scan", "ios": "https://dc.lft.to/lastmile_qr_scan"}, "is_disabled": 0, "fusion_lat": 0.0, "name": "84e9377e8e5cf1ff4bd764d2b82413b4", "fusion_lon": 0.0}, {"is_reserved": 0, "type": "electric_scooter", "bike_id": "f18da84c0be79468d357f83b1be81931", "lat": 38.89299783333333, "lon": -77.01234416666667, "rental_uris": {"android": "https://dc.lft.to/lastmile_qr_scan", "ios": "https://dc.lft.to/lastmile_qr_scan"}, "is_disabled": 0, "fusion_lat": 0.0, "name": "f18da84c0be79468d357f83b1be81931", "fusion_lon": 0.0}, {"is_reserved": 0, "type": "electric_bike", "bike_id": "5b04908bbdbeb0429890561f4d39cd25", "lat": 38.943266, "lon": -76.99016983333334, "rental_uris": {"android": "https://dc.lft.to/lastmile_qr_scan", "ios": "https://dc.lft.to/lastmile_qr_scan"}, "is_disabled": 0, "fusion_lat": 0.0, "name": "5b04908bbdbeb0429890561f4d39cd25", "fusion_lon": 0.0}, {"is_reserved": 0, "type": "electric_scooter", "bike_id": "1de080fdd34fd2593b6f7bf925e40046", "lat": 38.914681333333334, "lon": -77.02293833333333, "rental_uris": {"android": "https://dc.lft.to/lastmile_qr_scan", "ios": "https://dc.lft.to/lastmile_qr_scan"}, "is_disabled": 0, "fusion_lat": 0.0, "name": "1de080fdd34fd2593b6f7bf925e40046", "fusion_lon": 0.0}, {"is_reserved": 0, "type": "electric_scooter", "bike_id": "a33650c7cc337b6277101caf8c261cb6", "lat": 38.907139, "lon": -76.98560733333333, "rental_uris": {"android": "https://dc.lft.to/lastmile_qr_scan", "ios": "https://dc.lft.to/lastmile_qr_scan"}, "is_disabled": 0, "fusion_lat": 0.0, "name": "a33650c7cc337b6277101caf8c261cb6", "fusion_lon": 0.0}, {"is_reserved": 0, "type": "electric_bike", "bike_id": "0911941ce7534e8fda010fd8eef1d5e6", "lat": 38.80678783333333, "lon": -77.08762216666666, "rental_uris": {"android": "https://dc.lft.to/lastmile_qr_scan", "ios": "https://dc.lft.to/lastmile_qr_scan"}, "is_disabled": 0, "fusion_lat": 0.0, "name": "0911941ce7534e8fda010fd8eef1d5e6", "fusion_lon": 0.0}, {"is_reserved": 0, "type": "electric_scooter", "bike_id": "5dc05f607cd09292ae1a6f479038adb3", "lat": 38.91268433333333, "lon": -77.03872066666666, "rental_uris": {"android": "https://dc.lft.to/lastmile_qr_scan", "ios": "https://dc.lft.to/lastmile_qr_scan"}, "is_disabled": 0, "fusion_lat": 0.0, "name": "5dc05f607cd09292ae1a6f479038adb3", "fusion_lon": 0.0}, {"is_reserved": 0, "type": "electric_scooter", "bike_id": "a73c64d5265dff861b3242dafc332bcf", "lat": 38.90587716666667, "lon": -77.0364455, "rental_uris": {"android": "https://dc.lft.to/lastmile_qr_scan", "ios": "https://dc.lft.to/lastmile_qr_scan"}, "is_disabled": 0, "fusion_lat": 0.0, "name": "a73c64d5265dff861b3242dafc332bcf", "fusion_lon": 0.0}, {"is_reserved": 0, "type": "electric_bike", "bike_id": "9b2bf28d931858a07701c05ecfccf1ab", "lat": 38.872120833333334, "lon": -77.117452, "rental_uris": {"android": "https://dc.lft.to/lastmile_qr_scan", "ios": "https://dc.lft.to/lastmile_qr_scan"}, "is_disabled": 0, "fusion_lat": 0.0, "name": "9b2bf28d931858a07701c05ecfccf1ab", "fusion_lon": 0.0}, {"is_reserved": 0, "type": "electric_scooter", "bike_id": "f1e88eb15024a4992a28dcf781ba9ec8", "lat": 38.89867183333333, "lon": -76.97768783333333, "rental_uris": {"android": "https://dc.lft.to/lastmile_qr_scan", "ios": "https://dc.lft.to/lastmile_qr_scan"}, "is_disabled": 0, "fusion_lat": 0.0, "name": "f1e88eb15024a4992a28dcf781ba9ec8", "fusion_lon": 0.0}, {"is_reserved": 0, "type": "electric_scooter", "bike_id": "2d503d41bfdaaf70b630bff5769f1740", "lat": 38.91855483333333, "lon": -77.0364065, "rental_uris": {"android": "https://dc.lft.to/lastmile_qr_scan", "ios": "https://dc.lft.to/lastmile_qr_scan"}, "is_disabled": 0, "fusion_lat": 0.0, "name": "2d503d41bfdaaf70b630bff5769f1740", "fusion_lon": 0.0}, {"is_reserved": 0, "type": "electric_bike", "bike_id": "821698e28bb11dd434c70078a024149d", "lat": 38.857890833333336, "lon": -76.987607, "rental_uris": {"android": "https://dc.lft.to/lastmile_qr_scan", "ios": "https://dc.lft.to/lastmile_qr_scan"}, "is_disabled": 0, "fusion_lat": 0.0, "name": "821698e28bb11dd434c70078a024149d", "fusion_lon": 0.0}, {"is_reserved": 0, "type": "electric_scooter", "bike_id": "ad6a10ccd541a992525000235f6adb35", "lat": 38.90123666666667, "lon": -77.03666333333334, "rental_uris": {"android": "https://dc.lft.to/lastmile_qr_scan", "ios": "https://dc.lft.to/lastmile_qr_scan"}, "is_disabled": 0, "fusion_lat": 0.0, "name": "ad6a10ccd541a992525000235f6adb35", "fusion_lon": 0.0}, {"is_reserved": 0, "type": "electric_bike", "bike_id": "b7d7a1a7407525c61e7bedd8c0a72ef3", "lat": 38.85604133333333, "lon": -76.974578, "rental_uris": {"android": "https://dc.lft.to/lastmile_qr_scan", "ios": "https://dc.lft.to/lastmile_qr_scan"}, "is_disabled": 0, "fusion_lat": 0.0, "name": "b7d7a1a7407525c61e7bedd8c0a72ef3", "fusion_lon": 0.0}, {"is_reserved": 0, "type": "electric_scooter", "bike_id": "dc32725a1cb356d04e417827bb133794", "lat": 38.91412733333333, "lon": -77.03139416666667, "rental_uris": {"android": "https://dc.lft.to/lastmile_qr_scan", "ios": "https://dc.lft.to/lastmile_qr_scan"}, "is_disabled": 0, "fusion_lat": 0.0, "name": "dc32725a1cb356d04e417827bb133794", "fusion_lon": 0.0}, {"is_reserved": 0, "type": "electric_scooter", "bike_id": "5f83eab9dd47dd4480ce892a52c80295", "lat": 38.92123566666667, "lon": -77.01215066666667, "rental_uris": {"android": "https://dc.lft.to/lastmile_qr_scan", "ios": "https://dc.lft.to/lastmile_qr_scan"}, "is_disabled": 0, "fusion_lat": 0.0, "name": "5f83eab9dd47dd4480ce892a52c80295", "fusion_lon": 0.0}, {"is_reserved": 0, "type": "electric_scooter", "bike_id": "985d5eaa9e33cf111ceabfe07b59fc8c", "lat": 38.91728783333333, "lon": -77.03689433333334, "rental_uris": {"android": "https://dc.lft.to/lastmile_qr_scan", "ios": "https://dc.lft.to/lastmile_qr_scan"}, "is_disabled": 0, "fusion_lat": 0.0, "name": "985d5eaa9e33cf111ceabfe07b59fc8c", "fusion_lon": 0.0}, {"is_reserved": 0, "type": "electric_scooter", "bike_id": "cebb7b497442d007e9d341a74536445c", "lat": 38.91968766666667, "lon": -77.0143955, "rental_uris": {"android": "https://dc.lft.to/lastmile_qr_scan", "ios": "https://dc.lft.to/lastmile_qr_scan"}, "is_disabled": 0, "fusion_lat": 0.0, "name": "cebb7b497442d007e9d341a74536445c", "fusion_lon": 0.0}, {"is_reserved": 0, "type": "electric_scooter", "bike_id": "4fa65c34981a6b667ae68710c8aea5c3", "lat": 38.921457, "lon": -77.04719383333334, "rental_uris": {"android": "https://dc.lft.to/lastmile_qr_scan", "ios": "https://dc.lft.to/lastmile_qr_scan"}, "is_disabled": 0, "fusion_lat": 0.0, "name": "4fa65c34981a6b667ae68710c8aea5c3", "fusion_lon": 0.0}, {"is_reserved": 0, "type": "electric_scooter", "bike_id": "2da14f3c540031c3339d2065cb62bad0", "lat": 38.90048783333334, "lon": -77.04337166666667, "rental_uris": {"android": "https://dc.lft.to/lastmile_qr_scan", "ios": "https://dc.lft.to/lastmile_qr_scan"}, "is_disabled": 0, "fusion_lat": 0.0, "name": "2da14f3c540031c3339d2065cb62bad0", "fusion_lon": 0.0}, {"is_reserved": 0, "type": "electric_scooter", "bike_id": "22cf962daaabd465bc8209ecc7fd217d", "lat": 38.938954333333335, "lon": -77.01767533333333, "rental_uris": {"android": "https://dc.lft.to/lastmile_qr_scan", "ios": "https://dc.lft.to/lastmile_qr_scan"}, "is_disabled": 0, "fusion_lat": 0.0, "name": "22cf962daaabd465bc8209ecc7fd217d", "fusion_lon": 0.0}, {"is_reserved": 0, "type": "electric_scooter", "bike_id": "fd5c7ed9a5abbac0a174d026bb7e668d", "lat": 38.9167515, "lon": -77.0297585, "rental_uris": {"android": "https://dc.lft.to/lastmile_qr_scan", "ios": "https://dc.lft.to/lastmile_qr_scan"}, "is_disabled": 0, "fusion_lat": 0.0, "name": "fd5c7ed9a5abbac0a174d026bb7e668d", "fusion_lon": 0.0}, {"is_reserved": 0, "type": "electric_scooter", "bike_id": "6b84283638e916f309646ff5d353dae0", "lat": 38.919236833333336, "lon": -77.03424666666666, "rental_uris": {"android": "https://dc.lft.to/lastmile_qr_scan", "ios": "https://dc.lft.to/lastmile_qr_scan"}, "is_disabled": 0, "fusion_lat": 0.0, "name": "6b84283638e916f309646ff5d353dae0", "fusion_lon": 0.0}, {"is_reserved": 0, "type": "electric_scooter", "bike_id": "919bf2159234ee080205ff3e578c1ffc", "lat": 38.920562333333336, "lon": -77.01699133333334, "rental_uris": {"android": "https://dc.lft.to/lastmile_qr_scan", "ios": "https://dc.lft.to/lastmile_qr_scan"}, "is_disabled": 0, "fusion_lat": 0.0, "name": "919bf2159234ee080205ff3e578c1ffc", "fusion_lon": 0.0}, {"is_reserved": 0, "type": "electric_scooter", "bike_id": "117752b1b9f23646b0b5738025106871", "lat": 38.92656483333333, "lon": -77.037138, "rental_uris": {"android": "https://dc.lft.to/lastmile_qr_scan", "ios": "https://dc.lft.to/lastmile_qr_scan"}, "is_disabled": 0, "fusion_lat": 0.0, "name": "117752b1b9f23646b0b5738025106871", "fusion_lon": 0.0}, {"is_reserved": 0, "type": "electric_bike", "bike_id": "d94b8b40069c77824c5aefd9a9e27b6d", "lat": 39.084941, "lon": -76.95062033333333, "rental_uris": {"android": "https://dc.lft.to/lastmile_qr_scan", "ios": "https://dc.lft.to/lastmile_qr_scan"}, "is_disabled": 0, "fusion_lat": 0.0, "name": "d94b8b40069c77824c5aefd9a9e27b6d", "fusion_lon": 0.0}, {"is_reserved": 0, "type": "electric_scooter", "bike_id": "5978eb004f5b05fc745531c8e1d3283d", "lat": 38.956210166666665, "lon": -77.00325966666666, "rental_uris": {"android": "https://dc.lft.to/lastmile_qr_scan", "ios": "https://dc.lft.to/lastmile_qr_scan"}, "is_disabled": 0, "fusion_lat": 0.0, "name": "5978eb004f5b05fc745531c8e1d3283d", "fusion_lon": 0.0}, {"is_reserved": 0, "type": "electric_scooter", "bike_id": "da67896c256ae33ea74a9a56033831cf", "lat": 38.91017016666667, "lon": -77.0440065, "rental_uris": {"android": "https://dc.lft.to/lastmile_qr_scan", "ios": "https://dc.lft.to/lastmile_qr_scan"}, "is_disabled": 0, "fusion_lat": 0.0, "name": "da67896c256ae33ea74a9a56033831cf", "fusion_lon": 0.0}, {"is_reserved": 0, "type": "electric_scooter", "bike_id": "13bee60c9e32a55c184f07426d926b26", "lat": 38.91803916666667, "lon": -77.03442716666666, "rental_uris": {"android": "https://dc.lft.to/lastmile_qr_scan", "ios": "https://dc.lft.to/lastmile_qr_scan"}, "is_disabled": 0, "fusion_lat": 0.0, "name": "13bee60c9e32a55c184f07426d926b26", "fusion_lon": 0.0}, {"is_reserved": 0, "type": "electric_scooter", "bike_id": "34b838c0f6f3ea770bbb7b843a2b2f22", "lat": 38.9065135, "lon": -77.01201933333333, "rental_uris": {"android": "https://dc.lft.to/lastmile_qr_scan", "ios": "https://dc.lft.to/lastmile_qr_scan"}, "is_disabled": 0, "fusion_lat": 0.0, "name": "34b838c0f6f3ea770bbb7b843a2b2f22", "fusion_lon": 0.0}, {"is_reserved": 0, "type": "electric_scooter", "bike_id": "3ebc13c48be834abb457c094b6e4fc96", "lat": 38.9574905, "lon": -77.03019766666667, "rental_uris": {"android": "https://dc.lft.to/lastmile_qr_scan", "ios": "https://dc.lft.to/lastmile_qr_scan"}, "is_disabled": 0, "fusion_lat": 0.0, "name": "3ebc13c48be834abb457c094b6e4fc96", "fusion_lon": 0.0}, {"is_reserved": 0, "type": "electric_scooter", "bike_id": "96be8821a8fdfe2478e1a5d56ead2373", "lat": 38.8952805, "lon": -77.04471983333333, "rental_uris": {"android": "https://dc.lft.to/lastmile_qr_scan", "ios": "https://dc.lft.to/lastmile_qr_scan"}, "is_disabled": 0, "fusion_lat": 0.0, "name": "96be8821a8fdfe2478e1a5d56ead2373", "fusion_lon": 0.0}, {"is_reserved": 0, "type": "electric_scooter", "bike_id": "1be7dd2760350a60b26ef456594988f4", "lat": 38.91486166666667, "lon": -77.0323915, "rental_uris": {"android": "https://dc.lft.to/lastmile_qr_scan", "ios": "https://dc.lft.to/lastmile_qr_scan"}, "is_disabled": 0, "fusion_lat": 0.0, "name": "1be7dd2760350a60b26ef456594988f4", "fusion_lon": 0.0}, {"is_reserved": 0, "type": "electric_scooter", "bike_id": "5c5308ae94589f8a85d40e2748c1ea7f", "lat": 38.8974585, "lon": -76.99765966666666, "rental_uris": {"android": "https://dc.lft.to/lastmile_qr_scan", "ios": "https://dc.lft.to/lastmile_qr_scan"}, "is_disabled": 0, "fusion_lat": 0.0, "name": "5c5308ae94589f8a85d40e2748c1ea7f", "fusion_lon": 0.0}, {"is_reserved": 0, "type": "electric_bike", "bike_id": "2f5a43ec79845a8aa1312fe34b10f75c", "lat": 38.946711, "lon": -76.99339933333333, "rental_uris": {"android": "https://dc.lft.to/lastmile_qr_scan", "ios": "https://dc.lft.to/lastmile_qr_scan"}, "is_disabled": 0, "fusion_lat": 0.0, "name": "2f5a43ec79845a8aa1312fe34b10f75c", "fusion_lon": 0.0}, {"is_reserved": 0, "type": "electric_scooter", "bike_id": "d6c7532c85f589f83f559db9475667eb", "lat": 38.916484833333335, "lon": -77.02381533333333, "rental_uris": {"android": "https://dc.lft.to/lastmile_qr_scan", "ios": "https://dc.lft.to/lastmile_qr_scan"}, "is_disabled": 0, "fusion_lat": 0.0, "name": "d6c7532c85f589f83f559db9475667eb", "fusion_lon": 0.0}, {"is_reserved": 0, "type": "electric_bike", "bike_id": "ea2e72c64ea0b66ea3cdd4d4000a0776", "lat": 38.886054666666666, "lon": -77.14234366666666, "rental_uris": {"android": "https://dc.lft.to/lastmile_qr_scan", "ios": "https://dc.lft.to/lastmile_qr_scan"}, "is_disabled": 0, "fusion_lat": 0.0, "name": "ea2e72c64ea0b66ea3cdd4d4000a0776", "fusion_lon": 0.0}, {"is_reserved": 0, "type": "electric_scooter", "bike_id": "bdefc417287a3b5b211aabaa4111a370", "lat": 38.91556216666667, "lon": -77.03993816666667, "rental_uris": {"android": "https://dc.lft.to/lastmile_qr_scan", "ios": "https://dc.lft.to/lastmile_qr_scan"}, "is_disabled": 0, "fusion_lat": 0.0, "name": "bdefc417287a3b5b211aabaa4111a370", "fusion_lon": 0.0}, {"is_reserved": 0, "type": "electric_scooter", "bike_id": "a7f076c7297967db9f3fb83ae3f23851", "lat": 38.899271, "lon": -77.0329245, "rental_uris": {"android": "https://dc.lft.to/lastmile_qr_scan", "ios": "https://dc.lft.to/lastmile_qr_scan"}, "is_disabled": 0, "fusion_lat": 0.0, "name": "a7f076c7297967db9f3fb83ae3f23851", "fusion_lon": 0.0}, {"is_reserved": 0, "type": "electric_scooter", "bike_id": "b5d48424144247acb770f31266ac1d22", "lat": 38.918785666666665, "lon": -77.0364655, "rental_uris": {"android": "https://dc.lft.to/lastmile_qr_scan", "ios": "https://dc.lft.to/lastmile_qr_scan"}, "is_disabled": 0, "fusion_lat": 0.0, "name": "b5d48424144247acb770f31266ac1d22", "fusion_lon": 0.0}, {"is_reserved": 0, "type": "electric_scooter", "bike_id": "2077ee59937217d0e032c5f0f89c2630", "lat": 38.912577666666664, "lon": -77.0077725, "rental_uris": {"android": "https://dc.lft.to/lastmile_qr_scan", "ios": "https://dc.lft.to/lastmile_qr_scan"}, "is_disabled": 0, "fusion_lat": 0.0, "name": "2077ee59937217d0e032c5f0f89c2630", "fusion_lon": 0.0}, {"is_reserved": 0, "type": "electric_scooter", "bike_id": "48dc9572ae2485f2390272d2f99a9352", "lat": 38.9054605, "lon": -77.041588, "rental_uris": {"android": "https://dc.lft.to/lastmile_qr_scan", "ios": "https://dc.lft.to/lastmile_qr_scan"}, "is_disabled": 0, "fusion_lat": 0.0, "name": "48dc9572ae2485f2390272d2f99a9352", "fusion_lon": 0.0}, {"is_reserved": 0, "type": "electric_scooter", "bike_id": "358b8b45c353a69cbab21f1468e608e8", "lat": 38.90374333333333, "lon": -77.03207116666667, "rental_uris": {"android": "https://dc.lft.to/lastmile_qr_scan", "ios": "https://dc.lft.to/lastmile_qr_scan"}, "is_disabled": 0, "fusion_lat": 0.0, "name": "358b8b45c353a69cbab21f1468e608e8", "fusion_lon": 0.0}, {"is_reserved": 0, "type": "electric_scooter", "bike_id": "ed54511adfd0308a265173d3a9374797", "lat": 38.9169655, "lon": -77.02601533333333, "rental_uris": {"android": "https://dc.lft.to/lastmile_qr_scan", "ios": "https://dc.lft.to/lastmile_qr_scan"}, "is_disabled": 0, "fusion_lat": 0.0, "name": "ed54511adfd0308a265173d3a9374797", "fusion_lon": 0.0}, {"is_reserved": 0, "type": "electric_scooter", "bike_id": "27bc220c8482284f484022f7b8070c17", "lat": 38.89193133333333, "lon": -77.02177883333333, "rental_uris": {"android": "https://dc.lft.to/lastmile_qr_scan", "ios": "https://dc.lft.to/lastmile_qr_scan"}, "is_disabled": 0, "fusion_lat": 0.0, "name": "27bc220c8482284f484022f7b8070c17", "fusion_lon": 0.0}, {"is_reserved": 0, "type": "electric_scooter", "bike_id": "5472aff79e0dd940e77e8f659f892930", "lat": 38.89219583333333, "lon": -77.02625733333333, "rental_uris": {"android": "https://dc.lft.to/lastmile_qr_scan", "ios": "https://dc.lft.to/lastmile_qr_scan"}, "is_disabled": 0, "fusion_lat": 0.0, "name": "5472aff79e0dd940e77e8f659f892930", "fusion_lon": 0.0}, {"is_reserved": 0, "type": "electric_bike", "bike_id": "d6f991d77600ade8f169f5c8d5b38df3", "lat": 38.894060833333334, "lon": -76.86849483333333, "rental_uris": {"android": "https://dc.lft.to/lastmile_qr_scan", "ios": "https://dc.lft.to/lastmile_qr_scan"}, "is_disabled": 0, "fusion_lat": 0.0, "name": "d6f991d77600ade8f169f5c8d5b38df3", "fusion_lon": 0.0}, {"is_reserved": 0, "type": "electric_scooter", "bike_id": "f5fbd51d8749dd225865e4c66818f80c", "lat": 38.923321, "lon": -77.00895733333333, "rental_uris": {"android": "https://dc.lft.to/lastmile_qr_scan", "ios": "https://dc.lft.to/lastmile_qr_scan"}, "is_disabled": 0, "fusion_lat": 0.0, "name": "f5fbd51d8749dd225865e4c66818f80c", "fusion_lon": 0.0}, {"is_reserved": 0, "type": "electric_scooter", "bike_id": "1c1c4e113a4030b2ac2c096ef7ceefa6", "lat": 38.91850133333333, "lon": -77.04114183333333, "rental_uris": {"android": "https://dc.lft.to/lastmile_qr_scan", "ios": "https://dc.lft.to/lastmile_qr_scan"}, "is_disabled": 0, "fusion_lat": 0.0, "name": "1c1c4e113a4030b2ac2c096ef7ceefa6", "fusion_lon": 0.0}, {"is_reserved": 0, "type": "electric_scooter", "bike_id": "1b81f42526757ca03cec3d5d4e0d4546", "lat": 38.904107333333336, "lon": -76.97331083333333, "rental_uris": {"android": "https://dc.lft.to/lastmile_qr_scan", "ios": "https://dc.lft.to/lastmile_qr_scan"}, "is_disabled": 0, "fusion_lat": 0.0, "name": "1b81f42526757ca03cec3d5d4e0d4546", "fusion_lon": 0.0}, {"is_reserved": 0, "type": "electric_scooter", "bike_id": "1bb72497a3e3daeab1a1388b6178fc94", "lat": 38.90688983333333, "lon": -77.01542133333334, "rental_uris": {"android": "https://dc.lft.to/lastmile_qr_scan", "ios": "https://dc.lft.to/lastmile_qr_scan"}, "is_disabled": 0, "fusion_lat": 0.0, "name": "1bb72497a3e3daeab1a1388b6178fc94", "fusion_lon": 0.0}, {"is_reserved": 0, "type": "electric_scooter", "bike_id": "28543ee81e79e63cb77be6bab0a46d88", "lat": 38.920346333333335, "lon": -77.01735833333333, "rental_uris": {"android": "https://dc.lft.to/lastmile_qr_scan", "ios": "https://dc.lft.to/lastmile_qr_scan"}, "is_disabled": 0, "fusion_lat": 0.0, "name": "28543ee81e79e63cb77be6bab0a46d88", "fusion_lon": 0.0}, {"is_reserved": 0, "type": "electric_scooter", "bike_id": "1976427ac7b14f8d14fca1b83b980573", "lat": 38.899679166666665, "lon": -77.04487683333333, "rental_uris": {"android": "https://dc.lft.to/lastmile_qr_scan", "ios": "https://dc.lft.to/lastmile_qr_scan"}, "is_disabled": 0, "fusion_lat": 0.0, "name": "1976427ac7b14f8d14fca1b83b980573", "fusion_lon": 0.0}, {"is_reserved": 0, "type": "electric_scooter", "bike_id": "a04d05200650abb501a6cb55d68ff452", "lat": 38.876611, "lon": -76.99325233333333, "rental_uris": {"android": "https://dc.lft.to/lastmile_qr_scan", "ios": "https://dc.lft.to/lastmile_qr_scan"}, "is_disabled": 0, "fusion_lat": 0.0, "name": "a04d05200650abb501a6cb55d68ff452", "fusion_lon": 0.0}, {"is_reserved": 0, "type": "electric_scooter", "bike_id": "8c66c753032683ae60fca086004389ce", "lat": 38.919481, "lon": -77.02507583333333, "rental_uris": {"android": "https://dc.lft.to/lastmile_qr_scan", "ios": "https://dc.lft.to/lastmile_qr_scan"}, "is_disabled": 0, "fusion_lat": 0.0, "name": "8c66c753032683ae60fca086004389ce", "fusion_lon": 0.0}, {"is_reserved": 0, "type": "electric_scooter", "bike_id": "b300851c52f10060fdcad1c08bd3f3c9", "lat": 38.91051316666667, "lon": -77.04101883333334, "rental_uris": {"android": "https://dc.lft.to/lastmile_qr_scan", "ios": "https://dc.lft.to/lastmile_qr_scan"}, "is_disabled": 0, "fusion_lat": 0.0, "name": "b300851c52f10060fdcad1c08bd3f3c9", "fusion_lon": 0.0}, {"is_reserved": 0, "type": "electric_scooter", "bike_id": "9f40cbe48e627ebef6885656fcbd4ff4", "lat": 38.91609716666667, "lon": -77.04484583333333, "rental_uris": {"android": "https://dc.lft.to/lastmile_qr_scan", "ios": "https://dc.lft.to/lastmile_qr_scan"}, "is_disabled": 0, "fusion_lat": 0.0, "name": "9f40cbe48e627ebef6885656fcbd4ff4", "fusion_lon": 0.0}, {"is_reserved": 0, "type": "electric_scooter", "bike_id": "a36f1a355f61cac19a19762f894498d5", "lat": 38.9085635, "lon": -77.01022766666667, "rental_uris": {"android": "https://dc.lft.to/lastmile_qr_scan", "ios": "https://dc.lft.to/lastmile_qr_scan"}, "is_disabled": 0, "fusion_lat": 0.0, "name": "a36f1a355f61cac19a19762f894498d5", "fusion_lon": 0.0}, {"is_reserved": 0, "type": "electric_scooter", "bike_id": "b80f2e1fad40f5dd4cce84873b3b3f33", "lat": 38.883829166666665, "lon": -77.03035616666666, "rental_uris": {"android": "https://dc.lft.to/lastmile_qr_scan", "ios": "https://dc.lft.to/lastmile_qr_scan"}, "is_disabled": 0, "fusion_lat": 0.0, "name": "b80f2e1fad40f5dd4cce84873b3b3f33", "fusion_lon": 0.0}, {"is_reserved": 0, "type": "electric_scooter", "bike_id": "1f8b2a44802826fe59b9a2e255c0c2d2", "lat": 38.910358, "lon": -77.00976716666666, "rental_uris": {"android": "https://dc.lft.to/lastmile_qr_scan", "ios": "https://dc.lft.to/lastmile_qr_scan"}, "is_disabled": 0, "fusion_lat": 0.0, "name": "1f8b2a44802826fe59b9a2e255c0c2d2", "fusion_lon": 0.0}, {"is_reserved": 0, "type": "electric_scooter", "bike_id": "ca946debed15d9ce0f378474120a04ee", "lat": 38.8974335, "lon": -77.033629, "rental_uris": {"android": "https://dc.lft.to/lastmile_qr_scan", "ios": "https://dc.lft.to/lastmile_qr_scan"}, "is_disabled": 0, "fusion_lat": 0.0, "name": "ca946debed15d9ce0f378474120a04ee", "fusion_lon": 0.0}, {"is_reserved": 0, "type": "electric_scooter", "bike_id": "325b7deefe3d48b5657e7de36ecd17c2", "lat": 38.9171245, "lon": -77.03227, "rental_uris": {"android": "https://dc.lft.to/lastmile_qr_scan", "ios": "https://dc.lft.to/lastmile_qr_scan"}, "is_disabled": 0, "fusion_lat": 0.0, "name": "325b7deefe3d48b5657e7de36ecd17c2", "fusion_lon": 0.0}, {"is_reserved": 0, "type": "electric_scooter", "bike_id": "05cdd7037d98137bd4f98ade7b5c817a", "lat": 38.928277666666666, "lon": -77.02261183333333, "rental_uris": {"android": "https://dc.lft.to/lastmile_qr_scan", "ios": "https://dc.lft.to/lastmile_qr_scan"}, "is_disabled": 0, "fusion_lat": 0.0, "name": "05cdd7037d98137bd4f98ade7b5c817a", "fusion_lon": 0.0}, {"is_reserved": 0, "type": "electric_scooter", "bike_id": "d924e41df3d6126c591cb6a99bee4476", "lat": 38.9182645, "lon": -77.04175116666667, "rental_uris": {"android": "https://dc.lft.to/lastmile_qr_scan", "ios": "https://dc.lft.to/lastmile_qr_scan"}, "is_disabled": 0, "fusion_lat": 0.0, "name": "d924e41df3d6126c591cb6a99bee4476", "fusion_lon": 0.0}, {"is_reserved": 0, "type": "electric_scooter", "bike_id": "6268d18a02b1f2e1ba077952a1079894", "lat": 38.9295605, "lon": -77.004142, "rental_uris": {"android": "https://dc.lft.to/lastmile_qr_scan", "ios": "https://dc.lft.to/lastmile_qr_scan"}, "is_disabled": 0, "fusion_lat": 0.0, "name": "6268d18a02b1f2e1ba077952a1079894", "fusion_lon": 0.0}, {"is_reserved": 0, "type": "electric_scooter", "bike_id": "1207560fb8a04860c9a468b3be0cb2b6", "lat": 38.93420033333334, "lon": -77.03284533333333, "rental_uris": {"android": "https://dc.lft.to/lastmile_qr_scan", "ios": "https://dc.lft.to/lastmile_qr_scan"}, "is_disabled": 0, "fusion_lat": 0.0, "name": "1207560fb8a04860c9a468b3be0cb2b6", "fusion_lon": 0.0}, {"is_reserved": 0, "type": "electric_scooter", "bike_id": "a7e5634510117b35fafaa33e69c9a7b7", "lat": 38.909542, "lon": -77.06436233333334, "rental_uris": {"android": "https://dc.lft.to/lastmile_qr_scan", "ios": "https://dc.lft.to/lastmile_qr_scan"}, "is_disabled": 0, "fusion_lat": 0.0, "name": "a7e5634510117b35fafaa33e69c9a7b7", "fusion_lon": 0.0}, {"is_reserved": 0, "type": "electric_scooter", "bike_id": "c6a23694586861540c48b78273cb1906", "lat": 38.921544833333336, "lon": -77.03354666666667, "rental_uris": {"android": "https://dc.lft.to/lastmile_qr_scan", "ios": "https://dc.lft.to/lastmile_qr_scan"}, "is_disabled": 0, "fusion_lat": 0.0, "name": "c6a23694586861540c48b78273cb1906", "fusion_lon": 0.0}, {"is_reserved": 0, "type": "electric_scooter", "bike_id": "c02c785d41187d8f8f5c8d4f9186d961", "lat": 38.912234, "lon": -77.07603616666667, "rental_uris": {"android": "https://dc.lft.to/lastmile_qr_scan", "ios": "https://dc.lft.to/lastmile_qr_scan"}, "is_disabled": 0, "fusion_lat": 0.0, "name": "c02c785d41187d8f8f5c8d4f9186d961", "fusion_lon": 0.0}, {"is_reserved": 0, "type": "electric_scooter", "bike_id": "71a5ed9360d22d73432bb9edad7507be", "lat": 38.916388, "lon": -77.02103016666666, "rental_uris": {"android": "https://dc.lft.to/lastmile_qr_scan", "ios": "https://dc.lft.to/lastmile_qr_scan"}, "is_disabled": 0, "fusion_lat": 0.0, "name": "71a5ed9360d22d73432bb9edad7507be", "fusion_lon": 0.0}, {"is_reserved": 0, "type": "electric_scooter", "bike_id": "5f83312e512dac61d774e30033a7f0b3", "lat": 38.926057, "lon": -77.02160833333333, "rental_uris": {"android": "https://dc.lft.to/lastmile_qr_scan", "ios": "https://dc.lft.to/lastmile_qr_scan"}, "is_disabled": 0, "fusion_lat": 0.0, "name": "5f83312e512dac61d774e30033a7f0b3", "fusion_lon": 0.0}, {"is_reserved": 0, "type": "electric_scooter", "bike_id": "e44f879f744f978d0a9a0844eab6b198", "lat": 38.9000665, "lon": -76.99698966666666, "rental_uris": {"android": "https://dc.lft.to/lastmile_qr_scan", "ios": "https://dc.lft.to/lastmile_qr_scan"}, "is_disabled": 0, "fusion_lat": 0.0, "name": "e44f879f744f978d0a9a0844eab6b198", "fusion_lon": 0.0}, {"is_reserved": 0, "type": "electric_scooter", "bike_id": "c5e099c55c259f8d514d33d35b82fa50", "lat": 38.926109, "lon": -77.05707816666667, "rental_uris": {"android": "https://dc.lft.to/lastmile_qr_scan", "ios": "https://dc.lft.to/lastmile_qr_scan"}, "is_disabled": 0, "fusion_lat": 0.0, "name": "c5e099c55c259f8d514d33d35b82fa50", "fusion_lon": 0.0}, {"is_reserved": 0, "type": "electric_scooter", "bike_id": "86477ba510383b9a4582f9b526c20eb0", "lat": 38.90631466666667, "lon": -77.05143266666667, "rental_uris": {"android": "https://dc.lft.to/lastmile_qr_scan", "ios": "https://dc.lft.to/lastmile_qr_scan"}, "is_disabled": 0, "fusion_lat": 0.0, "name": "86477ba510383b9a4582f9b526c20eb0", "fusion_lon": 0.0}, {"is_reserved": 0, "type": "electric_bike", "bike_id": "1075421b5a616ff066482ee6a7ec4a59", "lat": 38.80259483333333, "lon": -77.1217575, "rental_uris": {"android": "https://dc.lft.to/lastmile_qr_scan", "ios": "https://dc.lft.to/lastmile_qr_scan"}, "is_disabled": 0, "fusion_lat": 0.0, "name": "1075421b5a616ff066482ee6a7ec4a59", "fusion_lon": 0.0}, {"is_reserved": 0, "type": "electric_bike", "bike_id": "ed97699722a9b7a928401c711d9e95b6", "lat": 38.887562, "lon": -77.08926966666667, "rental_uris": {"android": "https://dc.lft.to/lastmile_qr_scan", "ios": "https://dc.lft.to/lastmile_qr_scan"}, "is_disabled": 0, "fusion_lat": 0.0, "name": "ed97699722a9b7a928401c711d9e95b6", "fusion_lon": 0.0}, {"is_reserved": 0, "type": "electric_scooter", "bike_id": "8e29c3249697fff42c107b348a0cea1a", "lat": 38.926699166666666, "lon": -77.0302875, "rental_uris": {"android": "https://dc.lft.to/lastmile_qr_scan", "ios": "https://dc.lft.to/lastmile_qr_scan"}, "is_disabled": 0, "fusion_lat": 0.0, "name": "8e29c3249697fff42c107b348a0cea1a", "fusion_lon": 0.0}, {"is_reserved": 0, "type": "electric_scooter", "bike_id": "189b497ba247be3612ab7533c78281b0", "lat": 38.89573166666667, "lon": -76.98218633333333, "rental_uris": {"android": "https://dc.lft.to/lastmile_qr_scan", "ios": "https://dc.lft.to/lastmile_qr_scan"}, "is_disabled": 0, "fusion_lat": 0.0, "name": "189b497ba247be3612ab7533c78281b0", "fusion_lon": 0.0}, {"is_reserved": 0, "type": "electric_scooter", "bike_id": "fa85fc35d7c9bcf213e62fc03fc2d89e", "lat": 38.9106985, "lon": -76.99137883333333, "rental_uris": {"android": "https://dc.lft.to/lastmile_qr_scan", "ios": "https://dc.lft.to/lastmile_qr_scan"}, "is_disabled": 0, "fusion_lat": 0.0, "name": "fa85fc35d7c9bcf213e62fc03fc2d89e", "fusion_lon": 0.0}, {"is_reserved": 0, "type": "electric_bike", "bike_id": "1df816ed6a11d711e5f9c889c6721750", "lat": 38.849234, "lon": -77.08375016666666, "rental_uris": {"android": "https://dc.lft.to/lastmile_qr_scan", "ios": "https://dc.lft.to/lastmile_qr_scan"}, "is_disabled": 0, "fusion_lat": 0.0, "name": "1df816ed6a11d711e5f9c889c6721750", "fusion_lon": 0.0}, {"is_reserved": 0, "type": "electric_scooter", "bike_id": "d47aa3d826a330ceb0b6499cc33557af", "lat": 38.915481666666665, "lon": -77.02086116666666, "rental_uris": {"android": "https://dc.lft.to/lastmile_qr_scan", "ios": "https://dc.lft.to/lastmile_qr_scan"}, "is_disabled": 0, "fusion_lat": 0.0, "name": "d47aa3d826a330ceb0b6499cc33557af", "fusion_lon": 0.0}, {"is_reserved": 0, "type": "electric_scooter", "bike_id": "305f858816ef0b664ff6726f16d03b8a", "lat": 38.90224083333333, "lon": -77.0486845, "rental_uris": {"android": "https://dc.lft.to/lastmile_qr_scan", "ios": "https://dc.lft.to/lastmile_qr_scan"}, "is_disabled": 0, "fusion_lat": 0.0, "name": "305f858816ef0b664ff6726f16d03b8a", "fusion_lon": 0.0}, {"is_reserved": 0, "type": "electric_scooter", "bike_id": "6fc60db56f2e70665c9be6d2f7695345", "lat": 38.9226195, "lon": -77.01925366666667, "rental_uris": {"android": "https://dc.lft.to/lastmile_qr_scan", "ios": "https://dc.lft.to/lastmile_qr_scan"}, "is_disabled": 0, "fusion_lat": 0.0, "name": "6fc60db56f2e70665c9be6d2f7695345", "fusion_lon": 0.0}, {"is_reserved": 0, "type": "electric_scooter", "bike_id": "1a20654c54b7e099fb04814176dd7af7", "lat": 38.923160333333335, "lon": -77.02808316666666, "rental_uris": {"android": "https://dc.lft.to/lastmile_qr_scan", "ios": "https://dc.lft.to/lastmile_qr_scan"}, "is_disabled": 0, "fusion_lat": 0.0, "name": "1a20654c54b7e099fb04814176dd7af7", "fusion_lon": 0.0}, {"is_reserved": 0, "type": "electric_scooter", "bike_id": "b2086d0b80898ecf065202d76f121628", "lat": 38.87479416666667, "lon": -77.01744783333334, "rental_uris": {"android": "https://dc.lft.to/lastmile_qr_scan", "ios": "https://dc.lft.to/lastmile_qr_scan"}, "is_disabled": 0, "fusion_lat": 0.0, "name": "b2086d0b80898ecf065202d76f121628", "fusion_lon": 0.0}, {"is_reserved": 0, "type": "electric_scooter", "bike_id": "daeccaaafb0fa4cadfc5df1a2d087610", "lat": 38.894558, "lon": -77.04544283333334, "rental_uris": {"android": "https://dc.lft.to/lastmile_qr_scan", "ios": "https://dc.lft.to/lastmile_qr_scan"}, "is_disabled": 0, "fusion_lat": 0.0, "name": "daeccaaafb0fa4cadfc5df1a2d087610", "fusion_lon": 0.0}, {"is_reserved": 0, "type": "electric_scooter", "bike_id": "b0ae28f8add616f7a290ffa67466cd27", "lat": 38.92327866666667, "lon": -77.00888816666667, "rental_uris": {"android": "https://dc.lft.to/lastmile_qr_scan", "ios": "https://dc.lft.to/lastmile_qr_scan"}, "is_disabled": 0, "fusion_lat": 0.0, "name": "b0ae28f8add616f7a290ffa67466cd27", "fusion_lon": 0.0}, {"is_reserved": 0, "type": "electric_scooter", "bike_id": "f819d48c534148f5e2ffc7b74d458089", "lat": 38.9404315, "lon": -77.02903266666667, "rental_uris": {"android": "https://dc.lft.to/lastmile_qr_scan", "ios": "https://dc.lft.to/lastmile_qr_scan"}, "is_disabled": 0, "fusion_lat": 0.0, "name": "f819d48c534148f5e2ffc7b74d458089", "fusion_lon": 0.0}, {"is_reserved": 0, "type": "electric_scooter", "bike_id": "60270adabf5b8dd6e976cfc76ca91956", "lat": 38.90539416666667, "lon": -77.04160016666667, "rental_uris": {"android": "https://dc.lft.to/lastmile_qr_scan", "ios": "https://dc.lft.to/lastmile_qr_scan"}, "is_disabled": 0, "fusion_lat": 0.0, "name": "60270adabf5b8dd6e976cfc76ca91956", "fusion_lon": 0.0}, {"is_reserved": 0, "type": "electric_scooter", "bike_id": "f7a27262730868792f190fdccc073ec9", "lat": 38.924352, "lon": -76.9967945, "rental_uris": {"android": "https://dc.lft.to/lastmile_qr_scan", "ios": "https://dc.lft.to/lastmile_qr_scan"}, "is_disabled": 0, "fusion_lat": 0.0, "name": "f7a27262730868792f190fdccc073ec9", "fusion_lon": 0.0}, {"is_reserved": 0, "type": "electric_scooter", "bike_id": "2a22841608cc5379879543ae8b799f19", "lat": 38.92831866666667, "lon": -77.0543765, "rental_uris": {"android": "https://dc.lft.to/lastmile_qr_scan", "ios": "https://dc.lft.to/lastmile_qr_scan"}, "is_disabled": 0, "fusion_lat": 0.0, "name": "2a22841608cc5379879543ae8b799f19", "fusion_lon": 0.0},