{"data": {"bikes": [{"rental_uris": {"ios": "https://dc.lft.to/lastmile_qr_scan", "android": "https://dc.lft.to/lastmile_qr_scan"}, "lat": 38.88734, "lon": -77.028367, "fusion_lat": 0.0, "name": "22ddb6bc1c676258f839f2b22c1bc4c1", "is_disabled": 0, "is_reserved": 0, "bike_id": "22ddb6bc1c676258f839f2b22c1bc4c1", "fusion_lon": 0.0, "type": "electric_scooter"}, {"rental_uris": {"ios": "https://dc.lft.to/lastmile_qr_scan", "android": "https://dc.lft.to/lastmile_qr_scan"}, "lat": 38.9060185, "lon": -77.007275, "fusion_lat": 0.0, "name": "29f51cd8b7b4744ce4e0fe1297d57759", "is_disabled": 0, "is_reserved": 0, "bike_id": "29f51cd8b7b4744ce4e0fe1297d57759", "fusion_lon": 0.0, "type": "electric_scooter"}, {"rental_uris": {"ios": "https://dc.lft.to/lastmile_qr_scan", "android": "https://dc.lft.to/lastmile_qr_scan"}, "lat": 38.892268333333334, "lon": -77.01615666666666, "fusion_lat": 0.0, "name": "128b55735f3e0d7cdf40d069f41c8ec4", "is_disabled": 0, "is_reserved": 0, "bike_id": "128b55735f3e0d7cdf40d069f41c8ec4", "fusion_lon": 0.0, "type": "electric_scooter"}, {"rental_uris": {"ios": "https://dc.lft.to/lastmile_qr_scan", "android": "https://dc.lft.to/lastmile_qr_scan"}, "lat": 38.898162166666665, "lon": -77.0121265, "fusion_lat": 0.0, "name": "bcb80d8b572905452d275ce2f8832ed6", "is_disabled": 0, "is_reserved": 0, "bike_id": "bcb80d8b572905452d275ce2f8832ed6", "fusion_lon": 0.0, "type": "electric_scooter"}, {"rental_uris": {"ios": "https://dc.lft.to/lastmile_qr_scan", "android": "https://dc.lft.to/lastmile_qr_scan"}, "lat": 38.929094, "lon": -77.0324055, "fusion_lat": 0.0, "name": "5942a62ce3dd88709b4e7646ebf794f3", "is_disabled": 0, "is_reserved": 0, "bike_id": "5942a62ce3dd88709b4e7646ebf794f3", "fusion_lon": 0.0, "type": "electric_scooter"}, {"rental_uris": {"ios": "https://dc.lft.to/lastmile_qr_scan", "android": "https://dc.lft.to/lastmile_qr_scan"}, "lat": 38.89735066666667, "lon": -77.026951, "fusion_lat": 0.0, "name": "b84f2fa1a258fa4e5c2fc9ad4b4eff31", "is_disabled": 0, "is_reserved": 0, "bike_id": "b84f2fa1a258fa4e5c2fc9ad4b4eff31", "fusion_lon": 0.0, "type": "electric_scooter"}, {"rental_uris": {"ios": "https://dc.lft.to/lastmile_qr_scan", "android": "https://dc.lft.to/lastmile_qr_scan"}, "lat": 38.92152333333333, "lon": -77.03315133333334, "fusion_lat": 0.0, "name": "2bc7b585b24713967766aea544565529", "is_disabled": 0, "is_reserved": 0, "bike_id": "2bc7b585b24713967766aea544565529", "fusion_lon": 0.0, "type": "electric_scooter"}, {"rental_uris": {"ios": "https://dc.lft.to/lastmile_qr_scan", "android": "https://dc.lft.to/lastmile_qr_scan"}, "lat": 38.89464233333333, "lon": -77.0033925, "fusion_lat": 0.0, "name": "dfaa9b09502ecc88183bb61bcc956d82", "is_disabled": 0, "is_reserved": 0, "bike_id": "dfaa9b09502ecc88183bb61bcc956d82", "fusion_lon": 0.0, "type": "electric_scooter"}, {"rental_uris": {"ios": "https://dc.lft.to/lastmile_qr_scan", "android": "https://dc.lft.to/lastmile_qr_scan"}, "lat": 38.90867766666667, "lon": -76.99789333333334, "fusion_lat": 0.0, "name": "3e6f77d2a0e9cc906b6fd68652725302", "is_disabled": 0, "is_reserved": 0, "bike_id": "3e6f77d2a0e9cc906b6fd68652725302", "fusion_lon": 0.0, "type": "electric_scooter"}, {"rental_uris": {"ios": "https://dc.lft.to/lastmile_qr_scan", "android": "https://dc.lft.to/lastmile_qr_scan"}, "lat": 38.90345283333333, "lon": -76.98507466666666, "fusion_lat": 0.0, "name": "16780380a220e7e7e4f567f5df96ddc8", "is_disabled": 0, "is_reserved": 0, "bike_id": "16780380a220e7e7e4f567f5df96ddc8", "fusion_lon": 0.0, "type": "electric_scooter"}, {"rental_uris": {"ios": "https://dc.lft.to/lastmile_qr_scan", "android": "https://dc.lft.to/lastmile_qr_scan"}, "lat": 38.91561083333333, "lon": -77.04284016666666, "fusion_lat": 0.0, "name": "f16fbeaad85f839faa4cf431fc96504f", "is_disabled": 0, "is_reserved": 0, "bike_id": "f16fbeaad85f839faa4cf431fc96504f", "fusion_lon": 0.0, "type": "electric_scooter"}, {"rental_uris": {"ios": "https://dc.lft.to/lastmile_qr_scan", "android": "https://dc.lft.to/lastmile_qr_scan"}, "lat": 38.83577233333333, "lon": -77.00137866666667, "fusion_lat": 0.0, "name": "42ae0bceb184952e01ad21e1c9fd2aef", "is_disabled": 0, "is_reserved": 0, "bike_id": "42ae0bceb184952e01ad21e1c9fd2aef", "fusion_lon": 0.0, "type": "electric_scooter"}, {"rental_uris": {"ios": "https://dc.lft.to/lastmile_qr_scan", "android": "https://dc.lft.to/lastmile_qr_scan"}, "lat": 38.9002645, "lon": -77.04135433333333, "fusion_lat": 0.0, "name": "a86ca129da5fc7db83e7fb18836d11c3", "is_disabled": 0, "is_reserved": 0, "bike_id": "a86ca129da5fc7db83e7fb18836d11c3", "fusion_lon": 0.0, "type": "electric_scooter"}, {"rental_uris": {"ios": "https://dc.lft.to/lastmile_qr_scan", "android": "https://dc.lft.to/lastmile_qr_scan"}, "lat": 38.90767816666666, "lon": -77.03440883333333, "fusion_lat": 0.0, "name": "d0b8678b509e7465b803dab1149a5a29", "is_disabled": 0, "is_reserved": 0, "bike_id": "d0b8678b509e7465b803dab1149a5a29", "fusion_lon": 0.0, "type": "electric_scooter"}, {"rental_uris": {"ios": "https://dc.lft.to/lastmile_qr_scan", "android": "https://dc.lft.to/lastmile_qr_scan"}, "lat": 38.923632833333336, "lon": -77.0512805, "fusion_lat": 0.0, "name": "50c21b067da2f405b6ef99719c80ea72", "is_disabled": 0, "is_reserved": 0, "bike_id": "50c21b067da2f405b6ef99719c80ea72", "fusion_lon": 0.0, "type": "electric_scooter"}, {"rental_uris": {"ios": "https://dc.lft.to/lastmile_qr_scan", "android": "https://dc.lft.to/lastmile_qr_scan"}, "lat": 38.885154666666665, "lon": -77.00598366666667, "fusion_lat": 0.0, "name": "61a43394ca2c4ff05117e002d402c748", "is_disabled": 0, "is_reserved": 0, "bike_id": "61a43394ca2c4ff05117e002d402c748", "fusion_lon": 0.0, "type": "electric_scooter"}, {"rental_uris": {"ios": "https://dc.lft.to/lastmile_qr_scan", "android": "https://dc.lft.to/lastmile_qr_scan"}, "lat": 38.91295383333333, "lon": -77.029639, "fusion_lat": 0.0, "name": "78c46636496c103d59ad0d235c5e1316", "is_disabled": 0, "is_reserved": 0, "bike_id": "78c46636496c103d59ad0d235c5e1316", "fusion_lon": 0.0, "type": "electric_scooter"}, {"rental_uris": {"ios": "https://dc.lft.to/lastmile_qr_scan", "android": "https://dc.lft.to/lastmile_qr_scan"}, "lat": 38.89985433333333, "lon": -77.02461916666667, "fusion_lat": 0.0, "name": "20eebf0253d30a8bbe7d51ee17c2eabf", "is_disabled": 0, "is_reserved": 0, "bike_id": "20eebf0253d30a8bbe7d51ee17c2eabf", "fusion_lon": 0.0, "type": "electric_scooter"}, {"rental_uris": {"ios": "https://dc.lft.to/lastmile_qr_scan", "android": "https://dc.lft.to/lastmile_qr_scan"}, "lat": 38.91607166666667, "lon": -77.03138183333333, "fusion_lat": 0.0, "name": "d7f9477e99cdf3daff354a0bd4e10a56", "is_disabled": 0, "is_reserved": 0, "bike_id": "d7f9477e99cdf3daff354a0bd4e10a56", "fusion_lon": 0.0, "type": "electric_scooter"}, {"rental_uris": {"ios": "https://dc.lft.to/lastmile_qr_scan", "android": "https://dc.lft.to/lastmile_qr_scan"}, "lat": 38.89705466666667, "lon": -77.04881833333333, "fusion_lat": 0.0, "name": "de832adedbda348aa260eae60482e687", "is_disabled": 0, "is_reserved": 0, "bike_id": "de832adedbda348aa260eae60482e687", "fusion_lon": 0.0, "type": "electric_scooter"}, {"rental_uris": {"ios": "https://dc.lft.to/lastmile_qr_scan", "android": "https://dc.lft.to/lastmile_qr_scan"}, "lat": 38.89364533333333, "lon": -76.94702833333334, "fusion_lat": 0.0, "name": "b619caddc227494dec35a2a9c0094e58", "is_disabled": 0, "is_reserved": 0, "bike_id": "b619caddc227494dec35a2a9c0094e58", "fusion_lon": 0.0, "type": "electric_scooter"}, {"rental_uris": {"ios": "https://dc.lft.to/lastmile_qr_scan", "android": "https://dc.lft.to/lastmile_qr_scan"}, "lat": 38.94903033333333, "lon": -77.0207105, "fusion_lat": 0.0, "name": "a6230cb602cf0e00c543251ec1ba3012", "is_disabled": 0, "is_reserved": 0, "bike_id": "a6230cb602cf0e00c543251ec1ba3012", "fusion_lon": 0.0, "type": "electric_scooter"}, {"rental_uris": {"ios": "https://dc.lft.to/lastmile_qr_scan", "android": "https://dc.lft.to/lastmile_qr_scan"}, "lat": 38.91696433333333, "lon": -77.04334216666666, "fusion_lat": 0.0, "name": "a0e7911b1c5a15c1894fa5f49a86dfe2", "is_disabled": 0, "is_reserved": 0, "bike_id": "a0e7911b1c5a15c1894fa5f49a86dfe2", "fusion_lon": 0.0, "type": "electric_scooter"}, {"rental_uris": {"ios": "https://dc.lft.to/lastmile_qr_scan", "android": "https://dc.lft.to/lastmile_qr_scan"}, "lat": 38.899218166666664, "lon": -77.03292, "fusion_lat": 0.0, "name": "ca3c70be1d940194d68c4edb67a84150", "is_disabled": 0, "is_reserved": 0, "bike_id": "ca3c70be1d940194d68c4edb67a84150", "fusion_lon": 0.0, "type": "electric_scooter"}, {"rental_uris": {"ios": "https://dc.lft.to/lastmile_qr_scan", "android": "https://dc.lft.to/lastmile_qr_scan"}, "lat": 38.91399083333334, "lon": -77.01792816666666, "fusion_lat": 0.0, "name": "43aef8239e5a2869c854e97a5a9e9434", "is_disabled": 0, "is_reserved": 0, "bike_id": "43aef8239e5a2869c854e97a5a9e9434", "fusion_lon": 0.0, "type": "electric_scooter"}, {"rental_uris": {"ios": "https://dc.lft.to/lastmile_qr_scan", "android": "https://dc.lft.to/lastmile_qr_scan"}, "lat": 38.87576416666667, "lon": -77.23406766666666, "fusion_lat": 0.0, "name": "120d37281988716d788a04a5adf90fb5", "is_disabled": 0, "is_reserved": 0, "bike_id": "120d37281988716d788a04a5adf90fb5", "fusion_lon": 0.0, "type": "electric_bike"}, {"rental_uris": {"ios": "https://dc.lft.to/lastmile_qr_scan", "android": "https://dc.lft.to/lastmile_qr_scan"}, "lat": 38.900300666666666, "lon": -76.990612, "fusion_lat": 0.0, "name": "92a785b70cc06696813af396965536c4", "is_disabled": 0, "is_reserved": 0, "bike_id": "92a785b70cc06696813af396965536c4", "fusion_lon": 0.0, "type": "electric_scooter"}, {"rental_uris": {"ios": "https://dc.lft.to/lastmile_qr_scan", "android": "https://dc.lft.to/lastmile_qr_scan"}, "lat": 38.870645, "lon": -76.97093183333334, "fusion_lat": 0.0, "name": "8de0f777560a6a2d64db90acf80777fd", "is_disabled": 0, "is_reserved": 0, "bike_id": "8de0f777560a6a2d64db90acf80777fd", "fusion_lon": 0.0, "type": "electric_scooter"}, {"rental_uris": {"ios": "https://dc.lft.to/lastmile_qr_scan", "android": "https://dc.lft.to/lastmile_qr_scan"}, "lat": 38.93473, "lon": -77.02232966666666, "fusion_lat": 0.0, "name": "a06020a7bb2f509c0df3c739372d17f9", "is_disabled": 0, "is_reserved": 0, "bike_id": "a06020a7bb2f509c0df3c739372d17f9", "fusion_lon": 0.0, "type": "electric_scooter"}, {"rental_uris": {"ios": "https://dc.lft.to/lastmile_qr_scan", "android": "https://dc.lft.to/lastmile_qr_scan"}, "lat": 38.9322325, "lon": -77.038698, "fusion_lat": 0.0, "name": "9b438bd367fc4b994df0ec1e9ccb92ff", "is_disabled": 0, "is_reserved": 0, "bike_id": "9b438bd367fc4b994df0ec1e9ccb92ff", "fusion_lon": 0.0, "type": "electric_scooter"}, {"rental_uris": {"ios": "https://dc.lft.to/lastmile_qr_scan", "android": "https://dc.lft.to/lastmile_qr_scan"}, "lat": 38.89866, "lon": -76.94637116666667, "fusion_lat": 0.0, "name": "450126f64c6db4884150069deb667661", "is_disabled": 0, "is_reserved": 0, "bike_id": "450126f64c6db4884150069deb667661", "fusion_lon": 0.0, "type": "electric_scooter"}, {"rental_uris": {"ios": "https://dc.lft.to/lastmile_qr_scan", "android": "https://dc.lft.to/lastmile_qr_scan"}, "lat": 38.9221655, "lon": -77.20136866666667, "fusion_lat": 0.0, "name": "fa79d9c409bdba1f6a5a50f81539c1c2", "is_disabled": 0, "is_reserved": 0, "bike_id": "fa79d9c409bdba1f6a5a50f81539c1c2", "fusion_lon": 0.0, "type": "electric_bike"}, {"rental_uris": {"ios": "https://dc.lft.to/lastmile_qr_scan", "android": "https://dc.lft.to/lastmile_qr_scan"}, "lat": 38.915638666666666, "lon": -77.02207516666667, "fusion_lat": 0.0, "name": "fd5d82bcc9045339813926c72567660a", "is_disabled": 0, "is_reserved": 0, "bike_id": "fd5d82bcc9045339813926c72567660a", "fusion_lon": 0.0, "type": "electric_scooter"}, {"rental_uris": {"ios": "https://dc.lft.to/lastmile_qr_scan", "android": "https://dc.lft.to/lastmile_qr_scan"}, "lat": 38.945616333333334, "lon": -76.96687966666667, "fusion_lat": 0.0, "name": "bf8d55f5d7eb752f7a94ed774a75cbf6", "is_disabled": 0, "is_reserved": 0, "bike_id": "bf8d55f5d7eb752f7a94ed774a75cbf6", "fusion_lon": 0.0, "type": "electric_bike"}, {"rental_uris": {"ios": "https://dc.lft.to/lastmile_qr_scan", "android": "https://dc.lft.to/lastmile_qr_scan"}, "lat": 38.933904166666665, "lon": -77.05737483333333, "fusion_lat": 0.0, "name": "fc86059f1827e8b9334fbccce871bd9e", "is_disabled": 0, "is_reserved": 0, "bike_id": "fc86059f1827e8b9334fbccce871bd9e", "fusion_lon": 0.0, "type": "electric_scooter"}, {"rental_uris": {"ios": "https://dc.lft.to/lastmile_qr_scan", "android": "https://dc.lft.to/lastmile_qr_scan"}, "lat": 38.888384333333335, "lon": -77.04902633333333, "fusion_lat": 0.0, "name": "5a93f1c3f1c0b2a95e29d643f57e2314", "is_disabled": 0, "is_reserved": 0, "bike_id": "5a93f1c3f1c0b2a95e29d643f57e2314", "fusion_lon": 0.0, "type": "electric_scooter"}, {"rental_uris": {"ios": "https://dc.lft.to/lastmile_qr_scan", "android": "https://dc.lft.to/lastmile_qr_scan"}, "lat": 38.861528666666665, "lon": -77.09144833333333, "fusion_lat": 0.0, "name": "ddf72b1f4aa513562794193141f916c7", "is_disabled": 0, "is_reserved": 0, "bike_id": "ddf72b1f4aa513562794193141f916c7", "fusion_lon": 0.0, "type": "electric_bike"}, {"rental_uris": {"ios": "https://dc.lft.to/lastmile_qr_scan", "android": "https://dc.lft.to/lastmile_qr_scan"}, "lat": 38.92278733333333, "lon": -77.036678, "fusion_lat": 0.0, "name": "6ff2e7d7c26252ec38d9cc76eec330c3", "is_disabled": 0, "is_reserved": 0, "bike_id": "6ff2e7d7c26252ec38d9cc76eec330c3", "fusion_lon": 0.0, "type": "electric_scooter"}, {"rental_uris": {"ios": "https://dc.lft.to/lastmile_qr_scan", "android": "https://dc.lft.to/lastmile_qr_scan"}, "lat": 38.90731666666667, "lon": -77.023737, "fusion_lat": 0.0, "name": "74538a8339916e6d5815d8a8005f38cc", "is_disabled": 0, "is_reserved": 0, "bike_id": "74538a8339916e6d5815d8a8005f38cc", "fusion_lon": 0.0, "type": "electric_scooter"}, {"rental_uris": {"ios": "https://dc.lft.to/lastmile_qr_scan", "android": "https://dc.lft.to/lastmile_qr_scan"}, "lat": 38.90801716666667, "lon": -77.03056333333333, "fusion_lat": 0.0, "name": "af03962edb6b722e4fe444cf88273acb", "is_disabled": 0, "is_reserved": 0, "bike_id": "af03962edb6b722e4fe444cf88273acb", "fusion_lon": 0.0, "type": "electric_scooter"}, {"rental_uris": {"ios": "https://dc.lft.to/lastmile_qr_scan", "android": "https://dc.lft.to/lastmile_qr_scan"}, "lat": 38.89329866666667, "lon": -77.04673366666667, "fusion_lat": 0.0, "name": "4054753e807175cc8cf9e883ee7b195c", "is_disabled": 0, "is_reserved": 0, "bike_id": "4054753e807175cc8cf9e883ee7b195c", "fusion_lon": 0.0, "type": "electric_scooter"}, {"rental_uris": {"ios": "https://dc.lft.to/lastmile_qr_scan", "android": "https://dc.lft.to/lastmile_qr_scan"}, "lat": 38.90272933333333, "lon": -77.05805866666667, "fusion_lat": 0.0, "name": "884f0864eebdb0c345418cdbc439d975", "is_disabled": 0, "is_reserved": 0, "bike_id": "884f0864eebdb0c345418cdbc439d975", "fusion_lon": 0.0, "type": "electric_scooter"}, {"rental_uris": {"ios": "https://dc.lft.to/lastmile_qr_scan", "android": "https://dc.lft.to/lastmile_qr_scan"}, "lat": 38.9037645, "lon": -76.9859615, "fusion_lat": 0.0, "name": "9634b4e194c9b84d8ee33924bb6cf363", "is_disabled": 0, "is_reserved": 0, "bike_id": "9634b4e194c9b84d8ee33924bb6cf363", "fusion_lon": 0.0, "type": "electric_scooter"}, {"rental_uris": {"ios": "https://dc.lft.to/lastmile_qr_scan", "android": "https://dc.lft.to/lastmile_qr_scan"}, "lat": 38.908569, "lon": -77.04529666666667, "fusion_lat": 0.0, "name": "449290f8a0ae96689599ffa1fddbe3b1", "is_disabled": 0, "is_reserved": 0, "bike_id": "449290f8a0ae96689599ffa1fddbe3b1", "fusion_lon": 0.0, "type": "electric_scooter"}, {"rental_uris": {"ios": "https://dc.lft.to/lastmile_qr_scan", "android": "https://dc.lft.to/lastmile_qr_scan"}, "lat": 38.926377333333335, "lon": -77.0339135, "fusion_lat": 0.0, "name": "c639afb326924f28fce772432b4ba370", "is_disabled": 0, "is_reserved": 0, "bike_id": "c639afb326924f28fce772432b4ba370", "fusion_lon": 0.0, "type": "electric_scooter"}, {"rental_uris": {"ios": "https://dc.lft.to/lastmile_qr_scan", "android": "https://dc.lft.to/lastmile_qr_scan"}, "lat": 38.90387483333333, "lon": -77.01746633333333, "fusion_lat": 0.0, "name": "7116ac43952d9519ebcd8f88b8d309f3", "is_disabled": 0, "is_reserved": 0, "bike_id": "7116ac43952d9519ebcd8f88b8d309f3", "fusion_lon": 0.0, "type": "electric_scooter"}, {"rental_uris": {"ios": "https://dc.lft.to/lastmile_qr_scan", "android": "https://dc.lft.to/lastmile_qr_scan"}, "lat": 38.86682583333333, "lon": -76.98568316666666, "fusion_lat": 0.0, "name": "5c688f8ec929ba517c77ed7b746a1faf", "is_disabled": 0, "is_reserved": 0, "bike_id": "5c688f8ec929ba517c77ed7b746a1faf", "fusion_lon": 0.0, "type": "electric_scooter"}, {"rental_uris": {"ios": "https://dc.lft.to/lastmile_qr_scan", "android": "https://dc.lft.to/lastmile_qr_scan"}, "lat": 38.941982333333335, "lon": -77.028425, "fusion_lat": 0.0, "name": "9b31b2b59fd20d6dfb21ef71e5ebead0", "is_disabled": 0, "is_reserved": 0, "bike_id": "9b31b2b59fd20d6dfb21ef71e5ebead0", "fusion_lon": 0.0, "type": "electric_scooter"}, {"rental_uris": {"ios": "https://dc.lft.to/lastmile_qr_scan", "android": "https://dc.lft.to/lastmile_qr_scan"}, "lat": 38.85350733333333, "lon": -77.13469783333333, "fusion_lat": 0.0, "name": "e485b10f2a173b369f7c8b45c6a225f5", "is_disabled": 0, "is_reserved": 0, "bike_id": "e485b10f2a173b369f7c8b45c6a225f5", "fusion_lon": 0.0, "type": "electric_bike"}, {"rental_uris": {"ios": "https://dc.lft.to/lastmile_qr_scan", "android": "https://dc.lft.to/lastmile_qr_scan"}, "lat": 38.89748483333333, "lon": -76.979696, "fusion_lat": 0.0, "name": "4dad1e8ee78530ab1fea7a032bfa3460", "is_disabled": 0, "is_reserved": 0, "bike_id": "4dad1e8ee78530ab1fea7a032bfa3460", "fusion_lon": 0.0, "type": "electric_scooter"}, {"rental_uris": {"ios": "https://dc.lft.to/lastmile_qr_scan", "android": "https://dc.lft.to/lastmile_qr_scan"}, "lat": 38.9132725, "lon": -77.04535616666666, "fusion_lat": 0.0, "name": "3fb97dfb5b081775174cd653baf91098", "is_disabled": 0, "is_reserved": 0, "bike_id": "3fb97dfb5b081775174cd653baf91098", "fusion_lon": 0.0, "type": "electric_scooter"}, {"rental_uris": {"ios": "https://dc.lft.to/lastmile_qr_scan", "android": "https://dc.lft.to/lastmile_qr_scan"}, "lat": 38.92498, "lon": -77.051062, "fusion_lat": 0.0, "name": "6bef9001028a4accd1c6095fd8e0902f", "is_disabled": 0, "is_reserved": 0, "bike_id": "6bef9001028a4accd1c6095fd8e0902f", "fusion_lon": 0.0, "type": "electric_scooter"}, {"rental_uris": {"ios": "https://dc.lft.to/lastmile_qr_scan", "android": "https://dc.lft.to/lastmile_qr_scan"}, "lat": 38.925821, "lon": -77.03985183333333, "fusion_lat": 0.0, "name": "7845464e551b0fd95aa724ff6f7b14e2", "is_disabled": 0, "is_reserved": 0, "bike_id": "7845464e551b0fd95aa724ff6f7b14e2", "fusion_lon": 0.0, "type": "electric_scooter"}, {"rental_uris": {"ios": "https://dc.lft.to/lastmile_qr_scan", "android": "https://dc.lft.to/lastmile_qr_scan"}, "lat": 38.910580833333334, "lon": -77.03092766666667, "fusion_lat": 0.0, "name": "23a29c8c66569595f1fc0d82a8f7235c", "is_disabled": 0, "is_reserved": 0, "bike_id": "23a29c8c66569595f1fc0d82a8f7235c", "fusion_lon": 0.0, "type": "electric_scooter"}, {"rental_uris": {"ios": "https://dc.lft.to/lastmile_qr_scan", "android": "https://dc.lft.to/lastmile_qr_scan"}, "lat": 38.915555499999996, "lon": -77.02127316666666, "fusion_lat": 0.0, "name": "739b6264a078eb67e03c2afabf7a57e9", "is_disabled": 0, "is_reserved": 0, "bike_id": "739b6264a078eb67e03c2afabf7a57e9", "fusion_lon": 0.0, "type": "electric_scooter"}, {"rental_uris": {"ios": "https://dc.lft.to/lastmile_qr_scan", "android": "https://dc.lft.to/lastmile_qr_scan"}, "lat": 38.91839016666667, "lon": -77.04020583333333, "fusion_lat": 0.0, "name": "0b76ba8f91a0da9c573ebf1033347f9a", "is_disabled": 0, "is_reserved": 0, "bike_id": "0b76ba8f91a0da9c573ebf1033347f9a", "fusion_lon": 0.0, "type": "electric_scooter"}, {"rental_uris": {"ios": "https://dc.lft.to/lastmile_qr_scan", "android": "https://dc.lft.to/lastmile_qr_scan"}, "lat": 38.942919, "lon": -77.02171266666667, "fusion_lat": 0.0, "name": "b1cbe729d81e939361a3576b619e87d1", "is_disabled": 0, "is_reserved": 0, "bike_id": "b1cbe729d81e939361a3576b619e87d1", "fusion_lon": 0.0, "type": "electric_scooter"}, {"rental_uris": {"ios": "https://dc.lft.to/lastmile_qr_scan", "android": "https://dc.lft.to/lastmile_qr_scan"}, "lat": 38.89882583333333, "lon": -77.02173333333333, "fusion_lat": 0.0, "name": "7f0fd97c1b20a76f3fa06652b8887bbc", "is_disabled": 0, "is_reserved": 0, "bike_id": "7f0fd97c1b20a76f3fa06652b8887bbc", "fusion_lon": 0.0, "type": "electric_scooter"}, {"rental_uris": {"ios": "https://dc.lft.to/lastmile_qr_scan", "android": "https://dc.lft.to/lastmile_qr_scan"}, "lat": 38.892291666666665, "lon": -77.01491633333333, "fusion_lat": 0.0, "name": "eb7cde32c3e7738ff32654d64dc50c54", "is_disabled": 0, "is_reserved": 0, "bike_id": "eb7cde32c3e7738ff32654d64dc50c54", "fusion_lon": 0.0, "type": "electric_scooter"}, {"rental_uris": {"ios": "https://dc.lft.to/lastmile_qr_scan", "android": "https://dc.lft.to/lastmile_qr_scan"}, "lat": 38.908138, "lon": -77.03448733333333, "fusion_lat": 0.0, "name": "426a757cc02505b4c3dc8cc4d813ac75", "is_disabled": 0, "is_reserved": 0, "bike_id": "426a757cc02505b4c3dc8cc4d813ac75", "fusion_lon": 0.0, "type": "electric_scooter"}, {"rental_uris": {"ios": "https://dc.lft.to/lastmile_qr_scan", "android": "https://dc.lft.to/lastmile_qr_scan"}, "lat": 38.9176745, "lon": -77.04768633333333, "fusion_lat": 0.0, "name": "b56f6a2e918377bfe5f652d4274193a9", "is_disabled": 0, "is_reserved": 0, "bike_id": "b56f6a2e918377bfe5f652d4274193a9", "fusion_lon": 0.0, "type": "electric_scooter"}, {"rental_uris": {"ios": "https://dc.lft.to/lastmile_qr_scan", "android": "https://dc.lft.to/lastmile_qr_scan"}, "lat": 38.925025833333336, "lon": -77.03786066666666, "fusion_lat": 0.0, "name": "4f20a846a392d7d17c7cd7a17be96b4c", "is_disabled": 0, "is_reserved": 0, "bike_id": "4f20a846a392d7d17c7cd7a17be96b4c", "fusion_lon": 0.0, "type": "electric_scooter"}, {"rental_uris": {"ios": "https://dc.lft.to/lastmile_qr_scan", "android": "https://dc.lft.to/lastmile_qr_scan"}, "lat": 38.897147, "lon": -77.02393816666667, "fusion_lat": 0.0, "name": "0bb16bd5acb2e5979c890d47cae3401e", "is_disabled": 0, "is_reserved": 0, "bike_id": "0bb16bd5acb2e5979c890d47cae3401e", "fusion_lon": 0.0, "type": "electric_scooter"}, {"rental_uris": {"ios": "https://dc.lft.to/lastmile_qr_scan", "android": "https://dc.lft.to/lastmile_qr_scan"}, "lat": 38.916798166666666, "lon": -76.98174583333333, "fusion_lat": 0.0, "name": "800339a8e3c0f19e6686756cb091c986", "is_disabled": 0, "is_reserved": 0, "bike_id": "800339a8e3c0f19e6686756cb091c986", "fusion_lon": 0.0, "type": "electric_scooter"}, {"rental_uris": {"ios": "https://dc.lft.to/lastmile_qr_scan", "android": "https://dc.lft.to/lastmile_qr_scan"}, "lat": 38.93771983333333, "lon": -77.02399233333334, "fusion_lat": 0.0, "name": "92a7ed0e824202a4e5a7bf22d20e7e67", "is_disabled": 0, "is_reserved": 0, "bike_id": "92a7ed0e824202a4e5a7bf22d20e7e67", "fusion_lon": 0.0, "type": "electric_scooter"}, {"rental_uris": {"ios": "https://dc.lft.to/lastmile_qr_scan", "android": "https://dc.lft.to/lastmile_qr_scan"}, "lat": 38.9167265, "lon": -77.023169, "fusion_lat": 0.0, "name": "9fd8371a139116c49c69efcacd51dc39", "is_disabled": 0, "is_reserved": 0, "bike_id": "9fd8371a139116c49c69efcacd51dc39", "fusion_lon": 0.0, "type": "electric_scooter"}, {"rental_uris": {"ios": "https://dc.lft.to/lastmile_qr_scan", "android": "https://dc.lft.to/lastmile_qr_scan"}, "lat": 38.909962166666666, "lon": -77.04009183333334, "fusion_lat": 0.0, "name": "f17e05619b2b7bc427e18902f8fa3f4d", "is_disabled": 0, "is_reserved": 0, "bike_id": "f17e05619b2b7bc427e18902f8fa3f4d", "fusion_lon": 0.0, "type": "electric_scooter"}, {"rental_uris": {"ios": "https://dc.lft.to/lastmile_qr_scan", "android": "https://dc.lft.to/lastmile_qr_scan"}, "lat": 38.906803, "lon": -77.02696333333333, "fusion_lat": 0.0, "name": "6123d8dccab90cefa461db5c8023e882", "is_disabled": 0, "is_reserved": 0, "bike_id": "6123d8dccab90cefa461db5c8023e882", "fusion_lon": 0.0, "type": "electric_scooter"}, {"rental_uris": {"ios": "https://dc.lft.to/lastmile_qr_scan", "android": "https://dc.lft.to/lastmile_qr_scan"}, "lat": 38.899136666666664, "lon": -76.93368383333333, "fusion_lat": 0.0, "name": "ac5da374888756093736411c5702cc35", "is_disabled": 0, "is_reserved": 0, "bike_id": "ac5da374888756093736411c5702cc35", "fusion_lon": 0.0, "type": "electric_scooter"}, {"rental_uris": {"ios": "https://dc.lft.to/lastmile_qr_scan", "android": "https://dc.lft.to/lastmile_qr_scan"}, "lat": 38.9109995, "lon": -77.02229766666666, "fusion_lat": 0.0, "name": "fe2806110866d26e1c7b8060f0f3efb7", "is_disabled": 0, "is_reserved": 0, "bike_id": "fe2806110866d26e1c7b8060f0f3efb7", "fusion_lon": 0.0, "type": "electric_scooter"}, {"rental_uris": {"ios": "https://dc.lft.to/lastmile_qr_scan", "android": "https://dc.lft.to/lastmile_qr_scan"}, "lat": 38.924958833333335, "lon": -77.0522305, "fusion_lat": 0.0, "name": "14aa38734acad43dd7fe1b322a529463", "is_disabled": 0, "is_reserved": 0, "bike_id": "14aa38734acad43dd7fe1b322a529463", "fusion_lon": 0.0, "type": "electric_scooter"}, {"rental_uris": {"ios": "https://dc.lft.to/lastmile_qr_scan", "android": "https://dc.lft.to/lastmile_qr_scan"}, "lat": 38.89966116666667, "lon": -77.02185866666666, "fusion_lat": 0.0, "name": "1f957d7b1854decd220c6157dced55c0", "is_disabled": 0, "is_reserved": 0, "bike_id": "1f957d7b1854decd220c6157dced55c0", "fusion_lon": 0.0, "type": "electric_scooter"}, {"rental_uris": {"ios": "https://dc.lft.to/lastmile_qr_scan", "android": "https://dc.lft.to/lastmile_qr_scan"}, "lat": 38.9154705, "lon": -77.03785933333333, "fusion_lat": 0.0, "name": "cdc3bbcc4728397eb3cdc4d584689738", "is_disabled": 0, "is_reserved": 0, "bike_id": "cdc3bbcc4728397eb3cdc4d584689738", "fusion_lon": 0.0, "type": "electric_scooter"}, {"rental_uris": {"ios": "https://dc.lft.to/lastmile_qr_scan", "android": "https://dc.lft.to/lastmile_qr_scan"}, "lat": 38.90445833333333, "lon": -76.98001283333333, "fusion_lat": 0.0, "name": "7859ce91f49de11a4bd371fa9b53bb91", "is_disabled": 0, "is_reserved": 0, "bike_id": "7859ce91f49de11a4bd371fa9b53bb91", "fusion_lon": 0.0, "type": "electric_scooter"}, {"rental_uris": {"ios": "https://dc.lft.to/lastmile_qr_scan", "android": "https://dc.lft.to/lastmile_qr_scan"}, "lat": 38.877627833333335, "lon": -77.01051233333334, "fusion_lat": 0.0, "name": "fea908d47cec0f1c61f836d66fdf7123", "is_disabled": 0, "is_reserved": 0, "bike_id": "fea908d47cec0f1c61f836d66fdf7123", "fusion_lon": 0.0, "type": "electric_bike"}, {"rental_uris": {"ios": "https://dc.lft.to/lastmile_qr_scan", "android": "https://dc.lft.to/lastmile_qr_scan"}, "lat": 38.90314033333333, "lon": -77.051826, "fusion_lat": 0.0, "name": "1283fea4f198991c6b9b85b1b03b26a0", "is_disabled": 0, "is_reserved": 0, "bike_id": "1283fea4f198991c6b9b85b1b03b26a0", "fusion_lon": 0.0, "type": "electric_scooter"}, {"rental_uris": {"ios": "https://dc.lft.to/lastmile_qr_scan", "android": "https://dc.lft.to/lastmile_qr_scan"}, "lat": 38.918211666666664, "lon": -77.0493055, "fusion_lat": 0.0, "name": "54bec79d0ab6343c721d9f6560ea7487", "is_disabled": 0, "is_reserved": 0, "bike_id": "54bec79d0ab6343c721d9f6560ea7487", "fusion_lon": 0.0, "type": "electric_scooter"}, {"rental_uris": {"ios": "https://dc.lft.to/lastmile_qr_scan", "android": "https://dc.lft.to/lastmile_qr_scan"}, "lat": 38.90752716666667, "lon": -77.03201266666666, "fusion_lat": 0.0, "name": "59b45c024b5e87f9b2ee9b2a9a100559", "is_disabled": 0, "is_reserved": 0, "bike_id": "59b45c024b5e87f9b2ee9b2a9a100559", "fusion_lon": 0.0, "type": "electric_scooter"}, {"rental_uris": {"ios": "https://dc.lft.to/lastmile_qr_scan", "android": "https://dc.lft.to/lastmile_qr_scan"}, "lat": 38.9105985, "lon": -77.05519366666667, "fusion_lat": 0.0, "name": "e783e8160f808a31c651e1e113f66e7f", "is_disabled": 0, "is_reserved": 0, "bike_id": "e783e8160f808a31c651e1e113f66e7f", "fusion_lon": 0.0, "type": "electric_bike"}, {"rental_uris": {"ios": "https://dc.lft.to/lastmile_qr_scan", "android": "https://dc.lft.to/lastmile_qr_scan"}, "lat": 38.9215275, "lon": -77.03865633333334, "fusion_lat": 0.0, "name": "f6cfa2e9021f4175d047f1ee4ce15108", "is_disabled": 0, "is_reserved": 0, "bike_id": "f6cfa2e9021f4175d047f1ee4ce15108", "fusion_lon": 0.0, "type": "electric_scooter"}, {"rental_uris": {"ios": "https://dc.lft.to/lastmile_qr_scan", "android": "https://dc.lft.to/lastmile_qr_scan"}, "lat": 38.920445, "lon": -77.0335085, "fusion_lat": 0.0, "name": "4394e554c8fe1f0e7feeedd04bcf1e12", "is_disabled": 0, "is_reserved": 0, "bike_id": "4394e554c8fe1f0e7feeedd04bcf1e12", "fusion_lon": 0.0, "type": "electric_scooter"}, {"rental_uris": {"ios": "https://dc.lft.to/lastmile_qr_scan", "android": "https://dc.lft.to/lastmile_qr_scan"}, "lat": 38.90046733333333, "lon": -76.982892, "fusion_lat": 0.0, "name": "805f74d5702d0bb3095644567bc4a008", "is_disabled": 0, "is_reserved": 0, "bike_id": "805f74d5702d0bb3095644567bc4a008", "fusion_lon": 0.0, "type": "electric_scooter"}, {"rental_uris": {"ios": "https://dc.lft.to/lastmile_qr_scan", "android": "https://dc.lft.to/lastmile_qr_scan"}, "lat": 38.879160666666664, "lon": -77.02352166666667, "fusion_lat": 0.0, "name": "6281e681b89d0c427c754eda8c26c5cb", "is_disabled": 0, "is_reserved": 0, "bike_id": "6281e681b89d0c427c754eda8c26c5cb", "fusion_lon": 0.0, "type": "electric_scooter"}, {"rental_uris": {"ios": "https://dc.lft.to/lastmile_qr_scan", "android": "https://dc.lft.to/lastmile_qr_scan"}, "lat": 38.86214116666667, "lon": -76.99477416666667, "fusion_lat": 0.0, "name": "9359e34a0ee1480d68123d1cab7d812f", "is_disabled": 0, "is_reserved": 0, "bike_id": "9359e34a0ee1480d68123d1cab7d812f", "fusion_lon": 0.0, "type": "electric_scooter"}, {"rental_uris": {"ios": "https://dc.lft.to/lastmile_qr_scan", "android": "https://dc.lft.to/lastmile_qr_scan"}, "lat": 38.948225666666666, "lon": -77.02486533333334, "fusion_lat": 0.0, "name": "08e90e745025e417db8ac81077b71354", "is_disabled": 0, "is_reserved": 0, "bike_id": "08e90e745025e417db8ac81077b71354", "fusion_lon": 0.0, "type": "electric_scooter"}, {"rental_uris": {"ios": "https://dc.lft.to/lastmile_qr_scan", "android": "https://dc.lft.to/lastmile_qr_scan"}, "lat": 38.925072166666666, "lon": -77.00224716666666, "fusion_lat": 0.0, "name": "2ab592b47b1337822277a467e56cf8f3", "is_disabled": 0, "is_reserved": 0, "bike_id": "2ab592b47b1337822277a467e56cf8f3", "fusion_lon": 0.0, "type": "electric_scooter"}, {"rental_uris": {"ios": "https://dc.lft.to/lastmile_qr_scan", "android": "https://dc.lft.to/lastmile_qr_scan"}, "lat": 38.89853216666667, "lon": -76.92909333333333, "fusion_lat": 0.0, "name": "11bc3102fc57e44577c946577de464d9", "is_disabled": 0, "is_reserved": 0, "bike_id": "11bc3102fc57e44577c946577de464d9", "fusion_lon": 0.0, "type": "electric_scooter"}, {"rental_uris": {"ios": "https://dc.lft.to/lastmile_qr_scan", "android": "https://dc.lft.to/lastmile_qr_scan"}, "lat": 38.93184433333333, "lon": -77.043027, "fusion_lat": 0.0, "name": "509ab626f77b850604a0f46433768a97", "is_disabled": 0, "is_reserved": 0, "bike_id": "509ab626f77b850604a0f46433768a97", "fusion_lon": 0.0, "type": "electric_scooter"}, {"rental_uris": {"ios": "https://dc.lft.to/lastmile_qr_scan", "android": "https://dc.lft.to/lastmile_qr_scan"}, "lat": 38.91545633333333, "lon": -77.03198766666667, "fusion_lat": 0.0, "name": "a2dbf171073d615a3063f13d44c3b22f", "is_disabled": 0, "is_reserved": 0, "bike_id": "a2dbf171073d615a3063f13d44c3b22f", "fusion_lon": 0.0, "type": "electric_scooter"}, {"rental_uris": {"ios": "https://dc.lft.to/lastmile_qr_scan", "android": "https://dc.lft.to/lastmile_qr_scan"}, "lat": 38.8939065, "lon": -77.02265666666666, "fusion_lat": 0.0, "name": "32017b90573087ced88ba12114de8327", "is_disabled": 0, "is_reserved": 0, "bike_id": "32017b90573087ced88ba12114de8327", "fusion_lon": 0.0, "type": "electric_scooter"}, {"rental_uris": {"ios": "https://dc.lft.to/lastmile_qr_scan", "android": "https://dc.lft.to/lastmile_qr_scan"}, "lat": 38.91425566666667, "lon": -77.031856, "fusion_lat": 0.0, "name": "7cff04b0ccc657bc7928ac9264418e08", "is_disabled": 0, "is_reserved": 0, "bike_id": "7cff04b0ccc657bc7928ac9264418e08", "fusion_lon": 0.0, "type": "electric_scooter"}, {"rental_uris": {"ios": "https://dc.lft.to/lastmile_qr_scan", "android": "https://dc.lft.to/lastmile_qr_scan"}, "lat": 38.918940666666664, "lon": -77.02479816666667, "fusion_lat": 0.0, "name": "b48321ce9a0365914937128e0b6e5776", "is_disabled": 0, "is_reserved": 0, "bike_id": "b48321ce9a0365914937128e0b6e5776", "fusion_lon": 0.0, "type": "electric_scooter"}, {"rental_uris": {"ios": "https://dc.lft.to/lastmile_qr_scan", "android": "https://dc.lft.to/lastmile_qr_scan"}, "lat": 38.90248783333333, "lon": -77.03413983333333, "fusion_lat": 0.0, "name": "3d3f7d506c4d596ae0f58787a1f3644f", "is_disabled": 0, "is_reserved": 0, "bike_id": "3d3f7d506c4d596ae0f58787a1f3644f", "fusion_lon": 0.0, "type": "electric_scooter"}, {"rental_uris": {"ios": "https://dc.lft.to/lastmile_qr_scan", "android": "https://dc.lft.to/lastmile_qr_scan"}, "lat": 38.92774716666667, "lon": -77.05261983333334, "fusion_lat": 0.0, "name": "0af3789803422c77c8f436437c76520d", "is_disabled": 0, "is_reserved": 0, "bike_id": "0af3789803422c77c8f436437c76520d", "fusion_lon": 0.0, "type": "electric_scooter"}, {"rental_uris": {"ios": "https://dc.lft.to/lastmile_qr_scan", "android": "https://dc.lft.to/lastmile_qr_scan"}, "lat": 38.8983385, "lon": -77.04834966666667, "fusion_lat": 0.0, "name": "d24956f088888b81c14adfa64d68106b", "is_disabled": 0, "is_reserved": 0, "bike_id": "d24956f088888b81c14adfa64d68106b", "fusion_lon": 0.0, "type": "electric_scooter"}, {"rental_uris": {"ios": "https://dc.lft.to/lastmile_qr_scan", "android": "https://dc.lft.to/lastmile_qr_scan"}, "lat": 38.88743483333333, "lon": -77.01525333333333, "fusion_lat": 0.0, "name": "636b57952568257bcc3e75de4982d0f4", "is_disabled": 0, "is_reserved": 0, "bike_id": "636b57952568257bcc3e75de4982d0f4", "fusion_lon": 0.0, "type": "electric_scooter"}, {"rental_uris": {"ios": "https://dc.lft.to/lastmile_qr_scan", "android": "https://dc.lft.to/lastmile_qr_scan"}, "lat": 38.895109, "lon": -77.02288966666667, "fusion_lat": 0.0, "name": "9d120a3252cdd2a0c68a261da94daf1d", "is_disabled": 0, "is_reserved": 0, "bike_id": "9d120a3252cdd2a0c68a261da94daf1d", "fusion_lon": 0.0, "type": "electric_scooter"}, {"rental_uris": {"ios": "https://dc.lft.to/lastmile_qr_scan", "android": "https://dc.lft.to/lastmile_qr_scan"}, "lat": 38.92113483333333, "lon": -77.03667216666666, "fusion_lat": 0.0, "name": "7f3fffb40ea60a8ccea9a3d6a639775d", "is_disabled": 0, "is_reserved": 0, "bike_id": "7f3fffb40ea60a8ccea9a3d6a639775d", "fusion_lon": 0.0, "type": "electric_scooter"}, {"rental_uris": {"ios": "https://dc.lft.to/lastmile_qr_scan", "android": "https://dc.lft.to/lastmile_qr_scan"}, "lat": 38.900120333333334, "lon": -77.04491483333334, "fusion_lat": 0.0, "name": "952749143a02b83c2a4622fa245a6490", "is_disabled": 0, "is_reserved": 0, "bike_id": "952749143a02b83c2a4622fa245a6490", "fusion_lon": 0.0, "type": "electric_scooter"}, {"rental_uris": {"ios": "https://dc.lft.to/lastmile_qr_scan", "android": "https://dc.lft.to/lastmile_qr_scan"}, "lat": 38.915129666666665, "lon": -77.04493466666666, "fusion_lat": 0.0, "name": "3ad1039d4c4f03ef46bd55e9e14ab12b", "is_disabled": 0, "is_reserved": 0, "bike_id": "3ad1039d4c4f03ef46bd55e9e14ab12b", "fusion_lon": 0.0, "type": "electric_scooter"}, {"rental_uris": {"ios": "https://dc.lft.to/lastmile_qr_scan", "android": "https://dc.lft.to/lastmile_qr_scan"}, "lat": 38.874702, "lon": -77.00481466666666, "fusion_lat": 0.0, "name": "00373f2f1f6ff793acb51fc40d7b60b8", "is_disabled": 0, "is_reserved": 0, "bike_id": "00373f2f1f6ff793acb51fc40d7b60b8", "fusion_lon": 0.0, "type": "electric_scooter"}, {"rental_uris": {"ios": "https://dc.lft.to/lastmile_qr_scan", "android": "https://dc.lft.to/lastmile_qr_scan"}, "lat": 38.908985333333334, "lon": -77.039631, "fusion_lat": 0.0, "name": "d1d0bc5233004545d0c6b87bcfcb9cf4", "is_disabled": 0, "is_reserved": 0, "bike_id": "d1d0bc5233004545d0c6b87bcfcb9cf4", "fusion_lon": 0.0, "type": "electric_bike"}, {"rental_uris": {"ios": "https://dc.lft.to/lastmile_qr_scan", "android": "https://dc.lft.to/lastmile_qr_scan"}, "lat": 39.05278166666667, "lon": -77.08067916666667, "fusion_lat": 0.0, "name": "9f344b6c27cc3b6859d628e63d834c36", "is_disabled": 0, "is_reserved": 0, "bike_id": "9f344b6c27cc3b6859d628e63d834c36", "fusion_lon": 0.0, "type": "electric_bike"}, {"rental_uris": {"ios": "https://dc.lft.to/lastmile_qr_scan", "android": "https://dc.lft.to/lastmile_qr_scan"}, "lat": 38.92142666666667, "lon": -77.03506316666666, "fusion_lat": 0.0, "name": "ef8d94acaa80c739dcad2b3161ecb392", "is_disabled": 0, "is_reserved": 0, "bike_id": "ef8d94acaa80c739dcad2b3161ecb392", "fusion_lon": 0.0, "type": "electric_scooter"}, {"rental_uris": {"ios": "https://dc.lft.to/lastmile_qr_scan", "android": "https://dc.lft.to/lastmile_qr_scan"}, "lat": 38.8736355, "lon": -76.97024783333333, "fusion_lat": 0.0, "name": "61464c80758c83d2caf0a53c50a67512", "is_disabled": 0, "is_reserved": 0, "bike_id": "61464c80758c83d2caf0a53c50a67512", "fusion_lon": 0.0, "type": "electric_scooter"}, {"rental_uris": {"ios": "https://dc.lft.to/lastmile_qr_scan", "android": "https://dc.lft.to/lastmile_qr_scan"}, "lat": 38.918214666666664, "lon": -77.0494105, "fusion_lat": 0.0, "name": "80823700e72105758eaa1d5e597cee2d", "is_disabled": 0, "is_reserved": 0, "bike_id": "80823700e72105758eaa1d5e597cee2d", "fusion_lon": 0.0, "type": "electric_scooter"}, {"rental_uris": {"ios": "https://dc.lft.to/lastmile_qr_scan", "android": "https://dc.lft.to/lastmile_qr_scan"}, "lat": 38.8670615, "lon": -76.9871265, "fusion_lat": 0.0, "name": "79a43064147d6745a43403949ba2e8a7", "is_disabled": 0, "is_reserved": 0, "bike_id": "79a43064147d6745a43403949ba2e8a7", "fusion_lon": 0.0, "type": "electric_scooter"}, {"rental_uris": {"ios": "https://dc.lft.to/lastmile_qr_scan", "android": "https://dc.lft.to/lastmile_qr_scan"}, "lat": 38.899651166666665, "lon": -77.047657, "fusion_lat": 0.0, "name": "ad6ba30bb5f92c47a0829215502ce221", "is_disabled": 0, "is_reserved": 0, "bike_id": "ad6ba30bb5f92c47a0829215502ce221", "fusion_lon": 0.0, "type": "electric_scooter"}, {"rental_uris": {"ios": "https://dc.lft.to/lastmile_qr_scan", "android": "https://dc.lft.to/lastmile_qr_scan"}, "lat": 38.93341016666667, "lon": -77.02055766666666, "fusion_lat": 0.0, "name": "5a5f360517691537c6200b0e94251f95", "is_disabled": 0, "is_reserved": 0, "bike_id": "5a5f360517691537c6200b0e94251f95", "fusion_lon": 0.0, "type": "electric_scooter"}, {"rental_uris": {"ios": "https://dc.lft.to/lastmile_qr_scan", "android": "https://dc.lft.to/lastmile_qr_scan"}, "lat": 38.9357445, "lon": -77.0197405, "fusion_lat": 0.0, "name": "6df5fd507384e6920fa8b2ebf4842671", "is_disabled": 0, "is_reserved": 0, "bike_id": "6df5fd507384e6920fa8b2ebf4842671", "fusion_lon": 0.0, "type": "electric_scooter"}, {"rental_uris": {"ios": "https://dc.lft.to/lastmile_qr_scan", "android": "https://dc.lft.to/lastmile_qr_scan"}, "lat": 38.91400083333333, "lon": -77.024072, "fusion_lat": 0.0, "name": "e28c59e188128a41b010104f721039d5", "is_disabled": 0, "is_reserved": 0, "bike_id": "e28c59e188128a41b010104f721039d5", "fusion_lon": 0.0, "type": "electric_scooter"}, {"rental_uris": {"ios": "https://dc.lft.to/lastmile_qr_scan", "android": "https://dc.lft.to/lastmile_qr_scan"}, "lat": 38.91123116666667, "lon": -77.04474983333333, "fusion_lat": 0.0, "name": "aa53b5071e4cbb6a52a6f37e0630186e", "is_disabled": 0, "is_reserved": 0, "bike_id": "aa53b5071e4cbb6a52a6f37e0630186e", "fusion_lon": 0.0, "type": "electric_scooter"}, {"rental_uris": {"ios": "https://dc.lft.to/lastmile_qr_scan", "android": "https://dc.lft.to/lastmile_qr_scan"}, "lat": 38.93653233333333, "lon": -77.0334545, "fusion_lat": 0.0, "name": "f53afd91fe79fa96dbbfe84acd392b4a", "is_disabled": 0, "is_reserved": 0, "bike_id": "f53afd91fe79fa96dbbfe84acd392b4a", "fusion_lon": 0.0, "type": "electric_scooter"}, {"rental_uris": {"ios": "https://dc.lft.to/lastmile_qr_scan", "android": "https://dc.lft.to/lastmile_qr_scan"}, "lat": 38.919172333333336, "lon": -77.0261455, "fusion_lat": 0.0, "name": "10c30581755f6c31b24ee0b320d48ed1", "is_disabled": 0, "is_reserved": 0, "bike_id": "10c30581755f6c31b24ee0b320d48ed1", "fusion_lon": 0.0, "type": "electric_scooter"}, {"rental_uris": {"ios": "https://dc.lft.to/lastmile_qr_scan", "android": "https://dc.lft.to/lastmile_qr_scan"}, "lat": 38.909792, "lon": -77.02172083333333, "fusion_lat": 0.0, "name": "ca69bf40c54560940b6884b6d02dfb2c", "is_disabled": 0, "is_reserved": 0, "bike_id": "ca69bf40c54560940b6884b6d02dfb2c", "fusion_lon": 0.0, "type": "electric_scooter"}, {"rental_uris": {"ios": "https://dc.lft.to/lastmile_qr_scan", "android": "https://dc.lft.to/lastmile_qr_scan"}, "lat": 38.906460833333334, "lon": -77.04876666666667, "fusion_lat": 0.0, "name": "7bef6c5b38fc175bbc64b59d81ca8948", "is_disabled": 0, "is_reserved": 0, "bike_id": "7bef6c5b38fc175bbc64b59d81ca8948", "fusion_lon": 0.0, "type": "electric_scooter"}, {"rental_uris": {"ios": "https://dc.lft.to/lastmile_qr_scan", "android": "https://dc.lft.to/lastmile_qr_scan"}, "lat": 38.89744566666667, "lon": -77.0272635, "fusion_lat": 0.0, "name": "978747c1c6f699df1f1f17eb2dc463da", "is_disabled": 0, "is_reserved": 0, "bike_id": "978747c1c6f699df1f1f17eb2dc463da", "fusion_lon": 0.0, "type": "electric_scooter"}, {"rental_uris": {"ios": "https://dc.lft.to/lastmile_qr_scan", "android": "https://dc.lft.to/lastmile_qr_scan"}, "lat": 38.903826, "lon": -77.01604683333333, "fusion_lat": 0.0, "name": "92f2365c7347974544c1ef98af8d15bc", "is_disabled": 0, "is_reserved": 0, "bike_id": "92f2365c7347974544c1ef98af8d15bc", "fusion_lon": 0.0, "type": "electric_scooter"}, {"rental_uris": {"ios": "https://dc.lft.to/lastmile_qr_scan", "android": "https://dc.lft.to/lastmile_qr_scan"}, "lat": 38.893180666666666, "lon": -76.93967066666667, "fusion_lat": 0.0, "name": "c7d90b70f9433f7cb1f4d12cf3009afa", "is_disabled": 0, "is_reserved": 0, "bike_id": "c7d90b70f9433f7cb1f4d12cf3009afa", "fusion_lon": 0.0, "type": "electric_scooter"}, {"rental_uris": {"ios": "https://dc.lft.to/lastmile_qr_scan", "android": "https://dc.lft.to/lastmile_qr_scan"}, "lat": 38.91692533333333, "lon": -77.026568, "fusion_lat": 0.0, "name": "4ba03cdfbc73d8775fbc09d69925cbe3", "is_disabled": 0, "is_reserved": 0, "bike_id": "4ba03cdfbc73d8775fbc09d69925cbe3", "fusion_lon": 0.0, "type": "electric_scooter"}, {"rental_uris": {"ios": "https://dc.lft.to/lastmile_qr_scan", "android": "https://dc.lft.to/lastmile_qr_scan"}, "lat": 38.92614233333333, "lon": -77.04198666666667, "fusion_lat": 0.0, "name": "2a56fad17696d3fdba076a98a72252fd", "is_disabled": 0, "is_reserved": 0, "bike_id": "2a56fad17696d3fdba076a98a72252fd", "fusion_lon": 0.0, "type": "electric_scooter"}, {"rental_uris": {"ios": "https://dc.lft.to/lastmile_qr_scan", "android": "https://dc.lft.to/lastmile_qr_scan"}, "lat": 38.88572933333333, "lon": -77.01546316666666, "fusion_lat": 0.0, "name": "93ee5ce85b9464e070322f7c6fc4e213", "is_disabled": 0, "is_reserved": 0, "bike_id": "93ee5ce85b9464e070322f7c6fc4e213", "fusion_lon": 0.0, "type": "electric_scooter"}, {"rental_uris": {"ios": "https://dc.lft.to/lastmile_qr_scan", "android": "https://dc.lft.to/lastmile_qr_scan"}, "lat": 38.899185833333334, "lon": -76.93364833333334, "fusion_lat": 0.0, "name": "d204b2711ddf2756ceaeee836ba8909b", "is_disabled": 0, "is_reserved": 0, "bike_id": "d204b2711ddf2756ceaeee836ba8909b", "fusion_lon": 0.0, "type": "electric_scooter"}, {"rental_uris": {"ios": "https://dc.lft.to/lastmile_qr_scan", "android": "https://dc.lft.to/lastmile_qr_scan"}, "lat": 38.90653566666667, "lon": -77.04846466666666, "fusion_lat": 0.0, "name": "39fdb288482d6087a1d876554c660047", "is_disabled": 0, "is_reserved": 0, "bike_id": "39fdb288482d6087a1d876554c660047", "fusion_lon": 0.0, "type": "electric_scooter"}, {"rental_uris": {"ios": "https://dc.lft.to/lastmile_qr_scan", "android": "https://dc.lft.to/lastmile_qr_scan"}, "lat": 38.89222683333333, "lon": -77.04370316666666, "fusion_lat": 0.0, "name": "10d33675ba7e9ecaa0354399c286439e", "is_disabled": 0, "is_reserved": 0, "bike_id": "10d33675ba7e9ecaa0354399c286439e", "fusion_lon": 0.0, "type": "electric_scooter"}, {"rental_uris": {"ios": "https://dc.lft.to/lastmile_qr_scan", "android": "https://dc.lft.to/lastmile_qr_scan"}, "lat": 38.921218, "lon": -77.012107, "fusion_lat": 0.0, "name": "834a8f09f8d1575f7eac58d9eaedef42", "is_disabled": 0, "is_reserved": 0, "bike_id": "834a8f09f8d1575f7eac58d9eaedef42", "fusion_lon": 0.0, "type": "electric_scooter"}, {"rental_uris": {"ios": "https://dc.lft.to/lastmile_qr_scan", "android": "https://dc.lft.to/lastmile_qr_scan"}, "lat": 38.89848716666667, "lon": -77.0331845, "fusion_lat": 0.0, "name": "50afa2cee3c4e8c5dd42ed2e6a199fde", "is_disabled": 0, "is_reserved": 0, "bike_id": "50afa2cee3c4e8c5dd42ed2e6a199fde", "fusion_lon": 0.0, "type": "electric_scooter"}, {"rental_uris": {"ios": "https://dc.lft.to/lastmile_qr_scan", "android": "https://dc.lft.to/lastmile_qr_scan"}, "lat": 38.90416233333333, "lon": -77.0533595, "fusion_lat": 0.0, "name": "e3784c8465b1999cbc181b93d3b68737", "is_disabled": 0, "is_reserved": 0, "bike_id": "e3784c8465b1999cbc181b93d3b68737", "fusion_lon": 0.0, "type": "electric_scooter"}, {"rental_uris": {"ios": "https://dc.lft.to/lastmile_qr_scan", "android": "https://dc.lft.to/lastmile_qr_scan"}, "lat": 38.899615, "lon": -76.97535583333334, "fusion_lat": 0.0, "name": "3ccf1090163bfa08d6cfca55c5c388bc", "is_disabled": 0, "is_reserved": 0, "bike_id": "3ccf1090163bfa08d6cfca55c5c388bc", "fusion_lon": 0.0, "type": "electric_scooter"}, {"rental_uris": {"ios": "https://dc.lft.to/lastmile_qr_scan", "android": "https://dc.lft.to/lastmile_qr_scan"}, "lat": 38.865715, "lon": -76.98220833333333, "fusion_lat": 0.0, "name": "84829a0a65f176f401cbac3df28f8aa3", "is_disabled": 0, "is_reserved": 0, "bike_id": "84829a0a65f176f401cbac3df28f8aa3", "fusion_lon": 0.0, "type": "electric_scooter"}, {"rental_uris": {"ios": "https://dc.lft.to/lastmile_qr_scan", "android": "https://dc.lft.to/lastmile_qr_scan"}, "lat": 38.90012483333334, "lon": -76.99896783333334, "fusion_lat": 0.0, "name": "bd7b8960bf332abdaf71027ec6f4db9a", "is_disabled": 0, "is_reserved": 0, "bike_id": "bd7b8960bf332abdaf71027ec6f4db9a", "fusion_lon": 0.0, "type": "electric_scooter"}, {"rental_uris": {"ios": "https://dc.lft.to/lastmile_qr_scan", "android": "https://dc.lft.to/lastmile_qr_scan"}, "lat": 38.907286, "lon": -77.02826233333333, "fusion_lat": 0.0, "name": "971e4904c2bd0796f6b77b5f59426b02", "is_disabled": 0, "is_reserved": 0, "bike_id": "971e4904c2bd0796f6b77b5f59426b02", "fusion_lon": 0.0, "type": "electric_scooter"}, {"rental_uris": {"ios": "https://dc.lft.to/lastmile_qr_scan", "android": "https://dc.lft.to/lastmile_qr_scan"}, "lat": 38.905598833333336, "lon": -77.041752, "fusion_lat": 0.0, "name": "eb47210102a26d95b145b51882fa2758", "is_disabled": 0, "is_reserved": 0, "bike_id": "eb47210102a26d95b145b51882fa2758", "fusion_lon": 0.0, "type": "electric_scooter"}, {"rental_uris": {"ios": "https://dc.lft.to/lastmile_qr_scan", "android": "https://dc.lft.to/lastmile_qr_scan"}, "lat": 38.89230083333333, "lon": -77.02451016666667, "fusion_lat": 0.0, "name": "e08e7c936ddd7c4e9b6a03b4a74f5ae7", "is_disabled": 0, "is_reserved": 0, "bike_id": "e08e7c936ddd7c4e9b6a03b4a74f5ae7", "fusion_lon": 0.0, "type": "electric_scooter"}, {"rental_uris": {"ios": "https://dc.lft.to/lastmile_qr_scan", "android": "https://dc.lft.to/lastmile_qr_scan"}, "lat": 38.904220333333335, "lon": -76.97376766666666, "fusion_lat": 0.0, "name": "00114e0f7601f473f9e889da7ff8883c", "is_disabled": 0, "is_reserved": 0, "bike_id": "00114e0f7601f473f9e889da7ff8883c", "fusion_lon": 0.0, "type": "electric_scooter"}, {"rental_uris": {"ios": "https://dc.lft.to/lastmile_qr_scan", "android": "https://dc.lft.to/lastmile_qr_scan"}, "lat": 38.9018045, "lon": -77.0248265, "fusion_lat": 0.0, "name": "b4627a61b49e4918da39d17a52bac4f8", "is_disabled": 0, "is_reserved": 0, "bike_id": "b4627a61b49e4918da39d17a52bac4f8", "fusion_lon": 0.0, "type": "electric_scooter"}, {"rental_uris": {"ios": "https://dc.lft.to/lastmile_qr_scan", "android": "https://dc.lft.to/lastmile_qr_scan"}, "lat": 38.914112333333335, "lon": -77.03812333333333, "fusion_lat": 0.0, "name": "ea7b110fd3c81d8db2816ab10f919d5f", "is_disabled": 0, "is_reserved": 0, "bike_id": "ea7b110fd3c81d8db2816ab10f919d5f", "fusion_lon": 0.0, "type": "electric_scooter"}, {"rental_uris": {"ios": "https://dc.lft.to/lastmile_qr_scan", "android": "https://dc.lft.to/lastmile_qr_scan"}, "lat": 38.93789, "lon": -77.03333366666666, "fusion_lat": 0.0, "name": "f35bcb55819798c8eff9de200041dd70", "is_disabled": 0, "is_reserved": 0, "bike_id": "f35bcb55819798c8eff9de200041dd70", "fusion_lon": 0.0, "type": "electric_scooter"}, {"rental_uris": {"ios": "https://dc.lft.to/lastmile_qr_scan", "android": "https://dc.lft.to/lastmile_qr_scan"}, "lat": 38.854144166666664, "lon": -77.1207345, "fusion_lat": 0.0, "name": "17c9525d33124200e8d58b7cee638f55", "is_disabled": 0, "is_reserved": 0, "bike_id": "17c9525d33124200e8d58b7cee638f55", "fusion_lon": 0.0, "type": "electric_bike"}, {"rental_uris": {"ios": "https://dc.lft.to/lastmile_qr_scan", "android": "https://dc.lft.to/lastmile_qr_scan"}, "lat": 38.892412, "lon": -77.03345683333333, "fusion_lat": 0.0, "name": "e606c2bc8287d0a61d8ca78e3fea9081", "is_disabled": 0, "is_reserved": 0, "bike_id": "e606c2bc8287d0a61d8ca78e3fea9081", "fusion_lon": 0.0, "type": "electric_scooter"}, {"rental_uris": {"ios": "https://dc.lft.to/lastmile_qr_scan", "android": "https://dc.lft.to/lastmile_qr_scan"}, "lat": 38.866590333333335, "lon": -76.988864, "fusion_lat": 0.0, "name": "a1af724e081258720271701fd1501003", "is_disabled": 0, "is_reserved": 0, "bike_id": "a1af724e081258720271701fd1501003", "fusion_lon": 0.0, "type": "electric_scooter"}, {"rental_uris": {"ios": "https://dc.lft.to/lastmile_qr_scan", "android": "https://dc.lft.to/lastmile_qr_scan"}, "lat": 38.91110116666667, "lon": -77.0321595, "fusion_lat": 0.0, "name": "c42b6779b62e7d46d1af67ce7293f9e0", "is_disabled": 0, "is_reserved": 0, "bike_id": "c42b6779b62e7d46d1af67ce7293f9e0", "fusion_lon": 0.0, "type": "electric_scooter"}, {"rental_uris": {"ios": "https://dc.lft.to/lastmile_qr_scan", "android": "https://dc.lft.to/lastmile_qr_scan"}, "lat": 38.84612583333333, "lon": -76.96913666666667, "fusion_lat": 0.0, "name": "fc42f57b2f14d5e419902d367fefae78", "is_disabled": 0, "is_reserved": 0, "bike_id": "fc42f57b2f14d5e419902d367fefae78", "fusion_lon": 0.0, "type": "electric_bike"}, {"rental_uris": {"ios": "https://dc.lft.to/lastmile_qr_scan", "android": "https://dc.lft.to/lastmile_qr_scan"}, "lat": 38.9257605, "lon": -77.05424633333334, "fusion_lat": 0.0, "name": "e0fda2e3c25b36c727a8503c80d73d78", "is_disabled": 0, "is_reserved": 0, "bike_id": "e0fda2e3c25b36c727a8503c80d73d78", "fusion_lon": 0.0, "type": "electric_scooter"}, {"rental_uris": {"ios": "https://dc.lft.to/lastmile_qr_scan", "android": "https://dc.lft.to/lastmile_qr_scan"}, "lat": 38.92769033333333, "lon": -77.02326766666667, "fusion_lat": 0.0, "name": "79a4515461b19705413a26f113ad85cf", "is_disabled": 0, "is_reserved": 0, "bike_id": "79a4515461b19705413a26f113ad85cf", "fusion_lon": 0.0, "type": "electric_scooter"}, {"rental_uris": {"ios": "https://dc.lft.to/lastmile_qr_scan", "android": "https://dc.lft.to/lastmile_qr_scan"}, "lat": 38.92859166666667, "lon": -77.03715633333333, "fusion_lat": 0.0, "name": "643e1290481ae798a5abed543d79d9ac", "is_disabled": 0, "is_reserved": 0, "bike_id": "643e1290481ae798a5abed543d79d9ac", "fusion_lon": 0.0, "type": "electric_scooter"}, {"rental_uris": {"ios": "https://dc.lft.to/lastmile_qr_scan", "android": "https://dc.lft.to/lastmile_qr_scan"}, "lat": 38.899938, "lon": -77.00665116666667, "fusion_lat": 0.0, "name": "a1949933623c775c0e1d2ddc01a31f56", "is_disabled": 0, "is_reserved": 0, "bike_id": "a1949933623c775c0e1d2ddc01a31f56", "fusion_lon": 0.0, "type": "electric_scooter"}, {"rental_uris": {"ios": "https://dc.lft.to/lastmile_qr_scan", "android": "https://dc.lft.to/lastmile_qr_scan"}, "lat": 38.89649133333333, "lon": -77.0280755, "fusion_lat": 0.0, "name": "2f7e6291b6df645d0b09bd9e4956c455", "is_disabled": 0, "is_reserved": 0, "bike_id": "2f7e6291b6df645d0b09bd9e4956c455", "fusion_lon": 0.0, "type": "electric_scooter"}, {"rental_uris": {"ios": "https://dc.lft.to/lastmile_qr_scan", "android": "https://dc.lft.to/lastmile_qr_scan"}, "lat": 38.901153666666666, "lon": -77.00875566666667, "fusion_lat": 0.0, "name": "4ec41a08534f9feed7f1ea04928eb1d6", "is_disabled": 0, "is_reserved": 0, "bike_id": "4ec41a08534f9feed7f1ea04928eb1d6", "fusion_lon": 0.0, "type": "electric_scooter"}, {"rental_uris": {"ios": "https://dc.lft.to/lastmile_qr_scan", "android": "https://dc.lft.to/lastmile_qr_scan"}, "lat": 38.90137816666667, "lon": -77.04634416666667, "fusion_lat": 0.0, "name": "81679ef8950f4b82fac4d8a738c37680", "is_disabled": 0, "is_reserved": 0, "bike_id": "81679ef8950f4b82fac4d8a738c37680", "fusion_lon": 0.0, "type": "electric_scooter"}, {"rental_uris": {"ios": "https://dc.lft.to/lastmile_qr_scan", "android": "https://dc.lft.to/lastmile_qr_scan"}, "lat": 38.884109333333335, "lon": -76.96055083333333, "fusion_lat": 0.0, "name": "7c2aed9eed6b589ea5b826f2d7d8a5ac", "is_disabled": 0, "is_reserved": 0, "bike_id": "7c2aed9eed6b589ea5b826f2d7d8a5ac", "fusion_lon": 0.0, "type": "electric_bike"}, {"rental_uris": {"ios": "https://dc.lft.to/lastmile_qr_scan", "android": "https://dc.lft.to/lastmile_qr_scan"}, "lat": 38.9154645, "lon": -77.03196733333333, "fusion_lat": 0.0, "name": "a99476ce6af45917e02ec8ed625eba0e", "is_disabled": 0, "is_reserved": 0, "bike_id": "a99476ce6af45917e02ec8ed625eba0e", "fusion_lon": 0.0, "type": "electric_scooter"}, {"rental_uris": {"ios": "https://dc.lft.to/lastmile_qr_scan", "android": "https://dc.lft.to/lastmile_qr_scan"}, "lat": 38.900700666666665, "lon": -77.050434, "fusion_lat": 0.0, "name": "3071d6560113c0102367d3a156f79cce", "is_disabled": 0, "is_reserved": 0, "bike_id": "3071d6560113c0102367d3a156f79cce", "fusion_lon": 0.0, "type": "electric_scooter"}, {"rental_uris": {"ios": "https://dc.lft.to/lastmile_qr_scan", "android": "https://dc.lft.to/lastmile_qr_scan"}, "lat": 38.928892, "lon": -77.03263166666666, "fusion_lat": 0.0, "name": "065fd8867147eb987834908fa774389f", "is_disabled": 0, "is_reserved": 0, "bike_id": "065fd8867147eb987834908fa774389f", "fusion_lon": 0.0, "type": "electric_scooter"}, {"rental_uris": {"ios": "https://dc.lft.to/lastmile_qr_scan", "android": "https://dc.lft.to/lastmile_qr_scan"}, "lat": 38.87490283333333, "lon": -77.002513, "fusion_lat": 0.0, "name": "84a0e8c8837ac531606452de432c0fee", "is_disabled": 0, "is_reserved": 0, "bike_id": "84a0e8c8837ac531606452de432c0fee", "fusion_lon": 0.0, "type": "electric_scooter"}, {"rental_uris": {"ios": "https://dc.lft.to/lastmile_qr_scan", "android": "https://dc.lft.to/lastmile_qr_scan"}, "lat": 38.90641183333334, "lon": -77.01794766666667, "fusion_lat": 0.0, "name": "febd431dfd59ace4eba0dd353cf464ff", "is_disabled": 0, "is_reserved": 0, "bike_id": "febd431dfd59ace4eba0dd353cf464ff", "fusion_lon": 0.0, "type": "electric_scooter"}, {"rental_uris": {"ios": "https://dc.lft.to/lastmile_qr_scan", "android": "https://dc.lft.to/lastmile_qr_scan"}, "lat": 38.935369333333334, "lon": -77.02349833333334, "fusion_lat": 0.0, "name": "e801aa7f23182b158fe78fb071940ac1", "is_disabled": 0, "is_reserved": 0, "bike_id": "e801aa7f23182b158fe78fb071940ac1", "fusion_lon": 0.0, "type": "electric_scooter"}, {"rental_uris": {"ios": "https://dc.lft.to/lastmile_qr_scan", "android": "https://dc.lft.to/lastmile_qr_scan"}, "lat": 38.8770075, "lon": -77.01772366666667, "fusion_lat": 0.0, "name": "a06e71a69c0d7a9f1b0644492b2dd5cb", "is_disabled": 0, "is_reserved": 0, "bike_id": "a06e71a69c0d7a9f1b0644492b2dd5cb", "fusion_lon": 0.0, "type": "electric_scooter"}, {"rental_uris": {"ios": "https://dc.lft.to/lastmile_qr_scan", "android": "https://dc.lft.to/lastmile_qr_scan"}, "lat": 38.900929833333336, "lon": -77.0121375, "fusion_lat": 0.0, "name": "610d60db073c399f54157ac734104c51", "is_disabled": 0, "is_reserved": 0, "bike_id": "610d60db073c399f54157ac734104c51", "fusion_lon": 0.0, "type": "electric_scooter"}, {"rental_uris": {"ios": "https://dc.lft.to/lastmile_qr_scan", "android": "https://dc.lft.to/lastmile_qr_scan"}, "lat": 38.924794, "lon": -77.037813, "fusion_lat": 0.0, "name": "10c0be4b95b050b1d261ab0c217aa1b8", "is_disabled": 0, "is_reserved": 0, "bike_id": "10c0be4b95b050b1d261ab0c217aa1b8", "fusion_lon": 0.0, "type": "electric_scooter"}, {"rental_uris": {"ios": "https://dc.lft.to/lastmile_qr_scan", "android": "https://dc.lft.to/lastmile_qr_scan"}, "lat": 38.914651166666665, "lon": -77.0019955, "fusion_lat": 0.0, "name": "36259f611e4be3af98b581f94a008db5", "is_disabled": 0, "is_reserved": 0, "bike_id": "36259f611e4be3af98b581f94a008db5", "fusion_lon": 0.0, "type": "electric_scooter"}, {"rental_uris": {"ios": "https://dc.lft.to/lastmile_qr_scan", "android": "https://dc.lft.to/lastmile_qr_scan"}, "lat": 38.92080766666667, "lon": -77.02337033333333, "fusion_lat": 0.0, "name": "0dd02e52a65f41c812dadb67cfb84ecb", "is_disabled": 0, "is_reserved": 0, "bike_id": "0dd02e52a65f41c812dadb67cfb84ecb", "fusion_lon": 0.0, "type": "electric_scooter"}, {"rental_uris": {"ios": "https://dc.lft.to/lastmile_qr_scan", "android": "https://dc.lft.to/lastmile_qr_scan"}, "lat": 38.884107666666665, "lon": -76.948228, "fusion_lat": 0.0, "name": "af83005aea94c96a6ffd19770ddcbfe4", "is_disabled": 0, "is_reserved": 0, "bike_id": "af83005aea94c96a6ffd19770ddcbfe4", "fusion_lon": 0.0, "type": "electric_scooter"}, {"rental_uris": {"ios": "https://dc.lft.to/lastmile_qr_scan", "android": "https://dc.lft.to/lastmile_qr_scan"}, "lat": 38.92053633333333, "lon": -77.02422633333333, "fusion_lat": 0.0, "name": "c8e401db8084f5db80140d45e02dff80", "is_disabled": 0, "is_reserved": 0, "bike_id": "c8e401db8084f5db80140d45e02dff80", "fusion_lon": 0.0, "type": "electric_scooter"}, {"rental_uris": {"ios": "https://dc.lft.to/lastmile_qr_scan", "android": "https://dc.lft.to/lastmile_qr_scan"}, "lat": 38.934003, "lon": -77.05744133333333, "fusion_lat": 0.0, "name": "2737eb1bba2a46f2fce27d023940e495", "is_disabled": 0, "is_reserved": 0, "bike_id": "2737eb1bba2a46f2fce27d023940e495", "fusion_lon": 0.0, "type": "electric_scooter"}, {"rental_uris": {"ios": "https://dc.lft.to/lastmile_qr_scan", "android": "https://dc.lft.to/lastmile_qr_scan"}, "lat": 38.905609166666665, "lon": -77.04175116666667, "fusion_lat": 0.0, "name": "3e399eefc90eb9890f235e0696884f9c", "is_disabled": 0, "is_reserved": 0, "bike_id": "3e399eefc90eb9890f235e0696884f9c", "fusion_lon": 0.0, "type": "electric_scooter"}, {"rental_uris": {"ios": "https://dc.lft.to/lastmile_qr_scan", "android": "https://dc.lft.to/lastmile_qr_scan"}, "lat": 38.896270333333334, "lon": -77.02629366666666, "fusion_lat": 0.0, "name": "4f8a66ffac3a7fb063c7ecdc991b68d2", "is_disabled": 0, "is_reserved": 0, "bike_id": "4f8a66ffac3a7fb063c7ecdc991b68d2", "fusion_lon": 0.0, "type": "electric_scooter"}, {"rental_uris": {"ios": "https://dc.lft.to/lastmile_qr_scan", "android": "https://dc.lft.to/lastmile_qr_scan"}, "lat": 38.9149395, "lon": -77.0217635, "fusion_lat": 0.0, "name": "5063bb3865506dbca48a2bf487b0d871", "is_disabled": 0, "is_reserved": 0, "bike_id": "5063bb3865506dbca48a2bf487b0d871", "fusion_lon": 0.0, "type": "electric_scooter"}, {"rental_uris": {"ios": "https://dc.lft.to/lastmile_qr_scan", "android": "https://dc.lft.to/lastmile_qr_scan"}, "lat": 38.91678733333333, "lon": -77.02310783333333, "fusion_lat": 0.0, "name": "1d02505f76b7da2c424a16dec659e7fe", "is_disabled": 0, "is_reserved": 0, "bike_id": "1d02505f76b7da2c424a16dec659e7fe", "fusion_lon": 0.0, "type": "electric_scooter"}, {"rental_uris": {"ios": "https://dc.lft.to/lastmile_qr_scan", "android": "https://dc.lft.to/lastmile_qr_scan"}, "lat": 38.8309695, "lon": -77.04290383333333, "fusion_lat": 0.0, "name": "d3ca22c678c8748482db6e41f536968b", "is_disabled": 0, "is_reserved": 0, "bike_id": "d3ca22c678c8748482db6e41f536968b", "fusion_lon": 0.0, "type": "electric_bike"}, {"rental_uris": {"ios": "https://dc.lft.to/lastmile_qr_scan", "android": "https://dc.lft.to/lastmile_qr_scan"}, "lat": 38.897386166666664, "lon": -77.02977316666667, "fusion_lat": 0.0, "name": "49b08b7466aabc59b19cebef24cf1b4a", "is_disabled": 0, "is_reserved": 0, "bike_id": "49b08b7466aabc59b19cebef24cf1b4a", "fusion_lon": 0.0, "type": "electric_scooter"}, {"rental_uris": {"ios": "https://dc.lft.to/lastmile_qr_scan", "android": "https://dc.lft.to/lastmile_qr_scan"}, "lat": 38.8670445, "lon": -76.98709483333333, "fusion_lat": 0.0, "name": "f837f9cede3f2a4c94e4419f80eceb45", "is_disabled": 0, "is_reserved": 0, "bike_id": "f837f9cede3f2a4c94e4419f80eceb45", "fusion_lon": 0.0, "type": "electric_scooter"}, {"rental_uris": {"ios": "https://dc.lft.to/lastmile_qr_scan", "android": "https://dc.lft.to/lastmile_qr_scan"}, "lat": 38.917060166666666, "lon": -77.02866966666667, "fusion_lat": 0.0, "name": "e0213fa9767aacc07e756f5496c789d5", "is_disabled": 0, "is_reserved": 0, "bike_id": "e0213fa9767aacc07e756f5496c789d5", "fusion_lon": 0.0, "type": "electric_scooter"}, {"rental_uris": {"ios": "https://dc.lft.to/lastmile_qr_scan", "android": "https://dc.lft.to/lastmile_qr_scan"}, "lat": 38.931380833333336, "lon": -77.04249133333333, "fusion_lat": 0.0, "name": "2a6a695a2ecfb98e82895f987ccce00b", "is_disabled": 0, "is_reserved": 0, "bike_id": "2a6a695a2ecfb98e82895f987ccce00b", "fusion_lon": 0.0, "type": "electric_scooter"}, {"rental_uris": {"ios": "https://dc.lft.to/lastmile_qr_scan", "android": "https://dc.lft.to/lastmile_qr_scan"}, "lat": 38.89607933333333, "lon": -77.04456633333334, "fusion_lat": 0.0, "name": "15bf3bfc48d06e6ed066c29916962751", "is_disabled": 0, "is_reserved": 0, "bike_id": "15bf3bfc48d06e6ed066c29916962751", "fusion_lon": 0.0, "type": "electric_scooter"}, {"rental_uris": {"ios": "https://dc.lft.to/lastmile_qr_scan", "android": "https://dc.lft.to/lastmile_qr_scan"}, "lat": 38.92036016666667, "lon": -77.04084766666666, "fusion_lat": 0.0, "name": "cacaec6da7ede7c3799529c1cba9a605", "is_disabled": 0, "is_reserved": 0, "bike_id": "cacaec6da7ede7c3799529c1cba9a605", "fusion_lon": 0.0, "type": "electric_scooter"}, {"rental_uris": {"ios": "https://dc.lft.to/lastmile_qr_scan", "android": "https://dc.lft.to/lastmile_qr_scan"}, "lat": 38.90433633333333, "lon": -77.04853983333334, "fusion_lat": 0.0, "name": "67638dbcb89288173088f9583f2eea4a", "is_disabled": 0, "is_reserved": 0, "bike_id": "67638dbcb89288173088f9583f2eea4a", "fusion_lon": 0.0, "type": "electric_scooter"}, {"rental_uris": {"ios": "https://dc.lft.to/lastmile_qr_scan", "android": "https://dc.lft.to/lastmile_qr_scan"}, "lat": 39.02435633333333, "lon": -77.130984, "fusion_lat": 0.0, "name": "a34f03750ed1302df4909e8030d040ca", "is_disabled": 0, "is_reserved": 0, "bike_id": "a34f03750ed1302df4909e8030d040ca", "fusion_lon": 0.0, "type": "electric_bike"}, {"rental_uris": {"ios": "https://dc.lft.to/lastmile_qr_scan", "android": "https://dc.lft.to/lastmile_qr_scan"}, "lat": 38.898465333333334, "lon": -77.05300716666666, "fusion_lat": 0.0, "name": "1019894e2b725a0f59f3fb58e89d637f", "is_disabled": 0, "is_reserved": 0, "bike_id": "1019894e2b725a0f59f3fb58e89d637f", "fusion_lon": 0.0, "type": "electric_bike"}, {"rental_uris": {"ios": "https://dc.lft.to/lastmile_qr_scan", "android": "https://dc.lft.to/lastmile_qr_scan"}, "lat": 38.92220716666667, "lon": -77.04332566666666, "fusion_lat": 0.0, "name": "5ec87e75a7c92ba1af8fb26cb1dc8e48", "is_disabled": 0, "is_reserved": 0, "bike_id": "5ec87e75a7c92ba1af8fb26cb1dc8e48", "fusion_lon": 0.0, "type": "electric_scooter"}, {"rental_uris": {"ios": "https://dc.lft.to/lastmile_qr_scan", "android": "https://dc.lft.to/lastmile_qr_scan"}, "lat": 38.907388833333336, "lon": -77.04157233333333, "fusion_lat": 0.0, "name": "0415538d4795d07fef582c2b04bcf8a1", "is_disabled": 0, "is_reserved": 0, "bike_id": "0415538d4795d07fef582c2b04bcf8a1", "fusion_lon": 0.0, "type": "electric_scooter"}, {"rental_uris": {"ios": "https://dc.lft.to/lastmile_qr_scan", "android": "https://dc.lft.to/lastmile_qr_scan"}, "lat": 38.934576, "lon": -76.964418, "fusion_lat": 0.0, "name": "a01d5681fa5621710e0d31869121243b", "is_disabled": 0, "is_reserved": 0, "bike_id": "a01d5681fa5621710e0d31869121243b", "fusion_lon": 0.0, "type": "electric_scooter"}, {"rental_uris": {"ios": "https://dc.lft.to/lastmile_qr_scan", "android": "https://dc.lft.to/lastmile_qr_scan"}, "lat": 38.9021025, "lon": -77.01952733333333, "fusion_lat": 0.0, "name": "a3996a9a6ec940870072696dbd87a357", "is_disabled": 0, "is_reserved": 0, "bike_id": "a3996a9a6ec940870072696dbd87a357", "fusion_lon": 0.0, "type": "electric_scooter"}, {"rental_uris": {"ios": "https://dc.lft.to/lastmile_qr_scan", "android": "https://dc.lft.to/lastmile_qr_scan"}, "lat": 38.92057416666667, "lon": -77.04224866666667, "fusion_lat": 0.0, "name": "8717e34b613daf060e0db2cf004bc07f", "is_disabled": 0, "is_reserved": 0, "bike_id": "8717e34b613daf060e0db2cf004bc07f", "fusion_lon": 0.0, "type": "electric_scooter"}, {"rental_uris": {"ios": "https://dc.lft.to/lastmile_qr_scan", "android": "https://dc.lft.to/lastmile_qr_scan"}, "lat": 38.917673, "lon": -77.04767766666667, "fusion_lat": 0.0, "name": "ad87c9482dbeb57190c5cb3feea5ec90", "is_disabled": 0, "is_reserved": 0, "bike_id": "ad87c9482dbeb57190c5cb3feea5ec90", "fusion_lon": 0.0, "type": "electric_scooter"}, {"rental_uris": {"ios": "https://dc.lft.to/lastmile_qr_scan", "android": "https://dc.lft.to/lastmile_qr_scan"}, "lat": 38.917768833333334, "lon": -77.02307616666667, "fusion_lat": 0.0, "name": "f2b17f5a1af2a189e775789310b546c8", "is_disabled": 0, "is_reserved": 0, "bike_id": "f2b17f5a1af2a189e775789310b546c8", "fusion_lon": 0.0, "type": "electric_scooter"}, {"rental_uris": {"ios": "https://dc.lft.to/lastmile_qr_scan", "android": "https://dc.lft.to/lastmile_qr_scan"}, "lat": 38.9150045, "lon": -77.045592, "fusion_lat": 0.0, "name": "2bc3f5d2d1ccf9d5f5deec38896c4300", "is_disabled": 0, "is_reserved": 0, "bike_id": "2bc3f5d2d1ccf9d5f5deec38896c4300", "fusion_lon": 0.0, "type": "electric_scooter"}, {"rental_uris": {"ios": "https://dc.lft.to/lastmile_qr_scan", "android": "https://dc.lft.to/lastmile_qr_scan"}, "lat": 38.915641, "lon": -77.0333295, "fusion_lat": 0.0, "name": "e63c4e3dbf2435ca5a05664521da69aa", "is_disabled": 0, "is_reserved": 0, "bike_id": "e63c4e3dbf2435ca5a05664521da69aa", "fusion_lon": 0.0, "type": "electric_scooter"}, {"rental_uris": {"ios": "https://dc.lft.to/lastmile_qr_scan", "android": "https://dc.lft.to/lastmile_qr_scan"}, "lat": 38.90765566666666, "lon": -77.0346635, "fusion_lat": 0.0, "name": "031e94c045621202b0f97663edb34cfb", "is_disabled": 0, "is_reserved": 0, "bike_id": "031e94c045621202b0f97663edb34cfb", "fusion_lon": 0.0, "type": "electric_scooter"}, {"rental_uris": {"ios": "https://dc.lft.to/lastmile_qr_scan", "android": "https://dc.lft.to/lastmile_qr_scan"}, "lat": 38.876476833333335, "lon": -76.9650695, "fusion_lat": 0.0, "name": "684a2119fbe36613ef7a357d96ff380e", "is_disabled": 0, "is_reserved": 0, "bike_id": "684a2119fbe36613ef7a357d96ff380e", "fusion_lon": 0.0, "type": "electric_scooter"}, {"rental_uris": {"ios": "https://dc.lft.to/lastmile_qr_scan", "android": "https://dc.lft.to/lastmile_qr_scan"}, "lat": 38.927347166666664, "lon": -77.03427683333334, "fusion_lat": 0.0, "name": "0c76260caa92362eb71cbda55a9fefd6", "is_disabled": 0, "is_reserved": 0, "bike_id": "0c76260caa92362eb71cbda55a9fefd6", "fusion_lon": 0.0, "type": "electric_scooter"}, {"rental_uris": {"ios": "https://dc.lft.to/lastmile_qr_scan", "android": "https://dc.lft.to/lastmile_qr_scan"}, "lat": 38.90859966666667, "lon": -76.99135933333334, "fusion_lat": 0.0, "name": "119c851c2f29cca843cd5e9d3511380e", "is_disabled": 0, "is_reserved": 0, "bike_id": "119c851c2f29cca843cd5e9d3511380e", "fusion_lon": 0.0, "type": "electric_bike"}, {"rental_uris": {"ios": "https://dc.lft.to/lastmile_qr_scan", "android": "https://dc.lft.to/lastmile_qr_scan"}, "lat": 38.90730966666667, "lon": -77.0237475, "fusion_lat": 0.0, "name": "401b231d89b1150419738b0cf877c741", "is_disabled": 0, "is_reserved": 0, "bike_id": "401b231d89b1150419738b0cf877c741", "fusion_lon": 0.0, "type": "electric_scooter"}, {"rental_uris": {"ios": "https://dc.lft.to/lastmile_qr_scan", "android": "https://dc.lft.to/lastmile_qr_scan"}, "lat": 38.91634083333334, "lon": -77.03189866666666, "fusion_lat": 0.0, "name": "6615b43d6f02cbe0b3f2ca0b9b8f77dd", "is_disabled": 0, "is_reserved": 0, "bike_id": "6615b43d6f02cbe0b3f2ca0b9b8f77dd", "fusion_lon": 0.0, "type": "electric_scooter"}, {"rental_uris": {"ios": "https://dc.lft.to/lastmile_qr_scan", "android": "https://dc.lft.to/lastmile_qr_scan"}, "lat": 38.901423333333334, "lon": -76.9916175, "fusion_lat": 0.0, "name": "aee03a5c94bf61aed954a58b8326e3ff", "is_disabled": 0, "is_reserved": 0, "bike_id": "aee03a5c94bf61aed954a58b8326e3ff", "fusion_lon": 0.0, "type": "electric_scooter"}, {"rental_uris": {"ios": "https://dc.lft.to/lastmile_qr_scan", "android": "https://dc.lft.to/lastmile_qr_scan"}, "lat": 38.928215, "lon": -77.01405266666667, "fusion_lat": 0.0, "name": "8d8959b5fd1c0485c74b02ea5ab6e070", "is_disabled": 0, "is_reserved": 0, "bike_id": "8d8959b5fd1c0485c74b02ea5ab6e070", "fusion_lon": 0.0, "type": "electric_scooter"}, {"rental_uris": {"ios": "https://dc.lft.to/lastmile_qr_scan", "android": "https://dc.lft.to/lastmile_qr_scan"}, "lat": 38.91504616666667, "lon": -77.01772116666666, "fusion_lat": 0.0, "name": "5d49f010b4adffb733566afb6355c3a2", "is_disabled": 0, "is_reserved": 0, "bike_id": "5d49f010b4adffb733566afb6355c3a2", "fusion_lon": 0.0, "type": "electric_scooter"}, {"rental_uris": {"ios": "https://dc.lft.to/lastmile_qr_scan", "android": "https://dc.lft.to/lastmile_qr_scan"}, "lat": 38.900748666666665, "lon": -77.04871916666667, "fusion_lat": 0.0, "name": "73cd50b2345b0f229b2a321f7803e3e8", "is_disabled": 0, "is_reserved": 0, "bike_id": "73cd50b2345b0f229b2a321f7803e3e8", "fusion_lon": 0.0, "type": "electric_scooter"}, {"rental_uris": {"ios": "https://dc.lft.to/lastmile_qr_scan", "android": "https://dc.lft.to/lastmile_qr_scan"}, "lat": 38.947364666666665, "lon": -76.99580950000001, "fusion_lat": 0.0, "name": "99489cb9afe2ae328e2bc1bbfac2ed61", "is_disabled": 0, "is_reserved": 0, "bike_id": "99489cb9afe2ae328e2bc1bbfac2ed61", "fusion_lon": 0.0, "type": "electric_bike"}, {"rental_uris": {"ios": "https://dc.lft.to/lastmile_qr_scan", "android": "https://dc.lft.to/lastmile_qr_scan"}, "lat": 38.914223, "lon": -77.0240885, "fusion_lat": 0.0, "name": "a5b4507b58e041ce0b9e9ecbdb5cc8d7", "is_disabled": 0, "is_reserved": 0, "bike_id": "a5b4507b58e041ce0b9e9ecbdb5cc8d7", "fusion_lon": 0.0, "type": "electric_scooter"}, {"rental_uris": {"ios": "https://dc.lft.to/lastmile_qr_scan", "android": "https://dc.lft.to/lastmile_qr_scan"}, "lat": 38.910331166666666, "lon": -76.98551233333333, "fusion_lat": 0.0, "name": "096b743e379eaabc38522cd23ea00930", "is_disabled": 0, "is_reserved": 0, "bike_id": "096b743e379eaabc38522cd23ea00930", "fusion_lon": 0.0, "type": "electric_scooter"}, {"rental_uris": {"ios": "https://dc.lft.to/lastmile_qr_scan", "android": "https://dc.lft.to/lastmile_qr_scan"}, "lat": 38.91531883333333, "lon": -77.03196416666667, "fusion_lat": 0.0, "name": "745e026a52ea401381021780d4736d44", "is_disabled": 0, "is_reserved": 0, "bike_id": "745e026a52ea401381021780d4736d44", "fusion_lon": 0.0, "type": "electric_scooter"}, {"rental_uris": {"ios": "https://dc.lft.to/lastmile_qr_scan", "android": "https://dc.lft.to/lastmile_qr_scan"}, "lat": 38.905542, "lon": -77.02817483333334, "fusion_lat": 0.0, "name": "7c2a97a07324dc493d1a2233bf54a023", "is_disabled": 0, "is_reserved": 0, "bike_id": "7c2a97a07324dc493d1a2233bf54a023", "fusion_lon": 0.0, "type": "electric_scooter"}, {"rental_uris": {"ios": "https://dc.lft.to/lastmile_qr_scan", "android": "https://dc.lft.to/lastmile_qr_scan"}, "lat": 38.90190483333333, "lon": -77.01295116666667, "fusion_lat": 0.0, "name": "96bb393f1396e74d0dd41c47b4b3909d", "is_disabled": 0, "is_reserved": 0, "bike_id": "96bb393f1396e74d0dd41c47b4b3909d", "fusion_lon": 0.0, "type": "electric_scooter"}, {"rental_uris": {"ios": "https://dc.lft.to/lastmile_qr_scan", "android": "https://dc.lft.to/lastmile_qr_scan"}, "lat": 38.905206, "lon": -77.04855316666666, "fusion_lat": 0.0, "name": "f47117e912eb04090a97b52f6df18094", "is_disabled": 0, "is_reserved": 0, "bike_id": "f47117e912eb04090a97b52f6df18094", "fusion_lon": 0.0, "type": "electric_scooter"}, {"rental_uris": {"ios": "https://dc.lft.to/lastmile_qr_scan", "android": "https://dc.lft.to/lastmile_qr_scan"}, "lat": 38.91420133333333, "lon": -77.02207033333333, "fusion_lat": 0.0, "name": "373f8a9590fd90991efc9523b65c8d72", "is_disabled": 0, "is_reserved": 0, "bike_id": "373f8a9590fd90991efc9523b65c8d72", "fusion_lon": 0.0, "type": "electric_scooter"}, {"rental_uris": {"ios": "https://dc.lft.to/lastmile_qr_scan", "android": "https://dc.lft.to/lastmile_qr_scan"}, "lat": 38.8665085, "lon": -76.988654, "fusion_lat": 0.0, "name": "a3ec853f58bfefe864e775cf083261f2", "is_disabled": 0, "is_reserved": 0, "bike_id": "a3ec853f58bfefe864e775cf083261f2", "fusion_lon": 0.0, "type": "electric_scooter"}, {"rental_uris": {"ios": "https://dc.lft.to/lastmile_qr_scan", "android": "https://dc.lft.to/lastmile_qr_scan"}, "lat": 38.91051133333333, "lon": -77.04378783333334, "fusion_lat": 0.0, "name": "260acf5014fe7c9ffd12b1d3f061204c", "is_disabled": 0, "is_reserved": 0, "bike_id": "260acf5014fe7c9ffd12b1d3f061204c", "fusion_lon": 0.0, "type": "electric_scooter"}, {"rental_uris": {"ios": "https://dc.lft.to/lastmile_qr_scan", "android": "https://dc.lft.to/lastmile_qr_scan"}, "lat": 38.927020166666665, "lon": -77.02110566666667, "fusion_lat": 0.0, "name": "fa5f47620ef498f0a867d88aed04c865", "is_disabled": 0, "is_reserved": 0, "bike_id": "fa5f47620ef498f0a867d88aed04c865", "fusion_lon": 0.0, "type": "electric_scooter"}, {"rental_uris": {"ios": "https://dc.lft.to/lastmile_qr_scan", "android": "https://dc.lft.to/lastmile_qr_scan"}, "lat": 38.923173, "lon": -77.04107516666667, "fusion_lat": 0.0, "name": "b11e81b1498ddb4f346aa06a8787a3c5", "is_disabled": 0, "is_reserved": 0, "bike_id": "b11e81b1498ddb4f346aa06a8787a3c5", "fusion_lon": 0.0, "type": "electric_scooter"}, {"rental_uris": {"ios": "https://dc.lft.to/lastmile_qr_scan", "android": "https://dc.lft.to/lastmile_qr_scan"}, "lat": 38.893803, "lon": -77.02274616666666, "fusion_lat": 0.0, "name": "79e959549c45ae2055246ab5c297a989", "is_disabled": 0, "is_reserved": 0, "bike_id": "79e959549c45ae2055246ab5c297a989", "fusion_lon": 0.0, "type": "electric_scooter"}, {"rental_uris": {"ios": "https://dc.lft.to/lastmile_qr_scan", "android": "https://dc.lft.to/lastmile_qr_scan"}, "lat": 38.872999666666665, "lon": -77.1392785, "fusion_lat": 0.0, "name": "e75010d578edcccf374a3952c569874d", "is_disabled": 0, "is_reserved": 0, "bike_id": "e75010d578edcccf374a3952c569874d", "fusion_lon": 0.0, "type": "electric_bike"}, {"rental_uris": {"ios": "https://dc.lft.to/lastmile_qr_scan", "android": "https://dc.lft.to/lastmile_qr_scan"}, "lat": 38.95963033333334, "lon": -77.03298783333334, "fusion_lat": 0.0, "name": "1b4f04e3b0a210839217d03888a36f80", "is_disabled": 0, "is_reserved": 0, "bike_id": "1b4f04e3b0a210839217d03888a36f80", "fusion_lon": 0.0, "type": "electric_scooter"}, {"rental_uris": {"ios": "https://dc.lft.to/lastmile_qr_scan", "android": "https://dc.lft.to/lastmile_qr_scan"}, "lat": 38.90528616666667, "lon": -77.04163616666666, "fusion_lat": 0.0, "name": "dad7c8e2299bdca0dc17594c4e88d520", "is_disabled": 0, "is_reserved": 0, "bike_id": "dad7c8e2299bdca0dc17594c4e88d520", "fusion_lon": 0.0, "type": "electric_scooter"}, {"rental_uris": {"ios": "https://dc.lft.to/lastmile_qr_scan", "android": "https://dc.lft.to/lastmile_qr_scan"}, "lat": 38.895068, "lon": -77.02162266666667, "fusion_lat": 0.0, "name": "19aad0fb656679af6f2c08c6536b03b2", "is_disabled": 0, "is_reserved": 0, "bike_id": "19aad0fb656679af6f2c08c6536b03b2", "fusion_lon": 0.0, "type": "electric_scooter"}, {"rental_uris": {"ios": "https://dc.lft.to/lastmile_qr_scan", "android": "https://dc.lft.to/lastmile_qr_scan"}, "lat": 38.922606, "lon": -77.04257683333333, "fusion_lat": 0.0, "name": "e8b8192fe69c4203c9d3f0ac2ab42c61", "is_disabled": 0, "is_reserved": 0, "bike_id": "e8b8192fe69c4203c9d3f0ac2ab42c61", "fusion_lon": 0.0, "type": "electric_scooter"}, {"rental_uris": {"ios": "https://dc.lft.to/lastmile_qr_scan", "android": "https://dc.lft.to/lastmile_qr_scan"}, "lat": 38.873584666666666, "lon": -76.97028016666667, "fusion_lat": 0.0, "name": "e98a6ee597f952930871c86d22829dae", "is_disabled": 0, "is_reserved": 0, "bike_id": "e98a6ee597f952930871c86d22829dae", "fusion_lon": 0.0, "type": "electric_scooter"}, {"rental_uris": {"ios": "https://dc.lft.to/lastmile_qr_scan", "android": "https://dc.lft.to/lastmile_qr_scan"}, "lat": 38.91913533333334, "lon": -77.02555983333333, "fusion_lat": 0.0, "name": "99280ecbdf382aa5f0b8f5b23cb66a51", "is_disabled": 0, "is_reserved": 0, "bike_id": "99280ecbdf382aa5f0b8f5b23cb66a51", "fusion_lon": 0.0, "type": "electric_scooter"}, {"rental_uris": {"ios": "https://dc.lft.to/lastmile_qr_scan", "android": "https://dc.lft.to/lastmile_qr_scan"}, "lat": 38.842806833333334, "lon": -76.988418, "fusion_lat": 0.0, "name": "4cf36037ce9b1bb4238614f0c214d67c", "is_disabled": 0, "is_reserved": 0, "bike_id": "4cf36037ce9b1bb4238614f0c214d67c", "fusion_lon": 0.0, "type": "electric_bike"}, {"rental_uris": {"ios": "https://dc.lft.to/lastmile_qr_scan", "android": "https://dc.lft.to/lastmile_qr_scan"}, "lat": 38.916945166666665, "lon": -77.02843483333334, "fusion_lat": 0.0, "name": "1b70614c702e78fdfa79c26d7136617a", "is_disabled": 0, "is_reserved": 0, "bike_id": "1b70614c702e78fdfa79c26d7136617a", "fusion_lon": 0.0, "type": "electric_scooter"}, {"rental_uris": {"ios": "https://dc.lft.to/lastmile_qr_scan", "android": "https://dc.lft.to/lastmile_qr_scan"}, "lat": 38.906509, "lon": -77.04865683333334, "fusion_lat": 0.0, "name": "79af8fb443dc4b2d23ba722c3c9e911f", "is_disabled": 0, "is_reserved": 0, "bike_id": "79af8fb443dc4b2d23ba722c3c9e911f", "fusion_lon": 0.0, "type": "electric_scooter"}, {"rental_uris": {"ios": "https://dc.lft.to/lastmile_qr_scan", "android": "https://dc.lft.to/lastmile_qr_scan"}, "lat": 38.9183525, "lon": -77.02454533333334, "fusion_lat": 0.0, "name": "3773eca12404c016ccfdd92712842f0d", "is_disabled": 0, "is_reserved": 0, "bike_id": "3773eca12404c016ccfdd92712842f0d", "fusion_lon": 0.0, "type": "electric_scooter"}, {"rental_uris": {"ios": "https://dc.lft.to/lastmile_qr_scan", "android": "https://dc.lft.to/lastmile_qr_scan"}, "lat": 38.898461166666664, "lon": -77.03098883333334, "fusion_lat": 0.0, "name": "46a97fe59cc02edc2e7a640863a0d26b", "is_disabled": 0, "is_reserved": 0, "bike_id": "46a97fe59cc02edc2e7a640863a0d26b", "fusion_lon": 0.0, "type": "electric_scooter"}, {"rental_uris": {"ios": "https://dc.lft.to/lastmile_qr_scan", "android": "https://dc.lft.to/lastmile_qr_scan"}, "lat": 38.92716716666666, "lon": -77.053639, "fusion_lat": 0.0, "name": "692dce0089a79ef3800ee798de4d4ba4", "is_disabled": 0, "is_reserved": 0, "bike_id": "692dce0089a79ef3800ee798de4d4ba4", "fusion_lon": 0.0, "type": "electric_scooter"}, {"rental_uris": {"ios": "https://dc.lft.to/lastmile_qr_scan", "android": "https://dc.lft.to/lastmile_qr_scan"}, "lat": 38.899179833333335, "lon": -76.93368316666667, "fusion_lat": 0.0, "name": "823904cc4bde6ec876ff824d2e660f2f", "is_disabled": 0, "is_reserved": 0, "bike_id": "823904cc4bde6ec876ff824d2e660f2f", "fusion_lon": 0.0, "type": "electric_scooter"}, {"rental_uris": {"ios": "https://dc.lft.to/lastmile_qr_scan", "android": "https://dc.lft.to/lastmile_qr_scan"}, "lat": 38.92746283333334, "lon": -77.0322935, "fusion_lat": 0.0, "name": "37fd15fdaf1a1b0963645bfe692e3e1a", "is_disabled": 0, "is_reserved": 0, "bike_id": "37fd15fdaf1a1b0963645bfe692e3e1a", "fusion_lon": 0.0, "type": "electric_scooter"}, {"rental_uris": {"ios": "https://dc.lft.to/lastmile_qr_scan", "android": "https://dc.lft.to/lastmile_qr_scan"}, "lat": 38.915721833333336, "lon": -77.02286566666666, "fusion_lat": 0.0, "name": "96b2f108f5e87ef7949584a090294b35", "is_disabled": 0, "is_reserved": 0, "bike_id": "96b2f108f5e87ef7949584a090294b35", "fusion_lon": 0.0, "type": "electric_scooter"}, {"rental_uris": {"ios": "https://dc.lft.to/lastmile_qr_scan", "android": "https://dc.lft.to/lastmile_qr_scan"}, "lat": 38.88576883333333, "lon": -77.01544566666666, "fusion_lat": 0.0, "name": "299f5a457a010f180eae84b75b497932", "is_disabled": 0, "is_reserved": 0, "bike_id": "299f5a457a010f180eae84b75b497932", "fusion_lon": 0.0, "type": "electric_scooter"}, {"rental_uris": {"ios": "https://dc.lft.to/lastmile_qr_scan", "android": "https://dc.lft.to/lastmile_qr_scan"}, "lat": 38.93157883333333, "lon": -77.00115383333333, "fusion_lat": 0.0, "name": "857bc4de8a69e7032f315371e835ad0c", "is_disabled": 0, "is_reserved": 0, "bike_id": "857bc4de8a69e7032f315371e835ad0c", "fusion_lon": 0.0, "type": "electric_bike"}, {"rental_uris": {"ios": "https://dc.lft.to/lastmile_qr_scan", "android": "https://dc.lft.to/lastmile_qr_scan"}, "lat": 38.9287025, "lon": -77.03221666666667, "fusion_lat": 0.0, "name": "793025af758f9778e6f4aa27fcba52c5", "is_disabled": 0, "is_reserved": 0, "bike_id": "793025af758f9778e6f4aa27fcba52c5", "fusion_lon": 0.0, "type": "electric_scooter"}, {"rental_uris": {"ios": "https://dc.lft.to/lastmile_qr_scan", "android": "https://dc.lft.to/lastmile_qr_scan"}, "lat": 38.89843416666667, "lon": -77.04834466666667, "fusion_lat": 0.0, "name": "3e1e94207ed69305af58fec7dfc32a4d", "is_disabled": 0, "is_reserved": 0, "bike_id": "3e1e94207ed69305af58fec7dfc32a4d", "fusion_lon": 0.0, "type": "electric_scooter"}, {"rental_uris": {"ios": "https://dc.lft.to/lastmile_qr_scan", "android": "https://dc.lft.to/lastmile_qr_scan"}, "lat": 38.924376333333335, "lon": -77.034023, "fusion_lat": 0.0, "name": "98befc7cfbbbf58d92b8303f35a2014b", "is_disabled": 0, "is_reserved": 0, "bike_id": "98befc7cfbbbf58d92b8303f35a2014b", "fusion_lon": 0.0, "type": "electric_scooter"}, {"rental_uris": {"ios": "https://dc.lft.to/lastmile_qr_scan", "android": "https://dc.lft.to/lastmile_qr_scan"}, "lat": 38.928393666666665, "lon": -77.03279366666666, "fusion_lat": 0.0, "name": "a7e5cdbf43cfcb23876094aa705ea614", "is_disabled": 0, "is_reserved": 0, "bike_id": "a7e5cdbf43cfcb23876094aa705ea614", "fusion_lon": 0.0, "type": "electric_scooter"}, {"rental_uris": {"ios": "https://dc.lft.to/lastmile_qr_scan", "android": "https://dc.lft.to/lastmile_qr_scan"}, "lat": 38.9114105, "lon": -76.99012716666667, "fusion_lat": 0.0, "name": "33fc25cefdbf3d0a68697380bc6e8a64", "is_disabled": 0, "is_reserved": 0, "bike_id": "33fc25cefdbf3d0a68697380bc6e8a64", "fusion_lon": 0.0, "type": "electric_scooter"}, {"rental_uris": {"ios": "https://dc.lft.to/lastmile_qr_scan", "android": "https://dc.lft.to/lastmile_qr_scan"}, "lat": 38.87172316666667, "lon": -77.006263, "fusion_lat": 0.0, "name": "2b541cc12fad256e451572bb71528630", "is_disabled": 0, "is_reserved": 0, "bike_id": "2b541cc12fad256e451572bb71528630", "fusion_lon": 0.0, "type": "electric_scooter"}, {"rental_uris": {"ios": "https://dc.lft.to/lastmile_qr_scan", "android": "https://dc.lft.to/lastmile_qr_scan"}, "lat": 38.8921855, "lon": -77.02546516666666, "fusion_lat": 0.0, "name": "924e50a90ce20ac76181c7ce972296a5", "is_disabled": 0, "is_reserved": 0, "bike_id": "924e50a90ce20ac76181c7ce972296a5", "fusion_lon": 0.0, "type": "electric_scooter"}, {"rental_uris": {"ios": "https://dc.lft.to/lastmile_qr_scan", "android": "https://dc.lft.to/lastmile_qr_scan"}, "lat": 38.914432, "lon": -77.0415985, "fusion_lat": 0.0, "name": "ee23f8df4503b2092ae13f2d7200281d", "is_disabled": 0, "is_reserved": 0, "bike_id": "ee23f8df4503b2092ae13f2d7200281d", "fusion_lon": 0.0, "type": "electric_scooter"}, {"rental_uris": {"ios": "https://dc.lft.to/lastmile_qr_scan", "android": "https://dc.lft.to/lastmile_qr_scan"}, "lat": 38.9056665, "lon": -77.00525766666667, "fusion_lat": 0.0, "name": "21ff5b7b5d943ddb5cf1efeac74fdf75", "is_disabled": 0, "is_reserved": 0, "bike_id": "21ff5b7b5d943ddb5cf1efeac74fdf75", "fusion_lon": 0.0, "type": "electric_scooter"}, {"rental_uris": {"ios": "https://dc.lft.to/lastmile_qr_scan", "android": "https://dc.lft.to/lastmile_qr_scan"}, "lat": 38.900527833333335, "lon": -77.00062, "fusion_lat": 0.0, "name": "b61d6ec076025372f962579d1e776044", "is_disabled": 0, "is_reserved": 0, "bike_id": "b61d6ec076025372f962579d1e776044", "fusion_lon": 0.0, "type": "electric_scooter"}, {"rental_uris": {"ios": "https://dc.lft.to/lastmile_qr_scan", "android": "https://dc.lft.to/lastmile_qr_scan"}, "lat": 38.87293416666667, "lon": -77.1393055, "fusion_lat": 0.0, "name": "f6992a6b95f2de587777556399d14098", "is_disabled": 0, "is_reserved": 0, "bike_id": "f6992a6b95f2de587777556399d14098", "fusion_lon": 0.0, "type": "electric_bike"}, {"rental_uris": {"ios": "https://dc.lft.to/lastmile_qr_scan", "android": "https://dc.lft.to/lastmile_qr_scan"}, "lat": 38.91798266666667, "lon": -77.0294955, "fusion_lat": 0.0, "name": "88193642539d72dfdda3ca1887e063d7", "is_disabled": 0, "is_reserved": 0, "bike_id": "88193642539d72dfdda3ca1887e063d7", "fusion_lon": 0.0, "type": "electric_scooter"}, {"rental_uris": {"ios": "https://dc.lft.to/lastmile_qr_scan", "android": "https://dc.lft.to/lastmile_qr_scan"}, "lat": 38.896175, "lon": -77.0219915, "fusion_lat": 0.0, "name": "3754b8ae2c5226a10bf38df7dc3d4a1d", "is_disabled": 0, "is_reserved": 0, "bike_id": "3754b8ae2c5226a10bf38df7dc3d4a1d", "fusion_lon": 0.0, "type": "electric_scooter"}, {"rental_uris": {"ios": "https://dc.lft.to/lastmile_qr_scan", "android": "https://dc.lft.to/lastmile_qr_scan"}, "lat": 38.91780133333334, "lon": -77.02306366666667, "fusion_lat": 0.0, "name": "d2c9fca45b6777e6cbd7f2bbcac0b453", "is_disabled": 0, "is_reserved": 0, "bike_id": "d2c9fca45b6777e6cbd7f2bbcac0b453", "fusion_lon": 0.0, "type": "electric_scooter"}, {"rental_uris": {"ios": "https://dc.lft.to/lastmile_qr_scan", "android": "https://dc.lft.to/lastmile_qr_scan"}, "lat": 38.91549416666667, "lon": -77.02401316666666, "fusion_lat": 0.0, "name": "274e2472d0097501573a0bebd42705dc", "is_disabled": 0, "is_reserved": 0, "bike_id": "274e2472d0097501573a0bebd42705dc", "fusion_lon": 0.0, "type": "electric_scooter"}, {"rental_uris": {"ios": "https://dc.lft.to/lastmile_qr_scan", "android": "https://dc.lft.to/lastmile_qr_scan"}, "lat": 38.878713833333336, "lon": -77.01911983333333, "fusion_lat": 0.0, "name": "b7cc539fb67c08a5e452404a9a97976b", "is_disabled": 0, "is_reserved": 0, "bike_id": "b7cc539fb67c08a5e452404a9a97976b", "fusion_lon": 0.0, "type": "electric_scooter"}, {"rental_uris": {"ios": "https://dc.lft.to/lastmile_qr_scan", "android": "https://dc.lft.to/lastmile_qr_scan"}, "lat": 38.8876895, "lon": -77.026168, "fusion_lat": 0.0, "name": "9d007726a6c541e1bb9a28e5395076a4", "is_disabled": 0, "is_reserved": 0, "bike_id": "9d007726a6c541e1bb9a28e5395076a4", "fusion_lon": 0.0, "type": "electric_scooter"}, {"rental_uris": {"ios": "https://dc.lft.to/lastmile_qr_scan", "android": "https://dc.lft.to/lastmile_qr_scan"}, "lat": 38.89868583333333, "lon": -76.94636666666666, "fusion_lat": 0.0, "name": "2b0e28c285a19298b9914e96a39f5748", "is_disabled": 0, "is_reserved": 0, "bike_id": "2b0e28c285a19298b9914e96a39f5748", "fusion_lon": 0.0, "type": "electric_scooter"}, {"rental_uris": {"ios": "https://dc.lft.to/lastmile_qr_scan", "android": "https://dc.lft.to/lastmile_qr_scan"}, "lat": 38.92823683333334, "lon": -77.02254283333333, "fusion_lat": 0.0, "name": "0ebf7ee9b9bf040f796d82ae5a5a9e12", "is_disabled": 0, "is_reserved": 0, "bike_id": "0ebf7ee9b9bf040f796d82ae5a5a9e12", "fusion_lon": 0.0, "type": "electric_scooter"}, {"rental_uris": {"ios": "https://dc.lft.to/lastmile_qr_scan", "android": "https://dc.lft.to/lastmile_qr_scan"}, "lat": 38.90082233333333, "lon": -77.03200183333334, "fusion_lat": 0.0, "name": "a554c0780574c1672d576eadc09d954f", "is_disabled": 0, "is_reserved": 0, "bike_id": "a554c0780574c1672d576eadc09d954f", "fusion_lon": 0.0, "type": "electric_scooter"}, {"rental_uris": {"ios": "https://dc.lft.to/lastmile_qr_scan", "android": "https://dc.lft.to/lastmile_qr_scan"}, "lat": 38.917095833333335, "lon": -77.02680866666667, "fusion_lat": 0.0, "name": "c0d0372cf6f8cb92bd151f3a3e1ce70b", "is_disabled": 0, "is_reserved": 0, "bike_id": "c0d0372cf6f8cb92bd151f3a3e1ce70b", "fusion_lon": 0.0, "type": "electric_scooter"}, {"rental_uris": {"ios": "https://dc.lft.to/lastmile_qr_scan", "android": "https://dc.lft.to/lastmile_qr_scan"}, "lat": 38.866988, "lon": -76.98709666666667, "fusion_lat": 0.0, "name": "dba68dba0948657fc9ba8a4419bd766e", "is_disabled": 0, "is_reserved": 0, "bike_id": "dba68dba0948657fc9ba8a4419bd766e", "fusion_lon": 0.0, "type": "electric_scooter"}, {"rental_uris": {"ios": "https://dc.lft.to/lastmile_qr_scan", "android": "https://dc.lft.to/lastmile_qr_scan"}, "lat": 38.97858866666667, "lon": -76.940434, "fusion_lat": 0.0, "name": "5e555f9c9b6453cc92b148e1e20b5391", "is_disabled": 0, "is_reserved": 0, "bike_id": "5e555f9c9b6453cc92b148e1e20b5391", "fusion_lon": 0.0, "type": "electric_bike"}, {"rental_uris": {"ios": "https://dc.lft.to/lastmile_qr_scan", "android": "https://dc.lft.to/lastmile_qr_scan"}, "lat": 38.90503366666667, "lon": -77.04856083333334, "fusion_lat": 0.0, "name": "716ee275e15f48e5e9d48a2f2fdb8e2a", "is_disabled": 0, "is_reserved": 0, "bike_id": "716ee275e15f48e5e9d48a2f2fdb8e2a", "fusion_lon": 0.0, "type": "electric_scooter"}, {"rental_uris": {"ios": "https://dc.lft.to/lastmile_qr_scan", "android": "https://dc.lft.to/lastmile_qr_scan"}, "lat": 38.9023245, "lon": -77.04608033333334, "fusion_lat": 0.0, "name": "54a6e8be1ad3c199c7f883071f206263", "is_disabled": 0, "is_reserved": 0, "bike_id": "54a6e8be1ad3c199c7f883071f206263", "fusion_lon": 0.0, "type": "electric_scooter"}, {"rental_uris": {"ios": "https://dc.lft.to/lastmile_qr_scan", "android": "https://dc.lft.to/lastmile_qr_scan"}, "lat": 38.89221583333333, "lon": -77.04008466666667, "fusion_lat": 0.0, "name": "7c24c87ea36bf7d9a8bc151520a666dd", "is_disabled": 0, "is_reserved": 0, "bike_id": "7c24c87ea36bf7d9a8bc151520a666dd", "fusion_lon": 0.0, "type": "electric_scooter"}, {"rental_uris": {"ios": "https://dc.lft.to/lastmile_qr_scan", "android": "https://dc.lft.to/lastmile_qr_scan"}, "lat": 38.92696816666667, "lon": -77.02278833333334, "fusion_lat": 0.0, "name": "de6abf9beaa4f39b5795d8a70b3b08d7", "is_disabled": 0, "is_reserved": 0, "bike_id": "de6abf9beaa4f39b5795d8a70b3b08d7", "fusion_lon": 0.0, "type": "electric_scooter"}, {"rental_uris": {"ios": "https://dc.lft.to/lastmile_qr_scan", "android": "https://dc.lft.to/lastmile_qr_scan"}, "lat": 38.908555666666665, "lon": -76.99825883333334, "fusion_lat": 0.0, "name": "e60ca24b095513084df7785900068de5", "is_disabled": 0, "is_reserved": 0, "bike_id": "e60ca24b095513084df7785900068de5", "fusion_lon": 0.0, "type": "electric_scooter"}, {"rental_uris": {"ios": "https://dc.lft.to/lastmile_qr_scan", "android": "https://dc.lft.to/lastmile_qr_scan"}, "lat": 38.9900585, "lon": -77.004398, "fusion_lat": 0.0, "name": "0252e564a253d910eec0af55b1ae4bc7", "is_disabled": 0, "is_reserved": 0, "bike_id": "0252e564a253d910eec0af55b1ae4bc7", "fusion_lon": 0.0, "type": "electric_bike"}, {"rental_uris": {"ios": "https://dc.lft.to/lastmile_qr_scan", "android": "https://dc.lft.to/lastmile_qr_scan"}, "lat": 38.91820633333333, "lon": -77.0316475, "fusion_lat": 0.0, "name": "1d64c5bdcb008711f950364d7f0c5786", "is_disabled": 0, "is_reserved": 0, "bike_id": "1d64c5bdcb008711f950364d7f0c5786", "fusion_lon": 0.0, "type": "electric_scooter"}, {"rental_uris": {"ios": "https://dc.lft.to/lastmile_qr_scan", "android": "https://dc.lft.to/lastmile_qr_scan"}, "lat": 38.89410433333333, "lon": -77.03210833333333, "fusion_lat": 0.0, "name": "729287b39584c4e3e40755a66ca7d777", "is_disabled": 0, "is_reserved": 0, "bike_id": "729287b39584c4e3e40755a66ca7d777", "fusion_lon": 0.0, "type": "electric_scooter"}, {"rental_uris": {"ios": "https://dc.lft.to/lastmile_qr_scan", "android": "https://dc.lft.to/lastmile_qr_scan"}, "lat": 38.910114666666665, "lon": -76.99866466666667, "fusion_lat": 0.0, "name": "c21b1802b63261448f1908cb51752695", "is_disabled": 0, "is_reserved": 0, "bike_id": "c21b1802b63261448f1908cb51752695", "fusion_lon": 0.0, "type": "electric_scooter"}, {"rental_uris": {"ios": "https://dc.lft.to/lastmile_qr_scan", "android": "https://dc.lft.to/lastmile_qr_scan"}, "lat": 38.91291366666667, "lon": -77.02394733333334, "fusion_lat": 0.0, "name": "63fe89dec585840146b35d7d29b86f5f", "is_disabled": 0, "is_reserved": 0, "bike_id": "63fe89dec585840146b35d7d29b86f5f", "fusion_lon": 0.0, "type": "electric_scooter"}, {"rental_uris": {"ios": "https://dc.lft.to/lastmile_qr_scan", "android": "https://dc.lft.to/lastmile_qr_scan"}, "lat": 38.947953166666665, "lon": -77.02134966666667, "fusion_lat": 0.0, "name": "9d1fc8feb2e8462b8e6305863a08c32a", "is_disabled": 0, "is_reserved": 0, "bike_id": "9d1fc8feb2e8462b8e6305863a08c32a", "fusion_lon": 0.0, "type": "electric_scooter"}, {"rental_uris": {"ios": "https://dc.lft.to/lastmile_qr_scan", "android": "https://dc.lft.to/lastmile_qr_scan"}, "lat": 38.919084833333336, "lon": -77.03444466666667, "fusion_lat": 0.0, "name": "360a4b17bf4af807b705521a2e4e02fd", "is_disabled": 0, "is_reserved": 0, "bike_id": "360a4b17bf4af807b705521a2e4e02fd", "fusion_lon": 0.0, "type": "electric_scooter"}, {"rental_uris": {"ios": "https://dc.lft.to/lastmile_qr_scan", "android": "https://dc.lft.to/lastmile_qr_scan"}, "lat": 38.845246833333334, "lon": -76.97398533333333, "fusion_lat": 0.0, "name": "220f16f19b6f62f6d89eb1181cfc5f28", "is_disabled": 0, "is_reserved": 0, "bike_id": "220f16f19b6f62f6d89eb1181cfc5f28", "fusion_lon": 0.0, "type": "electric_bike"}, {"rental_uris": {"ios": "https://dc.lft.to/lastmile_qr_scan", "android": "https://dc.lft.to/lastmile_qr_scan"}, "lat": 38.89755916666667, "lon": -77.03032833333333, "fusion_lat": 0.0, "name": "d6489558365b5e0b34e26adacde8c218", "is_disabled": 0, "is_reserved": 0, "bike_id": "d6489558365b5e0b34e26adacde8c218", "fusion_lon": 0.0, "type": "electric_scooter"}, {"rental_uris": {"ios": "https://dc.lft.to/lastmile_qr_scan", "android": "https://dc.lft.to/lastmile_qr_scan"}, "lat": 38.9198175, "lon": -77.04172466666667, "fusion_lat": 0.0, "name": "c38e1c2f82eec06d209556e464febec7", "is_disabled": 0, "is_reserved": 0, "bike_id": "c38e1c2f82eec06d209556e464febec7", "fusion_lon": 0.0, "type": "electric_scooter"}, {"rental_uris": {"ios": "https://dc.lft.to/lastmile_qr_scan", "android": "https://dc.lft.to/lastmile_qr_scan"}, "lat": 38.891910833333334, "lon": -77.043302, "fusion_lat": 0.0, "name": "7c02ab8047e28855961b2c8e7ff9de5d", "is_disabled": 0, "is_reserved": 0, "bike_id": "7c02ab8047e28855961b2c8e7ff9de5d", "fusion_lon": 0.0, "type": "electric_scooter"}, {"rental_uris": {"ios": "https://dc.lft.to/lastmile_qr_scan", "android": "https://dc.lft.to/lastmile_qr_scan"}, "lat": 38.9361065, "lon": -77.05890383333333, "fusion_lat": 0.0, "name": "a8cded74d180696fa43796a4da6f3a40", "is_disabled": 0, "is_reserved": 0, "bike_id": "a8cded74d180696fa43796a4da6f3a40", "fusion_lon": 0.0, "type": "electric_scooter"}, {"rental_uris": {"ios": "https://dc.lft.to/lastmile_qr_scan", "android": "https://dc.lft.to/lastmile_qr_scan"}, "lat": 38.91894333333333, "lon": -77.02461466666666, "fusion_lat": 0.0, "name": "2f470d0419cd807f0acb258f5e733b3f", "is_disabled": 0, "is_reserved": 0, "bike_id": "2f470d0419cd807f0acb258f5e733b3f", "fusion_lon": 0.0, "type": "electric_scooter"}, {"rental_uris": {"ios": "https://dc.lft.to/lastmile_qr_scan", "android": "https://dc.lft.to/lastmile_qr_scan"}, "lat": 38.883025, "lon": -76.94202366666667, "fusion_lat": 0.0, "name": "54f08ad71ce51d5077d27e364173a33f", "is_disabled": 0, "is_reserved": 0, "bike_id": "54f08ad71ce51d5077d27e364173a33f", "fusion_lon": 0.0, "type": "electric_scooter"}, {"rental_uris": {"ios": "https://dc.lft.to/lastmile_qr_scan", "android": "https://dc.lft.to/lastmile_qr_scan"}, "lat": 38.915994166666664, "lon": -77.001983, "fusion_lat": 0.0, "name": "73b7a0bdb6aad083e9b03902ceada25c", "is_disabled": 0, "is_reserved": 0, "bike_id": "73b7a0bdb6aad083e9b03902ceada25c", "fusion_lon": 0.0, "type": "electric_scooter"}, {"rental_uris": {"ios": "https://dc.lft.to/lastmile_qr_scan", "android": "https://dc.lft.to/lastmile_qr_scan"}, "lat": 38.9039305, "lon": -77.0465625, "fusion_lat": 0.0, "name": "cda5882955be744d56c5e5e292571052", "is_disabled": 0, "is_reserved": 0, "bike_id": "cda5882955be744d56c5e5e292571052", "fusion_lon": 0.0, "type": "electric_scooter"}, {"rental_uris": {"ios": "https://dc.lft.to/lastmile_qr_scan", "android": "https://dc.lft.to/lastmile_qr_scan"}, "lat": 38.94116916666667, "lon": -77.02534466666667, "fusion_lat": 0.0, "name": "fb66fb232df309d64dc09aad77192593", "is_disabled": 0, "is_reserved": 0, "bike_id": "fb66fb232df309d64dc09aad77192593", "fusion_lon": 0.0, "type": "electric_scooter"}, {"rental_uris": {"ios": "https://dc.lft.to/lastmile_qr_scan", "android": "https://dc.lft.to/lastmile_qr_scan"}, "lat": 38.89222983333333, "lon": -77.048677, "fusion_lat": 0.0, "name": "2bf4bade8a5915c3cf9d2c36773272f4", "is_disabled": 0, "is_reserved": 0, "bike_id": "2bf4bade8a5915c3cf9d2c36773272f4", "fusion_lon": 0.0, "type": "electric_scooter"}, {"rental_uris": {"ios": "https://dc.lft.to/lastmile_qr_scan", "android": "https://dc.lft.to/lastmile_qr_scan"}, "lat": 38.902507166666666, "lon": -77.04799916666667, "fusion_lat": 0.0, "name": "823ff0f2574ac9b115ddaf0324e8ab82", "is_disabled": 0, "is_reserved": 0, "bike_id": "823ff0f2574ac9b115ddaf0324e8ab82", "fusion_lon": 0.0, "type": "electric_scooter"}, {"rental_uris": {"ios": "https://dc.lft.to/lastmile_qr_scan", "android": "https://dc.lft.to/lastmile_qr_scan"}, "lat": 38.915543666666665, "lon": -77.033198, "fusion_lat": 0.0, "name": "afc81ebc2c759db4f208b4a00c3da7b8", "is_disabled": 0, "is_reserved": 0, "bike_id": "afc81ebc2c759db4f208b4a00c3da7b8", "fusion_lon": 0.0, "type": "electric_scooter"}, {"rental_uris": {"ios": "https://dc.lft.to/lastmile_qr_scan", "android": "https://dc.lft.to/lastmile_qr_scan"}, "lat": 38.911087, "lon": -77.044009, "fusion_lat": 0.0, "name": "4e33f56a5c8b831abade56f0cf4daebc", "is_disabled": 0, "is_reserved": 0, "bike_id": "4e33f56a5c8b831abade56f0cf4daebc", "fusion_lon": 0.0, "type": "electric_scooter"}, {"rental_uris": {"ios": "https://dc.lft.to/lastmile_qr_scan", "android": "https://dc.lft.to/lastmile_qr_scan"}, "lat": 38.9242025, "lon": -77.019464, "fusion_lat": 0.0, "name": "2c456f9fe1fe1c9c209fac1806a43e2e", "is_disabled": 0, "is_reserved": 0, "bike_id": "2c456f9fe1fe1c9c209fac1806a43e2e", "fusion_lon": 0.0, "type": "electric_scooter"}, {"rental_uris": {"ios": "https://dc.lft.to/lastmile_qr_scan", "android": "https://dc.lft.to/lastmile_qr_scan"}, "lat": 38.965584666666665, "lon": -77.002006, "fusion_lat": 0.0, "name": "3c28c653e9bc52ca515e778c5cdac891", "is_disabled": 0, "is_reserved": 0, "bike_id": "3c28c653e9bc52ca515e778c5cdac891", "fusion_lon": 0.0, "type": "electric_scooter"}, {"rental_uris": {"ios": "https://dc.lft.to/lastmile_qr_scan", "android": "https://dc.lft.to/lastmile_qr_scan"}, "lat": 38.921467, "lon": -77.035163, "fusion_lat": 0.0, "name": "0f2b7fe62d4adaeec59495c8f7bb1009", "is_disabled": 0, "is_reserved": 0, "bike_id": "0f2b7fe62d4adaeec59495c8f7bb1009", "fusion_lon": 0.0, "type": "electric_scooter"}, {"rental_uris": {"ios": "https://dc.lft.to/lastmile_qr_scan", "android": "https://dc.lft.to/lastmile_qr_scan"}, "lat": 38.92253066666667, "lon": -77.03523366666667, "fusion_lat": 0.0, "name": "11c3f6f2e7715fa5634f625e12c4e388", "is_disabled": 0, "is_reserved": 0, "bike_id": "11c3f6f2e7715fa5634f625e12c4e388", "fusion_lon": 0.0, "type": "electric_scooter"},