{"data": {"bikes": [{"bike_id": "4e9f16ec8fcb981f6f361f8c58782218", "type": "electric_scooter", "is_disabled": 0, "lat": 38.88931866666667, "rental_uris": {"ios": "https://dc.lft.to/lastmile_qr_scan", "android": "https://dc.lft.to/lastmile_qr_scan"}, "is_reserved": 0, "fusion_lon": 0.0, "fusion_lat": 0.0, "lon": -77.01499333333334, "name": "4e9f16ec8fcb981f6f361f8c58782218"}, {"bike_id": "11447f093495ede191c6a2d3b4a6de08", "type": "electric_scooter", "is_disabled": 0, "lat": 38.917279666666666, "rental_uris": {"ios": "https://dc.lft.to/lastmile_qr_scan", "android": "https://dc.lft.to/lastmile_qr_scan"}, "is_reserved": 0, "fusion_lon": 0.0, "fusion_lat": 0.0, "lon": -77.0250605, "name": "11447f093495ede191c6a2d3b4a6de08"}, {"bike_id": "8920b111368ba7a603321bdd82156e01", "type": "electric_scooter", "is_disabled": 0, "lat": 38.906901833333336, "rental_uris": {"ios": "https://dc.lft.to/lastmile_qr_scan", "android": "https://dc.lft.to/lastmile_qr_scan"}, "is_reserved": 0, "fusion_lon": 0.0, "fusion_lat": 0.0, "lon": -77.053295, "name": "8920b111368ba7a603321bdd82156e01"}, {"bike_id": "68c59979d30ca6a097abcb10668306e3", "type": "electric_scooter", "is_disabled": 0, "lat": 38.9311955, "rental_uris": {"ios": "https://dc.lft.to/lastmile_qr_scan", "android": "https://dc.lft.to/lastmile_qr_scan"}, "is_reserved": 0, "fusion_lon": 0.0, "fusion_lat": 0.0, "lon": -77.02095583333333, "name": "68c59979d30ca6a097abcb10668306e3"}, {"bike_id": "e8906a019d9286b0828111d66565cb88", "type": "electric_scooter", "is_disabled": 0, "lat": 38.90789783333334, "rental_uris": {"ios": "https://dc.lft.to/lastmile_qr_scan", "android": "https://dc.lft.to/lastmile_qr_scan"}, "is_reserved": 0, "fusion_lon": 0.0, "fusion_lat": 0.0, "lon": -77.01107466666667, "name": "e8906a019d9286b0828111d66565cb88"}, {"bike_id": "fcf332b74ff1e213517d2432c4733f42", "type": "electric_scooter", "is_disabled": 0, "lat": 38.89853733333333, "rental_uris": {"ios": "https://dc.lft.to/lastmile_qr_scan", "android": "https://dc.lft.to/lastmile_qr_scan"}, "is_reserved": 0, "fusion_lon": 0.0, "fusion_lat": 0.0, "lon": -76.99033083333333, "name": "fcf332b74ff1e213517d2432c4733f42"}, {"bike_id": "c7ab1ea7f2e2aa0a719e2a4b3a1888e7", "type": "electric_scooter", "is_disabled": 0, "lat": 38.92260566666667, "rental_uris": {"ios": "https://dc.lft.to/lastmile_qr_scan", "android": "https://dc.lft.to/lastmile_qr_scan"}, "is_reserved": 0, "fusion_lon": 0.0, "fusion_lat": 0.0, "lon": -77.03520966666666, "name": "c7ab1ea7f2e2aa0a719e2a4b3a1888e7"}, {"bike_id": "8b676a0864eed5369cf31d4dfef1cb4e", "type": "electric_scooter", "is_disabled": 0, "lat": 38.9111975, "rental_uris": {"ios": "https://dc.lft.to/lastmile_qr_scan", "android": "https://dc.lft.to/lastmile_qr_scan"}, "is_reserved": 0, "fusion_lon": 0.0, "fusion_lat": 0.0, "lon": -77.03828283333333, "name": "8b676a0864eed5369cf31d4dfef1cb4e"}, {"bike_id": "17ebf8d34f1d44e3ce8e32f8823b9882", "type": "electric_scooter", "is_disabled": 0, "lat": 38.91707383333333, "rental_uris": {"ios": "https://dc.lft.to/lastmile_qr_scan", "android": "https://dc.lft.to/lastmile_qr_scan"}, "is_reserved": 0, "fusion_lon": 0.0, "fusion_lat": 0.0, "lon": -77.01072883333333, "name": "17ebf8d34f1d44e3ce8e32f8823b9882"}, {"bike_id": "453fe0b60e401a3a0c2381dd45495ab9", "type": "electric_bike", "is_disabled": 0, "lat": 38.8719325, "rental_uris": {"ios": "https://dc.lft.to/lastmile_qr_scan", "android": "https://dc.lft.to/lastmile_qr_scan"}, "is_reserved": 0, "fusion_lon": 0.0, "fusion_lat": 0.0, "lon": -77.01219733333333, "name": "453fe0b60e401a3a0c2381dd45495ab9"}, {"bike_id": "828b7af7d6565427f2c060cd70c11dcd", "type": "electric_scooter", "is_disabled": 0, "lat": 38.907864000000004, "rental_uris": {"ios": "https://dc.lft.to/lastmile_qr_scan", "android": "https://dc.lft.to/lastmile_qr_scan"}, "is_reserved": 0, "fusion_lon": 0.0, "fusion_lat": 0.0, "lon": -77.02039866666667, "name": "828b7af7d6565427f2c060cd70c11dcd"}, {"bike_id": "fc0ccde45f45faf7d3aaad1d827fe32f", "type": "electric_scooter", "is_disabled": 0, "lat": 38.863760666666664, "rental_uris": {"ios": "https://dc.lft.to/lastmile_qr_scan", "android": "https://dc.lft.to/lastmile_qr_scan"}, "is_reserved": 0, "fusion_lon": 0.0, "fusion_lat": 0.0, "lon": -76.99057583333334, "name": "fc0ccde45f45faf7d3aaad1d827fe32f"}, {"bike_id": "2402348efb521995a5322b61da4f1194", "type": "electric_scooter", "is_disabled": 0, "lat": 38.879160666666664, "rental_uris": {"ios": "https://dc.lft.to/lastmile_qr_scan", "android": "https://dc.lft.to/lastmile_qr_scan"}, "is_reserved": 0, "fusion_lon": 0.0, "fusion_lat": 0.0, "lon": -76.99504733333333, "name": "2402348efb521995a5322b61da4f1194"}, {"bike_id": "2876b5dab9c7eeae42f237a06460d2e9", "type": "electric_scooter", "is_disabled": 0, "lat": 38.86250783333333, "rental_uris": {"ios": "https://dc.lft.to/lastmile_qr_scan", "android": "https://dc.lft.to/lastmile_qr_scan"}, "is_reserved": 0, "fusion_lon": 0.0, "fusion_lat": 0.0, "lon": -76.99264716666667, "name": "2876b5dab9c7eeae42f237a06460d2e9"}, {"bike_id": "4d7211f911a51bded7ea048a5328c94b", "type": "electric_scooter", "is_disabled": 0, "lat": 38.91145066666667, "rental_uris": {"ios": "https://dc.lft.to/lastmile_qr_scan", "android": "https://dc.lft.to/lastmile_qr_scan"}, "is_reserved": 0, "fusion_lon": 0.0, "fusion_lat": 0.0, "lon": -77.02692816666666, "name": "4d7211f911a51bded7ea048a5328c94b"}, {"bike_id": "cb7e3c96680c393e5ae2174668a7d228", "type": "electric_bike", "is_disabled": 0, "lat": 38.895656833333334, "rental_uris": {"ios": "https://dc.lft.to/lastmile_qr_scan", "android": "https://dc.lft.to/lastmile_qr_scan"}, "is_reserved": 0, "fusion_lon": 0.0, "fusion_lat": 0.0, "lon": -77.127391, "name": "cb7e3c96680c393e5ae2174668a7d228"}, {"bike_id": "7f3a9ea9a4d49b6b4e3a9128c310d0b5", "type": "electric_bike", "is_disabled": 0, "lat": 38.86876266666667, "rental_uris": {"ios": "https://dc.lft.to/lastmile_qr_scan", "android": "https://dc.lft.to/lastmile_qr_scan"}, "is_reserved": 0, "fusion_lon": 0.0, "fusion_lat": 0.0, "lon": -76.95782133333333, "name": "7f3a9ea9a4d49b6b4e3a9128c310d0b5"}, {"bike_id": "4bd1d15f30f82fd5210340b5153c829e", "type": "electric_scooter", "is_disabled": 0, "lat": 38.912904, "rental_uris": {"ios": "https://dc.lft.to/lastmile_qr_scan", "android": "https://dc.lft.to/lastmile_qr_scan"}, "is_reserved": 0, "fusion_lon": 0.0, "fusion_lat": 0.0, "lon": -77.01974333333334, "name": "4bd1d15f30f82fd5210340b5153c829e"}, {"bike_id": "77df96f57307f610b53a476bb86c6cad", "type": "electric_bike", "is_disabled": 0, "lat": 38.908311, "rental_uris": {"ios": "https://dc.lft.to/lastmile_qr_scan", "android": "https://dc.lft.to/lastmile_qr_scan"}, "is_reserved": 0, "fusion_lon": 0.0, "fusion_lat": 0.0, "lon": -76.94155616666667, "name": "77df96f57307f610b53a476bb86c6cad"}, {"bike_id": "78863880dbc1a6ffa70608124d3039ea", "type": "electric_scooter", "is_disabled": 0, "lat": 38.907857166666666, "rental_uris": {"ios": "https://dc.lft.to/lastmile_qr_scan", "android": "https://dc.lft.to/lastmile_qr_scan"}, "is_reserved": 0, "fusion_lon": 0.0, "fusion_lat": 0.0, "lon": -77.0186225, "name": "78863880dbc1a6ffa70608124d3039ea"}, {"bike_id": "f5a32a41a5f78db739910df0a3fde131", "type": "electric_scooter", "is_disabled": 0, "lat": 38.917840166666664, "rental_uris": {"ios": "https://dc.lft.to/lastmile_qr_scan", "android": "https://dc.lft.to/lastmile_qr_scan"}, "is_reserved": 0, "fusion_lon": 0.0, "fusion_lat": 0.0, "lon": -77.03449833333333, "name": "f5a32a41a5f78db739910df0a3fde131"}, {"bike_id": "85b42e1d4389322a3d0e0efd2cada77c", "type": "electric_scooter", "is_disabled": 0, "lat": 38.923896, "rental_uris": {"ios": "https://dc.lft.to/lastmile_qr_scan", "android": "https://dc.lft.to/lastmile_qr_scan"}, "is_reserved": 0, "fusion_lon": 0.0, "fusion_lat": 0.0, "lon": -77.0249015, "name": "85b42e1d4389322a3d0e0efd2cada77c"}, {"bike_id": "8b74700c8c0114fe7a59897f4493dd25", "type": "electric_scooter", "is_disabled": 0, "lat": 38.83146766666667, "rental_uris": {"ios": "https://dc.lft.to/lastmile_qr_scan", "android": "https://dc.lft.to/lastmile_qr_scan"}, "is_reserved": 0, "fusion_lon": 0.0, "fusion_lat": 0.0, "lon": -77.05123016666667, "name": "8b74700c8c0114fe7a59897f4493dd25"}, {"bike_id": "5fbf5e25c2233f707968ab054223cf59", "type": "electric_scooter", "is_disabled": 0, "lat": 38.90734416666667, "rental_uris": {"ios": "https://dc.lft.to/lastmile_qr_scan", "android": "https://dc.lft.to/lastmile_qr_scan"}, "is_reserved": 0, "fusion_lon": 0.0, "fusion_lat": 0.0, "lon": -76.97969083333334, "name": "5fbf5e25c2233f707968ab054223cf59"}, {"bike_id": "bea06c4389f601f4c88dd3a6944ca98d", "type": "electric_bike", "is_disabled": 0, "lat": 38.801257166666666, "rental_uris": {"ios": "https://dc.lft.to/lastmile_qr_scan", "android": "https://dc.lft.to/lastmile_qr_scan"}, "is_reserved": 0, "fusion_lon": 0.0, "fusion_lat": 0.0, "lon": -77.07054183333334, "name": "bea06c4389f601f4c88dd3a6944ca98d"}, {"bike_id": "385e31dc35ced0e8a644e90cbc02c438", "type": "electric_scooter", "is_disabled": 0, "lat": 38.867379166666666, "rental_uris": {"ios": "https://dc.lft.to/lastmile_qr_scan", "android": "https://dc.lft.to/lastmile_qr_scan"}, "is_reserved": 0, "fusion_lon": 0.0, "fusion_lat": 0.0, "lon": -76.97863233333334, "name": "385e31dc35ced0e8a644e90cbc02c438"}, {"bike_id": "2d7d20813f9ccaee51be6cd75568204c", "type": "electric_scooter", "is_disabled": 0, "lat": 38.90696533333333, "rental_uris": {"ios": "https://dc.lft.to/lastmile_qr_scan", "android": "https://dc.lft.to/lastmile_qr_scan"}, "is_reserved": 0, "fusion_lon": 0.0, "fusion_lat": 0.0, "lon": -77.03447266666667, "name": "2d7d20813f9ccaee51be6cd75568204c"}, {"bike_id": "499eb21de1d2b562e9788575c55b1e90", "type": "electric_scooter", "is_disabled": 0, "lat": 38.900234833333336, "rental_uris": {"ios": "https://dc.lft.to/lastmile_qr_scan", "android": "https://dc.lft.to/lastmile_qr_scan"}, "is_reserved": 0, "fusion_lon": 0.0, "fusion_lat": 0.0, "lon": -77.0239255, "name": "499eb21de1d2b562e9788575c55b1e90"}, {"bike_id": "e7e38f5e2d8bcbc6a553a548c36ab517", "type": "electric_scooter", "is_disabled": 0, "lat": 38.911550166666665, "rental_uris": {"ios": "https://dc.lft.to/lastmile_qr_scan", "android": "https://dc.lft.to/lastmile_qr_scan"}, "is_reserved": 0, "fusion_lon": 0.0, "fusion_lat": 0.0, "lon": -77.02284, "name": "e7e38f5e2d8bcbc6a553a548c36ab517"}, {"bike_id": "0820152751ad9634514ff4cc96c27e19", "type": "electric_scooter", "is_disabled": 0, "lat": 38.900678, "rental_uris": {"ios": "https://dc.lft.to/lastmile_qr_scan", "android": "https://dc.lft.to/lastmile_qr_scan"}, "is_reserved": 0, "fusion_lon": 0.0, "fusion_lat": 0.0, "lon": -76.92743783333333, "name": "0820152751ad9634514ff4cc96c27e19"}, {"bike_id": "597d19a0111a85a3eec4b0bfcfe38735", "type": "electric_scooter", "is_disabled": 0, "lat": 38.964068, "rental_uris": {"ios": "https://dc.lft.to/lastmile_qr_scan", "android": "https://dc.lft.to/lastmile_qr_scan"}, "is_reserved": 0, "fusion_lon": 0.0, "fusion_lat": 0.0, "lon": -77.02765566666666, "name": "597d19a0111a85a3eec4b0bfcfe38735"}, {"bike_id": "f2ac6e51c9ebfd2c5fe9b5e3a21050be", "type": "electric_bike", "is_disabled": 0, "lat": 38.96617633333334, "rental_uris": {"ios": "https://dc.lft.to/lastmile_qr_scan", "android": "https://dc.lft.to/lastmile_qr_scan"}, "is_reserved": 0, "fusion_lon": 0.0, "fusion_lat": 0.0, "lon": -77.03426533333334, "name": "f2ac6e51c9ebfd2c5fe9b5e3a21050be"}, {"bike_id": "fe1ce226613d12337be704a095b01ece", "type": "electric_scooter", "is_disabled": 0, "lat": 38.923776833333335, "rental_uris": {"ios": "https://dc.lft.to/lastmile_qr_scan", "android": "https://dc.lft.to/lastmile_qr_scan"}, "is_reserved": 0, "fusion_lon": 0.0, "fusion_lat": 0.0, "lon": -77.04119533333333, "name": "fe1ce226613d12337be704a095b01ece"}, {"bike_id": "e725a52f2cfad936d7dc8883c920b073", "type": "electric_scooter", "is_disabled": 0, "lat": 38.918531333333334, "rental_uris": {"ios": "https://dc.lft.to/lastmile_qr_scan", "android": "https://dc.lft.to/lastmile_qr_scan"}, "is_reserved": 0, "fusion_lon": 0.0, "fusion_lat": 0.0, "lon": -77.03881283333334, "name": "e725a52f2cfad936d7dc8883c920b073"}, {"bike_id": "ad0578e43c8b7d97a6777c9720bde521", "type": "electric_scooter", "is_disabled": 0, "lat": 38.90791216666667, "rental_uris": {"ios": "https://dc.lft.to/lastmile_qr_scan", "android": "https://dc.lft.to/lastmile_qr_scan"}, "is_reserved": 0, "fusion_lon": 0.0, "fusion_lat": 0.0, "lon": -77.03809283333334, "name": "ad0578e43c8b7d97a6777c9720bde521"}, {"bike_id": "66ed56213caf396cbb04cf2a6a96c29b", "type": "electric_scooter", "is_disabled": 0, "lat": 38.904281, "rental_uris": {"ios": "https://dc.lft.to/lastmile_qr_scan", "android": "https://dc.lft.to/lastmile_qr_scan"}, "is_reserved": 0, "fusion_lon": 0.0, "fusion_lat": 0.0, "lon": -77.04368283333334, "name": "66ed56213caf396cbb04cf2a6a96c29b"}, {"bike_id": "4c9b39742a222232cd388a022087acac", "type": "electric_scooter", "is_disabled": 0, "lat": 38.91871583333333, "rental_uris": {"ios": "https://dc.lft.to/lastmile_qr_scan", "android": "https://dc.lft.to/lastmile_qr_scan"}, "is_reserved": 0, "fusion_lon": 0.0, "fusion_lat": 0.0, "lon": -77.07030783333333, "name": "4c9b39742a222232cd388a022087acac"}, {"bike_id": "55b04c8d8f12e2472dbc9723e9ead3ad", "type": "electric_scooter", "is_disabled": 0, "lat": 38.902651666666664, "rental_uris": {"ios": "https://dc.lft.to/lastmile_qr_scan", "android": "https://dc.lft.to/lastmile_qr_scan"}, "is_reserved": 0, "fusion_lon": 0.0, "fusion_lat": 0.0, "lon": -77.002081, "name": "55b04c8d8f12e2472dbc9723e9ead3ad"}, {"bike_id": "00711a4fd8a2630e439e9c3f1a3fb089", "type": "electric_scooter", "is_disabled": 0, "lat": 38.90625283333333, "rental_uris": {"ios": "https://dc.lft.to/lastmile_qr_scan", "android": "https://dc.lft.to/lastmile_qr_scan"}, "is_reserved": 0, "fusion_lon": 0.0, "fusion_lat": 0.0, "lon": -77.055578, "name": "00711a4fd8a2630e439e9c3f1a3fb089"}, {"bike_id": "e0042b76e9e99e8915fb1ff61f307154", "type": "electric_scooter", "is_disabled": 0, "lat": 38.9004575, "rental_uris": {"ios": "https://dc.lft.to/lastmile_qr_scan", "android": "https://dc.lft.to/lastmile_qr_scan"}, "is_reserved": 0, "fusion_lon": 0.0, "fusion_lat": 0.0, "lon": -77.01319433333333, "name": "e0042b76e9e99e8915fb1ff61f307154"}, {"bike_id": "058f507a1c5aaba66d4f2d3e3a6ee98a", "type": "electric_bike", "is_disabled": 0, "lat": 38.901454333333334, "rental_uris": {"ios": "https://dc.lft.to/lastmile_qr_scan", "android": "https://dc.lft.to/lastmile_qr_scan"}, "is_reserved": 0, "fusion_lon": 0.0, "fusion_lat": 0.0, "lon": -76.9741525, "name": "058f507a1c5aaba66d4f2d3e3a6ee98a"}, {"bike_id": "5fd5174efebdaf055cbc52e1c3ece749", "type": "electric_scooter", "is_disabled": 0, "lat": 38.94415333333333, "rental_uris": {"ios": "https://dc.lft.to/lastmile_qr_scan", "android": "https://dc.lft.to/lastmile_qr_scan"}, "is_reserved": 0, "fusion_lon": 0.0, "fusion_lat": 0.0, "lon": -77.06321183333333, "name": "5fd5174efebdaf055cbc52e1c3ece749"}, {"bike_id": "e00ec6f8ddec4b3577f40a4da5c88bdb", "type": "electric_scooter", "is_disabled": 0, "lat": 38.9170165, "rental_uris": {"ios": "https://dc.lft.to/lastmile_qr_scan", "android": "https://dc.lft.to/lastmile_qr_scan"}, "is_reserved": 0, "fusion_lon": 0.0, "fusion_lat": 0.0, "lon": -77.00794633333334, "name": "e00ec6f8ddec4b3577f40a4da5c88bdb"}, {"bike_id": "29cb6794466c38f64488f239327a3302", "type": "electric_scooter", "is_disabled": 0, "lat": 38.92582916666667, "rental_uris": {"ios": "https://dc.lft.to/lastmile_qr_scan", "android": "https://dc.lft.to/lastmile_qr_scan"}, "is_reserved": 0, "fusion_lon": 0.0, "fusion_lat": 0.0, "lon": -77.0276335, "name": "29cb6794466c38f64488f239327a3302"}, {"bike_id": "1b1bf80613cff74f82315673f21d4e71", "type": "electric_scooter", "is_disabled": 0, "lat": 38.922760833333335, "rental_uris": {"ios": "https://dc.lft.to/lastmile_qr_scan", "android": "https://dc.lft.to/lastmile_qr_scan"}, "is_reserved": 0, "fusion_lon": 0.0, "fusion_lat": 0.0, "lon": -77.03262016666666, "name": "1b1bf80613cff74f82315673f21d4e71"}, {"bike_id": "7b81a1f998458be568c225eda92a6f58", "type": "electric_scooter", "is_disabled": 0, "lat": 38.90973866666667, "rental_uris": {"ios": "https://dc.lft.to/lastmile_qr_scan", "android": "https://dc.lft.to/lastmile_qr_scan"}, "is_reserved": 0, "fusion_lon": 0.0, "fusion_lat": 0.0, "lon": -77.03756183333333, "name": "7b81a1f998458be568c225eda92a6f58"}, {"bike_id": "f47d93b3296a36aec9bb6dd4db47bad9", "type": "electric_scooter", "is_disabled": 0, "lat": 38.91417466666667, "rental_uris": {"ios": "https://dc.lft.to/lastmile_qr_scan", "android": "https://dc.lft.to/lastmile_qr_scan"}, "is_reserved": 0, "fusion_lon": 0.0, "fusion_lat": 0.0, "lon": -77.02252966666667, "name": "f47d93b3296a36aec9bb6dd4db47bad9"}, {"bike_id": "774bfcfbcf9165747e1379ceeb78a4e1", "type": "electric_scooter", "is_disabled": 0, "lat": 38.903853166666664, "rental_uris": {"ios": "https://dc.lft.to/lastmile_qr_scan", "android": "https://dc.lft.to/lastmile_qr_scan"}, "is_reserved": 0, "fusion_lon": 0.0, "fusion_lat": 0.0, "lon": -77.01634983333334, "name": "774bfcfbcf9165747e1379ceeb78a4e1"}, {"bike_id": "4392844b516feeab0fff0a28df273fe4", "type": "electric_scooter", "is_disabled": 0, "lat": 38.926550666666664, "rental_uris": {"ios": "https://dc.lft.to/lastmile_qr_scan", "android": "https://dc.lft.to/lastmile_qr_scan"}, "is_reserved": 0, "fusion_lon": 0.0, "fusion_lat": 0.0, "lon": -77.03726216666666, "name": "4392844b516feeab0fff0a28df273fe4"}, {"bike_id": "31faab0424be638984f945602015f728", "type": "electric_scooter", "is_disabled": 0, "lat": 38.917165, "rental_uris": {"ios": "https://dc.lft.to/lastmile_qr_scan", "android": "https://dc.lft.to/lastmile_qr_scan"}, "is_reserved": 0, "fusion_lon": 0.0, "fusion_lat": 0.0, "lon": -77.02965016666667, "name": "31faab0424be638984f945602015f728"}, {"bike_id": "603346691d102bd3f1c05be96d6af83c", "type": "electric_bike", "is_disabled": 0, "lat": 38.8535825, "rental_uris": {"ios": "https://dc.lft.to/lastmile_qr_scan", "android": "https://dc.lft.to/lastmile_qr_scan"}, "is_reserved": 0, "fusion_lon": 0.0, "fusion_lat": 0.0, "lon": -77.13463683333333, "name": "603346691d102bd3f1c05be96d6af83c"}, {"bike_id": "c9e5122e8eb7fe01dc1fd6139edb8a34", "type": "electric_scooter", "is_disabled": 0, "lat": 38.878434166666665, "rental_uris": {"ios": "https://dc.lft.to/lastmile_qr_scan", "android": "https://dc.lft.to/lastmile_qr_scan"}, "is_reserved": 0, "fusion_lon": 0.0, "fusion_lat": 0.0, "lon": -77.01963466666666, "name": "c9e5122e8eb7fe01dc1fd6139edb8a34"}, {"bike_id": "fee31b92600d44081043f6eb71dd07c9", "type": "electric_scooter", "is_disabled": 0, "lat": 38.927542, "rental_uris": {"ios": "https://dc.lft.to/lastmile_qr_scan", "android": "https://dc.lft.to/lastmile_qr_scan"}, "is_reserved": 0, "fusion_lon": 0.0, "fusion_lat": 0.0, "lon": -77.0253615, "name": "fee31b92600d44081043f6eb71dd07c9"}, {"bike_id": "0eb9b9ff872fad05a8f813ae605fa9b6", "type": "electric_scooter", "is_disabled": 0, "lat": 38.90437516666667, "rental_uris": {"ios": "https://dc.lft.to/lastmile_qr_scan", "android": "https://dc.lft.to/lastmile_qr_scan"}, "is_reserved": 0, "fusion_lon": 0.0, "fusion_lat": 0.0, "lon": -77.03460983333333, "name": "0eb9b9ff872fad05a8f813ae605fa9b6"}, {"bike_id": "94fc93642204f8de9ac01620ea46600c", "type": "electric_scooter", "is_disabled": 0, "lat": 38.922799833333336, "rental_uris": {"ios": "https://dc.lft.to/lastmile_qr_scan", "android": "https://dc.lft.to/lastmile_qr_scan"}, "is_reserved": 0, "fusion_lon": 0.0, "fusion_lat": 0.0, "lon": -76.99461366666667, "name": "94fc93642204f8de9ac01620ea46600c"}, {"bike_id": "4ce67a02595c69b6ab10be11c02e38b6", "type": "electric_scooter", "is_disabled": 0, "lat": 38.92154283333333, "rental_uris": {"ios": "https://dc.lft.to/lastmile_qr_scan", "android": "https://dc.lft.to/lastmile_qr_scan"}, "is_reserved": 0, "fusion_lon": 0.0, "fusion_lat": 0.0, "lon": -77.0353215, "name": "4ce67a02595c69b6ab10be11c02e38b6"}, {"bike_id": "05dc405cb33d3da0762f82a106808131", "type": "electric_scooter", "is_disabled": 0, "lat": 38.906639166666665, "rental_uris": {"ios": "https://dc.lft.to/lastmile_qr_scan", "android": "https://dc.lft.to/lastmile_qr_scan"}, "is_reserved": 0, "fusion_lon": 0.0, "fusion_lat": 0.0, "lon": -77.02954266666667, "name": "05dc405cb33d3da0762f82a106808131"}, {"bike_id": "b64bb66d0b401509a5755c838db5e4a8", "type": "electric_scooter", "is_disabled": 0, "lat": 38.888158833333335, "rental_uris": {"ios": "https://dc.lft.to/lastmile_qr_scan", "android": "https://dc.lft.to/lastmile_qr_scan"}, "is_reserved": 0, "fusion_lon": 0.0, "fusion_lat": 0.0, "lon": -76.9334245, "name": "b64bb66d0b401509a5755c838db5e4a8"}, {"bike_id": "07017e24907cb2897bf97028ae14e86d", "type": "electric_scooter", "is_disabled": 0, "lat": 38.94291166666667, "rental_uris": {"ios": "https://dc.lft.to/lastmile_qr_scan", "android": "https://dc.lft.to/lastmile_qr_scan"}, "is_reserved": 0, "fusion_lon": 0.0, "fusion_lat": 0.0, "lon": -77.0217175, "name": "07017e24907cb2897bf97028ae14e86d"}, {"bike_id": "395c8b9071a2833c030ac3b4f7463e04", "type": "electric_scooter", "is_disabled": 0, "lat": 38.923786166666666, "rental_uris": {"ios": "https://dc.lft.to/lastmile_qr_scan", "android": "https://dc.lft.to/lastmile_qr_scan"}, "is_reserved": 0, "fusion_lon": 0.0, "fusion_lat": 0.0, "lon": -77.03661233333334, "name": "395c8b9071a2833c030ac3b4f7463e04"}, {"bike_id": "303406ffebb124ad7bfaf9d33e8f9114", "type": "electric_scooter", "is_disabled": 0, "lat": 38.92317633333333, "rental_uris": {"ios": "https://dc.lft.to/lastmile_qr_scan", "android": "https://dc.lft.to/lastmile_qr_scan"}, "is_reserved": 0, "fusion_lon": 0.0, "fusion_lat": 0.0, "lon": -77.03916633333333, "name": "303406ffebb124ad7bfaf9d33e8f9114"}, {"bike_id": "3fa989e47d3fa75a4c4ba449f9d8fbaa", "type": "electric_scooter", "is_disabled": 0, "lat": 38.91111716666666, "rental_uris": {"ios": "https://dc.lft.to/lastmile_qr_scan", "android": "https://dc.lft.to/lastmile_qr_scan"}, "is_reserved": 0, "fusion_lon": 0.0, "fusion_lat": 0.0, "lon": -77.02132766666666, "name": "3fa989e47d3fa75a4c4ba449f9d8fbaa"}, {"bike_id": "377d74c18d0e121906264b135b226b33", "type": "electric_scooter", "is_disabled": 0, "lat": 38.88626716666667, "rental_uris": {"ios": "https://dc.lft.to/lastmile_qr_scan", "android": "https://dc.lft.to/lastmile_qr_scan"}, "is_reserved": 0, "fusion_lon": 0.0, "fusion_lat": 0.0, "lon": -76.99606383333334, "name": "377d74c18d0e121906264b135b226b33"}, {"bike_id": "bc44d4f101910b4bd3e1bea3f1ba8632", "type": "electric_scooter", "is_disabled": 0, "lat": 38.878817, "rental_uris": {"ios": "https://dc.lft.to/lastmile_qr_scan", "android": "https://dc.lft.to/lastmile_qr_scan"}, "is_reserved": 0, "fusion_lon": 0.0, "fusion_lat": 0.0, "lon": -77.0232015, "name": "bc44d4f101910b4bd3e1bea3f1ba8632"}, {"bike_id": "9846decc8d0a3dcbae8467d0982648e5", "type": "electric_scooter", "is_disabled": 0, "lat": 38.897681, "rental_uris": {"ios": "https://dc.lft.to/lastmile_qr_scan", "android": "https://dc.lft.to/lastmile_qr_scan"}, "is_reserved": 0, "fusion_lon": 0.0, "fusion_lat": 0.0, "lon": -76.92574083333334, "name": "9846decc8d0a3dcbae8467d0982648e5"}, {"bike_id": "794b46b11f7b33dab8dd51db30b8df81", "type": "electric_scooter", "is_disabled": 0, "lat": 38.905431666666665, "rental_uris": {"ios": "https://dc.lft.to/lastmile_qr_scan", "android": "https://dc.lft.to/lastmile_qr_scan"}, "is_reserved": 0, "fusion_lon": 0.0, "fusion_lat": 0.0, "lon": -76.981064, "name": "794b46b11f7b33dab8dd51db30b8df81"}, {"bike_id": "d160f2740d8bd1e0b129b45ba76c284c", "type": "electric_scooter", "is_disabled": 0, "lat": 38.91805183333334, "rental_uris": {"ios": "https://dc.lft.to/lastmile_qr_scan", "android": "https://dc.lft.to/lastmile_qr_scan"}, "is_reserved": 0, "fusion_lon": 0.0, "fusion_lat": 0.0, "lon": -77.04553483333333, "name": "d160f2740d8bd1e0b129b45ba76c284c"}, {"bike_id": "832cd8bbd4be24fe53e6c4b774113365", "type": "electric_scooter", "is_disabled": 0, "lat": 38.9141305, "rental_uris": {"ios": "https://dc.lft.to/lastmile_qr_scan", "android": "https://dc.lft.to/lastmile_qr_scan"}, "is_reserved": 0, "fusion_lon": 0.0, "fusion_lat": 0.0, "lon": -77.0242885, "name": "832cd8bbd4be24fe53e6c4b774113365"}, {"bike_id": "9b9f65ca1a2ce9f30d3f20775bd1fc6b", "type": "electric_scooter", "is_disabled": 0, "lat": 38.89264333333333, "rental_uris": {"ios": "https://dc.lft.to/lastmile_qr_scan", "android": "https://dc.lft.to/lastmile_qr_scan"}, "is_reserved": 0, "fusion_lon": 0.0, "fusion_lat": 0.0, "lon": -77.003413, "name": "9b9f65ca1a2ce9f30d3f20775bd1fc6b"}, {"bike_id": "99ebcf028506e8862d630a5bae3fb40a", "type": "electric_scooter", "is_disabled": 0, "lat": 38.90135083333333, "rental_uris": {"ios": "https://dc.lft.to/lastmile_qr_scan", "android": "https://dc.lft.to/lastmile_qr_scan"}, "is_reserved": 0, "fusion_lon": 0.0, "fusion_lat": 0.0, "lon": -77.01837966666666, "name": "99ebcf028506e8862d630a5bae3fb40a"}, {"bike_id": "faa1672209d645b61e40c95e1a5371f7", "type": "electric_scooter", "is_disabled": 0, "lat": 38.86242466666667, "rental_uris": {"ios": "https://dc.lft.to/lastmile_qr_scan", "android": "https://dc.lft.to/lastmile_qr_scan"}, "is_reserved": 0, "fusion_lon": 0.0, "fusion_lat": 0.0, "lon": -76.99490916666667, "name": "faa1672209d645b61e40c95e1a5371f7"}, {"bike_id": "92fac1144ce4906311b285bd141d3f7c", "type": "electric_scooter", "is_disabled": 0, "lat": 38.90723933333334, "rental_uris": {"ios": "https://dc.lft.to/lastmile_qr_scan", "android": "https://dc.lft.to/lastmile_qr_scan"}, "is_reserved": 0, "fusion_lon": 0.0, "fusion_lat": 0.0, "lon": -77.04801766666667, "name": "92fac1144ce4906311b285bd141d3f7c"}, {"bike_id": "93b55d16b6b545691c9a104c1464efd7", "type": "electric_scooter", "is_disabled": 0, "lat": 38.9272875, "rental_uris": {"ios": "https://dc.lft.to/lastmile_qr_scan", "android": "https://dc.lft.to/lastmile_qr_scan"}, "is_reserved": 0, "fusion_lon": 0.0, "fusion_lat": 0.0, "lon": -77.03499166666667, "name": "93b55d16b6b545691c9a104c1464efd7"}, {"bike_id": "d389b95ab67a8872976884032d274ece", "type": "electric_scooter", "is_disabled": 0, "lat": 38.876388666666664, "rental_uris": {"ios": "https://dc.lft.to/lastmile_qr_scan", "android": "https://dc.lft.to/lastmile_qr_scan"}, "is_reserved": 0, "fusion_lon": 0.0, "fusion_lat": 0.0, "lon": -77.004541, "name": "d389b95ab67a8872976884032d274ece"}, {"bike_id": "bb21a27edf7705cdd8e597ee2fa0367d", "type": "electric_scooter", "is_disabled": 0, "lat": 38.896089833333335, "rental_uris": {"ios": "https://dc.lft.to/lastmile_qr_scan", "android": "https://dc.lft.to/lastmile_qr_scan"}, "is_reserved": 0, "fusion_lon": 0.0, "fusion_lat": 0.0, "lon": -77.03126783333333, "name": "bb21a27edf7705cdd8e597ee2fa0367d"}, {"bike_id": "f029f9395d8452fbe6403fa27b3edd9b", "type": "electric_scooter", "is_disabled": 0, "lat": 38.904456833333334, "rental_uris": {"ios": "https://dc.lft.to/lastmile_qr_scan", "android": "https://dc.lft.to/lastmile_qr_scan"}, "is_reserved": 0, "fusion_lon": 0.0, "fusion_lat": 0.0, "lon": -77.03460716666666, "name": "f029f9395d8452fbe6403fa27b3edd9b"}, {"bike_id": "c6ff858ea1a08186c343bc06c3b70d62", "type": "electric_scooter", "is_disabled": 0, "lat": 38.832075, "rental_uris": {"ios": "https://dc.lft.to/lastmile_qr_scan", "android": "https://dc.lft.to/lastmile_qr_scan"}, "is_reserved": 0, "fusion_lon": 0.0, "fusion_lat": 0.0, "lon": -77.0079195, "name": "c6ff858ea1a08186c343bc06c3b70d62"}, {"bike_id": "286a9d9f29c7094107ca26a4ed969a8a", "type": "electric_scooter", "is_disabled": 0, "lat": 38.919612, "rental_uris": {"ios": "https://dc.lft.to/lastmile_qr_scan", "android": "https://dc.lft.to/lastmile_qr_scan"}, "is_reserved": 0, "fusion_lon": 0.0, "fusion_lat": 0.0, "lon": -77.03481933333333, "name": "286a9d9f29c7094107ca26a4ed969a8a"}, {"bike_id": "6011db6d10273c9bdb5c370ee09c4d23", "type": "electric_bike", "is_disabled": 0, "lat": 38.80760083333333, "rental_uris": {"ios": "https://dc.lft.to/lastmile_qr_scan", "android": "https://dc.lft.to/lastmile_qr_scan"}, "is_reserved": 0, "fusion_lon": 0.0, "fusion_lat": 0.0, "lon": -77.094694, "name": "6011db6d10273c9bdb5c370ee09c4d23"}, {"bike_id": "988c4ea8e221165683fd043f24ed2d6f", "type": "electric_scooter", "is_disabled": 0, "lat": 38.93580583333333, "rental_uris": {"ios": "https://dc.lft.to/lastmile_qr_scan", "android": "https://dc.lft.to/lastmile_qr_scan"}, "is_reserved": 0, "fusion_lon": 0.0, "fusion_lat": 0.0, "lon": -77.033629, "name": "988c4ea8e221165683fd043f24ed2d6f"}, {"bike_id": "d2fdfc489363f9bc6c7560cde731ade2", "type": "electric_scooter", "is_disabled": 0, "lat": 38.914019, "rental_uris": {"ios": "https://dc.lft.to/lastmile_qr_scan", "android": "https://dc.lft.to/lastmile_qr_scan"}, "is_reserved": 0, "fusion_lon": 0.0, "fusion_lat": 0.0, "lon": -77.03438883333334, "name": "d2fdfc489363f9bc6c7560cde731ade2"}, {"bike_id": "4147b4c6ed3dd9943ceee3a7a891317b", "type": "electric_scooter", "is_disabled": 0, "lat": 38.923143, "rental_uris": {"ios": "https://dc.lft.to/lastmile_qr_scan", "android": "https://dc.lft.to/lastmile_qr_scan"}, "is_reserved": 0, "fusion_lon": 0.0, "fusion_lat": 0.0, "lon": -77.0404055, "name": "4147b4c6ed3dd9943ceee3a7a891317b"}, {"bike_id": "5b8e02c589a9c1008a4b77a41499f1fd", "type": "electric_scooter", "is_disabled": 0, "lat": 38.903294333333335, "rental_uris": {"ios": "https://dc.lft.to/lastmile_qr_scan", "android": "https://dc.lft.to/lastmile_qr_scan"}, "is_reserved": 0, "fusion_lon": 0.0, "fusion_lat": 0.0, "lon": -76.982823, "name": "5b8e02c589a9c1008a4b77a41499f1fd"}, {"bike_id": "391759bf98f8efdfb6b71f58189ac1c4", "type": "electric_scooter", "is_disabled": 0, "lat": 38.87802683333334, "rental_uris": {"ios": "https://dc.lft.to/lastmile_qr_scan", "android": "https://dc.lft.to/lastmile_qr_scan"}, "is_reserved": 0, "fusion_lon": 0.0, "fusion_lat": 0.0, "lon": -77.01749583333333, "name": "391759bf98f8efdfb6b71f58189ac1c4"}, {"bike_id": "bdc81ca42f81792b6687656d12773427", "type": "electric_scooter", "is_disabled": 0, "lat": 38.91615316666667, "rental_uris": {"ios": "https://dc.lft.to/lastmile_qr_scan", "android": "https://dc.lft.to/lastmile_qr_scan"}, "is_reserved": 0, "fusion_lon": 0.0, "fusion_lat": 0.0, "lon": -77.03372116666667, "name": "bdc81ca42f81792b6687656d12773427"}, {"bike_id": "39b294de85186d5cf37c43fb71466917", "type": "electric_scooter", "is_disabled": 0, "lat": 38.92063666666667, "rental_uris": {"ios": "https://dc.lft.to/lastmile_qr_scan", "android": "https://dc.lft.to/lastmile_qr_scan"}, "is_reserved": 0, "fusion_lon": 0.0, "fusion_lat": 0.0, "lon": -77.04405383333334, "name": "39b294de85186d5cf37c43fb71466917"}, {"bike_id": "bd3bdfa0286ad229aacdbd3f29653354", "type": "electric_scooter", "is_disabled": 0, "lat": 38.92963316666667, "rental_uris": {"ios": "https://dc.lft.to/lastmile_qr_scan", "android": "https://dc.lft.to/lastmile_qr_scan"}, "is_reserved": 0, "fusion_lon": 0.0, "fusion_lat": 0.0, "lon": -77.03133166666667, "name": "bd3bdfa0286ad229aacdbd3f29653354"}, {"bike_id": "c83fa518508787ce6da5ea37484cfbad", "type": "electric_bike", "is_disabled": 0, "lat": 38.993482166666666, "rental_uris": {"ios": "https://dc.lft.to/lastmile_qr_scan", "android": "https://dc.lft.to/lastmile_qr_scan"}, "is_reserved": 0, "fusion_lon": 0.0, "fusion_lat": 0.0, "lon": -77.11576433333333, "name": "c83fa518508787ce6da5ea37484cfbad"}, {"bike_id": "74a241560b459880e48bdf2ef3288cb5", "type": "electric_scooter", "is_disabled": 0, "lat": 38.86506633333333, "rental_uris": {"ios": "https://dc.lft.to/lastmile_qr_scan", "android": "https://dc.lft.to/lastmile_qr_scan"}, "is_reserved": 0, "fusion_lon": 0.0, "fusion_lat": 0.0, "lon": -76.99002316666666, "name": "74a241560b459880e48bdf2ef3288cb5"}, {"bike_id": "426747f9b0d83befcee0bb47d62880a4", "type": "electric_scooter", "is_disabled": 0, "lat": 38.961750333333335, "rental_uris": {"ios": "https://dc.lft.to/lastmile_qr_scan", "android": "https://dc.lft.to/lastmile_qr_scan"}, "is_reserved": 0, "fusion_lon": 0.0, "fusion_lat": 0.0, "lon": -77.028083, "name": "426747f9b0d83befcee0bb47d62880a4"}, {"bike_id": "e32990db6f0a81ef2730e6cac2195fc4", "type": "electric_scooter", "is_disabled": 0, "lat": 38.922403333333335, "rental_uris": {"ios": "https://dc.lft.to/lastmile_qr_scan", "android": "https://dc.lft.to/lastmile_qr_scan"}, "is_reserved": 0, "fusion_lon": 0.0, "fusion_lat": 0.0, "lon": -77.04364133333333, "name": "e32990db6f0a81ef2730e6cac2195fc4"}, {"bike_id": "847f045830c8e85d3599d914bc1c8672", "type": "electric_scooter", "is_disabled": 0, "lat": 38.936991166666665, "rental_uris": {"ios": "https://dc.lft.to/lastmile_qr_scan", "android": "https://dc.lft.to/lastmile_qr_scan"}, "is_reserved": 0, "fusion_lon": 0.0, "fusion_lat": 0.0, "lon": -77.03277233333333, "name": "847f045830c8e85d3599d914bc1c8672"}, {"bike_id": "a4a614b056a2c36f2bef51235037ce91", "type": "electric_scooter", "is_disabled": 0, "lat": 38.88244366666667, "rental_uris": {"ios": "https://dc.lft.to/lastmile_qr_scan", "android": "https://dc.lft.to/lastmile_qr_scan"}, "is_reserved": 0, "fusion_lon": 0.0, "fusion_lat": 0.0, "lon": -76.99121066666666, "name": "a4a614b056a2c36f2bef51235037ce91"}, {"bike_id": "e0381dc261dc1cb8069525db3be19cff", "type": "electric_scooter", "is_disabled": 0, "lat": 38.901463166666666, "rental_uris": {"ios": "https://dc.lft.to/lastmile_qr_scan", "android": "https://dc.lft.to/lastmile_qr_scan"}, "is_reserved": 0, "fusion_lon": 0.0, "fusion_lat": 0.0, "lon": -77.05093583333333, "name": "e0381dc261dc1cb8069525db3be19cff"}, {"bike_id": "8504cf383bf1d2afadf994db64fe772b", "type": "electric_scooter", "is_disabled": 0, "lat": 38.92604866666667, "rental_uris": {"ios": "https://dc.lft.to/lastmile_qr_scan", "android": "https://dc.lft.to/lastmile_qr_scan"}, "is_reserved": 0, "fusion_lon": 0.0, "fusion_lat": 0.0, "lon": -77.10238383333333, "name": "8504cf383bf1d2afadf994db64fe772b"}, {"bike_id": "b42211d54e0bf033636958f3b616e9ae", "type": "electric_bike", "is_disabled": 0, "lat": 38.871340833333335, "rental_uris": {"ios": "https://dc.lft.to/lastmile_qr_scan", "android": "https://dc.lft.to/lastmile_qr_scan"}, "is_reserved": 0, "fusion_lon": 0.0, "fusion_lat": 0.0, "lon": -77.10029416666667, "name": "b42211d54e0bf033636958f3b616e9ae"}, {"bike_id": "51ac94f6d43a936dc69a32f8aa49be1c", "type": "electric_bike", "is_disabled": 0, "lat": 38.83608733333333, "rental_uris": {"ios": "https://dc.lft.to/lastmile_qr_scan", "android": "https://dc.lft.to/lastmile_qr_scan"}, "is_reserved": 0, "fusion_lon": 0.0, "fusion_lat": 0.0, "lon": -77.00382083333334, "name": "51ac94f6d43a936dc69a32f8aa49be1c"}, {"bike_id": "9763924fa1a6f159698dee01265f3ff7", "type": "electric_scooter", "is_disabled": 0, "lat": 38.902561166666665, "rental_uris": {"ios": "https://dc.lft.to/lastmile_qr_scan", "android": "https://dc.lft.to/lastmile_qr_scan"}, "is_reserved": 0, "fusion_lon": 0.0, "fusion_lat": 0.0, "lon": -77.0184225, "name": "9763924fa1a6f159698dee01265f3ff7"}, {"bike_id": "60a892fa0c88e54733b0a71fa586ac9f", "type": "electric_scooter", "is_disabled": 0, "lat": 38.9161035, "rental_uris": {"ios": "https://dc.lft.to/lastmile_qr_scan", "android": "https://dc.lft.to/lastmile_qr_scan"}, "is_reserved": 0, "fusion_lon": 0.0, "fusion_lat": 0.0, "lon": -77.048596, "name": "60a892fa0c88e54733b0a71fa586ac9f"}, {"bike_id": "05795e764ff4cbc4615bea8899404a5c", "type": "electric_scooter", "is_disabled": 0, "lat": 38.91864133333333, "rental_uris": {"ios": "https://dc.lft.to/lastmile_qr_scan", "android": "https://dc.lft.to/lastmile_qr_scan"}, "is_reserved": 0, "fusion_lon": 0.0, "fusion_lat": 0.0, "lon": -77.028015, "name": "05795e764ff4cbc4615bea8899404a5c"}, {"bike_id": "82be2c13d0affe845f93529e4573d9a0", "type": "electric_scooter", "is_disabled": 0, "lat": 38.90127833333333, "rental_uris": {"ios": "https://dc.lft.to/lastmile_qr_scan", "android": "https://dc.lft.to/lastmile_qr_scan"}, "is_reserved": 0, "fusion_lon": 0.0, "fusion_lat": 0.0, "lon": -77.02451316666667, "name": "82be2c13d0affe845f93529e4573d9a0"}, {"bike_id": "1cb5df3319960012c3ce6395c881d2c1", "type": "electric_scooter", "is_disabled": 0, "lat": 38.8961865, "rental_uris": {"ios": "https://dc.lft.to/lastmile_qr_scan", "android": "https://dc.lft.to/lastmile_qr_scan"}, "is_reserved": 0, "fusion_lon": 0.0, "fusion_lat": 0.0, "lon": -77.00019283333333, "name": "1cb5df3319960012c3ce6395c881d2c1"}, {"bike_id": "a0244522dc76638205f563ffd5be1837", "type": "electric_scooter", "is_disabled": 0, "lat": 38.915716833333335, "rental_uris": {"ios": "https://dc.lft.to/lastmile_qr_scan", "android": "https://dc.lft.to/lastmile_qr_scan"}, "is_reserved": 0, "fusion_lon": 0.0, "fusion_lat": 0.0, "lon": -77.02385666666666, "name": "a0244522dc76638205f563ffd5be1837"}, {"bike_id": "6fb803fe1c6c7a83315590d19e53642d", "type": "electric_scooter", "is_disabled": 0, "lat": 38.89254616666667, "rental_uris": {"ios": "https://dc.lft.to/lastmile_qr_scan", "android": "https://dc.lft.to/lastmile_qr_scan"}, "is_reserved": 0, "fusion_lon": 0.0, "fusion_lat": 0.0, "lon": -77.033547, "name": "6fb803fe1c6c7a83315590d19e53642d"}, {"bike_id": "5da2e263a5caa6cb46d42d6c38a84b7a", "type": "electric_scooter", "is_disabled": 0, "lat": 38.921305833333335, "rental_uris": {"ios": "https://dc.lft.to/lastmile_qr_scan", "android": "https://dc.lft.to/lastmile_qr_scan"}, "is_reserved": 0, "fusion_lon": 0.0, "fusion_lat": 0.0, "lon": -77.04126633333334, "name": "5da2e263a5caa6cb46d42d6c38a84b7a"}, {"bike_id": "9522d98d96140a5c9709ff29df606a03", "type": "electric_scooter", "is_disabled": 0, "lat": 38.91813366666667, "rental_uris": {"ios": "https://dc.lft.to/lastmile_qr_scan", "android": "https://dc.lft.to/lastmile_qr_scan"}, "is_reserved": 0, "fusion_lon": 0.0, "fusion_lat": 0.0, "lon": -77.036602, "name": "9522d98d96140a5c9709ff29df606a03"}, {"bike_id": "8e5253a6961469f6b1ba8ce9e8decd1e", "type": "electric_bike", "is_disabled": 0, "lat": 38.90865383333333, "rental_uris": {"ios": "https://dc.lft.to/lastmile_qr_scan", "android": "https://dc.lft.to/lastmile_qr_scan"}, "is_reserved": 0, "fusion_lon": 0.0, "fusion_lat": 0.0, "lon": -76.99141383333334, "name": "8e5253a6961469f6b1ba8ce9e8decd1e"}, {"bike_id": "2b8907bc44d325d9c8ebf1ec32b7aa67", "type": "electric_scooter", "is_disabled": 0, "lat": 38.907359166666666, "rental_uris": {"ios": "https://dc.lft.to/lastmile_qr_scan", "android": "https://dc.lft.to/lastmile_qr_scan"}, "is_reserved": 0, "fusion_lon": 0.0, "fusion_lat": 0.0, "lon": -77.02951766666666, "name": "2b8907bc44d325d9c8ebf1ec32b7aa67"}, {"bike_id": "7d94c2f6b6cbd5b0929704ec002d8e76", "type": "electric_scooter", "is_disabled": 0, "lat": 38.923124, "rental_uris": {"ios": "https://dc.lft.to/lastmile_qr_scan", "android": "https://dc.lft.to/lastmile_qr_scan"}, "is_reserved": 0, "fusion_lon": 0.0, "fusion_lat": 0.0, "lon": -77.03912766666667, "name": "7d94c2f6b6cbd5b0929704ec002d8e76"}, {"bike_id": "7a0899f160791d6bb35b90eeead5ab03", "type": "electric_scooter", "is_disabled": 0, "lat": 38.91960816666667, "rental_uris": {"ios": "https://dc.lft.to/lastmile_qr_scan", "android": "https://dc.lft.to/lastmile_qr_scan"}, "is_reserved": 0, "fusion_lon": 0.0, "fusion_lat": 0.0, "lon": -77.023959, "name": "7a0899f160791d6bb35b90eeead5ab03"}, {"bike_id": "b3f2639c1037192c1d1700d783b1cd45", "type": "electric_scooter", "is_disabled": 0, "lat": 38.8925675, "rental_uris": {"ios": "https://dc.lft.to/lastmile_qr_scan", "android": "https://dc.lft.to/lastmile_qr_scan"}, "is_reserved": 0, "fusion_lon": 0.0, "fusion_lat": 0.0, "lon": -77.03354033333333, "name": "b3f2639c1037192c1d1700d783b1cd45"}, {"bike_id": "23961229265c97c685ad70bbbf3d043e", "type": "electric_scooter", "is_disabled": 0, "lat": 38.914836666666666, "rental_uris": {"ios": "https://dc.lft.to/lastmile_qr_scan", "android": "https://dc.lft.to/lastmile_qr_scan"}, "is_reserved": 0, "fusion_lon": 0.0, "fusion_lat": 0.0, "lon": -76.9857855, "name": "23961229265c97c685ad70bbbf3d043e"}, {"bike_id": "89fd531ccd29c733d443674803c6d8bd", "type": "electric_scooter", "is_disabled": 0, "lat": 38.9023935, "rental_uris": {"ios": "https://dc.lft.to/lastmile_qr_scan", "android": "https://dc.lft.to/lastmile_qr_scan"}, "is_reserved": 0, "fusion_lon": 0.0, "fusion_lat": 0.0, "lon": -76.97410033333334, "name": "89fd531ccd29c733d443674803c6d8bd"}, {"bike_id": "3244961d094e5cb5e855b9f201d3c49a", "type": "electric_scooter", "is_disabled": 0, "lat": 38.9073925, "rental_uris": {"ios": "https://dc.lft.to/lastmile_qr_scan", "android": "https://dc.lft.to/lastmile_qr_scan"}, "is_reserved": 0, "fusion_lon": 0.0, "fusion_lat": 0.0, "lon": -77.063249, "name": "3244961d094e5cb5e855b9f201d3c49a"}, {"bike_id": "b72ff6a2c5faaa96302585d212009815", "type": "electric_scooter", "is_disabled": 0, "lat": 38.900288333333336, "rental_uris": {"ios": "https://dc.lft.to/lastmile_qr_scan", "android": "https://dc.lft.to/lastmile_qr_scan"}, "is_reserved": 0, "fusion_lon": 0.0, "fusion_lat": 0.0, "lon": -76.9805395, "name": "b72ff6a2c5faaa96302585d212009815"}, {"bike_id": "0ea31edc156cc0ccafedd8fac485c07a", "type": "electric_scooter", "is_disabled": 0, "lat": 38.926005833333335, "rental_uris": {"ios": "https://dc.lft.to/lastmile_qr_scan", "android": "https://dc.lft.to/lastmile_qr_scan"}, "is_reserved": 0, "fusion_lon": 0.0, "fusion_lat": 0.0, "lon": -77.0083285, "name": "0ea31edc156cc0ccafedd8fac485c07a"}, {"bike_id": "ebff0b3101712b0b402fbb0642517fce", "type": "electric_scooter", "is_disabled": 0, "lat": 38.91929416666667, "rental_uris": {"ios": "https://dc.lft.to/lastmile_qr_scan", "android": "https://dc.lft.to/lastmile_qr_scan"}, "is_reserved": 0, "fusion_lon": 0.0, "fusion_lat": 0.0, "lon": -77.02481266666666, "name": "ebff0b3101712b0b402fbb0642517fce"}, {"bike_id": "109d23317f6166f29d3769ff32fd5e62", "type": "electric_scooter", "is_disabled": 0, "lat": 38.9097095, "rental_uris": {"ios": "https://dc.lft.to/lastmile_qr_scan", "android": "https://dc.lft.to/lastmile_qr_scan"}, "is_reserved": 0, "fusion_lon": 0.0, "fusion_lat": 0.0, "lon": -77.040517, "name": "109d23317f6166f29d3769ff32fd5e62"}, {"bike_id": "80f0985a312a758fa6c6a8546ad8951e", "type": "electric_scooter", "is_disabled": 0, "lat": 38.920471166666665, "rental_uris": {"ios": "https://dc.lft.to/lastmile_qr_scan", "android": "https://dc.lft.to/lastmile_qr_scan"}, "is_reserved": 0, "fusion_lon": 0.0, "fusion_lat": 0.0, "lon": -77.03446883333334, "name": "80f0985a312a758fa6c6a8546ad8951e"}, {"bike_id": "d4de5470aafe865b36d4dd69d81f08e9", "type": "electric_scooter", "is_disabled": 0, "lat": 38.93180516666666, "rental_uris": {"ios": "https://dc.lft.to/lastmile_qr_scan", "android": "https://dc.lft.to/lastmile_qr_scan"}, "is_reserved": 0, "fusion_lon": 0.0, "fusion_lat": 0.0, "lon": -77.0430425, "name": "d4de5470aafe865b36d4dd69d81f08e9"}, {"bike_id": "4b6a0b7df69573f0243c8080a89f7ea6", "type": "electric_scooter", "is_disabled": 0, "lat": 38.902758166666665, "rental_uris": {"ios": "https://dc.lft.to/lastmile_qr_scan", "android": "https://dc.lft.to/lastmile_qr_scan"}, "is_reserved": 0, "fusion_lon": 0.0, "fusion_lat": 0.0, "lon": -77.0189925, "name": "4b6a0b7df69573f0243c8080a89f7ea6"}, {"bike_id": "5fe88a219d2841ed43f8816987c876b9", "type": "electric_scooter", "is_disabled": 0, "lat": 38.8443705, "rental_uris": {"ios": "https://dc.lft.to/lastmile_qr_scan", "android": "https://dc.lft.to/lastmile_qr_scan"}, "is_reserved": 0, "fusion_lon": 0.0, "fusion_lat": 0.0, "lon": -76.99774633333334, "name": "5fe88a219d2841ed43f8816987c876b9"}, {"bike_id": "28e7548ef2170255f9f7a8f5ad1475cc", "type": "electric_scooter", "is_disabled": 0, "lat": 38.919602166666664, "rental_uris": {"ios": "https://dc.lft.to/lastmile_qr_scan", "android": "https://dc.lft.to/lastmile_qr_scan"}, "is_reserved": 0, "fusion_lon": 0.0, "fusion_lat": 0.0, "lon": -77.04243383333333, "name": "28e7548ef2170255f9f7a8f5ad1475cc"}, {"bike_id": "f892f3fbe63b4038602b6a9c0f2a1b98", "type": "electric_scooter", "is_disabled": 0, "lat": 38.92190983333333, "rental_uris": {"ios": "https://dc.lft.to/lastmile_qr_scan", "android": "https://dc.lft.to/lastmile_qr_scan"}, "is_reserved": 0, "fusion_lon": 0.0, "fusion_lat": 0.0, "lon": -76.99363016666666, "name": "f892f3fbe63b4038602b6a9c0f2a1b98"}, {"bike_id": "637942261362ca8c2a52cac68c8f30a8", "type": "electric_scooter", "is_disabled": 0, "lat": 38.91276716666667, "rental_uris": {"ios": "https://dc.lft.to/lastmile_qr_scan", "android": "https://dc.lft.to/lastmile_qr_scan"}, "is_reserved": 0, "fusion_lon": 0.0, "fusion_lat": 0.0, "lon": -77.0473, "name": "637942261362ca8c2a52cac68c8f30a8"}, {"bike_id": "6052db583c4982521cc72f395908e207", "type": "electric_scooter", "is_disabled": 0, "lat": 38.9300965, "rental_uris": {"ios": "https://dc.lft.to/lastmile_qr_scan", "android": "https://dc.lft.to/lastmile_qr_scan"}, "is_reserved": 0, "fusion_lon": 0.0, "fusion_lat": 0.0, "lon": -77.01429783333333, "name": "6052db583c4982521cc72f395908e207"}, {"bike_id": "40004570bc9cadd0bcd0bcb547f8ae79", "type": "electric_scooter", "is_disabled": 0, "lat": 38.857085833333336, "rental_uris": {"ios": "https://dc.lft.to/lastmile_qr_scan", "android": "https://dc.lft.to/lastmile_qr_scan"}, "is_reserved": 0, "fusion_lon": 0.0, "fusion_lat": 0.0, "lon": -76.98965166666666, "name": "40004570bc9cadd0bcd0bcb547f8ae79"}, {"bike_id": "9da87b8731516a5e490dc8f728c774d7", "type": "electric_bike", "is_disabled": 0, "lat": 39.057871166666665, "rental_uris": {"ios": "https://dc.lft.to/lastmile_qr_scan", "android": "https://dc.lft.to/lastmile_qr_scan"}, "is_reserved": 0, "fusion_lon": 0.0, "fusion_lat": 0.0, "lon": -77.15020783333334, "name": "9da87b8731516a5e490dc8f728c774d7"}, {"bike_id": "a945df035bd0c9f6508335016aec599b", "type": "electric_scooter", "is_disabled": 0, "lat": 38.900616166666666, "rental_uris": {"ios": "https://dc.lft.to/lastmile_qr_scan", "android": "https://dc.lft.to/lastmile_qr_scan"}, "is_reserved": 0, "fusion_lon": 0.0, "fusion_lat": 0.0, "lon": -76.93472416666667, "name": "a945df035bd0c9f6508335016aec599b"}, {"bike_id": "45810b6ec90e0698a0e954ac64741d31", "type": "electric_bike", "is_disabled": 0, "lat": 38.85318566666667, "rental_uris": {"ios": "https://dc.lft.to/lastmile_qr_scan", "android": "https://dc.lft.to/lastmile_qr_scan"}, "is_reserved": 0, "fusion_lon": 0.0, "fusion_lat": 0.0, "lon": -76.98010266666667, "name": "45810b6ec90e0698a0e954ac64741d31"}, {"bike_id": "87a3c735eca64c1e953c7daf2e6fd8fc", "type": "electric_scooter", "is_disabled": 0, "lat": 38.93538066666667, "rental_uris": {"ios": "https://dc.lft.to/lastmile_qr_scan", "android": "https://dc.lft.to/lastmile_qr_scan"}, "is_reserved": 0, "fusion_lon": 0.0, "fusion_lat": 0.0, "lon": -77.0234515, "name": "87a3c735eca64c1e953c7daf2e6fd8fc"}, {"bike_id": "e05d385fb3eda3dc14a4e215d08b965e", "type": "electric_scooter", "is_disabled": 0, "lat": 38.852057333333335, "rental_uris": {"ios": "https://dc.lft.to/lastmile_qr_scan", "android": "https://dc.lft.to/lastmile_qr_scan"}, "is_reserved": 0, "fusion_lon": 0.0, "fusion_lat": 0.0, "lon": -76.9855555, "name": "e05d385fb3eda3dc14a4e215d08b965e"}, {"bike_id": "c0b85e53e38a1f133c524aa19f7d9bb0", "type": "electric_bike", "is_disabled": 0, "lat": 38.89739, "rental_uris": {"ios": "https://dc.lft.to/lastmile_qr_scan", "android": "https://dc.lft.to/lastmile_qr_scan"}, "is_reserved": 0, "fusion_lon": 0.0, "fusion_lat": 0.0, "lon": -76.9425225, "name": "c0b85e53e38a1f133c524aa19f7d9bb0"}, {"bike_id": "95a9eaf609334930dcdc2d0bd2dabcf4", "type": "electric_scooter", "is_disabled": 0, "lat": 38.90363083333333, "rental_uris": {"ios": "https://dc.lft.to/lastmile_qr_scan", "android": "https://dc.lft.to/lastmile_qr_scan"}, "is_reserved": 0, "fusion_lon": 0.0, "fusion_lat": 0.0, "lon": -76.993874, "name": "95a9eaf609334930dcdc2d0bd2dabcf4"}, {"bike_id": "48bfbc9a2dacd680df14e0f7e0d145d7", "type": "electric_scooter", "is_disabled": 0, "lat": 38.93444733333333, "rental_uris": {"ios": "https://dc.lft.to/lastmile_qr_scan", "android": "https://dc.lft.to/lastmile_qr_scan"}, "is_reserved": 0, "fusion_lon": 0.0, "fusion_lat": 0.0, "lon": -77.02984983333333, "name": "48bfbc9a2dacd680df14e0f7e0d145d7"}, {"bike_id": "8829d89ff60d8bae971148f467349e48", "type": "electric_scooter", "is_disabled": 0, "lat": 38.92531183333333, "rental_uris": {"ios": "https://dc.lft.to/lastmile_qr_scan", "android": "https://dc.lft.to/lastmile_qr_scan"}, "is_reserved": 0, "fusion_lon": 0.0, "fusion_lat": 0.0, "lon": -77.04100033333333, "name": "8829d89ff60d8bae971148f467349e48"}, {"bike_id": "fb5e71d79ef9bc3f7ee7edbc286d1080", "type": "electric_scooter", "is_disabled": 0, "lat": 38.92092566666667, "rental_uris": {"ios": "https://dc.lft.to/lastmile_qr_scan", "android": "https://dc.lft.to/lastmile_qr_scan"}, "is_reserved": 0, "fusion_lon": 0.0, "fusion_lat": 0.0, "lon": -77.0253195, "name": "fb5e71d79ef9bc3f7ee7edbc286d1080"}, {"bike_id": "eb4c1f4c24735ec2038ac1358505ed56", "type": "electric_scooter", "is_disabled": 0, "lat": 38.93235983333334, "rental_uris": {"ios": "https://dc.lft.to/lastmile_qr_scan", "android": "https://dc.lft.to/lastmile_qr_scan"}, "is_reserved": 0, "fusion_lon": 0.0, "fusion_lat": 0.0, "lon": -77.03386433333333, "name": "eb4c1f4c24735ec2038ac1358505ed56"}, {"bike_id": "0fda2a8caf9981af95f9b2c6beb315b8", "type": "electric_scooter", "is_disabled": 0, "lat": 38.900303, "rental_uris": {"ios": "https://dc.lft.to/lastmile_qr_scan", "android": "https://dc.lft.to/lastmile_qr_scan"}, "is_reserved": 0, "fusion_lon": 0.0, "fusion_lat": 0.0, "lon": -77.00094783333333, "name": "0fda2a8caf9981af95f9b2c6beb315b8"}, {"bike_id": "61071fe553d02f645a4c83c9026a866a", "type": "electric_scooter", "is_disabled": 0, "lat": 38.9030855, "rental_uris": {"ios": "https://dc.lft.to/lastmile_qr_scan", "android": "https://dc.lft.to/lastmile_qr_scan"}, "is_reserved": 0, "fusion_lon": 0.0, "fusion_lat": 0.0, "lon": -76.983542, "name": "61071fe553d02f645a4c83c9026a866a"}, {"bike_id": "5a744dece8ec9a3e68185d203f3add38", "type": "electric_scooter", "is_disabled": 0, "lat": 38.906836166666665, "rental_uris": {"ios": "https://dc.lft.to/lastmile_qr_scan", "android": "https://dc.lft.to/lastmile_qr_scan"}, "is_reserved": 0, "fusion_lon": 0.0, "fusion_lat": 0.0, "lon": -77.07159383333334, "name": "5a744dece8ec9a3e68185d203f3add38"}, {"bike_id": "7d6fd3237f5222d70bee58a2b45476fe", "type": "electric_scooter", "is_disabled": 0, "lat": 38.907422333333336, "rental_uris": {"ios": "https://dc.lft.to/lastmile_qr_scan", "android": "https://dc.lft.to/lastmile_qr_scan"}, "is_reserved": 0, "fusion_lon": 0.0, "fusion_lat": 0.0, "lon": -77.04540216666666, "name": "7d6fd3237f5222d70bee58a2b45476fe"}, {"bike_id": "5331f3f9e140683b969cdd09fc1da3bf", "type": "electric_scooter", "is_disabled": 0, "lat": 38.920663, "rental_uris": {"ios": "https://dc.lft.to/lastmile_qr_scan", "android": "https://dc.lft.to/lastmile_qr_scan"}, "is_reserved": 0, "fusion_lon": 0.0, "fusion_lat": 0.0, "lon": -77.034648, "name": "5331f3f9e140683b969cdd09fc1da3bf"}, {"bike_id": "4f381459410f081956df703d451ebe17", "type": "electric_scooter", "is_disabled": 0, "lat": 38.910348166666665, "rental_uris": {"ios": "https://dc.lft.to/lastmile_qr_scan", "android": "https://dc.lft.to/lastmile_qr_scan"}, "is_reserved": 0, "fusion_lon": 0.0, "fusion_lat": 0.0, "lon": -77.03825216666667, "name": "4f381459410f081956df703d451ebe17"}, {"bike_id": "f6036b056b3c1f7a0b4cf3f2ff215b80", "type": "electric_scooter", "is_disabled": 0, "lat": 38.896695333333334, "rental_uris": {"ios": "https://dc.lft.to/lastmile_qr_scan", "android": "https://dc.lft.to/lastmile_qr_scan"}, "is_reserved": 0, "fusion_lon": 0.0, "fusion_lat": 0.0, "lon": -76.98816666666667, "name": "f6036b056b3c1f7a0b4cf3f2ff215b80"}, {"bike_id": "37fe28e41698caaa02c95a9d55126d78", "type": "electric_scooter", "is_disabled": 0, "lat": 38.92053683333334, "rental_uris": {"ios": "https://dc.lft.to/lastmile_qr_scan", "android": "https://dc.lft.to/lastmile_qr_scan"}, "is_reserved": 0, "fusion_lon": 0.0, "fusion_lat": 0.0, "lon": -77.02371316666667, "name": "37fe28e41698caaa02c95a9d55126d78"}, {"bike_id": "141a973bffc17222d5fd4915c6585458", "type": "electric_scooter", "is_disabled": 0, "lat": 38.9353405, "rental_uris": {"ios": "https://dc.lft.to/lastmile_qr_scan", "android": "https://dc.lft.to/lastmile_qr_scan"}, "is_reserved": 0, "fusion_lon": 0.0, "fusion_lat": 0.0, "lon": -77.02351566666667, "name": "141a973bffc17222d5fd4915c6585458"}, {"bike_id": "70d4e11ddd494a5981ff6b3e5628a96b", "type": "electric_scooter", "is_disabled": 0, "lat": 38.9165215, "rental_uris": {"ios": "https://dc.lft.to/lastmile_qr_scan", "android": "https://dc.lft.to/lastmile_qr_scan"}, "is_reserved": 0, "fusion_lon": 0.0, "fusion_lat": 0.0, "lon": -77.0465915, "name": "70d4e11ddd494a5981ff6b3e5628a96b"}, {"bike_id": "4dc910db65ae0562f7efb0cc97172919", "type": "electric_scooter", "is_disabled": 0, "lat": 38.934549833333335, "rental_uris": {"ios": "https://dc.lft.to/lastmile_qr_scan", "android": "https://dc.lft.to/lastmile_qr_scan"}, "is_reserved": 0, "fusion_lon": 0.0, "fusion_lat": 0.0, "lon": -77.03052516666666, "name": "4dc910db65ae0562f7efb0cc97172919"}, {"bike_id": "6026ff25b6b7dcbc68dacdc096f5c742", "type": "electric_scooter", "is_disabled": 0, "lat": 38.881141666666664, "rental_uris": {"ios": "https://dc.lft.to/lastmile_qr_scan", "android": "https://dc.lft.to/lastmile_qr_scan"}, "is_reserved": 0, "fusion_lon": 0.0, "fusion_lat": 0.0, "lon": -77.01638433333333, "name": "6026ff25b6b7dcbc68dacdc096f5c742"}, {"bike_id": "5d2b0332cd7b2383ef7c6eb26f40f47d", "type": "electric_scooter", "is_disabled": 0, "lat": 38.91286383333333, "rental_uris": {"ios": "https://dc.lft.to/lastmile_qr_scan", "android": "https://dc.lft.to/lastmile_qr_scan"}, "is_reserved": 0, "fusion_lon": 0.0, "fusion_lat": 0.0, "lon": -77.02714233333333, "name": "5d2b0332cd7b2383ef7c6eb26f40f47d"}, {"bike_id": "d31a24d1ef385b261a8e0cc88d7b9602", "type": "electric_scooter", "is_disabled": 0, "lat": 38.9136685, "rental_uris": {"ios": "https://dc.lft.to/lastmile_qr_scan", "android": "https://dc.lft.to/lastmile_qr_scan"}, "is_reserved": 0, "fusion_lon": 0.0, "fusion_lat": 0.0, "lon": -77.04498166666667, "name": "d31a24d1ef385b261a8e0cc88d7b9602"}, {"bike_id": "8c6cedb6cdb81983482d47995d2dc870", "type": "electric_scooter", "is_disabled": 0, "lat": 38.870713, "rental_uris": {"ios": "https://dc.lft.to/lastmile_qr_scan", "android": "https://dc.lft.to/lastmile_qr_scan"}, "is_reserved": 0, "fusion_lon": 0.0, "fusion_lat": 0.0, "lon": -76.98887166666667, "name": "8c6cedb6cdb81983482d47995d2dc870"}, {"bike_id": "107c03ded13f0aac804bdb665e59a355", "type": "electric_scooter", "is_disabled": 0, "lat": 38.89738583333333, "rental_uris": {"ios": "https://dc.lft.to/lastmile_qr_scan", "android": "https://dc.lft.to/lastmile_qr_scan"}, "is_reserved": 0, "fusion_lon": 0.0, "fusion_lat": 0.0, "lon": -77.03326716666666, "name": "107c03ded13f0aac804bdb665e59a355"}, {"bike_id": "252a4727a1644ceda468f824d579be9c", "type": "electric_scooter", "is_disabled": 0, "lat": 38.90333966666667, "rental_uris": {"ios": "https://dc.lft.to/lastmile_qr_scan", "android": "https://dc.lft.to/lastmile_qr_scan"}, "is_reserved": 0, "fusion_lon": 0.0, "fusion_lat": 0.0, "lon": -76.9758865, "name": "252a4727a1644ceda468f824d579be9c"}, {"bike_id": "276df8c4af1af36971f6185037758fb3", "type": "electric_scooter", "is_disabled": 0, "lat": 38.93324833333333, "rental_uris": {"ios": "https://dc.lft.to/lastmile_qr_scan", "android": "https://dc.lft.to/lastmile_qr_scan"}, "is_reserved": 0, "fusion_lon": 0.0, "fusion_lat": 0.0, "lon": -77.02925683333333, "name": "276df8c4af1af36971f6185037758fb3"}, {"bike_id": "6434d3b00a057cd5f4d53b17b8c78089", "type": "electric_scooter", "is_disabled": 0, "lat": 38.911634166666666, "rental_uris": {"ios": "https://dc.lft.to/lastmile_qr_scan", "android": "https://dc.lft.to/lastmile_qr_scan"}, "is_reserved": 0, "fusion_lon": 0.0, "fusion_lat": 0.0, "lon": -77.016204, "name": "6434d3b00a057cd5f4d53b17b8c78089"}, {"bike_id": "7bc52e048bfe89a64d97a27686409c36", "type": "electric_scooter", "is_disabled": 0, "lat": 38.90339016666667, "rental_uris": {"ios": "https://dc.lft.to/lastmile_qr_scan", "android": "https://dc.lft.to/lastmile_qr_scan"}, "is_reserved": 0, "fusion_lon": 0.0, "fusion_lat": 0.0, "lon": -76.97583283333333, "name": "7bc52e048bfe89a64d97a27686409c36"}, {"bike_id": "23bb143a4bf733824bfe67267ef11d17", "type": "electric_scooter", "is_disabled": 0, "lat": 38.9031035, "rental_uris": {"ios": "https://dc.lft.to/lastmile_qr_scan", "android": "https://dc.lft.to/lastmile_qr_scan"}, "is_reserved": 0, "fusion_lon": 0.0, "fusion_lat": 0.0, "lon": -76.98358266666666, "name": "23bb143a4bf733824bfe67267ef11d17"}, {"bike_id": "d845cc9a61bb7f7c999c446dbfcd8a0b", "type": "electric_scooter", "is_disabled": 0, "lat": 38.90818733333333, "rental_uris": {"ios": "https://dc.lft.to/lastmile_qr_scan", "android": "https://dc.lft.to/lastmile_qr_scan"}, "is_reserved": 0, "fusion_lon": 0.0, "fusion_lat": 0.0, "lon": -77.04344966666666, "name": "d845cc9a61bb7f7c999c446dbfcd8a0b"}, {"bike_id": "0041c919414018b387aebb03e31bb613", "type": "electric_scooter", "is_disabled": 0, "lat": 38.92449966666667, "rental_uris": {"ios": "https://dc.lft.to/lastmile_qr_scan", "android": "https://dc.lft.to/lastmile_qr_scan"}, "is_reserved": 0, "fusion_lon": 0.0, "fusion_lat": 0.0, "lon": -77.02407583333333, "name": "0041c919414018b387aebb03e31bb613"}, {"bike_id": "a641c8c352ce0c4fabda192d817f2cb4", "type": "electric_scooter", "is_disabled": 0, "lat": 38.880714833333336, "rental_uris": {"ios": "https://dc.lft.to/lastmile_qr_scan", "android": "https://dc.lft.to/lastmile_qr_scan"}, "is_reserved": 0, "fusion_lon": 0.0, "fusion_lat": 0.0, "lon": -76.99510333333333, "name": "a641c8c352ce0c4fabda192d817f2cb4"}, {"bike_id": "e751efc21a5abc3b2a35e6c35b127539", "type": "electric_scooter", "is_disabled": 0, "lat": 38.934703999999996, "rental_uris": {"ios": "https://dc.lft.to/lastmile_qr_scan", "android": "https://dc.lft.to/lastmile_qr_scan"}, "is_reserved": 0, "fusion_lon": 0.0, "fusion_lat": 0.0, "lon": -77.02799383333333, "name": "e751efc21a5abc3b2a35e6c35b127539"}, {"bike_id": "94ceef44f9d19c6d2edc7a54f4ce9422", "type": "electric_scooter", "is_disabled": 0, "lat": 38.8745635, "rental_uris": {"ios": "https://dc.lft.to/lastmile_qr_scan", "android": "https://dc.lft.to/lastmile_qr_scan"}, "is_reserved": 0, "fusion_lon": 0.0, "fusion_lat": 0.0, "lon": -77.00299283333334, "name": "94ceef44f9d19c6d2edc7a54f4ce9422"}, {"bike_id": "1ac807be4124dbb1fb106658435f82d0", "type": "electric_scooter", "is_disabled": 0, "lat": 38.8624905, "rental_uris": {"ios": "https://dc.lft.to/lastmile_qr_scan", "android": "https://dc.lft.to/lastmile_qr_scan"}, "is_reserved": 0, "fusion_lon": 0.0, "fusion_lat": 0.0, "lon": -76.99499966666667, "name": "1ac807be4124dbb1fb106658435f82d0"}, {"bike_id": "8695e4ef926b64c1267c71d34d121480", "type": "electric_scooter", "is_disabled": 0, "lat": 38.948451166666665, "rental_uris": {"ios": "https://dc.lft.to/lastmile_qr_scan", "android": "https://dc.lft.to/lastmile_qr_scan"}, "is_reserved": 0, "fusion_lon": 0.0, "fusion_lat": 0.0, "lon": -77.02541866666667, "name": "8695e4ef926b64c1267c71d34d121480"}, {"bike_id": "6438a8f0c0e298adf962f4303f618fe5", "type": "electric_scooter", "is_disabled": 0, "lat": 38.85447683333334, "rental_uris": {"ios": "https://dc.lft.to/lastmile_qr_scan", "android": "https://dc.lft.to/lastmile_qr_scan"}, "is_reserved": 0, "fusion_lon": 0.0, "fusion_lat": 0.0, "lon": -76.98607983333333, "name": "6438a8f0c0e298adf962f4303f618fe5"}, {"bike_id": "deb735d08a4f045851a6f38b29c87bdf", "type": "electric_scooter", "is_disabled": 0, "lat": 38.934188666666664, "rental_uris": {"ios": "https://dc.lft.to/lastmile_qr_scan", "android": "https://dc.lft.to/lastmile_qr_scan"}, "is_reserved": 0, "fusion_lon": 0.0, "fusion_lat": 0.0, "lon": -77.03909033333333, "name": "deb735d08a4f045851a6f38b29c87bdf"}, {"bike_id": "5bfd65a3734ee5b0bdc836c804a700e1", "type": "electric_scooter", "is_disabled": 0, "lat": 38.9181785, "rental_uris": {"ios": "https://dc.lft.to/lastmile_qr_scan", "android": "https://dc.lft.to/lastmile_qr_scan"}, "is_reserved": 0, "fusion_lon": 0.0, "fusion_lat": 0.0, "lon": -77.0366865, "name": "5bfd65a3734ee5b0bdc836c804a700e1"}, {"bike_id": "c2790be0c2ce8981e8ec56ba0e9495f8", "type": "electric_scooter", "is_disabled": 0, "lat": 38.94296833333333, "rental_uris": {"ios": "https://dc.lft.to/lastmile_qr_scan", "android": "https://dc.lft.to/lastmile_qr_scan"}, "is_reserved": 0, "fusion_lon": 0.0, "fusion_lat": 0.0, "lon": -77.02168016666667, "name": "c2790be0c2ce8981e8ec56ba0e9495f8"}, {"bike_id": "679680c45de99804d28764dc69159723", "type": "electric_bike", "is_disabled": 0, "lat": 38.8542955, "rental_uris": {"ios": "https://dc.lft.to/lastmile_qr_scan", "android": "https://dc.lft.to/lastmile_qr_scan"}, "is_reserved": 0, "fusion_lon": 0.0, "fusion_lat": 0.0, "lon": -77.1208155, "name": "679680c45de99804d28764dc69159723"}, {"bike_id": "70a1b6b781d9280693e8e588b6b39d06", "type": "electric_scooter", "is_disabled": 0, "lat": 38.9073375, "rental_uris": {"ios": "https://dc.lft.to/lastmile_qr_scan", "android": "https://dc.lft.to/lastmile_qr_scan"}, "is_reserved": 0, "fusion_lon": 0.0, "fusion_lat": 0.0, "lon": -77.0449675, "name": "70a1b6b781d9280693e8e588b6b39d06"}, {"bike_id": "a578c74ef9d6f8d38f521030517d66d1", "type": "electric_scooter", "is_disabled": 0, "lat": 38.85813916666667, "rental_uris": {"ios": "https://dc.lft.to/lastmile_qr_scan", "android": "https://dc.lft.to/lastmile_qr_scan"}, "is_reserved": 0, "fusion_lon": 0.0, "fusion_lat": 0.0, "lon": -76.98925133333333, "name": "a578c74ef9d6f8d38f521030517d66d1"}, {"bike_id": "fad3f9f1be34ca1bc3d41af5884da615", "type": "electric_scooter", "is_disabled": 0, "lat": 38.932500833333336, "rental_uris": {"ios": "https://dc.lft.to/lastmile_qr_scan", "android": "https://dc.lft.to/lastmile_qr_scan"}, "is_reserved": 0, "fusion_lon": 0.0, "fusion_lat": 0.0, "lon": -77.03273333333334, "name": "fad3f9f1be34ca1bc3d41af5884da615"}, {"bike_id": "a18e0822c8e1217998bcb86ed1538fbd", "type": "electric_scooter", "is_disabled": 0, "lat": 38.88015933333333, "rental_uris": {"ios": "https://dc.lft.to/lastmile_qr_scan", "android": "https://dc.lft.to/lastmile_qr_scan"}, "is_reserved": 0, "fusion_lon": 0.0, "fusion_lat": 0.0, "lon": -77.02486416666666, "name": "a18e0822c8e1217998bcb86ed1538fbd"}, {"bike_id": "ec75e44ac8a3617fce25c3a001b69afc", "type": "electric_scooter", "is_disabled": 0, "lat": 38.895235166666666, "rental_uris": {"ios": "https://dc.lft.to/lastmile_qr_scan", "android": "https://dc.lft.to/lastmile_qr_scan"}, "is_reserved": 0, "fusion_lon": 0.0, "fusion_lat": 0.0, "lon": -77.01099516666666, "name": "ec75e44ac8a3617fce25c3a001b69afc"}, {"bike_id": "fbacf585c121586da54663d84152bb1e", "type": "electric_scooter", "is_disabled": 0, "lat": 38.9297525, "rental_uris": {"ios": "https://dc.lft.to/lastmile_qr_scan", "android": "https://dc.lft.to/lastmile_qr_scan"}, "is_reserved": 0, "fusion_lon": 0.0, "fusion_lat": 0.0, "lon": -77.02818516666666, "name": "fbacf585c121586da54663d84152bb1e"}, {"bike_id": "bb612169eeec7cba3e3b74488e0ff6f4", "type": "electric_scooter", "is_disabled": 0, "lat": 38.90326733333333, "rental_uris": {"ios": "https://dc.lft.to/lastmile_qr_scan", "android": "https://dc.lft.to/lastmile_qr_scan"}, "is_reserved": 0, "fusion_lon": 0.0, "fusion_lat": 0.0, "lon": -76.97550683333333, "name": "bb612169eeec7cba3e3b74488e0ff6f4"}, {"bike_id": "5235d71b1712fbec3a4dad7f360afefb", "type": "electric_scooter", "is_disabled": 0, "lat": 38.9000435, "rental_uris": {"ios": "https://dc.lft.to/lastmile_qr_scan", "android": "https://dc.lft.to/lastmile_qr_scan"}, "is_reserved": 0, "fusion_lon": 0.0, "fusion_lat": 0.0, "lon": -76.99419516666667, "name": "5235d71b1712fbec3a4dad7f360afefb"}, {"bike_id": "8958975b7321615f0b23c85a77deca30", "type": "electric_scooter", "is_disabled": 0, "lat": 38.88749333333333, "rental_uris": {"ios": "https://dc.lft.to/lastmile_qr_scan", "android": "https://dc.lft.to/lastmile_qr_scan"}, "is_reserved": 0, "fusion_lon": 0.0, "fusion_lat": 0.0, "lon": -77.0272715, "name": "8958975b7321615f0b23c85a77deca30"}, {"bike_id": "3de04fdb5692eb9b5e82beaac42973a9", "type": "electric_scooter", "is_disabled": 0, "lat": 38.90030866666667, "rental_uris": {"ios": "https://dc.lft.to/lastmile_qr_scan", "android": "https://dc.lft.to/lastmile_qr_scan"}, "is_reserved": 0, "fusion_lon": 0.0, "fusion_lat": 0.0, "lon": -76.998621, "name": "3de04fdb5692eb9b5e82beaac42973a9"}, {"bike_id": "ba3387bf72d2ddfd8e4985bb4aa71125", "type": "electric_scooter", "is_disabled": 0, "lat": 38.934266, "rental_uris": {"ios": "https://dc.lft.to/lastmile_qr_scan", "android": "https://dc.lft.to/lastmile_qr_scan"}, "is_reserved": 0, "fusion_lon": 0.0, "fusion_lat": 0.0, "lon": -77.03998583333333, "name": "ba3387bf72d2ddfd8e4985bb4aa71125"}, {"bike_id": "1fcc048a9c367d0af4fd821ac8b3f493", "type": "electric_bike", "is_disabled": 0, "lat": 38.808907166666664, "rental_uris": {"ios": "https://dc.lft.to/lastmile_qr_scan", "android": "https://dc.lft.to/lastmile_qr_scan"}, "is_reserved": 0, "fusion_lon": 0.0, "fusion_lat": 0.0, "lon": -77.086459, "name": "1fcc048a9c367d0af4fd821ac8b3f493"}, {"bike_id": "7c413b3cbee50ac51b8699ba7123be6e", "type": "electric_scooter", "is_disabled": 0, "lat": 38.94184533333333, "rental_uris": {"ios": "https://dc.lft.to/lastmile_qr_scan", "android": "https://dc.lft.to/lastmile_qr_scan"}, "is_reserved": 0, "fusion_lon": 0.0, "fusion_lat": 0.0, "lon": -77.02487216666667, "name": "7c413b3cbee50ac51b8699ba7123be6e"}, {"bike_id": "abf57db8c546c81b16cb5c55ee1705e0", "type": "electric_scooter", "is_disabled": 0, "lat": 38.939047333333335, "rental_uris": {"ios": "https://dc.lft.to/lastmile_qr_scan", "android": "https://dc.lft.to/lastmile_qr_scan"}, "is_reserved": 0, "fusion_lon": 0.0, "fusion_lat": 0.0, "lon": -77.0331065, "name": "abf57db8c546c81b16cb5c55ee1705e0"}, {"bike_id": "8d9b0c6a6fa4fad0e00caaa6dfa74103", "type": "electric_scooter", "is_disabled": 0, "lat": 38.8996, "rental_uris": {"ios": "https://dc.lft.to/lastmile_qr_scan", "android": "https://dc.lft.to/lastmile_qr_scan"}, "is_reserved": 0, "fusion_lon": 0.0, "fusion_lat": 0.0, "lon": -77.04770733333334, "name": "8d9b0c6a6fa4fad0e00caaa6dfa74103"}, {"bike_id": "35c08fe881c84db56df6f5d627982b1b", "type": "electric_scooter", "is_disabled": 0, "lat": 38.9222105, "rental_uris": {"ios": "https://dc.lft.to/lastmile_qr_scan", "android": "https://dc.lft.to/lastmile_qr_scan"}, "is_reserved": 0, "fusion_lon": 0.0, "fusion_lat": 0.0, "lon": -77.03456666666666, "name": "35c08fe881c84db56df6f5d627982b1b"}, {"bike_id": "a33b216b3fb0473c47acbf0676f8c655", "type": "electric_bike", "is_disabled": 0, "lat": 38.864851, "rental_uris": {"ios": "https://dc.lft.to/lastmile_qr_scan", "android": "https://dc.lft.to/lastmile_qr_scan"}, "is_reserved": 0, "fusion_lon": 0.0, "fusion_lat": 0.0, "lon": -76.97738883333334, "name": "a33b216b3fb0473c47acbf0676f8c655"}, {"bike_id": "dcdc820f11700633323da6ff1adb59b9", "type": "electric_scooter", "is_disabled": 0, "lat": 38.870709166666664, "rental_uris": {"ios": "https://dc.lft.to/lastmile_qr_scan", "android": "https://dc.lft.to/lastmile_qr_scan"}, "is_reserved": 0, "fusion_lon": 0.0, "fusion_lat": 0.0, "lon": -76.98126416666666, "name": "dcdc820f11700633323da6ff1adb59b9"}, {"bike_id": "66e110eaf7af317216d7950ee28e4257", "type": "electric_scooter", "is_disabled": 0, "lat": 38.91815966666667, "rental_uris": {"ios": "https://dc.lft.to/lastmile_qr_scan", "android": "https://dc.lft.to/lastmile_qr_scan"}, "is_reserved": 0, "fusion_lon": 0.0, "fusion_lat": 0.0, "lon": -77.03171416666666, "name": "66e110eaf7af317216d7950ee28e4257"}, {"bike_id": "d6dad8bb22c62da4c01a191b3900b5a0", "type": "electric_scooter", "is_disabled": 0, "lat": 38.92837266666667, "rental_uris": {"ios": "https://dc.lft.to/lastmile_qr_scan", "android": "https://dc.lft.to/lastmile_qr_scan"}, "is_reserved": 0, "fusion_lon": 0.0, "fusion_lat": 0.0, "lon": -77.01415833333333, "name": "d6dad8bb22c62da4c01a191b3900b5a0"}, {"bike_id": "9017f9e4ee40c8cbb22c7b274325e1a8", "type": "electric_scooter", "is_disabled": 0, "lat": 38.9262875, "rental_uris": {"ios": "https://dc.lft.to/lastmile_qr_scan", "android": "https://dc.lft.to/lastmile_qr_scan"}, "is_reserved": 0, "fusion_lon": 0.0, "fusion_lat": 0.0, "lon": -77.0419175, "name": "9017f9e4ee40c8cbb22c7b274325e1a8"}, {"bike_id": "f25352f220f610ef120dae8d0d8f8f6c", "type": "electric_bike", "is_disabled": 0, "lat": 38.80396133333333, "rental_uris": {"ios": "https://dc.lft.to/lastmile_qr_scan", "android": "https://dc.lft.to/lastmile_qr_scan"}, "is_reserved": 0, "fusion_lon": 0.0, "fusion_lat": 0.0, "lon": -77.055601, "name": "f25352f220f610ef120dae8d0d8f8f6c"}, {"bike_id": "b7dd8446d8335a74d86e821649fecdf6", "type": "electric_bike", "is_disabled": 0, "lat": 38.924338166666665, "rental_uris": {"ios": "https://dc.lft.to/lastmile_qr_scan", "android": "https://dc.lft.to/lastmile_qr_scan"}, "is_reserved": 0, "fusion_lon": 0.0, "fusion_lat": 0.0, "lon": -76.996509, "name": "b7dd8446d8335a74d86e821649fecdf6"}, {"bike_id": "f976a3581d11bf292ab1396a4570ae5a", "type": "electric_scooter", "is_disabled": 0, "lat": 38.902601833333335, "rental_uris": {"ios": "https://dc.lft.to/lastmile_qr_scan", "android": "https://dc.lft.to/lastmile_qr_scan"}, "is_reserved": 0, "fusion_lon": 0.0, "fusion_lat": 0.0, "lon": -76.97546933333334, "name": "f976a3581d11bf292ab1396a4570ae5a"}, {"bike_id": "014ebf48f5eb7e4b300bf089af6b6ab7", "type": "electric_scooter", "is_disabled": 0, "lat": 38.92221083333333, "rental_uris": {"ios": "https://dc.lft.to/lastmile_qr_scan", "android": "https://dc.lft.to/lastmile_qr_scan"}, "is_reserved": 0, "fusion_lon": 0.0, "fusion_lat": 0.0, "lon": -77.034598, "name": "014ebf48f5eb7e4b300bf089af6b6ab7"}, {"bike_id": "0f0c3ac90c705da3a23009b819a299f9", "type": "electric_scooter", "is_disabled": 0, "lat": 38.90647533333333, "rental_uris": {"ios": "https://dc.lft.to/lastmile_qr_scan", "android": "https://dc.lft.to/lastmile_qr_scan"}, "is_reserved": 0, "fusion_lon": 0.0, "fusion_lat": 0.0, "lon": -76.98587883333333, "name": "0f0c3ac90c705da3a23009b819a299f9"}, {"bike_id": "5e8f83bcde2344045f6fec3db49e148e", "type": "electric_scooter", "is_disabled": 0, "lat": 38.88529233333333, "rental_uris": {"ios": "https://dc.lft.to/lastmile_qr_scan", "android": "https://dc.lft.to/lastmile_qr_scan"}, "is_reserved": 0, "fusion_lon": 0.0, "fusion_lat": 0.0, "lon": -77.01138983333334, "name": "5e8f83bcde2344045f6fec3db49e148e"}, {"bike_id": "cf71a1bc79beef9ce5ecb729163b1c51", "type": "electric_scooter", "is_disabled": 0, "lat": 38.961419166666666, "rental_uris": {"ios": "https://dc.lft.to/lastmile_qr_scan", "android": "https://dc.lft.to/lastmile_qr_scan"}, "is_reserved": 0, "fusion_lon": 0.0, "fusion_lat": 0.0, "lon": -77.02987683333333, "name": "cf71a1bc79beef9ce5ecb729163b1c51"}, {"bike_id": "5b822df2fb90acc7c9ef4f018c6be816", "type": "electric_bike", "is_disabled": 0, "lat": 39.03994633333333, "rental_uris": {"ios": "https://dc.lft.to/lastmile_qr_scan", "android": "https://dc.lft.to/lastmile_qr_scan"}, "is_reserved": 0, "fusion_lon": 0.0, "fusion_lat": 0.0, "lon": -76.99922283333333, "name": "5b822df2fb90acc7c9ef4f018c6be816"}, {"bike_id": "0a924f813bc9ab64c628803ede7784f9", "type": "electric_scooter", "is_disabled": 0, "lat": 38.90449616666667, "rental_uris": {"ios": "https://dc.lft.to/lastmile_qr_scan", "android": "https://dc.lft.to/lastmile_qr_scan"}, "is_reserved": 0, "fusion_lon": 0.0, "fusion_lat": 0.0, "lon": -77.02702433333333, "name": "0a924f813bc9ab64c628803ede7784f9"}, {"bike_id": "6ba1839314973f8df4cb4534c07b8fd8", "type": "electric_scooter", "is_disabled": 0, "lat": 38.90382316666667, "rental_uris": {"ios": "https://dc.lft.to/lastmile_qr_scan", "android": "https://dc.lft.to/lastmile_qr_scan"}, "is_reserved": 0, "fusion_lon": 0.0, "fusion_lat": 0.0, "lon": -77.04836333333333, "name": "6ba1839314973f8df4cb4534c07b8fd8"}, {"bike_id": "193ad6c91603554a727d7beb36834031", "type": "electric_scooter", "is_disabled": 0, "lat": 38.9353555, "rental_uris": {"ios": "https://dc.lft.to/lastmile_qr_scan", "android": "https://dc.lft.to/lastmile_qr_scan"}, "is_reserved": 0, "fusion_lon": 0.0, "fusion_lat": 0.0, "lon": -77.02355366666667, "name": "193ad6c91603554a727d7beb36834031"}, {"bike_id": "9f3cd4ef94905c6edcac8141a86eaddb", "type": "electric_scooter", "is_disabled": 0, "lat": 38.89733, "rental_uris": {"ios": "https://dc.lft.to/lastmile_qr_scan", "android": "https://dc.lft.to/lastmile_qr_scan"}, "is_reserved": 0, "fusion_lon": 0.0, "fusion_lat": 0.0, "lon": -77.05471, "name": "9f3cd4ef94905c6edcac8141a86eaddb"}, {"bike_id": "c8b4934cee3356365a1342e59a6c5f61", "type": "electric_scooter", "is_disabled": 0, "lat": 38.91700766666666, "rental_uris": {"ios": "https://dc.lft.to/lastmile_qr_scan", "android": "https://dc.lft.to/lastmile_qr_scan"}, "is_reserved": 0, "fusion_lon": 0.0, "fusion_lat": 0.0, "lon": -77.03210616666667, "name": "c8b4934cee3356365a1342e59a6c5f61"}, {"bike_id": "6ffaa31a06b7bf0f077acd5409c24ddb", "type": "electric_scooter", "is_disabled": 0, "lat": 38.88853833333334, "rental_uris": {"ios": "https://dc.lft.to/lastmile_qr_scan", "android": "https://dc.lft.to/lastmile_qr_scan"}, "is_reserved": 0, "fusion_lon": 0.0, "fusion_lat": 0.0, "lon": -76.9267975, "name": "6ffaa31a06b7bf0f077acd5409c24ddb"}, {"bike_id": "d1ad1766e452a3578bc6316097f339f4", "type": "electric_scooter", "is_disabled": 0, "lat": 38.930702, "rental_uris": {"ios": "https://dc.lft.to/lastmile_qr_scan", "android": "https://dc.lft.to/lastmile_qr_scan"}, "is_reserved": 0, "fusion_lon": 0.0, "fusion_lat": 0.0, "lon": -77.02978366666666, "name": "d1ad1766e452a3578bc6316097f339f4"}, {"bike_id": "adc984930a0f11f57460887f7f410398", "type": "electric_scooter", "is_disabled": 0, "lat": 38.9332685, "rental_uris": {"ios": "https://dc.lft.to/lastmile_qr_scan", "android": "https://dc.lft.to/lastmile_qr_scan"}, "is_reserved": 0, "fusion_lon": 0.0, "fusion_lat": 0.0, "lon": -77.0343335, "name": "adc984930a0f11f57460887f7f410398"}, {"bike_id": "079064bb9efd53a2b3e1b3c2ff3f5606", "type": "electric_scooter", "is_disabled": 0, "lat": 38.923716166666665, "rental_uris": {"ios": "https://dc.lft.to/lastmile_qr_scan", "android": "https://dc.lft.to/lastmile_qr_scan"}, "is_reserved": 0, "fusion_lon": 0.0, "fusion_lat": 0.0, "lon": -77.03131266666666, "name": "079064bb9efd53a2b3e1b3c2ff3f5606"}, {"bike_id": "845771cbb5cb9b6eb24f7f035a715cd2", "type": "electric_scooter", "is_disabled": 0, "lat": 38.914443166666665, "rental_uris": {"ios": "https://dc.lft.to/lastmile_qr_scan", "android": "https://dc.lft.to/lastmile_qr_scan"}, "is_reserved": 0, "fusion_lon": 0.0, "fusion_lat": 0.0, "lon": -77.02285016666667, "name": "845771cbb5cb9b6eb24f7f035a715cd2"}, {"bike_id": "b8a51b8a01ace6733d869ac5fff0e32a", "type": "electric_bike", "is_disabled": 0, "lat": 38.869387333333336, "rental_uris": {"ios": "https://dc.lft.to/lastmile_qr_scan", "android": "https://dc.lft.to/lastmile_qr_scan"}, "is_reserved": 0, "fusion_lon": 0.0, "fusion_lat": 0.0, "lon": -77.09467083333334, "name": "b8a51b8a01ace6733d869ac5fff0e32a"}, {"bike_id": "3692ff515791c63327d740e5d286b080", "type": "electric_scooter", "is_disabled": 0, "lat": 38.883633333333336, "rental_uris": {"ios": "https://dc.lft.to/lastmile_qr_scan", "android": "https://dc.lft.to/lastmile_qr_scan"}, "is_reserved": 0, "fusion_lon": 0.0, "fusion_lat": 0.0, "lon": -76.99519016666666, "name": "3692ff515791c63327d740e5d286b080"}, {"bike_id": "3ab43e9cffcb91a79c6f7372ee8d377c", "type": "electric_scooter", "is_disabled": 0, "lat": 38.926811666666666, "rental_uris": {"ios": "https://dc.lft.to/lastmile_qr_scan", "android": "https://dc.lft.to/lastmile_qr_scan"}, "is_reserved": 0, "fusion_lon": 0.0, "fusion_lat": 0.0, "lon": -77.02785766666666, "name": "3ab43e9cffcb91a79c6f7372ee8d377c"}, {"bike_id": "96eb58678f0cc2a4611b98fc44eb9aca", "type": "electric_scooter", "is_disabled": 0, "lat": 38.919758333333334, "rental_uris": {"ios": "https://dc.lft.to/lastmile_qr_scan", "android": "https://dc.lft.to/lastmile_qr_scan"}, "is_reserved": 0, "fusion_lon": 0.0, "fusion_lat": 0.0, "lon": -77.01902633333333, "name": "96eb58678f0cc2a4611b98fc44eb9aca"}, {"bike_id": "e723cd89ee8e18a878e82ac1ce23eaa1", "type": "electric_scooter", "is_disabled": 0, "lat": 38.8843325, "rental_uris": {"ios": "https://dc.lft.to/lastmile_qr_scan", "android": "https://dc.lft.to/lastmile_qr_scan"}, "is_reserved": 0, "fusion_lon": 0.0, "fusion_lat": 0.0, "lon": -76.9574535, "name": "e723cd89ee8e18a878e82ac1ce23eaa1"}, {"bike_id": "8a67e815644759f7ff977e845d71d0de", "type": "electric_scooter", "is_disabled": 0, "lat": 38.957383666666665, "rental_uris": {"ios": "https://dc.lft.to/lastmile_qr_scan", "android": "https://dc.lft.to/lastmile_qr_scan"}, "is_reserved": 0, "fusion_lon": 0.0, "fusion_lat": 0.0, "lon": -77.02421133333333, "name": "8a67e815644759f7ff977e845d71d0de"}, {"bike_id": "cb39f5b59fdd7ac41b103158539a9ec3", "type": "electric_scooter", "is_disabled": 0, "lat": 38.915553833333334, "rental_uris": {"ios": "https://dc.lft.to/lastmile_qr_scan", "android": "https://dc.lft.to/lastmile_qr_scan"}, "is_reserved": 0, "fusion_lon": 0.0, "fusion_lat": 0.0, "lon": -77.02335133333334, "name": "cb39f5b59fdd7ac41b103158539a9ec3"}, {"bike_id": "ce2296daca5c59ca9d7792178e605712", "type": "electric_scooter", "is_disabled": 0, "lat": 38.914125, "rental_uris": {"ios": "https://dc.lft.to/lastmile_qr_scan", "android": "https://dc.lft.to/lastmile_qr_scan"}, "is_reserved": 0, "fusion_lon": 0.0, "fusion_lat": 0.0, "lon": -77.04466016666667, "name": "ce2296daca5c59ca9d7792178e605712"}, {"bike_id": "ee8028f8a049db4ff7ddabc63220a826", "type": "electric_scooter", "is_disabled": 0, "lat": 38.93653316666666, "rental_uris": {"ios": "https://dc.lft.to/lastmile_qr_scan", "android": "https://dc.lft.to/lastmile_qr_scan"}, "is_reserved": 0, "fusion_lon": 0.0, "fusion_lat": 0.0, "lon": -77.02638633333333, "name": "ee8028f8a049db4ff7ddabc63220a826"}, {"bike_id": "045be3958cbaecda651bbef084bbfb0f", "type": "electric_scooter", "is_disabled": 0, "lat": 38.931154166666666, "rental_uris": {"ios": "https://dc.lft.to/lastmile_qr_scan", "android": "https://dc.lft.to/lastmile_qr_scan"}, "is_reserved": 0, "fusion_lon": 0.0, "fusion_lat": 0.0, "lon": -77.03808083333334, "name": "045be3958cbaecda651bbef084bbfb0f"}, {"bike_id": "b5e10d6484312fa9ce9727fd025bd512", "type": "electric_scooter", "is_disabled": 0, "lat": 38.91459716666667, "rental_uris": {"ios": "https://dc.lft.to/lastmile_qr_scan", "android": "https://dc.lft.to/lastmile_qr_scan"}, "is_reserved": 0, "fusion_lon": 0.0, "fusion_lat": 0.0, "lon": -77.0021145, "name": "b5e10d6484312fa9ce9727fd025bd512"}, {"bike_id": "9c147db29e9d8e985262ddfdd4218f57", "type": "electric_scooter", "is_disabled": 0, "lat": 38.9233675, "rental_uris": {"ios": "https://dc.lft.to/lastmile_qr_scan", "android": "https://dc.lft.to/lastmile_qr_scan"}, "is_reserved": 0, "fusion_lon": 0.0, "fusion_lat": 0.0, "lon": -77.05371233333334, "name": "9c147db29e9d8e985262ddfdd4218f57"}, {"bike_id": "86c9337ad702d9d730146c7c61844c90", "type": "electric_scooter", "is_disabled": 0, "lat": 38.908521666666665, "rental_uris": {"ios": "https://dc.lft.to/lastmile_qr_scan", "android": "https://dc.lft.to/lastmile_qr_scan"}, "is_reserved": 0, "fusion_lon": 0.0, "fusion_lat": 0.0, "lon": -77.04763816666667, "name": "86c9337ad702d9d730146c7c61844c90"}, {"bike_id": "adfbddb1377e687406d7cd7879e1a230", "type": "electric_scooter", "is_disabled": 0, "lat": 38.945158, "rental_uris": {"ios": "https://dc.lft.to/lastmile_qr_scan", "android": "https://dc.lft.to/lastmile_qr_scan"}, "is_reserved": 0, "fusion_lon": 0.0, "fusion_lat": 0.0, "lon": -77.03368133333333, "name": "adfbddb1377e687406d7cd7879e1a230"}, {"bike_id": "a1f42f541ddfb854a4187498dc3c4356", "type": "electric_scooter", "is_disabled": 0, "lat": 38.94559433333333, "rental_uris": {"ios": "https://dc.lft.to/lastmile_qr_scan", "android": "https://dc.lft.to/lastmile_qr_scan"}, "is_reserved": 0, "fusion_lon": 0.0, "fusion_lat": 0.0, "lon": -77.07122066666666, "name": "a1f42f541ddfb854a4187498dc3c4356"}, {"bike_id": "f6f0625ad9b1960bd421052cc117a2ab", "type": "electric_scooter", "is_disabled": 0, "lat": 38.884515, "rental_uris": {"ios": "https://dc.lft.to/lastmile_qr_scan", "android": "https://dc.lft.to/lastmile_qr_scan"}, "is_reserved": 0, "fusion_lon": 0.0, "fusion_lat": 0.0, "lon": -76.95097083333333, "name": "f6f0625ad9b1960bd421052cc117a2ab"}, {"bike_id": "e9300b692946d6c4a3fb322cc61d5acd", "type": "electric_scooter", "is_disabled": 0, "lat": 38.903816, "rental_uris": {"ios": "https://dc.lft.to/lastmile_qr_scan", "android": "https://dc.lft.to/lastmile_qr_scan"}, "is_reserved": 0, "fusion_lon": 0.0, "fusion_lat": 0.0, "lon": -77.03875133333334, "name": "e9300b692946d6c4a3fb322cc61d5acd"}, {"bike_id": "f6526b50f597274cc8de3b1d5634c7c6", "type": "electric_scooter", "is_disabled": 0, "lat": 38.91060316666667, "rental_uris": {"ios": "https://dc.lft.to/lastmile_qr_scan", "android": "https://dc.lft.to/lastmile_qr_scan"}, "is_reserved": 0, "fusion_lon": 0.0, "fusion_lat": 0.0, "lon": -77.03092383333333, "name": "f6526b50f597274cc8de3b1d5634c7c6"}, {"bike_id": "8a301a612fa7f3d72c1e4532709b5da3", "type": "electric_scooter", "is_disabled": 0, "lat": 38.92959466666667, "rental_uris": {"ios": "https://dc.lft.to/lastmile_qr_scan", "android": "https://dc.lft.to/lastmile_qr_scan"}, "is_reserved": 0, "fusion_lon": 0.0, "fusion_lat": 0.0, "lon": -77.03776816666667, "name": "8a301a612fa7f3d72c1e4532709b5da3"}, {"bike_id": "7c9f8bb3be6fbfe89ba30601a4ae6050", "type": "electric_bike", "is_disabled": 0, "lat": 38.8589365, "rental_uris": {"ios": "https://dc.lft.to/lastmile_qr_scan", "android": "https://dc.lft.to/lastmile_qr_scan"}, "is_reserved": 0, "fusion_lon": 0.0, "fusion_lat": 0.0, "lon": -77.11859316666667, "name": "7c9f8bb3be6fbfe89ba30601a4ae6050"}, {"bike_id": "620db7cfbcc6c47bf3bc17214f522bf2", "type": "electric_bike", "is_disabled": 0, "lat": 38.8708005, "rental_uris": {"ios": "https://dc.lft.to/lastmile_qr_scan", "android": "https://dc.lft.to/lastmile_qr_scan"}, "is_reserved": 0, "fusion_lon": 0.0, "fusion_lat": 0.0, "lon": -77.01211533333333, "name": "620db7cfbcc6c47bf3bc17214f522bf2"}, {"bike_id": "496998f96a845ae00f0c9fb5fd4cc5f4", "type": "electric_scooter", "is_disabled": 0, "lat": 38.90603333333333, "rental_uris": {"ios": "https://dc.lft.to/lastmile_qr_scan", "android": "https://dc.lft.to/lastmile_qr_scan"}, "is_reserved": 0, "fusion_lon": 0.0, "fusion_lat": 0.0, "lon": -76.99269483333333, "name": "496998f96a845ae00f0c9fb5fd4cc5f4"}, {"bike_id": "5fc029094bd08bce5ea48b145eccecc3", "type": "electric_scooter", "is_disabled": 0, "lat": 38.899688833333336, "rental_uris": {"ios": "https://dc.lft.to/lastmile_qr_scan", "android": "https://dc.lft.to/lastmile_qr_scan"}, "is_reserved": 0, "fusion_lon": 0.0, "fusion_lat": 0.0, "lon": -76.982984, "name": "5fc029094bd08bce5ea48b145eccecc3"}, {"bike_id": "bc572ae46182395b86c3198c35b6cc1d", "type": "electric_scooter", "is_disabled": 0, "lat": 38.903174166666666, "rental_uris": {"ios": "https://dc.lft.to/lastmile_qr_scan", "android": "https://dc.lft.to/lastmile_qr_scan"}, "is_reserved": 0, "fusion_lon": 0.0, "fusion_lat": 0.0, "lon": -76.97798016666667, "name": "bc572ae46182395b86c3198c35b6cc1d"}, {"bike_id": "887f9515eb338ba023fbc6375cc10859", "type": "electric_scooter", "is_disabled": 0, "lat": 38.9287365, "rental_uris": {"ios": "https://dc.lft.to/lastmile_qr_scan", "android": "https://dc.lft.to/lastmile_qr_scan"}, "is_reserved": 0, "fusion_lon": 0.0, "fusion_lat": 0.0, "lon": -77.0138135, "name": "887f9515eb338ba023fbc6375cc10859"}, {"bike_id": "cdaea24cc888f668dd87aa1d874b0e6d", "type": "electric_scooter", "is_disabled": 0, "lat": 38.928506, "rental_uris": {"ios": "https://dc.lft.to/lastmile_qr_scan", "android": "https://dc.lft.to/lastmile_qr_scan"}, "is_reserved": 0, "fusion_lon": 0.0, "fusion_lat": 0.0, "lon": -77.019533, "name": "cdaea24cc888f668dd87aa1d874b0e6d"}, {"bike_id": "204ed6948d2da3b12eb90159c6e5b7f0", "type": "electric_bike", "is_disabled": 0, "lat": 38.9517665, "rental_uris": {"ios": "https://dc.lft.to/lastmile_qr_scan", "android": "https://dc.lft.to/lastmile_qr_scan"}, "is_reserved": 0, "fusion_lon": 0.0, "fusion_lat": 0.0, "lon": -76.97732533333334, "name": "204ed6948d2da3b12eb90159c6e5b7f0"}, {"bike_id": "0e81905c96722f89077c360c3e0059fa", "type": "electric_scooter", "is_disabled": 0, "lat": 38.8714975, "rental_uris": {"ios": "https://dc.lft.to/lastmile_qr_scan", "android": "https://dc.lft.to/lastmile_qr_scan"}, "is_reserved": 0, "fusion_lon": 0.0, "fusion_lat": 0.0, "lon": -76.977457, "name": "0e81905c96722f89077c360c3e0059fa"}, {"bike_id": "75f40ab9c1e6c7eadff76c497091751c", "type": "electric_scooter", "is_disabled": 0, "lat": 38.941145, "rental_uris": {"ios": "https://dc.lft.to/lastmile_qr_scan", "android": "https://dc.lft.to/lastmile_qr_scan"}, "is_reserved": 0, "fusion_lon": 0.0, "fusion_lat": 0.0, "lon": -77.02532916666667, "name": "75f40ab9c1e6c7eadff76c497091751c"}, {"bike_id": "6d9c9f8b0c0cbd2b567853688463eb53", "type": "electric_scooter", "is_disabled": 0, "lat": 38.910346833333335, "rental_uris": {"ios": "https://dc.lft.to/lastmile_qr_scan", "android": "https://dc.lft.to/lastmile_qr_scan"}, "is_reserved": 0, "fusion_lon": 0.0, "fusion_lat": 0.0, "lon": -77.01287883333333, "name": "6d9c9f8b0c0cbd2b567853688463eb53"}, {"bike_id": "676f1f0fc416524bd42d67142ba225bc", "type": "electric_scooter", "is_disabled": 0, "lat": 38.905031666666666, "rental_uris": {"ios": "https://dc.lft.to/lastmile_qr_scan", "android": "https://dc.lft.to/lastmile_qr_scan"}, "is_reserved": 0, "fusion_lon": 0.0, "fusion_lat": 0.0, "lon": -77.04108983333333, "name": "676f1f0fc416524bd42d67142ba225bc"}, {"bike_id": "dded936bec0e54860049930fc1d110d7", "type": "electric_scooter", "is_disabled": 0, "lat": 38.93606283333333, "rental_uris": {"ios": "https://dc.lft.to/lastmile_qr_scan", "android": "https://dc.lft.to/lastmile_qr_scan"}, "is_reserved": 0, "fusion_lon": 0.0, "fusion_lat": 0.0, "lon": -77.03788566666667, "name": "dded936bec0e54860049930fc1d110d7"}, {"bike_id": "2ff67088e413b79a482f28ab6a5a4cfb", "type": "electric_scooter", "is_disabled": 0, "lat": 38.904943333333335, "rental_uris": {"ios": "https://dc.lft.to/lastmile_qr_scan", "android": "https://dc.lft.to/lastmile_qr_scan"}, "is_reserved": 0, "fusion_lon": 0.0, "fusion_lat": 0.0, "lon": -76.94962066666666, "name": "2ff67088e413b79a482f28ab6a5a4cfb"}, {"bike_id": "7df002710efc0375dcdc1884b58ff133", "type": "electric_scooter", "is_disabled": 0, "lat": 38.9193025, "rental_uris": {"ios": "https://dc.lft.to/lastmile_qr_scan", "android": "https://dc.lft.to/lastmile_qr_scan"}, "is_reserved": 0, "fusion_lon": 0.0, "fusion_lat": 0.0, "lon": -77.04499883333334, "name": "7df002710efc0375dcdc1884b58ff133"}, {"bike_id": "e4abf278e52e5042acacee035a1b9b85", "type": "electric_scooter", "is_disabled": 0, "lat": 38.910067, "rental_uris": {"ios": "https://dc.lft.to/lastmile_qr_scan", "android": "https://dc.lft.to/lastmile_qr_scan"}, "is_reserved": 0, "fusion_lon": 0.0, "fusion_lat": 0.0, "lon": -76.98637883333333, "name": "e4abf278e52e5042acacee035a1b9b85"}, {"bike_id": "5c4b1e1528c6c1f94f244721aa0de772", "type": "electric_scooter", "is_disabled": 0, "lat": 38.92151833333333, "rental_uris": {"ios": "https://dc.lft.to/lastmile_qr_scan", "android": "https://dc.lft.to/lastmile_qr_scan"}, "is_reserved": 0, "fusion_lon": 0.0, "fusion_lat": 0.0, "lon": -77.0353095, "name": "5c4b1e1528c6c1f94f244721aa0de772"}, {"bike_id": "4f34d6bfe8f2b0abfbefc73ca6ae8bde", "type": "electric_bike", "is_disabled": 0, "lat": 38.88062433333333, "rental_uris": {"ios": "https://dc.lft.to/lastmile_qr_scan", "android": "https://dc.lft.to/lastmile_qr_scan"}, "is_reserved": 0, "fusion_lon": 0.0, "fusion_lat": 0.0, "lon": -76.962412, "name": "4f34d6bfe8f2b0abfbefc73ca6ae8bde"}, {"bike_id": "98c5f4af4a4d71c6f7aa7e27fe9a5d8e", "type": "electric_scooter", "is_disabled": 0, "lat": 38.9367885, "rental_uris": {"ios": "https://dc.lft.to/lastmile_qr_scan", "android": "https://dc.lft.to/lastmile_qr_scan"}, "is_reserved": 0, "fusion_lon": 0.0, "fusion_lat": 0.0, "lon": -77.0362945, "name": "98c5f4af4a4d71c6f7aa7e27fe9a5d8e"}, {"bike_id": "e2d8acbef5bb63a08bb6ca056ef028e1", "type": "electric_scooter", "is_disabled": 0, "lat": 38.94795583333333, "rental_uris": {"ios": "https://dc.lft.to/lastmile_qr_scan", "android": "https://dc.lft.to/lastmile_qr_scan"}, "is_reserved": 0, "fusion_lon": 0.0, "fusion_lat": 0.0, "lon": -77.02129716666667, "name": "e2d8acbef5bb63a08bb6ca056ef028e1"}, {"bike_id": "bb289221e42884216d3f4babf5b7c1dd", "type": "electric_scooter", "is_disabled": 0, "lat": 38.913743333333336, "rental_uris": {"ios": "https://dc.lft.to/lastmile_qr_scan", "android": "https://dc.lft.to/lastmile_qr_scan"}, "is_reserved": 0, "fusion_lon": 0.0, "fusion_lat": 0.0, "lon": -77.07266716666666, "name": "bb289221e42884216d3f4babf5b7c1dd"}, {"bike_id": "86b3911b058344a9bda1507743a212e4", "type": "electric_scooter", "is_disabled": 0, "lat": 38.916069666666665, "rental_uris": {"ios": "https://dc.lft.to/lastmile_qr_scan", "android": "https://dc.lft.to/lastmile_qr_scan"}, "is_reserved": 0, "fusion_lon": 0.0, "fusion_lat": 0.0, "lon": -77.048572, "name": "86b3911b058344a9bda1507743a212e4"}, {"bike_id": "15a21e67b2bfa6ff59c0ea3996eeebe1", "type": "electric_bike", "is_disabled": 0, "lat": 38.872796666666666, "rental_uris": {"ios": "https://dc.lft.to/lastmile_qr_scan", "android": "https://dc.lft.to/lastmile_qr_scan"}, "is_reserved": 0, "fusion_lon": 0.0, "fusion_lat": 0.0, "lon": -77.23315983333333, "name": "15a21e67b2bfa6ff59c0ea3996eeebe1"}, {"bike_id": "cad4be8bdb343eae558c10ff7b26d639", "type": "electric_scooter", "is_disabled": 0, "lat": 38.8729755, "rental_uris": {"ios": "https://dc.lft.to/lastmile_qr_scan", "android": "https://dc.lft.to/lastmile_qr_scan"}, "is_reserved": 0, "fusion_lon": 0.0, "fusion_lat": 0.0, "lon": -77.009828, "name": "cad4be8bdb343eae558c10ff7b26d639"}, {"bike_id": "494aae1f427baba2d44aa5535ec45521", "type": "electric_scooter", "is_disabled": 0, "lat": 38.92601533333333, "rental_uris": {"ios": "https://dc.lft.to/lastmile_qr_scan", "android": "https://dc.lft.to/lastmile_qr_scan"}, "is_reserved": 0, "fusion_lon": 0.0, "fusion_lat": 0.0, "lon": -77.02496033333334, "name": "494aae1f427baba2d44aa5535ec45521"}, {"bike_id": "b782559970402c12df998eccf6d724b3", "type": "electric_bike", "is_disabled": 0, "lat": 38.910135, "rental_uris": {"ios": "https://dc.lft.to/lastmile_qr_scan", "android": "https://dc.lft.to/lastmile_qr_scan"}, "is_reserved": 0, "fusion_lon": 0.0, "fusion_lat": 0.0, "lon": -77.22800316666667, "name": "b782559970402c12df998eccf6d724b3"}, {"bike_id": "ede40f779d9fa52d5481b8e5dc1ce6d1", "type": "electric_scooter", "is_disabled": 0, "lat": 38.92137866666667, "rental_uris": {"ios": "https://dc.lft.to/lastmile_qr_scan", "android": "https://dc.lft.to/lastmile_qr_scan"}, "is_reserved": 0, "fusion_lon": 0.0, "fusion_lat": 0.0, "lon": -77.045685, "name": "ede40f779d9fa52d5481b8e5dc1ce6d1"}, {"bike_id": "88629b01d11574cae76b04e348b31d48", "type": "electric_scooter", "is_disabled": 0, "lat": 38.9470345, "rental_uris": {"ios": "https://dc.lft.to/lastmile_qr_scan", "android": "https://dc.lft.to/lastmile_qr_scan"}, "is_reserved": 0, "fusion_lon": 0.0, "fusion_lat": 0.0, "lon": -77.01938666666666, "name": "88629b01d11574cae76b04e348b31d48"}, {"bike_id": "ee847ce5747f2782667577f41d23a56e", "type": "electric_scooter", "is_disabled": 0, "lat": 38.9191685, "rental_uris": {"ios": "https://dc.lft.to/lastmile_qr_scan", "android": "https://dc.lft.to/lastmile_qr_scan"}, "is_reserved": 0, "fusion_lon": 0.0, "fusion_lat": 0.0, "lon": -77.01413566666666, "name": "ee847ce5747f2782667577f41d23a56e"}, {"bike_id": "35f231cd6a76ec925e04e21a0eb2069b", "type": "electric_scooter", "is_disabled": 0, "lat": 38.92440466666667, "rental_uris": {"ios": "https://dc.lft.to/lastmile_qr_scan", "android": "https://dc.lft.to/lastmile_qr_scan"}, "is_reserved": 0, "fusion_lon": 0.0, "fusion_lat": 0.0, "lon": -77.03353616666666, "name": "35f231cd6a76ec925e04e21a0eb2069b"}, {"bike_id": "ebcf5a669322f09415780df30567a246", "type": "electric_scooter", "is_disabled": 0, "lat": 38.914091, "rental_uris": {"ios": "https://dc.lft.to/lastmile_qr_scan", "android": "https://dc.lft.to/lastmile_qr_scan"}, "is_reserved": 0, "fusion_lon": 0.0, "fusion_lat": 0.0, "lon": -77.01557783333334, "name": "ebcf5a669322f09415780df30567a246"}, {"bike_id": "2acb00f29e7c0ff339c87074f9285944", "type": "electric_scooter", "is_disabled": 0, "lat": 38.869747, "rental_uris": {"ios": "https://dc.lft.to/lastmile_qr_scan", "android": "https://dc.lft.to/lastmile_qr_scan"}, "is_reserved": 0, "fusion_lon": 0.0, "fusion_lat": 0.0, "lon": -76.981729, "name": "2acb00f29e7c0ff339c87074f9285944"}, {"bike_id": "ed11ba77d7d645e50fda01db351052a6", "type": "electric_scooter", "is_disabled": 0, "lat": 38.864423333333335, "rental_uris": {"ios": "https://dc.lft.to/lastmile_qr_scan", "android": "https://dc.lft.to/lastmile_qr_scan"}, "is_reserved": 0, "fusion_lon": 0.0, "fusion_lat": 0.0, "lon": -76.98992133333333, "name": "ed11ba77d7d645e50fda01db351052a6"}, {"bike_id": "a8ee1a3a3d1cb1ba17ab4d8f0576cf0f", "type": "electric_scooter", "is_disabled": 0, "lat": 38.9285325, "rental_uris": {"ios": "https://dc.lft.to/lastmile_qr_scan", "android": "https://dc.lft.to/lastmile_qr_scan"}, "is_reserved": 0, "fusion_lon": 0.0, "fusion_lat": 0.0, "lon": -77.01952233333333, "name": "a8ee1a3a3d1cb1ba17ab4d8f0576cf0f"}, {"bike_id": "b620321256a56f5b9b95d503cc194327", "type": "electric_scooter", "is_disabled": 0, "lat": 38.91665883333334, "rental_uris": {"ios": "https://dc.lft.to/lastmile_qr_scan", "android": "https://dc.lft.to/lastmile_qr_scan"}, "is_reserved": 0, "fusion_lon": 0.0, "fusion_lat": 0.0, "lon": -77.0385115, "name": "b620321256a56f5b9b95d503cc194327"}, {"bike_id": "8b9ad2bc5c9fddc543262eb9a97dd46c", "type": "electric_scooter", "is_disabled": 0, "lat": 38.900965666666664, "rental_uris": {"ios": "https://dc.lft.to/lastmile_qr_scan", "android": "https://dc.lft.to/lastmile_qr_scan"}, "is_reserved": 0, "fusion_lon": 0.0, "fusion_lat": 0.0, "lon": -77.05783983333333, "name": "8b9ad2bc5c9fddc543262eb9a97dd46c"}, {"bike_id": "1b38778effbb1afc112b3f8b0b82f009", "type": "electric_scooter", "is_disabled": 0, "lat": 38.91080616666667, "rental_uris": {"ios": "https://dc.lft.to/lastmile_qr_scan", "android": "https://dc.lft.to/lastmile_qr_scan"}, "is_reserved": 0, "fusion_lon": 0.0, "fusion_lat": 0.0, "lon": -77.0150925, "name": "1b38778effbb1afc112b3f8b0b82f009"}, {"bike_id": "d394057f9f9faca0734b8d2f1e81098c", "type": "electric_scooter", "is_disabled": 0, "lat": 38.92878983333333, "rental_uris": {"ios": "https://dc.lft.to/lastmile_qr_scan", "android": "https://dc.lft.to/lastmile_qr_scan"}, "is_reserved": 0, "fusion_lon": 0.0, "fusion_lat": 0.0, "lon": -77.012316, "name": "d394057f9f9faca0734b8d2f1e81098c"}, {"bike_id": "0157aa5b97bcdd61daab739b80efc5e3", "type": "electric_scooter", "is_disabled": 0, "lat": 38.9003255, "rental_uris": {"ios": "https://dc.lft.to/lastmile_qr_scan", "android": "https://dc.lft.to/lastmile_qr_scan"}, "is_reserved": 0, "fusion_lon": 0.0, "fusion_lat": 0.0, "lon": -77.01762066666667, "name": "0157aa5b97bcdd61daab739b80efc5e3"}, {"bike_id": "975c6d84ddaf27d833b7cd4c71917f76", "type": "electric_scooter", "is_disabled": 0, "lat": 38.90196783333333, "rental_uris": {"ios": "https://dc.lft.to/lastmile_qr_scan", "android": "https://dc.lft.to/lastmile_qr_scan"}, "is_reserved": 0, "fusion_lon": 0.0, "fusion_lat": 0.0, "lon": -77.01290983333334, "name": "975c6d84ddaf27d833b7cd4c71917f76"}, {"bike_id": "39bdb6c94d33b36d76766773dae4ad1c", "type": "electric_scooter", "is_disabled": 0, "lat": 38.91123833333333, "rental_uris": {"ios": "https://dc.lft.to/lastmile_qr_scan", "android": "https://dc.lft.to/lastmile_qr_scan"}, "is_reserved": 0, "fusion_lon": 0.0, "fusion_lat": 0.0, "lon": -77.04171266666667, "name": "39bdb6c94d33b36d76766773dae4ad1c"}, {"bike_id": "f813bcf0f1d58539990b36caed0bc6f1", "type": "electric_bike", "is_disabled": 0, "lat": 39.014808333333335, "rental_uris": {"ios": "https://dc.lft.to/lastmile_qr_scan", "android": "https://dc.lft.to/lastmile_qr_scan"}, "is_reserved": 0, "fusion_lon": 0.0, "fusion_lat": 0.0, "lon": -77.05495616666667, "name": "f813bcf0f1d58539990b36caed0bc6f1"}, {"bike_id": "453187079ccd8c3409661425d73b1211", "type": "electric_scooter", "is_disabled": 0, "lat": 38.93081633333333, "rental_uris": {"ios": "https://dc.lft.to/lastmile_qr_scan", "android": "https://dc.lft.to/lastmile_qr_scan"}, "is_reserved": 0, "fusion_lon": 0.0, "fusion_lat": 0.0, "lon": -77.02793666666666, "name": "453187079ccd8c3409661425d73b1211"}, {"bike_id": "8e44012760973ec30d38de2b1464edcc", "type": "electric_scooter", "is_disabled": 0, "lat": 38.91890433333333, "rental_uris": {"ios": "https://dc.lft.to/lastmile_qr_scan", "android": "https://dc.lft.to/lastmile_qr_scan"}, "is_reserved": 0, "fusion_lon": 0.0, "fusion_lat": 0.0, "lon": -77.0145825, "name": "8e44012760973ec30d38de2b1464edcc"}, {"bike_id": "b8d12b2c029acb139821f58e1e350d8e", "type": "electric_scooter", "is_disabled": 0, "lat": 38.90596083333333, "rental_uris": {"ios": "https://dc.lft.to/lastmile_qr_scan", "android": "https://dc.lft.to/lastmile_qr_scan"}, "is_reserved": 0, "fusion_lon": 0.0, "fusion_lat": 0.0, "lon": -77.02177966666666, "name": "b8d12b2c029acb139821f58e1e350d8e"}, {"bike_id": "07588838d378def7286d71b7f2de8f99", "type": "electric_scooter", "is_disabled": 0, "lat": 38.9205175, "rental_uris": {"ios": "https://dc.lft.to/lastmile_qr_scan", "android": "https://dc.lft.to/lastmile_qr_scan"}, "is_reserved": 0, "fusion_lon": 0.0, "fusion_lat": 0.0, "lon": -77.024582, "name": "07588838d378def7286d71b7f2de8f99"}, {"bike_id": "2cd477696ce0354bbcc662f952190813", "type": "electric_scooter", "is_disabled": 0, "lat": 38.93119383333333, "rental_uris": {"ios": "https://dc.lft.to/lastmile_qr_scan", "android": "https://dc.lft.to/lastmile_qr_scan"}, "is_reserved": 0, "fusion_lon": 0.0, "fusion_lat": 0.0, "lon": -77.0206805, "name": "2cd477696ce0354bbcc662f952190813"}, {"bike_id": "f350030f98575b1e730a7d2bb0b97d27", "type": "electric_scooter", "is_disabled": 0, "lat": 38.862202833333335, "rental_uris": {"ios": "https://dc.lft.to/lastmile_qr_scan", "android": "https://dc.lft.to/lastmile_qr_scan"}, "is_reserved": 0, "fusion_lon": 0.0, "fusion_lat": 0.0, "lon": -76.99484066666666, "name": "f350030f98575b1e730a7d2bb0b97d27"}, {"bike_id": "739be390e51c08e2e612a4720d8641b1", "type": "electric_scooter", "is_disabled": 0, "lat": 38.90267566666667, "rental_uris": {"ios": "https://dc.lft.to/lastmile_qr_scan", "android": "https://dc.lft.to/lastmile_qr_scan"}, "is_reserved": 0, "fusion_lon": 0.0, "fusion_lat": 0.0, "lon": -77.019657, "name": "739be390e51c08e2e612a4720d8641b1"}, {"bike_id": "49cf417ea9558216974f746340d8bfb9", "type": "electric_scooter", "is_disabled": 0, "lat": 38.956917833333335, "rental_uris": {"ios": "https://dc.lft.to/lastmile_qr_scan", "android": "https://dc.lft.to/lastmile_qr_scan"}, "is_reserved": 0, "fusion_lon": 0.0, "fusion_lat": 0.0, "lon": -77.02397516666667, "name": "49cf417ea9558216974f746340d8bfb9"}, {"bike_id": "65dc0f003b3bb1add99e143fb0077f48", "type": "electric_scooter", "is_disabled": 0, "lat": 38.90730516666667, "rental_uris": {"ios": "https://dc.lft.to/lastmile_qr_scan", "android": "https://dc.lft.to/lastmile_qr_scan"}, "is_reserved": 0, "fusion_lon": 0.0, "fusion_lat": 0.0, "lon": -77.05326166666667, "name": "65dc0f003b3bb1add99e143fb0077f48"}, {"bike_id": "90141e63264f2365508278baff35e841", "type": "electric_scooter", "is_disabled": 0, "lat": 38.92069433333333, "rental_uris": {"ios": "https://dc.lft.to/lastmile_qr_scan", "android": "https://dc.lft.to/lastmile_qr_scan"}, "is_reserved": 0, "fusion_lon": 0.0, "fusion_lat": 0.0, "lon": -77.03466, "name": "90141e63264f2365508278baff35e841"}, {"bike_id": "98dad180f12aefb59fb74f7d8e58ef8c", "type": "electric_scooter", "is_disabled": 0, "lat": 38.88498833333333, "rental_uris": {"ios": "https://dc.lft.to/lastmile_qr_scan", "android": "https://dc.lft.to/lastmile_qr_scan"},