{"data": {"bikes": [{"rental_uris": {"ios": "https://dc.lft.to/lastmile_qr_scan", "android": "https://dc.lft.to/lastmile_qr_scan"}, "lon": -76.97850683333333, "type": "electric_bike", "fusion_lat": 0.0, "lat": 38.935386333333334, "name": "de7240b7e14afbaafe40590ea4e26922", "fusion_lon": 0.0, "bike_id": "de7240b7e14afbaafe40590ea4e26922", "is_disabled": 0, "is_reserved": 0}, {"rental_uris": {"ios": "https://dc.lft.to/lastmile_qr_scan", "android": "https://dc.lft.to/lastmile_qr_scan"}, "lon": -77.01588783333334, "type": "electric_scooter", "fusion_lat": 0.0, "lat": 38.916418166666666, "name": "f7710062c269a2de59fca922814ccf92", "fusion_lon": 0.0, "bike_id": "f7710062c269a2de59fca922814ccf92", "is_disabled": 0, "is_reserved": 0}, {"rental_uris": {"ios": "https://dc.lft.to/lastmile_qr_scan", "android": "https://dc.lft.to/lastmile_qr_scan"}, "lon": -77.01415183333333, "type": "electric_scooter", "fusion_lat": 0.0, "lat": 38.91559933333333, "name": "021c4476e63efe0ecf1dcd0789f2bbc8", "fusion_lon": 0.0, "bike_id": "021c4476e63efe0ecf1dcd0789f2bbc8", "is_disabled": 0, "is_reserved": 0}, {"rental_uris": {"ios": "https://dc.lft.to/lastmile_qr_scan", "android": "https://dc.lft.to/lastmile_qr_scan"}, "lon": -76.98006016666666, "type": "electric_bike", "fusion_lat": 0.0, "lat": 38.862803666666665, "name": "5ee93bcc3b7738825533bb5ebca64ec0", "fusion_lon": 0.0, "bike_id": "5ee93bcc3b7738825533bb5ebca64ec0", "is_disabled": 0, "is_reserved": 0}, {"rental_uris": {"ios": "https://dc.lft.to/lastmile_qr_scan", "android": "https://dc.lft.to/lastmile_qr_scan"}, "lon": -77.02392716666667, "type": "electric_scooter", "fusion_lat": 0.0, "lat": 38.89504566666667, "name": "436677a3e001b424a7633255ba60c4fe", "fusion_lon": 0.0, "bike_id": "436677a3e001b424a7633255ba60c4fe", "is_disabled": 0, "is_reserved": 0}, {"rental_uris": {"ios": "https://dc.lft.to/lastmile_qr_scan", "android": "https://dc.lft.to/lastmile_qr_scan"}, "lon": -76.93104333333333, "type": "electric_scooter", "fusion_lat": 0.0, "lat": 38.9013835, "name": "c9ba310ec5a65079da82f55d2badb473", "fusion_lon": 0.0, "bike_id": "c9ba310ec5a65079da82f55d2badb473", "is_disabled": 0, "is_reserved": 0}, {"rental_uris": {"ios": "https://dc.lft.to/lastmile_qr_scan", "android": "https://dc.lft.to/lastmile_qr_scan"}, "lon": -77.033057, "type": "electric_scooter", "fusion_lat": 0.0, "lat": 38.89847116666667, "name": "2d4e53c2ecdec9c99eb54a47959a7a66", "fusion_lon": 0.0, "bike_id": "2d4e53c2ecdec9c99eb54a47959a7a66", "is_disabled": 0, "is_reserved": 0}, {"rental_uris": {"ios": "https://dc.lft.to/lastmile_qr_scan", "android": "https://dc.lft.to/lastmile_qr_scan"}, "lon": -76.991841, "type": "electric_scooter", "fusion_lat": 0.0, "lat": 38.90132033333333, "name": "b5842d46e1334bb101f64c4c5f874752", "fusion_lon": 0.0, "bike_id": "b5842d46e1334bb101f64c4c5f874752", "is_disabled": 0, "is_reserved": 0}, {"rental_uris": {"ios": "https://dc.lft.to/lastmile_qr_scan", "android": "https://dc.lft.to/lastmile_qr_scan"}, "lon": -77.05063983333334, "type": "electric_scooter", "fusion_lat": 0.0, "lat": 38.90083116666667, "name": "20dfb844e1d4dce74332501fb1e34f57", "fusion_lon": 0.0, "bike_id": "20dfb844e1d4dce74332501fb1e34f57", "is_disabled": 0, "is_reserved": 0}, {"rental_uris": {"ios": "https://dc.lft.to/lastmile_qr_scan", "android": "https://dc.lft.to/lastmile_qr_scan"}, "lon": -77.05348766666667, "type": "electric_scooter", "fusion_lat": 0.0, "lat": 38.90262116666667, "name": "10c3f50926b26ef315b506e1f6615b7e", "fusion_lon": 0.0, "bike_id": "10c3f50926b26ef315b506e1f6615b7e", "is_disabled": 0, "is_reserved": 0}, {"rental_uris": {"ios": "https://dc.lft.to/lastmile_qr_scan", "android": "https://dc.lft.to/lastmile_qr_scan"}, "lon": -77.02282733333334, "type": "electric_scooter", "fusion_lat": 0.0, "lat": 38.878345, "name": "8c3251b70215c79c6948a3c23b2c9a08", "fusion_lon": 0.0, "bike_id": "8c3251b70215c79c6948a3c23b2c9a08", "is_disabled": 0, "is_reserved": 0}, {"rental_uris": {"ios": "https://dc.lft.to/lastmile_qr_scan", "android": "https://dc.lft.to/lastmile_qr_scan"}, "lon": -77.04185816666667, "type": "electric_scooter", "fusion_lat": 0.0, "lat": 38.911377333333334, "name": "278aa3afed8f7292c8f81a76f3adda46", "fusion_lon": 0.0, "bike_id": "278aa3afed8f7292c8f81a76f3adda46", "is_disabled": 0, "is_reserved": 0}, {"rental_uris": {"ios": "https://dc.lft.to/lastmile_qr_scan", "android": "https://dc.lft.to/lastmile_qr_scan"}, "lon": -77.031187, "type": "electric_scooter", "fusion_lat": 0.0, "lat": 38.920264333333336, "name": "c681ab3e2e5734f22d546bcee8006417", "fusion_lon": 0.0, "bike_id": "c681ab3e2e5734f22d546bcee8006417", "is_disabled": 0, "is_reserved": 0}, {"rental_uris": {"ios": "https://dc.lft.to/lastmile_qr_scan", "android": "https://dc.lft.to/lastmile_qr_scan"}, "lon": -77.06969083333334, "type": "electric_bike", "fusion_lat": 0.0, "lat": 38.970863333333334, "name": "51e4de2b0ea96d62695184c84684b22d", "fusion_lon": 0.0, "bike_id": "51e4de2b0ea96d62695184c84684b22d", "is_disabled": 0, "is_reserved": 0}, {"rental_uris": {"ios": "https://dc.lft.to/lastmile_qr_scan", "android": "https://dc.lft.to/lastmile_qr_scan"}, "lon": -76.9896235, "type": "electric_scooter", "fusion_lat": 0.0, "lat": 38.900271833333335, "name": "120e3ec761d95999d11d02189c63c083", "fusion_lon": 0.0, "bike_id": "120e3ec761d95999d11d02189c63c083", "is_disabled": 0, "is_reserved": 0}, {"rental_uris": {"ios": "https://dc.lft.to/lastmile_qr_scan", "android": "https://dc.lft.to/lastmile_qr_scan"}, "lon": -77.02287833333334, "type": "electric_bike", "fusion_lat": 0.0, "lat": 38.92705616666667, "name": "273e054fec497d04b2588a20f6c9089b", "fusion_lon": 0.0, "bike_id": "273e054fec497d04b2588a20f6c9089b", "is_disabled": 0, "is_reserved": 0}, {"rental_uris": {"ios": "https://dc.lft.to/lastmile_qr_scan", "android": "https://dc.lft.to/lastmile_qr_scan"}, "lon": -77.067777, "type": "electric_bike", "fusion_lat": 0.0, "lat": 38.915430666666666, "name": "4d8be07398b22a85634e337530c1cc18", "fusion_lon": 0.0, "bike_id": "4d8be07398b22a85634e337530c1cc18", "is_disabled": 0, "is_reserved": 0}, {"rental_uris": {"ios": "https://dc.lft.to/lastmile_qr_scan", "android": "https://dc.lft.to/lastmile_qr_scan"}, "lon": -77.12902783333334, "type": "electric_bike", "fusion_lat": 0.0, "lat": 38.863754, "name": "7d8574207c36356fbe3832bcec042ddd", "fusion_lon": 0.0, "bike_id": "7d8574207c36356fbe3832bcec042ddd", "is_disabled": 0, "is_reserved": 0}, {"rental_uris": {"ios": "https://dc.lft.to/lastmile_qr_scan", "android": "https://dc.lft.to/lastmile_qr_scan"}, "lon": -77.03209716666667, "type": "electric_scooter", "fusion_lat": 0.0, "lat": 38.912453666666664, "name": "2beff7274e40847cdf852efd0e69e1a0", "fusion_lon": 0.0, "bike_id": "2beff7274e40847cdf852efd0e69e1a0", "is_disabled": 0, "is_reserved": 0}, {"rental_uris": {"ios": "https://dc.lft.to/lastmile_qr_scan", "android": "https://dc.lft.to/lastmile_qr_scan"}, "lon": -77.0586555, "type": "electric_scooter", "fusion_lat": 0.0, "lat": 38.936084666666666, "name": "e6da715ae1f8cbcf90ccab57e5535293", "fusion_lon": 0.0, "bike_id": "e6da715ae1f8cbcf90ccab57e5535293", "is_disabled": 0, "is_reserved": 0}, {"rental_uris": {"ios": "https://dc.lft.to/lastmile_qr_scan", "android": "https://dc.lft.to/lastmile_qr_scan"}, "lon": -77.02313566666666, "type": "electric_scooter", "fusion_lat": 0.0, "lat": 38.89556, "name": "292b8ddaf4288499c5f057e247ca688c", "fusion_lon": 0.0, "bike_id": "292b8ddaf4288499c5f057e247ca688c", "is_disabled": 0, "is_reserved": 0}, {"rental_uris": {"ios": "https://dc.lft.to/lastmile_qr_scan", "android": "https://dc.lft.to/lastmile_qr_scan"}, "lon": -77.04318233333333, "type": "electric_scooter", "fusion_lat": 0.0, "lat": 38.90949416666667, "name": "2c064ffa565009f5fc24ba95367271bc", "fusion_lon": 0.0, "bike_id": "2c064ffa565009f5fc24ba95367271bc", "is_disabled": 0, "is_reserved": 0}, {"rental_uris": {"ios": "https://dc.lft.to/lastmile_qr_scan", "android": "https://dc.lft.to/lastmile_qr_scan"}, "lon": -77.01426616666667, "type": "electric_scooter", "fusion_lat": 0.0, "lat": 38.915244666666666, "name": "515111a9c315a6784c61bb1fec1e33e5", "fusion_lon": 0.0, "bike_id": "515111a9c315a6784c61bb1fec1e33e5", "is_disabled": 0, "is_reserved": 0}, {"rental_uris": {"ios": "https://dc.lft.to/lastmile_qr_scan", "android": "https://dc.lft.to/lastmile_qr_scan"}, "lon": -77.02760116666667, "type": "electric_scooter", "fusion_lat": 0.0, "lat": 38.92387083333333, "name": "f3a7123b62528c5fff55449a6016ea35", "fusion_lon": 0.0, "bike_id": "f3a7123b62528c5fff55449a6016ea35", "is_disabled": 0, "is_reserved": 0}, {"rental_uris": {"ios": "https://dc.lft.to/lastmile_qr_scan", "android": "https://dc.lft.to/lastmile_qr_scan"}, "lon": -77.01221083333333, "type": "electric_scooter", "fusion_lat": 0.0, "lat": 38.909797833333336, "name": "4ecaa43f6e4737d7f1bb3463913e55fb", "fusion_lon": 0.0, "bike_id": "4ecaa43f6e4737d7f1bb3463913e55fb", "is_disabled": 0, "is_reserved": 0}, {"rental_uris": {"ios": "https://dc.lft.to/lastmile_qr_scan", "android": "https://dc.lft.to/lastmile_qr_scan"}, "lon": -76.9881985, "type": "electric_scooter", "fusion_lat": 0.0, "lat": 38.903381, "name": "b969945d48a82989d582cda40d2a5bb2", "fusion_lon": 0.0, "bike_id": "b969945d48a82989d582cda40d2a5bb2", "is_disabled": 0, "is_reserved": 0}, {"rental_uris": {"ios": "https://dc.lft.to/lastmile_qr_scan", "android": "https://dc.lft.to/lastmile_qr_scan"}, "lon": -77.04190333333334, "type": "electric_scooter", "fusion_lat": 0.0, "lat": 38.911398166666665, "name": "db2ed3be68ee4834d2d878180615d83b", "fusion_lon": 0.0, "bike_id": "db2ed3be68ee4834d2d878180615d83b", "is_disabled": 0, "is_reserved": 0}, {"rental_uris": {"ios": "https://dc.lft.to/lastmile_qr_scan", "android": "https://dc.lft.to/lastmile_qr_scan"}, "lon": -76.9330825, "type": "electric_scooter", "fusion_lat": 0.0, "lat": 38.8987935, "name": "bb2bf841dc72f0c4968c8172f044e991", "fusion_lon": 0.0, "bike_id": "bb2bf841dc72f0c4968c8172f044e991", "is_disabled": 0, "is_reserved": 0}, {"rental_uris": {"ios": "https://dc.lft.to/lastmile_qr_scan", "android": "https://dc.lft.to/lastmile_qr_scan"}, "lon": -77.03642816666667, "type": "electric_scooter", "fusion_lat": 0.0, "lat": 38.932828, "name": "3193e2f8d30975c2386196e068af5624", "fusion_lon": 0.0, "bike_id": "3193e2f8d30975c2386196e068af5624", "is_disabled": 0, "is_reserved": 0}, {"rental_uris": {"ios": "https://dc.lft.to/lastmile_qr_scan", "android": "https://dc.lft.to/lastmile_qr_scan"}, "lon": -76.9858125, "type": "electric_scooter", "fusion_lat": 0.0, "lat": 38.90664666666667, "name": "1436effd9a28b96fa6eb559f61b42326", "fusion_lon": 0.0, "bike_id": "1436effd9a28b96fa6eb559f61b42326", "is_disabled": 0, "is_reserved": 0}, {"rental_uris": {"ios": "https://dc.lft.to/lastmile_qr_scan", "android": "https://dc.lft.to/lastmile_qr_scan"}, "lon": -76.98565816666667, "type": "electric_scooter", "fusion_lat": 0.0, "lat": 38.89955116666667, "name": "2d2e303161866ee71a97c87b5a994d58", "fusion_lon": 0.0, "bike_id": "2d2e303161866ee71a97c87b5a994d58", "is_disabled": 0, "is_reserved": 0}, {"rental_uris": {"ios": "https://dc.lft.to/lastmile_qr_scan", "android": "https://dc.lft.to/lastmile_qr_scan"}, "lon": -77.09554, "type": "electric_scooter", "fusion_lat": 0.0, "lat": 38.91655183333334, "name": "f12fb7c838698a687410c55e73339602", "fusion_lon": 0.0, "bike_id": "f12fb7c838698a687410c55e73339602", "is_disabled": 0, "is_reserved": 0}, {"rental_uris": {"ios": "https://dc.lft.to/lastmile_qr_scan", "android": "https://dc.lft.to/lastmile_qr_scan"}, "lon": -76.96777316666666, "type": "electric_scooter", "fusion_lat": 0.0, "lat": 38.86137133333333, "name": "62d7f4665849bf1e60834c0320347bcb", "fusion_lon": 0.0, "bike_id": "62d7f4665849bf1e60834c0320347bcb", "is_disabled": 0, "is_reserved": 0}, {"rental_uris": {"ios": "https://dc.lft.to/lastmile_qr_scan", "android": "https://dc.lft.to/lastmile_qr_scan"}, "lon": -77.02109766666666, "type": "electric_scooter", "fusion_lat": 0.0, "lat": 38.9222315, "name": "e5d2a6193febdce9f6c0318b9e4f8cc5", "fusion_lon": 0.0, "bike_id": "e5d2a6193febdce9f6c0318b9e4f8cc5", "is_disabled": 0, "is_reserved": 0}, {"rental_uris": {"ios": "https://dc.lft.to/lastmile_qr_scan", "android": "https://dc.lft.to/lastmile_qr_scan"}, "lon": -77.00299166666667, "type": "electric_scooter", "fusion_lat": 0.0, "lat": 38.9083405, "name": "19d982954b0c610ad0395dafc524e0b2", "fusion_lon": 0.0, "bike_id": "19d982954b0c610ad0395dafc524e0b2", "is_disabled": 0, "is_reserved": 0}, {"rental_uris": {"ios": "https://dc.lft.to/lastmile_qr_scan", "android": "https://dc.lft.to/lastmile_qr_scan"}, "lon": -77.0450035, "type": "electric_scooter", "fusion_lat": 0.0, "lat": 38.9213805, "name": "cd0c1c16a19659351d433d6925b3e804", "fusion_lon": 0.0, "bike_id": "cd0c1c16a19659351d433d6925b3e804", "is_disabled": 0, "is_reserved": 0}, {"rental_uris": {"ios": "https://dc.lft.to/lastmile_qr_scan", "android": "https://dc.lft.to/lastmile_qr_scan"}, "lon": -77.02810516666666, "type": "electric_scooter", "fusion_lat": 0.0, "lat": 38.922472166666665, "name": "3fb85e8da3ad11d0a3b7b9f9da154d97", "fusion_lon": 0.0, "bike_id": "3fb85e8da3ad11d0a3b7b9f9da154d97", "is_disabled": 0, "is_reserved": 0}, {"rental_uris": {"ios": "https://dc.lft.to/lastmile_qr_scan", "android": "https://dc.lft.to/lastmile_qr_scan"}, "lon": -76.9841365, "type": "electric_scooter", "fusion_lat": 0.0, "lat": 38.91388083333333, "name": "2c3f1f6a2927c50128aeced3915919fa", "fusion_lon": 0.0, "bike_id": "2c3f1f6a2927c50128aeced3915919fa", "is_disabled": 0, "is_reserved": 0}, {"rental_uris": {"ios": "https://dc.lft.to/lastmile_qr_scan", "android": "https://dc.lft.to/lastmile_qr_scan"}, "lon": -77.1142655, "type": "electric_bike", "fusion_lat": 0.0, "lat": 38.852453, "name": "8008adf399ab9934d61de6fcef3d577b", "fusion_lon": 0.0, "bike_id": "8008adf399ab9934d61de6fcef3d577b", "is_disabled": 0, "is_reserved": 0}, {"rental_uris": {"ios": "https://dc.lft.to/lastmile_qr_scan", "android": "https://dc.lft.to/lastmile_qr_scan"}, "lon": -77.03218533333333, "type": "electric_scooter", "fusion_lat": 0.0, "lat": 38.91703616666667, "name": "cad84115601b72fd6d95547b6e69c930", "fusion_lon": 0.0, "bike_id": "cad84115601b72fd6d95547b6e69c930", "is_disabled": 0, "is_reserved": 0}, {"rental_uris": {"ios": "https://dc.lft.to/lastmile_qr_scan", "android": "https://dc.lft.to/lastmile_qr_scan"}, "lon": -77.0321695, "type": "electric_scooter", "fusion_lat": 0.0, "lat": 38.91195333333334, "name": "46c4107ba9058440c4f2e599d3809105", "fusion_lon": 0.0, "bike_id": "46c4107ba9058440c4f2e599d3809105", "is_disabled": 0, "is_reserved": 0}, {"rental_uris": {"ios": "https://dc.lft.to/lastmile_qr_scan", "android": "https://dc.lft.to/lastmile_qr_scan"}, "lon": -77.009792, "type": "electric_scooter", "fusion_lat": 0.0, "lat": 38.906412, "name": "4bd4432a0fb4bbf22cfd09ac90c1de18", "fusion_lon": 0.0, "bike_id": "4bd4432a0fb4bbf22cfd09ac90c1de18", "is_disabled": 0, "is_reserved": 0}, {"rental_uris": {"ios": "https://dc.lft.to/lastmile_qr_scan", "android": "https://dc.lft.to/lastmile_qr_scan"}, "lon": -77.07031683333334, "type": "electric_bike", "fusion_lat": 0.0, "lat": 38.9187655, "name": "2c6328d1dfa1426915ae3b5be635aaff", "fusion_lon": 0.0, "bike_id": "2c6328d1dfa1426915ae3b5be635aaff", "is_disabled": 0, "is_reserved": 0}, {"rental_uris": {"ios": "https://dc.lft.to/lastmile_qr_scan", "android": "https://dc.lft.to/lastmile_qr_scan"}, "lon": -76.9802225, "type": "electric_scooter", "fusion_lat": 0.0, "lat": 38.88770366666667, "name": "d27f780d39a36a1da0e7c6981efbb9e1", "fusion_lon": 0.0, "bike_id": "d27f780d39a36a1da0e7c6981efbb9e1", "is_disabled": 0, "is_reserved": 0}, {"rental_uris": {"ios": "https://dc.lft.to/lastmile_qr_scan", "android": "https://dc.lft.to/lastmile_qr_scan"}, "lon": -77.00517033333334, "type": "electric_scooter", "fusion_lat": 0.0, "lat": 38.896740333333334, "name": "648b62446a703b883424a16969b77793", "fusion_lon": 0.0, "bike_id": "648b62446a703b883424a16969b77793", "is_disabled": 0, "is_reserved": 0}, {"rental_uris": {"ios": "https://dc.lft.to/lastmile_qr_scan", "android": "https://dc.lft.to/lastmile_qr_scan"}, "lon": -77.0400695, "type": "electric_scooter", "fusion_lat": 0.0, "lat": 38.90965466666667, "name": "0e03b6a66de3d0ad65d5baaf043624ab", "fusion_lon": 0.0, "bike_id": "0e03b6a66de3d0ad65d5baaf043624ab", "is_disabled": 0, "is_reserved": 0}, {"rental_uris": {"ios": "https://dc.lft.to/lastmile_qr_scan", "android": "https://dc.lft.to/lastmile_qr_scan"}, "lon": -76.97273933333334, "type": "electric_bike", "fusion_lat": 0.0, "lat": 38.9196935, "name": "fc885d7c7db01be0e2a6398d05b54c23", "fusion_lon": 0.0, "bike_id": "fc885d7c7db01be0e2a6398d05b54c23", "is_disabled": 0, "is_reserved": 0}, {"rental_uris": {"ios": "https://dc.lft.to/lastmile_qr_scan", "android": "https://dc.lft.to/lastmile_qr_scan"}, "lon": -76.9706095, "type": "electric_scooter", "fusion_lat": 0.0, "lat": 38.87883866666667, "name": "e84368d258e69f906d97aace5e56bbde", "fusion_lon": 0.0, "bike_id": "e84368d258e69f906d97aace5e56bbde", "is_disabled": 0, "is_reserved": 0}, {"rental_uris": {"ios": "https://dc.lft.to/lastmile_qr_scan", "android": "https://dc.lft.to/lastmile_qr_scan"}, "lon": -77.02584916666666, "type": "electric_scooter", "fusion_lat": 0.0, "lat": 38.88075416666667, "name": "c59dc54eff053118c239ab1c25101aad", "fusion_lon": 0.0, "bike_id": "c59dc54eff053118c239ab1c25101aad", "is_disabled": 0, "is_reserved": 0}, {"rental_uris": {"ios": "https://dc.lft.to/lastmile_qr_scan", "android": "https://dc.lft.to/lastmile_qr_scan"}, "lon": -77.03641283333333, "type": "electric_scooter", "fusion_lat": 0.0, "lat": 38.91669533333334, "name": "c37229e9e1707c9b99a15f500416a453", "fusion_lon": 0.0, "bike_id": "c37229e9e1707c9b99a15f500416a453", "is_disabled": 0, "is_reserved": 0}, {"rental_uris": {"ios": "https://dc.lft.to/lastmile_qr_scan", "android": "https://dc.lft.to/lastmile_qr_scan"}, "lon": -77.0249715, "type": "electric_scooter", "fusion_lat": 0.0, "lat": 38.91805516666667, "name": "c3dc69a81186ed440732d32589b4c922", "fusion_lon": 0.0, "bike_id": "c3dc69a81186ed440732d32589b4c922", "is_disabled": 0, "is_reserved": 0}, {"rental_uris": {"ios": "https://dc.lft.to/lastmile_qr_scan", "android": "https://dc.lft.to/lastmile_qr_scan"}, "lon": -77.04719783333333, "type": "electric_scooter", "fusion_lat": 0.0, "lat": 38.897316833333335, "name": "412a21f5a9d2c4ae3a025a5db938c6cf", "fusion_lon": 0.0, "bike_id": "412a21f5a9d2c4ae3a025a5db938c6cf", "is_disabled": 0, "is_reserved": 0}, {"rental_uris": {"ios": "https://dc.lft.to/lastmile_qr_scan", "android": "https://dc.lft.to/lastmile_qr_scan"}, "lon": -77.110572, "type": "electric_bike", "fusion_lat": 0.0, "lat": 38.87066883333333, "name": "b9fe258012cfd84721845ad864f521a4", "fusion_lon": 0.0, "bike_id": "b9fe258012cfd84721845ad864f521a4", "is_disabled": 0, "is_reserved": 0}, {"rental_uris": {"ios": "https://dc.lft.to/lastmile_qr_scan", "android": "https://dc.lft.to/lastmile_qr_scan"}, "lon": -77.0332045, "type": "electric_scooter", "fusion_lat": 0.0, "lat": 38.92642216666667, "name": "ef1ca07a4f63db5a6bec59becbbe5cd6", "fusion_lon": 0.0, "bike_id": "ef1ca07a4f63db5a6bec59becbbe5cd6", "is_disabled": 0, "is_reserved": 0}, {"rental_uris": {"ios": "https://dc.lft.to/lastmile_qr_scan", "android": "https://dc.lft.to/lastmile_qr_scan"}, "lon": -76.9750355, "type": "electric_scooter", "fusion_lat": 0.0, "lat": 38.86915233333333, "name": "2e48aa9fade8d1763885af4b247b2cd9", "fusion_lon": 0.0, "bike_id": "2e48aa9fade8d1763885af4b247b2cd9", "is_disabled": 0, "is_reserved": 0}, {"rental_uris": {"ios": "https://dc.lft.to/lastmile_qr_scan", "android": "https://dc.lft.to/lastmile_qr_scan"}, "lon": -77.07248716666666, "type": "electric_scooter", "fusion_lat": 0.0, "lat": 38.93318433333334, "name": "aca42efc1b8b49c4189b126ecec5f544", "fusion_lon": 0.0, "bike_id": "aca42efc1b8b49c4189b126ecec5f544", "is_disabled": 0, "is_reserved": 0}, {"rental_uris": {"ios": "https://dc.lft.to/lastmile_qr_scan", "android": "https://dc.lft.to/lastmile_qr_scan"}, "lon": -77.05913866666667, "type": "electric_scooter", "fusion_lat": 0.0, "lat": 38.902171833333334, "name": "2b529db578159158688bee88b5abb845", "fusion_lon": 0.0, "bike_id": "2b529db578159158688bee88b5abb845", "is_disabled": 0, "is_reserved": 0}, {"rental_uris": {"ios": "https://dc.lft.to/lastmile_qr_scan", "android": "https://dc.lft.to/lastmile_qr_scan"}, "lon": -77.344106, "type": "electric_bike", "fusion_lat": 0.0, "lat": 38.94619016666667, "name": "e46a52f973709647272c2b36006a2bc2", "fusion_lon": 0.0, "bike_id": "e46a52f973709647272c2b36006a2bc2", "is_disabled": 0, "is_reserved": 0}, {"rental_uris": {"ios": "https://dc.lft.to/lastmile_qr_scan", "android": "https://dc.lft.to/lastmile_qr_scan"}, "lon": -77.05709966666667, "type": "electric_scooter", "fusion_lat": 0.0, "lat": 38.90567383333333, "name": "018ea80a7c136d6cac0d4c7c6332c1d0", "fusion_lon": 0.0, "bike_id": "018ea80a7c136d6cac0d4c7c6332c1d0", "is_disabled": 0, "is_reserved": 0}, {"rental_uris": {"ios": "https://dc.lft.to/lastmile_qr_scan", "android": "https://dc.lft.to/lastmile_qr_scan"}, "lon": -77.02073716666666, "type": "electric_scooter", "fusion_lat": 0.0, "lat": 38.915584333333335, "name": "8e61a15b6a5714529b857068959475d0", "fusion_lon": 0.0, "bike_id": "8e61a15b6a5714529b857068959475d0", "is_disabled": 0, "is_reserved": 0}, {"rental_uris": {"ios": "https://dc.lft.to/lastmile_qr_scan", "android": "https://dc.lft.to/lastmile_qr_scan"}, "lon": -76.995007, "type": "electric_scooter", "fusion_lat": 0.0, "lat": 38.89952066666667, "name": "415233a247c969a04827d422aa27fc40", "fusion_lon": 0.0, "bike_id": "415233a247c969a04827d422aa27fc40", "is_disabled": 0, "is_reserved": 0}, {"rental_uris": {"ios": "https://dc.lft.to/lastmile_qr_scan", "android": "https://dc.lft.to/lastmile_qr_scan"}, "lon": -77.05220766666666, "type": "electric_scooter", "fusion_lat": 0.0, "lat": 38.924921833333336, "name": "21287ba1a6f58823536653614fc68a0b", "fusion_lon": 0.0, "bike_id": "21287ba1a6f58823536653614fc68a0b", "is_disabled": 0, "is_reserved": 0}, {"rental_uris": {"ios": "https://dc.lft.to/lastmile_qr_scan", "android": "https://dc.lft.to/lastmile_qr_scan"}, "lon": -77.02100066666667, "type": "electric_scooter", "fusion_lat": 0.0, "lat": 38.879233166666666, "name": "5f59437522815341464883f05ec0608b", "fusion_lon": 0.0, "bike_id": "5f59437522815341464883f05ec0608b", "is_disabled": 0, "is_reserved": 0}, {"rental_uris": {"ios": "https://dc.lft.to/lastmile_qr_scan", "android": "https://dc.lft.to/lastmile_qr_scan"}, "lon": -76.93176683333333, "type": "electric_scooter", "fusion_lat": 0.0, "lat": 38.89884266666667, "name": "432e14ed7cf37be8c928df576484f36e", "fusion_lon": 0.0, "bike_id": "432e14ed7cf37be8c928df576484f36e", "is_disabled": 0, "is_reserved": 0}, {"rental_uris": {"ios": "https://dc.lft.to/lastmile_qr_scan", "android": "https://dc.lft.to/lastmile_qr_scan"}, "lon": -76.97814933333333, "type": "electric_scooter", "fusion_lat": 0.0, "lat": 38.88613216666667, "name": "38e7fb26bf77d6f95b44ed5b6541bd61", "fusion_lon": 0.0, "bike_id": "38e7fb26bf77d6f95b44ed5b6541bd61", "is_disabled": 0, "is_reserved": 0}, {"rental_uris": {"ios": "https://dc.lft.to/lastmile_qr_scan", "android": "https://dc.lft.to/lastmile_qr_scan"}, "lon": -77.02963516666667, "type": "electric_scooter", "fusion_lat": 0.0, "lat": 38.925675166666664, "name": "7ecc5668ad347b6f11ccce933ef93efb", "fusion_lon": 0.0, "bike_id": "7ecc5668ad347b6f11ccce933ef93efb", "is_disabled": 0, "is_reserved": 0}, {"rental_uris": {"ios": "https://dc.lft.to/lastmile_qr_scan", "android": "https://dc.lft.to/lastmile_qr_scan"}, "lon": -76.98789833333333, "type": "electric_bike", "fusion_lat": 0.0, "lat": 38.904174, "name": "c6b02fd29c436f286258cc9faece79b6", "fusion_lon": 0.0, "bike_id": "c6b02fd29c436f286258cc9faece79b6", "is_disabled": 0, "is_reserved": 0}, {"rental_uris": {"ios": "https://dc.lft.to/lastmile_qr_scan", "android": "https://dc.lft.to/lastmile_qr_scan"}, "lon": -77.11802116666667, "type": "electric_bike", "fusion_lat": 0.0, "lat": 38.89834583333333, "name": "3c9bf2af2df6ccbc0864888254384961", "fusion_lon": 0.0, "bike_id": "3c9bf2af2df6ccbc0864888254384961", "is_disabled": 0, "is_reserved": 0}, {"rental_uris": {"ios": "https://dc.lft.to/lastmile_qr_scan", "android": "https://dc.lft.to/lastmile_qr_scan"}, "lon": -77.0320335, "type": "electric_scooter", "fusion_lat": 0.0, "lat": 38.90014216666667, "name": "f8026c76a2d47430ec6ed9370c9b05dc", "fusion_lon": 0.0, "bike_id": "f8026c76a2d47430ec6ed9370c9b05dc", "is_disabled": 0, "is_reserved": 0}, {"rental_uris": {"ios": "https://dc.lft.to/lastmile_qr_scan", "android": "https://dc.lft.to/lastmile_qr_scan"}, "lon": -77.012406, "type": "electric_scooter", "fusion_lat": 0.0, "lat": 38.917082666666666, "name": "e8714f735cef7b96f18fb509ed23e7b3", "fusion_lon": 0.0, "bike_id": "e8714f735cef7b96f18fb509ed23e7b3", "is_disabled": 0, "is_reserved": 0}, {"rental_uris": {"ios": "https://dc.lft.to/lastmile_qr_scan", "android": "https://dc.lft.to/lastmile_qr_scan"}, "lon": -77.05230216666666, "type": "electric_scooter", "fusion_lat": 0.0, "lat": 38.89808133333333, "name": "14f140a0b838f1e45558c22ec54962d4", "fusion_lon": 0.0, "bike_id": "14f140a0b838f1e45558c22ec54962d4", "is_disabled": 0, "is_reserved": 0}, {"rental_uris": {"ios": "https://dc.lft.to/lastmile_qr_scan", "android": "https://dc.lft.to/lastmile_qr_scan"}, "lon": -77.0433265, "type": "electric_scooter", "fusion_lat": 0.0, "lat": 38.908233833333334, "name": "c4ef29046e3c4d5a531f0f4b4ba3263b", "fusion_lon": 0.0, "bike_id": "c4ef29046e3c4d5a531f0f4b4ba3263b", "is_disabled": 0, "is_reserved": 0}, {"rental_uris": {"ios": "https://dc.lft.to/lastmile_qr_scan", "android": "https://dc.lft.to/lastmile_qr_scan"}, "lon": -77.01534716666667, "type": "electric_scooter", "fusion_lat": 0.0, "lat": 38.8874065, "name": "1dc3e1b701aa53fede606c3de498597e", "fusion_lon": 0.0, "bike_id": "1dc3e1b701aa53fede606c3de498597e", "is_disabled": 0, "is_reserved": 0}, {"rental_uris": {"ios": "https://dc.lft.to/lastmile_qr_scan", "android": "https://dc.lft.to/lastmile_qr_scan"}, "lon": -76.95473633333333, "type": "electric_bike", "fusion_lat": 0.0, "lat": 38.886386333333334, "name": "69f231336032bcdd12b6e7dabd670686", "fusion_lon": 0.0, "bike_id": "69f231336032bcdd12b6e7dabd670686", "is_disabled": 0, "is_reserved": 0}, {"rental_uris": {"ios": "https://dc.lft.to/lastmile_qr_scan", "android": "https://dc.lft.to/lastmile_qr_scan"}, "lon": -77.027004, "type": "electric_scooter", "fusion_lat": 0.0, "lat": 38.916271333333334, "name": "a0e433ce9c01d8f532b4d610fd494cff", "fusion_lon": 0.0, "bike_id": "a0e433ce9c01d8f532b4d610fd494cff", "is_disabled": 0, "is_reserved": 0}, {"rental_uris": {"ios": "https://dc.lft.to/lastmile_qr_scan", "android": "https://dc.lft.to/lastmile_qr_scan"}, "lon": -77.06291116666667, "type": "electric_scooter", "fusion_lat": 0.0, "lat": 38.90532416666667, "name": "415b70dd2c9449c4d00b8890dad23b92", "fusion_lon": 0.0, "bike_id": "415b70dd2c9449c4d00b8890dad23b92", "is_disabled": 0, "is_reserved": 0}, {"rental_uris": {"ios": "https://dc.lft.to/lastmile_qr_scan", "android": "https://dc.lft.to/lastmile_qr_scan"}, "lon": -77.059831, "type": "electric_scooter", "fusion_lat": 0.0, "lat": 38.9354625, "name": "498d612e40843f31b7c7a496b577d28c", "fusion_lon": 0.0, "bike_id": "498d612e40843f31b7c7a496b577d28c", "is_disabled": 0, "is_reserved": 0}, {"rental_uris": {"ios": "https://dc.lft.to/lastmile_qr_scan", "android": "https://dc.lft.to/lastmile_qr_scan"}, "lon": -76.97456916666667, "type": "electric_scooter", "fusion_lat": 0.0, "lat": 38.865361666666665, "name": "050366c7aaec1538225a11410818efe5", "fusion_lon": 0.0, "bike_id": "050366c7aaec1538225a11410818efe5", "is_disabled": 0, "is_reserved": 0}, {"rental_uris": {"ios": "https://dc.lft.to/lastmile_qr_scan", "android": "https://dc.lft.to/lastmile_qr_scan"}, "lon": -77.0227395, "type": "electric_scooter", "fusion_lat": 0.0, "lat": 38.912693, "name": "db78b097982cfd8b8654fbe7f518114d", "fusion_lon": 0.0, "bike_id": "db78b097982cfd8b8654fbe7f518114d", "is_disabled": 0, "is_reserved": 0}, {"rental_uris": {"ios": "https://dc.lft.to/lastmile_qr_scan", "android": "https://dc.lft.to/lastmile_qr_scan"}, "lon": -76.99064466666667, "type": "electric_scooter", "fusion_lat": 0.0, "lat": 38.863546666666664, "name": "4edc9225dd2553f7e1518e82bcc50017", "fusion_lon": 0.0, "bike_id": "4edc9225dd2553f7e1518e82bcc50017", "is_disabled": 0, "is_reserved": 0}, {"rental_uris": {"ios": "https://dc.lft.to/lastmile_qr_scan", "android": "https://dc.lft.to/lastmile_qr_scan"}, "lon": -77.0345615, "type": "electric_scooter", "fusion_lat": 0.0, "lat": 38.9364345, "name": "eec47304677d75f4db870b00a1e59130", "fusion_lon": 0.0, "bike_id": "eec47304677d75f4db870b00a1e59130", "is_disabled": 0, "is_reserved": 0}, {"rental_uris": {"ios": "https://dc.lft.to/lastmile_qr_scan", "android": "https://dc.lft.to/lastmile_qr_scan"}, "lon": -77.03899333333334, "type": "electric_scooter", "fusion_lat": 0.0, "lat": 38.916368, "name": "949cda7737d70ff13512a19cecbc5e59", "fusion_lon": 0.0, "bike_id": "949cda7737d70ff13512a19cecbc5e59", "is_disabled": 0, "is_reserved": 0}, {"rental_uris": {"ios": "https://dc.lft.to/lastmile_qr_scan", "android": "https://dc.lft.to/lastmile_qr_scan"}, "lon": -77.02417183333333, "type": "electric_scooter", "fusion_lat": 0.0, "lat": 38.898137166666665, "name": "a893c3cbf40d515c06506ba75919c131", "fusion_lon": 0.0, "bike_id": "a893c3cbf40d515c06506ba75919c131", "is_disabled": 0, "is_reserved": 0}, {"rental_uris": {"ios": "https://dc.lft.to/lastmile_qr_scan", "android": "https://dc.lft.to/lastmile_qr_scan"}, "lon": -76.94665533333334, "type": "electric_scooter", "fusion_lat": 0.0, "lat": 38.9033805, "name": "2590fdcc2be3d404b152f842961a982f", "fusion_lon": 0.0, "bike_id": "2590fdcc2be3d404b152f842961a982f", "is_disabled": 0, "is_reserved": 0}, {"rental_uris": {"ios": "https://dc.lft.to/lastmile_qr_scan", "android": "https://dc.lft.to/lastmile_qr_scan"}, "lon": -76.99374866666666, "type": "electric_scooter", "fusion_lat": 0.0, "lat": 38.900343666666664, "name": "2bf1885738f9ad41ad91e42ec652f32e", "fusion_lon": 0.0, "bike_id": "2bf1885738f9ad41ad91e42ec652f32e", "is_disabled": 0, "is_reserved": 0}, {"rental_uris": {"ios": "https://dc.lft.to/lastmile_qr_scan", "android": "https://dc.lft.to/lastmile_qr_scan"}, "lon": -77.05047983333333, "type": "electric_scooter", "fusion_lat": 0.0, "lat": 38.923615833333336, "name": "d98a742bc915b494b36283a93241ac20", "fusion_lon": 0.0, "bike_id": "d98a742bc915b494b36283a93241ac20", "is_disabled": 0, "is_reserved": 0}, {"rental_uris": {"ios": "https://dc.lft.to/lastmile_qr_scan", "android": "https://dc.lft.to/lastmile_qr_scan"}, "lon": -76.87824733333333, "type": "electric_bike", "fusion_lat": 0.0, "lat": 38.992329833333336, "name": "0f516f7129b36fc0827c3c7aad15ae3b", "fusion_lon": 0.0, "bike_id": "0f516f7129b36fc0827c3c7aad15ae3b", "is_disabled": 0, "is_reserved": 0}, {"rental_uris": {"ios": "https://dc.lft.to/lastmile_qr_scan", "android": "https://dc.lft.to/lastmile_qr_scan"}, "lon": -76.95764333333334, "type": "electric_bike", "fusion_lat": 0.0, "lat": 38.8842405, "name": "0feb0640689ed461dec20324f68b65ff", "fusion_lon": 0.0, "bike_id": "0feb0640689ed461dec20324f68b65ff", "is_disabled": 0, "is_reserved": 0}, {"rental_uris": {"ios": "https://dc.lft.to/lastmile_qr_scan", "android": "https://dc.lft.to/lastmile_qr_scan"}, "lon": -77.07190866666667, "type": "electric_bike", "fusion_lat": 0.0, "lat": 38.905234666666665, "name": "224b291516308d5e6003970d4fb3464d", "fusion_lon": 0.0, "bike_id": "224b291516308d5e6003970d4fb3464d", "is_disabled": 0, "is_reserved": 0}, {"rental_uris": {"ios": "https://dc.lft.to/lastmile_qr_scan", "android": "https://dc.lft.to/lastmile_qr_scan"}, "lon": -77.03179333333334, "type": "electric_scooter", "fusion_lat": 0.0, "lat": 38.91198583333333, "name": "122b8116a1e3d83ae243c84e25fdf3d7", "fusion_lon": 0.0, "bike_id": "122b8116a1e3d83ae243c84e25fdf3d7", "is_disabled": 0, "is_reserved": 0}, {"rental_uris": {"ios": "https://dc.lft.to/lastmile_qr_scan", "android": "https://dc.lft.to/lastmile_qr_scan"}, "lon": -77.01116383333333, "type": "electric_scooter", "fusion_lat": 0.0, "lat": 38.89504266666667, "name": "2c12ee1aacab58dbde4380537714026d", "fusion_lon": 0.0, "bike_id": "2c12ee1aacab58dbde4380537714026d", "is_disabled": 0, "is_reserved": 0}, {"rental_uris": {"ios": "https://dc.lft.to/lastmile_qr_scan", "android": "https://dc.lft.to/lastmile_qr_scan"}, "lon": -77.04293616666666, "type": "electric_scooter", "fusion_lat": 0.0, "lat": 38.905556833333335, "name": "74ff771c182d8f48cbab560be1782c4d", "fusion_lon": 0.0, "bike_id": "74ff771c182d8f48cbab560be1782c4d", "is_disabled": 0, "is_reserved": 0}, {"rental_uris": {"ios": "https://dc.lft.to/lastmile_qr_scan", "android": "https://dc.lft.to/lastmile_qr_scan"}, "lon": -77.005587, "type": "electric_scooter", "fusion_lat": 0.0, "lat": 38.8755605, "name": "6e87a891f5f2613824ea33a2a762cd25", "fusion_lon": 0.0, "bike_id": "6e87a891f5f2613824ea33a2a762cd25", "is_disabled": 0, "is_reserved": 0}, {"rental_uris": {"ios": "https://dc.lft.to/lastmile_qr_scan", "android": "https://dc.lft.to/lastmile_qr_scan"}, "lon": -76.9888615, "type": "electric_scooter", "fusion_lat": 0.0, "lat": 38.86660933333334, "name": "d541da98bc2c46e84aed35f0d55561ea", "fusion_lon": 0.0, "bike_id": "d541da98bc2c46e84aed35f0d55561ea", "is_disabled": 0, "is_reserved": 0}, {"rental_uris": {"ios": "https://dc.lft.to/lastmile_qr_scan", "android": "https://dc.lft.to/lastmile_qr_scan"}, "lon": -76.97802, "type": "electric_scooter", "fusion_lat": 0.0, "lat": 38.903141, "name": "5caf4b3067ddcfd57efe1aa7b849cb2e", "fusion_lon": 0.0, "bike_id": "5caf4b3067ddcfd57efe1aa7b849cb2e", "is_disabled": 0, "is_reserved": 0}, {"rental_uris": {"ios": "https://dc.lft.to/lastmile_qr_scan", "android": "https://dc.lft.to/lastmile_qr_scan"}, "lon": -76.98579733333334, "type": "electric_scooter", "fusion_lat": 0.0, "lat": 38.86155933333333, "name": "9a12d5191aec2029765d0a5bd33cb976", "fusion_lon": 0.0, "bike_id": "9a12d5191aec2029765d0a5bd33cb976", "is_disabled": 0, "is_reserved": 0}, {"rental_uris": {"ios": "https://dc.lft.to/lastmile_qr_scan", "android": "https://dc.lft.to/lastmile_qr_scan"}, "lon": -77.02321633333334, "type": "electric_scooter", "fusion_lat": 0.0, "lat": 38.878796666666666, "name": "9c86985dad3088f74df0ed74f66e7760", "fusion_lon": 0.0, "bike_id": "9c86985dad3088f74df0ed74f66e7760", "is_disabled": 0, "is_reserved": 0}, {"rental_uris": {"ios": "https://dc.lft.to/lastmile_qr_scan", "android": "https://dc.lft.to/lastmile_qr_scan"}, "lon": -76.975569, "type": "electric_scooter", "fusion_lat": 0.0, "lat": 38.904457, "name": "70b3079f8dcf59a3888350124806dee7", "fusion_lon": 0.0, "bike_id": "70b3079f8dcf59a3888350124806dee7", "is_disabled": 0, "is_reserved": 0}, {"rental_uris": {"ios": "https://dc.lft.to/lastmile_qr_scan", "android": "https://dc.lft.to/lastmile_qr_scan"}, "lon": -77.03734816666666, "type": "electric_scooter", "fusion_lat": 0.0, "lat": 38.911084833333334, "name": "81c928f4e87e24c79a90729a3068b19a", "fusion_lon": 0.0, "bike_id": "81c928f4e87e24c79a90729a3068b19a", "is_disabled": 0, "is_reserved": 0}, {"rental_uris": {"ios": "https://dc.lft.to/lastmile_qr_scan", "android": "https://dc.lft.to/lastmile_qr_scan"}, "lon": -77.01507683333334, "type": "electric_scooter", "fusion_lat": 0.0, "lat": 38.892318333333336, "name": "b1cbcb0163f66519f78097a0187f5d7b", "fusion_lon": 0.0, "bike_id": "b1cbcb0163f66519f78097a0187f5d7b", "is_disabled": 0, "is_reserved": 0}, {"rental_uris": {"ios": "https://dc.lft.to/lastmile_qr_scan", "android": "https://dc.lft.to/lastmile_qr_scan"}, "lon": -77.01743983333333, "type": "electric_bike", "fusion_lat": 0.0, "lat": 39.00015883333333, "name": "982db02e5f6cb87bed2217edad797efd", "fusion_lon": 0.0, "bike_id": "982db02e5f6cb87bed2217edad797efd", "is_disabled": 0, "is_reserved": 0}, {"rental_uris": {"ios": "https://dc.lft.to/lastmile_qr_scan", "android": "https://dc.lft.to/lastmile_qr_scan"}, "lon": -77.0274995, "type": "electric_scooter", "fusion_lat": 0.0, "lat": 38.93963733333333, "name": "013b1e042602d74e5398944189580833", "fusion_lon": 0.0, "bike_id": "013b1e042602d74e5398944189580833", "is_disabled": 0, "is_reserved": 0}, {"rental_uris": {"ios": "https://dc.lft.to/lastmile_qr_scan", "android": "https://dc.lft.to/lastmile_qr_scan"}, "lon": -77.00101533333333, "type": "electric_scooter", "fusion_lat": 0.0, "lat": 38.9163415, "name": "a2bbcd024ba25e8ce67f1a61d95c048a", "fusion_lon": 0.0, "bike_id": "a2bbcd024ba25e8ce67f1a61d95c048a", "is_disabled": 0, "is_reserved": 0}, {"rental_uris": {"ios": "https://dc.lft.to/lastmile_qr_scan", "android": "https://dc.lft.to/lastmile_qr_scan"}, "lon": -77.01415216666666, "type": "electric_scooter", "fusion_lat": 0.0, "lat": 38.913172833333334, "name": "b2ee814ceae06d4496a11f8d977955bc", "fusion_lon": 0.0, "bike_id": "b2ee814ceae06d4496a11f8d977955bc", "is_disabled": 0, "is_reserved": 0}, {"rental_uris": {"ios": "https://dc.lft.to/lastmile_qr_scan", "android": "https://dc.lft.to/lastmile_qr_scan"}, "lon": -77.0393985, "type": "electric_scooter", "fusion_lat": 0.0, "lat": 38.921139333333336, "name": "dc6894a0c391d819e531ccd6fbada5e7", "fusion_lon": 0.0, "bike_id": "dc6894a0c391d819e531ccd6fbada5e7", "is_disabled": 0, "is_reserved": 0}, {"rental_uris": {"ios": "https://dc.lft.to/lastmile_qr_scan", "android": "https://dc.lft.to/lastmile_qr_scan"}, "lon": -77.02506116666666, "type": "electric_scooter", "fusion_lat": 0.0, "lat": 38.88025616666667, "name": "3a09535a18ee07ca281761de93d3b787", "fusion_lon": 0.0, "bike_id": "3a09535a18ee07ca281761de93d3b787", "is_disabled": 0, "is_reserved": 0}, {"rental_uris": {"ios": "https://dc.lft.to/lastmile_qr_scan", "android": "https://dc.lft.to/lastmile_qr_scan"}, "lon": -77.00581033333333, "type": "electric_scooter", "fusion_lat": 0.0, "lat": 38.872796666666666, "name": "09e798d9e77007376505b10be50dee9b", "fusion_lon": 0.0, "bike_id": "09e798d9e77007376505b10be50dee9b", "is_disabled": 0, "is_reserved": 0}, {"rental_uris": {"ios": "https://dc.lft.to/lastmile_qr_scan", "android": "https://dc.lft.to/lastmile_qr_scan"}, "lon": -77.02355466666667, "type": "electric_scooter", "fusion_lat": 0.0, "lat": 38.9096535, "name": "53a7152c7ba7ea3bd6ac5261624331ba", "fusion_lon": 0.0, "bike_id": "53a7152c7ba7ea3bd6ac5261624331ba", "is_disabled": 0, "is_reserved": 0}, {"rental_uris": {"ios": "https://dc.lft.to/lastmile_qr_scan", "android": "https://dc.lft.to/lastmile_qr_scan"}, "lon": -77.03405483333333, "type": "electric_scooter", "fusion_lat": 0.0, "lat": 38.923445666666666, "name": "e268bba67259dc7b8912041e4129caeb", "fusion_lon": 0.0, "bike_id": "e268bba67259dc7b8912041e4129caeb", "is_disabled": 0, "is_reserved": 0}, {"rental_uris": {"ios": "https://dc.lft.to/lastmile_qr_scan", "android": "https://dc.lft.to/lastmile_qr_scan"}, "lon": -77.04548133333333, "type": "electric_scooter", "fusion_lat": 0.0, "lat": 38.93408733333333, "name": "15a90a98389ebdaeba8c8ee7a560d23e", "fusion_lon": 0.0, "bike_id": "15a90a98389ebdaeba8c8ee7a560d23e", "is_disabled": 0, "is_reserved": 0}, {"rental_uris": {"ios": "https://dc.lft.to/lastmile_qr_scan", "android": "https://dc.lft.to/lastmile_qr_scan"}, "lon": -77.03635366666667, "type": "electric_bike", "fusion_lat": 0.0, "lat": 38.92746316666667, "name": "c08e287b8e3687957ab4840ad42b0b7f", "fusion_lon": 0.0, "bike_id": "c08e287b8e3687957ab4840ad42b0b7f", "is_disabled": 0, "is_reserved": 0}, {"rental_uris": {"ios": "https://dc.lft.to/lastmile_qr_scan", "android": "https://dc.lft.to/lastmile_qr_scan"}, "lon": -76.98844183333334, "type": "electric_bike", "fusion_lat": 0.0, "lat": 38.89606, "name": "17b78e2d80bf90a54c5bb98bc1398ad1", "fusion_lon": 0.0, "bike_id": "17b78e2d80bf90a54c5bb98bc1398ad1", "is_disabled": 0, "is_reserved": 0}, {"rental_uris": {"ios": "https://dc.lft.to/lastmile_qr_scan", "android": "https://dc.lft.to/lastmile_qr_scan"}, "lon": -76.93737016666667, "type": "electric_scooter", "fusion_lat": 0.0, "lat": 38.890165833333334, "name": "80949647c31f50fd89d0f1f4f42674ac", "fusion_lon": 0.0, "bike_id": "80949647c31f50fd89d0f1f4f42674ac", "is_disabled": 0, "is_reserved": 0}, {"rental_uris": {"ios": "https://dc.lft.to/lastmile_qr_scan", "android": "https://dc.lft.to/lastmile_qr_scan"}, "lon": -77.031704, "type": "electric_scooter", "fusion_lat": 0.0, "lat": 38.928704333333336, "name": "bb883e63624c2525b44bfced9596bb07", "fusion_lon": 0.0, "bike_id": "bb883e63624c2525b44bfced9596bb07", "is_disabled": 0, "is_reserved": 0}, {"rental_uris": {"ios": "https://dc.lft.to/lastmile_qr_scan", "android": "https://dc.lft.to/lastmile_qr_scan"}, "lon": -77.10460766666667, "type": "electric_bike", "fusion_lat": 0.0, "lat": 38.896357333333334, "name": "62ef424cb2aec38fe3b58120c86f8e42", "fusion_lon": 0.0, "bike_id": "62ef424cb2aec38fe3b58120c86f8e42", "is_disabled": 0, "is_reserved": 0}, {"rental_uris": {"ios": "https://dc.lft.to/lastmile_qr_scan", "android": "https://dc.lft.to/lastmile_qr_scan"}, "lon": -76.985271, "type": "electric_scooter", "fusion_lat": 0.0, "lat": 38.90459116666667, "name": "b42bc82c30fd1215cbc37aa545a5d54b", "fusion_lon": 0.0, "bike_id": "b42bc82c30fd1215cbc37aa545a5d54b", "is_disabled": 0, "is_reserved": 0}, {"rental_uris": {"ios": "https://dc.lft.to/lastmile_qr_scan", "android": "https://dc.lft.to/lastmile_qr_scan"}, "lon": -76.94697633333334, "type": "electric_scooter", "fusion_lat": 0.0, "lat": 38.89730766666667, "name": "2698cd22ece17bf88549926efc22374f", "fusion_lon": 0.0, "bike_id": "2698cd22ece17bf88549926efc22374f", "is_disabled": 0, "is_reserved": 0}, {"rental_uris": {"ios": "https://dc.lft.to/lastmile_qr_scan", "android": "https://dc.lft.to/lastmile_qr_scan"}, "lon": -77.0137975, "type": "electric_scooter", "fusion_lat": 0.0, "lat": 38.869589500000004, "name": "706b9836a7cd3332c9438fd2a5403ad7", "fusion_lon": 0.0, "bike_id": "706b9836a7cd3332c9438fd2a5403ad7", "is_disabled": 0, "is_reserved": 0}, {"rental_uris": {"ios": "https://dc.lft.to/lastmile_qr_scan", "android": "https://dc.lft.to/lastmile_qr_scan"}, "lon": -77.0181815, "type": "electric_scooter", "fusion_lat": 0.0, "lat": 38.929683833333335, "name": "1d83cfc05d2aeaa43e3098937e14f2fb", "fusion_lon": 0.0, "bike_id": "1d83cfc05d2aeaa43e3098937e14f2fb", "is_disabled": 0, "is_reserved": 0}, {"rental_uris": {"ios": "https://dc.lft.to/lastmile_qr_scan", "android": "https://dc.lft.to/lastmile_qr_scan"}, "lon": -76.98999866666666, "type": "electric_scooter", "fusion_lat": 0.0, "lat": 38.86503316666666, "name": "47951de71fd190b80d130256b03dcfe0", "fusion_lon": 0.0, "bike_id": "47951de71fd190b80d130256b03dcfe0", "is_disabled": 0, "is_reserved": 0}, {"rental_uris": {"ios": "https://dc.lft.to/lastmile_qr_scan", "android": "https://dc.lft.to/lastmile_qr_scan"}, "lon": -77.01257266666667, "type": "electric_bike", "fusion_lat": 0.0, "lat": 38.9038165, "name": "4285baa80ee6decfa87140cb1388fb54", "fusion_lon": 0.0, "bike_id": "4285baa80ee6decfa87140cb1388fb54", "is_disabled": 0, "is_reserved": 0}, {"rental_uris": {"ios": "https://dc.lft.to/lastmile_qr_scan", "android": "https://dc.lft.to/lastmile_qr_scan"}, "lon": -77.01991416666667, "type": "electric_scooter", "fusion_lat": 0.0, "lat": 38.897389, "name": "48aaa0e46471fadcfff868c77ae4a595", "fusion_lon": 0.0, "bike_id": "48aaa0e46471fadcfff868c77ae4a595", "is_disabled": 0, "is_reserved": 0}, {"rental_uris": {"ios": "https://dc.lft.to/lastmile_qr_scan", "android": "https://dc.lft.to/lastmile_qr_scan"}, "lon": -77.03050083333333, "type": "electric_scooter", "fusion_lat": 0.0, "lat": 38.894715833333336, "name": "a7352b65346cd3bc43ad7b2e43d0f505", "fusion_lon": 0.0, "bike_id": "a7352b65346cd3bc43ad7b2e43d0f505", "is_disabled": 0, "is_reserved": 0}, {"rental_uris": {"ios": "https://dc.lft.to/lastmile_qr_scan", "android": "https://dc.lft.to/lastmile_qr_scan"}, "lon": -77.03525566666667, "type": "electric_bike", "fusion_lat": 0.0, "lat": 38.96538266666667, "name": "cc2e0a3c63474463eebb982793587e42", "fusion_lon": 0.0, "bike_id": "cc2e0a3c63474463eebb982793587e42", "is_disabled": 0, "is_reserved": 0}, {"rental_uris": {"ios": "https://dc.lft.to/lastmile_qr_scan", "android": "https://dc.lft.to/lastmile_qr_scan"}, "lon": -76.986998, "type": "electric_scooter", "fusion_lat": 0.0, "lat": 38.906980833333336, "name": "69ae0b9820f8ee3c4b06162f2451735e", "fusion_lon": 0.0, "bike_id": "69ae0b9820f8ee3c4b06162f2451735e", "is_disabled": 0, "is_reserved": 0}, {"rental_uris": {"ios": "https://dc.lft.to/lastmile_qr_scan", "android": "https://dc.lft.to/lastmile_qr_scan"}, "lon": -77.00211466666667, "type": "electric_bike", "fusion_lat": 0.0, "lat": 38.819360833333334, "name": "5e361b5306742fd4603ded439e0587dd", "fusion_lon": 0.0, "bike_id": "5e361b5306742fd4603ded439e0587dd", "is_disabled": 0, "is_reserved": 0}, {"rental_uris": {"ios": "https://dc.lft.to/lastmile_qr_scan", "android": "https://dc.lft.to/lastmile_qr_scan"}, "lon": -77.01083183333333, "type": "electric_scooter", "fusion_lat": 0.0, "lat": 38.894641166666666, "name": "2a62f24aff47ef8165d36301e668bb34", "fusion_lon": 0.0, "bike_id": "2a62f24aff47ef8165d36301e668bb34", "is_disabled": 0, "is_reserved": 0}, {"rental_uris": {"ios": "https://dc.lft.to/lastmile_qr_scan", "android": "https://dc.lft.to/lastmile_qr_scan"}, "lon": -77.02813833333333, "type": "electric_scooter", "fusion_lat": 0.0, "lat": 38.91038783333333, "name": "6c3d2d66c383ab7c56c76ccad00f1859", "fusion_lon": 0.0, "bike_id": "6c3d2d66c383ab7c56c76ccad00f1859", "is_disabled": 0, "is_reserved": 0}, {"rental_uris": {"ios": "https://dc.lft.to/lastmile_qr_scan", "android": "https://dc.lft.to/lastmile_qr_scan"}, "lon": -77.0434885, "type": "electric_scooter", "fusion_lat": 0.0, "lat": 38.91453933333333, "name": "6c4fae484acc4f35c187828c141d1e0f", "fusion_lon": 0.0, "bike_id": "6c4fae484acc4f35c187828c141d1e0f", "is_disabled": 0, "is_reserved": 0}, {"rental_uris": {"ios": "https://dc.lft.to/lastmile_qr_scan", "android": "https://dc.lft.to/lastmile_qr_scan"}, "lon": -77.04478766666666, "type": "electric_scooter", "fusion_lat": 0.0, "lat": 38.8922155, "name": "fb0d80f42aecf98955697430156d95f9", "fusion_lon": 0.0, "bike_id": "fb0d80f42aecf98955697430156d95f9", "is_disabled": 0, "is_reserved": 0}, {"rental_uris": {"ios": "https://dc.lft.to/lastmile_qr_scan", "android": "https://dc.lft.to/lastmile_qr_scan"}, "lon": -77.0100825, "type": "electric_scooter", "fusion_lat": 0.0, "lat": 38.89485033333333, "name": "6eaa9687414dd5e880372f6a585eae47", "fusion_lon": 0.0, "bike_id": "6eaa9687414dd5e880372f6a585eae47", "is_disabled": 0, "is_reserved": 0}, {"rental_uris": {"ios": "https://dc.lft.to/lastmile_qr_scan", "android": "https://dc.lft.to/lastmile_qr_scan"}, "lon": -77.04043966666667, "type": "electric_scooter", "fusion_lat": 0.0, "lat": 38.9027385, "name": "3ba84ca7384a8dd0b0fcfd3a5aa4fce7", "fusion_lon": 0.0, "bike_id": "3ba84ca7384a8dd0b0fcfd3a5aa4fce7", "is_disabled": 0, "is_reserved": 0}, {"rental_uris": {"ios": "https://dc.lft.to/lastmile_qr_scan", "android": "https://dc.lft.to/lastmile_qr_scan"}, "lon": -77.04284483333333, "type": "electric_scooter", "fusion_lat": 0.0, "lat": 38.9156105, "name": "afbbd0b6b63b5dd0ffee3adff358c422", "fusion_lon": 0.0, "bike_id": "afbbd0b6b63b5dd0ffee3adff358c422", "is_disabled": 0, "is_reserved": 0}, {"rental_uris": {"ios": "https://dc.lft.to/lastmile_qr_scan", "android": "https://dc.lft.to/lastmile_qr_scan"}, "lon": -77.03262883333333, "type": "electric_scooter", "fusion_lat": 0.0, "lat": 38.93900383333333, "name": "414a2c7015606a9e31b7b6f982bb15e1", "fusion_lon": 0.0, "bike_id": "414a2c7015606a9e31b7b6f982bb15e1", "is_disabled": 0, "is_reserved": 0}, {"rental_uris": {"ios": "https://dc.lft.to/lastmile_qr_scan", "android": "https://dc.lft.to/lastmile_qr_scan"}, "lon": -77.05342416666667, "type": "electric_scooter", "fusion_lat": 0.0, "lat": 38.903180166666665, "name": "3cc53df63c68744bea91c944eec15fde", "fusion_lon": 0.0, "bike_id": "3cc53df63c68744bea91c944eec15fde", "is_disabled": 0, "is_reserved": 0}, {"rental_uris": {"ios": "https://dc.lft.to/lastmile_qr_scan", "android": "https://dc.lft.to/lastmile_qr_scan"}, "lon": -76.978807, "type": "electric_scooter", "fusion_lat": 0.0, "lat": 38.88506066666667, "name": "f37384cbda0efc2552281582f7edbc87", "fusion_lon": 0.0, "bike_id": "f37384cbda0efc2552281582f7edbc87", "is_disabled": 0, "is_reserved": 0}, {"rental_uris": {"ios": "https://dc.lft.to/lastmile_qr_scan", "android": "https://dc.lft.to/lastmile_qr_scan"}, "lon": -77.0343795, "type": "electric_scooter", "fusion_lat": 0.0, "lat": 38.909749166666664, "name": "ed98bca4a17649fd7e8e3194b012798e", "fusion_lon": 0.0, "bike_id": "ed98bca4a17649fd7e8e3194b012798e", "is_disabled": 0, "is_reserved": 0}, {"rental_uris": {"ios": "https://dc.lft.to/lastmile_qr_scan", "android": "https://dc.lft.to/lastmile_qr_scan"}, "lon": -77.0274465, "type": "electric_scooter", "fusion_lat": 0.0, "lat": 38.933299166666664, "name": "b4f33853c0287cfd170f62d0bd76fbd7", "fusion_lon": 0.0, "bike_id": "b4f33853c0287cfd170f62d0bd76fbd7", "is_disabled": 0, "is_reserved": 0}, {"rental_uris": {"ios": "https://dc.lft.to/lastmile_qr_scan", "android": "https://dc.lft.to/lastmile_qr_scan"}, "lon": -77.03163183333334, "type": "electric_scooter", "fusion_lat": 0.0, "lat": 38.91557816666667, "name": "0bf7cecb0de7a3ecb7dea2fdf30dee81", "fusion_lon": 0.0, "bike_id": "0bf7cecb0de7a3ecb7dea2fdf30dee81", "is_disabled": 0, "is_reserved": 0}, {"rental_uris": {"ios": "https://dc.lft.to/lastmile_qr_scan", "android": "https://dc.lft.to/lastmile_qr_scan"}, "lon": -77.03666516666667, "type": "electric_scooter", "fusion_lat": 0.0, "lat": 38.932036333333336, "name": "bf0ac7bdbdd341f277250fe2a9eb30e0", "fusion_lon": 0.0, "bike_id": "bf0ac7bdbdd341f277250fe2a9eb30e0", "is_disabled": 0, "is_reserved": 0}, {"rental_uris": {"ios": "https://dc.lft.to/lastmile_qr_scan", "android": "https://dc.lft.to/lastmile_qr_scan"}, "lon": -76.99520483333333, "type": "electric_scooter", "fusion_lat": 0.0, "lat": 38.862599833333334, "name": "3b842451d7990ae420c9c76813a74beb", "fusion_lon": 0.0, "bike_id": "3b842451d7990ae420c9c76813a74beb", "is_disabled": 0, "is_reserved": 0}, {"rental_uris": {"ios": "https://dc.lft.to/lastmile_qr_scan", "android": "https://dc.lft.to/lastmile_qr_scan"}, "lon": -77.02357783333333, "type": "electric_scooter", "fusion_lat": 0.0, "lat": 38.945152666666665, "name": "1027083adf679217bbce8003fb812cf0", "fusion_lon": 0.0, "bike_id": "1027083adf679217bbce8003fb812cf0", "is_disabled": 0, "is_reserved": 0}, {"rental_uris": {"ios": "https://dc.lft.to/lastmile_qr_scan", "android": "https://dc.lft.to/lastmile_qr_scan"}, "lon": -77.05001983333334, "type": "electric_scooter", "fusion_lat": 0.0, "lat": 38.892290833333334, "name": "b4690ab6f21d43dd3c49f540b38e6649", "fusion_lon": 0.0, "bike_id": "b4690ab6f21d43dd3c49f540b38e6649", "is_disabled": 0, "is_reserved": 0}, {"rental_uris": {"ios": "https://dc.lft.to/lastmile_qr_scan", "android": "https://dc.lft.to/lastmile_qr_scan"}, "lon": -77.04004066666667, "type": "electric_scooter", "fusion_lat": 0.0, "lat": 38.91815716666667, "name": "cfd1a1cf899a82cbfee3f30d48ae2f0e", "fusion_lon": 0.0, "bike_id": "cfd1a1cf899a82cbfee3f30d48ae2f0e", "is_disabled": 0, "is_reserved": 0}, {"rental_uris": {"ios": "https://dc.lft.to/lastmile_qr_scan", "android": "https://dc.lft.to/lastmile_qr_scan"}, "lon": -77.029676, "type": "electric_scooter", "fusion_lat": 0.0, "lat": 38.93607016666667, "name": "3c9f1a364d1649cbeddc2b41bc5a3b7a", "fusion_lon": 0.0, "bike_id": "3c9f1a364d1649cbeddc2b41bc5a3b7a", "is_disabled": 0, "is_reserved": 0}, {"rental_uris": {"ios": "https://dc.lft.to/lastmile_qr_scan", "android": "https://dc.lft.to/lastmile_qr_scan"}, "lon": -77.03221, "type": "electric_scooter", "fusion_lat": 0.0, "lat": 38.91815616666667, "name": "61f3d1b38af8cbb5952a58c93edb0f07", "fusion_lon": 0.0, "bike_id": "61f3d1b38af8cbb5952a58c93edb0f07", "is_disabled": 0, "is_reserved": 0}, {"rental_uris": {"ios": "https://dc.lft.to/lastmile_qr_scan", "android": "https://dc.lft.to/lastmile_qr_scan"}, "lon": -77.05598266666667, "type": "electric_scooter", "fusion_lat": 0.0, "lat": 38.936952833333336, "name": "e016d0acbcf4ebc104485833ae5b5d01", "fusion_lon": 0.0, "bike_id": "e016d0acbcf4ebc104485833ae5b5d01", "is_disabled": 0, "is_reserved": 0}, {"rental_uris": {"ios": "https://dc.lft.to/lastmile_qr_scan", "android": "https://dc.lft.to/lastmile_qr_scan"}, "lon": -77.002026, "type": "electric_scooter", "fusion_lat": 0.0, "lat": 38.90035833333334, "name": "8fe06c8f47189c543862c5c854cf1de7", "fusion_lon": 0.0, "bike_id": "8fe06c8f47189c543862c5c854cf1de7", "is_disabled": 0, "is_reserved": 0}, {"rental_uris": {"ios": "https://dc.lft.to/lastmile_qr_scan", "android": "https://dc.lft.to/lastmile_qr_scan"}, "lon": -77.03863766666667, "type": "electric_scooter", "fusion_lat": 0.0, "lat": 38.92024983333334, "name": "133415a31e78293598200435afcaa696", "fusion_lon": 0.0, "bike_id": "133415a31e78293598200435afcaa696", "is_disabled": 0, "is_reserved": 0}, {"rental_uris": {"ios": "https://dc.lft.to/lastmile_qr_scan", "android": "https://dc.lft.to/lastmile_qr_scan"}, "lon": -77.00319316666666, "type": "electric_scooter", "fusion_lat": 0.0, "lat": 38.90896733333334, "name": "844eab2482c4517e8dabf7177191a3c2", "fusion_lon": 0.0, "bike_id": "844eab2482c4517e8dabf7177191a3c2", "is_disabled": 0, "is_reserved": 0}, {"rental_uris": {"ios": "https://dc.lft.to/lastmile_qr_scan", "android": "https://dc.lft.to/lastmile_qr_scan"}, "lon": -77.0238745, "type": "electric_scooter", "fusion_lat": 0.0, "lat": 38.91567666666667, "name": "eadfc3d2216fdc598564ba9707f915bc", "fusion_lon": 0.0, "bike_id": "eadfc3d2216fdc598564ba9707f915bc", "is_disabled": 0, "is_reserved": 0}, {"rental_uris": {"ios": "https://dc.lft.to/lastmile_qr_scan", "android": "https://dc.lft.to/lastmile_qr_scan"}, "lon": -77.01146483333333, "type": "electric_scooter", "fusion_lat": 0.0, "lat": 38.90638966666667, "name": "a88f6ad5715bf0c5320d3b538d5cf380", "fusion_lon": 0.0, "bike_id": "a88f6ad5715bf0c5320d3b538d5cf380", "is_disabled": 0, "is_reserved": 0}, {"rental_uris": {"ios": "https://dc.lft.to/lastmile_qr_scan", "android": "https://dc.lft.to/lastmile_qr_scan"}, "lon": -76.987435, "type": "electric_bike", "fusion_lat": 0.0, "lat": 38.857903666666665, "name": "5aab2df4be42b6c3f01fc9e31237ffc1", "fusion_lon": 0.0, "bike_id": "5aab2df4be42b6c3f01fc9e31237ffc1", "is_disabled": 0, "is_reserved": 0}, {"rental_uris": {"ios": "https://dc.lft.to/lastmile_qr_scan", "android": "https://dc.lft.to/lastmile_qr_scan"}, "lon": -77.03703983333334, "type": "electric_scooter", "fusion_lat": 0.0, "lat": 38.928334166666666, "name": "7e45ef2d6dd0aebeb5aa45726b7a0e1c", "fusion_lon": 0.0, "bike_id": "7e45ef2d6dd0aebeb5aa45726b7a0e1c", "is_disabled": 0, "is_reserved": 0}, {"rental_uris": {"ios": "https://dc.lft.to/lastmile_qr_scan", "android": "https://dc.lft.to/lastmile_qr_scan"}, "lon": -76.97893466666666, "type": "electric_scooter", "fusion_lat": 0.0, "lat": 38.904214, "name": "d02fdce8997e731a42f2a8021f237319", "fusion_lon": 0.0, "bike_id": "d02fdce8997e731a42f2a8021f237319", "is_disabled": 0, "is_reserved": 0}, {"rental_uris": {"ios": "https://dc.lft.to/lastmile_qr_scan", "android": "https://dc.lft.to/lastmile_qr_scan"}, "lon": -77.0453735, "type": "electric_scooter", "fusion_lat": 0.0, "lat": 38.91324633333333, "name": "8451906a39be447e1be5fa90a2e84062", "fusion_lon": 0.0, "bike_id": "8451906a39be447e1be5fa90a2e84062", "is_disabled": 0, "is_reserved": 0}, {"rental_uris": {"ios": "https://dc.lft.to/lastmile_qr_scan", "android": "https://dc.lft.to/lastmile_qr_scan"}, "lon": -77.10095383333334, "type": "electric_bike", "fusion_lat": 0.0, "lat": 38.9595725, "name": "7313b2eba469816b0c414cdda7523f2c", "fusion_lon": 0.0, "bike_id": "7313b2eba469816b0c414cdda7523f2c", "is_disabled": 0, "is_reserved": 0}, {"rental_uris": {"ios": "https://dc.lft.to/lastmile_qr_scan", "android": "https://dc.lft.to/lastmile_qr_scan"}, "lon": -77.015317, "type": "electric_scooter", "fusion_lat": 0.0, "lat": 38.90200166666666, "name": "292cd9bba4dffb9412a0f9f91fabc2ea", "fusion_lon": 0.0, "bike_id": "292cd9bba4dffb9412a0f9f91fabc2ea", "is_disabled": 0, "is_reserved": 0}, {"rental_uris": {"ios": "https://dc.lft.to/lastmile_qr_scan", "android": "https://dc.lft.to/lastmile_qr_scan"}, "lon": -77.00400716666667, "type": "electric_scooter", "fusion_lat": 0.0, "lat": 38.907689, "name": "2637942d9c2210c0ba2375fd82cd36db", "fusion_lon": 0.0, "bike_id": "2637942d9c2210c0ba2375fd82cd36db", "is_disabled": 0, "is_reserved": 0}, {"rental_uris": {"ios": "https://dc.lft.to/lastmile_qr_scan", "android": "https://dc.lft.to/lastmile_qr_scan"}, "lon": -76.99595966666666, "type": "electric_scooter", "fusion_lat": 0.0, "lat": 38.845400166666664, "name": "28bec3020923da2296c446fa1cf716ec", "fusion_lon": 0.0, "bike_id": "28bec3020923da2296c446fa1cf716ec", "is_disabled": 0, "is_reserved": 0}, {"rental_uris": {"ios": "https://dc.lft.to/lastmile_qr_scan", "android": "https://dc.lft.to/lastmile_qr_scan"}, "lon": -77.00526966666666, "type": "electric_scooter", "fusion_lat": 0.0, "lat": 38.90562466666667, "name": "7b7653d2316f4adc82da7fa4216f978d", "fusion_lon": 0.0, "bike_id": "7b7653d2316f4adc82da7fa4216f978d", "is_disabled": 0, "is_reserved": 0}, {"rental_uris": {"ios": "https://dc.lft.to/lastmile_qr_scan", "android": "https://dc.lft.to/lastmile_qr_scan"}, "lon": -77.03844783333334, "type": "electric_scooter", "fusion_lat": 0.0, "lat": 38.9311035, "name": "97a37b1bfa64e93f4c12a18f5873b53a", "fusion_lon": 0.0, "bike_id": "97a37b1bfa64e93f4c12a18f5873b53a", "is_disabled": 0, "is_reserved": 0}, {"rental_uris": {"ios": "https://dc.lft.to/lastmile_qr_scan", "android": "https://dc.lft.to/lastmile_qr_scan"}, "lon": -77.03881716666666, "type": "electric_scooter", "fusion_lat": 0.0, "lat": 38.90518616666667, "name": "681323bfb85cb67692af995c4c9d878b", "fusion_lon": 0.0, "bike_id": "681323bfb85cb67692af995c4c9d878b", "is_disabled": 0, "is_reserved": 0}, {"rental_uris": {"ios": "https://dc.lft.to/lastmile_qr_scan", "android": "https://dc.lft.to/lastmile_qr_scan"}, "lon": -77.03901283333333, "type": "electric_scooter", "fusion_lat": 0.0, "lat": 38.932596, "name": "2ae8d528ac1b3c55af5d3a1c9a6a69c9", "fusion_lon": 0.0, "bike_id": "2ae8d528ac1b3c55af5d3a1c9a6a69c9", "is_disabled": 0, "is_reserved": 0}, {"rental_uris": {"ios": "https://dc.lft.to/lastmile_qr_scan", "android": "https://dc.lft.to/lastmile_qr_scan"}, "lon": -77.02492183333334, "type": "electric_scooter", "fusion_lat": 0.0, "lat": 38.917107666666666, "name": "64b84d858224482503ec0881d459f75d", "fusion_lon": 0.0, "bike_id": "64b84d858224482503ec0881d459f75d", "is_disabled": 0, "is_reserved": 0}, {"rental_uris": {"ios": "https://dc.lft.to/lastmile_qr_scan", "android": "https://dc.lft.to/lastmile_qr_scan"}, "lon": -76.9850015, "type": "electric_scooter", "fusion_lat": 0.0, "lat": 38.860442, "name": "c9ad055ab5cde3144e6f24e42164e941", "fusion_lon": 0.0, "bike_id": "c9ad055ab5cde3144e6f24e42164e941", "is_disabled": 0, "is_reserved": 0}, {"rental_uris": {"ios": "https://dc.lft.to/lastmile_qr_scan", "android": "https://dc.lft.to/lastmile_qr_scan"}, "lon": -77.00557583333334, "type": "electric_bike", "fusion_lat": 0.0, "lat": 38.880211833333334, "name": "8c3a6ebcdbe9b79847856cca73a2646d", "fusion_lon": 0.0, "bike_id": "8c3a6ebcdbe9b79847856cca73a2646d", "is_disabled": 0, "is_reserved": 0}, {"rental_uris": {"ios": "https://dc.lft.to/lastmile_qr_scan", "android": "https://dc.lft.to/lastmile_qr_scan"}, "lon": -76.97325666666667, "type": "electric_bike", "fusion_lat": 0.0, "lat": 38.90319983333333, "name": "0a21f66bbe6192d1d837aca244286c13", "fusion_lon": 0.0, "bike_id": "0a21f66bbe6192d1d837aca244286c13", "is_disabled": 0, "is_reserved": 0}, {"rental_uris": {"ios": "https://dc.lft.to/lastmile_qr_scan", "android": "https://dc.lft.to/lastmile_qr_scan"}, "lon": -77.04664516666666, "type": "electric_scooter", "fusion_lat": 0.0, "lat": 38.90899016666667, "name": "7ac3ca5d584d417fe26254f7e2deaf78", "fusion_lon": 0.0, "bike_id": "7ac3ca5d584d417fe26254f7e2deaf78", "is_disabled": 0, "is_reserved": 0}, {"rental_uris": {"ios": "https://dc.lft.to/lastmile_qr_scan", "android": "https://dc.lft.to/lastmile_qr_scan"}, "lon": -77.03427533333333, "type": "electric_scooter", "fusion_lat": 0.0, "lat": 38.91914166666667, "name": "6e5ccbcb030c2dc58978d430a4787e6e", "fusion_lon": 0.0, "bike_id": "6e5ccbcb030c2dc58978d430a4787e6e", "is_disabled": 0, "is_reserved": 0}, {"rental_uris": {"ios": "https://dc.lft.to/lastmile_qr_scan", "android": "https://dc.lft.to/lastmile_qr_scan"}, "lon": -77.02512366666667, "type": "electric_scooter", "fusion_lat": 0.0, "lat": 38.91760433333334, "name": "6ab6b22ffeb9cf0a27bd56d9262845fa", "fusion_lon": 0.0, "bike_id": "6ab6b22ffeb9cf0a27bd56d9262845fa", "is_disabled": 0, "is_reserved": 0}, {"rental_uris": {"ios": "https://dc.lft.to/lastmile_qr_scan", "android": "https://dc.lft.to/lastmile_qr_scan"}, "lon": -76.97230666666667, "type": "electric_bike", "fusion_lat": 0.0, "lat": 38.84478433333334, "name": "04278a98e151cb1db6516227b98f0de0", "fusion_lon": 0.0, "bike_id": "04278a98e151cb1db6516227b98f0de0", "is_disabled": 0, "is_reserved": 0}, {"rental_uris": {"ios": "https://dc.lft.to/lastmile_qr_scan", "android": "https://dc.lft.to/lastmile_qr_scan"}, "lon": -77.08050533333333, "type": "electric_bike", "fusion_lat": 0.0, "lat": 38.946235, "name": "8b3a588078effa3c975af9349c107bb4", "fusion_lon": 0.0, "bike_id": "8b3a588078effa3c975af9349c107bb4", "is_disabled": 0, "is_reserved": 0}, {"rental_uris": {"ios": "https://dc.lft.to/lastmile_qr_scan", "android": "https://dc.lft.to/lastmile_qr_scan"}, "lon": -77.0465305, "type": "electric_scooter", "fusion_lat": 0.0, "lat": 38.897309166666666, "name": "8125ae3cf5e14af458f43a3247cbc71b", "fusion_lon": 0.0, "bike_id": "8125ae3cf5e14af458f43a3247cbc71b", "is_disabled": 0, "is_reserved": 0}, {"rental_uris": {"ios": "https://dc.lft.to/lastmile_qr_scan", "android": "https://dc.lft.to/lastmile_qr_scan"}, "lon": -77.01381216666667, "type": "electric_scooter", "fusion_lat": 0.0, "lat": 38.89913983333334, "name": "2ee153442d32dab0d6633f91f09b83ea", "fusion_lon": 0.0, "bike_id": "2ee153442d32dab0d6633f91f09b83ea", "is_disabled": 0, "is_reserved": 0}, {"rental_uris": {"ios": "https://dc.lft.to/lastmile_qr_scan", "android": "https://dc.lft.to/lastmile_qr_scan"}, "lon": -77.04829683333334, "type": "electric_scooter", "fusion_lat": 0.0, "lat": 38.903888333333335, "name": "ff9ae4d65f78e84f42005a056114a685", "fusion_lon": 0.0, "bike_id": "ff9ae4d65f78e84f42005a056114a685", "is_disabled": 0, "is_reserved": 0}, {"rental_uris": {"ios": "https://dc.lft.to/lastmile_qr_scan", "android": "https://dc.lft.to/lastmile_qr_scan"}, "lon": -77.04506366666666, "type": "electric_scooter", "fusion_lat": 0.0, "lat": 38.9085065, "name": "aac272c94609a6079ee39860ecebc424", "fusion_lon": 0.0, "bike_id": "aac272c94609a6079ee39860ecebc424", "is_disabled": 0, "is_reserved": 0}, {"rental_uris": {"ios": "https://dc.lft.to/lastmile_qr_scan", "android": "https://dc.lft.to/lastmile_qr_scan"}, "lon": -77.01119083333333, "type": "electric_scooter", "fusion_lat": 0.0, "lat": 38.91271483333333, "name": "57faf0961f607e2fec6eb47dc3b7c5f8", "fusion_lon": 0.0, "bike_id": "57faf0961f607e2fec6eb47dc3b7c5f8", "is_disabled": 0, "is_reserved": 0}, {"rental_uris": {"ios": "https://dc.lft.to/lastmile_qr_scan", "android": "https://dc.lft.to/lastmile_qr_scan"}, "lon": -77.02292116666666, "type": "electric_bike", "fusion_lat": 0.0, "lat": 38.92331316666667, "name": "00fe18a17e5bdddae2545c4d617d46a2", "fusion_lon": 0.0, "bike_id": "00fe18a17e5bdddae2545c4d617d46a2", "is_disabled": 0, "is_reserved": 0}, {"rental_uris": {"ios": "https://dc.lft.to/lastmile_qr_scan", "android": "https://dc.lft.to/lastmile_qr_scan"}, "lon": -77.02381916666667, "type": "electric_scooter", "fusion_lat": 0.0, "lat": 38.93223033333334, "name": "afe20f5b570e5420690ccbc098befbe1", "fusion_lon": 0.0, "bike_id": "afe20f5b570e5420690ccbc098befbe1", "is_disabled": 0, "is_reserved": 0}, {"rental_uris": {"ios": "https://dc.lft.to/lastmile_qr_scan", "android": "https://dc.lft.to/lastmile_qr_scan"}, "lon": -77.02207133333333, "type": "electric_bike", "fusion_lat": 0.0, "lat": 38.91120033333333, "name": "2865200f558802a8841bbb7dd65edd5f", "fusion_lon": 0.0, "bike_id": "2865200f558802a8841bbb7dd65edd5f", "is_disabled": 0, "is_reserved": 0}, {"rental_uris": {"ios": "https://dc.lft.to/lastmile_qr_scan", "android": "https://dc.lft.to/lastmile_qr_scan"}, "lon": -76.98886133333333, "type": "electric_scooter", "fusion_lat": 0.0, "lat": 38.86658966666667, "name": "9f44c59f422f2b2b64f19b592d2eaed8", "fusion_lon": 0.0, "bike_id": "9f44c59f422f2b2b64f19b592d2eaed8", "is_disabled": 0, "is_reserved": 0}, {"rental_uris": {"ios": "https://dc.lft.to/lastmile_qr_scan", "android": "https://dc.lft.to/lastmile_qr_scan"}, "lon": -77.037029, "type": "electric_scooter", "fusion_lat": 0.0, "lat": 38.926425, "name": "e0a21dec2de56b13c35b9b13d7e58397", "fusion_lon": 0.0, "bike_id": "e0a21dec2de56b13c35b9b13d7e58397", "is_disabled": 0, "is_reserved": 0}, {"rental_uris": {"ios": "https://dc.lft.to/lastmile_qr_scan", "android": "https://dc.lft.to/lastmile_qr_scan"}, "lon": -77.01170866666666, "type": "electric_scooter", "fusion_lat": 0.0, "lat": 38.914887666666665, "name": "f33d2f367145fb5b9bb3fda9f79fdad0", "fusion_lon": 0.0, "bike_id": "f33d2f367145fb5b9bb3fda9f79fdad0", "is_disabled": 0, "is_reserved": 0}, {"rental_uris": {"ios": "https://dc.lft.to/lastmile_qr_scan", "android": "https://dc.lft.to/lastmile_qr_scan"}, "lon": -77.01154283333334, "type": "electric_bike", "fusion_lat": 0.0, "lat": 38.91171816666667, "name": "00a80712f79e3a0e8dc6824097e5a1b8", "fusion_lon": 0.0, "bike_id": "00a80712f79e3a0e8dc6824097e5a1b8", "is_disabled": 0, "is_reserved": 0}, {"rental_uris": {"ios": "https://dc.lft.to/lastmile_qr_scan", "android": "https://dc.lft.to/lastmile_qr_scan"}, "lon": -77.00216533333334, "type": "electric_scooter", "fusion_lat": 0.0, "lat": 38.900248166666664, "name": "efc6f45ff61246770faff7147213ea89", "fusion_lon": 0.0, "bike_id": "efc6f45ff61246770faff7147213ea89", "is_disabled": 0, "is_reserved": 0}, {"rental_uris": {"ios": "https://dc.lft.to/lastmile_qr_scan", "android": "https://dc.lft.to/lastmile_qr_scan"}, "lon": -77.0256835, "type": "electric_scooter", "fusion_lat": 0.0, "lat": 38.91488366666667, "name": "7691f591bbfaa20f54f21760048bfbf6", "fusion_lon": 0.0, "bike_id": "7691f591bbfaa20f54f21760048bfbf6", "is_disabled": 0, "is_reserved": 0}, {"rental_uris": {"ios": "https://dc.lft.to/lastmile_qr_scan", "android": "https://dc.lft.to/lastmile_qr_scan"}, "lon": -77.04118716666666, "type": "electric_scooter", "fusion_lat": 0.0, "lat": 38.91705816666666, "name": "1da7bbf8e3ac167a663d7fcbcbcb068a", "fusion_lon": 0.0, "bike_id": "1da7bbf8e3ac167a663d7fcbcbcb068a", "is_disabled": 0, "is_reserved": 0}, {"rental_uris": {"ios": "https://dc.lft.to/lastmile_qr_scan", "android": "https://dc.lft.to/lastmile_qr_scan"}, "lon": -77.03213133333334, "type": "electric_scooter", "fusion_lat": 0.0, "lat": 38.91452666666667, "name": "5ba9bd28e50f91c8b12fddd1a422557b", "fusion_lon": 0.0, "bike_id": "5ba9bd28e50f91c8b12fddd1a422557b", "is_disabled": 0, "is_reserved": 0}, {"rental_uris": {"ios": "https://dc.lft.to/lastmile_qr_scan", "android": "https://dc.lft.to/lastmile_qr_scan"}, "lon": -77.00526533333333, "type": "electric_scooter", "fusion_lat": 0.0, "lat": 38.929017333333334, "name": "bc8afa3501d0e63f609085f115564190", "fusion_lon": 0.0, "bike_id": "bc8afa3501d0e63f609085f115564190", "is_disabled": 0, "is_reserved": 0}, {"rental_uris": {"ios": "https://dc.lft.to/lastmile_qr_scan", "android": "https://dc.lft.to/lastmile_qr_scan"}, "lon": -77.038179, "type": "electric_scooter", "fusion_lat": 0.0, "lat": 38.909628, "name": "bcf7ab0a055982cf57cb2d8575d1655e", "fusion_lon": 0.0, "bike_id": "bcf7ab0a055982cf57cb2d8575d1655e", "is_disabled": 0, "is_reserved": 0}, {"rental_uris": {"ios": "https://dc.lft.to/lastmile_qr_scan", "android": "https://dc.lft.to/lastmile_qr_scan"}, "lon": -77.0344505, "type": "electric_scooter", "fusion_lat": 0.0, "lat": 38.911972166666665, "name": "6ee8fdc3dc75e2044182a55dcc7fbc24", "fusion_lon": 0.0, "bike_id": "6ee8fdc3dc75e2044182a55dcc7fbc24", "is_disabled": 0, "is_reserved": 0}, {"rental_uris": {"ios": "https://dc.lft.to/lastmile_qr_scan", "android": "https://dc.lft.to/lastmile_qr_scan"}, "lon": -77.0318545, "type": "electric_scooter", "fusion_lat": 0.0, "lat": 38.899622, "name": "e1b5ffc441e2b589d9679ba08e5c5d1e", "fusion_lon": 0.0, "bike_id": "e1b5ffc441e2b589d9679ba08e5c5d1e", "is_disabled": 0, "is_reserved": 0}, {"rental_uris": {"ios": "https://dc.lft.to/lastmile_qr_scan", "android": "https://dc.lft.to/lastmile_qr_scan"}, "lon": -77.0331165, "type": "electric_scooter", "fusion_lat": 0.0, "lat": 38.900388166666666, "name": "4cccb4c051ca710fbdb4f0f520c91aa3", "fusion_lon": 0.0, "bike_id": "4cccb4c051ca710fbdb4f0f520c91aa3", "is_disabled": 0, "is_reserved": 0}, {"rental_uris": {"ios": "https://dc.lft.to/lastmile_qr_scan", "android": "https://dc.lft.to/lastmile_qr_scan"}, "lon": -77.07711466666666, "type": "electric_scooter", "fusion_lat": 0.0, "lat": 38.956101333333336, "name": "cf10270944e0048af9958691d0804420", "fusion_lon": 0.0, "bike_id": "cf10270944e0048af9958691d0804420", "is_disabled": 0, "is_reserved": 0}, {"rental_uris": {"ios": "https://dc.lft.to/lastmile_qr_scan", "android": "https://dc.lft.to/lastmile_qr_scan"}, "lon": -77.01188683333334, "type": "electric_scooter", "fusion_lat": 0.0, "lat": 38.900381, "name": "29a4f6064a5c9ac53a85a6d13241d190", "fusion_lon": 0.0, "bike_id": "29a4f6064a5c9ac53a85a6d13241d190", "is_disabled": 0, "is_reserved": 0}, {"rental_uris": {"ios": "https://dc.lft.to/lastmile_qr_scan", "android": "https://dc.lft.to/lastmile_qr_scan"}, "lon": -76.9871175, "type": "electric_scooter", "fusion_lat": 0.0, "lat": 38.86537283333333, "name": "46f332711c2dec3d1ef7c122c639463c", "fusion_lon": 0.0, "bike_id": "46f332711c2dec3d1ef7c122c639463c", "is_disabled": 0, "is_reserved": 0}, {"rental_uris": {"ios": "https://dc.lft.to/lastmile_qr_scan", "android": "https://dc.lft.to/lastmile_qr_scan"}, "lon": -77.032151, "type": "electric_scooter", "fusion_lat": 0.0, "lat": 38.911711833333335, "name": "e0b688de80734398009c7ff0d8d922e2", "fusion_lon": 0.0, "bike_id": "e0b688de80734398009c7ff0d8d922e2", "is_disabled": 0, "is_reserved": 0}, {"rental_uris": {"ios": "https://dc.lft.to/lastmile_qr_scan", "android": "https://dc.lft.to/lastmile_qr_scan"}, "lon": -77.0316135, "type": "electric_scooter", "fusion_lat": 0.0, "lat": 38.915626, "name": "8249d74c0959126e34d0b119a32e6db1", "fusion_lon": 0.0, "bike_id": "8249d74c0959126e34d0b119a32e6db1", "is_disabled": 0, "is_reserved": 0}, {"rental_uris": {"ios": "https://dc.lft.to/lastmile_qr_scan", "android": "https://dc.lft.to/lastmile_qr_scan"}, "lon": -77.00206983333334, "type": "electric_scooter", "fusion_lat": 0.0, "lat": 38.897217833333336, "name": "93b10d8d3018458145d57962da5103a9", "fusion_lon": 0.0, "bike_id": "93b10d8d3018458145d57962da5103a9", "is_disabled": 0, "is_reserved": 0}, {"rental_uris": {"ios": "https://dc.lft.to/lastmile_qr_scan", "android": "https://dc.lft.to/lastmile_qr_scan"}, "lon": -77.07095033333333, "type": "electric_scooter", "fusion_lat": 0.0, "lat": 38.8991215, "name": "289c773932898c0e749c9fec9f5b1838", "fusion_lon": 0.0, "bike_id": "289c773932898c0e749c9fec9f5b1838", "is_disabled": 0, "is_reserved": 0}, {"rental_uris": {"ios": "https://dc.lft.to/lastmile_qr_scan", "android": "https://dc.lft.to/lastmile_qr_scan"}, "lon": -77.02420566666666, "type": "electric_scooter", "fusion_lat": 0.0, "lat": 38.92181816666667, "name": "4a8cf0290dbad51599cde7d78685b709", "fusion_lon": 0.0, "bike_id": "4a8cf0290dbad51599cde7d78685b709", "is_disabled": 0, "is_reserved": 0}, {"rental_uris": {"ios": "https://dc.lft.to/lastmile_qr_scan", "android": "https://dc.lft.to/lastmile_qr_scan"}, "lon": -77.0401745, "type": "electric_scooter", "fusion_lat": 0.0, "lat": 38.916042166666664, "name": "4332d676463c042c8ad270913a4ac0ee", "fusion_lon": 0.0, "bike_id": "4332d676463c042c8ad270913a4ac0ee", "is_disabled": 0, "is_reserved": 0}, {"rental_uris": {"ios": "https://dc.lft.to/lastmile_qr_scan", "android": "https://dc.lft.to/lastmile_qr_scan"}, "lon": -77.05150916666666, "type": "electric_scooter", "fusion_lat": 0.0, "lat": 38.90622416666667, "name": "759cb42c0ea7c4994e6d31ceb8db0c60", "fusion_lon": 0.0, "bike_id": "759cb42c0ea7c4994e6d31ceb8db0c60", "is_disabled": 0, "is_reserved": 0}, {"rental_uris": {"ios": "https://dc.lft.to/lastmile_qr_scan", "android": "https://dc.lft.to/lastmile_qr_scan"}, "lon": -77.1139955, "type": "electric_bike", "fusion_lat": 0.0, "lat": 38.85255566666667, "name": "7615530cfa1094e277308d72a7551e7b", "fusion_lon": 0.0, "bike_id": "7615530cfa1094e277308d72a7551e7b", "is_disabled": 0, "is_reserved": 0}, {"rental_uris": {"ios": "https://dc.lft.to/lastmile_qr_scan", "android": "https://dc.lft.to/lastmile_qr_scan"}, "lon": -77.03136866666667, "type": "electric_scooter", "fusion_lat": 0.0, "lat": 38.911252166666664, "name": "843fb86c627746f2e94e1d490f633c21", "fusion_lon": 0.0, "bike_id": "843fb86c627746f2e94e1d490f633c21", "is_disabled": 0, "is_reserved": 0}, {"rental_uris": {"ios": "https://dc.lft.to/lastmile_qr_scan", "android": "https://dc.lft.to/lastmile_qr_scan"}, "lon": -76.98519616666667, "type": "electric_scooter", "fusion_lat": 0.0, "lat": 38.90462266666667, "name": "e94978631d1c48133570c486ccee8614", "fusion_lon": 0.0, "bike_id": "e94978631d1c48133570c486ccee8614", "is_disabled": 0, "is_reserved": 0}, {"rental_uris": {"ios": "https://dc.lft.to/lastmile_qr_scan", "android": "https://dc.lft.to/lastmile_qr_scan"}, "lon": -77.06609216666666, "type": "electric_scooter", "fusion_lat": 0.0, "lat": 38.90542, "name": "c4a8e7bf8fc10ee3110d981c818b65d4", "fusion_lon": 0.0, "bike_id": "c4a8e7bf8fc10ee3110d981c818b65d4", "is_disabled": 0, "is_reserved": 0}, {"rental_uris": {"ios": "https://dc.lft.to/lastmile_qr_scan", "android": "https://dc.lft.to/lastmile_qr_scan"}, "lon": -77.08827266666667, "type": "electric_bike", "fusion_lat": 0.0, "lat": 38.90968783333334, "name": "f29ddb7bf68a72b3fe1c4db79aaf1d1c", "fusion_lon": 0.0, "bike_id": "f29ddb7bf68a72b3fe1c4db79aaf1d1c", "is_disabled": 0, "is_reserved": 0}, {"rental_uris": {"ios": "https://dc.lft.to/lastmile_qr_scan", "android": "https://dc.lft.to/lastmile_qr_scan"}, "lon": -77.04783666666667, "type": "electric_scooter", "fusion_lat": 0.0, "lat": 38.897708, "name": "d06cc4c4797cc851a8aa15a6e60b4e2c", "fusion_lon": 0.0, "bike_id": "d06cc4c4797cc851a8aa15a6e60b4e2c", "is_disabled": 0, "is_reserved": 0}, {"rental_uris": {"ios": "https://dc.lft.to/lastmile_qr_scan", "android": "https://dc.lft.to/lastmile_qr_scan"}, "lon": -77.01195383333334, "type": "electric_scooter", "fusion_lat": 0.0, "lat": 38.897967666666666, "name": "a11f9f6eb2103a98d0a2000f7cbc782f", "fusion_lon": 0.0, "bike_id": "a11f9f6eb2103a98d0a2000f7cbc782f", "is_disabled": 0, "is_reserved": 0}, {"rental_uris": {"ios": "https://dc.lft.to/lastmile_qr_scan", "android": "https://dc.lft.to/lastmile_qr_scan"}, "lon": -77.023921, "type": "electric_scooter", "fusion_lat": 0.0, "lat": 38.90709533333333, "name": "225eb2cc51736752da8911fd56fc81bb", "fusion_lon": 0.0, "bike_id": "225eb2cc51736752da8911fd56fc81bb", "is_disabled": 0, "is_reserved": 0}, {"rental_uris": {"ios": "https://dc.lft.to/lastmile_qr_scan", "android": "https://dc.lft.to/lastmile_qr_scan"}, "lon": -77.05961183333334, "type": "electric_scooter", "fusion_lat": 0.0, "lat": 38.91192216666666, "name": "7ce5d63f69f7d76d325294f551b7b8f2", "fusion_lon": 0.0, "bike_id": "7ce5d63f69f7d76d325294f551b7b8f2", "is_disabled": 0, "is_reserved": 0}, {"rental_uris": {"ios": "https://dc.lft.to/lastmile_qr_scan", "android": "https://dc.lft.to/lastmile_qr_scan"}, "lon": -76.96526366666667, "type": "electric_scooter", "fusion_lat": 0.0, "lat": 38.8762505, "name": "663688214496e4a5e386faed43a63329", "fusion_lon": 0.0, "bike_id": "663688214496e4a5e386faed43a63329", "is_disabled": 0, "is_reserved": 0}, {"rental_uris": {"ios": "https://dc.lft.to/lastmile_qr_scan", "android": "https://dc.lft.to/lastmile_qr_scan"}, "lon": -77.02724133333334, "type": "electric_scooter", "fusion_lat": 0.0, "lat": 38.918285, "name": "712ccce7e53d62bcaf60ae7c98bfba7c", "fusion_lon": 0.0, "bike_id": "712ccce7e53d62bcaf60ae7c98bfba7c", "is_disabled": 0, "is_reserved": 0}, {"rental_uris": {"ios": "https://dc.lft.to/lastmile_qr_scan", "android": "https://dc.lft.to/lastmile_qr_scan"}, "lon": -77.02945116666666, "type": "electric_scooter", "fusion_lat": 0.0, "lat": 38.915637833333335, "name": "af36ba387886b1555689e872ba23239c", "fusion_lon": 0.0, "bike_id": "af36ba387886b1555689e872ba23239c", "is_disabled": 0, "is_reserved": 0}, {"rental_uris": {"ios": "https://dc.lft.to/lastmile_qr_scan", "android": "https://dc.lft.to/lastmile_qr_scan"}, "lon": -77.01132216666667, "type": "electric_scooter", "fusion_lat": 0.0, "lat": 38.87085666666667, "name": "727c92754187592cb129205d7ddfda96", "fusion_lon": 0.0, "bike_id": "727c92754187592cb129205d7ddfda96", "is_disabled": 0, "is_reserved": 0}, {"rental_uris": {"ios": "https://dc.lft.to/lastmile_qr_scan", "android": "https://dc.lft.to/lastmile_qr_scan"}, "lon": -77.00768033333334, "type": "electric_scooter", "fusion_lat": 0.0, "lat": 38.87931366666667, "name": "f0550b5812d6f0ab854b117b4029e4eb", "fusion_lon": 0.0, "bike_id": "f0550b5812d6f0ab854b117b4029e4eb", "is_disabled": 0, "is_reserved": 0}, {"rental_uris": {"ios": "https://dc.lft.to/lastmile_qr_scan", "android": "https://dc.lft.to/lastmile_qr_scan"}, "lon": -77.01755, "type": "electric_scooter", "fusion_lat": 0.0, "lat": 38.876886, "name": "c44ba39bec6a264711debc20c38d54fd", "fusion_lon": 0.0, "bike_id": "c44ba39bec6a264711debc20c38d54fd", "is_disabled": 0, "is_reserved": 0}, {"rental_uris": {"ios": "https://dc.lft.to/lastmile_qr_scan", "android": "https://dc.lft.to/lastmile_qr_scan"}, "lon": -77.02698866666667, "type": "electric_scooter", "fusion_lat": 0.0, "lat": 38.949790166666666, "name": "84eb9ffec4372533d0e6a037f005248f", "fusion_lon": 0.0, "bike_id": "84eb9ffec4372533d0e6a037f005248f", "is_disabled": 0, "is_reserved": 0}, {"rental_uris": {"ios": "https://dc.lft.to/lastmile_qr_scan", "android": "https://dc.lft.to/lastmile_qr_scan"}, "lon": -76.99689166666667, "type": "electric_scooter", "fusion_lat": 0.0, "lat": 38.90011, "name": "f99c86607057aa20be00e5950527b781", "fusion_lon": 0.0, "bike_id": "f99c86607057aa20be00e5950527b781", "is_disabled": 0, "is_reserved": 0}, {"rental_uris": {"ios": "https://dc.lft.to/lastmile_qr_scan", "android": "https://dc.lft.to/lastmile_qr_scan"}, "lon": -77.04603916666667, "type": "electric_scooter", "fusion_lat": 0.0, "lat": 38.903934, "name": "16a2e9585bc1cb87392f957a1b85026d", "fusion_lon": 0.0, "bike_id": "16a2e9585bc1cb87392f957a1b85026d", "is_disabled": 0, "is_reserved": 0}, {"rental_uris": {"ios": "https://dc.lft.to/lastmile_qr_scan", "android": "https://dc.lft.to/lastmile_qr_scan"}, "lon": -76.92890716666666, "type": "electric_scooter", "fusion_lat": 0.0, "lat": 38.893308166666664, "name": "9e5ed9b6916e8390af685fd46da6d3a0", "fusion_lon": 0.0, "bike_id": "9e5ed9b6916e8390af685fd46da6d3a0", "is_disabled": 0, "is_reserved": 0}, {"rental_uris": {"ios": "https://dc.lft.to/lastmile_qr_scan", "android": "https://dc.lft.to/lastmile_qr_scan"}, "lon": -76.96627, "type": "electric_bike", "fusion_lat": 0.0, "lat": 38.94199533333333, "name": "31e524ecb30a6c225ff19d47a16fae27", "fusion_lon": 0.0, "bike_id": "31e524ecb30a6c225ff19d47a16fae27", "is_disabled": 0, "is_reserved": 0}, {"rental_uris": {"ios": "https://dc.lft.to/lastmile_qr_scan", "android": "https://dc.lft.to/lastmile_qr_scan"}, "lon": -77.01112166666667, "type": "electric_scooter", "fusion_lat": 0.0, "lat": 38.915598833333334, "name": "a05a29456da8600a818b9e77cc26d898", "fusion_lon": 0.0, "bike_id": "a05a29456da8600a818b9e77cc26d898", "is_disabled": 0, "is_reserved": 0}, {"rental_uris": {"ios": "https://dc.lft.to/lastmile_qr_scan", "android": "https://dc.lft.to/lastmile_qr_scan"}, "lon": -77.02416833333334, "type": "electric_scooter", "fusion_lat": 0.0, "lat": 38.900621666666666, "name": "c06acae5c243bf232b8b2b9e83452594", "fusion_lon": 0.0, "bike_id": "c06acae5c243bf232b8b2b9e83452594", "is_disabled": 0, "is_reserved": 0}, {"rental_uris": {"ios": "https://dc.lft.to/lastmile_qr_scan", "android": "https://dc.lft.to/lastmile_qr_scan"}, "lon": -77.0444685, "type": "electric_scooter", "fusion_lat": 0.0, "lat": 38.9101695, "name": "66b90dd51bffe48051d64a370dba7f4d", "fusion_lon": 0.0, "bike_id": "66b90dd51bffe48051d64a370dba7f4d", "is_disabled": 0, "is_reserved": 0}, {"rental_uris": {"ios": "https://dc.lft.to/lastmile_qr_scan", "android": "https://dc.lft.to/lastmile_qr_scan"}, "lon": -77.03335966666667, "type": "electric_scooter", "fusion_lat": 0.0, "lat": 38.885337, "name": "ced51bb0ac20eac02649ce71d83d3cb2", "fusion_lon": 0.0, "bike_id": "ced51bb0ac20eac02649ce71d83d3cb2", "is_disabled": 0, "is_reserved": 0}, {"rental_uris": {"ios": "https://dc.lft.to/lastmile_qr_scan", "android": "https://dc.lft.to/lastmile_qr_scan"}, "lon": -77.02209466666666, "type": "electric_scooter", "fusion_lat": 0.0, "lat": 38.896234, "name": "d9fe2db1f0fb8241de0f8a3e7498f408", "fusion_lon": 0.0, "bike_id": "d9fe2db1f0fb8241de0f8a3e7498f408", "is_disabled": 0, "is_reserved": 0}, {"rental_uris": {"ios": "https://dc.lft.to/lastmile_qr_scan", "android": "https://dc.lft.to/lastmile_qr_scan"}, "lon": -77.04205783333333, "type": "electric_scooter", "fusion_lat": 0.0, "lat": 38.92315883333333, "name": "125543216ddfeafc4c396738a5f76fae", "fusion_lon": 0.0, "bike_id": "125543216ddfeafc4c396738a5f76fae", "is_disabled": 0, "is_reserved": 0}, {"rental_uris": {"ios": "https://dc.lft.to/lastmile_qr_scan", "android": "https://dc.lft.to/lastmile_qr_scan"}, "lon": -77.07046083333333, "type": "electric_bike", "fusion_lat": 0.0, "lat": 38.82444316666667, "name": "22f5733cbc090b81c96d2f095242ec03", "fusion_lon": 0.0, "bike_id": "22f5733cbc090b81c96d2f095242ec03", "is_disabled": 0, "is_reserved": 0}, {"rental_uris": {"ios": "https://dc.lft.to/lastmile_qr_scan", "android": "https://dc.lft.to/lastmile_qr_scan"}, "lon": -76.98566916666667, "type": "electric_scooter", "fusion_lat": 0.0, "lat": 38.90639766666666, "name": "8da66f501f6b1ded85205e7112cd3c00", "fusion_lon": 0.0, "bike_id": "8da66f501f6b1ded85205e7112cd3c00", "is_disabled": 0, "is_reserved": 0}, {"rental_uris": {"ios": "https://dc.lft.to/lastmile_qr_scan", "android": "https://dc.lft.to/lastmile_qr_scan"}, "lon": -77.03473666666666, "type": "electric_scooter", "fusion_lat": 0.0, "lat": 38.916967666666665, "name": "52937281d0788539003233b7b05d17b1", "fusion_lon": 0.0, "bike_id": "52937281d0788539003233b7b05d17b1", "is_disabled": 0, "is_reserved": 0}, {"rental_uris": {"ios": "https://dc.lft.to/lastmile_qr_scan", "android": "https://dc.lft.to/lastmile_qr_scan"}, "lon": -77.0413995, "type": "electric_scooter", "fusion_lat": 0.0, "lat": 38.92200533333333, "name": "32be8f8e6dd63f3c6f561fa64df6e4db", "fusion_lon": 0.0, "bike_id": "32be8f8e6dd63f3c6f561fa64df6e4db", "is_disabled": 0, "is_reserved": 0}, {"rental_uris": {"ios": "https://dc.lft.to/lastmile_qr_scan", "android": "https://dc.lft.to/lastmile_qr_scan"}, "lon": -77.03046116666667, "type": "electric_scooter", "fusion_lat": 0.0, "lat": 38.88428283333333, "name": "3ce28adfadf268851d98e28e722907f8", "fusion_lon": 0.0, "bike_id": "3ce28adfadf268851d98e28e722907f8", "is_disabled": 0, "is_reserved": 0}, {"rental_uris": {"ios": "https://dc.lft.to/lastmile_qr_scan", "android": "https://dc.lft.to/lastmile_qr_scan"}, "lon": -77.02722283333334, "type": "electric_scooter", "fusion_lat": 0.0, "lat": 38.91560116666667, "name": "434ed972e17a76580409c7a834610592", "fusion_lon": 0.0, "bike_id": "434ed972e17a76580409c7a834610592", "is_disabled": 0, "is_reserved": 0}, {"rental_uris": {"ios": "https://dc.lft.to/lastmile_qr_scan", "android": "https://dc.lft.to/lastmile_qr_scan"}, "lon": -77.02218066666667, "type": "electric_scooter", "fusion_lat": 0.0, "lat": 38.87909283333333, "name": "239ec39f472b0c6c23ef38a52c9c3ef5", "fusion_lon": 0.0, "bike_id": "239ec39f472b0c6c23ef38a52c9c3ef5", "is_disabled": 0, "is_reserved": 0}, {"rental_uris": {"ios": "https://dc.lft.to/lastmile_qr_scan", "android": "https://dc.lft.to/lastmile_qr_scan"}, "lon": -76.979047, "type": "electric_bike", "fusion_lat": 0.0, "lat": 38.888599666666664, "name": "76bafa53f1f4497c14eece3c0d55a452", "fusion_lon": 0.0, "bike_id": "76bafa53f1f4497c14eece3c0d55a452", "is_disabled": 0, "is_reserved": 0}, {"rental_uris": {"ios": "https://dc.lft.to/lastmile_qr_scan", "android": "https://dc.lft.to/lastmile_qr_scan"}, "lon": -77.04346966666667, "type": "electric_scooter", "fusion_lat": 0.0, "lat": 38.910375333333334, "name": "d9ad73003f99131295e6fea511c11157", "fusion_lon": 0.0, "bike_id": "d9ad73003f99131295e6fea511c11157", "is_disabled": 0, "is_reserved": 0}, {"rental_uris": {"ios": "https://dc.lft.to/lastmile_qr_scan", "android": "https://dc.lft.to/lastmile_qr_scan"}, "lon": -77.03897816666667, "type": "electric_scooter", "fusion_lat": 0.0, "lat": 38.922165666666665, "name": "32504c6e4c9fb6de584701deeea74b04", "fusion_lon": 0.0, "bike_id": "32504c6e4c9fb6de584701deeea74b04", "is_disabled": 0, "is_reserved": 0}, {"rental_uris": {"ios": "https://dc.lft.to/lastmile_qr_scan", "android": "https://dc.lft.to/lastmile_qr_scan"}, "lon": -77.05801, "type": "electric_scooter", "fusion_lat": 0.0, "lat": 38.90291033333333, "name": "663a2d6826ab82fc3b29cd59b8d15b6d", "fusion_lon": 0.0, "bike_id": "663a2d6826ab82fc3b29cd59b8d15b6d", "is_disabled": 0, "is_reserved": 0}, {"rental_uris": {"ios": "https://dc.lft.to/lastmile_qr_scan", "android": "https://dc.lft.to/lastmile_qr_scan"}, "lon": -77.08157316666667, "type": "electric_scooter", "fusion_lat": 0.0, "lat": 38.9470575, "name": "2388b6dcc7618c28871f815c966992d8", "fusion_lon": 0.0, "bike_id": "2388b6dcc7618c28871f815c966992d8", "is_disabled": 0, "is_reserved": 0}, {"rental_uris": {"ios": "https://dc.lft.to/lastmile_qr_scan", "android": "https://dc.lft.to/lastmile_qr_scan"}, "lon": -76.999499, "type": "electric_scooter", "fusion_lat": 0.0, "lat": 38.842927, "name": "220e0c8aa4d606ad904d0aea0fe2daed", "fusion_lon": 0.0, "bike_id": "220e0c8aa4d606ad904d0aea0fe2daed", "is_disabled": 0, "is_reserved": 0}, {"rental_uris": {"ios": "https://dc.lft.to/lastmile_qr_scan", "android": "https://dc.lft.to/lastmile_qr_scan"}, "lon": -77.03434383333334, "type": "electric_scooter", "fusion_lat": 0.0, "lat": 38.91802366666667, "name": "1d52bee82ea2ed06e1c5de6efb06ee67", "fusion_lon": 0.0, "bike_id": "1d52bee82ea2ed06e1c5de6efb06ee67", "is_disabled": 0, "is_reserved": 0}, {"rental_uris": {"ios": "https://dc.lft.to/lastmile_qr_scan", "android": "https://dc.lft.to/lastmile_qr_scan"}, "lon": -76.94623766666666, "type": "electric_bike", "fusion_lat": 0.0, "lat": 38.8323505, "name": "c0ed3f1c30ab24e51412e4703e8c5f02", "fusion_lon": 0.0, "bike_id": "c0ed3f1c30ab24e51412e4703e8c5f02", "is_disabled": 0, "is_reserved": 0}, {"rental_uris": {"ios": "https://dc.lft.to/lastmile_qr_scan", "android": "https://dc.lft.to/lastmile_qr_scan"}, "lon": -77.04367183333333, "type": "electric_scooter", "fusion_lat": 0.0, "lat": 38.93337866666667, "name": "6c520c23395c9a6a76717fbe76783fa2", "fusion_lon": 0.0, "bike_id": "6c520c23395c9a6a76717fbe76783fa2", "is_disabled": 0, "is_reserved": 0}, {"rental_uris": {"ios": "https://dc.lft.to/lastmile_qr_scan", "android": "https://dc.lft.to/lastmile_qr_scan"}, "lon": -77.03819516666667, "type": "electric_scooter", "fusion_lat": 0.0, "lat": 38.909660833333334, "name": "b66f194bbf661138da678a80597152f7", "fusion_lon": 0.0, "bike_id": "b66f194bbf661138da678a80597152f7", "is_disabled": 0, "is_reserved": 0}, {"rental_uris": {"ios": "https://dc.lft.to/lastmile_qr_scan", "android": "https://dc.lft.to/lastmile_qr_scan"}, "lon": -77.0217045, "type": "electric_scooter", "fusion_lat": 0.0, "lat": 38.893984333333336, "name": "b2dd65505c6687f8b5c81c1e15e69fab", "fusion_lon": 0.0, "bike_id": "b2dd65505c6687f8b5c81c1e15e69fab", "is_disabled": 0, "is_reserved": 0}, {"rental_uris": {"ios": "https://dc.lft.to/lastmile_qr_scan", "android": "https://dc.lft.to/lastmile_qr_scan"}, "lon": -77.02967066666666, "type": "electric_scooter", "fusion_lat": 0.0, "lat": 38.9083215, "name": "5d3c081ed94428bc5779cf65e04e5c23", "fusion_lon": 0.0, "bike_id": "5d3c081ed94428bc5779cf65e04e5c23", "is_disabled": 0, "is_reserved": 0}, {"rental_uris": {"ios": "https://dc.lft.to/lastmile_qr_scan", "android": "https://dc.lft.to/lastmile_qr_scan"}, "lon": -77.02750233333333, "type": "electric_scooter", "fusion_lat": 0.0, "lat": 38.9396475, "name": "d2c3063f7aea59d10810b9456a88d9d3", "fusion_lon": 0.0, "bike_id": "d2c3063f7aea59d10810b9456a88d9d3", "is_disabled": 0, "is_reserved": 0}, {"rental_uris": {"ios": "https://dc.lft.to/lastmile_qr_scan", "android": "https://dc.lft.to/lastmile_qr_scan"}, "lon": -76.9392685, "type": "electric_scooter", "fusion_lat": 0.0, "lat": 38.89298183333333, "name": "855ba6939142a006e8f30d3d2a653f99", "fusion_lon": 0.0, "bike_id": "855ba6939142a006e8f30d3d2a653f99", "is_disabled": 0, "is_reserved": 0}, {"rental_uris": {"ios": "https://dc.lft.to/lastmile_qr_scan", "android": "https://dc.lft.to/lastmile_qr_scan"}, "lon": -77.05054666666666, "type": "electric_scooter", "fusion_lat": 0.0, "lat": 38.92359233333333, "name": "5a4a28af27e67d3af5681233ed4c6cb6", "fusion_lon": 0.0, "bike_id": "5a4a28af27e67d3af5681233ed4c6cb6", "is_disabled": 0, "is_reserved": 0}, {"rental_uris": {"ios": "https://dc.lft.to/lastmile_qr_scan", "android": "https://dc.lft.to/lastmile_qr_scan"}, "lon": -77.02613933333333, "type": "electric_scooter", "fusion_lat": 0.0, "lat": 38.905138666666666, "name": "6ba13b486b2f18ff663eceabfb501b68", "fusion_lon": 0.0, "bike_id": "6ba13b486b2f18ff663eceabfb501b68", "is_disabled": 0, "is_reserved": 0}, {"rental_uris": {"ios": "https://dc.lft.to/lastmile_qr_scan", "android": "https://dc.lft.to/lastmile_qr_scan"}, "lon": -76.94862433333333, "type": "electric_scooter", "fusion_lat": 0.0, "lat": 38.895925166666665, "name": "dc1d5a87e1567726ae6cfa361cd1b8a8", "fusion_lon": 0.0, "bike_id": "dc1d5a87e1567726ae6cfa361cd1b8a8", "is_disabled": 0, "is_reserved": 0}, {"rental_uris": {"ios": "https://dc.lft.to/lastmile_qr_scan", "android": "https://dc.lft.to/lastmile_qr_scan"}, "lon": -77.01072566666667, "type": "electric_scooter", "fusion_lat": 0.0, "lat": 38.87472433333333, "name": "7d33bad7ab365bb4fcd9ef1351e7a09c", "fusion_lon": 0.0, "bike_id": "7d33bad7ab365bb4fcd9ef1351e7a09c", "is_disabled": 0, "is_reserved": 0}, {"rental_uris": {"ios": "https://dc.lft.to/lastmile_qr_scan", "android": "https://dc.lft.to/lastmile_qr_scan"}, "lon": -76.91666083333334, "type": "electric_bike", "fusion_lat": 0.0, "lat": 38.86869033333333, "name": "8b3af4f0fe987a0ca2d78de688e547f2", "fusion_lon": 0.0, "bike_id": "8b3af4f0fe987a0ca2d78de688e547f2", "is_disabled": 0, "is_reserved": 0}, {"rental_uris": {"ios": "https://dc.lft.to/lastmile_qr_scan", "android": "https://dc.lft.to/lastmile_qr_scan"}, "lon": -76.99001466666667, "type": "electric_scooter", "fusion_lat": 0.0, "lat": 38.903904833333335, "name": "ae7f6033dc01b90df6dd33201483ab2c", "fusion_lon": 0.0, "bike_id": "ae7f6033dc01b90df6dd33201483ab2c", "is_disabled": 0, "is_reserved": 0}, {"rental_uris": {"ios": "https://dc.lft.to/lastmile_qr_scan", "android": "https://dc.lft.to/lastmile_qr_scan"}, "lon": -77.03318616666667, "type": "electric_scooter", "fusion_lat": 0.0, "lat": 38.887849833333334, "name": "b67dd6652dfbae4e231e34ec00547a76", "fusion_lon": 0.0, "bike_id": "b67dd6652dfbae4e231e34ec00547a76", "is_disabled": 0, "is_reserved": 0}, {"rental_uris": {"ios": "https://dc.lft.to/lastmile_qr_scan", "android": "https://dc.lft.to/lastmile_qr_scan"}, "lon": -77.02415766666667, "type": "electric_scooter", "fusion_lat": 0.0, "lat": 38.921792333333336, "name": "eae8feb1653c6d56312daa6d0b25f52f", "fusion_lon": 0.0, "bike_id": "eae8feb1653c6d56312daa6d0b25f52f", "is_disabled": 0, "is_reserved": 0}, {"rental_uris": {"ios": "https://dc.lft.to/lastmile_qr_scan", "android": "https://dc.lft.to/lastmile_qr_scan"}, "lon": -77.0097675, "type": "electric_scooter", "fusion_lat": 0.0, "lat": 38.9141775, "name": "b178eeaae06d31f2ec402615e0f7778c", "fusion_lon": 0.0, "bike_id": "b178eeaae06d31f2ec402615e0f7778c", "is_disabled": 0, "is_reserved": 0}, {"rental_uris": {"ios": "https://dc.lft.to/lastmile_qr_scan", "android": "https://dc.lft.to/lastmile_qr_scan"}, "lon": -77.0486145, "type": "electric_scooter", "fusion_lat": 0.0, "lat": 38.906401833333334, "name": "da8bb291b5a507ae13a9cb8649fa226e", "fusion_lon": 0.0, "bike_id": "da8bb291b5a507ae13a9cb8649fa226e", "is_disabled": 0, "is_reserved": 0}, {"rental_uris": {"ios": "https://dc.lft.to/lastmile_qr_scan", "android": "https://dc.lft.to/lastmile_qr_scan"}, "lon": -77.04566733333333, "type": "electric_scooter", "fusion_lat": 0.0, "lat": 38.914061333333336, "name": "3cfceed7e61d99abb1ee0b6ff197558d", "fusion_lon": 0.0, "bike_id": "3cfceed7e61d99abb1ee0b6ff197558d", "is_disabled": 0, "is_reserved": 0}, {"rental_uris": {"ios": "https://dc.lft.to/lastmile_qr_scan", "android": "https://dc.lft.to/lastmile_qr_scan"}, "lon": -77.046437, "type": "electric_scooter", "fusion_lat": 0.0, "lat": 38.901179, "name": "c3ce6cc56f4b5cbf459efb6c1fcdbc02", "fusion_lon": 0.0, "bike_id": "c3ce6cc56f4b5cbf459efb6c1fcdbc02", "is_disabled": 0, "is_reserved": 0}, {"rental_uris": {"ios": "https://dc.lft.to/lastmile_qr_scan", "android": "https://dc.lft.to/lastmile_qr_scan"}, "lon": -76.94876566666667, "type": "electric_scooter", "fusion_lat": 0.0, "lat": 38.894809333333335, "name": "c6ed92d75168d3168031a78236f4ce72", "fusion_lon": 0.0, "bike_id": "c6ed92d75168d3168031a78236f4ce72", "is_disabled": 0, "is_reserved": 0}, {"rental_uris": {"ios": "https://dc.lft.to/lastmile_qr_scan", "android": "https://dc.lft.to/lastmile_qr_scan"}, "lon": -76.89541016666666, "type": "electric_bike", "fusion_lat": 0.0, "lat": 38.94553333333333, "name": "e541fa414f6c4c3aa5bc4b55b51eda9e", "fusion_lon": 0.0, "bike_id": "e541fa414f6c4c3aa5bc4b55b51eda9e", "is_disabled": 0, "is_reserved": 0}, {"rental_uris": {"ios": "https://dc.lft.to/lastmile_qr_scan", "android": "https://dc.lft.to/lastmile_qr_scan"}, "lon": -76.99152233333334, "type": "electric_scooter", "fusion_lat": 0.0, "lat": 38.89341616666667, "name": "4641773eafd8e9facc65b7ca030d2320", "fusion_lon": 0.0, "bike_id": "4641773eafd8e9facc65b7ca030d2320", "is_disabled": 0, "is_reserved": 0}, {"rental_uris": {"ios": "https://dc.lft.to/lastmile_qr_scan", "android": "https://dc.lft.to/lastmile_qr_scan"}, "lon": -77.04307966666667, "type": "electric_scooter", "fusion_lat": 0.0, "lat": 38.905712333333334, "name": "0fef3898363a4a451c17ac6052cc9826", "fusion_lon": 0.0, "bike_id": "0fef3898363a4a451c17ac6052cc9826", "is_disabled": 0, "is_reserved": 0}, {"rental_uris": {"ios": "https://dc.lft.to/lastmile_qr_scan", "android": "https://dc.lft.to/lastmile_qr_scan"}, "lon": -77.04531233333333, "type": "electric_scooter", "fusion_lat": 0.0, "lat": 38.903626833333334, "name": "c0465f9a836dc4c9c066e70981474e2f", "fusion_lon": 0.0, "bike_id": "c0465f9a836dc4c9c066e70981474e2f", "is_disabled": 0, "is_reserved": 0}, {"rental_uris": {"ios": "https://dc.lft.to/lastmile_qr_scan", "android": "https://dc.lft.to/lastmile_qr_scan"}, "lon": -77.01222133333333, "type": "electric_scooter", "fusion_lat": 0.0, "lat": 38.92028283333333, "name": "fd6e4d7d7b6a44ca9e2fc612b53a0ecf", "fusion_lon": 0.0, "bike_id": "fd6e4d7d7b6a44ca9e2fc612b53a0ecf", "is_disabled": 0, "is_reserved": 0}, {"rental_uris": {"ios": "https://dc.lft.to/lastmile_qr_scan", "android": "https://dc.lft.to/lastmile_qr_scan"}, "lon": -77.00154516666667, "type": "electric_scooter", "fusion_lat": 0.0, "lat": 38.872926666666665, "name": "931a2c9fed7ffccf876a5a9619b8e40f", "fusion_lon": 0.0, "bike_id": "931a2c9fed7ffccf876a5a9619b8e40f", "is_disabled": 0, "is_reserved": 0}, {"rental_uris": {"ios": "https://dc.lft.to/lastmile_qr_scan", "android": "https://dc.lft.to/lastmile_qr_scan"}, "lon": -76.9767375, "type": "electric_scooter", "fusion_lat": 0.0, "lat": 38.896182333333336, "name": "14ba8372f3b7baf3c73470c8494d54aa", "fusion_lon": 0.0, "bike_id": "14ba8372f3b7baf3c73470c8494d54aa", "is_disabled": 0, "is_reserved": 0}, {"rental_uris": {"ios": "https://dc.lft.to/lastmile_qr_scan", "android": "https://dc.lft.to/lastmile_qr_scan"}, "lon": -77.02151016666667, "type": "electric_bike", "fusion_lat": 0.0, "lat": 38.973266, "name": "b28c59e4f5c92a194c27adb312e9e928", "fusion_lon": 0.0, "bike_id": "b28c59e4f5c92a194c27adb312e9e928", "is_disabled": 0, "is_reserved": 0}, {"rental_uris": {"ios": "https://dc.lft.to/lastmile_qr_scan", "android": "https://dc.lft.to/lastmile_qr_scan"}, "lon": -77.02461233333334, "type": "electric_scooter", "fusion_lat": 0.0, "lat": 38.91694866666667, "name": "dbe3c045f525ac3ba40d9d41aa7deaf2", "fusion_lon": 0.0, "bike_id": "dbe3c045f525ac3ba40d9d41aa7deaf2", "is_disabled": 0, "is_reserved": 0}, {"rental_uris": {"ios": "https://dc.lft.to/lastmile_qr_scan", "android": "https://dc.lft.to/lastmile_qr_scan"}, "lon": -76.9943465, "type": "electric_scooter", "fusion_lat": 0.0, "lat": 38.9000485, "name": "2b7e3fee6c0d4079b3c5caa7387232c2", "fusion_lon": 0.0, "bike_id": "2b7e3fee6c0d4079b3c5caa7387232c2", "is_disabled": 0, "is_reserved": 0}, {"rental_uris": {"ios": "https://dc.lft.to/lastmile_qr_scan", "android": "https://dc.lft.to/lastmile_qr_scan"}, "lon": -77.02716083333334, "type": "electric_scooter", "fusion_lat": 0.0, "lat": 38.9167845, "name": "1bf5372288cdbcc2269d5e208fbc0230", "fusion_lon": 0.0, "bike_id": "1bf5372288cdbcc2269d5e208fbc0230", "is_disabled": 0, "is_reserved": 0}, {"rental_uris": {"ios": "https://dc.lft.to/lastmile_qr_scan", "android": "https://dc.lft.to/lastmile_qr_scan"}, "lon": -77.05292, "type": "electric_scooter", "fusion_lat": 0.0, "lat": 38.910567, "name": "529109587b435e7b5786b77b61a67188", "fusion_lon": 0.0, "bike_id": "529109587b435e7b5786b77b61a67188", "is_disabled": 0, "is_reserved": 0}, {"rental_uris": {"ios": "https://dc.lft.to/lastmile_qr_scan", "android": "https://dc.lft.to/lastmile_qr_scan"}, "lon": -77.04380166666667, "type": "electric_scooter", "fusion_lat": 0.0, "lat": 38.92066633333334, "name": "45551eb4f5c06d958ede365b07fa7fc5", "fusion_lon": 0.0, "bike_id": "45551eb4f5c06d958ede365b07fa7fc5", "is_disabled": 0, "is_reserved": 0}, {"rental_uris": {"ios": "https://dc.lft.to/lastmile_qr_scan", "android": "https://dc.lft.to/lastmile_qr_scan"}, "lon": -77.02203033333333, "type": "electric_scooter", "fusion_lat": 0.0, "lat": 38.916153, "name": "2d0d50c35a4a3f7688bc4bdd7f5fd028", "fusion_lon": 0.0, "bike_id": "2d0d50c35a4a3f7688bc4bdd7f5fd028", "is_disabled": 0, "is_reserved": 0}, {"rental_uris": {"ios": "https://dc.lft.to/lastmile_qr_scan", "android": "https://dc.lft.to/lastmile_qr_scan"}, "lon": -77.00920833333333, "type": "electric_scooter", "fusion_lat": 0.0, "lat": 38.89647866666667, "name": "7f9ae8a360cb271a7bfe5645c90ef6a1", "fusion_lon": 0.0, "bike_id": "7f9ae8a360cb271a7bfe5645c90ef6a1", "is_disabled": 0, "is_reserved": 0}, {"rental_uris": {"ios": "https://dc.lft.to/lastmile_qr_scan", "android": "https://dc.lft.to/lastmile_qr_scan"}, "lon": -77.01645583333334, "type": "electric_scooter", "fusion_lat": 0.0, "lat": 38.929373, "name": "98cf5a5454a25680ed6cd56c94fe95f1", "fusion_lon": 0.0, "bike_id": "98cf5a5454a25680ed6cd56c94fe95f1", "is_disabled": 0, "is_reserved": 0}, {"rental_uris": {"ios": "https://dc.lft.to/lastmile_qr_scan", "android": "https://dc.lft.to/lastmile_qr_scan"}, "lon": -77.02728466666667, "type": "electric_scooter", "fusion_lat": 0.0, "lat": 38.896480833333335, "name": "5ce99f8a456107011497ed9b801eccd0", "fusion_lon": 0.0, "bike_id": "5ce99f8a456107011497ed9b801eccd0", "is_disabled": 0, "is_reserved": 0}, {"rental_uris": {"ios": "https://dc.lft.to/lastmile_qr_scan", "android": "https://dc.lft.to/lastmile_qr_scan"},