{"data": {"bikes": [{"is_disabled": 0, "fusion_lon": 0.0, "fusion_lat": 0.0, "lat": 38.91346083333333, "type": "electric_scooter", "lon": -77.0415735, "bike_id": "5f8c4dbcd83e1b0539628a2735a305b8", "rental_uris": {"android": "https://dc.lft.to/lastmile_qr_scan", "ios": "https://dc.lft.to/lastmile_qr_scan"}, "name": "5f8c4dbcd83e1b0539628a2735a305b8", "is_reserved": 0}, {"is_disabled": 0, "fusion_lon": 0.0, "fusion_lat": 0.0, "lat": 38.9161395, "type": "electric_scooter", "lon": -77.0402455, "bike_id": "ed02834b4a965c2837faa652a2cd685f", "rental_uris": {"android": "https://dc.lft.to/lastmile_qr_scan", "ios": "https://dc.lft.to/lastmile_qr_scan"}, "name": "ed02834b4a965c2837faa652a2cd685f", "is_reserved": 0}, {"is_disabled": 0, "fusion_lon": 0.0, "fusion_lat": 0.0, "lat": 38.852825333333335, "type": "electric_bike", "lon": -76.98154466666666, "bike_id": "c7ac3848808dcc187e56330b3c9f5e88", "rental_uris": {"android": "https://dc.lft.to/lastmile_qr_scan", "ios": "https://dc.lft.to/lastmile_qr_scan"}, "name": "c7ac3848808dcc187e56330b3c9f5e88", "is_reserved": 0}, {"is_disabled": 0, "fusion_lon": 0.0, "fusion_lat": 0.0, "lat": 38.878792833333335, "type": "electric_scooter", "lon": -77.0231295, "bike_id": "f4b9537850a46146f373c75c5b1e1bfd", "rental_uris": {"android": "https://dc.lft.to/lastmile_qr_scan", "ios": "https://dc.lft.to/lastmile_qr_scan"}, "name": "f4b9537850a46146f373c75c5b1e1bfd", "is_reserved": 0}, {"is_disabled": 0, "fusion_lon": 0.0, "fusion_lat": 0.0, "lat": 38.90275716666667, "type": "electric_scooter", "lon": -77.034431, "bike_id": "f6567c2f138394e77e1392b3bbf8f6e4", "rental_uris": {"android": "https://dc.lft.to/lastmile_qr_scan", "ios": "https://dc.lft.to/lastmile_qr_scan"}, "name": "f6567c2f138394e77e1392b3bbf8f6e4", "is_reserved": 0}, {"is_disabled": 0, "fusion_lon": 0.0, "fusion_lat": 0.0, "lat": 38.904756166666665, "type": "electric_bike", "lon": -76.92949666666667, "bike_id": "f1478bc629f8e269721bf91448d39684", "rental_uris": {"android": "https://dc.lft.to/lastmile_qr_scan", "ios": "https://dc.lft.to/lastmile_qr_scan"}, "name": "f1478bc629f8e269721bf91448d39684", "is_reserved": 0}, {"is_disabled": 0, "fusion_lon": 0.0, "fusion_lat": 0.0, "lat": 38.93414033333333, "type": "electric_scooter", "lon": -77.0388675, "bike_id": "08439c00daa74d430e5524e41947b0fc", "rental_uris": {"android": "https://dc.lft.to/lastmile_qr_scan", "ios": "https://dc.lft.to/lastmile_qr_scan"}, "name": "08439c00daa74d430e5524e41947b0fc", "is_reserved": 0}, {"is_disabled": 0, "fusion_lon": 0.0, "fusion_lat": 0.0, "lat": 38.8984265, "type": "electric_bike", "lon": -77.02977783333333, "bike_id": "ca68ff13a327022bec88142a557351d6", "rental_uris": {"android": "https://dc.lft.to/lastmile_qr_scan", "ios": "https://dc.lft.to/lastmile_qr_scan"}, "name": "ca68ff13a327022bec88142a557351d6", "is_reserved": 0}, {"is_disabled": 0, "fusion_lon": 0.0, "fusion_lat": 0.0, "lat": 38.902779, "type": "electric_scooter", "lon": -77.0344685, "bike_id": "6e41e727a2d8b7d9ff081290b440af9b", "rental_uris": {"android": "https://dc.lft.to/lastmile_qr_scan", "ios": "https://dc.lft.to/lastmile_qr_scan"}, "name": "6e41e727a2d8b7d9ff081290b440af9b", "is_reserved": 0}, {"is_disabled": 0, "fusion_lon": 0.0, "fusion_lat": 0.0, "lat": 38.928514, "type": "electric_scooter", "lon": -76.99766133333333, "bike_id": "e0c227db31ae4923d7570e54e4266f3d", "rental_uris": {"android": "https://dc.lft.to/lastmile_qr_scan", "ios": "https://dc.lft.to/lastmile_qr_scan"}, "name": "e0c227db31ae4923d7570e54e4266f3d", "is_reserved": 0}, {"is_disabled": 0, "fusion_lon": 0.0, "fusion_lat": 0.0, "lat": 38.93166133333333, "type": "electric_scooter", "lon": -77.07279933333334, "bike_id": "43a5a75ce884d1f1a4503671dc1d08da", "rental_uris": {"android": "https://dc.lft.to/lastmile_qr_scan", "ios": "https://dc.lft.to/lastmile_qr_scan"}, "name": "43a5a75ce884d1f1a4503671dc1d08da", "is_reserved": 0}, {"is_disabled": 0, "fusion_lon": 0.0, "fusion_lat": 0.0, "lat": 38.907782166666664, "type": "electric_scooter", "lon": -77.04668783333334, "bike_id": "f1ccb5c347ec366ac34aa681da4a2e24", "rental_uris": {"android": "https://dc.lft.to/lastmile_qr_scan", "ios": "https://dc.lft.to/lastmile_qr_scan"}, "name": "f1ccb5c347ec366ac34aa681da4a2e24", "is_reserved": 0}, {"is_disabled": 0, "fusion_lon": 0.0, "fusion_lat": 0.0, "lat": 38.92875516666667, "type": "electric_scooter", "lon": -77.033319, "bike_id": "0dd18fac5e3fd1e60d9e47a392554cba", "rental_uris": {"android": "https://dc.lft.to/lastmile_qr_scan", "ios": "https://dc.lft.to/lastmile_qr_scan"}, "name": "0dd18fac5e3fd1e60d9e47a392554cba", "is_reserved": 0}, {"is_disabled": 0, "fusion_lon": 0.0, "fusion_lat": 0.0, "lat": 38.900092, "type": "electric_scooter", "lon": -77.04365966666667, "bike_id": "aa838e2019787d573fc310e5cb27361e", "rental_uris": {"android": "https://dc.lft.to/lastmile_qr_scan", "ios": "https://dc.lft.to/lastmile_qr_scan"}, "name": "aa838e2019787d573fc310e5cb27361e", "is_reserved": 0}, {"is_disabled": 0, "fusion_lon": 0.0, "fusion_lat": 0.0, "lat": 38.920497166666664, "type": "electric_scooter", "lon": -77.02416216666667, "bike_id": "3394e40c69339a37372b0e0997a5febe", "rental_uris": {"android": "https://dc.lft.to/lastmile_qr_scan", "ios": "https://dc.lft.to/lastmile_qr_scan"}, "name": "3394e40c69339a37372b0e0997a5febe", "is_reserved": 0}, {"is_disabled": 0, "fusion_lon": 0.0, "fusion_lat": 0.0, "lat": 38.913285333333334, "type": "electric_scooter", "lon": -77.04169333333333, "bike_id": "1f750f39dd0f4c17848303ac3acabd98", "rental_uris": {"android": "https://dc.lft.to/lastmile_qr_scan", "ios": "https://dc.lft.to/lastmile_qr_scan"}, "name": "1f750f39dd0f4c17848303ac3acabd98", "is_reserved": 0}, {"is_disabled": 0, "fusion_lon": 0.0, "fusion_lat": 0.0, "lat": 38.906179333333334, "type": "electric_scooter", "lon": -77.0320565, "bike_id": "0980840c1e35eebfca2498a497c4f1ed", "rental_uris": {"android": "https://dc.lft.to/lastmile_qr_scan", "ios": "https://dc.lft.to/lastmile_qr_scan"}, "name": "0980840c1e35eebfca2498a497c4f1ed", "is_reserved": 0}, {"is_disabled": 0, "fusion_lon": 0.0, "fusion_lat": 0.0, "lat": 38.9007525, "type": "electric_scooter", "lon": -77.04432966666667, "bike_id": "5882415f584bed0d54e65593970e5d1c", "rental_uris": {"android": "https://dc.lft.to/lastmile_qr_scan", "ios": "https://dc.lft.to/lastmile_qr_scan"}, "name": "5882415f584bed0d54e65593970e5d1c", "is_reserved": 0}, {"is_disabled": 0, "fusion_lon": 0.0, "fusion_lat": 0.0, "lat": 38.905589, "type": "electric_scooter", "lon": -77.06601366666666, "bike_id": "dbb60e1de3306d68f5f69ff48b64cd7e", "rental_uris": {"android": "https://dc.lft.to/lastmile_qr_scan", "ios": "https://dc.lft.to/lastmile_qr_scan"}, "name": "dbb60e1de3306d68f5f69ff48b64cd7e", "is_reserved": 0}, {"is_disabled": 0, "fusion_lon": 0.0, "fusion_lat": 0.0, "lat": 38.91238033333333, "type": "electric_scooter", "lon": -76.98446616666666, "bike_id": "b4b6941f3f73c0f8bd6a100ec2c030bd", "rental_uris": {"android": "https://dc.lft.to/lastmile_qr_scan", "ios": "https://dc.lft.to/lastmile_qr_scan"}, "name": "b4b6941f3f73c0f8bd6a100ec2c030bd", "is_reserved": 0}, {"is_disabled": 0, "fusion_lon": 0.0, "fusion_lat": 0.0, "lat": 38.870768, "type": "electric_bike", "lon": -77.1433885, "bike_id": "c7dc0b0f387776b203d5e81a93cd0c0a", "rental_uris": {"android": "https://dc.lft.to/lastmile_qr_scan", "ios": "https://dc.lft.to/lastmile_qr_scan"}, "name": "c7dc0b0f387776b203d5e81a93cd0c0a", "is_reserved": 0}, {"is_disabled": 0, "fusion_lon": 0.0, "fusion_lat": 0.0, "lat": 38.90528, "type": "electric_scooter", "lon": -77.06134233333333, "bike_id": "b4b9876017e529951c9911ab338da1cd", "rental_uris": {"android": "https://dc.lft.to/lastmile_qr_scan", "ios": "https://dc.lft.to/lastmile_qr_scan"}, "name": "b4b9876017e529951c9911ab338da1cd", "is_reserved": 0}, {"is_disabled": 0, "fusion_lon": 0.0, "fusion_lat": 0.0, "lat": 38.901493333333335, "type": "electric_scooter", "lon": -77.059275, "bike_id": "45a17c318c1cd324821d908f5d7b046f", "rental_uris": {"android": "https://dc.lft.to/lastmile_qr_scan", "ios": "https://dc.lft.to/lastmile_qr_scan"}, "name": "45a17c318c1cd324821d908f5d7b046f", "is_reserved": 0}, {"is_disabled": 0, "fusion_lon": 0.0, "fusion_lat": 0.0, "lat": 38.917629166666664, "type": "electric_scooter", "lon": -77.004951, "bike_id": "5cd1cc84f5c8b3b772d7c061807a5372", "rental_uris": {"android": "https://dc.lft.to/lastmile_qr_scan", "ios": "https://dc.lft.to/lastmile_qr_scan"}, "name": "5cd1cc84f5c8b3b772d7c061807a5372", "is_reserved": 0}, {"is_disabled": 0, "fusion_lon": 0.0, "fusion_lat": 0.0, "lat": 38.9491915, "type": "electric_scooter", "lon": -77.01855583333334, "bike_id": "230f75d08c2048f3f0e73d60f7984bd3", "rental_uris": {"android": "https://dc.lft.to/lastmile_qr_scan", "ios": "https://dc.lft.to/lastmile_qr_scan"}, "name": "230f75d08c2048f3f0e73d60f7984bd3", "is_reserved": 0}, {"is_disabled": 0, "fusion_lon": 0.0, "fusion_lat": 0.0, "lat": 38.92168933333333, "type": "electric_scooter", "lon": -77.05528416666667, "bike_id": "2adcb18609669ed633c5a65c13480252", "rental_uris": {"android": "https://dc.lft.to/lastmile_qr_scan", "ios": "https://dc.lft.to/lastmile_qr_scan"}, "name": "2adcb18609669ed633c5a65c13480252", "is_reserved": 0}, {"is_disabled": 0, "fusion_lon": 0.0, "fusion_lat": 0.0, "lat": 38.893510666666664, "type": "electric_scooter", "lon": -76.949428, "bike_id": "ca845f74028aff662cca2d547c4a3bbc", "rental_uris": {"android": "https://dc.lft.to/lastmile_qr_scan", "ios": "https://dc.lft.to/lastmile_qr_scan"}, "name": "ca845f74028aff662cca2d547c4a3bbc", "is_reserved": 0}, {"is_disabled": 0, "fusion_lon": 0.0, "fusion_lat": 0.0, "lat": 38.913426666666666, "type": "electric_scooter", "lon": -77.05210233333334, "bike_id": "d538f694ba2cadb3e77ef26b78606a9b", "rental_uris": {"android": "https://dc.lft.to/lastmile_qr_scan", "ios": "https://dc.lft.to/lastmile_qr_scan"}, "name": "d538f694ba2cadb3e77ef26b78606a9b", "is_reserved": 0}, {"is_disabled": 0, "fusion_lon": 0.0, "fusion_lat": 0.0, "lat": 38.93336933333333, "type": "electric_scooter", "lon": -77.04136483333333, "bike_id": "e7c943565397a5b0f9f69a4bd2d4431b", "rental_uris": {"android": "https://dc.lft.to/lastmile_qr_scan", "ios": "https://dc.lft.to/lastmile_qr_scan"}, "name": "e7c943565397a5b0f9f69a4bd2d4431b", "is_reserved": 0}, {"is_disabled": 0, "fusion_lon": 0.0, "fusion_lat": 0.0, "lat": 38.929382, "type": "electric_scooter", "lon": -77.01640183333333, "bike_id": "cf0aa0449a5cef5ed1be9fb273e72c68", "rental_uris": {"android": "https://dc.lft.to/lastmile_qr_scan", "ios": "https://dc.lft.to/lastmile_qr_scan"}, "name": "cf0aa0449a5cef5ed1be9fb273e72c68", "is_reserved": 0}, {"is_disabled": 0, "fusion_lon": 0.0, "fusion_lat": 0.0, "lat": 38.95744716666667, "type": "electric_scooter", "lon": -77.02432566666667, "bike_id": "676c3cc1d4771e19e0a504fbe6d211e7", "rental_uris": {"android": "https://dc.lft.to/lastmile_qr_scan", "ios": "https://dc.lft.to/lastmile_qr_scan"}, "name": "676c3cc1d4771e19e0a504fbe6d211e7", "is_reserved": 0}, {"is_disabled": 0, "fusion_lon": 0.0, "fusion_lat": 0.0, "lat": 38.90967966666667, "type": "electric_scooter", "lon": -77.085599, "bike_id": "4506b25cbe7eac9e0dbeab40b31a2dfa", "rental_uris": {"android": "https://dc.lft.to/lastmile_qr_scan", "ios": "https://dc.lft.to/lastmile_qr_scan"}, "name": "4506b25cbe7eac9e0dbeab40b31a2dfa", "is_reserved": 0}, {"is_disabled": 0, "fusion_lon": 0.0, "fusion_lat": 0.0, "lat": 38.8672055, "type": "electric_scooter", "lon": -76.97917, "bike_id": "cff76161b27082bd51893ac0742e1bac", "rental_uris": {"android": "https://dc.lft.to/lastmile_qr_scan", "ios": "https://dc.lft.to/lastmile_qr_scan"}, "name": "cff76161b27082bd51893ac0742e1bac", "is_reserved": 0}, {"is_disabled": 0, "fusion_lon": 0.0, "fusion_lat": 0.0, "lat": 38.9353165, "type": "electric_scooter", "lon": -77.02372866666667, "bike_id": "3b3117bd7049d6846970a206a685b28c", "rental_uris": {"android": "https://dc.lft.to/lastmile_qr_scan", "ios": "https://dc.lft.to/lastmile_qr_scan"}, "name": "3b3117bd7049d6846970a206a685b28c", "is_reserved": 0}, {"is_disabled": 0, "fusion_lon": 0.0, "fusion_lat": 0.0, "lat": 38.9847875, "type": "electric_scooter", "lon": -77.02648216666667, "bike_id": "20582423566be380a631d222acb013c6", "rental_uris": {"android": "https://dc.lft.to/lastmile_qr_scan", "ios": "https://dc.lft.to/lastmile_qr_scan"}, "name": "20582423566be380a631d222acb013c6", "is_reserved": 0}, {"is_disabled": 0, "fusion_lon": 0.0, "fusion_lat": 0.0, "lat": 38.88460083333333, "type": "electric_scooter", "lon": -76.9540495, "bike_id": "80b76dd317315bb2d238d6e3e2d3cd60", "rental_uris": {"android": "https://dc.lft.to/lastmile_qr_scan", "ios": "https://dc.lft.to/lastmile_qr_scan"}, "name": "80b76dd317315bb2d238d6e3e2d3cd60", "is_reserved": 0}, {"is_disabled": 0, "fusion_lon": 0.0, "fusion_lat": 0.0, "lat": 38.896677833333335, "type": "electric_scooter", "lon": -77.02316483333334, "bike_id": "51294bb010bf3cd8543cd52f28a203f7", "rental_uris": {"android": "https://dc.lft.to/lastmile_qr_scan", "ios": "https://dc.lft.to/lastmile_qr_scan"}, "name": "51294bb010bf3cd8543cd52f28a203f7", "is_reserved": 0}, {"is_disabled": 0, "fusion_lon": 0.0, "fusion_lat": 0.0, "lat": 38.921999666666665, "type": "electric_scooter", "lon": -76.99763166666666, "bike_id": "34b8478bc5ad24bb86d67a16516c3193", "rental_uris": {"android": "https://dc.lft.to/lastmile_qr_scan", "ios": "https://dc.lft.to/lastmile_qr_scan"}, "name": "34b8478bc5ad24bb86d67a16516c3193", "is_reserved": 0}, {"is_disabled": 0, "fusion_lon": 0.0, "fusion_lat": 0.0, "lat": 39.060661333333336, "type": "electric_bike", "lon": -77.0646865, "bike_id": "a42a237d84eefc34fbe061af7133bced", "rental_uris": {"android": "https://dc.lft.to/lastmile_qr_scan", "ios": "https://dc.lft.to/lastmile_qr_scan"}, "name": "a42a237d84eefc34fbe061af7133bced", "is_reserved": 0}, {"is_disabled": 0, "fusion_lon": 0.0, "fusion_lat": 0.0, "lat": 38.904227166666665, "type": "electric_scooter", "lon": -76.98547233333333, "bike_id": "7c50d98ff2617f53008a29573f7957a0", "rental_uris": {"android": "https://dc.lft.to/lastmile_qr_scan", "ios": "https://dc.lft.to/lastmile_qr_scan"}, "name": "7c50d98ff2617f53008a29573f7957a0", "is_reserved": 0}, {"is_disabled": 0, "fusion_lon": 0.0, "fusion_lat": 0.0, "lat": 38.91867666666667, "type": "electric_bike", "lon": -76.96081316666667, "bike_id": "7d71a90f074f9de24a8f881a53f2e2f7", "rental_uris": {"android": "https://dc.lft.to/lastmile_qr_scan", "ios": "https://dc.lft.to/lastmile_qr_scan"}, "name": "7d71a90f074f9de24a8f881a53f2e2f7", "is_reserved": 0}, {"is_disabled": 0, "fusion_lon": 0.0, "fusion_lat": 0.0, "lat": 38.9048565, "type": "electric_scooter", "lon": -77.0290995, "bike_id": "5331e504f0fd0ccac6adceb53f2fbeba", "rental_uris": {"android": "https://dc.lft.to/lastmile_qr_scan", "ios": "https://dc.lft.to/lastmile_qr_scan"}, "name": "5331e504f0fd0ccac6adceb53f2fbeba", "is_reserved": 0}, {"is_disabled": 0, "fusion_lon": 0.0, "fusion_lat": 0.0, "lat": 38.838108166666665, "type": "electric_scooter", "lon": -77.00431433333334, "bike_id": "f6b1e903266ee081adf858d232e87ccc", "rental_uris": {"android": "https://dc.lft.to/lastmile_qr_scan", "ios": "https://dc.lft.to/lastmile_qr_scan"}, "name": "f6b1e903266ee081adf858d232e87ccc", "is_reserved": 0}, {"is_disabled": 0, "fusion_lon": 0.0, "fusion_lat": 0.0, "lat": 38.930295, "type": "electric_scooter", "lon": -77.02343416666666, "bike_id": "81592f87d1763168ea5eb65fbafa79e3", "rental_uris": {"android": "https://dc.lft.to/lastmile_qr_scan", "ios": "https://dc.lft.to/lastmile_qr_scan"}, "name": "81592f87d1763168ea5eb65fbafa79e3", "is_reserved": 0}, {"is_disabled": 0, "fusion_lon": 0.0, "fusion_lat": 0.0, "lat": 38.944940333333335, "type": "electric_bike", "lon": -76.98661283333334, "bike_id": "4f3d6eb760c585411f02b74e9db4fdcc", "rental_uris": {"android": "https://dc.lft.to/lastmile_qr_scan", "ios": "https://dc.lft.to/lastmile_qr_scan"}, "name": "4f3d6eb760c585411f02b74e9db4fdcc", "is_reserved": 0}, {"is_disabled": 0, "fusion_lon": 0.0, "fusion_lat": 0.0, "lat": 38.91124583333333, "type": "electric_scooter", "lon": -77.03180366666666, "bike_id": "320828c78b26d66c5d60782a997a6994", "rental_uris": {"android": "https://dc.lft.to/lastmile_qr_scan", "ios": "https://dc.lft.to/lastmile_qr_scan"}, "name": "320828c78b26d66c5d60782a997a6994", "is_reserved": 0}, {"is_disabled": 0, "fusion_lon": 0.0, "fusion_lat": 0.0, "lat": 38.89016983333333, "type": "electric_scooter", "lon": -76.9373135, "bike_id": "6b53f56ec1ae09fc4e84a2a946e1f741", "rental_uris": {"android": "https://dc.lft.to/lastmile_qr_scan", "ios": "https://dc.lft.to/lastmile_qr_scan"}, "name": "6b53f56ec1ae09fc4e84a2a946e1f741", "is_reserved": 0}, {"is_disabled": 0, "fusion_lon": 0.0, "fusion_lat": 0.0, "lat": 38.9168785, "type": "electric_scooter", "lon": -77.031827, "bike_id": "e9bae1bb17b35756905d56b606a2ec59", "rental_uris": {"android": "https://dc.lft.to/lastmile_qr_scan", "ios": "https://dc.lft.to/lastmile_qr_scan"}, "name": "e9bae1bb17b35756905d56b606a2ec59", "is_reserved": 0}, {"is_disabled": 0, "fusion_lon": 0.0, "fusion_lat": 0.0, "lat": 38.901750666666665, "type": "electric_scooter", "lon": -77.02596, "bike_id": "7cdbe65c20dd12ef3dd553799a55870b", "rental_uris": {"android": "https://dc.lft.to/lastmile_qr_scan", "ios": "https://dc.lft.to/lastmile_qr_scan"}, "name": "7cdbe65c20dd12ef3dd553799a55870b", "is_reserved": 0}, {"is_disabled": 0, "fusion_lon": 0.0, "fusion_lat": 0.0, "lat": 38.909707, "type": "electric_scooter", "lon": -77.06764016666666, "bike_id": "f213c4e5b0f4981f8b548e9a62e8dfcf", "rental_uris": {"android": "https://dc.lft.to/lastmile_qr_scan", "ios": "https://dc.lft.to/lastmile_qr_scan"}, "name": "f213c4e5b0f4981f8b548e9a62e8dfcf", "is_reserved": 0}, {"is_disabled": 0, "fusion_lon": 0.0, "fusion_lat": 0.0, "lat": 38.92652983333333, "type": "electric_scooter", "lon": -77.03710933333333, "bike_id": "05054d40fac2c02cdbb5c0a1289dd637", "rental_uris": {"android": "https://dc.lft.to/lastmile_qr_scan", "ios": "https://dc.lft.to/lastmile_qr_scan"}, "name": "05054d40fac2c02cdbb5c0a1289dd637", "is_reserved": 0}, {"is_disabled": 0, "fusion_lon": 0.0, "fusion_lat": 0.0, "lat": 38.886012, "type": "electric_scooter", "lon": -77.01987833333334, "bike_id": "cafeb1720f028c23228031d0f3a64d6d", "rental_uris": {"android": "https://dc.lft.to/lastmile_qr_scan", "ios": "https://dc.lft.to/lastmile_qr_scan"}, "name": "cafeb1720f028c23228031d0f3a64d6d", "is_reserved": 0}, {"is_disabled": 0, "fusion_lon": 0.0, "fusion_lat": 0.0, "lat": 38.909404333333335, "type": "electric_scooter", "lon": -77.04670633333333, "bike_id": "37fc6a04bacfd9483478b034b01568c1", "rental_uris": {"android": "https://dc.lft.to/lastmile_qr_scan", "ios": "https://dc.lft.to/lastmile_qr_scan"}, "name": "37fc6a04bacfd9483478b034b01568c1", "is_reserved": 0}, {"is_disabled": 0, "fusion_lon": 0.0, "fusion_lat": 0.0, "lat": 38.87620616666667, "type": "electric_scooter", "lon": -76.9653905, "bike_id": "0756ebeac68b57b424c19d86ba5c4a90", "rental_uris": {"android": "https://dc.lft.to/lastmile_qr_scan", "ios": "https://dc.lft.to/lastmile_qr_scan"}, "name": "0756ebeac68b57b424c19d86ba5c4a90", "is_reserved": 0}, {"is_disabled": 0, "fusion_lon": 0.0, "fusion_lat": 0.0, "lat": 38.99090266666666, "type": "electric_bike", "lon": -76.874944, "bike_id": "3beb452df1c0a6ec27d42c03fb9b6f01", "rental_uris": {"android": "https://dc.lft.to/lastmile_qr_scan", "ios": "https://dc.lft.to/lastmile_qr_scan"}, "name": "3beb452df1c0a6ec27d42c03fb9b6f01", "is_reserved": 0}, {"is_disabled": 0, "fusion_lon": 0.0, "fusion_lat": 0.0, "lat": 38.9059695, "type": "electric_scooter", "lon": -77.0411345, "bike_id": "12744a9514717bf7a9d969ff39254325", "rental_uris": {"android": "https://dc.lft.to/lastmile_qr_scan", "ios": "https://dc.lft.to/lastmile_qr_scan"}, "name": "12744a9514717bf7a9d969ff39254325", "is_reserved": 0}, {"is_disabled": 0, "fusion_lon": 0.0, "fusion_lat": 0.0, "lat": 38.90137983333334, "type": "electric_scooter", "lon": -77.0007565, "bike_id": "5b5a0bcf368dcf82175ff9b188594af8", "rental_uris": {"android": "https://dc.lft.to/lastmile_qr_scan", "ios": "https://dc.lft.to/lastmile_qr_scan"}, "name": "5b5a0bcf368dcf82175ff9b188594af8", "is_reserved": 0}, {"is_disabled": 0, "fusion_lon": 0.0, "fusion_lat": 0.0, "lat": 38.910096, "type": "electric_scooter", "lon": -77.00767533333334, "bike_id": "d45930f2a3bd2a8d91d8e5443f6f4d1b", "rental_uris": {"android": "https://dc.lft.to/lastmile_qr_scan", "ios": "https://dc.lft.to/lastmile_qr_scan"}, "name": "d45930f2a3bd2a8d91d8e5443f6f4d1b", "is_reserved": 0}, {"is_disabled": 0, "fusion_lon": 0.0, "fusion_lat": 0.0, "lat": 38.892218666666665, "type": "electric_scooter", "lon": -77.02216766666666, "bike_id": "5b8d35f3ac2c4754f94d36253f9a2688", "rental_uris": {"android": "https://dc.lft.to/lastmile_qr_scan", "ios": "https://dc.lft.to/lastmile_qr_scan"}, "name": "5b8d35f3ac2c4754f94d36253f9a2688", "is_reserved": 0}, {"is_disabled": 0, "fusion_lon": 0.0, "fusion_lat": 0.0, "lat": 38.8964695, "type": "electric_scooter", "lon": -77.03215983333334, "bike_id": "23651791fbcc0cdc878b11be58ef0acd", "rental_uris": {"android": "https://dc.lft.to/lastmile_qr_scan", "ios": "https://dc.lft.to/lastmile_qr_scan"}, "name": "23651791fbcc0cdc878b11be58ef0acd", "is_reserved": 0}, {"is_disabled": 0, "fusion_lon": 0.0, "fusion_lat": 0.0, "lat": 38.896763166666666, "type": "electric_scooter", "lon": -77.05124316666667, "bike_id": "9d9258652861b4617322a07786590ab8", "rental_uris": {"android": "https://dc.lft.to/lastmile_qr_scan", "ios": "https://dc.lft.to/lastmile_qr_scan"}, "name": "9d9258652861b4617322a07786590ab8", "is_reserved": 0}, {"is_disabled": 0, "fusion_lon": 0.0, "fusion_lat": 0.0, "lat": 38.92155183333333, "type": "electric_scooter", "lon": -77.03401433333333, "bike_id": "608319dde0b54bf07752b1e1203dbe7e", "rental_uris": {"android": "https://dc.lft.to/lastmile_qr_scan", "ios": "https://dc.lft.to/lastmile_qr_scan"}, "name": "608319dde0b54bf07752b1e1203dbe7e", "is_reserved": 0}, {"is_disabled": 0, "fusion_lon": 0.0, "fusion_lat": 0.0, "lat": 38.9038595, "type": "electric_scooter", "lon": -77.0354115, "bike_id": "17883f99b42786c4f92f0eef403a8dba", "rental_uris": {"android": "https://dc.lft.to/lastmile_qr_scan", "ios": "https://dc.lft.to/lastmile_qr_scan"}, "name": "17883f99b42786c4f92f0eef403a8dba", "is_reserved": 0}, {"is_disabled": 0, "fusion_lon": 0.0, "fusion_lat": 0.0, "lat": 38.91152733333333, "type": "electric_scooter", "lon": -77.02380266666667, "bike_id": "2ef96ffcf692d359c9045a14f3a93c20", "rental_uris": {"android": "https://dc.lft.to/lastmile_qr_scan", "ios": "https://dc.lft.to/lastmile_qr_scan"}, "name": "2ef96ffcf692d359c9045a14f3a93c20", "is_reserved": 0}, {"is_disabled": 0, "fusion_lon": 0.0, "fusion_lat": 0.0, "lat": 38.8650035, "type": "electric_scooter", "lon": -76.98980016666667, "bike_id": "aceb70d32f9a258cd885b3143a3d3088", "rental_uris": {"android": "https://dc.lft.to/lastmile_qr_scan", "ios": "https://dc.lft.to/lastmile_qr_scan"}, "name": "aceb70d32f9a258cd885b3143a3d3088", "is_reserved": 0}, {"is_disabled": 0, "fusion_lon": 0.0, "fusion_lat": 0.0, "lat": 38.913363833333335, "type": "electric_scooter", "lon": -77.041619, "bike_id": "1e5db7b9eed1f457c6245a34f68e7503", "rental_uris": {"android": "https://dc.lft.to/lastmile_qr_scan", "ios": "https://dc.lft.to/lastmile_qr_scan"}, "name": "1e5db7b9eed1f457c6245a34f68e7503", "is_reserved": 0}, {"is_disabled": 0, "fusion_lon": 0.0, "fusion_lat": 0.0, "lat": 38.87680566666667, "type": "electric_scooter", "lon": -77.017874, "bike_id": "71a02ea810bcf7f0f9672f268339bc44", "rental_uris": {"android": "https://dc.lft.to/lastmile_qr_scan", "ios": "https://dc.lft.to/lastmile_qr_scan"}, "name": "71a02ea810bcf7f0f9672f268339bc44", "is_reserved": 0}, {"is_disabled": 0, "fusion_lon": 0.0, "fusion_lat": 0.0, "lat": 38.902877, "type": "electric_scooter", "lon": -77.0343325, "bike_id": "6f0090b824a4360004e8c28ae3715831", "rental_uris": {"android": "https://dc.lft.to/lastmile_qr_scan", "ios": "https://dc.lft.to/lastmile_qr_scan"}, "name": "6f0090b824a4360004e8c28ae3715831", "is_reserved": 0}, {"is_disabled": 0, "fusion_lon": 0.0, "fusion_lat": 0.0, "lat": 38.916935333333335, "type": "electric_scooter", "lon": -77.03627366666667, "bike_id": "c0f9233017d4d111579be4d0789d2679", "rental_uris": {"android": "https://dc.lft.to/lastmile_qr_scan", "ios": "https://dc.lft.to/lastmile_qr_scan"}, "name": "c0f9233017d4d111579be4d0789d2679", "is_reserved": 0}, {"is_disabled": 0, "fusion_lon": 0.0, "fusion_lat": 0.0, "lat": 38.88380933333333, "type": "electric_scooter", "lon": -77.04606866666667, "bike_id": "342d57792044967802df901259ea9c10", "rental_uris": {"android": "https://dc.lft.to/lastmile_qr_scan", "ios": "https://dc.lft.to/lastmile_qr_scan"}, "name": "342d57792044967802df901259ea9c10", "is_reserved": 0}, {"is_disabled": 0, "fusion_lon": 0.0, "fusion_lat": 0.0, "lat": 38.90541183333333, "type": "electric_scooter", "lon": -77.02204983333333, "bike_id": "101098f0e1406e01c595322fd017b518", "rental_uris": {"android": "https://dc.lft.to/lastmile_qr_scan", "ios": "https://dc.lft.to/lastmile_qr_scan"}, "name": "101098f0e1406e01c595322fd017b518", "is_reserved": 0}, {"is_disabled": 0, "fusion_lon": 0.0, "fusion_lat": 0.0, "lat": 38.9027205, "type": "electric_scooter", "lon": -77.03465733333333, "bike_id": "7895ae84b113c8fbf220c043475536a7", "rental_uris": {"android": "https://dc.lft.to/lastmile_qr_scan", "ios": "https://dc.lft.to/lastmile_qr_scan"}, "name": "7895ae84b113c8fbf220c043475536a7", "is_reserved": 0}, {"is_disabled": 0, "fusion_lon": 0.0, "fusion_lat": 0.0, "lat": 38.89960633333333, "type": "electric_scooter", "lon": -77.03198633333334, "bike_id": "1b29e6cee40381176ffa6592c1e80d37", "rental_uris": {"android": "https://dc.lft.to/lastmile_qr_scan", "ios": "https://dc.lft.to/lastmile_qr_scan"}, "name": "1b29e6cee40381176ffa6592c1e80d37", "is_reserved": 0}, {"is_disabled": 0, "fusion_lon": 0.0, "fusion_lat": 0.0, "lat": 38.9184225, "type": "electric_scooter", "lon": -77.01639866666666, "bike_id": "51b9167c89d12ba659f5511b3622e1e9", "rental_uris": {"android": "https://dc.lft.to/lastmile_qr_scan", "ios": "https://dc.lft.to/lastmile_qr_scan"}, "name": "51b9167c89d12ba659f5511b3622e1e9", "is_reserved": 0}, {"is_disabled": 0, "fusion_lon": 0.0, "fusion_lat": 0.0, "lat": 38.935709833333334, "type": "electric_scooter", "lon": -77.05874566666667, "bike_id": "67e17aa056beec6f32dcc7000a2ac200", "rental_uris": {"android": "https://dc.lft.to/lastmile_qr_scan", "ios": "https://dc.lft.to/lastmile_qr_scan"}, "name": "67e17aa056beec6f32dcc7000a2ac200", "is_reserved": 0}, {"is_disabled": 0, "fusion_lon": 0.0, "fusion_lat": 0.0, "lat": 38.912881166666665, "type": "electric_scooter", "lon": -76.98690033333334, "bike_id": "a39bc71e53cc641a2d36275266266cfb", "rental_uris": {"android": "https://dc.lft.to/lastmile_qr_scan", "ios": "https://dc.lft.to/lastmile_qr_scan"}, "name": "a39bc71e53cc641a2d36275266266cfb", "is_reserved": 0}, {"is_disabled": 0, "fusion_lon": 0.0, "fusion_lat": 0.0, "lat": 38.89909166666666, "type": "electric_scooter", "lon": -76.93391716666666, "bike_id": "2b292f0c10acfcd32374d00a33492b71", "rental_uris": {"android": "https://dc.lft.to/lastmile_qr_scan", "ios": "https://dc.lft.to/lastmile_qr_scan"}, "name": "2b292f0c10acfcd32374d00a33492b71", "is_reserved": 0}, {"is_disabled": 0, "fusion_lon": 0.0, "fusion_lat": 0.0, "lat": 38.89710816666667, "type": "electric_scooter", "lon": -77.02443733333334, "bike_id": "ac7cd4988e039df59fad269c46390821", "rental_uris": {"android": "https://dc.lft.to/lastmile_qr_scan", "ios": "https://dc.lft.to/lastmile_qr_scan"}, "name": "ac7cd4988e039df59fad269c46390821", "is_reserved": 0}, {"is_disabled": 0, "fusion_lon": 0.0, "fusion_lat": 0.0, "lat": 38.90564966666667, "type": "electric_scooter", "lon": -77.04079133333333, "bike_id": "bab87d125bc1d8a788a37592f223193d", "rental_uris": {"android": "https://dc.lft.to/lastmile_qr_scan", "ios": "https://dc.lft.to/lastmile_qr_scan"}, "name": "bab87d125bc1d8a788a37592f223193d", "is_reserved": 0}, {"is_disabled": 0, "fusion_lon": 0.0, "fusion_lat": 0.0, "lat": 38.93496716666667, "type": "electric_scooter", "lon": -77.02416066666666, "bike_id": "f28c4eaa45592d2120ce10ee6e6fa607", "rental_uris": {"android": "https://dc.lft.to/lastmile_qr_scan", "ios": "https://dc.lft.to/lastmile_qr_scan"}, "name": "f28c4eaa45592d2120ce10ee6e6fa607", "is_reserved": 0}, {"is_disabled": 0, "fusion_lon": 0.0, "fusion_lat": 0.0, "lat": 38.900548, "type": "electric_scooter", "lon": -77.0444545, "bike_id": "f2b54fad0c4900f3c06b81bdd1d99015", "rental_uris": {"android": "https://dc.lft.to/lastmile_qr_scan", "ios": "https://dc.lft.to/lastmile_qr_scan"}, "name": "f2b54fad0c4900f3c06b81bdd1d99015", "is_reserved": 0}, {"is_disabled": 0, "fusion_lon": 0.0, "fusion_lat": 0.0, "lat": 38.96920183333334, "type": "electric_bike", "lon": -77.02619283333334, "bike_id": "ccedaf96f50873d39653a8d46ea10a68", "rental_uris": {"android": "https://dc.lft.to/lastmile_qr_scan", "ios": "https://dc.lft.to/lastmile_qr_scan"}, "name": "ccedaf96f50873d39653a8d46ea10a68", "is_reserved": 0}, {"is_disabled": 0, "fusion_lon": 0.0, "fusion_lat": 0.0, "lat": 38.8427385, "type": "electric_bike", "lon": -76.98842516666667, "bike_id": "03306c09269b89ee2a42f626a30a2a37", "rental_uris": {"android": "https://dc.lft.to/lastmile_qr_scan", "ios": "https://dc.lft.to/lastmile_qr_scan"}, "name": "03306c09269b89ee2a42f626a30a2a37", "is_reserved": 0}, {"is_disabled": 0, "fusion_lon": 0.0, "fusion_lat": 0.0, "lat": 38.957861333333334, "type": "electric_scooter", "lon": -77.02470966666667, "bike_id": "d6c38432ebd12d9ec865414fb9b5001b", "rental_uris": {"android": "https://dc.lft.to/lastmile_qr_scan", "ios": "https://dc.lft.to/lastmile_qr_scan"}, "name": "d6c38432ebd12d9ec865414fb9b5001b", "is_reserved": 0}, {"is_disabled": 0, "fusion_lon": 0.0, "fusion_lat": 0.0, "lat": 38.9009345, "type": "electric_scooter", "lon": -76.98838233333333, "bike_id": "3cbc59d6f819623ef4c8cd5b16b63768", "rental_uris": {"android": "https://dc.lft.to/lastmile_qr_scan", "ios": "https://dc.lft.to/lastmile_qr_scan"}, "name": "3cbc59d6f819623ef4c8cd5b16b63768", "is_reserved": 0}, {"is_disabled": 0, "fusion_lon": 0.0, "fusion_lat": 0.0, "lat": 38.91741283333333, "type": "electric_scooter", "lon": -77.032215, "bike_id": "9d4266e4ced06c4875a14a8d086fd58c", "rental_uris": {"android": "https://dc.lft.to/lastmile_qr_scan", "ios": "https://dc.lft.to/lastmile_qr_scan"}, "name": "9d4266e4ced06c4875a14a8d086fd58c", "is_reserved": 0}, {"is_disabled": 0, "fusion_lon": 0.0, "fusion_lat": 0.0, "lat": 38.92109833333333, "type": "electric_scooter", "lon": -77.0437705, "bike_id": "a44b24372ad194cb15eda279bc609d94", "rental_uris": {"android": "https://dc.lft.to/lastmile_qr_scan", "ios": "https://dc.lft.to/lastmile_qr_scan"}, "name": "a44b24372ad194cb15eda279bc609d94", "is_reserved": 0}, {"is_disabled": 0, "fusion_lon": 0.0, "fusion_lat": 0.0, "lat": 38.920518, "type": "electric_scooter", "lon": -77.0339285, "bike_id": "04e8e0e3f24679ddf73dad903a40f0a7", "rental_uris": {"android": "https://dc.lft.to/lastmile_qr_scan", "ios": "https://dc.lft.to/lastmile_qr_scan"}, "name": "04e8e0e3f24679ddf73dad903a40f0a7", "is_reserved": 0}, {"is_disabled": 0, "fusion_lon": 0.0, "fusion_lat": 0.0, "lat": 38.833799166666665, "type": "electric_scooter", "lon": -76.99295166666667, "bike_id": "116e5018ca24f41474fabd09ee375a8a", "rental_uris": {"android": "https://dc.lft.to/lastmile_qr_scan", "ios": "https://dc.lft.to/lastmile_qr_scan"}, "name": "116e5018ca24f41474fabd09ee375a8a", "is_reserved": 0}, {"is_disabled": 0, "fusion_lon": 0.0, "fusion_lat": 0.0, "lat": 38.902579833333334, "type": "electric_scooter", "lon": -77.02742933333333, "bike_id": "f6877ebb95de4f9feca7211652c90dcd", "rental_uris": {"android": "https://dc.lft.to/lastmile_qr_scan", "ios": "https://dc.lft.to/lastmile_qr_scan"}, "name": "f6877ebb95de4f9feca7211652c90dcd", "is_reserved": 0}, {"is_disabled": 0, "fusion_lon": 0.0, "fusion_lat": 0.0, "lat": 38.8948115, "type": "electric_scooter", "lon": -77.021931, "bike_id": "f3a7210fab520b8baef29d287fbc39b7", "rental_uris": {"android": "https://dc.lft.to/lastmile_qr_scan", "ios": "https://dc.lft.to/lastmile_qr_scan"}, "name": "f3a7210fab520b8baef29d287fbc39b7", "is_reserved": 0}, {"is_disabled": 0, "fusion_lon": 0.0, "fusion_lat": 0.0, "lat": 38.931453, "type": "electric_scooter", "lon": -77.02918833333334, "bike_id": "eaec509b303fafe71cdf70145df909e1", "rental_uris": {"android": "https://dc.lft.to/lastmile_qr_scan", "ios": "https://dc.lft.to/lastmile_qr_scan"}, "name": "eaec509b303fafe71cdf70145df909e1", "is_reserved": 0}, {"is_disabled": 0, "fusion_lon": 0.0, "fusion_lat": 0.0, "lat": 38.92468733333333, "type": "electric_scooter", "lon": -77.03957833333334, "bike_id": "83a2e0a643eebae66ac55b56658dd635", "rental_uris": {"android": "https://dc.lft.to/lastmile_qr_scan", "ios": "https://dc.lft.to/lastmile_qr_scan"}, "name": "83a2e0a643eebae66ac55b56658dd635", "is_reserved": 0}, {"is_disabled": 0, "fusion_lon": 0.0, "fusion_lat": 0.0, "lat": 38.9222575, "type": "electric_scooter", "lon": -77.02231716666667, "bike_id": "ada2244a2c20a6e7212023de09952bcd", "rental_uris": {"android": "https://dc.lft.to/lastmile_qr_scan", "ios": "https://dc.lft.to/lastmile_qr_scan"}, "name": "ada2244a2c20a6e7212023de09952bcd", "is_reserved": 0}, {"is_disabled": 0, "fusion_lon": 0.0, "fusion_lat": 0.0, "lat": 38.92531116666667, "type": "electric_scooter", "lon": -77.073282, "bike_id": "99dc8e0bb8beb72325ecd984d8e1704e", "rental_uris": {"android": "https://dc.lft.to/lastmile_qr_scan", "ios": "https://dc.lft.to/lastmile_qr_scan"}, "name": "99dc8e0bb8beb72325ecd984d8e1704e", "is_reserved": 0}, {"is_disabled": 0, "fusion_lon": 0.0, "fusion_lat": 0.0, "lat": 38.9290905, "type": "electric_scooter", "lon": -77.03184383333334, "bike_id": "764fcf2cb1504c769915042432f33a66", "rental_uris": {"android": "https://dc.lft.to/lastmile_qr_scan", "ios": "https://dc.lft.to/lastmile_qr_scan"}, "name": "764fcf2cb1504c769915042432f33a66", "is_reserved": 0}, {"is_disabled": 0, "fusion_lon": 0.0, "fusion_lat": 0.0, "lat": 38.94541783333333, "type": "electric_scooter", "lon": -77.025324, "bike_id": "ec9afcec925510a2673d8abfa9ed1307", "rental_uris": {"android": "https://dc.lft.to/lastmile_qr_scan", "ios": "https://dc.lft.to/lastmile_qr_scan"}, "name": "ec9afcec925510a2673d8abfa9ed1307", "is_reserved": 0}, {"is_disabled": 0, "fusion_lon": 0.0, "fusion_lat": 0.0, "lat": 38.934502, "type": "electric_scooter", "lon": -77.03057566666666, "bike_id": "4b95a6523113c4789d4e802363be2612", "rental_uris": {"android": "https://dc.lft.to/lastmile_qr_scan", "ios": "https://dc.lft.to/lastmile_qr_scan"}, "name": "4b95a6523113c4789d4e802363be2612", "is_reserved": 0}, {"is_disabled": 0, "fusion_lon": 0.0, "fusion_lat": 0.0, "lat": 38.912592, "type": "electric_scooter", "lon": -77.03894716666667, "bike_id": "84376555b1ad21c6879eacc3bd539850", "rental_uris": {"android": "https://dc.lft.to/lastmile_qr_scan", "ios": "https://dc.lft.to/lastmile_qr_scan"}, "name": "84376555b1ad21c6879eacc3bd539850", "is_reserved": 0}, {"is_disabled": 0, "fusion_lon": 0.0, "fusion_lat": 0.0, "lat": 38.8923055, "type": "electric_scooter", "lon": -77.04994366666666, "bike_id": "511bde6244a1d98377915a64dd89627e", "rental_uris": {"android": "https://dc.lft.to/lastmile_qr_scan", "ios": "https://dc.lft.to/lastmile_qr_scan"}, "name": "511bde6244a1d98377915a64dd89627e", "is_reserved": 0}, {"is_disabled": 0, "fusion_lon": 0.0, "fusion_lat": 0.0, "lat": 38.866971666666664, "type": "electric_scooter", "lon": -76.98711483333334, "bike_id": "67858b44fcfc631c7e021159e50f1514", "rental_uris": {"android": "https://dc.lft.to/lastmile_qr_scan", "ios": "https://dc.lft.to/lastmile_qr_scan"}, "name": "67858b44fcfc631c7e021159e50f1514", "is_reserved": 0}, {"is_disabled": 0, "fusion_lon": 0.0, "fusion_lat": 0.0, "lat": 38.9032055, "type": "electric_scooter", "lon": -77.036513, "bike_id": "50a5e776ca38101dda8a562740f9994f", "rental_uris": {"android": "https://dc.lft.to/lastmile_qr_scan", "ios": "https://dc.lft.to/lastmile_qr_scan"}, "name": "50a5e776ca38101dda8a562740f9994f", "is_reserved": 0}, {"is_disabled": 0, "fusion_lon": 0.0, "fusion_lat": 0.0, "lat": 38.9528595, "type": "electric_scooter", "lon": -77.068673, "bike_id": "81925ea1d274d6b6bdf985fb3989b7f1", "rental_uris": {"android": "https://dc.lft.to/lastmile_qr_scan", "ios": "https://dc.lft.to/lastmile_qr_scan"}, "name": "81925ea1d274d6b6bdf985fb3989b7f1", "is_reserved": 0}, {"is_disabled": 0, "fusion_lon": 0.0, "fusion_lat": 0.0, "lat": 38.894710833333335, "type": "electric_scooter", "lon": -77.0219235, "bike_id": "65886e7b5e879afdfab7ac42443fa454", "rental_uris": {"android": "https://dc.lft.to/lastmile_qr_scan", "ios": "https://dc.lft.to/lastmile_qr_scan"}, "name": "65886e7b5e879afdfab7ac42443fa454", "is_reserved": 0}, {"is_disabled": 0, "fusion_lon": 0.0, "fusion_lat": 0.0, "lat": 38.90554183333333, "type": "electric_scooter", "lon": -77.04355983333333, "bike_id": "1de95066e98f3afcd0de209fbe9bc4b1", "rental_uris": {"android": "https://dc.lft.to/lastmile_qr_scan", "ios": "https://dc.lft.to/lastmile_qr_scan"}, "name": "1de95066e98f3afcd0de209fbe9bc4b1", "is_reserved": 0}, {"is_disabled": 0, "fusion_lon": 0.0, "fusion_lat": 0.0, "lat": 38.897815333333334, "type": "electric_scooter", "lon": -77.02501783333334, "bike_id": "6723d4eb9d5b0a697739f2f23f004c8a", "rental_uris": {"android": "https://dc.lft.to/lastmile_qr_scan", "ios": "https://dc.lft.to/lastmile_qr_scan"}, "name": "6723d4eb9d5b0a697739f2f23f004c8a", "is_reserved": 0}, {"is_disabled": 0, "fusion_lon": 0.0, "fusion_lat": 0.0, "lat": 38.905555, "type": "electric_scooter", "lon": -77.03274416666666, "bike_id": "f9fe5a3b72dab4ec334e80d143db7040", "rental_uris": {"android": "https://dc.lft.to/lastmile_qr_scan", "ios": "https://dc.lft.to/lastmile_qr_scan"}, "name": "f9fe5a3b72dab4ec334e80d143db7040", "is_reserved": 0}, {"is_disabled": 0, "fusion_lon": 0.0, "fusion_lat": 0.0, "lat": 38.87687583333334, "type": "electric_scooter", "lon": -77.00067183333333, "bike_id": "db223738a2b512e90cda32d06415594a", "rental_uris": {"android": "https://dc.lft.to/lastmile_qr_scan", "ios": "https://dc.lft.to/lastmile_qr_scan"}, "name": "db223738a2b512e90cda32d06415594a", "is_reserved": 0}, {"is_disabled": 0, "fusion_lon": 0.0, "fusion_lat": 0.0, "lat": 38.95956983333333, "type": "electric_bike", "lon": -77.02510416666667, "bike_id": "1485e02f9282afbfbc43de2f5b7b1e6d", "rental_uris": {"android": "https://dc.lft.to/lastmile_qr_scan", "ios": "https://dc.lft.to/lastmile_qr_scan"}, "name": "1485e02f9282afbfbc43de2f5b7b1e6d", "is_reserved": 0}, {"is_disabled": 0, "fusion_lon": 0.0, "fusion_lat": 0.0, "lat": 38.91610566666667, "type": "electric_scooter", "lon": -77.03130483333334, "bike_id": "b07a5248aa873c644e935278d2e8bafc", "rental_uris": {"android": "https://dc.lft.to/lastmile_qr_scan", "ios": "https://dc.lft.to/lastmile_qr_scan"}, "name": "b07a5248aa873c644e935278d2e8bafc", "is_reserved": 0}, {"is_disabled": 0, "fusion_lon": 0.0, "fusion_lat": 0.0, "lat": 38.92758333333333, "type": "electric_scooter", "lon": -77.02844816666666, "bike_id": "b22c030710d9237b07be7b19997b516e", "rental_uris": {"android": "https://dc.lft.to/lastmile_qr_scan", "ios": "https://dc.lft.to/lastmile_qr_scan"}, "name": "b22c030710d9237b07be7b19997b516e", "is_reserved": 0}, {"is_disabled": 0, "fusion_lon": 0.0, "fusion_lat": 0.0, "lat": 38.96169166666667, "type": "electric_scooter", "lon": -77.07356466666667, "bike_id": "3837230f4e35b93110708b777fde2769", "rental_uris": {"android": "https://dc.lft.to/lastmile_qr_scan", "ios": "https://dc.lft.to/lastmile_qr_scan"}, "name": "3837230f4e35b93110708b777fde2769", "is_reserved": 0}, {"is_disabled": 0, "fusion_lon": 0.0, "fusion_lat": 0.0, "lat": 38.86528216666667, "type": "electric_scooter", "lon": -76.98968333333333, "bike_id": "a1e4ffb829e3e6240cbba7180db1b5b6", "rental_uris": {"android": "https://dc.lft.to/lastmile_qr_scan", "ios": "https://dc.lft.to/lastmile_qr_scan"}, "name": "a1e4ffb829e3e6240cbba7180db1b5b6", "is_reserved": 0}, {"is_disabled": 0, "fusion_lon": 0.0, "fusion_lat": 0.0, "lat": 38.858055666666665, "type": "electric_scooter", "lon": -76.986553, "bike_id": "6b05f627dcb77d06a1f8fdb15e71356d", "rental_uris": {"android": "https://dc.lft.to/lastmile_qr_scan", "ios": "https://dc.lft.to/lastmile_qr_scan"}, "name": "6b05f627dcb77d06a1f8fdb15e71356d", "is_reserved": 0}, {"is_disabled": 0, "fusion_lon": 0.0, "fusion_lat": 0.0, "lat": 38.926046166666666, "type": "electric_scooter", "lon": -77.056995, "bike_id": "96527d9770f8e0be7a0d28ab93c02112", "rental_uris": {"android": "https://dc.lft.to/lastmile_qr_scan", "ios": "https://dc.lft.to/lastmile_qr_scan"}, "name": "96527d9770f8e0be7a0d28ab93c02112", "is_reserved": 0}, {"is_disabled": 0, "fusion_lon": 0.0, "fusion_lat": 0.0, "lat": 38.911873166666666, "type": "electric_scooter", "lon": -77.0350015, "bike_id": "2addba3eaa778c384a4802dcdbe5c3dd", "rental_uris": {"android": "https://dc.lft.to/lastmile_qr_scan", "ios": "https://dc.lft.to/lastmile_qr_scan"}, "name": "2addba3eaa778c384a4802dcdbe5c3dd", "is_reserved": 0}, {"is_disabled": 0, "fusion_lon": 0.0, "fusion_lat": 0.0, "lat": 38.897164833333335, "type": "electric_scooter", "lon": -77.007971, "bike_id": "cd438efb8ed258c10d76e196897cae8c", "rental_uris": {"android": "https://dc.lft.to/lastmile_qr_scan", "ios": "https://dc.lft.to/lastmile_qr_scan"}, "name": "cd438efb8ed258c10d76e196897cae8c", "is_reserved": 0}, {"is_disabled": 0, "fusion_lon": 0.0, "fusion_lat": 0.0, "lat": 38.90682816666666, "type": "electric_scooter", "lon": -76.9799825, "bike_id": "50693c1da9754727576f861a8f93cfab", "rental_uris": {"android": "https://dc.lft.to/lastmile_qr_scan", "ios": "https://dc.lft.to/lastmile_qr_scan"}, "name": "50693c1da9754727576f861a8f93cfab", "is_reserved": 0}, {"is_disabled": 0, "fusion_lon": 0.0, "fusion_lat": 0.0, "lat": 38.916821666666664, "type": "electric_scooter", "lon": -77.02292783333333, "bike_id": "fa33cae15c450efbe8c003d2e79e634f", "rental_uris": {"android": "https://dc.lft.to/lastmile_qr_scan", "ios": "https://dc.lft.to/lastmile_qr_scan"}, "name": "fa33cae15c450efbe8c003d2e79e634f", "is_reserved": 0}, {"is_disabled": 0, "fusion_lon": 0.0, "fusion_lat": 0.0, "lat": 38.90872483333333, "type": "electric_scooter", "lon": -77.03540166666667, "bike_id": "567ae57712fe31b02900707f2c082d64", "rental_uris": {"android": "https://dc.lft.to/lastmile_qr_scan", "ios": "https://dc.lft.to/lastmile_qr_scan"}, "name": "567ae57712fe31b02900707f2c082d64", "is_reserved": 0}, {"is_disabled": 0, "fusion_lon": 0.0, "fusion_lat": 0.0, "lat": 38.922402, "type": "electric_scooter", "lon": -77.03903683333333, "bike_id": "0df5f518e0be874eaffbe1eb5d44d5ad", "rental_uris": {"android": "https://dc.lft.to/lastmile_qr_scan", "ios": "https://dc.lft.to/lastmile_qr_scan"}, "name": "0df5f518e0be874eaffbe1eb5d44d5ad", "is_reserved": 0}, {"is_disabled": 0, "fusion_lon": 0.0, "fusion_lat": 0.0, "lat": 38.901599, "type": "electric_scooter", "lon": -77.0231185, "bike_id": "97829f12be010da4ab8cbc22ea5db16d", "rental_uris": {"android": "https://dc.lft.to/lastmile_qr_scan", "ios": "https://dc.lft.to/lastmile_qr_scan"}, "name": "97829f12be010da4ab8cbc22ea5db16d", "is_reserved": 0}, {"is_disabled": 0, "fusion_lon": 0.0, "fusion_lat": 0.0, "lat": 38.94199316666667, "type": "electric_scooter", "lon": -77.025909, "bike_id": "19cad6ef901b800020199aafafa41e5b", "rental_uris": {"android": "https://dc.lft.to/lastmile_qr_scan", "ios": "https://dc.lft.to/lastmile_qr_scan"}, "name": "19cad6ef901b800020199aafafa41e5b", "is_reserved": 0}, {"is_disabled": 0, "fusion_lon": 0.0, "fusion_lat": 0.0, "lat": 38.90231966666666, "type": "electric_scooter", "lon": -77.04565433333333, "bike_id": "98eeb95cc8475ea3ae811c225996c4d9", "rental_uris": {"android": "https://dc.lft.to/lastmile_qr_scan", "ios": "https://dc.lft.to/lastmile_qr_scan"}, "name": "98eeb95cc8475ea3ae811c225996c4d9", "is_reserved": 0}, {"is_disabled": 0, "fusion_lon": 0.0, "fusion_lat": 0.0, "lat": 38.9345865, "type": "electric_scooter", "lon": -77.07238833333334, "bike_id": "0f9a7f899bb9dfaae848a1a762508db1", "rental_uris": {"android": "https://dc.lft.to/lastmile_qr_scan", "ios": "https://dc.lft.to/lastmile_qr_scan"}, "name": "0f9a7f899bb9dfaae848a1a762508db1", "is_reserved": 0}, {"is_disabled": 0, "fusion_lon": 0.0, "fusion_lat": 0.0, "lat": 38.9169175, "type": "electric_scooter", "lon": -77.03817933333333, "bike_id": "7c5923a9b3117bf96bc6eb32ba84f644", "rental_uris": {"android": "https://dc.lft.to/lastmile_qr_scan", "ios": "https://dc.lft.to/lastmile_qr_scan"}, "name": "7c5923a9b3117bf96bc6eb32ba84f644", "is_reserved": 0}, {"is_disabled": 0, "fusion_lon": 0.0, "fusion_lat": 0.0, "lat": 38.92873733333333, "type": "electric_scooter", "lon": -77.01399233333333, "bike_id": "816285893371cd7d6ffccb34843fe4b3", "rental_uris": {"android": "https://dc.lft.to/lastmile_qr_scan", "ios": "https://dc.lft.to/lastmile_qr_scan"}, "name": "816285893371cd7d6ffccb34843fe4b3", "is_reserved": 0}, {"is_disabled": 0, "fusion_lon": 0.0, "fusion_lat": 0.0, "lat": 38.900442166666664, "type": "electric_scooter", "lon": -76.92269683333333, "bike_id": "0592502cbc39ec195033376670f44f89", "rental_uris": {"android": "https://dc.lft.to/lastmile_qr_scan", "ios": "https://dc.lft.to/lastmile_qr_scan"}, "name": "0592502cbc39ec195033376670f44f89", "is_reserved": 0}, {"is_disabled": 0, "fusion_lon": 0.0, "fusion_lat": 0.0, "lat": 38.89558483333333, "type": "electric_scooter", "lon": -77.0466995, "bike_id": "cbf70edbc04569ef7b10818dc0936f1e", "rental_uris": {"android": "https://dc.lft.to/lastmile_qr_scan", "ios": "https://dc.lft.to/lastmile_qr_scan"}, "name": "cbf70edbc04569ef7b10818dc0936f1e", "is_reserved": 0}, {"is_disabled": 0, "fusion_lon": 0.0, "fusion_lat": 0.0, "lat": 38.862485666666664, "type": "electric_scooter", "lon": -76.99503416666667, "bike_id": "850ccf177419cf76e2e931390dcd9510", "rental_uris": {"android": "https://dc.lft.to/lastmile_qr_scan", "ios": "https://dc.lft.to/lastmile_qr_scan"}, "name": "850ccf177419cf76e2e931390dcd9510", "is_reserved": 0}, {"is_disabled": 0, "fusion_lon": 0.0, "fusion_lat": 0.0, "lat": 38.918239166666666, "type": "electric_scooter", "lon": -77.03441283333333, "bike_id": "424214fb599d5a2b8f893ddd9fb12ec3", "rental_uris": {"android": "https://dc.lft.to/lastmile_qr_scan", "ios": "https://dc.lft.to/lastmile_qr_scan"}, "name": "424214fb599d5a2b8f893ddd9fb12ec3", "is_reserved": 0}, {"is_disabled": 0, "fusion_lon": 0.0, "fusion_lat": 0.0, "lat": 38.93526816666667, "type": "electric_scooter", "lon": -77.02381933333334, "bike_id": "0ba57da768fa63795f1dd8c74c91616a", "rental_uris": {"android": "https://dc.lft.to/lastmile_qr_scan", "ios": "https://dc.lft.to/lastmile_qr_scan"}, "name": "0ba57da768fa63795f1dd8c74c91616a", "is_reserved": 0}, {"is_disabled": 0, "fusion_lon": 0.0, "fusion_lat": 0.0, "lat": 38.93051533333333, "type": "electric_scooter", "lon": -77.02331283333334, "bike_id": "4b7c81cbb20a746cc5c4442afb1f0f37", "rental_uris": {"android": "https://dc.lft.to/lastmile_qr_scan", "ios": "https://dc.lft.to/lastmile_qr_scan"}, "name": "4b7c81cbb20a746cc5c4442afb1f0f37", "is_reserved": 0}, {"is_disabled": 0, "fusion_lon": 0.0, "fusion_lat": 0.0, "lat": 38.9098605, "type": "electric_scooter", "lon": -77.02181166666666, "bike_id": "c854b00774927477266f8a9a72ceb292", "rental_uris": {"android": "https://dc.lft.to/lastmile_qr_scan", "ios": "https://dc.lft.to/lastmile_qr_scan"}, "name": "c854b00774927477266f8a9a72ceb292", "is_reserved": 0}, {"is_disabled": 0, "fusion_lon": 0.0, "fusion_lat": 0.0, "lat": 38.89370133333333, "type": "electric_scooter", "lon": -76.94997883333333, "bike_id": "70e2775703832fc3385f788363d8219d", "rental_uris": {"android": "https://dc.lft.to/lastmile_qr_scan", "ios": "https://dc.lft.to/lastmile_qr_scan"}, "name": "70e2775703832fc3385f788363d8219d", "is_reserved": 0}, {"is_disabled": 0, "fusion_lon": 0.0, "fusion_lat": 0.0, "lat": 38.89253166666667, "type": "electric_scooter", "lon": -77.02791433333333, "bike_id": "6dd9be8a23d93544293534740305855e", "rental_uris": {"android": "https://dc.lft.to/lastmile_qr_scan", "ios": "https://dc.lft.to/lastmile_qr_scan"}, "name": "6dd9be8a23d93544293534740305855e", "is_reserved": 0}, {"is_disabled": 0, "fusion_lon": 0.0, "fusion_lat": 0.0, "lat": 38.88733283333333, "type": "electric_scooter", "lon": -77.0032125, "bike_id": "3d9d68681df908aa42a464546da444bd", "rental_uris": {"android": "https://dc.lft.to/lastmile_qr_scan", "ios": "https://dc.lft.to/lastmile_qr_scan"}, "name": "3d9d68681df908aa42a464546da444bd", "is_reserved": 0}, {"is_disabled": 0, "fusion_lon": 0.0, "fusion_lat": 0.0, "lat": 38.990841833333334, "type": "electric_bike", "lon": -77.00172233333333, "bike_id": "06c14374b4365091d2c6fb6e152130ce", "rental_uris": {"android": "https://dc.lft.to/lastmile_qr_scan", "ios": "https://dc.lft.to/lastmile_qr_scan"}, "name": "06c14374b4365091d2c6fb6e152130ce", "is_reserved": 0}, {"is_disabled": 0, "fusion_lon": 0.0, "fusion_lat": 0.0, "lat": 38.920989666666664, "type": "electric_scooter", "lon": -77.0312965, "bike_id": "3c266a6e0f24d791bf4d7e16b9a0580f", "rental_uris": {"android": "https://dc.lft.to/lastmile_qr_scan", "ios": "https://dc.lft.to/lastmile_qr_scan"}, "name": "3c266a6e0f24d791bf4d7e16b9a0580f", "is_reserved": 0}, {"is_disabled": 0, "fusion_lon": 0.0, "fusion_lat": 0.0, "lat": 38.85713166666667, "type": "electric_bike", "lon": -76.9811205, "bike_id": "b0c75b4531ea04d539edd5e6da9a05ca", "rental_uris": {"android": "https://dc.lft.to/lastmile_qr_scan", "ios": "https://dc.lft.to/lastmile_qr_scan"}, "name": "b0c75b4531ea04d539edd5e6da9a05ca", "is_reserved": 0}, {"is_disabled": 0, "fusion_lon": 0.0, "fusion_lat": 0.0, "lat": 38.919291, "type": "electric_scooter", "lon": -77.032303, "bike_id": "a5540739eef49bb780acbb13c5482062", "rental_uris": {"android": "https://dc.lft.to/lastmile_qr_scan", "ios": "https://dc.lft.to/lastmile_qr_scan"}, "name": "a5540739eef49bb780acbb13c5482062", "is_reserved": 0}, {"is_disabled": 0, "fusion_lon": 0.0, "fusion_lat": 0.0, "lat": 38.831186833333334, "type": "electric_bike", "lon": -77.04325133333333, "bike_id": "e16b89ec149e6c11992f59b15294bf09", "rental_uris": {"android": "https://dc.lft.to/lastmile_qr_scan", "ios": "https://dc.lft.to/lastmile_qr_scan"}, "name": "e16b89ec149e6c11992f59b15294bf09", "is_reserved": 0}, {"is_disabled": 0, "fusion_lon": 0.0, "fusion_lat": 0.0, "lat": 39.115089, "type": "electric_bike", "lon": -77.1954305, "bike_id": "c9ca94b6d6deeca2a1de067b62f91efc", "rental_uris": {"android": "https://dc.lft.to/lastmile_qr_scan", "ios": "https://dc.lft.to/lastmile_qr_scan"}, "name": "c9ca94b6d6deeca2a1de067b62f91efc", "is_reserved": 0}, {"is_disabled": 0, "fusion_lon": 0.0, "fusion_lat": 0.0, "lat": 38.9304825, "type": "electric_scooter", "lon": -77.00416266666667, "bike_id": "2a7718808727b81871662dd261c1e835", "rental_uris": {"android": "https://dc.lft.to/lastmile_qr_scan", "ios": "https://dc.lft.to/lastmile_qr_scan"}, "name": "2a7718808727b81871662dd261c1e835", "is_reserved": 0}, {"is_disabled": 0, "fusion_lon": 0.0, "fusion_lat": 0.0, "lat": 38.8381075, "type": "electric_scooter", "lon": -77.004336, "bike_id": "69af6eddd15c3a3984361bf44fc10a24", "rental_uris": {"android": "https://dc.lft.to/lastmile_qr_scan", "ios": "https://dc.lft.to/lastmile_qr_scan"}, "name": "69af6eddd15c3a3984361bf44fc10a24", "is_reserved": 0}, {"is_disabled": 0, "fusion_lon": 0.0, "fusion_lat": 0.0, "lat": 38.99257883333333, "type": "electric_bike", "lon": -77.04995666666667, "bike_id": "1b56efd9a8a430e017ddaa6eb72ccc6c", "rental_uris": {"android": "https://dc.lft.to/lastmile_qr_scan", "ios": "https://dc.lft.to/lastmile_qr_scan"}, "name": "1b56efd9a8a430e017ddaa6eb72ccc6c", "is_reserved": 0}, {"is_disabled": 0, "fusion_lon": 0.0, "fusion_lat": 0.0, "lat": 38.943019666666665, "type": "electric_scooter", "lon": -77.02351466666667, "bike_id": "a479e26872251a7e81194b82f559046b", "rental_uris": {"android": "https://dc.lft.to/lastmile_qr_scan", "ios": "https://dc.lft.to/lastmile_qr_scan"}, "name": "a479e26872251a7e81194b82f559046b", "is_reserved": 0}, {"is_disabled": 0, "fusion_lon": 0.0, "fusion_lat": 0.0, "lat": 38.866379333333335, "type": "electric_scooter", "lon": -76.98303216666666, "bike_id": "4871d67ee037858eca848f2b004753b1", "rental_uris": {"android": "https://dc.lft.to/lastmile_qr_scan", "ios": "https://dc.lft.to/lastmile_qr_scan"}, "name": "4871d67ee037858eca848f2b004753b1", "is_reserved": 0}, {"is_disabled": 0, "fusion_lon": 0.0, "fusion_lat": 0.0, "lat": 38.915918, "type": "electric_bike", "lon": -76.97147216666667, "bike_id": "123668841121ef7b586aa79096e76846", "rental_uris": {"android": "https://dc.lft.to/lastmile_qr_scan", "ios": "https://dc.lft.to/lastmile_qr_scan"}, "name": "123668841121ef7b586aa79096e76846", "is_reserved": 0}, {"is_disabled": 0, "fusion_lon": 0.0, "fusion_lat": 0.0, "lat": 38.897496833333335, "type": "electric_scooter", "lon": -77.03031166666666, "bike_id": "46ffa8ee83db741b20f9296f49a3b37a", "rental_uris": {"android": "https://dc.lft.to/lastmile_qr_scan", "ios": "https://dc.lft.to/lastmile_qr_scan"}, "name": "46ffa8ee83db741b20f9296f49a3b37a", "is_reserved": 0}, {"is_disabled": 0, "fusion_lon": 0.0, "fusion_lat": 0.0, "lat": 38.9111875, "type": "electric_scooter", "lon": -77.02278716666666, "bike_id": "95bdb7397243e0e0baa6f67486715268", "rental_uris": {"android": "https://dc.lft.to/lastmile_qr_scan", "ios": "https://dc.lft.to/lastmile_qr_scan"}, "name": "95bdb7397243e0e0baa6f67486715268", "is_reserved": 0}, {"is_disabled": 0, "fusion_lon": 0.0, "fusion_lat": 0.0, "lat": 38.91986383333333, "type": "electric_bike", "lon": -76.97312066666667, "bike_id": "d5e2914fe46e960e0e4f99954f355c85", "rental_uris": {"android": "https://dc.lft.to/lastmile_qr_scan", "ios": "https://dc.lft.to/lastmile_qr_scan"}, "name": "d5e2914fe46e960e0e4f99954f355c85", "is_reserved": 0}, {"is_disabled": 0, "fusion_lon": 0.0, "fusion_lat": 0.0, "lat": 38.906606333333336, "type": "electric_scooter", "lon": -76.9822805, "bike_id": "cf4b1249104c7fb8169bdeb4c7929862", "rental_uris": {"android": "https://dc.lft.to/lastmile_qr_scan", "ios": "https://dc.lft.to/lastmile_qr_scan"}, "name": "cf4b1249104c7fb8169bdeb4c7929862", "is_reserved": 0}, {"is_disabled": 0, "fusion_lon": 0.0, "fusion_lat": 0.0, "lat": 38.89712083333333, "type": "electric_scooter", "lon": -77.01163866666667, "bike_id": "1adabfa35033b50e10c52838579a80ef", "rental_uris": {"android": "https://dc.lft.to/lastmile_qr_scan", "ios": "https://dc.lft.to/lastmile_qr_scan"}, "name": "1adabfa35033b50e10c52838579a80ef", "is_reserved": 0}, {"is_disabled": 0, "fusion_lon": 0.0, "fusion_lat": 0.0, "lat": 38.907387666666665, "type": "electric_scooter", "lon": -77.02273466666666, "bike_id": "11508d5f2d5bae7386758861a5534706", "rental_uris": {"android": "https://dc.lft.to/lastmile_qr_scan", "ios": "https://dc.lft.to/lastmile_qr_scan"}, "name": "11508d5f2d5bae7386758861a5534706", "is_reserved": 0}, {"is_disabled": 0, "fusion_lon": 0.0, "fusion_lat": 0.0, "lat": 38.933769, "type": "electric_scooter", "lon": -77.07251016666666, "bike_id": "418206d9f8aa5db587ed2d9b028bd9ac", "rental_uris": {"android": "https://dc.lft.to/lastmile_qr_scan", "ios": "https://dc.lft.to/lastmile_qr_scan"}, "name": "418206d9f8aa5db587ed2d9b028bd9ac", "is_reserved": 0}, {"is_disabled": 0, "fusion_lon": 0.0, "fusion_lat": 0.0, "lat": 38.9045945, "type": "electric_scooter", "lon": -77.03548983333333, "bike_id": "566d5871bd57fae624275abfca09b5d8", "rental_uris": {"android": "https://dc.lft.to/lastmile_qr_scan", "ios": "https://dc.lft.to/lastmile_qr_scan"}, "name": "566d5871bd57fae624275abfca09b5d8", "is_reserved": 0}, {"is_disabled": 0, "fusion_lon": 0.0, "fusion_lat": 0.0, "lat": 38.90616633333333, "type": "electric_scooter", "lon": -77.04174883333333, "bike_id": "172c6d21b8c3a872a3783f081a2eab7d", "rental_uris": {"android": "https://dc.lft.to/lastmile_qr_scan", "ios": "https://dc.lft.to/lastmile_qr_scan"}, "name": "172c6d21b8c3a872a3783f081a2eab7d", "is_reserved": 0}, {"is_disabled": 0, "fusion_lon": 0.0, "fusion_lat": 0.0, "lat": 38.896345333333336, "type": "electric_scooter", "lon": -77.00888683333334, "bike_id": "0a82919479fd95e4e34949577c2d2eb8", "rental_uris": {"android": "https://dc.lft.to/lastmile_qr_scan", "ios": "https://dc.lft.to/lastmile_qr_scan"}, "name": "0a82919479fd95e4e34949577c2d2eb8", "is_reserved": 0}, {"is_disabled": 0, "fusion_lon": 0.0, "fusion_lat": 0.0, "lat": 38.975416, "type": "electric_bike", "lon": -76.99527516666667, "bike_id": "19527959eda538cc99f660e2d0fdb463", "rental_uris": {"android": "https://dc.lft.to/lastmile_qr_scan", "ios": "https://dc.lft.to/lastmile_qr_scan"}, "name": "19527959eda538cc99f660e2d0fdb463", "is_reserved": 0}, {"is_disabled": 0, "fusion_lon": 0.0, "fusion_lat": 0.0, "lat": 38.93586083333334, "type": "electric_bike", "lon": -77.08246, "bike_id": "5cfb30ed46a2b57810df94dd70c97d5c", "rental_uris": {"android": "https://dc.lft.to/lastmile_qr_scan", "ios": "https://dc.lft.to/lastmile_qr_scan"}, "name": "5cfb30ed46a2b57810df94dd70c97d5c", "is_reserved": 0}, {"is_disabled": 0, "fusion_lon": 0.0, "fusion_lat": 0.0, "lat": 38.89967033333333, "type": "electric_bike", "lon": -76.98672816666667, "bike_id": "a14282f814871b4092dcc93ab24a0118", "rental_uris": {"android": "https://dc.lft.to/lastmile_qr_scan", "ios": "https://dc.lft.to/lastmile_qr_scan"}, "name": "a14282f814871b4092dcc93ab24a0118", "is_reserved": 0}, {"is_disabled": 0, "fusion_lon": 0.0, "fusion_lat": 0.0, "lat": 38.93176033333334, "type": "electric_scooter", "lon": -77.072537, "bike_id": "636b7303081d3088c8fc6a524310e4af", "rental_uris": {"android": "https://dc.lft.to/lastmile_qr_scan", "ios": "https://dc.lft.to/lastmile_qr_scan"}, "name": "636b7303081d3088c8fc6a524310e4af", "is_reserved": 0}, {"is_disabled": 0, "fusion_lon": 0.0, "fusion_lat": 0.0, "lat": 38.90825016666667, "type": "electric_scooter", "lon": -77.03202816666666, "bike_id": "b152243e9c431fecfade727e45569704", "rental_uris": {"android": "https://dc.lft.to/lastmile_qr_scan", "ios": "https://dc.lft.to/lastmile_qr_scan"}, "name": "b152243e9c431fecfade727e45569704", "is_reserved": 0}, {"is_disabled": 0, "fusion_lon": 0.0, "fusion_lat": 0.0, "lat": 38.898864, "type": "electric_scooter", "lon": -77.05293233333333, "bike_id": "dbd97fd1d4aaf0ad374e3726236ee431", "rental_uris": {"android": "https://dc.lft.to/lastmile_qr_scan", "ios": "https://dc.lft.to/lastmile_qr_scan"}, "name": "dbd97fd1d4aaf0ad374e3726236ee431", "is_reserved": 0}, {"is_disabled": 0, "fusion_lon": 0.0, "fusion_lat": 0.0, "lat": 38.898436833333335, "type": "electric_scooter", "lon": -76.94631, "bike_id": "c9a45f77ee7ea6f4c2751229730dd098", "rental_uris": {"android": "https://dc.lft.to/lastmile_qr_scan", "ios": "https://dc.lft.to/lastmile_qr_scan"}, "name": "c9a45f77ee7ea6f4c2751229730dd098", "is_reserved": 0}, {"is_disabled": 0, "fusion_lon": 0.0, "fusion_lat": 0.0, "lat": 38.9151745, "type": "electric_scooter", "lon": -77.01835383333334, "bike_id": "d5e415bcc8a27a8ddeaefe47e0bf652d", "rental_uris": {"android": "https://dc.lft.to/lastmile_qr_scan", "ios": "https://dc.lft.to/lastmile_qr_scan"}, "name": "d5e415bcc8a27a8ddeaefe47e0bf652d", "is_reserved": 0}, {"is_disabled": 0, "fusion_lon": 0.0, "fusion_lat": 0.0, "lat": 38.8847845, "type": "electric_scooter", "lon": -77.019766, "bike_id": "00f3f7e3d8afd04b845d248208817f57", "rental_uris": {"android": "https://dc.lft.to/lastmile_qr_scan", "ios": "https://dc.lft.to/lastmile_qr_scan"}, "name": "00f3f7e3d8afd04b845d248208817f57", "is_reserved": 0}, {"is_disabled": 0, "fusion_lon": 0.0, "fusion_lat": 0.0, "lat": 38.92603166666667, "type": "electric_scooter", "lon": -77.02151983333333, "bike_id": "c5bf98f12e3403a5b8aa6dbc2011186b", "rental_uris": {"android": "https://dc.lft.to/lastmile_qr_scan", "ios": "https://dc.lft.to/lastmile_qr_scan"}, "name": "c5bf98f12e3403a5b8aa6dbc2011186b", "is_reserved": 0}, {"is_disabled": 0, "fusion_lon": 0.0, "fusion_lat": 0.0, "lat": 38.9366115, "type": "electric_scooter", "lon": -77.0326455, "bike_id": "4ec969fba38cd159749ad26fce2fbebd", "rental_uris": {"android": "https://dc.lft.to/lastmile_qr_scan", "ios": "https://dc.lft.to/lastmile_qr_scan"}, "name": "4ec969fba38cd159749ad26fce2fbebd", "is_reserved": 0}, {"is_disabled": 0, "fusion_lon": 0.0, "fusion_lat": 0.0, "lat": 38.95947266666667, "type": "electric_scooter", "lon": -77.07224583333333, "bike_id": "854a688833431ea7f6eaf91b0d529ac4", "rental_uris": {"android": "https://dc.lft.to/lastmile_qr_scan", "ios": "https://dc.lft.to/lastmile_qr_scan"}, "name": "854a688833431ea7f6eaf91b0d529ac4", "is_reserved": 0}, {"is_disabled": 0, "fusion_lon": 0.0, "fusion_lat": 0.0, "lat": 38.919799833333336, "type": "electric_scooter", "lon": -77.02491483333333, "bike_id": "3e483629bb330e98f3b5a46e290046d8", "rental_uris": {"android": "https://dc.lft.to/lastmile_qr_scan", "ios": "https://dc.lft.to/lastmile_qr_scan"}, "name": "3e483629bb330e98f3b5a46e290046d8", "is_reserved": 0}, {"is_disabled": 0, "fusion_lon": 0.0, "fusion_lat": 0.0, "lat": 38.90955683333333, "type": "electric_scooter", "lon": -77.05923433333334, "bike_id": "32f886e9e404076a46d0094e6523834a", "rental_uris": {"android": "https://dc.lft.to/lastmile_qr_scan", "ios": "https://dc.lft.to/lastmile_qr_scan"}, "name": "32f886e9e404076a46d0094e6523834a", "is_reserved": 0}, {"is_disabled": 0, "fusion_lon": 0.0, "fusion_lat": 0.0, "lat": 38.84516266666667, "type": "electric_scooter", "lon": -76.98788533333334, "bike_id": "b5cf3750d06fbc56c243cbbe16f3e765", "rental_uris": {"android": "https://dc.lft.to/lastmile_qr_scan", "ios": "https://dc.lft.to/lastmile_qr_scan"}, "name": "b5cf3750d06fbc56c243cbbe16f3e765", "is_reserved": 0}, {"is_disabled": 0, "fusion_lon": 0.0, "fusion_lat": 0.0, "lat": 38.887193, "type": "electric_scooter", "lon": -77.02207066666666, "bike_id": "f85543fb0e7e4a1c7d1b84404df470cd", "rental_uris": {"android": "https://dc.lft.to/lastmile_qr_scan", "ios": "https://dc.lft.to/lastmile_qr_scan"}, "name": "f85543fb0e7e4a1c7d1b84404df470cd", "is_reserved": 0}, {"is_disabled": 0, "fusion_lon": 0.0, "fusion_lat": 0.0, "lat": 38.90060966666667, "type": "electric_scooter", "lon": -77.0133935, "bike_id": "e81adb805bfc15250277d3884c1c556d", "rental_uris": {"android": "https://dc.lft.to/lastmile_qr_scan", "ios": "https://dc.lft.to/lastmile_qr_scan"}, "name": "e81adb805bfc15250277d3884c1c556d", "is_reserved": 0}, {"is_disabled": 0, "fusion_lon": 0.0, "fusion_lat": 0.0, "lat": 38.880985333333335, "type": "electric_scooter", "lon": -77.02602666666667, "bike_id": "fd5991e95a44adc311d463fb196cb342", "rental_uris": {"android": "https://dc.lft.to/lastmile_qr_scan", "ios": "https://dc.lft.to/lastmile_qr_scan"}, "name": "fd5991e95a44adc311d463fb196cb342", "is_reserved": 0}, {"is_disabled": 0, "fusion_lon": 0.0, "fusion_lat": 0.0, "lat": 38.88965783333333, "type": "electric_scooter", "lon": -76.92737616666666, "bike_id": "dff19376072fb84f44293eefa2864883", "rental_uris": {"android": "https://dc.lft.to/lastmile_qr_scan", "ios": "https://dc.lft.to/lastmile_qr_scan"}, "name": "dff19376072fb84f44293eefa2864883", "is_reserved": 0}, {"is_disabled": 0, "fusion_lon": 0.0, "fusion_lat": 0.0, "lat": 38.885024333333334, "type": "electric_scooter", "lon": -77.00325883333333, "bike_id": "c159c94de135b5f4bf85ca99461518df", "rental_uris": {"android": "https://dc.lft.to/lastmile_qr_scan", "ios": "https://dc.lft.to/lastmile_qr_scan"}, "name": "c159c94de135b5f4bf85ca99461518df", "is_reserved": 0}, {"is_disabled": 0, "fusion_lon": 0.0, "fusion_lat": 0.0, "lat": 38.936627, "type": "electric_scooter", "lon": -77.032612, "bike_id": "26e6e67659093ff2e574c1b441565def", "rental_uris": {"android": "https://dc.lft.to/lastmile_qr_scan", "ios": "https://dc.lft.to/lastmile_qr_scan"}, "name": "26e6e67659093ff2e574c1b441565def", "is_reserved": 0}, {"is_disabled": 0, "fusion_lon": 0.0, "fusion_lat": 0.0, "lat": 38.897958333333335, "type": "electric_scooter", "lon": -77.01196316666666, "bike_id": "04a40b31ea5b6e0a1b0f1500f1b7fddb", "rental_uris": {"android": "https://dc.lft.to/lastmile_qr_scan", "ios": "https://dc.lft.to/lastmile_qr_scan"}, "name": "04a40b31ea5b6e0a1b0f1500f1b7fddb", "is_reserved": 0}, {"is_disabled": 0, "fusion_lon": 0.0, "fusion_lat": 0.0, "lat": 38.880494166666665, "type": "electric_scooter", "lon": -77.0036335, "bike_id": "c5f03e3606e9304a4baa5e4363ac4c9f", "rental_uris": {"android": "https://dc.lft.to/lastmile_qr_scan", "ios": "https://dc.lft.to/lastmile_qr_scan"}, "name": "c5f03e3606e9304a4baa5e4363ac4c9f", "is_reserved": 0}, {"is_disabled": 0, "fusion_lon": 0.0, "fusion_lat": 0.0, "lat": 38.894729, "type": "electric_scooter", "lon": -76.94956883333333, "bike_id": "f3340a57cc84a6be37ebb4dbb0bdc51f", "rental_uris": {"android": "https://dc.lft.to/lastmile_qr_scan", "ios": "https://dc.lft.to/lastmile_qr_scan"}, "name": "f3340a57cc84a6be37ebb4dbb0bdc51f", "is_reserved": 0}, {"is_disabled": 0, "fusion_lon": 0.0, "fusion_lat": 0.0, "lat": 38.93965566666667, "type": "electric_scooter", "lon": -77.03280566666666, "bike_id": "12095325062905cd58523e09d6d950a1", "rental_uris": {"android": "https://dc.lft.to/lastmile_qr_scan", "ios": "https://dc.lft.to/lastmile_qr_scan"}, "name": "12095325062905cd58523e09d6d950a1", "is_reserved": 0}, {"is_disabled": 0, "fusion_lon": 0.0, "fusion_lat": 0.0, "lat": 38.9064725, "type": "electric_scooter", "lon": -77.04142133333333, "bike_id": "55dfa276f0916f07ba40a724ca7efa9a", "rental_uris": {"android": "https://dc.lft.to/lastmile_qr_scan", "ios": "https://dc.lft.to/lastmile_qr_scan"}, "name": "55dfa276f0916f07ba40a724ca7efa9a", "is_reserved": 0}, {"is_disabled": 0, "fusion_lon": 0.0, "fusion_lat": 0.0, "lat": 38.8923195, "type": "electric_scooter", "lon": -77.03210733333333, "bike_id": "cb888352cae919d4b547bde22f6665cc", "rental_uris": {"android": "https://dc.lft.to/lastmile_qr_scan", "ios": "https://dc.lft.to/lastmile_qr_scan"}, "name": "cb888352cae919d4b547bde22f6665cc", "is_reserved": 0}, {"is_disabled": 0, "fusion_lon": 0.0, "fusion_lat": 0.0, "lat": 38.90103666666667, "type": "electric_scooter", "lon": -77.02001316666667, "bike_id": "f8e8325c92699619311f007f3721b6b3", "rental_uris": {"android": "https://dc.lft.to/lastmile_qr_scan", "ios": "https://dc.lft.to/lastmile_qr_scan"}, "name": "f8e8325c92699619311f007f3721b6b3", "is_reserved": 0}, {"is_disabled": 0, "fusion_lon": 0.0, "fusion_lat": 0.0, "lat": 38.912491, "type": "electric_scooter", "lon": -77.04161933333333, "bike_id": "4ca65aab64407d08e9983f2528a1327f", "rental_uris": {"android": "https://dc.lft.to/lastmile_qr_scan", "ios": "https://dc.lft.to/lastmile_qr_scan"}, "name": "4ca65aab64407d08e9983f2528a1327f", "is_reserved": 0}, {"is_disabled": 0, "fusion_lon": 0.0, "fusion_lat": 0.0, "lat": 38.905403166666666, "type": "electric_scooter", "lon": -77.02206583333333, "bike_id": "edbdabc3d8ef79004bb95d51be14a08d", "rental_uris": {"android": "https://dc.lft.to/lastmile_qr_scan", "ios": "https://dc.lft.to/lastmile_qr_scan"}, "name": "edbdabc3d8ef79004bb95d51be14a08d", "is_reserved": 0}, {"is_disabled": 0, "fusion_lon": 0.0, "fusion_lat": 0.0, "lat": 38.948964333333336, "type": "electric_bike", "lon": -76.9636615, "bike_id": "e4fa664739486705cab1ff3268ac83f4", "rental_uris": {"android": "https://dc.lft.to/lastmile_qr_scan", "ios": "https://dc.lft.to/lastmile_qr_scan"}, "name": "e4fa664739486705cab1ff3268ac83f4", "is_reserved": 0}, {"is_disabled": 0, "fusion_lon": 0.0, "fusion_lat": 0.0, "lat": 38.93698583333333, "type": "electric_scooter", "lon": -77.05599016666666, "bike_id": "27996197ae947f3d6bc1280d56572f9d", "rental_uris": {"android": "https://dc.lft.to/lastmile_qr_scan", "ios": "https://dc.lft.to/lastmile_qr_scan"}, "name": "27996197ae947f3d6bc1280d56572f9d", "is_reserved": 0}, {"is_disabled": 0, "fusion_lon": 0.0, "fusion_lat": 0.0, "lat": 38.9178225, "type": "electric_scooter", "lon": -77.01776133333334, "bike_id": "9a4db015b7fe166e3af9c3e3bd529366", "rental_uris": {"android": "https://dc.lft.to/lastmile_qr_scan", "ios": "https://dc.lft.to/lastmile_qr_scan"}, "name": "9a4db015b7fe166e3af9c3e3bd529366", "is_reserved": 0}, {"is_disabled": 0, "fusion_lon": 0.0, "fusion_lat": 0.0, "lat": 39.052679, "type": "electric_bike", "lon": -77.04377833333334, "bike_id": "b20c7d635bcdd4b0243928d4f0f0f24a", "rental_uris": {"android": "https://dc.lft.to/lastmile_qr_scan", "ios": "https://dc.lft.to/lastmile_qr_scan"}, "name": "b20c7d635bcdd4b0243928d4f0f0f24a", "is_reserved": 0}, {"is_disabled": 0, "fusion_lon": 0.0, "fusion_lat": 0.0, "lat": 38.9121085, "type": "electric_scooter", "lon": -77.03843433333333, "bike_id": "3d7be306ffb215ddea777ed4bc5c182d", "rental_uris": {"android": "https://dc.lft.to/lastmile_qr_scan", "ios": "https://dc.lft.to/lastmile_qr_scan"}, "name": "3d7be306ffb215ddea777ed4bc5c182d", "is_reserved": 0}, {"is_disabled": 0, "fusion_lon": 0.0, "fusion_lat": 0.0, "lat": 38.9081015, "type": "electric_scooter", "lon": -77.04270333333334, "bike_id": "87cff0d5b7ce330c5877675590c04a9b", "rental_uris": {"android": "https://dc.lft.to/lastmile_qr_scan", "ios": "https://dc.lft.to/lastmile_qr_scan"}, "name": "87cff0d5b7ce330c5877675590c04a9b", "is_reserved": 0}, {"is_disabled": 0, "fusion_lon": 0.0, "fusion_lat": 0.0, "lat": 38.88454133333333, "type": "electric_bike", "lon": -76.91636016666666, "bike_id": "151e1b0af217b8331b419cdf3fba9f54", "rental_uris": {"android": "https://dc.lft.to/lastmile_qr_scan", "ios": "https://dc.lft.to/lastmile_qr_scan"}, "name": "151e1b0af217b8331b419cdf3fba9f54", "is_reserved": 0}, {"is_disabled": 0, "fusion_lon": 0.0, "fusion_lat": 0.0, "lat": 38.911954, "type": "electric_scooter", "lon": -77.04169616666667, "bike_id": "d1eda74b6573e9ac3968a76c8b4bcef2", "rental_uris": {"android": "https://dc.lft.to/lastmile_qr_scan", "ios": "https://dc.lft.to/lastmile_qr_scan"}, "name": "d1eda74b6573e9ac3968a76c8b4bcef2", "is_reserved": 0}, {"is_disabled": 0, "fusion_lon": 0.0, "fusion_lat": 0.0, "lat": 38.900312666666665, "type": "electric_scooter", "lon": -77.011852, "bike_id": "69c6e99b0d15a4eabadb19c153dd616d", "rental_uris": {"android": "https://dc.lft.to/lastmile_qr_scan", "ios": "https://dc.lft.to/lastmile_qr_scan"}, "name": "69c6e99b0d15a4eabadb19c153dd616d", "is_reserved": 0}, {"is_disabled": 0, "fusion_lon": 0.0, "fusion_lat": 0.0, "lat": 38.92039916666667, "type": "electric_scooter", "lon": -77.04181733333333, "bike_id": "4040fb2bfcf670d8628be238f12c13f3", "rental_uris": {"android": "https://dc.lft.to/lastmile_qr_scan", "ios": "https://dc.lft.to/lastmile_qr_scan"}, "name": "4040fb2bfcf670d8628be238f12c13f3", "is_reserved": 0}, {"is_disabled": 0, "fusion_lon": 0.0, "fusion_lat": 0.0, "lat": 38.941089833333336, "type": "electric_scooter", "lon": -77.07742083333333, "bike_id": "638e19f196842dc630deb186c47c1a9f", "rental_uris": {"android": "https://dc.lft.to/lastmile_qr_scan", "ios": "https://dc.lft.to/lastmile_qr_scan"}, "name": "638e19f196842dc630deb186c47c1a9f", "is_reserved": 0}, {"is_disabled": 0, "fusion_lon": 0.0, "fusion_lat": 0.0, "lat": 38.88631133333333, "type": "electric_bike", "lon": -77.09239233333334, "bike_id": "19adf6fe6fd8608237b54d6655461dc3", "rental_uris": {"android": "https://dc.lft.to/lastmile_qr_scan", "ios": "https://dc.lft.to/lastmile_qr_scan"}, "name": "19adf6fe6fd8608237b54d6655461dc3", "is_reserved": 0}, {"is_disabled": 0, "fusion_lon": 0.0, "fusion_lat": 0.0, "lat": 38.89729483333333, "type": "electric_bike", "lon": -76.905432, "bike_id": "fbe21ca5893e14caf8930ca494d8e829", "rental_uris": {"android": "https://dc.lft.to/lastmile_qr_scan", "ios": "https://dc.lft.to/lastmile_qr_scan"}, "name": "fbe21ca5893e14caf8930ca494d8e829", "is_reserved": 0}, {"is_disabled": 0, "fusion_lon": 0.0, "fusion_lat": 0.0, "lat": 38.9206365, "type": "electric_scooter", "lon": -77.04357316666666, "bike_id": "c6c116ccf3e232fbb206d456b6f1d273", "rental_uris": {"android": "https://dc.lft.to/lastmile_qr_scan", "ios": "https://dc.lft.to/lastmile_qr_scan"}, "name": "c6c116ccf3e232fbb206d456b6f1d273", "is_reserved": 0}, {"is_disabled": 0, "fusion_lon": 0.0, "fusion_lat": 0.0, "lat": 38.903899833333334, "type": "electric_scooter", "lon": -77.00472183333333, "bike_id": "31beab9f1b151adc52ce3dc1a292d8c3", "rental_uris": {"android": "https://dc.lft.to/lastmile_qr_scan", "ios": "https://dc.lft.to/lastmile_qr_scan"}, "name": "31beab9f1b151adc52ce3dc1a292d8c3", "is_reserved": 0}, {"is_disabled": 0, "fusion_lon": 0.0, "fusion_lat": 0.0, "lat": 38.968155, "type": "electric_scooter", "lon": -77.0088895, "bike_id": "3a9a1ef065045625288028695bd00c92", "rental_uris": {"android": "https://dc.lft.to/lastmile_qr_scan", "ios": "https://dc.lft.to/lastmile_qr_scan"}, "name": "3a9a1ef065045625288028695bd00c92", "is_reserved": 0}, {"is_disabled": 0, "fusion_lon": 0.0, "fusion_lat": 0.0, "lat": 38.858127833333334, "type": "electric_scooter", "lon": -76.989334, "bike_id": "2214ad1208def440987e8dade3e6c490", "rental_uris": {"android": "https://dc.lft.to/lastmile_qr_scan", "ios": "https://dc.lft.to/lastmile_qr_scan"}, "name": "2214ad1208def440987e8dade3e6c490", "is_reserved": 0}, {"is_disabled": 0, "fusion_lon": 0.0, "fusion_lat": 0.0, "lat": 38.91452683333333, "type": "electric_scooter", "lon": -77.01997083333333, "bike_id": "772b566fac9e9c26d9be6bc94188b9f1", "rental_uris": {"android": "https://dc.lft.to/lastmile_qr_scan", "ios": "https://dc.lft.to/lastmile_qr_scan"}, "name": "772b566fac9e9c26d9be6bc94188b9f1", "is_reserved": 0}, {"is_disabled": 0, "fusion_lon": 0.0, "fusion_lat": 0.0, "lat": 38.909641, "type": "electric_scooter", "lon": -77.03942516666666, "bike_id": "91dedb888a74a4e154f306b20cf12e1b", "rental_uris": {"android": "https://dc.lft.to/lastmile_qr_scan", "ios": "https://dc.lft.to/lastmile_qr_scan"}, "name": "91dedb888a74a4e154f306b20cf12e1b", "is_reserved": 0}, {"is_disabled": 0, "fusion_lon": 0.0, "fusion_lat": 0.0, "lat": 38.92033283333333, "type": "electric_scooter", "lon": -77.0258685, "bike_id": "784df6bda54d52cbe5764a305673cfbf", "rental_uris": {"android": "https://dc.lft.to/lastmile_qr_scan", "ios": "https://dc.lft.to/lastmile_qr_scan"}, "name": "784df6bda54d52cbe5764a305673cfbf", "is_reserved": 0}, {"is_disabled": 0, "fusion_lon": 0.0, "fusion_lat": 0.0, "lat": 39.05204833333333, "type": "electric_bike", "lon": -77.04406033333333, "bike_id": "709dabaef6cc8df19dcd804d892fb0d9", "rental_uris": {"android": "https://dc.lft.to/lastmile_qr_scan", "ios": "https://dc.lft.to/lastmile_qr_scan"}, "name": "709dabaef6cc8df19dcd804d892fb0d9", "is_reserved": 0}, {"is_disabled": 0, "fusion_lon": 0.0, "fusion_lat": 0.0, "lat": 38.88992916666667, "type": "electric_scooter", "lon": -77.00048766666667, "bike_id": "c97dae2efae3337d0f83fda2b8e7fc7b", "rental_uris": {"android": "https://dc.lft.to/lastmile_qr_scan", "ios": "https://dc.lft.to/lastmile_qr_scan"}, "name": "c97dae2efae3337d0f83fda2b8e7fc7b", "is_reserved": 0}, {"is_disabled": 0, "fusion_lon": 0.0, "fusion_lat": 0.0, "lat": 38.9464005, "type": "electric_scooter", "lon": -77.0192845, "bike_id": "e3dbaab3ea55845d147f6da1af0bc694", "rental_uris": {"android": "https://dc.lft.to/lastmile_qr_scan", "ios": "https://dc.lft.to/lastmile_qr_scan"}, "name": "e3dbaab3ea55845d147f6da1af0bc694", "is_reserved": 0}, {"is_disabled": 0, "fusion_lon": 0.0, "fusion_lat": 0.0, "lat": 38.92758583333333, "type": "electric_scooter", "lon": -77.005928, "bike_id": "0cea7b7f6fb1eaac93b079f1fccc51df", "rental_uris": {"android": "https://dc.lft.to/lastmile_qr_scan", "ios": "https://dc.lft.to/lastmile_qr_scan"}, "name": "0cea7b7f6fb1eaac93b079f1fccc51df", "is_reserved": 0}, {"is_disabled": 0, "fusion_lon": 0.0, "fusion_lat": 0.0, "lat": 38.907686166666664, "type": "electric_scooter", "lon": -77.0628435, "bike_id": "9c22246808b494bdd40be073816a07c7", "rental_uris": {"android": "https://dc.lft.to/lastmile_qr_scan", "ios": "https://dc.lft.to/lastmile_qr_scan"}, "name": "9c22246808b494bdd40be073816a07c7", "is_reserved": 0}, {"is_disabled": 0, "fusion_lon": 0.0, "fusion_lat": 0.0, "lat": 38.8520765, "type": "electric_bike", "lon": -77.10124833333333, "bike_id": "f9ad4ab42da34ec701464fcc570b70d8", "rental_uris": {"android": "https://dc.lft.to/lastmile_qr_scan", "ios": "https://dc.lft.to/lastmile_qr_scan"}, "name": "f9ad4ab42da34ec701464fcc570b70d8", "is_reserved": 0}, {"is_disabled": 0, "fusion_lon": 0.0, "fusion_lat": 0.0, "lat": 38.92606166666667, "type": "electric_scooter", "lon": -77.02351033333333, "bike_id": "44296d70c3a5173c2152f9f68406b15f", "rental_uris": {"android": "https://dc.lft.to/lastmile_qr_scan", "ios": "https://dc.lft.to/lastmile_qr_scan"}, "name": "44296d70c3a5173c2152f9f68406b15f", "is_reserved": 0}, {"is_disabled": 0, "fusion_lon": 0.0, "fusion_lat": 0.0, "lat": 38.89599466666667, "type": "electric_scooter", "lon": -77.009098, "bike_id": "2de1cf1230c90e0ebaaa201d00eeab14", "rental_uris": {"android": "https://dc.lft.to/lastmile_qr_scan", "ios": "https://dc.lft.to/lastmile_qr_scan"}, "name": "2de1cf1230c90e0ebaaa201d00eeab14", "is_reserved": 0}, {"is_disabled": 0, "fusion_lon": 0.0, "fusion_lat": 0.0, "lat": 38.916923, "type": "electric_scooter", "lon": -77.02592666666666, "bike_id": "3d3d3f9e85f24075e101372ffd72740e", "rental_uris": {"android": "https://dc.lft.to/lastmile_qr_scan", "ios": "https://dc.lft.to/lastmile_qr_scan"}, "name": "3d3d3f9e85f24075e101372ffd72740e", "is_reserved": 0}, {"is_disabled": 0, "fusion_lon": 0.0, "fusion_lat": 0.0, "lat": 38.8976435, "type": "electric_scooter", "lon": -77.00888783333333, "bike_id": "69b1919a2d45993fa30f4f5e9e1a80a1", "rental_uris": {"android": "https://dc.lft.to/lastmile_qr_scan", "ios": "https://dc.lft.to/lastmile_qr_scan"}, "name": "69b1919a2d45993fa30f4f5e9e1a80a1", "is_reserved": 0}, {"is_disabled": 0, "fusion_lon": 0.0, "fusion_lat": 0.0, "lat": 38.88399483333333, "type": "electric_bike", "lon": -77.03081883333333, "bike_id": "fae896a292dbaaf3fb0866e6b1ac38d6", "rental_uris": {"android": "https://dc.lft.to/lastmile_qr_scan", "ios": "https://dc.lft.to/lastmile_qr_scan"}, "name": "fae896a292dbaaf3fb0866e6b1ac38d6", "is_reserved": 0}, {"is_disabled": 0, "fusion_lon": 0.0, "fusion_lat": 0.0, "lat": 38.935609166666666, "type": "electric_scooter", "lon": -77.0734375, "bike_id": "bd74736b2cbf5771d43e41eb325f6940", "rental_uris": {"android": "https://dc.lft.to/lastmile_qr_scan", "ios": "https://dc.lft.to/lastmile_qr_scan"}, "name": "bd74736b2cbf5771d43e41eb325f6940", "is_reserved": 0}, {"is_disabled": 0, "fusion_lon": 0.0, "fusion_lat": 0.0, "lat": 38.845991166666664, "type": "electric_bike", "lon": -76.968767, "bike_id": "eac6953aafbedd76fb82c53e0cc8dcbe", "rental_uris": {"android": "https://dc.lft.to/lastmile_qr_scan", "ios": "https://dc.lft.to/lastmile_qr_scan"}, "name": "eac6953aafbedd76fb82c53e0cc8dcbe", "is_reserved": 0}, {"is_disabled": 0, "fusion_lon": 0.0, "fusion_lat": 0.0, "lat": 38.89907016666667, "type": "electric_scooter", "lon": -76.93391683333333, "bike_id": "5b14f8b32c6674d6e8963a64a927e848", "rental_uris": {"android": "https://dc.lft.to/lastmile_qr_scan", "ios": "https://dc.lft.to/lastmile_qr_scan"}, "name": "5b14f8b32c6674d6e8963a64a927e848", "is_reserved": 0}, {"is_disabled": 0, "fusion_lon": 0.0, "fusion_lat": 0.0, "lat": 38.890023, "type": "electric_scooter", "lon": -77.048987, "bike_id": "ee5a81d2130d7d64def35124baa2b528", "rental_uris": {"android": "https://dc.lft.to/lastmile_qr_scan", "ios": "https://dc.lft.to/lastmile_qr_scan"}, "name": "ee5a81d2130d7d64def35124baa2b528", "is_reserved": 0}, {"is_disabled": 0, "fusion_lon": 0.0, "fusion_lat": 0.0, "lat": 38.95960016666667, "type": "electric_scooter", "lon": -77.02112933333333, "bike_id": "78f7c2175baa227061dbd81fb6123e58", "rental_uris": {"android": "https://dc.lft.to/lastmile_qr_scan", "ios": "https://dc.lft.to/lastmile_qr_scan"}, "name": "78f7c2175baa227061dbd81fb6123e58", "is_reserved": 0}, {"is_disabled": 0, "fusion_lon": 0.0, "fusion_lat": 0.0, "lat": 38.954019833333334, "type": "electric_scooter", "lon": -77.02748583333333, "bike_id": "a8e7fecfff2892c15a1299e117a88721", "rental_uris": {"android": "https://dc.lft.to/lastmile_qr_scan", "ios": "https://dc.lft.to/lastmile_qr_scan"}, "name": "a8e7fecfff2892c15a1299e117a88721", "is_reserved": 0}, {"is_disabled": 0, "fusion_lon": 0.0, "fusion_lat": 0.0, "lat": 38.88072483333333, "type": "electric_scooter", "lon": -76.995067, "bike_id": "fdd89d76f03bc6e8dc6ede7724d8ba04", "rental_uris": {"android": "https://dc.lft.to/lastmile_qr_scan", "ios": "https://dc.lft.to/lastmile_qr_scan"}, "name": "fdd89d76f03bc6e8dc6ede7724d8ba04", "is_reserved": 0}, {"is_disabled": 0, "fusion_lon": 0.0, "fusion_lat": 0.0, "lat": 38.902515, "type": "electric_scooter", "lon": -77.01934966666667, "bike_id": "646f4a5544c0f254acd8fc18a473221f", "rental_uris": {"android": "https://dc.lft.to/lastmile_qr_scan", "ios": "https://dc.lft.to/lastmile_qr_scan"}, "name": "646f4a5544c0f254acd8fc18a473221f", "is_reserved": 0}, {"is_disabled": 0, "fusion_lon": 0.0, "fusion_lat": 0.0, "lat": 38.91416516666666, "type": "electric_scooter", "lon": -77.02116866666667, "bike_id": "9ffe5145908d233e4ee856e9c8c50ff6", "rental_uris": {"android": "https://dc.lft.to/lastmile_qr_scan", "ios": "https://dc.lft.to/lastmile_qr_scan"}, "name": "9ffe5145908d233e4ee856e9c8c50ff6", "is_reserved": 0}, {"is_disabled": 0, "fusion_lon": 0.0, "fusion_lat": 0.0, "lat": 38.88489883333333, "type": "electric_scooter", "lon": -77.00729916666667, "bike_id": "81810976af960b9212b9ecf0b56e3eb5", "rental_uris": {"android": "https://dc.lft.to/lastmile_qr_scan", "ios": "https://dc.lft.to/lastmile_qr_scan"}, "name": "81810976af960b9212b9ecf0b56e3eb5", "is_reserved": 0}, {"is_disabled": 0, "fusion_lon": 0.0, "fusion_lat": 0.0, "lat": 38.955906666666664, "type": "electric_scooter", "lon": -77.03651716666667, "bike_id": "17043ef7386ccab39e32ef92be1b1e3f", "rental_uris": {"android": "https://dc.lft.to/lastmile_qr_scan", "ios": "https://dc.lft.to/lastmile_qr_scan"}, "name": "17043ef7386ccab39e32ef92be1b1e3f", "is_reserved": 0}, {"is_disabled": 0, "fusion_lon": 0.0, "fusion_lat": 0.0, "lat": 38.892839333333335, "type": "electric_scooter", "lon": -77.050271, "bike_id": "883438ae91eb36ce5bb5ef4da1a578cf", "rental_uris": {"android": "https://dc.lft.to/lastmile_qr_scan", "ios": "https://dc.lft.to/lastmile_qr_scan"}, "name": "883438ae91eb36ce5bb5ef4da1a578cf", "is_reserved": 0}, {"is_disabled": 0, "fusion_lon": 0.0, "fusion_lat": 0.0, "lat": 38.85207233333333, "type": "electric_bike", "lon": -77.12762833333333, "bike_id": "7107b275441e7adc6868cb4b0bb8a376", "rental_uris": {"android": "https://dc.lft.to/lastmile_qr_scan", "ios": "https://dc.lft.to/lastmile_qr_scan"}, "name": "7107b275441e7adc6868cb4b0bb8a376", "is_reserved": 0}, {"is_disabled": 0, "fusion_lon": 0.0, "fusion_lat": 0.0, "lat": 38.9096775, "type": "electric_scooter", "lon": -77.03171983333333, "bike_id": "b4efabe303c0524d4be883e31ba8e250", "rental_uris": {"android": "https://dc.lft.to/lastmile_qr_scan", "ios": "https://dc.lft.to/lastmile_qr_scan"}, "name": "b4efabe303c0524d4be883e31ba8e250", "is_reserved": 0}, {"is_disabled": 0, "fusion_lon": 0.0, "fusion_lat": 0.0, "lat": 38.938989666666664, "type": "electric_scooter", "lon": -77.03339183333334, "bike_id": "1c61d3cf83a9b0f36ebc3d5667da1d59", "rental_uris": {"android": "https://dc.lft.to/lastmile_qr_scan", "ios": "https://dc.lft.to/lastmile_qr_scan"}, "name": "1c61d3cf83a9b0f36ebc3d5667da1d59", "is_reserved": 0}, {"is_disabled": 0, "fusion_lon": 0.0, "fusion_lat": 0.0, "lat": 38.8922785, "type": "electric_scooter", "lon": -77.032125, "bike_id": "a3889173a3298ad37d8ef334c4960b5f", "rental_uris": {"android": "https://dc.lft.to/lastmile_qr_scan", "ios": "https://dc.lft.to/lastmile_qr_scan"}, "name": "a3889173a3298ad37d8ef334c4960b5f", "is_reserved": 0}, {"is_disabled": 0, "fusion_lon": 0.0, "fusion_lat": 0.0, "lat": 38.897588, "type": "electric_scooter", "lon": -77.051155, "bike_id": "56b379a657c154151fb04785faca5962", "rental_uris": {"android": "https://dc.lft.to/lastmile_qr_scan", "ios": "https://dc.lft.to/lastmile_qr_scan"}, "name": "56b379a657c154151fb04785faca5962", "is_reserved": 0}, {"is_disabled": 0, "fusion_lon": 0.0, "fusion_lat": 0.0, "lat": 38.9217295, "type": "electric_scooter", "lon": -77.04224116666667, "bike_id": "90d08c5d1964832eb375d6dd6960e666", "rental_uris": {"android": "https://dc.lft.to/lastmile_qr_scan", "ios": "https://dc.lft.to/lastmile_qr_scan"}, "name": "90d08c5d1964832eb375d6dd6960e666", "is_reserved": 0}, {"is_disabled": 0, "fusion_lon": 0.0, "fusion_lat": 0.0, "lat": 38.884403166666665, "type": "electric_scooter", "lon": -77.029631, "bike_id": "fe636320201b7a1809209ed61af6acbe", "rental_uris": {"android": "https://dc.lft.to/lastmile_qr_scan", "ios": "https://dc.lft.to/lastmile_qr_scan"}, "name": "fe636320201b7a1809209ed61af6acbe", "is_reserved": 0}, {"is_disabled": 0, "fusion_lon": 0.0, "fusion_lat": 0.0, "lat": 38.883063, "type": "electric_scooter", "lon": -77.04521733333333, "bike_id": "ddadd26dee30d909207f1c4195a1b8bb", "rental_uris": {"android": "https://dc.lft.to/lastmile_qr_scan", "ios": "https://dc.lft.to/lastmile_qr_scan"}, "name": "ddadd26dee30d909207f1c4195a1b8bb", "is_reserved": 0}, {"is_disabled": 0, "fusion_lon": 0.0, "fusion_lat": 0.0, "lat": 39.09587833333333, "type": "electric_bike", "lon": -77.147717, "bike_id": "5caf1087e84d99b3f40f28dee5db9ca1", "rental_uris": {"android": "https://dc.lft.to/lastmile_qr_scan", "ios": "https://dc.lft.to/lastmile_qr_scan"}, "name": "5caf1087e84d99b3f40f28dee5db9ca1", "is_reserved": 0}, {"is_disabled": 0, "fusion_lon": 0.0, "fusion_lat": 0.0, "lat": 38.999346833333334, "type": "electric_bike", "lon": -77.00122016666667, "bike_id": "9275c2bb44f266b26f44eb4b70c14228", "rental_uris": {"android": "https://dc.lft.to/lastmile_qr_scan", "ios": "https://dc.lft.to/lastmile_qr_scan"}, "name": "9275c2bb44f266b26f44eb4b70c14228", "is_reserved": 0}, {"is_disabled": 0, "fusion_lon": 0.0, "fusion_lat": 0.0, "lat": 38.85552916666666, "type": "electric_bike", "lon": -77.107133, "bike_id": "b9614c99f924d20a487d1431bd67840e", "rental_uris": {"android": "https://dc.lft.to/lastmile_qr_scan", "ios": "https://dc.lft.to/lastmile_qr_scan"}, "name": "b9614c99f924d20a487d1431bd67840e", "is_reserved": 0}, {"is_disabled": 0, "fusion_lon": 0.0, "fusion_lat": 0.0, "lat": 38.914052, "type": "electric_scooter", "lon": -77.02667583333333, "bike_id": "05a53c88f5504dbba54b8a75da86ba8c", "rental_uris": {"android": "https://dc.lft.to/lastmile_qr_scan", "ios": "https://dc.lft.to/lastmile_qr_scan"}, "name": "05a53c88f5504dbba54b8a75da86ba8c", "is_reserved": 0}, {"is_disabled": 0, "fusion_lon": 0.0, "fusion_lat": 0.0, "lat": 38.931153, "type": "electric_scooter", "lon": -77.0349995, "bike_id": "2907ad61296cb7c5df1df287fe4af78d", "rental_uris": {"android": "https://dc.lft.to/lastmile_qr_scan", "ios": "https://dc.lft.to/lastmile_qr_scan"}, "name": "2907ad61296cb7c5df1df287fe4af78d", "is_reserved": 0}, {"is_disabled": 0, "fusion_lon": 0.0, "fusion_lat": 0.0, "lat": 38.86356966666666, "type": "electric_scooter", "lon": -76.99060933333334, "bike_id": "6ec7a318584e72d2ae82d894c7810aa7", "rental_uris": {"android": "https://dc.lft.to/lastmile_qr_scan", "ios": "https://dc.lft.to/lastmile_qr_scan"}, "name": "6ec7a318584e72d2ae82d894c7810aa7", "is_reserved": 0}, {"is_disabled": 0, "fusion_lon": 0.0, "fusion_lat": 0.0, "lat": 38.9193995, "type": "electric_scooter", "lon": -77.0813215, "bike_id": "26399866cbd429cd63ae8d06affe1e56", "rental_uris": {"android": "https://dc.lft.to/lastmile_qr_scan", "ios": "https://dc.lft.to/lastmile_qr_scan"}, "name": "26399866cbd429cd63ae8d06affe1e56", "is_reserved": 0}, {"is_disabled": 0, "fusion_lon": 0.0, "fusion_lat": 0.0, "lat": 38.9117725, "type": "electric_scooter", "lon": -77.00444333333333, "bike_id": "0a72f047e72938deaffdbcc3584a3fc0", "rental_uris": {"android": "https://dc.lft.to/lastmile_qr_scan", "ios": "https://dc.lft.to/lastmile_qr_scan"}, "name": "0a72f047e72938deaffdbcc3584a3fc0", "is_reserved": 0}, {"is_disabled": 0, "fusion_lon": 0.0, "fusion_lat": 0.0, "lat": 38.88027733333333, "type": "electric_scooter", "lon": -76.931035, "bike_id": "d30a84edc2a43e3cc8aa128e28332719", "rental_uris": {"android": "https://dc.lft.to/lastmile_qr_scan", "ios": "https://dc.lft.to/lastmile_qr_scan"}, "name": "d30a84edc2a43e3cc8aa128e28332719", "is_reserved": 0}, {"is_disabled": 0, "fusion_lon": 0.0, "fusion_lat": 0.0, "lat": 38.8950005, "type": "electric_scooter", "lon": -76.9487845, "bike_id": "7fc4f051bab97eace63be19a7c61b6de", "rental_uris": {"android": "https://dc.lft.to/lastmile_qr_scan", "ios": "https://dc.lft.to/lastmile_qr_scan"}, "name": "7fc4f051bab97eace63be19a7c61b6de", "is_reserved": 0}, {"is_disabled": 0, "fusion_lon": 0.0, "fusion_lat": 0.0, "lat": 38.90714766666667, "type": "electric_scooter", "lon": -77.023877, "bike_id": "c74170c1a874a9453aed2e41b7d3c9ec", "rental_uris": {"android": "https://dc.lft.to/lastmile_qr_scan", "ios": "https://dc.lft.to/lastmile_qr_scan"}, "name": "c74170c1a874a9453aed2e41b7d3c9ec", "is_reserved": 0}, {"is_disabled": 0, "fusion_lon": 0.0, "fusion_lat": 0.0, "lat": 38.90035483333333, "type": "electric_scooter", "lon": -77.02404166666666, "bike_id": "57f798846f1bbe1af41f3a710ec1979a", "rental_uris": {"android": "https://dc.lft.to/lastmile_qr_scan", "ios": "https://dc.lft.to/lastmile_qr_scan"}, "name": "57f798846f1bbe1af41f3a710ec1979a", "is_reserved": 0}, {"is_disabled": 0, "fusion_lon": 0.0, "fusion_lat": 0.0, "lat": 38.922231, "type": "electric_scooter", "lon": -77.0424165, "bike_id": "0712b9fd6b10b3d4ab1b12324f36eebf", "rental_uris": {"android": "https://dc.lft.to/lastmile_qr_scan", "ios": "https://dc.lft.to/lastmile_qr_scan"}, "name": "0712b9fd6b10b3d4ab1b12324f36eebf", "is_reserved": 0}, {"is_disabled": 0, "fusion_lon": 0.0, "fusion_lat": 0.0, "lat": 38.905204833333336, "type": "electric_scooter", "lon": -77.05113433333334, "bike_id": "b2e0c2d737dc64e46ebba555ee84a0c7", "rental_uris": {"android": "https://dc.lft.to/lastmile_qr_scan", "ios": "https://dc.lft.to/lastmile_qr_scan"}, "name": "b2e0c2d737dc64e46ebba555ee84a0c7", "is_reserved": 0}, {"is_disabled": 0, "fusion_lon": 0.0, "fusion_lat": 0.0, "lat": 38.86592266666667, "type": "electric_scooter", "lon": -76.987158, "bike_id": "f56ce076d4cefa850a4a97079a554148", "rental_uris": {"android": "https://dc.lft.to/lastmile_qr_scan", "ios": "https://dc.lft.to/lastmile_qr_scan"}, "name": "f56ce076d4cefa850a4a97079a554148", "is_reserved": 0}, {"is_disabled": 0, "fusion_lon": 0.0, "fusion_lat": 0.0, "lat": 38.916924333333334, "type": "electric_scooter", "lon": -77.028243, "bike_id": "0fc379614983725cb028e1f9ee6cb156", "rental_uris": {"android": "https://dc.lft.to/lastmile_qr_scan", "ios": "https://dc.lft.to/lastmile_qr_scan"}, "name": "0fc379614983725cb028e1f9ee6cb156", "is_reserved": 0}, {"is_disabled": 0, "fusion_lon": 0.0, "fusion_lat": 0.0, "lat": 38.94977733333333, "type": "electric_scooter", "lon": -77.09439266666666, "bike_id": "230b958c271f14903f0b786d203f0fbc", "rental_uris": {"android": "https://dc.lft.to/lastmile_qr_scan", "ios": "https://dc.lft.to/lastmile_qr_scan"}, "name": "230b958c271f14903f0b786d203f0fbc", "is_reserved": 0}, {"is_disabled": 0, "fusion_lon": 0.0, "fusion_lat": 0.0, "lat": 38.876713, "type": "electric_scooter", "lon": -76.93203133333333, "bike_id": "111d16cc9bd9fdd22767efad3b2b6ece", "rental_uris": {"android": "https://dc.lft.to/lastmile_qr_scan", "ios": "https://dc.lft.to/lastmile_qr_scan"}, "name": "111d16cc9bd9fdd22767efad3b2b6ece", "is_reserved": 0}, {"is_disabled": 0, "fusion_lon": 0.0, "fusion_lat": 0.0, "lat": 38.965435, "type": "electric_bike", "lon": -76.9706365, "bike_id": "e0bdd1f0af9d2f6630aa08130e7edeb1", "rental_uris": {"android": "https://dc.lft.to/lastmile_qr_scan", "ios": "https://dc.lft.to/lastmile_qr_scan"}, "name": "e0bdd1f0af9d2f6630aa08130e7edeb1", "is_reserved": 0}, {"is_disabled": 0, "fusion_lon": 0.0, "fusion_lat": 0.0, "lat": 38.93392016666667, "type": "electric_scooter", "lon": -77.04543383333333, "bike_id": "d11bbbee2937333a5b4245014e7a5f6d", "rental_uris": {"android": "https://dc.lft.to/lastmile_qr_scan", "ios": "https://dc.lft.to/lastmile_qr_scan"}, "name": "d11bbbee2937333a5b4245014e7a5f6d", "is_reserved": 0}, {"is_disabled": 0, "fusion_lon": 0.0, "fusion_lat": 0.0, "lat": 38.9454085, "type": "electric_bike", "lon": -77.34462366666666, "bike_id": "b5964fb0abbd5b233189ba5f52eef903", "rental_uris": {"android": "https://dc.lft.to/lastmile_qr_scan", "ios": "https://dc.lft.to/lastmile_qr_scan"}, "name": "b5964fb0abbd5b233189ba5f52eef903", "is_reserved": 0}, {"is_disabled": 0, "fusion_lon": 0.0, "fusion_lat": 0.0, "lat": 38.898780333333335, "type": "electric_scooter", "lon": -77.01988766666666, "bike_id": "5c44c80d0b8bc97de4117c9a237c9281", "rental_uris": {"android": "https://dc.lft.to/lastmile_qr_scan", "ios": "https://dc.lft.to/lastmile_qr_scan"}, "name": "5c44c80d0b8bc97de4117c9a237c9281", "is_reserved": 0}, {"is_disabled": 0, "fusion_lon": 0.0, "fusion_lat": 0.0, "lat": 38.90986216666667, "type": "electric_scooter", "lon": -77.04265766666667, "bike_id": "347d7fc41dd7f23494b8b1799ccf4c21", "rental_uris": {"android": "https://dc.lft.to/lastmile_qr_scan", "ios": "https://dc.lft.to/lastmile_qr_scan"}, "name": "347d7fc41dd7f23494b8b1799ccf4c21", "is_reserved": 0}, {"is_disabled": 0, "fusion_lon": 0.0, "fusion_lat": 0.0, "lat": 38.9136115, "type": "electric_scooter", "lon": -77.02589066666667, "bike_id": "b1d9450e4ecf4266c4fcf2ae53c83241", "rental_uris": {"android": "https://dc.lft.to/lastmile_qr_scan", "ios": "https://dc.lft.to/lastmile_qr_scan"}, "name": "b1d9450e4ecf4266c4fcf2ae53c83241", "is_reserved": 0}, {"is_disabled": 0, "fusion_lon": 0.0, "fusion_lat": 0.0, "lat": 38.894001333333335, "type": "electric_scooter", "lon": -76.94997166666667, "bike_id": "5a147d9b4fc7b48713e0f571ea5e90db", "rental_uris": {"android": "https://dc.lft.to/lastmile_qr_scan", "ios": "https://dc.lft.to/lastmile_qr_scan"}, "name": "5a147d9b4fc7b48713e0f571ea5e90db", "is_reserved": 0}, {"is_disabled": 0, "fusion_lon": 0.0, "fusion_lat": 0.0, "lat": 38.916908166666666, "type": "electric_scooter", "lon": -77.0368535, "bike_id": "eb13beacfcf9952022db3b744f78d574", "rental_uris": {"android": "https://dc.lft.to/lastmile_qr_scan", "ios": "https://dc.lft.to/lastmile_qr_scan"}, "name": "eb13beacfcf9952022db3b744f78d574", "is_reserved": 0}, {"is_disabled": 0, "fusion_lon": 0.0, "fusion_lat": 0.0, "lat": 38.905061333333336, "type": "electric_scooter", "lon": -76.99620183333333, "bike_id": "a243c27122b00edfb6e82e1319ee5207", "rental_uris": {"android": "https://dc.lft.to/lastmile_qr_scan", "ios": "https://dc.lft.to/lastmile_qr_scan"}, "name": "a243c27122b00edfb6e82e1319ee5207", "is_reserved": 0}, {"is_disabled": 0, "fusion_lon": 0.0, "fusion_lat": 0.0, "lat": 38.92215933333333, "type": "electric_scooter", "lon": -77.04240316666667, "bike_id": "b2579ec42d93d6c68e1695d7959e32f8", "rental_uris": {"android": "https://dc.lft.to/lastmile_qr_scan", "ios": "https://dc.lft.to/lastmile_qr_scan"}, "name": "b2579ec42d93d6c68e1695d7959e32f8", "is_reserved": 0}, {"is_disabled": 0, "fusion_lon": 0.0, "fusion_lat": 0.0, "lat": 38.911914333333335, "type": "electric_scooter", "lon": -77.03707283333334, "bike_id": "bffd9465b3a834c8468e0b8751890c1b", "rental_uris": {"android": "https://dc.lft.to/lastmile_qr_scan", "ios": "https://dc.lft.to/lastmile_qr_scan"}, "name": "bffd9465b3a834c8468e0b8751890c1b", "is_reserved": 0}, {"is_disabled": 0, "fusion_lon": 0.0, "fusion_lat": 0.0, "lat": 38.924845833333336, "type": "electric_scooter", "lon": -77.02775383333334, "bike_id": "8333cf400514584ebcf4de44ac331a93", "rental_uris": {"android": "https://dc.lft.to/lastmile_qr_scan", "ios": "https://dc.lft.to/lastmile_qr_scan"}, "name": "8333cf400514584ebcf4de44ac331a93", "is_reserved": 0}, {"is_disabled": 0, "fusion_lon": 0.0, "fusion_lat": 0.0, "lat": 38.89421333333333, "type": "electric_scooter", "lon": -77.0233325, "bike_id": "109936fe817aea3c3ddbc25db18a3a80", "rental_uris": {"android": "https://dc.lft.to/lastmile_qr_scan", "ios": "https://dc.lft.to/lastmile_qr_scan"}, "name": "109936fe817aea3c3ddbc25db18a3a80", "is_reserved": 0}, {"is_disabled": 0, "fusion_lon": 0.0, "fusion_lat": 0.0, "lat": 38.827807166666666, "type": "electric_bike", "lon": -77.1107825, "bike_id": "e4339d0dd5d1d8b37e01ebac47d08b28", "rental_uris": {"android": "https://dc.lft.to/lastmile_qr_scan", "ios": "https://dc.lft.to/lastmile_qr_scan"}, "name": "e4339d0dd5d1d8b37e01ebac47d08b28", "is_reserved": 0}, {"is_disabled": 0, "fusion_lon": 0.0, "fusion_lat": 0.0, "lat": 38.93028616666667, "type": "electric_scooter", "lon": -77.0345105, "bike_id": "a778781e45f8e3f08ff937f4c1f1f1cd", "rental_uris": {"android": "https://dc.lft.to/lastmile_qr_scan", "ios": "https://dc.lft.to/lastmile_qr_scan"}, "name": "a778781e45f8e3f08ff937f4c1f1f1cd", "is_reserved": 0}, {"is_disabled": 0, "fusion_lon": 0.0, "fusion_lat": 0.0, "lat": 38.89743133333333, "type": "electric_scooter", "lon": -77.0004315, "bike_id": "2127de5a66ec39c7dd909eae863edd41", "rental_uris": {"android": "https://dc.lft.to/lastmile_qr_scan", "ios": "https://dc.lft.to/lastmile_qr_scan"}, "name": "2127de5a66ec39c7dd909eae863edd41", "is_reserved": 0}, {"is_disabled": 0, "fusion_lon": 0.0, "fusion_lat": 0.0, "lat": 38.939634, "type": "electric_scooter", "lon": -77.0328105, "bike_id": "f8552340f2b26433ce986518fe4ca755", "rental_uris": {"android": "https://dc.lft.to/lastmile_qr_scan", "ios": "https://dc.lft.to/lastmile_qr_scan"}, "name": "f8552340f2b26433ce986518fe4ca755", "is_reserved": 0}, {"is_disabled": 0, "fusion_lon": 0.0, "fusion_lat": 0.0, "lat": 38.90284333333334, "type": "electric_scooter", "lon": -77.024263, "bike_id": "a5f4bf70a6bad10b073586ad7b636055", "rental_uris": {"android": "https://dc.lft.to/lastmile_qr_scan", "ios": "https://dc.lft.to/lastmile_qr_scan"}, "name": "a5f4bf70a6bad10b073586ad7b636055", "is_reserved": 0}, {"is_disabled": 0, "fusion_lon": 0.0, "fusion_lat": 0.0, "lat": 38.927987, "type": "electric_scooter", "lon": -77.05370366666666, "bike_id": "393eb6969f4f9bbb74c5be2c3e9cf335", "rental_uris": {"android": "https://dc.lft.to/lastmile_qr_scan", "ios": "https://dc.lft.to/lastmile_qr_scan"}, "name": "393eb6969f4f9bbb74c5be2c3e9cf335", "is_reserved": 0}, {"is_disabled": 0, "fusion_lon": 0.0, "fusion_lat": 0.0, "lat": 38.82444533333334, "type": "electric_bike", "lon": -77.07042066666666, "bike_id": "28fa94b3d9cf4d2a229bde39e6c63a8a", "rental_uris": {"android": "https://dc.lft.to/lastmile_qr_scan", "ios": "https://dc.lft.to/lastmile_qr_scan"}, "name": "28fa94b3d9cf4d2a229bde39e6c63a8a", "is_reserved": 0}, {"is_disabled": 0, "fusion_lon": 0.0, "fusion_lat": 0.0, "lat": 38.96193983333333, "type": "electric_scooter", "lon": -77.02778533333333, "bike_id": "ffa42b623475ab7bc36e6b4bc9fce5d5", "rental_uris": {"android": "https://dc.lft.to/lastmile_qr_scan", "ios": "https://dc.lft.to/lastmile_qr_scan"}, "name": "ffa42b623475ab7bc36e6b4bc9fce5d5", "is_reserved": 0}, {"is_disabled": 0, "fusion_lon": 0.0, "fusion_lat": 0.0, "lat": 38.89834916666667, "type": "electric_scooter", "lon": -76.94633516666667, "bike_id": "1c5e833ef38de3e035e85b73f8d0b824", "rental_uris": {"android": "https://dc.lft.to/lastmile_qr_scan", "ios": "https://dc.lft.to/lastmile_qr_scan"}, "name": "1c5e833ef38de3e035e85b73f8d0b824", "is_reserved": 0}, {"is_disabled": 0, "fusion_lon": 0.0, "fusion_lat": 0.0, "lat": 38.9011045, "type": "electric_scooter", "lon": -77.03159966666666, "bike_id": "242517971ef1596719210f2855698d75", "rental_uris": {"android": "https://dc.lft.to/lastmile_qr_scan", "ios": "https://dc.lft.to/lastmile_qr_scan"}, "name": "242517971ef1596719210f2855698d75", "is_reserved": 0}, {"is_disabled": 0, "fusion_lon": 0.0, "fusion_lat": 0.0, "lat": 38.94554216666667, "type": "electric_bike", "lon": -77.0512015, "bike_id": "e591e4f99638c2f6063721b3afaaf1ad", "rental_uris": {"android": "https://dc.lft.to/lastmile_qr_scan", "ios": "https://dc.lft.to/lastmile_qr_scan"}, "name": "e591e4f99638c2f6063721b3afaaf1ad", "is_reserved": 0},