{"data": {"bikes": [{"fusion_lat": 0.0, "name": "e249ce504820716055d20a0d7543dacd", "lon": -77.0550685, "rental_uris": {"android": "https://dc.lft.to/lastmile_qr_scan", "ios": "https://dc.lft.to/lastmile_qr_scan"}, "fusion_lon": 0.0, "bike_id": "e249ce504820716055d20a0d7543dacd", "is_disabled": 0, "lat": 38.92952, "is_reserved": 0, "type": "electric_scooter"}, {"fusion_lat": 0.0, "name": "dcd4190d612351f388d1c0ee8d562c99", "lon": -77.04978433333333, "rental_uris": {"android": "https://dc.lft.to/lastmile_qr_scan", "ios": "https://dc.lft.to/lastmile_qr_scan"}, "fusion_lon": 0.0, "bike_id": "dcd4190d612351f388d1c0ee8d562c99", "is_disabled": 0, "lat": 39.0629195, "is_reserved": 0, "type": "electric_bike"}, {"fusion_lat": 0.0, "name": "6131720b5bd52ac1d3f3b5198fcdf1b8", "lon": -77.00581933333333, "rental_uris": {"android": "https://dc.lft.to/lastmile_qr_scan", "ios": "https://dc.lft.to/lastmile_qr_scan"}, "fusion_lon": 0.0, "bike_id": "6131720b5bd52ac1d3f3b5198fcdf1b8", "is_disabled": 0, "lat": 38.90227316666667, "is_reserved": 0, "type": "electric_scooter"}, {"fusion_lat": 0.0, "name": "01894347fad84372d1c1ed1375a19293", "lon": -77.02978533333334, "rental_uris": {"android": "https://dc.lft.to/lastmile_qr_scan", "ios": "https://dc.lft.to/lastmile_qr_scan"}, "fusion_lon": 0.0, "bike_id": "01894347fad84372d1c1ed1375a19293", "is_disabled": 0, "lat": 38.93979016666667, "is_reserved": 0, "type": "electric_scooter"}, {"fusion_lat": 0.0, "name": "4fe4be44872381c1f9168aa8bb0b4d36", "lon": -76.97861866666666, "rental_uris": {"android": "https://dc.lft.to/lastmile_qr_scan", "ios": "https://dc.lft.to/lastmile_qr_scan"}, "fusion_lon": 0.0, "bike_id": "4fe4be44872381c1f9168aa8bb0b4d36", "is_disabled": 0, "lat": 38.882997333333336, "is_reserved": 0, "type": "electric_scooter"}, {"fusion_lat": 0.0, "name": "963008617ded63651878665a605de82c", "lon": -76.93377766666667, "rental_uris": {"android": "https://dc.lft.to/lastmile_qr_scan", "ios": "https://dc.lft.to/lastmile_qr_scan"}, "fusion_lon": 0.0, "bike_id": "963008617ded63651878665a605de82c", "is_disabled": 0, "lat": 38.899147166666665, "is_reserved": 0, "type": "electric_scooter"}, {"fusion_lat": 0.0, "name": "30029499107ff23dc4c4ca12010c23ca", "lon": -77.01766833333333, "rental_uris": {"android": "https://dc.lft.to/lastmile_qr_scan", "ios": "https://dc.lft.to/lastmile_qr_scan"}, "fusion_lon": 0.0, "bike_id": "30029499107ff23dc4c4ca12010c23ca", "is_disabled": 0, "lat": 38.88728666666667, "is_reserved": 0, "type": "electric_scooter"}, {"fusion_lat": 0.0, "name": "faa1ce38cfa5813ff4cdbfc727095e75", "lon": -77.0128015, "rental_uris": {"android": "https://dc.lft.to/lastmile_qr_scan", "ios": "https://dc.lft.to/lastmile_qr_scan"}, "fusion_lon": 0.0, "bike_id": "faa1ce38cfa5813ff4cdbfc727095e75", "is_disabled": 0, "lat": 38.89754666666666, "is_reserved": 0, "type": "electric_scooter"}, {"fusion_lat": 0.0, "name": "b9c835b5f66b1a0bb9f0a4e5495c6d20", "lon": -77.041222, "rental_uris": {"android": "https://dc.lft.to/lastmile_qr_scan", "ios": "https://dc.lft.to/lastmile_qr_scan"}, "fusion_lon": 0.0, "bike_id": "b9c835b5f66b1a0bb9f0a4e5495c6d20", "is_disabled": 0, "lat": 38.924474333333336, "is_reserved": 0, "type": "electric_scooter"}, {"fusion_lat": 0.0, "name": "2b38c5711fc1fa41d79c837c15fac6f2", "lon": -77.04753033333333, "rental_uris": {"android": "https://dc.lft.to/lastmile_qr_scan", "ios": "https://dc.lft.to/lastmile_qr_scan"}, "fusion_lon": 0.0, "bike_id": "2b38c5711fc1fa41d79c837c15fac6f2", "is_disabled": 0, "lat": 38.90087833333333, "is_reserved": 0, "type": "electric_scooter"}, {"fusion_lat": 0.0, "name": "d48a06e6da741dc405cbb1052f29a332", "lon": -76.9337905, "rental_uris": {"android": "https://dc.lft.to/lastmile_qr_scan", "ios": "https://dc.lft.to/lastmile_qr_scan"}, "fusion_lon": 0.0, "bike_id": "d48a06e6da741dc405cbb1052f29a332", "is_disabled": 0, "lat": 38.89916566666667, "is_reserved": 0, "type": "electric_scooter"}, {"fusion_lat": 0.0, "name": "5b5652f2bcd69399f8c94520f82a5728", "lon": -77.0315605, "rental_uris": {"android": "https://dc.lft.to/lastmile_qr_scan", "ios": "https://dc.lft.to/lastmile_qr_scan"}, "fusion_lon": 0.0, "bike_id": "5b5652f2bcd69399f8c94520f82a5728", "is_disabled": 0, "lat": 38.913538, "is_reserved": 0, "type": "electric_scooter"}, {"fusion_lat": 0.0, "name": "82a324c5a49e43630e6d954bf9316f7d", "lon": -77.02324616666667, "rental_uris": {"android": "https://dc.lft.to/lastmile_qr_scan", "ios": "https://dc.lft.to/lastmile_qr_scan"}, "fusion_lon": 0.0, "bike_id": "82a324c5a49e43630e6d954bf9316f7d", "is_disabled": 0, "lat": 38.91664683333333, "is_reserved": 0, "type": "electric_scooter"}, {"fusion_lat": 0.0, "name": "7f2f8ffb962f2473ff7013fee2570be9", "lon": -76.9826435, "rental_uris": {"android": "https://dc.lft.to/lastmile_qr_scan", "ios": "https://dc.lft.to/lastmile_qr_scan"}, "fusion_lon": 0.0, "bike_id": "7f2f8ffb962f2473ff7013fee2570be9", "is_disabled": 0, "lat": 38.89919283333333, "is_reserved": 0, "type": "electric_scooter"}, {"fusion_lat": 0.0, "name": "8562f14bfaec6c594c83aa888785b623", "lon": -77.09467216666667, "rental_uris": {"android": "https://dc.lft.to/lastmile_qr_scan", "ios": "https://dc.lft.to/lastmile_qr_scan"}, "fusion_lon": 0.0, "bike_id": "8562f14bfaec6c594c83aa888785b623", "is_disabled": 0, "lat": 38.807547666666665, "is_reserved": 0, "type": "electric_bike"}, {"fusion_lat": 0.0, "name": "49ec4e9aad6e9eddf1fa25433e20f4d2", "lon": -77.0073975, "rental_uris": {"android": "https://dc.lft.to/lastmile_qr_scan", "ios": "https://dc.lft.to/lastmile_qr_scan"}, "fusion_lon": 0.0, "bike_id": "49ec4e9aad6e9eddf1fa25433e20f4d2", "is_disabled": 0, "lat": 38.9036055, "is_reserved": 0, "type": "electric_scooter"}, {"fusion_lat": 0.0, "name": "ee2159e12252577267d3d62e1dde0954", "lon": -77.05439133333333, "rental_uris": {"android": "https://dc.lft.to/lastmile_qr_scan", "ios": "https://dc.lft.to/lastmile_qr_scan"}, "fusion_lon": 0.0, "bike_id": "ee2159e12252577267d3d62e1dde0954", "is_disabled": 0, "lat": 38.895982833333335, "is_reserved": 0, "type": "electric_scooter"}, {"fusion_lat": 0.0, "name": "5d1750c7311201b474235667c14169c5", "lon": -77.06054183333333, "rental_uris": {"android": "https://dc.lft.to/lastmile_qr_scan", "ios": "https://dc.lft.to/lastmile_qr_scan"}, "fusion_lon": 0.0, "bike_id": "5d1750c7311201b474235667c14169c5", "is_disabled": 0, "lat": 38.905195166666665, "is_reserved": 0, "type": "electric_scooter"}, {"fusion_lat": 0.0, "name": "51862339d17d43ff5dd65bf9c3282149", "lon": -77.0222215, "rental_uris": {"android": "https://dc.lft.to/lastmile_qr_scan", "ios": "https://dc.lft.to/lastmile_qr_scan"}, "fusion_lon": 0.0, "bike_id": "51862339d17d43ff5dd65bf9c3282149", "is_disabled": 0, "lat": 38.9355085, "is_reserved": 0, "type": "electric_scooter"}, {"fusion_lat": 0.0, "name": "5002f8650e8814d2a9b0d121bfc58f0d", "lon": -77.02572266666667, "rental_uris": {"android": "https://dc.lft.to/lastmile_qr_scan", "ios": "https://dc.lft.to/lastmile_qr_scan"}, "fusion_lon": 0.0, "bike_id": "5002f8650e8814d2a9b0d121bfc58f0d", "is_disabled": 0, "lat": 38.88417533333333, "is_reserved": 0, "type": "electric_scooter"}, {"fusion_lat": 0.0, "name": "73ebc4f65dbb678b12eb77cdfe1e25e5", "lon": -77.032445, "rental_uris": {"android": "https://dc.lft.to/lastmile_qr_scan", "ios": "https://dc.lft.to/lastmile_qr_scan"}, "fusion_lon": 0.0, "bike_id": "73ebc4f65dbb678b12eb77cdfe1e25e5", "is_disabled": 0, "lat": 38.921595833333335, "is_reserved": 0, "type": "electric_scooter"}, {"fusion_lat": 0.0, "name": "cc20a4af4b6ac567bee144475d9168ad", "lon": -76.97438816666667, "rental_uris": {"android": "https://dc.lft.to/lastmile_qr_scan", "ios": "https://dc.lft.to/lastmile_qr_scan"}, "fusion_lon": 0.0, "bike_id": "cc20a4af4b6ac567bee144475d9168ad", "is_disabled": 0, "lat": 38.864079, "is_reserved": 0, "type": "electric_scooter"}, {"fusion_lat": 0.0, "name": "6ffe517ca387f6b7290f2dd8d294816f", "lon": -76.90083166666666, "rental_uris": {"android": "https://dc.lft.to/lastmile_qr_scan", "ios": "https://dc.lft.to/lastmile_qr_scan"}, "fusion_lon": 0.0, "bike_id": "6ffe517ca387f6b7290f2dd8d294816f", "is_disabled": 0, "lat": 38.887627, "is_reserved": 0, "type": "electric_bike"}, {"fusion_lat": 0.0, "name": "af34efda9b6a9e36f0fca317afcdb690", "lon": -77.01271716666666, "rental_uris": {"android": "https://dc.lft.to/lastmile_qr_scan", "ios": "https://dc.lft.to/lastmile_qr_scan"}, "fusion_lon": 0.0, "bike_id": "af34efda9b6a9e36f0fca317afcdb690", "is_disabled": 0, "lat": 38.8923205, "is_reserved": 0, "type": "electric_scooter"}, {"fusion_lat": 0.0, "name": "eb19df97fbd6e09e6e455ccc2697754b", "lon": -77.03404333333333, "rental_uris": {"android": "https://dc.lft.to/lastmile_qr_scan", "ios": "https://dc.lft.to/lastmile_qr_scan"}, "fusion_lon": 0.0, "bike_id": "eb19df97fbd6e09e6e455ccc2697754b", "is_disabled": 0, "lat": 38.922615, "is_reserved": 0, "type": "electric_scooter"}, {"fusion_lat": 0.0, "name": "4934f78b78c7b9528c0fb6edefebeeb7", "lon": -77.02846016666666, "rental_uris": {"android": "https://dc.lft.to/lastmile_qr_scan", "ios": "https://dc.lft.to/lastmile_qr_scan"}, "fusion_lon": 0.0, "bike_id": "4934f78b78c7b9528c0fb6edefebeeb7", "is_disabled": 0, "lat": 38.9322145, "is_reserved": 0, "type": "electric_scooter"}, {"fusion_lat": 0.0, "name": "7d876787c12c44d86397de70ec20c512", "lon": -77.003655, "rental_uris": {"android": "https://dc.lft.to/lastmile_qr_scan", "ios": "https://dc.lft.to/lastmile_qr_scan"}, "fusion_lon": 0.0, "bike_id": "7d876787c12c44d86397de70ec20c512", "is_disabled": 0, "lat": 38.907297666666665, "is_reserved": 0, "type": "electric_scooter"}, {"fusion_lat": 0.0, "name": "80438b73efdeff86fb1cd1fb10e1f818", "lon": -77.04375033333334, "rental_uris": {"android": "https://dc.lft.to/lastmile_qr_scan", "ios": "https://dc.lft.to/lastmile_qr_scan"}, "fusion_lon": 0.0, "bike_id": "80438b73efdeff86fb1cd1fb10e1f818", "is_disabled": 0, "lat": 38.892208833333335, "is_reserved": 0, "type": "electric_scooter"}, {"fusion_lat": 0.0, "name": "a2dd95e74a2ae14e0c0a6201d7b2d652", "lon": -76.98237666666667, "rental_uris": {"android": "https://dc.lft.to/lastmile_qr_scan", "ios": "https://dc.lft.to/lastmile_qr_scan"}, "fusion_lon": 0.0, "bike_id": "a2dd95e74a2ae14e0c0a6201d7b2d652", "is_disabled": 0, "lat": 38.86892866666667, "is_reserved": 0, "type": "electric_scooter"}, {"fusion_lat": 0.0, "name": "bc06bccb220b92e3c4e6e5d619cee5db", "lon": -77.04470733333333, "rental_uris": {"android": "https://dc.lft.to/lastmile_qr_scan", "ios": "https://dc.lft.to/lastmile_qr_scan"}, "fusion_lon": 0.0, "bike_id": "bc06bccb220b92e3c4e6e5d619cee5db", "is_disabled": 0, "lat": 38.901413, "is_reserved": 0, "type": "electric_scooter"}, {"fusion_lat": 0.0, "name": "f8ceb632c8bfce4b57af43c1c2ddb54e", "lon": -77.0433475, "rental_uris": {"android": "https://dc.lft.to/lastmile_qr_scan", "ios": "https://dc.lft.to/lastmile_qr_scan"}, "fusion_lon": 0.0, "bike_id": "f8ceb632c8bfce4b57af43c1c2ddb54e", "is_disabled": 0, "lat": 38.89225033333334, "is_reserved": 0, "type": "electric_scooter"}, {"fusion_lat": 0.0, "name": "023b978b69a41dca2aac6dbf86939159", "lon": -77.02966083333334, "rental_uris": {"android": "https://dc.lft.to/lastmile_qr_scan", "ios": "https://dc.lft.to/lastmile_qr_scan"}, "fusion_lon": 0.0, "bike_id": "023b978b69a41dca2aac6dbf86939159", "is_disabled": 0, "lat": 38.907065833333334, "is_reserved": 0, "type": "electric_scooter"}, {"fusion_lat": 0.0, "name": "e6e2b5a57d1e186e591abbc72f1c98a0", "lon": -77.0483845, "rental_uris": {"android": "https://dc.lft.to/lastmile_qr_scan", "ios": "https://dc.lft.to/lastmile_qr_scan"}, "fusion_lon": 0.0, "bike_id": "e6e2b5a57d1e186e591abbc72f1c98a0", "is_disabled": 0, "lat": 38.916181333333334, "is_reserved": 0, "type": "electric_scooter"}, {"fusion_lat": 0.0, "name": "3fb73e6fd3e80d4fde4089bf3850dbfc", "lon": -77.04626016666667, "rental_uris": {"android": "https://dc.lft.to/lastmile_qr_scan", "ios": "https://dc.lft.to/lastmile_qr_scan"}, "fusion_lon": 0.0, "bike_id": "3fb73e6fd3e80d4fde4089bf3850dbfc", "is_disabled": 0, "lat": 38.9022445, "is_reserved": 0, "type": "electric_scooter"}, {"fusion_lat": 0.0, "name": "6d4c6c6e004c1e1796c97b19e935dda1", "lon": -76.93060983333334, "rental_uris": {"android": "https://dc.lft.to/lastmile_qr_scan", "ios": "https://dc.lft.to/lastmile_qr_scan"}, "fusion_lon": 0.0, "bike_id": "6d4c6c6e004c1e1796c97b19e935dda1", "is_disabled": 0, "lat": 38.898492166666664, "is_reserved": 0, "type": "electric_scooter"}, {"fusion_lat": 0.0, "name": "51bf1dc9d470782eac0b0d1609fd8a62", "lon": -77.011864, "rental_uris": {"android": "https://dc.lft.to/lastmile_qr_scan", "ios": "https://dc.lft.to/lastmile_qr_scan"}, "fusion_lon": 0.0, "bike_id": "51bf1dc9d470782eac0b0d1609fd8a62", "is_disabled": 0, "lat": 38.90024183333333, "is_reserved": 0, "type": "electric_scooter"}, {"fusion_lat": 0.0, "name": "f465e8f3b51984c42d86fd08d63d611c", "lon": -76.9993865, "rental_uris": {"android": "https://dc.lft.to/lastmile_qr_scan", "ios": "https://dc.lft.to/lastmile_qr_scan"}, "fusion_lon": 0.0, "bike_id": "f465e8f3b51984c42d86fd08d63d611c", "is_disabled": 0, "lat": 38.84313616666667, "is_reserved": 0, "type": "electric_scooter"}, {"fusion_lat": 0.0, "name": "9523326943af0a22e6a4cb9e36a218e2", "lon": -77.02326666666667, "rental_uris": {"android": "https://dc.lft.to/lastmile_qr_scan", "ios": "https://dc.lft.to/lastmile_qr_scan"}, "fusion_lon": 0.0, "bike_id": "9523326943af0a22e6a4cb9e36a218e2", "is_disabled": 0, "lat": 38.92661366666667, "is_reserved": 0, "type": "electric_scooter"}, {"fusion_lat": 0.0, "name": "3327f9db01ac03a697fc60928d455d7e", "lon": -76.987094, "rental_uris": {"android": "https://dc.lft.to/lastmile_qr_scan", "ios": "https://dc.lft.to/lastmile_qr_scan"}, "fusion_lon": 0.0, "bike_id": "3327f9db01ac03a697fc60928d455d7e", "is_disabled": 0, "lat": 38.8669745, "is_reserved": 0, "type": "electric_scooter"}, {"fusion_lat": 0.0, "name": "23937161a15455028ee1eef9fbdbc781", "lon": -77.008895, "rental_uris": {"android": "https://dc.lft.to/lastmile_qr_scan", "ios": "https://dc.lft.to/lastmile_qr_scan"}, "fusion_lon": 0.0, "bike_id": "23937161a15455028ee1eef9fbdbc781", "is_disabled": 0, "lat": 38.8744845, "is_reserved": 0, "type": "electric_scooter"}, {"fusion_lat": 0.0, "name": "1d68226cf128bf51af8fbed0a5dd4067", "lon": -77.04145183333333, "rental_uris": {"android": "https://dc.lft.to/lastmile_qr_scan", "ios": "https://dc.lft.to/lastmile_qr_scan"}, "fusion_lon": 0.0, "bike_id": "1d68226cf128bf51af8fbed0a5dd4067", "is_disabled": 0, "lat": 38.905227333333336, "is_reserved": 0, "type": "electric_scooter"}, {"fusion_lat": 0.0, "name": "9efb19d0770c313843c329e910498625", "lon": -77.03517333333333, "rental_uris": {"android": "https://dc.lft.to/lastmile_qr_scan", "ios": "https://dc.lft.to/lastmile_qr_scan"}, "fusion_lon": 0.0, "bike_id": "9efb19d0770c313843c329e910498625", "is_disabled": 0, "lat": 38.92378466666667, "is_reserved": 0, "type": "electric_scooter"}, {"fusion_lat": 0.0, "name": "1ae557575c94a4cad0e72c2eedd50746", "lon": -77.0220225, "rental_uris": {"android": "https://dc.lft.to/lastmile_qr_scan", "ios": "https://dc.lft.to/lastmile_qr_scan"}, "fusion_lon": 0.0, "bike_id": "1ae557575c94a4cad0e72c2eedd50746", "is_disabled": 0, "lat": 38.91438766666667, "is_reserved": 0, "type": "electric_scooter"}, {"fusion_lat": 0.0, "name": "7c76a7add6e0b6da23ce605391863fe2", "lon": -77.03598316666667, "rental_uris": {"android": "https://dc.lft.to/lastmile_qr_scan", "ios": "https://dc.lft.to/lastmile_qr_scan"}, "fusion_lon": 0.0, "bike_id": "7c76a7add6e0b6da23ce605391863fe2", "is_disabled": 0, "lat": 38.917013, "is_reserved": 0, "type": "electric_scooter"}, {"fusion_lat": 0.0, "name": "19d22dac50835f2d0ea0343345597ede", "lon": -76.99366633333334, "rental_uris": {"android": "https://dc.lft.to/lastmile_qr_scan", "ios": "https://dc.lft.to/lastmile_qr_scan"}, "fusion_lon": 0.0, "bike_id": "19d22dac50835f2d0ea0343345597ede", "is_disabled": 0, "lat": 38.888298166666665, "is_reserved": 0, "type": "electric_scooter"}, {"fusion_lat": 0.0, "name": "53327a6f4cc814cfe2e279917a5f0afc", "lon": -76.9948265, "rental_uris": {"android": "https://dc.lft.to/lastmile_qr_scan", "ios": "https://dc.lft.to/lastmile_qr_scan"}, "fusion_lon": 0.0, "bike_id": "53327a6f4cc814cfe2e279917a5f0afc", "is_disabled": 0, "lat": 38.886019166666664, "is_reserved": 0, "type": "electric_scooter"}, {"fusion_lat": 0.0, "name": "04e02a29a86859de650dc87ef7b9ff55", "lon": -77.02958233333334, "rental_uris": {"android": "https://dc.lft.to/lastmile_qr_scan", "ios": "https://dc.lft.to/lastmile_qr_scan"}, "fusion_lon": 0.0, "bike_id": "04e02a29a86859de650dc87ef7b9ff55", "is_disabled": 0, "lat": 38.916698333333336, "is_reserved": 0, "type": "electric_scooter"}, {"fusion_lat": 0.0, "name": "e0fe88e3c226d659bfa011fb5186ebf6", "lon": -77.02542483333333, "rental_uris": {"android": "https://dc.lft.to/lastmile_qr_scan", "ios": "https://dc.lft.to/lastmile_qr_scan"}, "fusion_lon": 0.0, "bike_id": "e0fe88e3c226d659bfa011fb5186ebf6", "is_disabled": 0, "lat": 38.92746666666667, "is_reserved": 0, "type": "electric_scooter"}, {"fusion_lat": 0.0, "name": "9a5f8cb73db5d958f9c0962c581a8ecd", "lon": -77.00923, "rental_uris": {"android": "https://dc.lft.to/lastmile_qr_scan", "ios": "https://dc.lft.to/lastmile_qr_scan"}, "fusion_lon": 0.0, "bike_id": "9a5f8cb73db5d958f9c0962c581a8ecd", "is_disabled": 0, "lat": 38.916147, "is_reserved": 0, "type": "electric_scooter"}, {"fusion_lat": 0.0, "name": "b75f18a00f709dadffd978b85a9162bd", "lon": -77.04409033333333, "rental_uris": {"android": "https://dc.lft.to/lastmile_qr_scan", "ios": "https://dc.lft.to/lastmile_qr_scan"}, "fusion_lon": 0.0, "bike_id": "b75f18a00f709dadffd978b85a9162bd", "is_disabled": 0, "lat": 38.9104255, "is_reserved": 0, "type": "electric_scooter"}, {"fusion_lat": 0.0, "name": "4e719d23cd3c87e590351780a5ef03d9", "lon": -77.0262835, "rental_uris": {"android": "https://dc.lft.to/lastmile_qr_scan", "ios": "https://dc.lft.to/lastmile_qr_scan"}, "fusion_lon": 0.0, "bike_id": "4e719d23cd3c87e590351780a5ef03d9", "is_disabled": 0, "lat": 38.96209966666667, "is_reserved": 0, "type": "electric_bike"}, {"fusion_lat": 0.0, "name": "343e0f99ddd0c4b47e8359003b0e37e1", "lon": -76.9859465, "rental_uris": {"android": "https://dc.lft.to/lastmile_qr_scan", "ios": "https://dc.lft.to/lastmile_qr_scan"}, "fusion_lon": 0.0, "bike_id": "343e0f99ddd0c4b47e8359003b0e37e1", "is_disabled": 0, "lat": 38.86683283333333, "is_reserved": 0, "type": "electric_scooter"}, {"fusion_lat": 0.0, "name": "8e15d0df936ac636ce916eec40be727d", "lon": -77.05844883333333, "rental_uris": {"android": "https://dc.lft.to/lastmile_qr_scan", "ios": "https://dc.lft.to/lastmile_qr_scan"}, "fusion_lon": 0.0, "bike_id": "8e15d0df936ac636ce916eec40be727d", "is_disabled": 0, "lat": 38.930501, "is_reserved": 0, "type": "electric_scooter"}, {"fusion_lat": 0.0, "name": "f733b8b9c030ec86047cdb2b762acc26", "lon": -77.03296416666667, "rental_uris": {"android": "https://dc.lft.to/lastmile_qr_scan", "ios": "https://dc.lft.to/lastmile_qr_scan"}, "fusion_lon": 0.0, "bike_id": "f733b8b9c030ec86047cdb2b762acc26", "is_disabled": 0, "lat": 38.956236833333335, "is_reserved": 0, "type": "electric_scooter"}, {"fusion_lat": 0.0, "name": "2f7ab9c32c64d3b12f755aaa9b77453b", "lon": -76.99508383333334, "rental_uris": {"android": "https://dc.lft.to/lastmile_qr_scan", "ios": "https://dc.lft.to/lastmile_qr_scan"}, "fusion_lon": 0.0, "bike_id": "2f7ab9c32c64d3b12f755aaa9b77453b", "is_disabled": 0, "lat": 38.87912516666667, "is_reserved": 0, "type": "electric_scooter"}, {"fusion_lat": 0.0, "name": "06674fc18e14aec8f97cf888709b6585", "lon": -77.0344015, "rental_uris": {"android": "https://dc.lft.to/lastmile_qr_scan", "ios": "https://dc.lft.to/lastmile_qr_scan"}, "fusion_lon": 0.0, "bike_id": "06674fc18e14aec8f97cf888709b6585", "is_disabled": 0, "lat": 38.91908983333333, "is_reserved": 0, "type": "electric_scooter"}, {"fusion_lat": 0.0, "name": "5aa8a77b81975e8222879e3156b02aab", "lon": -77.04041816666667, "rental_uris": {"android": "https://dc.lft.to/lastmile_qr_scan", "ios": "https://dc.lft.to/lastmile_qr_scan"}, "fusion_lon": 0.0, "bike_id": "5aa8a77b81975e8222879e3156b02aab", "is_disabled": 0, "lat": 38.9230765, "is_reserved": 0, "type": "electric_scooter"}, {"fusion_lat": 0.0, "name": "07507c11f0712b5af041e61b6bec577b", "lon": -77.02430416666667, "rental_uris": {"android": "https://dc.lft.to/lastmile_qr_scan", "ios": "https://dc.lft.to/lastmile_qr_scan"}, "fusion_lon": 0.0, "bike_id": "07507c11f0712b5af041e61b6bec577b", "is_disabled": 0, "lat": 38.92052983333333, "is_reserved": 0, "type": "electric_scooter"}, {"fusion_lat": 0.0, "name": "febf242bd804e0eed00772e39ee89280", "lon": -77.01228016666667, "rental_uris": {"android": "https://dc.lft.to/lastmile_qr_scan", "ios": "https://dc.lft.to/lastmile_qr_scan"}, "fusion_lon": 0.0, "bike_id": "febf242bd804e0eed00772e39ee89280", "is_disabled": 0, "lat": 38.8928585, "is_reserved": 0, "type": "electric_scooter"}, {"fusion_lat": 0.0, "name": "443cf5cf5e78bcfaed0abddc60090ac1", "lon": -77.01786266666667, "rental_uris": {"android": "https://dc.lft.to/lastmile_qr_scan", "ios": "https://dc.lft.to/lastmile_qr_scan"}, "fusion_lon": 0.0, "bike_id": "443cf5cf5e78bcfaed0abddc60090ac1", "is_disabled": 0, "lat": 38.92134166666666, "is_reserved": 0, "type": "electric_scooter"}, {"fusion_lat": 0.0, "name": "2c174b6f989aaf6cd5779de0b50294aa", "lon": -76.990626, "rental_uris": {"android": "https://dc.lft.to/lastmile_qr_scan", "ios": "https://dc.lft.to/lastmile_qr_scan"}, "fusion_lon": 0.0, "bike_id": "2c174b6f989aaf6cd5779de0b50294aa", "is_disabled": 0, "lat": 38.863758, "is_reserved": 0, "type": "electric_scooter"}, {"fusion_lat": 0.0, "name": "66198f09efbe32a8ba303721c5224f27", "lon": -76.98509383333334, "rental_uris": {"android": "https://dc.lft.to/lastmile_qr_scan", "ios": "https://dc.lft.to/lastmile_qr_scan"}, "fusion_lon": 0.0, "bike_id": "66198f09efbe32a8ba303721c5224f27", "is_disabled": 0, "lat": 38.86648366666667, "is_reserved": 0, "type": "electric_scooter"}, {"fusion_lat": 0.0, "name": "e277a813371591f469975b64b07f7851", "lon": -77.0455555, "rental_uris": {"android": "https://dc.lft.to/lastmile_qr_scan", "ios": "https://dc.lft.to/lastmile_qr_scan"}, "fusion_lon": 0.0, "bike_id": "e277a813371591f469975b64b07f7851", "is_disabled": 0, "lat": 38.8961425, "is_reserved": 0, "type": "electric_scooter"}, {"fusion_lat": 0.0, "name": "a8b5f96ca539278a2aadbb3bb357d2ae", "lon": -77.01363866666667, "rental_uris": {"android": "https://dc.lft.to/lastmile_qr_scan", "ios": "https://dc.lft.to/lastmile_qr_scan"}, "fusion_lon": 0.0, "bike_id": "a8b5f96ca539278a2aadbb3bb357d2ae", "is_disabled": 0, "lat": 38.8870165, "is_reserved": 0, "type": "electric_scooter"}, {"fusion_lat": 0.0, "name": "77812132132712c6c5295cee0c81b2ae", "lon": -77.00543583333334, "rental_uris": {"android": "https://dc.lft.to/lastmile_qr_scan", "ios": "https://dc.lft.to/lastmile_qr_scan"}, "fusion_lon": 0.0, "bike_id": "77812132132712c6c5295cee0c81b2ae", "is_disabled": 0, "lat": 38.874528833333336, "is_reserved": 0, "type": "electric_scooter"}, {"fusion_lat": 0.0, "name": "55bb59d4922baa80a2f49bf09be7c736", "lon": -77.03202433333334, "rental_uris": {"android": "https://dc.lft.to/lastmile_qr_scan", "ios": "https://dc.lft.to/lastmile_qr_scan"}, "fusion_lon": 0.0, "bike_id": "55bb59d4922baa80a2f49bf09be7c736", "is_disabled": 0, "lat": 38.91593366666667, "is_reserved": 0, "type": "electric_scooter"}, {"fusion_lat": 0.0, "name": "893fc29122ec3f4b7ae37dc3d0c69829", "lon": -77.02173933333333, "rental_uris": {"android": "https://dc.lft.to/lastmile_qr_scan", "ios": "https://dc.lft.to/lastmile_qr_scan"}, "fusion_lon": 0.0, "bike_id": "893fc29122ec3f4b7ae37dc3d0c69829", "is_disabled": 0, "lat": 38.89855133333333, "is_reserved": 0, "type": "electric_scooter"}, {"fusion_lat": 0.0, "name": "71541c0c320a11daef050b1caf23e50a", "lon": -77.00569466666667, "rental_uris": {"android": "https://dc.lft.to/lastmile_qr_scan", "ios": "https://dc.lft.to/lastmile_qr_scan"}, "fusion_lon": 0.0, "bike_id": "71541c0c320a11daef050b1caf23e50a", "is_disabled": 0, "lat": 38.875489, "is_reserved": 0, "type": "electric_scooter"}, {"fusion_lat": 0.0, "name": "25ad52856268ad1ef034fca440273149", "lon": -77.042593, "rental_uris": {"android": "https://dc.lft.to/lastmile_qr_scan", "ios": "https://dc.lft.to/lastmile_qr_scan"}, "fusion_lon": 0.0, "bike_id": "25ad52856268ad1ef034fca440273149", "is_disabled": 0, "lat": 38.904179166666665, "is_reserved": 0, "type": "electric_scooter"}, {"fusion_lat": 0.0, "name": "b0f401dc53a201083b1af2fd28204bc8", "lon": -77.04335283333333, "rental_uris": {"android": "https://dc.lft.to/lastmile_qr_scan", "ios": "https://dc.lft.to/lastmile_qr_scan"}, "fusion_lon": 0.0, "bike_id": "b0f401dc53a201083b1af2fd28204bc8", "is_disabled": 0, "lat": 38.91151133333334, "is_reserved": 0, "type": "electric_scooter"}, {"fusion_lat": 0.0, "name": "8ede1ba9a9b2c2e381f8cb15ac2128d1", "lon": -77.0504975, "rental_uris": {"android": "https://dc.lft.to/lastmile_qr_scan", "ios": "https://dc.lft.to/lastmile_qr_scan"}, "fusion_lon": 0.0, "bike_id": "8ede1ba9a9b2c2e381f8cb15ac2128d1", "is_disabled": 0, "lat": 38.905416333333335, "is_reserved": 0, "type": "electric_scooter"}, {"fusion_lat": 0.0, "name": "4a2e73e809bdb6f5aaa9da440759e217", "lon": -77.16689916666667, "rental_uris": {"android": "https://dc.lft.to/lastmile_qr_scan", "ios": "https://dc.lft.to/lastmile_qr_scan"}, "fusion_lon": 0.0, "bike_id": "4a2e73e809bdb6f5aaa9da440759e217", "is_disabled": 0, "lat": 38.88561633333333, "is_reserved": 0, "type": "electric_bike"}, {"fusion_lat": 0.0, "name": "9f80b7f939d33be765846eb11c118b6b", "lon": -77.03791683333333, "rental_uris": {"android": "https://dc.lft.to/lastmile_qr_scan", "ios": "https://dc.lft.to/lastmile_qr_scan"}, "fusion_lon": 0.0, "bike_id": "9f80b7f939d33be765846eb11c118b6b", "is_disabled": 0, "lat": 38.93040283333333, "is_reserved": 0, "type": "electric_scooter"}, {"fusion_lat": 0.0, "name": "bf9b64f12d010ca835682e9ac91a8204", "lon": -77.0321095, "rental_uris": {"android": "https://dc.lft.to/lastmile_qr_scan", "ios": "https://dc.lft.to/lastmile_qr_scan"}, "fusion_lon": 0.0, "bike_id": "bf9b64f12d010ca835682e9ac91a8204", "is_disabled": 0, "lat": 38.91771983333334, "is_reserved": 0, "type": "electric_scooter"}, {"fusion_lat": 0.0, "name": "afdba7670aa36de94cd5777175350271", "lon": -77.03186783333334, "rental_uris": {"android": "https://dc.lft.to/lastmile_qr_scan", "ios": "https://dc.lft.to/lastmile_qr_scan"}, "fusion_lon": 0.0, "bike_id": "afdba7670aa36de94cd5777175350271", "is_disabled": 0, "lat": 38.89229683333333, "is_reserved": 0, "type": "electric_scooter"}, {"fusion_lat": 0.0, "name": "d5ff3c12090d138a3b46c55170d4b107", "lon": -77.0261735, "rental_uris": {"android": "https://dc.lft.to/lastmile_qr_scan", "ios": "https://dc.lft.to/lastmile_qr_scan"}, "fusion_lon": 0.0, "bike_id": "d5ff3c12090d138a3b46c55170d4b107", "is_disabled": 0, "lat": 38.9518125, "is_reserved": 0, "type": "electric_scooter"}, {"fusion_lat": 0.0, "name": "75fb6a15bf7c580444a99385df73277a", "lon": -77.03218, "rental_uris": {"android": "https://dc.lft.to/lastmile_qr_scan", "ios": "https://dc.lft.to/lastmile_qr_scan"}, "fusion_lon": 0.0, "bike_id": "75fb6a15bf7c580444a99385df73277a", "is_disabled": 0, "lat": 38.89222316666667, "is_reserved": 0, "type": "electric_scooter"}, {"fusion_lat": 0.0, "name": "247de55de3cc877d54e1b825b6658cb0", "lon": -77.02959583333333, "rental_uris": {"android": "https://dc.lft.to/lastmile_qr_scan", "ios": "https://dc.lft.to/lastmile_qr_scan"}, "fusion_lon": 0.0, "bike_id": "247de55de3cc877d54e1b825b6658cb0", "is_disabled": 0, "lat": 38.918828166666664, "is_reserved": 0, "type": "electric_scooter"}, {"fusion_lat": 0.0, "name": "78640a4bf76382659524638179e61c9a", "lon": -76.9928175, "rental_uris": {"android": "https://dc.lft.to/lastmile_qr_scan", "ios": "https://dc.lft.to/lastmile_qr_scan"}, "fusion_lon": 0.0, "bike_id": "78640a4bf76382659524638179e61c9a", "is_disabled": 0, "lat": 38.857522833333334, "is_reserved": 0, "type": "electric_scooter"}, {"fusion_lat": 0.0, "name": "84ca2773102c382d61554d34419ea76c", "lon": -77.0338825, "rental_uris": {"android": "https://dc.lft.to/lastmile_qr_scan", "ios": "https://dc.lft.to/lastmile_qr_scan"}, "fusion_lon": 0.0, "bike_id": "84ca2773102c382d61554d34419ea76c", "is_disabled": 0, "lat": 38.905389666666665, "is_reserved": 0, "type": "electric_scooter"}, {"fusion_lat": 0.0, "name": "deee0e244c8e867a72cfebe734f0de70", "lon": -76.99494866666667, "rental_uris": {"android": "https://dc.lft.to/lastmile_qr_scan", "ios": "https://dc.lft.to/lastmile_qr_scan"}, "fusion_lon": 0.0, "bike_id": "deee0e244c8e867a72cfebe734f0de70", "is_disabled": 0, "lat": 38.862401, "is_reserved": 0, "type": "electric_scooter"}, {"fusion_lat": 0.0, "name": "24486b4530ecf5c44e18071ae2e96e52", "lon": -77.02201233333334, "rental_uris": {"android": "https://dc.lft.to/lastmile_qr_scan", "ios": "https://dc.lft.to/lastmile_qr_scan"}, "fusion_lon": 0.0, "bike_id": "24486b4530ecf5c44e18071ae2e96e52", "is_disabled": 0, "lat": 38.88713033333333, "is_reserved": 0, "type": "electric_scooter"}, {"fusion_lat": 0.0, "name": "7c188e447ac9ee1da18773f6dee29d7e", "lon": -77.0424325, "rental_uris": {"android": "https://dc.lft.to/lastmile_qr_scan", "ios": "https://dc.lft.to/lastmile_qr_scan"}, "fusion_lon": 0.0, "bike_id": "7c188e447ac9ee1da18773f6dee29d7e", "is_disabled": 0, "lat": 38.92234333333333, "is_reserved": 0, "type": "electric_scooter"}, {"fusion_lat": 0.0, "name": "e1eb4ebd87d97989ce3877d5fd6a09bd", "lon": -76.9911115, "rental_uris": {"android": "https://dc.lft.to/lastmile_qr_scan", "ios": "https://dc.lft.to/lastmile_qr_scan"}, "fusion_lon": 0.0, "bike_id": "e1eb4ebd87d97989ce3877d5fd6a09bd", "is_disabled": 0, "lat": 38.90317266666667, "is_reserved": 0, "type": "electric_scooter"}, {"fusion_lat": 0.0, "name": "36c20dfae9aa7225de2831ed51e3c44f", "lon": -77.06975083333333, "rental_uris": {"android": "https://dc.lft.to/lastmile_qr_scan", "ios": "https://dc.lft.to/lastmile_qr_scan"}, "fusion_lon": 0.0, "bike_id": "36c20dfae9aa7225de2831ed51e3c44f", "is_disabled": 0, "lat": 38.952740666666664, "is_reserved": 0, "type": "electric_scooter"}, {"fusion_lat": 0.0, "name": "338115d4263c2cf52821fff3b83f72ed", "lon": -76.9851805, "rental_uris": {"android": "https://dc.lft.to/lastmile_qr_scan", "ios": "https://dc.lft.to/lastmile_qr_scan"}, "fusion_lon": 0.0, "bike_id": "338115d4263c2cf52821fff3b83f72ed", "is_disabled": 0, "lat": 38.860061, "is_reserved": 0, "type": "electric_scooter"}, {"fusion_lat": 0.0, "name": "23df348abecfdbbf8c70d8fcd12b7781", "lon": -77.017672, "rental_uris": {"android": "https://dc.lft.to/lastmile_qr_scan", "ios": "https://dc.lft.to/lastmile_qr_scan"}, "fusion_lon": 0.0, "bike_id": "23df348abecfdbbf8c70d8fcd12b7781", "is_disabled": 0, "lat": 38.87469983333333, "is_reserved": 0, "type": "electric_scooter"}, {"fusion_lat": 0.0, "name": "78631fd79e7a6bfe3364a6362ed0c47d", "lon": -76.99840533333334, "rental_uris": {"android": "https://dc.lft.to/lastmile_qr_scan", "ios": "https://dc.lft.to/lastmile_qr_scan"}, "fusion_lon": 0.0, "bike_id": "78631fd79e7a6bfe3364a6362ed0c47d", "is_disabled": 0, "lat": 38.880372333333334, "is_reserved": 0, "type": "electric_scooter"}, {"fusion_lat": 0.0, "name": "5a376622fe8260b7874567a81b838558", "lon": -77.02973166666666, "rental_uris": {"android": "https://dc.lft.to/lastmile_qr_scan", "ios": "https://dc.lft.to/lastmile_qr_scan"}, "fusion_lon": 0.0, "bike_id": "5a376622fe8260b7874567a81b838558", "is_disabled": 0, "lat": 38.924088833333336, "is_reserved": 0, "type": "electric_scooter"}, {"fusion_lat": 0.0, "name": "a607a212b2bbc04a9054efd3dbe5f79c", "lon": -77.02367216666667, "rental_uris": {"android": "https://dc.lft.to/lastmile_qr_scan", "ios": "https://dc.lft.to/lastmile_qr_scan"}, "fusion_lon": 0.0, "bike_id": "a607a212b2bbc04a9054efd3dbe5f79c", "is_disabled": 0, "lat": 38.920468166666666, "is_reserved": 0, "type": "electric_scooter"}, {"fusion_lat": 0.0, "name": "4ad792cce4b9dd1d57db39b5fb23881a", "lon": -77.01888766666667, "rental_uris": {"android": "https://dc.lft.to/lastmile_qr_scan", "ios": "https://dc.lft.to/lastmile_qr_scan"}, "fusion_lon": 0.0, "bike_id": "4ad792cce4b9dd1d57db39b5fb23881a", "is_disabled": 0, "lat": 38.874652, "is_reserved": 0, "type": "electric_scooter"}, {"fusion_lat": 0.0, "name": "4490793b223e76e545946a23c7010ef7", "lon": -77.03517933333333, "rental_uris": {"android": "https://dc.lft.to/lastmile_qr_scan", "ios": "https://dc.lft.to/lastmile_qr_scan"}, "fusion_lon": 0.0, "bike_id": "4490793b223e76e545946a23c7010ef7", "is_disabled": 0, "lat": 38.93566, "is_reserved": 0, "type": "electric_scooter"}, {"fusion_lat": 0.0, "name": "44b05f81605c6ab128f7322dfb4971c4", "lon": -77.01783916666666, "rental_uris": {"android": "https://dc.lft.to/lastmile_qr_scan", "ios": "https://dc.lft.to/lastmile_qr_scan"}, "fusion_lon": 0.0, "bike_id": "44b05f81605c6ab128f7322dfb4971c4", "is_disabled": 0, "lat": 38.901231333333335, "is_reserved": 0, "type": "electric_scooter"}, {"fusion_lat": 0.0, "name": "7e9e4268667dd2cf27d286e7cf2ad248", "lon": -77.02679816666667, "rental_uris": {"android": "https://dc.lft.to/lastmile_qr_scan", "ios": "https://dc.lft.to/lastmile_qr_scan"}, "fusion_lon": 0.0, "bike_id": "7e9e4268667dd2cf27d286e7cf2ad248", "is_disabled": 0, "lat": 38.943226833333334, "is_reserved": 0, "type": "electric_scooter"}, {"fusion_lat": 0.0, "name": "5b667800447b0e411c146b525b11d513", "lon": -77.034655, "rental_uris": {"android": "https://dc.lft.to/lastmile_qr_scan", "ios": "https://dc.lft.to/lastmile_qr_scan"}, "fusion_lon": 0.0, "bike_id": "5b667800447b0e411c146b525b11d513", "is_disabled": 0, "lat": 38.92048916666667, "is_reserved": 0, "type": "electric_scooter"}, {"fusion_lat": 0.0, "name": "3a6c80a48c8b11744896bea5f8e428b7", "lon": -77.023217, "rental_uris": {"android": "https://dc.lft.to/lastmile_qr_scan", "ios": "https://dc.lft.to/lastmile_qr_scan"}, "fusion_lon": 0.0, "bike_id": "3a6c80a48c8b11744896bea5f8e428b7", "is_disabled": 0, "lat": 38.89725516666667, "is_reserved": 0, "type": "electric_scooter"}, {"fusion_lat": 0.0, "name": "476363e6986ef817e7cd4892d90678a8", "lon": -77.03189, "rental_uris": {"android": "https://dc.lft.to/lastmile_qr_scan", "ios": "https://dc.lft.to/lastmile_qr_scan"}, "fusion_lon": 0.0, "bike_id": "476363e6986ef817e7cd4892d90678a8", "is_disabled": 0, "lat": 38.91323283333333, "is_reserved": 0, "type": "electric_scooter"}, {"fusion_lat": 0.0, "name": "c832e87ee403d38c3e694ea1e7efc656", "lon": -77.0332605, "rental_uris": {"android": "https://dc.lft.to/lastmile_qr_scan", "ios": "https://dc.lft.to/lastmile_qr_scan"}, "fusion_lon": 0.0, "bike_id": "c832e87ee403d38c3e694ea1e7efc656", "is_disabled": 0, "lat": 38.9025865, "is_reserved": 0, "type": "electric_scooter"}, {"fusion_lat": 0.0, "name": "ca89866484977cd944c489fcaa4e174f", "lon": -77.06590766666666, "rental_uris": {"android": "https://dc.lft.to/lastmile_qr_scan", "ios": "https://dc.lft.to/lastmile_qr_scan"}, "fusion_lon": 0.0, "bike_id": "ca89866484977cd944c489fcaa4e174f", "is_disabled": 0, "lat": 38.912271, "is_reserved": 0, "type": "electric_scooter"}, {"fusion_lat": 0.0, "name": "524041c3467a47a5322a6f7762e340ed", "lon": -77.024243, "rental_uris": {"android": "https://dc.lft.to/lastmile_qr_scan", "ios": "https://dc.lft.to/lastmile_qr_scan"}, "fusion_lon": 0.0, "bike_id": "524041c3467a47a5322a6f7762e340ed", "is_disabled": 0, "lat": 38.9265825, "is_reserved": 0, "type": "electric_scooter"}, {"fusion_lat": 0.0, "name": "c9714a37de60e12c606046bd0e884584", "lon": -77.026207, "rental_uris": {"android": "https://dc.lft.to/lastmile_qr_scan", "ios": "https://dc.lft.to/lastmile_qr_scan"}, "fusion_lon": 0.0, "bike_id": "c9714a37de60e12c606046bd0e884584", "is_disabled": 0, "lat": 38.89658, "is_reserved": 0, "type": "electric_scooter"}, {"fusion_lat": 0.0, "name": "85174210e50b3f92b609da4543b78142", "lon": -77.066978, "rental_uris": {"android": "https://dc.lft.to/lastmile_qr_scan", "ios": "https://dc.lft.to/lastmile_qr_scan"}, "fusion_lon": 0.0, "bike_id": "85174210e50b3f92b609da4543b78142", "is_disabled": 0, "lat": 38.95030233333333, "is_reserved": 0, "type": "electric_scooter"}, {"fusion_lat": 0.0, "name": "6d3f4b90922c8c13cd860106175e768b", "lon": -77.0700155, "rental_uris": {"android": "https://dc.lft.to/lastmile_qr_scan", "ios": "https://dc.lft.to/lastmile_qr_scan"}, "fusion_lon": 0.0, "bike_id": "6d3f4b90922c8c13cd860106175e768b", "is_disabled": 0, "lat": 38.95554283333333, "is_reserved": 0, "type": "electric_scooter"}, {"fusion_lat": 0.0, "name": "ab254e3871f457fdc6e971ce958165ef", "lon": -76.98370233333333, "rental_uris": {"android": "https://dc.lft.to/lastmile_qr_scan", "ios": "https://dc.lft.to/lastmile_qr_scan"}, "fusion_lon": 0.0, "bike_id": "ab254e3871f457fdc6e971ce958165ef", "is_disabled": 0, "lat": 38.889600333333334, "is_reserved": 0, "type": "electric_scooter"}, {"fusion_lat": 0.0, "name": "931b66bbcc2e8b2ed1eefc00dc24cf04", "lon": -76.97741433333333, "rental_uris": {"android": "https://dc.lft.to/lastmile_qr_scan", "ios": "https://dc.lft.to/lastmile_qr_scan"}, "fusion_lon": 0.0, "bike_id": "931b66bbcc2e8b2ed1eefc00dc24cf04", "is_disabled": 0, "lat": 38.87147933333333, "is_reserved": 0, "type": "electric_scooter"}, {"fusion_lat": 0.0, "name": "b4c0491e75d7075c71360d3cd0ad76cc", "lon": -77.02323416666667, "rental_uris": {"android": "https://dc.lft.to/lastmile_qr_scan", "ios": "https://dc.lft.to/lastmile_qr_scan"}, "fusion_lon": 0.0, "bike_id": "b4c0491e75d7075c71360d3cd0ad76cc", "is_disabled": 0, "lat": 38.916667833333335, "is_reserved": 0, "type": "electric_scooter"}, {"fusion_lat": 0.0, "name": "1a0900b891e65a5e5223286e0502feff", "lon": -77.05186783333333, "rental_uris": {"android": "https://dc.lft.to/lastmile_qr_scan", "ios": "https://dc.lft.to/lastmile_qr_scan"}, "fusion_lon": 0.0, "bike_id": "1a0900b891e65a5e5223286e0502feff", "is_disabled": 0, "lat": 38.924262, "is_reserved": 0, "type": "electric_scooter"}, {"fusion_lat": 0.0, "name": "9a6a1fe630fad361f03e5a44939b3670", "lon": -76.99829983333333, "rental_uris": {"android": "https://dc.lft.to/lastmile_qr_scan", "ios": "https://dc.lft.to/lastmile_qr_scan"}, "fusion_lon": 0.0, "bike_id": "9a6a1fe630fad361f03e5a44939b3670", "is_disabled": 0, "lat": 38.90035483333333, "is_reserved": 0, "type": "electric_scooter"}, {"fusion_lat": 0.0, "name": "51eb30012fe70560313dad54d4b4dc42", "lon": -77.03515166666666, "rental_uris": {"android": "https://dc.lft.to/lastmile_qr_scan", "ios": "https://dc.lft.to/lastmile_qr_scan"}, "fusion_lon": 0.0, "bike_id": "51eb30012fe70560313dad54d4b4dc42", "is_disabled": 0, "lat": 38.91860666666667, "is_reserved": 0, "type": "electric_scooter"}, {"fusion_lat": 0.0, "name": "8f94902b78fbd841bfaae1f964f73d93", "lon": -77.0089705, "rental_uris": {"android": "https://dc.lft.to/lastmile_qr_scan", "ios": "https://dc.lft.to/lastmile_qr_scan"}, "fusion_lon": 0.0, "bike_id": "8f94902b78fbd841bfaae1f964f73d93", "is_disabled": 0, "lat": 38.89893466666667, "is_reserved": 0, "type": "electric_scooter"}, {"fusion_lat": 0.0, "name": "8e358cb28f5da377f22c2b0cd9b942aa", "lon": -77.02388433333333, "rental_uris": {"android": "https://dc.lft.to/lastmile_qr_scan", "ios": "https://dc.lft.to/lastmile_qr_scan"}, "fusion_lon": 0.0, "bike_id": "8e358cb28f5da377f22c2b0cd9b942aa", "is_disabled": 0, "lat": 38.92068183333333, "is_reserved": 0, "type": "electric_scooter"}, {"fusion_lat": 0.0, "name": "69290273203528b2cc1c0851cbcff0bb", "lon": -77.01057733333333, "rental_uris": {"android": "https://dc.lft.to/lastmile_qr_scan", "ios": "https://dc.lft.to/lastmile_qr_scan"}, "fusion_lon": 0.0, "bike_id": "69290273203528b2cc1c0851cbcff0bb", "is_disabled": 0, "lat": 38.912647666666665, "is_reserved": 0, "type": "electric_scooter"}, {"fusion_lat": 0.0, "name": "118531ac54384b9aeff11d78fba3c204", "lon": -77.02792216666667, "rental_uris": {"android": "https://dc.lft.to/lastmile_qr_scan", "ios": "https://dc.lft.to/lastmile_qr_scan"}, "fusion_lon": 0.0, "bike_id": "118531ac54384b9aeff11d78fba3c204", "is_disabled": 0, "lat": 38.89565966666667, "is_reserved": 0, "type": "electric_scooter"}, {"fusion_lat": 0.0, "name": "ef792c07d05847426333a3d551de8ba6", "lon": -77.00597083333334, "rental_uris": {"android": "https://dc.lft.to/lastmile_qr_scan", "ios": "https://dc.lft.to/lastmile_qr_scan"}, "fusion_lon": 0.0, "bike_id": "ef792c07d05847426333a3d551de8ba6", "is_disabled": 0, "lat": 38.876454333333335, "is_reserved": 0, "type": "electric_scooter"}, {"fusion_lat": 0.0, "name": "6263fd31097c86c6073717d587df1c60", "lon": -76.982284, "rental_uris": {"android": "https://dc.lft.to/lastmile_qr_scan", "ios": "https://dc.lft.to/lastmile_qr_scan"}, "fusion_lon": 0.0, "bike_id": "6263fd31097c86c6073717d587df1c60", "is_disabled": 0, "lat": 38.91644633333333, "is_reserved": 0, "type": "electric_scooter"}, {"fusion_lat": 0.0, "name": "922de6e94d665f12b895c7b4e771df70", "lon": -77.03590483333333, "rental_uris": {"android": "https://dc.lft.to/lastmile_qr_scan", "ios": "https://dc.lft.to/lastmile_qr_scan"}, "fusion_lon": 0.0, "bike_id": "922de6e94d665f12b895c7b4e771df70", "is_disabled": 0, "lat": 38.928031, "is_reserved": 0, "type": "electric_scooter"}, {"fusion_lat": 0.0, "name": "617532ef6b88893d53b63361690f2d7b", "lon": -77.01769983333334, "rental_uris": {"android": "https://dc.lft.to/lastmile_qr_scan", "ios": "https://dc.lft.to/lastmile_qr_scan"}, "fusion_lon": 0.0, "bike_id": "617532ef6b88893d53b63361690f2d7b", "is_disabled": 0, "lat": 38.887091166666664, "is_reserved": 0, "type": "electric_scooter"}, {"fusion_lat": 0.0, "name": "f4033c6b827cd588c3f7b6c52c6f1d47", "lon": -77.02940766666667, "rental_uris": {"android": "https://dc.lft.to/lastmile_qr_scan", "ios": "https://dc.lft.to/lastmile_qr_scan"}, "fusion_lon": 0.0, "bike_id": "f4033c6b827cd588c3f7b6c52c6f1d47", "is_disabled": 0, "lat": 38.939857333333336, "is_reserved": 0, "type": "electric_scooter"}, {"fusion_lat": 0.0, "name": "38a30331a3370548c7989c5588a8993c", "lon": -77.04315616666666, "rental_uris": {"android": "https://dc.lft.to/lastmile_qr_scan", "ios": "https://dc.lft.to/lastmile_qr_scan"}, "fusion_lon": 0.0, "bike_id": "38a30331a3370548c7989c5588a8993c", "is_disabled": 0, "lat": 38.89738066666666, "is_reserved": 0, "type": "electric_scooter"}, {"fusion_lat": 0.0, "name": "b1ca87cdc5bfbc518c8a5e861551531b", "lon": -77.03854633333333, "rental_uris": {"android": "https://dc.lft.to/lastmile_qr_scan", "ios": "https://dc.lft.to/lastmile_qr_scan"}, "fusion_lon": 0.0, "bike_id": "b1ca87cdc5bfbc518c8a5e861551531b", "is_disabled": 0, "lat": 38.9176435, "is_reserved": 0, "type": "electric_scooter"}, {"fusion_lat": 0.0, "name": "289426691f094c8642a078717442d3d9", "lon": -77.021566, "rental_uris": {"android": "https://dc.lft.to/lastmile_qr_scan", "ios": "https://dc.lft.to/lastmile_qr_scan"}, "fusion_lon": 0.0, "bike_id": "289426691f094c8642a078717442d3d9", "is_disabled": 0, "lat": 38.9260175, "is_reserved": 0, "type": "electric_scooter"}, {"fusion_lat": 0.0, "name": "6b540500c2ab7a461db17c752a25dd9a", "lon": -77.04462233333334, "rental_uris": {"android": "https://dc.lft.to/lastmile_qr_scan", "ios": "https://dc.lft.to/lastmile_qr_scan"}, "fusion_lon": 0.0, "bike_id": "6b540500c2ab7a461db17c752a25dd9a", "is_disabled": 0, "lat": 38.896049, "is_reserved": 0, "type": "electric_scooter"}, {"fusion_lat": 0.0, "name": "1d735d069c85d6eadfadf2eaf11573b6", "lon": -77.035621, "rental_uris": {"android": "https://dc.lft.to/lastmile_qr_scan", "ios": "https://dc.lft.to/lastmile_qr_scan"}, "fusion_lon": 0.0, "bike_id": "1d735d069c85d6eadfadf2eaf11573b6", "is_disabled": 0, "lat": 38.904735333333335, "is_reserved": 0, "type": "electric_scooter"}, {"fusion_lat": 0.0, "name": "6bd855ffce3f6b26bec620ea8dcabd1c", "lon": -77.02017483333333, "rental_uris": {"android": "https://dc.lft.to/lastmile_qr_scan", "ios": "https://dc.lft.to/lastmile_qr_scan"}, "fusion_lon": 0.0, "bike_id": "6bd855ffce3f6b26bec620ea8dcabd1c", "is_disabled": 0, "lat": 38.913973666666664, "is_reserved": 0, "type": "electric_scooter"}, {"fusion_lat": 0.0, "name": "586073d5dc78b84f0e6b092c69dd6227", "lon": -76.93375633333333, "rental_uris": {"android": "https://dc.lft.to/lastmile_qr_scan", "ios": "https://dc.lft.to/lastmile_qr_scan"}, "fusion_lon": 0.0, "bike_id": "586073d5dc78b84f0e6b092c69dd6227", "is_disabled": 0, "lat": 38.899088666666664, "is_reserved": 0, "type": "electric_scooter"}, {"fusion_lat": 0.0, "name": "d7971380c2f096431275d569ec92db6a", "lon": -77.1035895, "rental_uris": {"android": "https://dc.lft.to/lastmile_qr_scan", "ios": "https://dc.lft.to/lastmile_qr_scan"}, "fusion_lon": 0.0, "bike_id": "d7971380c2f096431275d569ec92db6a", "is_disabled": 0, "lat": 38.885587666666666, "is_reserved": 0, "type": "electric_bike"}, {"fusion_lat": 0.0, "name": "f09d9a9d68c860764cae9389100200c3", "lon": -77.00320133333334, "rental_uris": {"android": "https://dc.lft.to/lastmile_qr_scan", "ios": "https://dc.lft.to/lastmile_qr_scan"}, "fusion_lon": 0.0, "bike_id": "f09d9a9d68c860764cae9389100200c3", "is_disabled": 0, "lat": 38.88737533333333, "is_reserved": 0, "type": "electric_scooter"}, {"fusion_lat": 0.0, "name": "3ad6f464281f8eb7ab169d5d9ea2863f", "lon": -77.024174, "rental_uris": {"android": "https://dc.lft.to/lastmile_qr_scan", "ios": "https://dc.lft.to/lastmile_qr_scan"}, "fusion_lon": 0.0, "bike_id": "3ad6f464281f8eb7ab169d5d9ea2863f", "is_disabled": 0, "lat": 38.9192925, "is_reserved": 0, "type": "electric_scooter"}, {"fusion_lat": 0.0, "name": "1aa0950b75ebe232f7aa5ecdc0f6f9d5", "lon": -76.97343216666667, "rental_uris": {"android": "https://dc.lft.to/lastmile_qr_scan", "ios": "https://dc.lft.to/lastmile_qr_scan"}, "fusion_lon": 0.0, "bike_id": "1aa0950b75ebe232f7aa5ecdc0f6f9d5", "is_disabled": 0, "lat": 38.86505783333333, "is_reserved": 0, "type": "electric_bike"}, {"fusion_lat": 0.0, "name": "d1185417ddf1cc532c57cd40797298a0", "lon": -77.041712, "rental_uris": {"android": "https://dc.lft.to/lastmile_qr_scan", "ios": "https://dc.lft.to/lastmile_qr_scan"}, "fusion_lon": 0.0, "bike_id": "d1185417ddf1cc532c57cd40797298a0", "is_disabled": 0, "lat": 38.918152, "is_reserved": 0, "type": "electric_scooter"}, {"fusion_lat": 0.0, "name": "6dae138d8e0008797f53a235cbe06323", "lon": -77.0219885, "rental_uris": {"android": "https://dc.lft.to/lastmile_qr_scan", "ios": "https://dc.lft.to/lastmile_qr_scan"}, "fusion_lon": 0.0, "bike_id": "6dae138d8e0008797f53a235cbe06323", "is_disabled": 0, "lat": 38.91123366666667, "is_reserved": 0, "type": "electric_scooter"}, {"fusion_lat": 0.0, "name": "17afe334cf3302f586445119e52e313f", "lon": -77.0216425, "rental_uris": {"android": "https://dc.lft.to/lastmile_qr_scan", "ios": "https://dc.lft.to/lastmile_qr_scan"}, "fusion_lon": 0.0, "bike_id": "17afe334cf3302f586445119e52e313f", "is_disabled": 0, "lat": 38.89730566666667, "is_reserved": 0, "type": "electric_scooter"}, {"fusion_lat": 0.0, "name": "6089fb06282983d605eb558ce98a8597", "lon": -77.008976, "rental_uris": {"android": "https://dc.lft.to/lastmile_qr_scan", "ios": "https://dc.lft.to/lastmile_qr_scan"}, "fusion_lon": 0.0, "bike_id": "6089fb06282983d605eb558ce98a8597", "is_disabled": 0, "lat": 38.874814, "is_reserved": 0, "type": "electric_scooter"}, {"fusion_lat": 0.0, "name": "f0a30d4306f98427afdc5576f608a35e", "lon": -76.98998916666666, "rental_uris": {"android": "https://dc.lft.to/lastmile_qr_scan", "ios": "https://dc.lft.to/lastmile_qr_scan"}, "fusion_lon": 0.0, "bike_id": "f0a30d4306f98427afdc5576f608a35e", "is_disabled": 0, "lat": 38.86501616666666, "is_reserved": 0, "type": "electric_scooter"}, {"fusion_lat": 0.0, "name": "cf49c3f04ec50f9e99271936cc553a78", "lon": -76.93272733333333, "rental_uris": {"android": "https://dc.lft.to/lastmile_qr_scan", "ios": "https://dc.lft.to/lastmile_qr_scan"}, "fusion_lon": 0.0, "bike_id": "cf49c3f04ec50f9e99271936cc553a78", "is_disabled": 0, "lat": 38.95418566666667, "is_reserved": 0, "type": "electric_bike"}, {"fusion_lat": 0.0, "name": "fd94a96bedf0716092988e9c9bdc7f99", "lon": -77.01882183333333, "rental_uris": {"android": "https://dc.lft.to/lastmile_qr_scan", "ios": "https://dc.lft.to/lastmile_qr_scan"}, "fusion_lon": 0.0, "bike_id": "fd94a96bedf0716092988e9c9bdc7f99", "is_disabled": 0, "lat": 38.908911833333335, "is_reserved": 0, "type": "electric_scooter"}, {"fusion_lat": 0.0, "name": "0a429cc439d75caac3c3724a59aeb602", "lon": -77.02732766666666, "rental_uris": {"android": "https://dc.lft.to/lastmile_qr_scan", "ios": "https://dc.lft.to/lastmile_qr_scan"}, "fusion_lon": 0.0, "bike_id": "0a429cc439d75caac3c3724a59aeb602", "is_disabled": 0, "lat": 38.887438, "is_reserved": 0, "type": "electric_scooter"}, {"fusion_lat": 0.0, "name": "958fa68b06af0af7e930812e1618e00d", "lon": -77.0251935, "rental_uris": {"android": "https://dc.lft.to/lastmile_qr_scan", "ios": "https://dc.lft.to/lastmile_qr_scan"}, "fusion_lon": 0.0, "bike_id": "958fa68b06af0af7e930812e1618e00d", "is_disabled": 0, "lat": 38.9390215, "is_reserved": 0, "type": "electric_scooter"}, {"fusion_lat": 0.0, "name": "20528b3103d7c53eec2dc12494b0dfa0", "lon": -77.0334515, "rental_uris": {"android": "https://dc.lft.to/lastmile_qr_scan", "ios": "https://dc.lft.to/lastmile_qr_scan"}, "fusion_lon": 0.0, "bike_id": "20528b3103d7c53eec2dc12494b0dfa0", "is_disabled": 0, "lat": 38.922641, "is_reserved": 0, "type": "electric_scooter"}, {"fusion_lat": 0.0, "name": "9b3fd451f7e8b0f7c862a9b2c2157e62", "lon": -77.0094, "rental_uris": {"android": "https://dc.lft.to/lastmile_qr_scan", "ios": "https://dc.lft.to/lastmile_qr_scan"}, "fusion_lon": 0.0, "bike_id": "9b3fd451f7e8b0f7c862a9b2c2157e62", "is_disabled": 0, "lat": 38.87630383333333, "is_reserved": 0, "type": "electric_scooter"}, {"fusion_lat": 0.0, "name": "1c11c8b829434c5806e93cef6c5eccd2", "lon": -77.07255933333333, "rental_uris": {"android": "https://dc.lft.to/lastmile_qr_scan", "ios": "https://dc.lft.to/lastmile_qr_scan"}, "fusion_lon": 0.0, "bike_id": "1c11c8b829434c5806e93cef6c5eccd2", "is_disabled": 0, "lat": 38.9394955, "is_reserved": 0, "type": "electric_scooter"}, {"fusion_lat": 0.0, "name": "f1161bb3f6558780a5242090298d795a", "lon": -77.04964766666667, "rental_uris": {"android": "https://dc.lft.to/lastmile_qr_scan", "ios": "https://dc.lft.to/lastmile_qr_scan"}, "fusion_lon": 0.0, "bike_id": "f1161bb3f6558780a5242090298d795a", "is_disabled": 0, "lat": 38.900627166666666, "is_reserved": 0, "type": "electric_scooter"}, {"fusion_lat": 0.0, "name": "004447a9c82725b82713b72f321e248f", "lon": -77.02337566666667, "rental_uris": {"android": "https://dc.lft.to/lastmile_qr_scan", "ios": "https://dc.lft.to/lastmile_qr_scan"}, "fusion_lon": 0.0, "bike_id": "004447a9c82725b82713b72f321e248f", "is_disabled": 0, "lat": 38.8922015, "is_reserved": 0, "type": "electric_scooter"}, {"fusion_lat": 0.0, "name": "7869500cf00d92b14bde6cb17a142b18", "lon": -77.041704, "rental_uris": {"android": "https://dc.lft.to/lastmile_qr_scan", "ios": "https://dc.lft.to/lastmile_qr_scan"}, "fusion_lon": 0.0, "bike_id": "7869500cf00d92b14bde6cb17a142b18", "is_disabled": 0, "lat": 38.911819, "is_reserved": 0, "type": "electric_scooter"}, {"fusion_lat": 0.0, "name": "103188ea39201ed8f63bb91dc7c9cb17", "lon": -77.01511666666667, "rental_uris": {"android": "https://dc.lft.to/lastmile_qr_scan", "ios": "https://dc.lft.to/lastmile_qr_scan"}, "fusion_lon": 0.0, "bike_id": "103188ea39201ed8f63bb91dc7c9cb17", "is_disabled": 0, "lat": 38.967763, "is_reserved": 0, "type": "electric_scooter"}, {"fusion_lat": 0.0, "name": "0288dee7604f0a4b4fbeb5d967723f8f", "lon": -77.0073685, "rental_uris": {"android": "https://dc.lft.to/lastmile_qr_scan", "ios": "https://dc.lft.to/lastmile_qr_scan"}, "fusion_lon": 0.0, "bike_id": "0288dee7604f0a4b4fbeb5d967723f8f", "is_disabled": 0, "lat": 38.902554, "is_reserved": 0, "type": "electric_scooter"}, {"fusion_lat": 0.0, "name": "47e2a9577d774801f359c31d685e2381", "lon": -77.03442783333334, "rental_uris": {"android": "https://dc.lft.to/lastmile_qr_scan", "ios": "https://dc.lft.to/lastmile_qr_scan"}, "fusion_lon": 0.0, "bike_id": "47e2a9577d774801f359c31d685e2381", "is_disabled": 0, "lat": 38.9190685, "is_reserved": 0, "type": "electric_scooter"}, {"fusion_lat": 0.0, "name": "366df4a4c997ab3196dee5e2cd88e506", "lon": -77.04473033333333, "rental_uris": {"android": "https://dc.lft.to/lastmile_qr_scan", "ios": "https://dc.lft.to/lastmile_qr_scan"}, "fusion_lon": 0.0, "bike_id": "366df4a4c997ab3196dee5e2cd88e506", "is_disabled": 0, "lat": 38.903945, "is_reserved": 0, "type": "electric_scooter"}, {"fusion_lat": 0.0, "name": "cb08d4e5d6ac958979de3b54210ecb2d", "lon": -77.00134816666667, "rental_uris": {"android": "https://dc.lft.to/lastmile_qr_scan", "ios": "https://dc.lft.to/lastmile_qr_scan"}, "fusion_lon": 0.0, "bike_id": "cb08d4e5d6ac958979de3b54210ecb2d", "is_disabled": 0, "lat": 38.95870933333333, "is_reserved": 0, "type": "electric_bike"}, {"fusion_lat": 0.0, "name": "b57a184eed4a3dc860cac01da0e03b5b", "lon": -77.0339825, "rental_uris": {"android": "https://dc.lft.to/lastmile_qr_scan", "ios": "https://dc.lft.to/lastmile_qr_scan"}, "fusion_lon": 0.0, "bike_id": "b57a184eed4a3dc860cac01da0e03b5b", "is_disabled": 0, "lat": 38.90558566666667, "is_reserved": 0, "type": "electric_scooter"}, {"fusion_lat": 0.0, "name": "7e77c146c10b17db64dfc5827f35f6dc", "lon": -77.03339783333334, "rental_uris": {"android": "https://dc.lft.to/lastmile_qr_scan", "ios": "https://dc.lft.to/lastmile_qr_scan"}, "fusion_lon": 0.0, "bike_id": "7e77c146c10b17db64dfc5827f35f6dc", "is_disabled": 0, "lat": 38.897381833333334, "is_reserved": 0, "type": "electric_scooter"}, {"fusion_lat": 0.0, "name": "2cb7592451ff8e8e3eec55eae1ae787e", "lon": -77.0346695, "rental_uris": {"android": "https://dc.lft.to/lastmile_qr_scan", "ios": "https://dc.lft.to/lastmile_qr_scan"}, "fusion_lon": 0.0, "bike_id": "2cb7592451ff8e8e3eec55eae1ae787e", "is_disabled": 0, "lat": 38.902644333333335, "is_reserved": 0, "type": "electric_scooter"}, {"fusion_lat": 0.0, "name": "99f2aead3a13a2b9ad20a6381889e46b", "lon": -77.04565683333334, "rental_uris": {"android": "https://dc.lft.to/lastmile_qr_scan", "ios": "https://dc.lft.to/lastmile_qr_scan"}, "fusion_lon": 0.0, "bike_id": "99f2aead3a13a2b9ad20a6381889e46b", "is_disabled": 0, "lat": 38.9132685, "is_reserved": 0, "type": "electric_scooter"}, {"fusion_lat": 0.0, "name": "6fb54cae3131d9a33b6da50ad29b564a", "lon": -77.03223433333334, "rental_uris": {"android": "https://dc.lft.to/lastmile_qr_scan", "ios": "https://dc.lft.to/lastmile_qr_scan"}, "fusion_lon": 0.0, "bike_id": "6fb54cae3131d9a33b6da50ad29b564a", "is_disabled": 0, "lat": 38.8921855, "is_reserved": 0, "type": "electric_scooter"}, {"fusion_lat": 0.0, "name": "bd5d02573312064530c2b528b5461b5f", "lon": -76.98504516666667, "rental_uris": {"android": "https://dc.lft.to/lastmile_qr_scan", "ios": "https://dc.lft.to/lastmile_qr_scan"}, "fusion_lon": 0.0, "bike_id": "bd5d02573312064530c2b528b5461b5f", "is_disabled": 0, "lat": 38.866597166666665, "is_reserved": 0, "type": "electric_scooter"}, {"fusion_lat": 0.0, "name": "dd115df70cc839266a8d0b7d7d6a2a18", "lon": -77.03080666666666, "rental_uris": {"android": "https://dc.lft.to/lastmile_qr_scan", "ios": "https://dc.lft.to/lastmile_qr_scan"}, "fusion_lon": 0.0, "bike_id": "dd115df70cc839266a8d0b7d7d6a2a18", "is_disabled": 0, "lat": 38.916887333333335, "is_reserved": 0, "type": "electric_scooter"}, {"fusion_lat": 0.0, "name": "8930f3745fecaf13c710217fb232ca8e", "lon": -77.03154066666667, "rental_uris": {"android": "https://dc.lft.to/lastmile_qr_scan", "ios": "https://dc.lft.to/lastmile_qr_scan"}, "fusion_lon": 0.0, "bike_id": "8930f3745fecaf13c710217fb232ca8e", "is_disabled": 0, "lat": 38.892193166666665, "is_reserved": 0, "type": "electric_scooter"}, {"fusion_lat": 0.0, "name": "02475f9c0e6bcb116ecd08acb10e0319", "lon": -77.01678966666667, "rental_uris": {"android": "https://dc.lft.to/lastmile_qr_scan", "ios": "https://dc.lft.to/lastmile_qr_scan"}, "fusion_lon": 0.0, "bike_id": "02475f9c0e6bcb116ecd08acb10e0319", "is_disabled": 0, "lat": 38.9749295, "is_reserved": 0, "type": "electric_scooter"}, {"fusion_lat": 0.0, "name": "a71d9d6dff086fa8d919ba67f21a8696", "lon": -76.98979183333333, "rental_uris": {"android": "https://dc.lft.to/lastmile_qr_scan", "ios": "https://dc.lft.to/lastmile_qr_scan"}, "fusion_lon": 0.0, "bike_id": "a71d9d6dff086fa8d919ba67f21a8696", "is_disabled": 0, "lat": 38.89738766666667, "is_reserved": 0, "type": "electric_scooter"}, {"fusion_lat": 0.0, "name": "2e456dd17529a3ada4a55f84d3c0f636", "lon": -77.0102105, "rental_uris": {"android": "https://dc.lft.to/lastmile_qr_scan", "ios": "https://dc.lft.to/lastmile_qr_scan"}, "fusion_lon": 0.0, "bike_id": "2e456dd17529a3ada4a55f84d3c0f636", "is_disabled": 0, "lat": 38.90647383333334, "is_reserved": 0, "type": "electric_scooter"}, {"fusion_lat": 0.0, "name": "cfe7314e8379340985753cd3bb1d181f", "lon": -76.99154016666667, "rental_uris": {"android": "https://dc.lft.to/lastmile_qr_scan", "ios": "https://dc.lft.to/lastmile_qr_scan"}, "fusion_lon": 0.0, "bike_id": "cfe7314e8379340985753cd3bb1d181f", "is_disabled": 0, "lat": 38.897951666666664, "is_reserved": 0, "type": "electric_scooter"}, {"fusion_lat": 0.0, "name": "c41860f406218e0b3644441bccd7dbfd", "lon": -76.97334933333333, "rental_uris": {"android": "https://dc.lft.to/lastmile_qr_scan", "ios": "https://dc.lft.to/lastmile_qr_scan"}, "fusion_lon": 0.0, "bike_id": "c41860f406218e0b3644441bccd7dbfd", "is_disabled": 0, "lat": 38.865195166666666, "is_reserved": 0, "type": "electric_bike"}, {"fusion_lat": 0.0, "name": "e0c746e65286cefbad21502149d94437", "lon": -77.03276433333333, "rental_uris": {"android": "https://dc.lft.to/lastmile_qr_scan", "ios": "https://dc.lft.to/lastmile_qr_scan"}, "fusion_lon": 0.0, "bike_id": "e0c746e65286cefbad21502149d94437", "is_disabled": 0, "lat": 38.928829666666665, "is_reserved": 0, "type": "electric_scooter"}, {"fusion_lat": 0.0, "name": "2cf49c0c7002447ed61b0e5c2a494229", "lon": -77.0549115, "rental_uris": {"android": "https://dc.lft.to/lastmile_qr_scan", "ios": "https://dc.lft.to/lastmile_qr_scan"}, "fusion_lon": 0.0, "bike_id": "2cf49c0c7002447ed61b0e5c2a494229", "is_disabled": 0, "lat": 39.014733666666665, "is_reserved": 0, "type": "electric_bike"}, {"fusion_lat": 0.0, "name": "63830649acf60bd97beeb6188dd90856", "lon": -77.0237405, "rental_uris": {"android": "https://dc.lft.to/lastmile_qr_scan", "ios": "https://dc.lft.to/lastmile_qr_scan"}, "fusion_lon": 0.0, "bike_id": "63830649acf60bd97beeb6188dd90856", "is_disabled": 0, "lat": 38.90363383333333, "is_reserved": 0, "type": "electric_scooter"}, {"fusion_lat": 0.0, "name": "d0a0b235e75c33e8f9ca47831c672b2b", "lon": -76.98193666666667, "rental_uris": {"android": "https://dc.lft.to/lastmile_qr_scan", "ios": "https://dc.lft.to/lastmile_qr_scan"}, "fusion_lon": 0.0, "bike_id": "d0a0b235e75c33e8f9ca47831c672b2b", "is_disabled": 0, "lat": 38.96738366666666, "is_reserved": 0, "type": "electric_bike"}, {"fusion_lat": 0.0, "name": "0b0729d0d2e9d8669e5225d18490696a", "lon": -77.0284645, "rental_uris": {"android": "https://dc.lft.to/lastmile_qr_scan", "ios": "https://dc.lft.to/lastmile_qr_scan"}, "fusion_lon": 0.0, "bike_id": "0b0729d0d2e9d8669e5225d18490696a", "is_disabled": 0, "lat": 38.934143666666664, "is_reserved": 0, "type": "electric_scooter"}, {"fusion_lat": 0.0, "name": "b9a7cbed7814f447d6ceef90a76aadb1", "lon": -77.02687983333334, "rental_uris": {"android": "https://dc.lft.to/lastmile_qr_scan", "ios": "https://dc.lft.to/lastmile_qr_scan"}, "fusion_lon": 0.0, "bike_id": "b9a7cbed7814f447d6ceef90a76aadb1", "is_disabled": 0, "lat": 38.90648266666667, "is_reserved": 0, "type": "electric_scooter"}, {"fusion_lat": 0.0, "name": "574d072feb14f36b5ce9df7af95a8323", "lon": -77.03762333333333, "rental_uris": {"android": "https://dc.lft.to/lastmile_qr_scan", "ios": "https://dc.lft.to/lastmile_qr_scan"}, "fusion_lon": 0.0, "bike_id": "574d072feb14f36b5ce9df7af95a8323", "is_disabled": 0, "lat": 38.907773, "is_reserved": 0, "type": "electric_scooter"}, {"fusion_lat": 0.0, "name": "e680e78e2c3e6e128b2a8715d799aa3d", "lon": -77.04654266666667, "rental_uris": {"android": "https://dc.lft.to/lastmile_qr_scan", "ios": "https://dc.lft.to/lastmile_qr_scan"}, "fusion_lon": 0.0, "bike_id": "e680e78e2c3e6e128b2a8715d799aa3d", "is_disabled": 0, "lat": 38.904020333333335, "is_reserved": 0, "type": "electric_scooter"}, {"fusion_lat": 0.0, "name": "0c2e24f844a3d6a296f8256b7a99748c", "lon": -77.0364155, "rental_uris": {"android": "https://dc.lft.to/lastmile_qr_scan", "ios": "https://dc.lft.to/lastmile_qr_scan"}, "fusion_lon": 0.0, "bike_id": "0c2e24f844a3d6a296f8256b7a99748c", "is_disabled": 0, "lat": 38.92271566666667, "is_reserved": 0, "type": "electric_scooter"}, {"fusion_lat": 0.0, "name": "cc54bf03027c81888a7825fa20fa9784", "lon": -77.00218866666667, "rental_uris": {"android": "https://dc.lft.to/lastmile_qr_scan", "ios": "https://dc.lft.to/lastmile_qr_scan"}, "fusion_lon": 0.0, "bike_id": "cc54bf03027c81888a7825fa20fa9784", "is_disabled": 0, "lat": 38.89457183333333, "is_reserved": 0, "type": "electric_scooter"}, {"fusion_lat": 0.0, "name": "5a91d3960fff5f67d3054f3ea42b6cab", "lon": -77.03268933333334, "rental_uris": {"android": "https://dc.lft.to/lastmile_qr_scan", "ios": "https://dc.lft.to/lastmile_qr_scan"}, "fusion_lon": 0.0, "bike_id": "5a91d3960fff5f67d3054f3ea42b6cab", "is_disabled": 0, "lat": 38.932551833333335, "is_reserved": 0, "type": "electric_scooter"}, {"fusion_lat": 0.0, "name": "4b2845455b6d7ceaed67f746c9ddd698", "lon": -77.02283116666666, "rental_uris": {"android": "https://dc.lft.to/lastmile_qr_scan", "ios": "https://dc.lft.to/lastmile_qr_scan"}, "fusion_lon": 0.0, "bike_id": "4b2845455b6d7ceaed67f746c9ddd698", "is_disabled": 0, "lat": 38.90772466666667, "is_reserved": 0, "type": "electric_scooter"}, {"fusion_lat": 0.0, "name": "79ae7718437e7a7834592dbf348695ec", "lon": -77.05130566666666, "rental_uris": {"android": "https://dc.lft.to/lastmile_qr_scan", "ios": "https://dc.lft.to/lastmile_qr_scan"}, "fusion_lon": 0.0, "bike_id": "79ae7718437e7a7834592dbf348695ec", "is_disabled": 0, "lat": 38.923640666666664, "is_reserved": 0, "type": "electric_scooter"}, {"fusion_lat": 0.0, "name": "74f21b224f8490cc76d5eac4227b9dc2", "lon": -77.02626733333334, "rental_uris": {"android": "https://dc.lft.to/lastmile_qr_scan", "ios": "https://dc.lft.to/lastmile_qr_scan"}, "fusion_lon": 0.0, "bike_id": "74f21b224f8490cc76d5eac4227b9dc2", "is_disabled": 0, "lat": 38.892192333333334, "is_reserved": 0, "type": "electric_scooter"}, {"fusion_lat": 0.0, "name": "6d71211c3146edc1ed99e2eefc6d32f3", "lon": -77.01342516666666, "rental_uris": {"android": "https://dc.lft.to/lastmile_qr_scan", "ios": "https://dc.lft.to/lastmile_qr_scan"}, "fusion_lon": 0.0, "bike_id": "6d71211c3146edc1ed99e2eefc6d32f3", "is_disabled": 0, "lat": 38.878128833333335, "is_reserved": 0, "type": "electric_scooter"}, {"fusion_lat": 0.0, "name": "8f32b709c1b1923f93bff83b3d1746a2", "lon": -77.02772166666666, "rental_uris": {"android": "https://dc.lft.to/lastmile_qr_scan", "ios": "https://dc.lft.to/lastmile_qr_scan"}, "fusion_lon": 0.0, "bike_id": "8f32b709c1b1923f93bff83b3d1746a2", "is_disabled": 0, "lat": 38.89197333333333, "is_reserved": 0, "type": "electric_scooter"}, {"fusion_lat": 0.0, "name": "0766cb0d8510d84d5e44601f70395204", "lon": -76.99001283333334, "rental_uris": {"android": "https://dc.lft.to/lastmile_qr_scan", "ios": "https://dc.lft.to/lastmile_qr_scan"}, "fusion_lon": 0.0, "bike_id": "0766cb0d8510d84d5e44601f70395204", "is_disabled": 0, "lat": 38.86502266666667, "is_reserved": 0, "type": "electric_scooter"}, {"fusion_lat": 0.0, "name": "de349a9fd9c444aa896112a70c91aeff", "lon": -76.99115283333333, "rental_uris": {"android": "https://dc.lft.to/lastmile_qr_scan", "ios": "https://dc.lft.to/lastmile_qr_scan"}, "fusion_lon": 0.0, "bike_id": "de349a9fd9c444aa896112a70c91aeff", "is_disabled": 0, "lat": 38.905594, "is_reserved": 0, "type": "electric_scooter"}, {"fusion_lat": 0.0, "name": "93d8f87c102455a427fd559f514c6328", "lon": -77.0375795, "rental_uris": {"android": "https://dc.lft.to/lastmile_qr_scan", "ios": "https://dc.lft.to/lastmile_qr_scan"}, "fusion_lon": 0.0, "bike_id": "93d8f87c102455a427fd559f514c6328", "is_disabled": 0, "lat": 38.930924, "is_reserved": 0, "type": "electric_scooter"}, {"fusion_lat": 0.0, "name": "dfa9621547b1cf186c8a9bcdba31a87b", "lon": -76.95464233333334, "rental_uris": {"android": "https://dc.lft.to/lastmile_qr_scan", "ios": "https://dc.lft.to/lastmile_qr_scan"}, "fusion_lon": 0.0, "bike_id": "dfa9621547b1cf186c8a9bcdba31a87b", "is_disabled": 0, "lat": 38.886774, "is_reserved": 0, "type": "electric_scooter"}, {"fusion_lat": 0.0, "name": "72cf0f59ab7461160f80baaa891db573", "lon": -77.02730516666666, "rental_uris": {"android": "https://dc.lft.to/lastmile_qr_scan", "ios": "https://dc.lft.to/lastmile_qr_scan"}, "fusion_lon": 0.0, "bike_id": "72cf0f59ab7461160f80baaa891db573", "is_disabled": 0, "lat": 38.8874335, "is_reserved": 0, "type": "electric_scooter"}, {"fusion_lat": 0.0, "name": "89642b65b1c8d55062154333539bff12", "lon": -77.0151625, "rental_uris": {"android": "https://dc.lft.to/lastmile_qr_scan", "ios": "https://dc.lft.to/lastmile_qr_scan"}, "fusion_lon": 0.0, "bike_id": "89642b65b1c8d55062154333539bff12", "is_disabled": 0, "lat": 38.892362166666665, "is_reserved": 0, "type": "electric_scooter"}, {"fusion_lat": 0.0, "name": "8bbf1b6b4f21ea024fdee7f791a7ecca", "lon": -77.028075, "rental_uris": {"android": "https://dc.lft.to/lastmile_qr_scan", "ios": "https://dc.lft.to/lastmile_qr_scan"}, "fusion_lon": 0.0, "bike_id": "8bbf1b6b4f21ea024fdee7f791a7ecca", "is_disabled": 0, "lat": 38.93081033333333, "is_reserved": 0, "type": "electric_scooter"}, {"fusion_lat": 0.0, "name": "7185f8d91ab77a36011bd295d7e3066e", "lon": -77.045502, "rental_uris": {"android": "https://dc.lft.to/lastmile_qr_scan", "ios": "https://dc.lft.to/lastmile_qr_scan"}, "fusion_lon": 0.0, "bike_id": "7185f8d91ab77a36011bd295d7e3066e", "is_disabled": 0, "lat": 38.91362633333333, "is_reserved": 0, "type": "electric_scooter"}, {"fusion_lat": 0.0, "name": "01fef994db5e539c7559fa581a067468", "lon": -77.04355433333333, "rental_uris": {"android": "https://dc.lft.to/lastmile_qr_scan", "ios": "https://dc.lft.to/lastmile_qr_scan"}, "fusion_lon": 0.0, "bike_id": "01fef994db5e539c7559fa581a067468", "is_disabled": 0, "lat": 38.9038095, "is_reserved": 0, "type": "electric_scooter"}, {"fusion_lat": 0.0, "name": "cd689ea458cbbbe111a96decf140846c", "lon": -77.00589166666667, "rental_uris": {"android": "https://dc.lft.to/lastmile_qr_scan", "ios": "https://dc.lft.to/lastmile_qr_scan"}, "fusion_lon": 0.0, "bike_id": "cd689ea458cbbbe111a96decf140846c", "is_disabled": 0, "lat": 38.875653166666666, "is_reserved": 0, "type": "electric_scooter"}, {"fusion_lat": 0.0, "name": "ca6d06c6af520369c4787f1392d4e86f", "lon": -76.972194, "rental_uris": {"android": "https://dc.lft.to/lastmile_qr_scan", "ios": "https://dc.lft.to/lastmile_qr_scan"}, "fusion_lon": 0.0, "bike_id": "ca6d06c6af520369c4787f1392d4e86f", "is_disabled": 0, "lat": 38.98359, "is_reserved": 0, "type": "electric_bike"}, {"fusion_lat": 0.0, "name": "b931761220e92fa4abf2f5f3bc7f28e2", "lon": -77.02391216666666, "rental_uris": {"android": "https://dc.lft.to/lastmile_qr_scan", "ios": "https://dc.lft.to/lastmile_qr_scan"}, "fusion_lon": 0.0, "bike_id": "b931761220e92fa4abf2f5f3bc7f28e2", "is_disabled": 0, "lat": 38.920731, "is_reserved": 0, "type": "electric_scooter"}, {"fusion_lat": 0.0, "name": "38d92bb2719195d9f8e5391f574ec59e", "lon": -77.03717016666667, "rental_uris": {"android": "https://dc.lft.to/lastmile_qr_scan", "ios": "https://dc.lft.to/lastmile_qr_scan"}, "fusion_lon": 0.0, "bike_id": "38d92bb2719195d9f8e5391f574ec59e", "is_disabled": 0, "lat": 38.92824233333333, "is_reserved": 0, "type": "electric_scooter"}, {"fusion_lat": 0.0, "name": "31052f6a8418cebb1c48e27a625f2810", "lon": -77.01546933333333, "rental_uris": {"android": "https://dc.lft.to/lastmile_qr_scan", "ios": "https://dc.lft.to/lastmile_qr_scan"}, "fusion_lon": 0.0, "bike_id": "31052f6a8418cebb1c48e27a625f2810", "is_disabled": 0, "lat": 38.891678666666664, "is_reserved": 0, "type": "electric_scooter"}, {"fusion_lat": 0.0, "name": "36a39bd75de1261a3c6403dcdb4171b7", "lon": -77.01286266666666, "rental_uris": {"android": "https://dc.lft.to/lastmile_qr_scan", "ios": "https://dc.lft.to/lastmile_qr_scan"}, "fusion_lon": 0.0, "bike_id": "36a39bd75de1261a3c6403dcdb4171b7", "is_disabled": 0, "lat": 38.95153766666667, "is_reserved": 0, "type": "electric_bike"}, {"fusion_lat": 0.0, "name": "6b4c55bbee956917f30c0db3ea240006", "lon": -77.06954483333334, "rental_uris": {"android": "https://dc.lft.to/lastmile_qr_scan", "ios": "https://dc.lft.to/lastmile_qr_scan"}, "fusion_lon": 0.0, "bike_id": "6b4c55bbee956917f30c0db3ea240006", "is_disabled": 0, "lat": 38.917824, "is_reserved": 0, "type": "electric_scooter"}, {"fusion_lat": 0.0, "name": "68eba9e9858eabff657681b0d6755c41", "lon": -77.03877233333333, "rental_uris": {"android": "https://dc.lft.to/lastmile_qr_scan", "ios": "https://dc.lft.to/lastmile_qr_scan"}, "fusion_lon": 0.0, "bike_id": "68eba9e9858eabff657681b0d6755c41", "is_disabled": 0, "lat": 38.9312455, "is_reserved": 0, "type": "electric_scooter"}, {"fusion_lat": 0.0, "name": "3dbfda511caffaad231c6b1616a287b4", "lon": -76.97142716666667, "rental_uris": {"android": "https://dc.lft.to/lastmile_qr_scan", "ios": "https://dc.lft.to/lastmile_qr_scan"}, "fusion_lon": 0.0, "bike_id": "3dbfda511caffaad231c6b1616a287b4", "is_disabled": 0, "lat": 38.92336566666667, "is_reserved": 0, "type": "electric_bike"}, {"fusion_lat": 0.0, "name": "17380a76eec2c62362fdd42c6e801b53", "lon": -77.01878483333333, "rental_uris": {"android": "https://dc.lft.to/lastmile_qr_scan", "ios": "https://dc.lft.to/lastmile_qr_scan"}, "fusion_lon": 0.0, "bike_id": "17380a76eec2c62362fdd42c6e801b53", "is_disabled": 0, "lat": 38.932050833333335, "is_reserved": 0, "type": "electric_bike"}, {"fusion_lat": 0.0, "name": "b2b416f77ea6d4e399ec435170f6464c", "lon": -77.0417155, "rental_uris": {"android": "https://dc.lft.to/lastmile_qr_scan", "ios": "https://dc.lft.to/lastmile_qr_scan"}, "fusion_lon": 0.0, "bike_id": "b2b416f77ea6d4e399ec435170f6464c", "is_disabled": 0, "lat": 38.916376, "is_reserved": 0, "type": "electric_scooter"}, {"fusion_lat": 0.0, "name": "2e093c96f3f67e41fe33b1686cb36297", "lon": -77.04360833333334, "rental_uris": {"android": "https://dc.lft.to/lastmile_qr_scan", "ios": "https://dc.lft.to/lastmile_qr_scan"}, "fusion_lon": 0.0, "bike_id": "2e093c96f3f67e41fe33b1686cb36297", "is_disabled": 0, "lat": 38.927991666666664, "is_reserved": 0, "type": "electric_scooter"}, {"fusion_lat": 0.0, "name": "a677bcb205a3b4bcc3c20173dcc93c4c", "lon": -77.00922383333334, "rental_uris": {"android": "https://dc.lft.to/lastmile_qr_scan", "ios": "https://dc.lft.to/lastmile_qr_scan"}, "fusion_lon": 0.0, "bike_id": "a677bcb205a3b4bcc3c20173dcc93c4c", "is_disabled": 0, "lat": 38.827840333333334, "is_reserved": 0, "type": "electric_bike"}, {"fusion_lat": 0.0, "name": "2ceb765a432d442a3ca67aac9c160e02", "lon": -77.02097383333333, "rental_uris": {"android": "https://dc.lft.to/lastmile_qr_scan", "ios": "https://dc.lft.to/lastmile_qr_scan"}, "fusion_lon": 0.0, "bike_id": "2ceb765a432d442a3ca67aac9c160e02", "is_disabled": 0, "lat": 38.9270045, "is_reserved": 0, "type": "electric_scooter"}, {"fusion_lat": 0.0, "name": "66ef8dfaf7bcc601774c08974068387a", "lon": -77.04363133333334, "rental_uris": {"android": "https://dc.lft.to/lastmile_qr_scan", "ios": "https://dc.lft.to/lastmile_qr_scan"}, "fusion_lon": 0.0, "bike_id": "66ef8dfaf7bcc601774c08974068387a", "is_disabled": 0, "lat": 38.89231066666667, "is_reserved": 0, "type": "electric_scooter"}, {"fusion_lat": 0.0, "name": "fa0b7989fc802c5bf76f30cef336722a", "lon": -77.03163133333334, "rental_uris": {"android": "https://dc.lft.to/lastmile_qr_scan", "ios": "https://dc.lft.to/lastmile_qr_scan"}, "fusion_lon": 0.0, "bike_id": "fa0b7989fc802c5bf76f30cef336722a", "is_disabled": 0, "lat": 38.918979666666665, "is_reserved": 0, "type": "electric_scooter"}, {"fusion_lat": 0.0, "name": "e68b30134389bea53ae22451b34d11ae", "lon": -77.02303066666667, "rental_uris": {"android": "https://dc.lft.to/lastmile_qr_scan", "ios": "https://dc.lft.to/lastmile_qr_scan"}, "fusion_lon": 0.0, "bike_id": "e68b30134389bea53ae22451b34d11ae", "is_disabled": 0, "lat": 38.9182105, "is_reserved": 0, "type": "electric_scooter"}, {"fusion_lat": 0.0, "name": "e44c2e0f5aea483ff496fe7177fb7e65", "lon": -77.0504505, "rental_uris": {"android": "https://dc.lft.to/lastmile_qr_scan", "ios": "https://dc.lft.to/lastmile_qr_scan"}, "fusion_lon": 0.0, "bike_id": "e44c2e0f5aea483ff496fe7177fb7e65", "is_disabled": 0, "lat": 38.923558166666666, "is_reserved": 0, "type": "electric_scooter"}, {"fusion_lat": 0.0, "name": "f3cba4e5fc3c4d93a9a17dad23f149ba", "lon": -77.0433795, "rental_uris": {"android": "https://dc.lft.to/lastmile_qr_scan", "ios": "https://dc.lft.to/lastmile_qr_scan"}, "fusion_lon": 0.0, "bike_id": "f3cba4e5fc3c4d93a9a17dad23f149ba", "is_disabled": 0, "lat": 38.908033, "is_reserved": 0, "type": "electric_scooter"}, {"fusion_lat": 0.0, "name": "baa892d711e2cc16c758a48e1d2a1325", "lon": -77.05123866666666, "rental_uris": {"android": "https://dc.lft.to/lastmile_qr_scan", "ios": "https://dc.lft.to/lastmile_qr_scan"}, "fusion_lon": 0.0, "bike_id": "baa892d711e2cc16c758a48e1d2a1325", "is_disabled": 0, "lat": 38.90577583333334, "is_reserved": 0, "type": "electric_scooter"}, {"fusion_lat": 0.0, "name": "d26e8617ade981fcb4df8ba3cbc498ff", "lon": -77.0074755, "rental_uris": {"android": "https://dc.lft.to/lastmile_qr_scan", "ios": "https://dc.lft.to/lastmile_qr_scan"}, "fusion_lon": 0.0, "bike_id": "d26e8617ade981fcb4df8ba3cbc498ff", "is_disabled": 0, "lat": 38.9037055, "is_reserved": 0, "type": "electric_scooter"}, {"fusion_lat": 0.0, "name": "6872c24c2f68f8fbf8f82e7df3247ee5", "lon": -77.04158466666667, "rental_uris": {"android": "https://dc.lft.to/lastmile_qr_scan", "ios": "https://dc.lft.to/lastmile_qr_scan"}, "fusion_lon": 0.0, "bike_id": "6872c24c2f68f8fbf8f82e7df3247ee5", "is_disabled": 0, "lat": 38.90509266666667, "is_reserved": 0, "type": "electric_scooter"}, {"fusion_lat": 0.0, "name": "a6606a454db87ca77fd609e50e7c5f61", "lon": -77.05014766666666, "rental_uris": {"android": "https://dc.lft.to/lastmile_qr_scan", "ios": "https://dc.lft.to/lastmile_qr_scan"}, "fusion_lon": 0.0, "bike_id": "a6606a454db87ca77fd609e50e7c5f61", "is_disabled": 0, "lat": 38.90553116666667, "is_reserved": 0, "type": "electric_scooter"}, {"fusion_lat": 0.0, "name": "2f3a8c1b9fd270870ae192f852014083", "lon": -76.97444066666667, "rental_uris": {"android": "https://dc.lft.to/lastmile_qr_scan", "ios": "https://dc.lft.to/lastmile_qr_scan"}, "fusion_lon": 0.0, "bike_id": "2f3a8c1b9fd270870ae192f852014083", "is_disabled": 0, "lat": 38.9192845, "is_reserved": 0, "type": "electric_bike"}, {"fusion_lat": 0.0, "name": "4bbc8f7659578804a5c5e26bfe1cfc1e", "lon": -77.03236466666667, "rental_uris": {"android": "https://dc.lft.to/lastmile_qr_scan", "ios": "https://dc.lft.to/lastmile_qr_scan"}, "fusion_lon": 0.0, "bike_id": "4bbc8f7659578804a5c5e26bfe1cfc1e", "is_disabled": 0, "lat": 38.91253283333333, "is_reserved": 0, "type": "electric_scooter"}, {"fusion_lat": 0.0, "name": "2a66e161151b866ad5f9714a9e4733b2", "lon": -77.04332783333334, "rental_uris": {"android": "https://dc.lft.to/lastmile_qr_scan", "ios": "https://dc.lft.to/lastmile_qr_scan"}, "fusion_lon": 0.0, "bike_id": "2a66e161151b866ad5f9714a9e4733b2", "is_disabled": 0, "lat": 38.916944, "is_reserved": 0, "type": "electric_scooter"}, {"fusion_lat": 0.0, "name": "9728c6f03bc59301a6b6bdb07b15611a", "lon": -77.03986416666666, "rental_uris": {"android": "https://dc.lft.to/lastmile_qr_scan", "ios": "https://dc.lft.to/lastmile_qr_scan"}, "fusion_lon": 0.0, "bike_id": "9728c6f03bc59301a6b6bdb07b15611a", "is_disabled": 0, "lat": 38.92581916666666, "is_reserved": 0, "type": "electric_scooter"}, {"fusion_lat": 0.0, "name": "2123c022581cea5be9ed9e8a9e37e7d6", "lon": -77.0313285, "rental_uris": {"android": "https://dc.lft.to/lastmile_qr_scan", "ios": "https://dc.lft.to/lastmile_qr_scan"}, "fusion_lon": 0.0, "bike_id": "2123c022581cea5be9ed9e8a9e37e7d6", "is_disabled": 0, "lat": 38.92372116666667, "is_reserved": 0, "type": "electric_scooter"}, {"fusion_lat": 0.0, "name": "696b7c11bd1685121474083a709f581f", "lon": -77.01370833333333, "rental_uris": {"android": "https://dc.lft.to/lastmile_qr_scan", "ios": "https://dc.lft.to/lastmile_qr_scan"}, "fusion_lon": 0.0, "bike_id": "696b7c11bd1685121474083a709f581f", "is_disabled": 0, "lat": 38.88705, "is_reserved": 0, "type": "electric_scooter"}, {"fusion_lat": 0.0, "name": "62f71849148d80c7b2f1216a9e0aa786", "lon": -76.97360033333334, "rental_uris": {"android": "https://dc.lft.to/lastmile_qr_scan", "ios": "https://dc.lft.to/lastmile_qr_scan"}, "fusion_lon": 0.0, "bike_id": "62f71849148d80c7b2f1216a9e0aa786", "is_disabled": 0, "lat": 38.9632495, "is_reserved": 0, "type": "electric_bike"}, {"fusion_lat": 0.0, "name": "9da9aab72d7bce615df05f4a268a6fa7", "lon": -77.0328665, "rental_uris": {"android": "https://dc.lft.to/lastmile_qr_scan", "ios": "https://dc.lft.to/lastmile_qr_scan"}, "fusion_lon": 0.0, "bike_id": "9da9aab72d7bce615df05f4a268a6fa7", "is_disabled": 0, "lat": 38.9205885, "is_reserved": 0, "type": "electric_scooter"}, {"fusion_lat": 0.0, "name": "180e20748ac4e2e8d7172007bcb9f65d", "lon": -76.945717, "rental_uris": {"android": "https://dc.lft.to/lastmile_qr_scan", "ios": "https://dc.lft.to/lastmile_qr_scan"}, "fusion_lon": 0.0, "bike_id": "180e20748ac4e2e8d7172007bcb9f65d", "is_disabled": 0, "lat": 38.86614616666667, "is_reserved": 0, "type": "electric_bike"}, {"fusion_lat": 0.0, "name": "5c4e554a086a4b08422a6dac95b71744", "lon": -77.04105866666667, "rental_uris": {"android": "https://dc.lft.to/lastmile_qr_scan", "ios": "https://dc.lft.to/lastmile_qr_scan"}, "fusion_lon": 0.0, "bike_id": "5c4e554a086a4b08422a6dac95b71744", "is_disabled": 0, "lat": 38.89854066666667, "is_reserved": 0, "type": "electric_scooter"}, {"fusion_lat": 0.0, "name": "b62a02356195d2e525fc41fb6ba49b3b", "lon": -77.043282, "rental_uris": {"android": "https://dc.lft.to/lastmile_qr_scan", "ios": "https://dc.lft.to/lastmile_qr_scan"}, "fusion_lon": 0.0, "bike_id": "b62a02356195d2e525fc41fb6ba49b3b", "is_disabled": 0, "lat": 38.92189783333333, "is_reserved": 0, "type": "electric_scooter"}, {"fusion_lat": 0.0, "name": "4527fcb89456ee4cbfcd7fcdaf2c7f2c", "lon": -76.97326316666667, "rental_uris": {"android": "https://dc.lft.to/lastmile_qr_scan", "ios": "https://dc.lft.to/lastmile_qr_scan"}, "fusion_lon": 0.0, "bike_id": "4527fcb89456ee4cbfcd7fcdaf2c7f2c", "is_disabled": 0, "lat": 38.9047985, "is_reserved": 0, "type": "electric_bike"}, {"fusion_lat": 0.0, "name": "d0c5115cff4cd4e417a2793c006471ef", "lon": -77.03157216666666, "rental_uris": {"android": "https://dc.lft.to/lastmile_qr_scan", "ios": "https://dc.lft.to/lastmile_qr_scan"}, "fusion_lon": 0.0, "bike_id": "d0c5115cff4cd4e417a2793c006471ef", "is_disabled": 0, "lat": 38.919059833333336, "is_reserved": 0, "type": "electric_scooter"}, {"fusion_lat": 0.0, "name": "8124cb15c8bd147725770be5f7650509", "lon": -77.04375716666667, "rental_uris": {"android": "https://dc.lft.to/lastmile_qr_scan", "ios": "https://dc.lft.to/lastmile_qr_scan"}, "fusion_lon": 0.0, "bike_id": "8124cb15c8bd147725770be5f7650509", "is_disabled": 0, "lat": 38.916536666666666, "is_reserved": 0, "type": "electric_scooter"}, {"fusion_lat": 0.0, "name": "e2c24e1df08b9f40fe186244e7f15131", "lon": -76.9302945, "rental_uris": {"android": "https://dc.lft.to/lastmile_qr_scan", "ios": "https://dc.lft.to/lastmile_qr_scan"}, "fusion_lon": 0.0, "bike_id": "e2c24e1df08b9f40fe186244e7f15131", "is_disabled": 0, "lat": 38.900081166666666, "is_reserved": 0, "type": "electric_scooter"}, {"fusion_lat": 0.0, "name": "35573e3e9b0fbce112354aba9f40c55b", "lon": -76.990654, "rental_uris": {"android": "https://dc.lft.to/lastmile_qr_scan", "ios": "https://dc.lft.to/lastmile_qr_scan"}, "fusion_lon": 0.0, "bike_id": "35573e3e9b0fbce112354aba9f40c55b", "is_disabled": 0, "lat": 38.863431, "is_reserved": 0, "type": "electric_scooter"}, {"fusion_lat": 0.0, "name": "7041fdea9aa5ed7516055b5ceb03cdcc", "lon": -77.04336733333334, "rental_uris": {"android": "https://dc.lft.to/lastmile_qr_scan", "ios": "https://dc.lft.to/lastmile_qr_scan"}, "fusion_lon": 0.0, "bike_id": "7041fdea9aa5ed7516055b5ceb03cdcc", "is_disabled": 0, "lat": 38.9013075, "is_reserved": 0, "type": "electric_scooter"}, {"fusion_lat": 0.0, "name": "fe924784aac135cddf3131b1aa8803ab", "lon": -77.02701183333333, "rental_uris": {"android": "https://dc.lft.to/lastmile_qr_scan", "ios": "https://dc.lft.to/lastmile_qr_scan"}, "fusion_lon": 0.0, "bike_id": "fe924784aac135cddf3131b1aa8803ab", "is_disabled": 0, "lat": 38.89714383333333, "is_reserved": 0, "type": "electric_scooter"}, {"fusion_lat": 0.0, "name": "a2b39243b45d7e39aabdcda34edca352", "lon": -77.07216583333333, "rental_uris": {"android": "https://dc.lft.to/lastmile_qr_scan", "ios": "https://dc.lft.to/lastmile_qr_scan"}, "fusion_lon": 0.0, "bike_id": "a2b39243b45d7e39aabdcda34edca352", "is_disabled": 0, "lat": 38.93401733333334, "is_reserved": 0, "type": "electric_scooter"}, {"fusion_lat": 0.0, "name": "3b5e4a965d7e3c1f0de63faee9199bfe", "lon": -77.01486883333334, "rental_uris": {"android": "https://dc.lft.to/lastmile_qr_scan", "ios": "https://dc.lft.to/lastmile_qr_scan"}, "fusion_lon": 0.0, "bike_id": "3b5e4a965d7e3c1f0de63faee9199bfe", "is_disabled": 0, "lat": 38.892209333333334, "is_reserved": 0, "type": "electric_scooter"}, {"fusion_lat": 0.0, "name": "11a7dc044ec9f17de79149d00b3828ce", "lon": -76.98592233333333, "rental_uris": {"android": "https://dc.lft.to/lastmile_qr_scan", "ios": "https://dc.lft.to/lastmile_qr_scan"}, "fusion_lon": 0.0, "bike_id": "11a7dc044ec9f17de79149d00b3828ce", "is_disabled": 0, "lat": 38.86695983333333, "is_reserved": 0, "type": "electric_scooter"}, {"fusion_lat": 0.0, "name": "550aa9d335d5c8703bbb4658fcb50aae", "lon": -76.9722025, "rental_uris": {"android": "https://dc.lft.to/lastmile_qr_scan", "ios": "https://dc.lft.to/lastmile_qr_scan"}, "fusion_lon": 0.0, "bike_id": "550aa9d335d5c8703bbb4658fcb50aae", "is_disabled": 0, "lat": 38.925354666666664, "is_reserved": 0, "type": "electric_scooter"}, {"fusion_lat": 0.0, "name": "7a6249d01dc6daa2e8ab846154ef4297", "lon": -77.03402383333334, "rental_uris": {"android": "https://dc.lft.to/lastmile_qr_scan", "ios": "https://dc.lft.to/lastmile_qr_scan"}, "fusion_lon": 0.0, "bike_id": "7a6249d01dc6daa2e8ab846154ef4297", "is_disabled": 0, "lat": 38.92437983333333, "is_reserved": 0, "type": "electric_scooter"}, {"fusion_lat": 0.0, "name": "e0f8314ece8124f158fcbf1607933b0b", "lon": -77.02200666666667, "rental_uris": {"android": "https://dc.lft.to/lastmile_qr_scan", "ios": "https://dc.lft.to/lastmile_qr_scan"}, "fusion_lon": 0.0, "bike_id": "e0f8314ece8124f158fcbf1607933b0b", "is_disabled": 0, "lat": 38.919876, "is_reserved": 0, "type": "electric_scooter"}, {"fusion_lat": 0.0, "name": "3537481cb1d94ea7a4a2cde570724834", "lon": -76.94155133333334, "rental_uris": {"android": "https://dc.lft.to/lastmile_qr_scan", "ios": "https://dc.lft.to/lastmile_qr_scan"}, "fusion_lon": 0.0, "bike_id": "3537481cb1d94ea7a4a2cde570724834", "is_disabled": 0, "lat": 38.88361733333333, "is_reserved": 0, "type": "electric_scooter"}, {"fusion_lat": 0.0, "name": "11cf3413906fe1a304bcfea5a63e2a7e", "lon": -77.0322595, "rental_uris": {"android": "https://dc.lft.to/lastmile_qr_scan", "ios": "https://dc.lft.to/lastmile_qr_scan"}, "fusion_lon": 0.0, "bike_id": "11cf3413906fe1a304bcfea5a63e2a7e", "is_disabled": 0, "lat": 38.9097565, "is_reserved": 0, "type": "electric_scooter"}, {"fusion_lat": 0.0, "name": "6ad5236f4a595f79269f623121eef435", "lon": -77.04016466666667, "rental_uris": {"android": "https://dc.lft.to/lastmile_qr_scan", "ios": "https://dc.lft.to/lastmile_qr_scan"}, "fusion_lon": 0.0, "bike_id": "6ad5236f4a595f79269f623121eef435", "is_disabled": 0, "lat": 38.90730666666666, "is_reserved": 0, "type": "electric_scooter"}, {"fusion_lat": 0.0, "name": "eaf09917f7bc547e1c3f1430612e7401", "lon": -77.0299765, "rental_uris": {"android": "https://dc.lft.to/lastmile_qr_scan", "ios": "https://dc.lft.to/lastmile_qr_scan"}, "fusion_lon": 0.0, "bike_id": "eaf09917f7bc547e1c3f1430612e7401", "is_disabled": 0, "lat": 38.9224985, "is_reserved": 0, "type": "electric_scooter"}, {"fusion_lat": 0.0, "name": "426cace7ac43506c034ac92fb46bcee5", "lon": -77.01995566666666, "rental_uris": {"android": "https://dc.lft.to/lastmile_qr_scan", "ios": "https://dc.lft.to/lastmile_qr_scan"}, "fusion_lon": 0.0, "bike_id": "426cace7ac43506c034ac92fb46bcee5", "is_disabled": 0, "lat": 38.91355266666667, "is_reserved": 0, "type": "electric_scooter"}, {"fusion_lat": 0.0, "name": "b8233a8a029e8e07e1227c0bce395c3e", "lon": -77.01952866666667, "rental_uris": {"android": "https://dc.lft.to/lastmile_qr_scan", "ios": "https://dc.lft.to/lastmile_qr_scan"}, "fusion_lon": 0.0, "bike_id": "b8233a8a029e8e07e1227c0bce395c3e", "is_disabled": 0, "lat": 38.922061666666664, "is_reserved": 0, "type": "electric_scooter"}, {"fusion_lat": 0.0, "name": "c036270d1f5cff9dbee9a4fca8b9cc8e", "lon": -77.014966, "rental_uris": {"android": "https://dc.lft.to/lastmile_qr_scan", "ios": "https://dc.lft.to/lastmile_qr_scan"}, "fusion_lon": 0.0, "bike_id": "c036270d1f5cff9dbee9a4fca8b9cc8e", "is_disabled": 0, "lat": 38.88522533333333, "is_reserved": 0, "type": "electric_scooter"}, {"fusion_lat": 0.0, "name": "9e3da45b93d0b6e7a374ac7af2edd23c", "lon": -77.042005, "rental_uris": {"android": "https://dc.lft.to/lastmile_qr_scan", "ios": "https://dc.lft.to/lastmile_qr_scan"}, "fusion_lon": 0.0, "bike_id": "9e3da45b93d0b6e7a374ac7af2edd23c", "is_disabled": 0, "lat": 38.9271295, "is_reserved": 0, "type": "electric_scooter"}, {"fusion_lat": 0.0, "name": "d0f399eb5f4beb9018c1b51372d0749b", "lon": -77.02794783333333, "rental_uris": {"android": "https://dc.lft.to/lastmile_qr_scan", "ios": "https://dc.lft.to/lastmile_qr_scan"}, "fusion_lon": 0.0, "bike_id": "d0f399eb5f4beb9018c1b51372d0749b", "is_disabled": 0, "lat": 38.89564133333333, "is_reserved": 0, "type": "electric_scooter"}, {"fusion_lat": 0.0, "name": "a88f36686775761ced278292ceef7e9e", "lon": -77.021988, "rental_uris": {"android": "https://dc.lft.to/lastmile_qr_scan", "ios": "https://dc.lft.to/lastmile_qr_scan"}, "fusion_lon": 0.0, "bike_id": "a88f36686775761ced278292ceef7e9e", "is_disabled": 0, "lat": 38.887132333333334, "is_reserved": 0, "type": "electric_scooter"}, {"fusion_lat": 0.0, "name": "0e5cd949df2ab87409804ace96d2d3f3", "lon": -77.03379283333334, "rental_uris": {"android": "https://dc.lft.to/lastmile_qr_scan", "ios": "https://dc.lft.to/lastmile_qr_scan"}, "fusion_lon": 0.0, "bike_id": "0e5cd949df2ab87409804ace96d2d3f3", "is_disabled": 0, "lat": 38.91113, "is_reserved": 0, "type": "electric_scooter"}, {"fusion_lat": 0.0, "name": "8bd1328dc3b9535534277759f06e744c", "lon": -77.004598, "rental_uris": {"android": "https://dc.lft.to/lastmile_qr_scan", "ios": "https://dc.lft.to/lastmile_qr_scan"}, "fusion_lon": 0.0, "bike_id": "8bd1328dc3b9535534277759f06e744c", "is_disabled": 0, "lat": 38.91437066666667, "is_reserved": 0, "type": "electric_scooter"}, {"fusion_lat": 0.0, "name": "f5d964cd8473f4b85b8c61ed4af68901", "lon": -77.02378183333333, "rental_uris": {"android": "https://dc.lft.to/lastmile_qr_scan", "ios": "https://dc.lft.to/lastmile_qr_scan"}, "fusion_lon": 0.0, "bike_id": "f5d964cd8473f4b85b8c61ed4af68901", "is_disabled": 0, "lat": 38.919545, "is_reserved": 0, "type": "electric_scooter"}, {"fusion_lat": 0.0, "name": "e6917a202c6bb9a69da2407a535730fe", "lon": -77.00227033333333, "rental_uris": {"android": "https://dc.lft.to/lastmile_qr_scan", "ios": "https://dc.lft.to/lastmile_qr_scan"}, "fusion_lon": 0.0, "bike_id": "e6917a202c6bb9a69da2407a535730fe", "is_disabled": 0, "lat": 38.902461333333335, "is_reserved": 0, "type": "electric_scooter"}, {"fusion_lat": 0.0, "name": "3da169dcddaa3cf790e6e3c17ca3daf2", "lon": -77.028321, "rental_uris": {"android": "https://dc.lft.to/lastmile_qr_scan", "ios": "https://dc.lft.to/lastmile_qr_scan"}, "fusion_lon": 0.0, "bike_id": "3da169dcddaa3cf790e6e3c17ca3daf2", "is_disabled": 0, "lat": 38.887225, "is_reserved": 0, "type": "electric_scooter"}, {"fusion_lat": 0.0, "name": "c6a4b627e85fd3afbbabb93ed68f1336", "lon": -77.02387016666667, "rental_uris": {"android": "https://dc.lft.to/lastmile_qr_scan", "ios": "https://dc.lft.to/lastmile_qr_scan"}, "fusion_lon": 0.0, "bike_id": "c6a4b627e85fd3afbbabb93ed68f1336", "is_disabled": 0, "lat": 38.898422833333335, "is_reserved": 0, "type": "electric_scooter"}, {"fusion_lat": 0.0, "name": "a2b3823bf4c1a610b1e9279a41f2b600", "lon": -77.000349, "rental_uris": {"android": "https://dc.lft.to/lastmile_qr_scan", "ios": "https://dc.lft.to/lastmile_qr_scan"}, "fusion_lon": 0.0, "bike_id": "a2b3823bf4c1a610b1e9279a41f2b600", "is_disabled": 0, "lat": 38.967677, "is_reserved": 0, "type": "electric_bike"}, {"fusion_lat": 0.0, "name": "76297e2645e1093c269fe6c7354c6c15", "lon": -77.04478866666666, "rental_uris": {"android": "https://dc.lft.to/lastmile_qr_scan", "ios": "https://dc.lft.to/lastmile_qr_scan"}, "fusion_lon": 0.0, "bike_id": "76297e2645e1093c269fe6c7354c6c15", "is_disabled": 0, "lat": 38.90371583333334, "is_reserved": 0, "type": "electric_scooter"}, {"fusion_lat": 0.0, "name": "ca530597fb03f1082cdad5622d15ade7", "lon": -77.0160735, "rental_uris": {"android": "https://dc.lft.to/lastmile_qr_scan", "ios": "https://dc.lft.to/lastmile_qr_scan"}, "fusion_lon": 0.0, "bike_id": "ca530597fb03f1082cdad5622d15ade7", "is_disabled": 0, "lat": 38.913063333333334, "is_reserved": 0, "type": "electric_scooter"}, {"fusion_lat": 0.0, "name": "69b534e10a14f7185477cc01bf20a317", "lon": -77.03193566666667, "rental_uris": {"android": "https://dc.lft.to/lastmile_qr_scan", "ios": "https://dc.lft.to/lastmile_qr_scan"}, "fusion_lon": 0.0, "bike_id": "69b534e10a14f7185477cc01bf20a317", "is_disabled": 0, "lat": 38.892187, "is_reserved": 0, "type": "electric_scooter"}, {"fusion_lat": 0.0, "name": "1fb93a240e71bc0328118f4defd4ccfe", "lon": -77.01165866666666, "rental_uris": {"android": "https://dc.lft.to/lastmile_qr_scan", "ios": "https://dc.lft.to/lastmile_qr_scan"}, "fusion_lon": 0.0, "bike_id": "1fb93a240e71bc0328118f4defd4ccfe", "is_disabled": 0, "lat": 38.89352183333333, "is_reserved": 0, "type": "electric_scooter"}, {"fusion_lat": 0.0, "name": "d29da112e4e0ec7a45580441a883b67f", "lon": -77.0320505, "rental_uris": {"android": "https://dc.lft.to/lastmile_qr_scan", "ios": "https://dc.lft.to/lastmile_qr_scan"}, "fusion_lon": 0.0, "bike_id": "d29da112e4e0ec7a45580441a883b67f", "is_disabled": 0, "lat": 38.91729333333333, "is_reserved": 0, "type": "electric_scooter"}, {"fusion_lat": 0.0, "name": "b198c351297168881c3dade212f2ebb9", "lon": -77.0371225, "rental_uris": {"android": "https://dc.lft.to/lastmile_qr_scan", "ios": "https://dc.lft.to/lastmile_qr_scan"}, "fusion_lon": 0.0, "bike_id": "b198c351297168881c3dade212f2ebb9", "is_disabled": 0, "lat": 38.9106935, "is_reserved": 0, "type": "electric_scooter"}, {"fusion_lat": 0.0, "name": "62663760f167473bdd3023f6907bef13", "lon": -77.03830866666667, "rental_uris": {"android": "https://dc.lft.to/lastmile_qr_scan", "ios": "https://dc.lft.to/lastmile_qr_scan"}, "fusion_lon": 0.0, "bike_id": "62663760f167473bdd3023f6907bef13", "is_disabled": 0, "lat": 38.90508916666667, "is_reserved": 0, "type": "electric_scooter"}, {"fusion_lat": 0.0, "name": "8c085b20763df1131054655da805b780", "lon": -77.02824216666667, "rental_uris": {"android": "https://dc.lft.to/lastmile_qr_scan", "ios": "https://dc.lft.to/lastmile_qr_scan"}, "fusion_lon": 0.0, "bike_id": "8c085b20763df1131054655da805b780", "is_disabled": 0, "lat": 38.931858166666665, "is_reserved": 0, "type": "electric_scooter"}, {"fusion_lat": 0.0, "name": "e9057f0f5f8253ada949e1029eac45af", "lon": -77.029768, "rental_uris": {"android": "https://dc.lft.to/lastmile_qr_scan", "ios": "https://dc.lft.to/lastmile_qr_scan"}, "fusion_lon": 0.0, "bike_id": "e9057f0f5f8253ada949e1029eac45af", "is_disabled": 0, "lat": 38.92254, "is_reserved": 0, "type": "electric_scooter"}, {"fusion_lat": 0.0, "name": "50e8be4feec4ea3347dff63f3a526bee", "lon": -76.988978, "rental_uris": {"android": "https://dc.lft.to/lastmile_qr_scan", "ios": "https://dc.lft.to/lastmile_qr_scan"}, "fusion_lon": 0.0, "bike_id": "50e8be4feec4ea3347dff63f3a526bee", "is_disabled": 0, "lat": 38.90454783333333, "is_reserved": 0, "type": "electric_scooter"}, {"fusion_lat": 0.0, "name": "c7183da0ba08b2102bd67f753b02d3d4", "lon": -77.03706183333334, "rental_uris": {"android": "https://dc.lft.to/lastmile_qr_scan", "ios": "https://dc.lft.to/lastmile_qr_scan"}, "fusion_lon": 0.0, "bike_id": "c7183da0ba08b2102bd67f753b02d3d4", "is_disabled": 0, "lat": 38.92648966666667, "is_reserved": 0, "type": "electric_scooter"}, {"fusion_lat": 0.0, "name": "a51807ea6bae43c3219b939e0ac807e8", "lon": -77.03182916666667, "rental_uris": {"android": "https://dc.lft.to/lastmile_qr_scan", "ios": "https://dc.lft.to/lastmile_qr_scan"}, "fusion_lon": 0.0, "bike_id": "a51807ea6bae43c3219b939e0ac807e8", "is_disabled": 0, "lat": 38.911271666666664, "is_reserved": 0, "type": "electric_scooter"}, {"fusion_lat": 0.0, "name": "729d93263f5904c7e2f7ab44489dd126", "lon": -77.032563, "rental_uris": {"android": "https://dc.lft.to/lastmile_qr_scan", "ios": "https://dc.lft.to/lastmile_qr_scan"}, "fusion_lon": 0.0, "bike_id": "729d93263f5904c7e2f7ab44489dd126", "is_disabled": 0, "lat": 38.9312945, "is_reserved": 0, "type": "electric_scooter"}, {"fusion_lat": 0.0, "name": "00b9c406afaa01d4694fb41a2882df28", "lon": -76.94883666666666, "rental_uris": {"android": "https://dc.lft.to/lastmile_qr_scan", "ios": "https://dc.lft.to/lastmile_qr_scan"}, "fusion_lon": 0.0, "bike_id": "00b9c406afaa01d4694fb41a2882df28", "is_disabled": 0, "lat": 38.8950835, "is_reserved": 0, "type": "electric_scooter"}, {"fusion_lat": 0.0, "name": "01b6ba008a15ff5c888fdd99f6196663", "lon": -77.032056, "rental_uris": {"android": "https://dc.lft.to/lastmile_qr_scan", "ios": "https://dc.lft.to/lastmile_qr_scan"}, "fusion_lon": 0.0, "bike_id": "01b6ba008a15ff5c888fdd99f6196663", "is_disabled": 0, "lat": 38.917708, "is_reserved": 0, "type": "electric_scooter"}, {"fusion_lat": 0.0, "name": "138d88b24c3f13fbc9676a6016c730dd", "lon": -77.02201533333333, "rental_uris": {"android": "https://dc.lft.to/lastmile_qr_scan", "ios": "https://dc.lft.to/lastmile_qr_scan"}, "fusion_lon": 0.0, "bike_id": "138d88b24c3f13fbc9676a6016c730dd", "is_disabled": 0, "lat": 38.89242083333333, "is_reserved": 0, "type": "electric_scooter"}, {"fusion_lat": 0.0, "name": "2a43854d6e130de56123c333e880025f", "lon": -77.0220005, "rental_uris": {"android": "https://dc.lft.to/lastmile_qr_scan", "ios": "https://dc.lft.to/lastmile_qr_scan"}, "fusion_lon": 0.0, "bike_id": "2a43854d6e130de56123c333e880025f", "is_disabled": 0, "lat": 38.9143315, "is_reserved": 0, "type": "electric_scooter"}, {"fusion_lat": 0.0, "name": "a61493a6ce8ba295ad511778f1bcb0c9", "lon": -77.03795166666667, "rental_uris": {"android": "https://dc.lft.to/lastmile_qr_scan", "ios": "https://dc.lft.to/lastmile_qr_scan"}, "fusion_lon": 0.0, "bike_id": "a61493a6ce8ba295ad511778f1bcb0c9", "is_disabled": 0, "lat": 38.93096716666667, "is_reserved": 0, "type": "electric_scooter"}, {"fusion_lat": 0.0, "name": "28e0658c38ce5434779d89f760d8aaf7", "lon": -77.02928183333333, "rental_uris": {"android": "https://dc.lft.to/lastmile_qr_scan", "ios": "https://dc.lft.to/lastmile_qr_scan"}, "fusion_lon": 0.0, "bike_id": "28e0658c38ce5434779d89f760d8aaf7", "is_disabled": 0, "lat": 38.92063566666667, "is_reserved": 0, "type": "electric_scooter"}, {"fusion_lat": 0.0, "name": "a128eaac102e11c123d4579888ce43b8", "lon": -76.93307516666667, "rental_uris": {"android": "https://dc.lft.to/lastmile_qr_scan", "ios": "https://dc.lft.to/lastmile_qr_scan"}, "fusion_lon": 0.0, "bike_id": "a128eaac102e11c123d4579888ce43b8", "is_disabled": 0, "lat": 38.891982666666664, "is_reserved": 0, "type": "electric_scooter"}, {"fusion_lat": 0.0, "name": "4ff134cdcdc912ce316fe6eb5bdab934", "lon": -77.04890783333333, "rental_uris": {"android": "https://dc.lft.to/lastmile_qr_scan", "ios": "https://dc.lft.to/lastmile_qr_scan"}, "fusion_lon": 0.0, "bike_id": "4ff134cdcdc912ce316fe6eb5bdab934", "is_disabled": 0, "lat": 38.90516216666666, "is_reserved": 0, "type": "electric_scooter"}, {"fusion_lat": 0.0, "name": "2eb9a971e18f08a44aabb07296df841d", "lon": -77.03192183333333, "rental_uris": {"android": "https://dc.lft.to/lastmile_qr_scan", "ios": "https://dc.lft.to/lastmile_qr_scan"}, "fusion_lon": 0.0, "bike_id": "2eb9a971e18f08a44aabb07296df841d", "is_disabled": 0, "lat": 38.9010995, "is_reserved": 0, "type": "electric_scooter"}, {"fusion_lat": 0.0, "name": "e453ff0320066f5b01885a96b4e74092", "lon": -77.01918833333333, "rental_uris": {"android": "https://dc.lft.to/lastmile_qr_scan", "ios": "https://dc.lft.to/lastmile_qr_scan"}, "fusion_lon": 0.0, "bike_id": "e453ff0320066f5b01885a96b4e74092", "is_disabled": 0, "lat": 38.923628, "is_reserved": 0, "type": "electric_scooter"}, {"fusion_lat": 0.0, "name": "867e2bd5b1ae8c71a15373c8c3b91686", "lon": -77.0852595, "rental_uris": {"android": "https://dc.lft.to/lastmile_qr_scan", "ios": "https://dc.lft.to/lastmile_qr_scan"}, "fusion_lon": 0.0, "bike_id": "867e2bd5b1ae8c71a15373c8c3b91686", "is_disabled": 0, "lat": 38.961105333333336, "is_reserved": 0, "type": "electric_bike"}, {"fusion_lat": 0.0, "name": "49b2af8aba5b242d6a6aecd28588af06", "lon": -77.04633566666666, "rental_uris": {"android": "https://dc.lft.to/lastmile_qr_scan", "ios": "https://dc.lft.to/lastmile_qr_scan"}, "fusion_lon": 0.0, "bike_id": "49b2af8aba5b242d6a6aecd28588af06", "is_disabled": 0, "lat": 38.9157315, "is_reserved": 0, "type": "electric_scooter"}, {"fusion_lat": 0.0, "name": "834deba5b7c36a9dcd6320a2e919794c", "lon": -77.02388033333334, "rental_uris": {"android": "https://dc.lft.to/lastmile_qr_scan", "ios": "https://dc.lft.to/lastmile_qr_scan"}, "fusion_lon": 0.0, "bike_id": "834deba5b7c36a9dcd6320a2e919794c", "is_disabled": 0, "lat": 38.915628, "is_reserved": 0, "type": "electric_scooter"}, {"fusion_lat": 0.0, "name": "7c7c4747c88c04eab50245c3425bb66a", "lon": -77.027846, "rental_uris": {"android": "https://dc.lft.to/lastmile_qr_scan", "ios": "https://dc.lft.to/lastmile_qr_scan"}, "fusion_lon": 0.0, "bike_id": "7c7c4747c88c04eab50245c3425bb66a", "is_disabled": 0, "lat": 38.9540005, "is_reserved": 0, "type": "electric_scooter"}, {"fusion_lat": 0.0, "name": "0004e168592ea0a3dbe52a0861debc77", "lon": -77.05158766666666, "rental_uris": {"android": "https://dc.lft.to/lastmile_qr_scan", "ios": "https://dc.lft.to/lastmile_qr_scan"}, "fusion_lon": 0.0, "bike_id": "0004e168592ea0a3dbe52a0861debc77", "is_disabled": 0, "lat": 39.0429955, "is_reserved": 0, "type": "electric_bike"}, {"fusion_lat": 0.0, "name": "75ff61954449594042ab37f6af39d476", "lon": -77.01103033333334, "rental_uris": {"android": "https://dc.lft.to/lastmile_qr_scan", "ios": "https://dc.lft.to/lastmile_qr_scan"}, "fusion_lon": 0.0, "bike_id": "75ff61954449594042ab37f6af39d476", "is_disabled": 0, "lat": 38.8946315, "is_reserved": 0, "type": "electric_scooter"}, {"fusion_lat": 0.0, "name": "64b2c15cf8b275b9be1a282e7166831a", "lon": -77.03988316666667, "rental_uris": {"android": "https://dc.lft.to/lastmile_qr_scan", "ios": "https://dc.lft.to/lastmile_qr_scan"}, "fusion_lon": 0.0, "bike_id": "64b2c15cf8b275b9be1a282e7166831a", "is_disabled": 0, "lat": 38.9015645, "is_reserved": 0, "type": "electric_scooter"}, {"fusion_lat": 0.0, "name": "19a8c45ad8fa698ec8f1cd7261fa8723", "lon": -77.00596483333334, "rental_uris": {"android": "https://dc.lft.to/lastmile_qr_scan", "ios": "https://dc.lft.to/lastmile_qr_scan"}, "fusion_lon": 0.0, "bike_id": "19a8c45ad8fa698ec8f1cd7261fa8723", "is_disabled": 0, "lat": 38.87568916666667, "is_reserved": 0, "type": "electric_scooter"}, {"fusion_lat": 0.0, "name": "dd36dbf5f43aba25007ec5a2918061e3", "lon": -77.00359933333333, "rental_uris": {"android": "https://dc.lft.to/lastmile_qr_scan", "ios": "https://dc.lft.to/lastmile_qr_scan"},