{"data": {"bikes": [{"is_reserved": 0, "type": "electric_scooter", "bike_id": "fef8dac5601f5c5790fcaebb8142a1df", "lat": 38.874738, "lon": -77.0033545, "rental_uris": {"android": "https://dc.lft.to/lastmile_qr_scan", "ios": "https://dc.lft.to/lastmile_qr_scan"}, "is_disabled": 0, "fusion_lat": 0.0, "name": "fef8dac5601f5c5790fcaebb8142a1df", "fusion_lon": 0.0}, {"is_reserved": 0, "type": "electric_scooter", "bike_id": "289ae2da90d3d8ef1de07fb8d72f9631", "lat": 38.92288466666667, "lon": -77.036582, "rental_uris": {"android": "https://dc.lft.to/lastmile_qr_scan", "ios": "https://dc.lft.to/lastmile_qr_scan"}, "is_disabled": 0, "fusion_lat": 0.0, "name": "289ae2da90d3d8ef1de07fb8d72f9631", "fusion_lon": 0.0}, {"is_reserved": 0, "type": "electric_scooter", "bike_id": "937e9d4b6f2464c475ffcdffd03d7075", "lat": 38.89221033333333, "lon": -77.04365616666666, "rental_uris": {"android": "https://dc.lft.to/lastmile_qr_scan", "ios": "https://dc.lft.to/lastmile_qr_scan"}, "is_disabled": 0, "fusion_lat": 0.0, "name": "937e9d4b6f2464c475ffcdffd03d7075", "fusion_lon": 0.0}, {"is_reserved": 0, "type": "electric_scooter", "bike_id": "de71718921164ba4b05959188a5fe6c7", "lat": 38.8919595, "lon": -77.02227966666666, "rental_uris": {"android": "https://dc.lft.to/lastmile_qr_scan", "ios": "https://dc.lft.to/lastmile_qr_scan"}, "is_disabled": 0, "fusion_lat": 0.0, "name": "de71718921164ba4b05959188a5fe6c7", "fusion_lon": 0.0}, {"is_reserved": 0, "type": "electric_scooter", "bike_id": "0ebf9aa5ea2fba878e98f01bc5ce4b63", "lat": 38.92204133333333, "lon": -77.02032316666667, "rental_uris": {"android": "https://dc.lft.to/lastmile_qr_scan", "ios": "https://dc.lft.to/lastmile_qr_scan"}, "is_disabled": 0, "fusion_lat": 0.0, "name": "0ebf9aa5ea2fba878e98f01bc5ce4b63", "fusion_lon": 0.0}, {"is_reserved": 0, "type": "electric_scooter", "bike_id": "5c074f1c51fd7aa3513304f2b9f33257", "lat": 38.89774883333333, "lon": -77.04776516666666, "rental_uris": {"android": "https://dc.lft.to/lastmile_qr_scan", "ios": "https://dc.lft.to/lastmile_qr_scan"}, "is_disabled": 0, "fusion_lat": 0.0, "name": "5c074f1c51fd7aa3513304f2b9f33257", "fusion_lon": 0.0}, {"is_reserved": 0, "type": "electric_scooter", "bike_id": "e110dd1dc80882b6c328718ba0c7c93a", "lat": 38.91876, "lon": -77.04313316666666, "rental_uris": {"android": "https://dc.lft.to/lastmile_qr_scan", "ios": "https://dc.lft.to/lastmile_qr_scan"}, "is_disabled": 0, "fusion_lat": 0.0, "name": "e110dd1dc80882b6c328718ba0c7c93a", "fusion_lon": 0.0}, {"is_reserved": 0, "type": "electric_scooter", "bike_id": "198858635380d36b1e81e4ee3c034a11", "lat": 38.918769, "lon": -77.04308566666667, "rental_uris": {"android": "https://dc.lft.to/lastmile_qr_scan", "ios": "https://dc.lft.to/lastmile_qr_scan"}, "is_disabled": 0, "fusion_lat": 0.0, "name": "198858635380d36b1e81e4ee3c034a11", "fusion_lon": 0.0}, {"is_reserved": 0, "type": "electric_scooter", "bike_id": "c1dcf7916c29bc6f43cd5628514328f3", "lat": 38.911859, "lon": -77.0025365, "rental_uris": {"android": "https://dc.lft.to/lastmile_qr_scan", "ios": "https://dc.lft.to/lastmile_qr_scan"}, "is_disabled": 0, "fusion_lat": 0.0, "name": "c1dcf7916c29bc6f43cd5628514328f3", "fusion_lon": 0.0}, {"is_reserved": 0, "type": "electric_scooter", "bike_id": "8e61a3ad03fbaa2128dac8466b782bf8", "lat": 38.910221166666666, "lon": -76.99372216666667, "rental_uris": {"android": "https://dc.lft.to/lastmile_qr_scan", "ios": "https://dc.lft.to/lastmile_qr_scan"}, "is_disabled": 0, "fusion_lat": 0.0, "name": "8e61a3ad03fbaa2128dac8466b782bf8", "fusion_lon": 0.0}, {"is_reserved": 0, "type": "electric_scooter", "bike_id": "f124541cbd5d00e6a1b27fbc27383108", "lat": 38.935238166666664, "lon": -77.01952416666667, "rental_uris": {"android": "https://dc.lft.to/lastmile_qr_scan", "ios": "https://dc.lft.to/lastmile_qr_scan"}, "is_disabled": 0, "fusion_lat": 0.0, "name": "f124541cbd5d00e6a1b27fbc27383108", "fusion_lon": 0.0}, {"is_reserved": 0, "type": "electric_scooter", "bike_id": "891843f2cd67f1dc9be4bb5e06dd33cd", "lat": 38.906872166666666, "lon": -77.06260933333333, "rental_uris": {"android": "https://dc.lft.to/lastmile_qr_scan", "ios": "https://dc.lft.to/lastmile_qr_scan"}, "is_disabled": 0, "fusion_lat": 0.0, "name": "891843f2cd67f1dc9be4bb5e06dd33cd", "fusion_lon": 0.0}, {"is_reserved": 0, "type": "electric_bike", "bike_id": "05b334ce0e2dda54db1f867308665140", "lat": 38.949656833333336, "lon": -76.96099616666666, "rental_uris": {"android": "https://dc.lft.to/lastmile_qr_scan", "ios": "https://dc.lft.to/lastmile_qr_scan"}, "is_disabled": 0, "fusion_lat": 0.0, "name": "05b334ce0e2dda54db1f867308665140", "fusion_lon": 0.0}, {"is_reserved": 0, "type": "electric_scooter", "bike_id": "4b085c30c63387407c90ee886b1ce88c", "lat": 38.8934325, "lon": -77.02821883333333, "rental_uris": {"android": "https://dc.lft.to/lastmile_qr_scan", "ios": "https://dc.lft.to/lastmile_qr_scan"}, "is_disabled": 0, "fusion_lat": 0.0, "name": "4b085c30c63387407c90ee886b1ce88c", "fusion_lon": 0.0}, {"is_reserved": 0, "type": "electric_bike", "bike_id": "b87a77ee0d3b2d2952b2acc616b8a527", "lat": 38.80866433333333, "lon": -77.112546, "rental_uris": {"android": "https://dc.lft.to/lastmile_qr_scan", "ios": "https://dc.lft.to/lastmile_qr_scan"}, "is_disabled": 0, "fusion_lat": 0.0, "name": "b87a77ee0d3b2d2952b2acc616b8a527", "fusion_lon": 0.0}, {"is_reserved": 0, "type": "electric_scooter", "bike_id": "28b82abd2881c8b90bf6f373541739f2", "lat": 38.905983666666664, "lon": -77.04153016666666, "rental_uris": {"android": "https://dc.lft.to/lastmile_qr_scan", "ios": "https://dc.lft.to/lastmile_qr_scan"}, "is_disabled": 0, "fusion_lat": 0.0, "name": "28b82abd2881c8b90bf6f373541739f2", "fusion_lon": 0.0}, {"is_reserved": 0, "type": "electric_scooter", "bike_id": "a1cb8ae73faf5e999301343b82542fad", "lat": 38.9111315, "lon": -77.03837983333334, "rental_uris": {"android": "https://dc.lft.to/lastmile_qr_scan", "ios": "https://dc.lft.to/lastmile_qr_scan"}, "is_disabled": 0, "fusion_lat": 0.0, "name": "a1cb8ae73faf5e999301343b82542fad", "fusion_lon": 0.0}, {"is_reserved": 0, "type": "electric_scooter", "bike_id": "31e56ad572dd8e877cb76aa61a18a3f0", "lat": 38.872689, "lon": -77.017158, "rental_uris": {"android": "https://dc.lft.to/lastmile_qr_scan", "ios": "https://dc.lft.to/lastmile_qr_scan"}, "is_disabled": 0, "fusion_lat": 0.0, "name": "31e56ad572dd8e877cb76aa61a18a3f0", "fusion_lon": 0.0}, {"is_reserved": 0, "type": "electric_scooter", "bike_id": "4c5c5804681ab31883ff6e8d1e69695a", "lat": 38.905143833333334, "lon": -77.0566405, "rental_uris": {"android": "https://dc.lft.to/lastmile_qr_scan", "ios": "https://dc.lft.to/lastmile_qr_scan"}, "is_disabled": 0, "fusion_lat": 0.0, "name": "4c5c5804681ab31883ff6e8d1e69695a", "fusion_lon": 0.0}, {"is_reserved": 0, "type": "electric_scooter", "bike_id": "8361cdbe179db8184038434400414d57", "lat": 38.911190166666664, "lon": -77.0438005, "rental_uris": {"android": "https://dc.lft.to/lastmile_qr_scan", "ios": "https://dc.lft.to/lastmile_qr_scan"}, "is_disabled": 0, "fusion_lat": 0.0, "name": "8361cdbe179db8184038434400414d57", "fusion_lon": 0.0}, {"is_reserved": 0, "type": "electric_scooter", "bike_id": "7df08ba972e3a44993971659fe5d8b66", "lat": 38.87151883333333, "lon": -77.013187, "rental_uris": {"android": "https://dc.lft.to/lastmile_qr_scan", "ios": "https://dc.lft.to/lastmile_qr_scan"}, "is_disabled": 0, "fusion_lat": 0.0, "name": "7df08ba972e3a44993971659fe5d8b66", "fusion_lon": 0.0}, {"is_reserved": 0, "type": "electric_scooter", "bike_id": "7469913ea8bd6f6f1906c141dcf228fa", "lat": 38.903796, "lon": -77.01848616666666, "rental_uris": {"android": "https://dc.lft.to/lastmile_qr_scan", "ios": "https://dc.lft.to/lastmile_qr_scan"}, "is_disabled": 0, "fusion_lat": 0.0, "name": "7469913ea8bd6f6f1906c141dcf228fa", "fusion_lon": 0.0}, {"is_reserved": 0, "type": "electric_scooter", "bike_id": "e40ca3d5f27ab67ccec8ab50a9e9afab", "lat": 38.900872, "lon": -77.05734933333333, "rental_uris": {"android": "https://dc.lft.to/lastmile_qr_scan", "ios": "https://dc.lft.to/lastmile_qr_scan"}, "is_disabled": 0, "fusion_lat": 0.0, "name": "e40ca3d5f27ab67ccec8ab50a9e9afab", "fusion_lon": 0.0}, {"is_reserved": 0, "type": "electric_scooter", "bike_id": "734452a243fcb5c5bd81d47872049348", "lat": 38.9008265, "lon": -77.04941483333333, "rental_uris": {"android": "https://dc.lft.to/lastmile_qr_scan", "ios": "https://dc.lft.to/lastmile_qr_scan"}, "is_disabled": 0, "fusion_lat": 0.0, "name": "734452a243fcb5c5bd81d47872049348", "fusion_lon": 0.0}, {"is_reserved": 0, "type": "electric_scooter", "bike_id": "ee55c98018e4a521657d0da2532871ab", "lat": 38.90096533333333, "lon": -77.0159675, "rental_uris": {"android": "https://dc.lft.to/lastmile_qr_scan", "ios": "https://dc.lft.to/lastmile_qr_scan"}, "is_disabled": 0, "fusion_lat": 0.0, "name": "ee55c98018e4a521657d0da2532871ab", "fusion_lon": 0.0}, {"is_reserved": 0, "type": "electric_bike", "bike_id": "2b8bff3434f3ccdd865b3a4bd90fca89", "lat": 38.908024833333336, "lon": -77.0239205, "rental_uris": {"android": "https://dc.lft.to/lastmile_qr_scan", "ios": "https://dc.lft.to/lastmile_qr_scan"}, "is_disabled": 0, "fusion_lat": 0.0, "name": "2b8bff3434f3ccdd865b3a4bd90fca89", "fusion_lon": 0.0}, {"is_reserved": 0, "type": "electric_scooter", "bike_id": "a122a92f45c4d447a837bffc10d71588", "lat": 38.88747566666667, "lon": -77.01741233333334, "rental_uris": {"android": "https://dc.lft.to/lastmile_qr_scan", "ios": "https://dc.lft.to/lastmile_qr_scan"}, "is_disabled": 0, "fusion_lat": 0.0, "name": "a122a92f45c4d447a837bffc10d71588", "fusion_lon": 0.0}, {"is_reserved": 0, "type": "electric_scooter", "bike_id": "1fa39afd164b4b431b15efe10573382a", "lat": 38.94010466666667, "lon": -77.027386, "rental_uris": {"android": "https://dc.lft.to/lastmile_qr_scan", "ios": "https://dc.lft.to/lastmile_qr_scan"}, "is_disabled": 0, "fusion_lat": 0.0, "name": "1fa39afd164b4b431b15efe10573382a", "fusion_lon": 0.0}, {"is_reserved": 0, "type": "electric_scooter", "bike_id": "d32deb879dcdf71a92d182c4385f1049", "lat": 38.93780133333333, "lon": -77.07452633333334, "rental_uris": {"android": "https://dc.lft.to/lastmile_qr_scan", "ios": "https://dc.lft.to/lastmile_qr_scan"}, "is_disabled": 0, "fusion_lat": 0.0, "name": "d32deb879dcdf71a92d182c4385f1049", "fusion_lon": 0.0}, {"is_reserved": 0, "type": "electric_scooter", "bike_id": "5c9951313c309e507ebfb3d69b1a50fe", "lat": 38.912440833333335, "lon": -77.0384995, "rental_uris": {"android": "https://dc.lft.to/lastmile_qr_scan", "ios": "https://dc.lft.to/lastmile_qr_scan"}, "is_disabled": 0, "fusion_lat": 0.0, "name": "5c9951313c309e507ebfb3d69b1a50fe", "fusion_lon": 0.0}, {"is_reserved": 0, "type": "electric_scooter", "bike_id": "e1678d4553a88e1ca744b1c93aa3c756", "lat": 38.90562766666667, "lon": -76.99773066666667, "rental_uris": {"android": "https://dc.lft.to/lastmile_qr_scan", "ios": "https://dc.lft.to/lastmile_qr_scan"}, "is_disabled": 0, "fusion_lat": 0.0, "name": "e1678d4553a88e1ca744b1c93aa3c756", "fusion_lon": 0.0}, {"is_reserved": 0, "type": "electric_scooter", "bike_id": "8731d2fc0bce79bfad8cec04fcc9b7c4", "lat": 38.9497635, "lon": -77.02446133333333, "rental_uris": {"android": "https://dc.lft.to/lastmile_qr_scan", "ios": "https://dc.lft.to/lastmile_qr_scan"}, "is_disabled": 0, "fusion_lat": 0.0, "name": "8731d2fc0bce79bfad8cec04fcc9b7c4", "fusion_lon": 0.0}, {"is_reserved": 0, "type": "electric_bike", "bike_id": "68b2c9d5cad3323df62e389182de13ab", "lat": 38.95599383333333, "lon": -76.99531633333334, "rental_uris": {"android": "https://dc.lft.to/lastmile_qr_scan", "ios": "https://dc.lft.to/lastmile_qr_scan"}, "is_disabled": 0, "fusion_lat": 0.0, "name": "68b2c9d5cad3323df62e389182de13ab", "fusion_lon": 0.0}, {"is_reserved": 0, "type": "electric_scooter", "bike_id": "20f4985798ca53fc0fb12b5ca313d6c1", "lat": 38.928728166666666, "lon": -77.03444183333333, "rental_uris": {"android": "https://dc.lft.to/lastmile_qr_scan", "ios": "https://dc.lft.to/lastmile_qr_scan"}, "is_disabled": 0, "fusion_lat": 0.0, "name": "20f4985798ca53fc0fb12b5ca313d6c1", "fusion_lon": 0.0}, {"is_reserved": 0, "type": "electric_scooter", "bike_id": "74ab63c544495de0affaeb6b31c1cfaa", "lat": 38.89950283333334, "lon": -77.05392233333333, "rental_uris": {"android": "https://dc.lft.to/lastmile_qr_scan", "ios": "https://dc.lft.to/lastmile_qr_scan"}, "is_disabled": 0, "fusion_lat": 0.0, "name": "74ab63c544495de0affaeb6b31c1cfaa", "fusion_lon": 0.0}, {"is_reserved": 0, "type": "electric_scooter", "bike_id": "c3e6025c68966cde94840f8d70fede45", "lat": 38.90457333333333, "lon": -77.0033225, "rental_uris": {"android": "https://dc.lft.to/lastmile_qr_scan", "ios": "https://dc.lft.to/lastmile_qr_scan"}, "is_disabled": 0, "fusion_lat": 0.0, "name": "c3e6025c68966cde94840f8d70fede45", "fusion_lon": 0.0}, {"is_reserved": 0, "type": "electric_scooter", "bike_id": "5ef7693cbeba70558d30826974ccaa18", "lat": 38.924477833333334, "lon": -77.020338, "rental_uris": {"android": "https://dc.lft.to/lastmile_qr_scan", "ios": "https://dc.lft.to/lastmile_qr_scan"}, "is_disabled": 0, "fusion_lat": 0.0, "name": "5ef7693cbeba70558d30826974ccaa18", "fusion_lon": 0.0}, {"is_reserved": 0, "type": "electric_scooter", "bike_id": "4656bf8aff0e745481c985517ad3ecdf", "lat": 38.90104766666666, "lon": -77.01608366666666, "rental_uris": {"android": "https://dc.lft.to/lastmile_qr_scan", "ios": "https://dc.lft.to/lastmile_qr_scan"}, "is_disabled": 0, "fusion_lat": 0.0, "name": "4656bf8aff0e745481c985517ad3ecdf", "fusion_lon": 0.0}, {"is_reserved": 0, "type": "electric_scooter", "bike_id": "b77a90987063ccbefbfcdcff0b477a44", "lat": 38.9131735, "lon": -77.0144415, "rental_uris": {"android": "https://dc.lft.to/lastmile_qr_scan", "ios": "https://dc.lft.to/lastmile_qr_scan"}, "is_disabled": 0, "fusion_lat": 0.0, "name": "b77a90987063ccbefbfcdcff0b477a44", "fusion_lon": 0.0}, {"is_reserved": 0, "type": "electric_scooter", "bike_id": "27c267d92d62ccf3610f70282306cf44", "lat": 38.91937866666667, "lon": -77.01878416666666, "rental_uris": {"android": "https://dc.lft.to/lastmile_qr_scan", "ios": "https://dc.lft.to/lastmile_qr_scan"}, "is_disabled": 0, "fusion_lat": 0.0, "name": "27c267d92d62ccf3610f70282306cf44", "fusion_lon": 0.0}, {"is_reserved": 0, "type": "electric_scooter", "bike_id": "d4e9c0ffd2593d3d8161327127f6c460", "lat": 38.90854066666667, "lon": -77.003588, "rental_uris": {"android": "https://dc.lft.to/lastmile_qr_scan", "ios": "https://dc.lft.to/lastmile_qr_scan"}, "is_disabled": 0, "fusion_lat": 0.0, "name": "d4e9c0ffd2593d3d8161327127f6c460", "fusion_lon": 0.0}, {"is_reserved": 0, "type": "electric_scooter", "bike_id": "55452b4615a96aa6053dae5a98da4cfb", "lat": 38.91972283333333, "lon": -77.04354183333334, "rental_uris": {"android": "https://dc.lft.to/lastmile_qr_scan", "ios": "https://dc.lft.to/lastmile_qr_scan"}, "is_disabled": 0, "fusion_lat": 0.0, "name": "55452b4615a96aa6053dae5a98da4cfb", "fusion_lon": 0.0}, {"is_reserved": 0, "type": "electric_scooter", "bike_id": "5bab73d20ba30fb1e8aead2b05f0dd0b", "lat": 38.914687, "lon": -77.03210166666666, "rental_uris": {"android": "https://dc.lft.to/lastmile_qr_scan", "ios": "https://dc.lft.to/lastmile_qr_scan"}, "is_disabled": 0, "fusion_lat": 0.0, "name": "5bab73d20ba30fb1e8aead2b05f0dd0b", "fusion_lon": 0.0}, {"is_reserved": 0, "type": "electric_scooter", "bike_id": "4f0b19dfaa9b90c9d3edfda3006f6757", "lat": 38.8658545, "lon": -76.974521, "rental_uris": {"android": "https://dc.lft.to/lastmile_qr_scan", "ios": "https://dc.lft.to/lastmile_qr_scan"}, "is_disabled": 0, "fusion_lat": 0.0, "name": "4f0b19dfaa9b90c9d3edfda3006f6757", "fusion_lon": 0.0}, {"is_reserved": 0, "type": "electric_scooter", "bike_id": "1e81b569a19b9a319af50f02bdd67713", "lat": 38.91571283333333, "lon": -77.02289383333333, "rental_uris": {"android": "https://dc.lft.to/lastmile_qr_scan", "ios": "https://dc.lft.to/lastmile_qr_scan"}, "is_disabled": 0, "fusion_lat": 0.0, "name": "1e81b569a19b9a319af50f02bdd67713", "fusion_lon": 0.0}, {"is_reserved": 0, "type": "electric_scooter", "bike_id": "1518db24ac7d2d8b89e83947177a0f01", "lat": 38.887707166666665, "lon": -76.98317116666666, "rental_uris": {"android": "https://dc.lft.to/lastmile_qr_scan", "ios": "https://dc.lft.to/lastmile_qr_scan"}, "is_disabled": 0, "fusion_lat": 0.0, "name": "1518db24ac7d2d8b89e83947177a0f01", "fusion_lon": 0.0}, {"is_reserved": 0, "type": "electric_scooter", "bike_id": "b2a94e151d8ed90abc5ef7fa6370b534", "lat": 38.89784183333333, "lon": -77.02692066666667, "rental_uris": {"android": "https://dc.lft.to/lastmile_qr_scan", "ios": "https://dc.lft.to/lastmile_qr_scan"}, "is_disabled": 0, "fusion_lat": 0.0, "name": "b2a94e151d8ed90abc5ef7fa6370b534", "fusion_lon": 0.0}, {"is_reserved": 0, "type": "electric_bike", "bike_id": "54d6ca42e66f199bab6de7b8be35ecd0", "lat": 38.89591716666666, "lon": -76.90690883333333, "rental_uris": {"android": "https://dc.lft.to/lastmile_qr_scan", "ios": "https://dc.lft.to/lastmile_qr_scan"}, "is_disabled": 0, "fusion_lat": 0.0, "name": "54d6ca42e66f199bab6de7b8be35ecd0", "fusion_lon": 0.0}, {"is_reserved": 0, "type": "electric_scooter", "bike_id": "11de86958c963adf0f9c50576fd03978", "lat": 38.898111666666665, "lon": -76.996818, "rental_uris": {"android": "https://dc.lft.to/lastmile_qr_scan", "ios": "https://dc.lft.to/lastmile_qr_scan"}, "is_disabled": 0, "fusion_lat": 0.0, "name": "11de86958c963adf0f9c50576fd03978", "fusion_lon": 0.0}, {"is_reserved": 0, "type": "electric_scooter", "bike_id": "76b29b17fae0fb056c50b9b2d77dd632", "lat": 38.867199, "lon": -76.98073216666667, "rental_uris": {"android": "https://dc.lft.to/lastmile_qr_scan", "ios": "https://dc.lft.to/lastmile_qr_scan"}, "is_disabled": 0, "fusion_lat": 0.0, "name": "76b29b17fae0fb056c50b9b2d77dd632", "fusion_lon": 0.0}, {"is_reserved": 0, "type": "electric_scooter", "bike_id": "169eac6bd52571af77cb693d295e37a7", "lat": 38.89231, "lon": -77.03181533333333, "rental_uris": {"android": "https://dc.lft.to/lastmile_qr_scan", "ios": "https://dc.lft.to/lastmile_qr_scan"}, "is_disabled": 0, "fusion_lat": 0.0, "name": "169eac6bd52571af77cb693d295e37a7", "fusion_lon": 0.0}, {"is_reserved": 0, "type": "electric_scooter", "bike_id": "0cf5b90ff309297eba6be86b45615cb3", "lat": 38.9111115, "lon": -77.0208175, "rental_uris": {"android": "https://dc.lft.to/lastmile_qr_scan", "ios": "https://dc.lft.to/lastmile_qr_scan"}, "is_disabled": 0, "fusion_lat": 0.0, "name": "0cf5b90ff309297eba6be86b45615cb3", "fusion_lon": 0.0}, {"is_reserved": 0, "type": "electric_scooter", "bike_id": "00fccebfcb42649b68387620e2bcb78e", "lat": 38.921084, "lon": -77.04695783333334, "rental_uris": {"android": "https://dc.lft.to/lastmile_qr_scan", "ios": "https://dc.lft.to/lastmile_qr_scan"}, "is_disabled": 0, "fusion_lat": 0.0, "name": "00fccebfcb42649b68387620e2bcb78e", "fusion_lon": 0.0}, {"is_reserved": 0, "type": "electric_scooter", "bike_id": "37528cf39efd0c03d34bd0939cd8cb63", "lat": 38.94328316666667, "lon": -77.01256033333334, "rental_uris": {"android": "https://dc.lft.to/lastmile_qr_scan", "ios": "https://dc.lft.to/lastmile_qr_scan"}, "is_disabled": 0, "fusion_lat": 0.0, "name": "37528cf39efd0c03d34bd0939cd8cb63", "fusion_lon": 0.0}, {"is_reserved": 0, "type": "electric_scooter", "bike_id": "d4db087247c2101e6f633aa785d7bdfd", "lat": 38.895342, "lon": -76.9789685, "rental_uris": {"android": "https://dc.lft.to/lastmile_qr_scan", "ios": "https://dc.lft.to/lastmile_qr_scan"}, "is_disabled": 0, "fusion_lat": 0.0, "name": "d4db087247c2101e6f633aa785d7bdfd", "fusion_lon": 0.0}, {"is_reserved": 0, "type": "electric_scooter", "bike_id": "7aeaec2f0c18536260185308776deb7d", "lat": 38.930419, "lon": -77.05537416666667, "rental_uris": {"android": "https://dc.lft.to/lastmile_qr_scan", "ios": "https://dc.lft.to/lastmile_qr_scan"}, "is_disabled": 0, "fusion_lat": 0.0, "name": "7aeaec2f0c18536260185308776deb7d", "fusion_lon": 0.0}, {"is_reserved": 0, "type": "electric_scooter", "bike_id": "eec2ce3c02079e505e70bab47595f6a4", "lat": 38.9119185, "lon": -77.03754633333334, "rental_uris": {"android": "https://dc.lft.to/lastmile_qr_scan", "ios": "https://dc.lft.to/lastmile_qr_scan"}, "is_disabled": 0, "fusion_lat": 0.0, "name": "eec2ce3c02079e505e70bab47595f6a4", "fusion_lon": 0.0}, {"is_reserved": 0, "type": "electric_scooter", "bike_id": "e1e5a6f504faa94c628e3e56afe6c4da", "lat": 38.9243185, "lon": -77.03417233333333, "rental_uris": {"android": "https://dc.lft.to/lastmile_qr_scan", "ios": "https://dc.lft.to/lastmile_qr_scan"}, "is_disabled": 0, "fusion_lat": 0.0, "name": "e1e5a6f504faa94c628e3e56afe6c4da", "fusion_lon": 0.0}, {"is_reserved": 0, "type": "electric_scooter", "bike_id": "0e240c001884bed64ce8b6ed40907bd4", "lat": 38.8838245, "lon": -77.01927983333333, "rental_uris": {"android": "https://dc.lft.to/lastmile_qr_scan", "ios": "https://dc.lft.to/lastmile_qr_scan"}, "is_disabled": 0, "fusion_lat": 0.0, "name": "0e240c001884bed64ce8b6ed40907bd4", "fusion_lon": 0.0}, {"is_reserved": 0, "type": "electric_scooter", "bike_id": "c4757bdeace8721bb347d2e2d8dd1b67", "lat": 38.909059, "lon": -76.99618033333333, "rental_uris": {"android": "https://dc.lft.to/lastmile_qr_scan", "ios": "https://dc.lft.to/lastmile_qr_scan"}, "is_disabled": 0, "fusion_lat": 0.0, "name": "c4757bdeace8721bb347d2e2d8dd1b67", "fusion_lon": 0.0}, {"is_reserved": 0, "type": "electric_scooter", "bike_id": "342b82cb35b6d280cd173ca85002cb05", "lat": 38.926336666666664, "lon": -77.04248633333333, "rental_uris": {"android": "https://dc.lft.to/lastmile_qr_scan", "ios": "https://dc.lft.to/lastmile_qr_scan"}, "is_disabled": 0, "fusion_lat": 0.0, "name": "342b82cb35b6d280cd173ca85002cb05", "fusion_lon": 0.0}, {"is_reserved": 0, "type": "electric_scooter", "bike_id": "e1063397adabbf32d3aee9b8a379ee91", "lat": 38.9057345, "lon": -77.04536183333333, "rental_uris": {"android": "https://dc.lft.to/lastmile_qr_scan", "ios": "https://dc.lft.to/lastmile_qr_scan"}, "is_disabled": 0, "fusion_lat": 0.0, "name": "e1063397adabbf32d3aee9b8a379ee91", "fusion_lon": 0.0}, {"is_reserved": 0, "type": "electric_scooter", "bike_id": "e77c348f8a4dc655e8a4d2b3b9cbd72f", "lat": 38.901595666666665, "lon": -77.03188616666667, "rental_uris": {"android": "https://dc.lft.to/lastmile_qr_scan", "ios": "https://dc.lft.to/lastmile_qr_scan"}, "is_disabled": 0, "fusion_lat": 0.0, "name": "e77c348f8a4dc655e8a4d2b3b9cbd72f", "fusion_lon": 0.0}, {"is_reserved": 0, "type": "electric_scooter", "bike_id": "90766b10861826f41050ba62cc9df5c0", "lat": 38.921054, "lon": -77.04692766666666, "rental_uris": {"android": "https://dc.lft.to/lastmile_qr_scan", "ios": "https://dc.lft.to/lastmile_qr_scan"}, "is_disabled": 0, "fusion_lat": 0.0, "name": "90766b10861826f41050ba62cc9df5c0", "fusion_lon": 0.0}, {"is_reserved": 0, "type": "electric_bike", "bike_id": "b69f287f3483dad05852f4a43aeafd3b", "lat": 38.839358, "lon": -77.07902516666667, "rental_uris": {"android": "https://dc.lft.to/lastmile_qr_scan", "ios": "https://dc.lft.to/lastmile_qr_scan"}, "is_disabled": 0, "fusion_lat": 0.0, "name": "b69f287f3483dad05852f4a43aeafd3b", "fusion_lon": 0.0}, {"is_reserved": 0, "type": "electric_scooter", "bike_id": "69f5f23ffa2a7cc3274dcafdc40ae5c0", "lat": 38.933956, "lon": -77.02388216666667, "rental_uris": {"android": "https://dc.lft.to/lastmile_qr_scan", "ios": "https://dc.lft.to/lastmile_qr_scan"}, "is_disabled": 0, "fusion_lat": 0.0, "name": "69f5f23ffa2a7cc3274dcafdc40ae5c0", "fusion_lon": 0.0}, {"is_reserved": 0, "type": "electric_scooter", "bike_id": "5be493d7bfa9444e9f6607d7ea0be22d", "lat": 38.89896866666667, "lon": -77.03969633333334, "rental_uris": {"android": "https://dc.lft.to/lastmile_qr_scan", "ios": "https://dc.lft.to/lastmile_qr_scan"}, "is_disabled": 0, "fusion_lat": 0.0, "name": "5be493d7bfa9444e9f6607d7ea0be22d", "fusion_lon": 0.0}, {"is_reserved": 0, "type": "electric_scooter", "bike_id": "6ac8a803b3ef40f2cea8b1f5f9f8367e", "lat": 38.9208595, "lon": -77.02294483333333, "rental_uris": {"android": "https://dc.lft.to/lastmile_qr_scan", "ios": "https://dc.lft.to/lastmile_qr_scan"}, "is_disabled": 0, "fusion_lat": 0.0, "name": "6ac8a803b3ef40f2cea8b1f5f9f8367e", "fusion_lon": 0.0}, {"is_reserved": 0, "type": "electric_bike", "bike_id": "bce4ade3790ac177a1fa8781b0e7c4b8", "lat": 38.94301733333333, "lon": -77.02744033333333, "rental_uris": {"android": "https://dc.lft.to/lastmile_qr_scan", "ios": "https://dc.lft.to/lastmile_qr_scan"}, "is_disabled": 0, "fusion_lat": 0.0, "name": "bce4ade3790ac177a1fa8781b0e7c4b8", "fusion_lon": 0.0}, {"is_reserved": 0, "type": "electric_scooter", "bike_id": "50e5ae54be3e8510e1f87af3e3f3d298", "lat": 38.92483, "lon": -77.03184033333334, "rental_uris": {"android": "https://dc.lft.to/lastmile_qr_scan", "ios": "https://dc.lft.to/lastmile_qr_scan"}, "is_disabled": 0, "fusion_lat": 0.0, "name": "50e5ae54be3e8510e1f87af3e3f3d298", "fusion_lon": 0.0}, {"is_reserved": 0, "type": "electric_scooter", "bike_id": "7e3be74cbf052540c4895689f9bde165", "lat": 38.90483316666667, "lon": -77.06858683333333, "rental_uris": {"android": "https://dc.lft.to/lastmile_qr_scan", "ios": "https://dc.lft.to/lastmile_qr_scan"}, "is_disabled": 0, "fusion_lat": 0.0, "name": "7e3be74cbf052540c4895689f9bde165", "fusion_lon": 0.0}, {"is_reserved": 0, "type": "electric_scooter", "bike_id": "4bb8e99d2d2ce10a9ed2e0cafe8cae89", "lat": 38.9260475, "lon": -77.02157816666667, "rental_uris": {"android": "https://dc.lft.to/lastmile_qr_scan", "ios": "https://dc.lft.to/lastmile_qr_scan"}, "is_disabled": 0, "fusion_lat": 0.0, "name": "4bb8e99d2d2ce10a9ed2e0cafe8cae89", "fusion_lon": 0.0}, {"is_reserved": 0, "type": "electric_scooter", "bike_id": "807bd9f82a27b6c15cd63c169b9fc12b", "lat": 38.905387166666664, "lon": -77.05708683333333, "rental_uris": {"android": "https://dc.lft.to/lastmile_qr_scan", "ios": "https://dc.lft.to/lastmile_qr_scan"}, "is_disabled": 0, "fusion_lat": 0.0, "name": "807bd9f82a27b6c15cd63c169b9fc12b", "fusion_lon": 0.0}, {"is_reserved": 0, "type": "electric_scooter", "bike_id": "ffee38208dce0242a67ac82f8479e262", "lat": 38.937558833333334, "lon": -77.02931816666667, "rental_uris": {"android": "https://dc.lft.to/lastmile_qr_scan", "ios": "https://dc.lft.to/lastmile_qr_scan"}, "is_disabled": 0, "fusion_lat": 0.0, "name": "ffee38208dce0242a67ac82f8479e262", "fusion_lon": 0.0}, {"is_reserved": 0, "type": "electric_scooter", "bike_id": "b042b468c94586e594c56537da7bcecb", "lat": 38.876824166666665, "lon": -76.9962425, "rental_uris": {"android": "https://dc.lft.to/lastmile_qr_scan", "ios": "https://dc.lft.to/lastmile_qr_scan"}, "is_disabled": 0, "fusion_lat": 0.0, "name": "b042b468c94586e594c56537da7bcecb", "fusion_lon": 0.0}, {"is_reserved": 0, "type": "electric_scooter", "bike_id": "bc24be0ff52030c8bcba825f4773be01", "lat": 38.914205, "lon": -77.0221255, "rental_uris": {"android": "https://dc.lft.to/lastmile_qr_scan", "ios": "https://dc.lft.to/lastmile_qr_scan"}, "is_disabled": 0, "fusion_lat": 0.0, "name": "bc24be0ff52030c8bcba825f4773be01", "fusion_lon": 0.0}, {"is_reserved": 0, "type": "electric_scooter", "bike_id": "fe11f7b88bb41999c6f3ebc006397d0b", "lat": 38.89608066666667, "lon": -77.022106, "rental_uris": {"android": "https://dc.lft.to/lastmile_qr_scan", "ios": "https://dc.lft.to/lastmile_qr_scan"}, "is_disabled": 0, "fusion_lat": 0.0, "name": "fe11f7b88bb41999c6f3ebc006397d0b", "fusion_lon": 0.0}, {"is_reserved": 0, "type": "electric_scooter", "bike_id": "29ebcc8c0e80883a5221fa6c387196ae", "lat": 38.933659, "lon": -77.02728966666666, "rental_uris": {"android": "https://dc.lft.to/lastmile_qr_scan", "ios": "https://dc.lft.to/lastmile_qr_scan"}, "is_disabled": 0, "fusion_lat": 0.0, "name": "29ebcc8c0e80883a5221fa6c387196ae", "fusion_lon": 0.0}, {"is_reserved": 0, "type": "electric_scooter", "bike_id": "99899e214e8e21d2eb4800f962f3f0ec", "lat": 38.932352333333334, "lon": -77.03851033333333, "rental_uris": {"android": "https://dc.lft.to/lastmile_qr_scan", "ios": "https://dc.lft.to/lastmile_qr_scan"}, "is_disabled": 0, "fusion_lat": 0.0, "name": "99899e214e8e21d2eb4800f962f3f0ec", "fusion_lon": 0.0}, {"is_reserved": 0, "type": "electric_bike", "bike_id": "3d790976c8bf6350da2f1aad77642cbc", "lat": 38.924461, "lon": -77.019186, "rental_uris": {"android": "https://dc.lft.to/lastmile_qr_scan", "ios": "https://dc.lft.to/lastmile_qr_scan"}, "is_disabled": 0, "fusion_lat": 0.0, "name": "3d790976c8bf6350da2f1aad77642cbc", "fusion_lon": 0.0}, {"is_reserved": 0, "type": "electric_bike", "bike_id": "88112fac8af2cc98cbf92692f3a66ae0", "lat": 38.820492333333334, "lon": -77.05364083333333, "rental_uris": {"android": "https://dc.lft.to/lastmile_qr_scan", "ios": "https://dc.lft.to/lastmile_qr_scan"}, "is_disabled": 0, "fusion_lat": 0.0, "name": "88112fac8af2cc98cbf92692f3a66ae0", "fusion_lon": 0.0}, {"is_reserved": 0, "type": "electric_scooter", "bike_id": "cf196e92a8bdfbeeee53975b2db39b37", "lat": 38.92390966666667, "lon": -77.029623, "rental_uris": {"android": "https://dc.lft.to/lastmile_qr_scan", "ios": "https://dc.lft.to/lastmile_qr_scan"}, "is_disabled": 0, "fusion_lat": 0.0, "name": "cf196e92a8bdfbeeee53975b2db39b37", "fusion_lon": 0.0}, {"is_reserved": 0, "type": "electric_scooter", "bike_id": "fc66c8f3859c4f828c6f0ef819f6fa17", "lat": 38.905697, "lon": -77.00586283333334, "rental_uris": {"android": "https://dc.lft.to/lastmile_qr_scan", "ios": "https://dc.lft.to/lastmile_qr_scan"}, "is_disabled": 0, "fusion_lat": 0.0, "name": "fc66c8f3859c4f828c6f0ef819f6fa17", "fusion_lon": 0.0}, {"is_reserved": 0, "type": "electric_scooter", "bike_id": "ea06dfbd0769c0729c4f861acc443309", "lat": 38.90138683333333, "lon": -76.997922, "rental_uris": {"android": "https://dc.lft.to/lastmile_qr_scan", "ios": "https://dc.lft.to/lastmile_qr_scan"}, "is_disabled": 0, "fusion_lat": 0.0, "name": "ea06dfbd0769c0729c4f861acc443309", "fusion_lon": 0.0}, {"is_reserved": 0, "type": "electric_scooter", "bike_id": "da0468d4929eb1665cae752fb5c71da1", "lat": 38.897357, "lon": -77.02992633333334, "rental_uris": {"android": "https://dc.lft.to/lastmile_qr_scan", "ios": "https://dc.lft.to/lastmile_qr_scan"}, "is_disabled": 0, "fusion_lat": 0.0, "name": "da0468d4929eb1665cae752fb5c71da1", "fusion_lon": 0.0}, {"is_reserved": 0, "type": "electric_bike", "bike_id": "1cd8c31d978c1af4f3e3aacb64529c04", "lat": 38.951355166666666, "lon": -76.96598183333333, "rental_uris": {"android": "https://dc.lft.to/lastmile_qr_scan", "ios": "https://dc.lft.to/lastmile_qr_scan"}, "is_disabled": 0, "fusion_lat": 0.0, "name": "1cd8c31d978c1af4f3e3aacb64529c04", "fusion_lon": 0.0}, {"is_reserved": 0, "type": "electric_scooter", "bike_id": "003fcba064bb28c5977b3f454ef2040d", "lat": 38.929712, "lon": -77.0234135, "rental_uris": {"android": "https://dc.lft.to/lastmile_qr_scan", "ios": "https://dc.lft.to/lastmile_qr_scan"}, "is_disabled": 0, "fusion_lat": 0.0, "name": "003fcba064bb28c5977b3f454ef2040d", "fusion_lon": 0.0}, {"is_reserved": 0, "type": "electric_scooter", "bike_id": "f1a4217cb0c41591f6c7c9d3f2a2c008", "lat": 38.89357316666667, "lon": -76.94108366666667, "rental_uris": {"android": "https://dc.lft.to/lastmile_qr_scan", "ios": "https://dc.lft.to/lastmile_qr_scan"}, "is_disabled": 0, "fusion_lat": 0.0, "name": "f1a4217cb0c41591f6c7c9d3f2a2c008", "fusion_lon": 0.0}, {"is_reserved": 0, "type": "electric_scooter", "bike_id": "220d3eced1a6811f4ac2a84e587fb770", "lat": 38.947327333333334, "lon": -77.024587, "rental_uris": {"android": "https://dc.lft.to/lastmile_qr_scan", "ios": "https://dc.lft.to/lastmile_qr_scan"}, "is_disabled": 0, "fusion_lat": 0.0, "name": "220d3eced1a6811f4ac2a84e587fb770", "fusion_lon": 0.0}, {"is_reserved": 0, "type": "electric_scooter", "bike_id": "c79a1779f052b8e765c3bd93fe1ff5bb", "lat": 38.9337355, "lon": -77.05726066666666, "rental_uris": {"android": "https://dc.lft.to/lastmile_qr_scan", "ios": "https://dc.lft.to/lastmile_qr_scan"}, "is_disabled": 0, "fusion_lat": 0.0, "name": "c79a1779f052b8e765c3bd93fe1ff5bb", "fusion_lon": 0.0}, {"is_reserved": 0, "type": "electric_scooter", "bike_id": "ab1a68558df590078ce042cda4c5262a", "lat": 38.92237083333333, "lon": -77.021273, "rental_uris": {"android": "https://dc.lft.to/lastmile_qr_scan", "ios": "https://dc.lft.to/lastmile_qr_scan"}, "is_disabled": 0, "fusion_lat": 0.0, "name": "ab1a68558df590078ce042cda4c5262a", "fusion_lon": 0.0}, {"is_reserved": 0, "type": "electric_scooter", "bike_id": "07bb7fc722955a78e3a433ceb8057f11", "lat": 38.8999015, "lon": -77.02284683333333, "rental_uris": {"android": "https://dc.lft.to/lastmile_qr_scan", "ios": "https://dc.lft.to/lastmile_qr_scan"}, "is_disabled": 0, "fusion_lat": 0.0, "name": "07bb7fc722955a78e3a433ceb8057f11", "fusion_lon": 0.0}, {"is_reserved": 0, "type": "electric_scooter", "bike_id": "b368e0ee42daee9b77e52d31d02d59f3", "lat": 38.91180133333334, "lon": -77.0049675, "rental_uris": {"android": "https://dc.lft.to/lastmile_qr_scan", "ios": "https://dc.lft.to/lastmile_qr_scan"}, "is_disabled": 0, "fusion_lat": 0.0, "name": "b368e0ee42daee9b77e52d31d02d59f3", "fusion_lon": 0.0}, {"is_reserved": 0, "type": "electric_scooter", "bike_id": "8109bae566daac4fbb40c61e0d6a596d", "lat": 38.925653833333335, "lon": -76.97009066666666, "rental_uris": {"android": "https://dc.lft.to/lastmile_qr_scan", "ios": "https://dc.lft.to/lastmile_qr_scan"}, "is_disabled": 0, "fusion_lat": 0.0, "name": "8109bae566daac4fbb40c61e0d6a596d", "fusion_lon": 0.0}, {"is_reserved": 0, "type": "electric_scooter", "bike_id": "850a964373983b4f45cfb8968576ccc4", "lat": 38.89220233333333, "lon": -77.02314533333333, "rental_uris": {"android": "https://dc.lft.to/lastmile_qr_scan", "ios": "https://dc.lft.to/lastmile_qr_scan"}, "is_disabled": 0, "fusion_lat": 0.0, "name": "850a964373983b4f45cfb8968576ccc4", "fusion_lon": 0.0}, {"is_reserved": 0, "type": "electric_scooter", "bike_id": "bfd0a4dbae4db438fac3dd132957ba82", "lat": 38.90042583333334, "lon": -76.991646, "rental_uris": {"android": "https://dc.lft.to/lastmile_qr_scan", "ios": "https://dc.lft.to/lastmile_qr_scan"}, "is_disabled": 0, "fusion_lat": 0.0, "name": "bfd0a4dbae4db438fac3dd132957ba82", "fusion_lon": 0.0}, {"is_reserved": 0, "type": "electric_scooter", "bike_id": "6063a4bf311945513b8efc93b820796d", "lat": 38.93092083333333, "lon": -77.0343835, "rental_uris": {"android": "https://dc.lft.to/lastmile_qr_scan", "ios": "https://dc.lft.to/lastmile_qr_scan"}, "is_disabled": 0, "fusion_lat": 0.0, "name": "6063a4bf311945513b8efc93b820796d", "fusion_lon": 0.0}, {"is_reserved": 0, "type": "electric_scooter", "bike_id": "767932689539bc9398eb5be9f96e05ec", "lat": 38.899441833333334, "lon": -77.031805, "rental_uris": {"android": "https://dc.lft.to/lastmile_qr_scan", "ios": "https://dc.lft.to/lastmile_qr_scan"}, "is_disabled": 0, "fusion_lat": 0.0, "name": "767932689539bc9398eb5be9f96e05ec", "fusion_lon": 0.0}, {"is_reserved": 0, "type": "electric_scooter", "bike_id": "9687337eef62b37f83a213c2a1fb3b5d", "lat": 38.9229715, "lon": -76.997752, "rental_uris": {"android": "https://dc.lft.to/lastmile_qr_scan", "ios": "https://dc.lft.to/lastmile_qr_scan"}, "is_disabled": 0, "fusion_lat": 0.0, "name": "9687337eef62b37f83a213c2a1fb3b5d", "fusion_lon": 0.0}, {"is_reserved": 0, "type": "electric_scooter", "bike_id": "a4a37057f9aa22d30f25f05f5a0019be", "lat": 38.89227833333333, "lon": -77.04488466666666, "rental_uris": {"android": "https://dc.lft.to/lastmile_qr_scan", "ios": "https://dc.lft.to/lastmile_qr_scan"}, "is_disabled": 0, "fusion_lat": 0.0, "name": "a4a37057f9aa22d30f25f05f5a0019be", "fusion_lon": 0.0}, {"is_reserved": 0, "type": "electric_scooter", "bike_id": "c9cf7b47c01cea2f5e68adea91be9dd7", "lat": 38.90251766666667, "lon": -77.02819366666667, "rental_uris": {"android": "https://dc.lft.to/lastmile_qr_scan", "ios": "https://dc.lft.to/lastmile_qr_scan"}, "is_disabled": 0, "fusion_lat": 0.0, "name": "c9cf7b47c01cea2f5e68adea91be9dd7", "fusion_lon": 0.0}, {"is_reserved": 0, "type": "electric_scooter", "bike_id": "24471d8634caac8ed35d3cb83ec49fa8", "lat": 38.93371416666667, "lon": -77.03467, "rental_uris": {"android": "https://dc.lft.to/lastmile_qr_scan", "ios": "https://dc.lft.to/lastmile_qr_scan"}, "is_disabled": 0, "fusion_lat": 0.0, "name": "24471d8634caac8ed35d3cb83ec49fa8", "fusion_lon": 0.0}, {"is_reserved": 0, "type": "electric_scooter", "bike_id": "91e8511b945ea640263237733511b23f", "lat": 38.897233166666666, "lon": -77.03245533333333, "rental_uris": {"android": "https://dc.lft.to/lastmile_qr_scan", "ios": "https://dc.lft.to/lastmile_qr_scan"}, "is_disabled": 0, "fusion_lat": 0.0, "name": "91e8511b945ea640263237733511b23f", "fusion_lon": 0.0}, {"is_reserved": 0, "type": "electric_bike", "bike_id": "80222987aaf2fb455dc4b41ef92c7608", "lat": 38.945134833333334, "lon": -77.00673966666666, "rental_uris": {"android": "https://dc.lft.to/lastmile_qr_scan", "ios": "https://dc.lft.to/lastmile_qr_scan"}, "is_disabled": 0, "fusion_lat": 0.0, "name": "80222987aaf2fb455dc4b41ef92c7608", "fusion_lon": 0.0}, {"is_reserved": 0, "type": "electric_bike", "bike_id": "7082a09e7fd87e8c0744440ccf98e794", "lat": 38.87731316666667, "lon": -77.11849616666667, "rental_uris": {"android": "https://dc.lft.to/lastmile_qr_scan", "ios": "https://dc.lft.to/lastmile_qr_scan"}, "is_disabled": 0, "fusion_lat": 0.0, "name": "7082a09e7fd87e8c0744440ccf98e794", "fusion_lon": 0.0}, {"is_reserved": 0, "type": "electric_scooter", "bike_id": "9be3fe5396682bf236de24dbba1adf7c", "lat": 38.9241385, "lon": -77.02003733333333, "rental_uris": {"android": "https://dc.lft.to/lastmile_qr_scan", "ios": "https://dc.lft.to/lastmile_qr_scan"}, "is_disabled": 0, "fusion_lat": 0.0, "name": "9be3fe5396682bf236de24dbba1adf7c", "fusion_lon": 0.0}, {"is_reserved": 0, "type": "electric_scooter", "bike_id": "4fc2e96476e0b831c3066af1c6799208", "lat": 38.898887, "lon": -76.993597, "rental_uris": {"android": "https://dc.lft.to/lastmile_qr_scan", "ios": "https://dc.lft.to/lastmile_qr_scan"}, "is_disabled": 0, "fusion_lat": 0.0, "name": "4fc2e96476e0b831c3066af1c6799208", "fusion_lon": 0.0}, {"is_reserved": 0, "type": "electric_scooter", "bike_id": "aee11c84370d8f875562cd18fe274588", "lat": 38.883850833333334, "lon": -77.02990516666667, "rental_uris": {"android": "https://dc.lft.to/lastmile_qr_scan", "ios": "https://dc.lft.to/lastmile_qr_scan"}, "is_disabled": 0, "fusion_lat": 0.0, "name": "aee11c84370d8f875562cd18fe274588", "fusion_lon": 0.0}, {"is_reserved": 0, "type": "electric_scooter", "bike_id": "18d1811cc305dc8140eedac05e4cc60e", "lat": 38.93402183333333, "lon": -77.02844733333333, "rental_uris": {"android": "https://dc.lft.to/lastmile_qr_scan", "ios": "https://dc.lft.to/lastmile_qr_scan"}, "is_disabled": 0, "fusion_lat": 0.0, "name": "18d1811cc305dc8140eedac05e4cc60e", "fusion_lon": 0.0}, {"is_reserved": 0, "type": "electric_scooter", "bike_id": "417b182a2c03dfd18936602625f363a4", "lat": 38.952901, "lon": -77.0688065, "rental_uris": {"android": "https://dc.lft.to/lastmile_qr_scan", "ios": "https://dc.lft.to/lastmile_qr_scan"}, "is_disabled": 0, "fusion_lat": 0.0, "name": "417b182a2c03dfd18936602625f363a4", "fusion_lon": 0.0}, {"is_reserved": 0, "type": "electric_scooter", "bike_id": "1964b7603f3567f336dcbd61d2026a8b", "lat": 38.91419716666667, "lon": -77.02115783333333, "rental_uris": {"android": "https://dc.lft.to/lastmile_qr_scan", "ios": "https://dc.lft.to/lastmile_qr_scan"}, "is_disabled": 0, "fusion_lat": 0.0, "name": "1964b7603f3567f336dcbd61d2026a8b", "fusion_lon": 0.0}, {"is_reserved": 0, "type": "electric_scooter", "bike_id": "51f5129c4f42ff4023b0201e7e0590eb", "lat": 38.924531333333334, "lon": -77.00849283333334, "rental_uris": {"android": "https://dc.lft.to/lastmile_qr_scan", "ios": "https://dc.lft.to/lastmile_qr_scan"}, "is_disabled": 0, "fusion_lat": 0.0, "name": "51f5129c4f42ff4023b0201e7e0590eb", "fusion_lon": 0.0}, {"is_reserved": 0, "type": "electric_scooter", "bike_id": "0dee637252263b4b6df835ec3ab6caee", "lat": 38.919635, "lon": -77.0271755, "rental_uris": {"android": "https://dc.lft.to/lastmile_qr_scan", "ios": "https://dc.lft.to/lastmile_qr_scan"}, "is_disabled": 0, "fusion_lat": 0.0, "name": "0dee637252263b4b6df835ec3ab6caee", "fusion_lon": 0.0}, {"is_reserved": 0, "type": "electric_scooter", "bike_id": "09ee9266e0621e1f4bfa4b77fd8932af", "lat": 38.90594683333333, "lon": -77.06416533333334, "rental_uris": {"android": "https://dc.lft.to/lastmile_qr_scan", "ios": "https://dc.lft.to/lastmile_qr_scan"}, "is_disabled": 0, "fusion_lat": 0.0, "name": "09ee9266e0621e1f4bfa4b77fd8932af", "fusion_lon": 0.0}, {"is_reserved": 0, "type": "electric_scooter", "bike_id": "0e78afcabee86057f9dcb54770895f7f", "lat": 38.893931333333335, "lon": -77.02963383333334, "rental_uris": {"android": "https://dc.lft.to/lastmile_qr_scan", "ios": "https://dc.lft.to/lastmile_qr_scan"}, "is_disabled": 0, "fusion_lat": 0.0, "name": "0e78afcabee86057f9dcb54770895f7f", "fusion_lon": 0.0}, {"is_reserved": 0, "type": "electric_scooter", "bike_id": "d7e9d77cda33ae66a89e154ba2443fd9", "lat": 38.90840383333333, "lon": -77.00276416666667, "rental_uris": {"android": "https://dc.lft.to/lastmile_qr_scan", "ios": "https://dc.lft.to/lastmile_qr_scan"}, "is_disabled": 0, "fusion_lat": 0.0, "name": "d7e9d77cda33ae66a89e154ba2443fd9", "fusion_lon": 0.0}, {"is_reserved": 0, "type": "electric_scooter", "bike_id": "76e2593a25416302362624f5fee44497", "lat": 38.89344533333333, "lon": -77.02826416666667, "rental_uris": {"android": "https://dc.lft.to/lastmile_qr_scan", "ios": "https://dc.lft.to/lastmile_qr_scan"}, "is_disabled": 0, "fusion_lat": 0.0, "name": "76e2593a25416302362624f5fee44497", "fusion_lon": 0.0}, {"is_reserved": 0, "type": "electric_scooter", "bike_id": "1c2f6c2e35fdc3fc5ee4a2a13d9484ec", "lat": 38.920962333333335, "lon": -77.07175316666667, "rental_uris": {"android": "https://dc.lft.to/lastmile_qr_scan", "ios": "https://dc.lft.to/lastmile_qr_scan"}, "is_disabled": 0, "fusion_lat": 0.0, "name": "1c2f6c2e35fdc3fc5ee4a2a13d9484ec", "fusion_lon": 0.0}, {"is_reserved": 0, "type": "electric_scooter", "bike_id": "d6b31615278723411946424964fd5b0d", "lat": 38.8776075, "lon": -76.99534083333333, "rental_uris": {"android": "https://dc.lft.to/lastmile_qr_scan", "ios": "https://dc.lft.to/lastmile_qr_scan"}, "is_disabled": 0, "fusion_lat": 0.0, "name": "d6b31615278723411946424964fd5b0d", "fusion_lon": 0.0}, {"is_reserved": 0, "type": "electric_scooter", "bike_id": "19c0e5f675021489804fa463e8d4f85f", "lat": 38.916037833333334, "lon": -77.00275233333333, "rental_uris": {"android": "https://dc.lft.to/lastmile_qr_scan", "ios": "https://dc.lft.to/lastmile_qr_scan"}, "is_disabled": 0, "fusion_lat": 0.0, "name": "19c0e5f675021489804fa463e8d4f85f", "fusion_lon": 0.0}, {"is_reserved": 0, "type": "electric_bike", "bike_id": "7b16c21a3a1bc96fa01e59ab7d738a80", "lat": 38.986763833333335, "lon": -77.10070783333333, "rental_uris": {"android": "https://dc.lft.to/lastmile_qr_scan", "ios": "https://dc.lft.to/lastmile_qr_scan"}, "is_disabled": 0, "fusion_lat": 0.0, "name": "7b16c21a3a1bc96fa01e59ab7d738a80", "fusion_lon": 0.0}, {"is_reserved": 0, "type": "electric_scooter", "bike_id": "c0b2e650ba7a3551223c92657db100c0", "lat": 38.91190516666666, "lon": -77.00444766666666, "rental_uris": {"android": "https://dc.lft.to/lastmile_qr_scan", "ios": "https://dc.lft.to/lastmile_qr_scan"}, "is_disabled": 0, "fusion_lat": 0.0, "name": "c0b2e650ba7a3551223c92657db100c0", "fusion_lon": 0.0}, {"is_reserved": 0, "type": "electric_bike", "bike_id": "855b29860e6edfdbc453aa7494e56eeb", "lat": 38.94917216666666, "lon": -77.00796083333333, "rental_uris": {"android": "https://dc.lft.to/lastmile_qr_scan", "ios": "https://dc.lft.to/lastmile_qr_scan"}, "is_disabled": 0, "fusion_lat": 0.0, "name": "855b29860e6edfdbc453aa7494e56eeb", "fusion_lon": 0.0}, {"is_reserved": 0, "type": "electric_scooter", "bike_id": "d6a6d24dbea3e742e5e264b301711403", "lat": 38.899806, "lon": -77.02721783333334, "rental_uris": {"android": "https://dc.lft.to/lastmile_qr_scan", "ios": "https://dc.lft.to/lastmile_qr_scan"}, "is_disabled": 0, "fusion_lat": 0.0, "name": "d6a6d24dbea3e742e5e264b301711403", "fusion_lon": 0.0}, {"is_reserved": 0, "type": "electric_bike", "bike_id": "d11336516cd7d12f7793b844bafd0e5f", "lat": 38.894545, "lon": -77.019998, "rental_uris": {"android": "https://dc.lft.to/lastmile_qr_scan", "ios": "https://dc.lft.to/lastmile_qr_scan"}, "is_disabled": 0, "fusion_lat": 0.0, "name": "d11336516cd7d12f7793b844bafd0e5f", "fusion_lon": 0.0}, {"is_reserved": 0, "type": "electric_bike", "bike_id": "f1f7325d2d9396cf8f635ccd6c4c1b09", "lat": 38.995232666666666, "lon": -77.074763, "rental_uris": {"android": "https://dc.lft.to/lastmile_qr_scan", "ios": "https://dc.lft.to/lastmile_qr_scan"}, "is_disabled": 0, "fusion_lat": 0.0, "name": "f1f7325d2d9396cf8f635ccd6c4c1b09", "fusion_lon": 0.0}, {"is_reserved": 0, "type": "electric_scooter", "bike_id": "785bae805660129d2d4bdfe06f20ce89", "lat": 38.9163215, "lon": -77.015728, "rental_uris": {"android": "https://dc.lft.to/lastmile_qr_scan", "ios": "https://dc.lft.to/lastmile_qr_scan"}, "is_disabled": 0, "fusion_lat": 0.0, "name": "785bae805660129d2d4bdfe06f20ce89", "fusion_lon": 0.0}, {"is_reserved": 0, "type": "electric_scooter", "bike_id": "96334a89403eef776e6312593a1b8097", "lat": 38.951873166666665, "lon": -77.02610566666667, "rental_uris": {"android": "https://dc.lft.to/lastmile_qr_scan", "ios": "https://dc.lft.to/lastmile_qr_scan"}, "is_disabled": 0, "fusion_lat": 0.0, "name": "96334a89403eef776e6312593a1b8097", "fusion_lon": 0.0}, {"is_reserved": 0, "type": "electric_scooter", "bike_id": "c240fce88c309bfec7959ab817761739", "lat": 38.905586666666665, "lon": -77.00588066666667, "rental_uris": {"android": "https://dc.lft.to/lastmile_qr_scan", "ios": "https://dc.lft.to/lastmile_qr_scan"}, "is_disabled": 0, "fusion_lat": 0.0, "name": "c240fce88c309bfec7959ab817761739", "fusion_lon": 0.0}, {"is_reserved": 0, "type": "electric_scooter", "bike_id": "3338c5fd25d6ed4cf27eda3af3194d1b", "lat": 38.92606833333333, "lon": -77.03939966666667, "rental_uris": {"android": "https://dc.lft.to/lastmile_qr_scan", "ios": "https://dc.lft.to/lastmile_qr_scan"}, "is_disabled": 0, "fusion_lat": 0.0, "name": "3338c5fd25d6ed4cf27eda3af3194d1b", "fusion_lon": 0.0}, {"is_reserved": 0, "type": "electric_scooter", "bike_id": "1bfca1b44bd463ad9c307698c3f58ed5", "lat": 38.952679833333335, "lon": -77.02395966666667, "rental_uris": {"android": "https://dc.lft.to/lastmile_qr_scan", "ios": "https://dc.lft.to/lastmile_qr_scan"}, "is_disabled": 0, "fusion_lat": 0.0, "name": "1bfca1b44bd463ad9c307698c3f58ed5", "fusion_lon": 0.0}, {"is_reserved": 0, "type": "electric_scooter", "bike_id": "8b7d84b9968e2634c8abe289548e863d", "lat": 38.92397533333333, "lon": -77.050589, "rental_uris": {"android": "https://dc.lft.to/lastmile_qr_scan", "ios": "https://dc.lft.to/lastmile_qr_scan"}, "is_disabled": 0, "fusion_lat": 0.0, "name": "8b7d84b9968e2634c8abe289548e863d", "fusion_lon": 0.0}, {"is_reserved": 0, "type": "electric_scooter", "bike_id": "4934d4ad712820513f129fe2adcaddec", "lat": 38.9178205, "lon": -77.02468716666667, "rental_uris": {"android": "https://dc.lft.to/lastmile_qr_scan", "ios": "https://dc.lft.to/lastmile_qr_scan"}, "is_disabled": 0, "fusion_lat": 0.0, "name": "4934d4ad712820513f129fe2adcaddec", "fusion_lon": 0.0}, {"is_reserved": 0, "type": "electric_scooter", "bike_id": "44afac4e8cd55c03019baf4a6d5c3358", "lat": 38.9267695, "lon": -77.00730616666667, "rental_uris": {"android": "https://dc.lft.to/lastmile_qr_scan", "ios": "https://dc.lft.to/lastmile_qr_scan"}, "is_disabled": 0, "fusion_lat": 0.0, "name": "44afac4e8cd55c03019baf4a6d5c3358", "fusion_lon": 0.0}, {"is_reserved": 0, "type": "electric_scooter", "bike_id": "b9a3a30b06b61691c70035f628537051", "lat": 38.89542933333333, "lon": -76.98336, "rental_uris": {"android": "https://dc.lft.to/lastmile_qr_scan", "ios": "https://dc.lft.to/lastmile_qr_scan"}, "is_disabled": 0, "fusion_lat": 0.0, "name": "b9a3a30b06b61691c70035f628537051", "fusion_lon": 0.0}, {"is_reserved": 0, "type": "electric_scooter", "bike_id": "667931ba9610a65b66a310d021314108", "lat": 38.928746833333335, "lon": -77.0321425, "rental_uris": {"android": "https://dc.lft.to/lastmile_qr_scan", "ios": "https://dc.lft.to/lastmile_qr_scan"}, "is_disabled": 0, "fusion_lat": 0.0, "name": "667931ba9610a65b66a310d021314108", "fusion_lon": 0.0}, {"is_reserved": 0, "type": "electric_scooter", "bike_id": "e17e47ba8614377edd98b092f37bf145", "lat": 38.91563933333333, "lon": -77.037177, "rental_uris": {"android": "https://dc.lft.to/lastmile_qr_scan", "ios": "https://dc.lft.to/lastmile_qr_scan"}, "is_disabled": 0, "fusion_lat": 0.0, "name": "e17e47ba8614377edd98b092f37bf145", "fusion_lon": 0.0}, {"is_reserved": 0, "type": "electric_scooter", "bike_id": "a5f2c0036338132577c4da25bd250fe3", "lat": 38.905988, "lon": -77.0066005, "rental_uris": {"android": "https://dc.lft.to/lastmile_qr_scan", "ios": "https://dc.lft.to/lastmile_qr_scan"}, "is_disabled": 0, "fusion_lat": 0.0, "name": "a5f2c0036338132577c4da25bd250fe3", "fusion_lon": 0.0}, {"is_reserved": 0, "type": "electric_scooter", "bike_id": "46031fe21029b4e3a18587b9346d2859", "lat": 38.940118, "lon": -77.01903416666667, "rental_uris": {"android": "https://dc.lft.to/lastmile_qr_scan", "ios": "https://dc.lft.to/lastmile_qr_scan"}, "is_disabled": 0, "fusion_lat": 0.0, "name": "46031fe21029b4e3a18587b9346d2859", "fusion_lon": 0.0}, {"is_reserved": 0, "type": "electric_scooter", "bike_id": "4cbc56f050b3145d17d69ba9465ae166", "lat": 38.926987833333335, "lon": -77.0206945, "rental_uris": {"android": "https://dc.lft.to/lastmile_qr_scan", "ios": "https://dc.lft.to/lastmile_qr_scan"}, "is_disabled": 0, "fusion_lat": 0.0, "name": "4cbc56f050b3145d17d69ba9465ae166", "fusion_lon": 0.0}, {"is_reserved": 0, "type": "electric_scooter", "bike_id": "4d84f2f36fd164aeb83696c30359db41", "lat": 38.921671, "lon": -77.0336025, "rental_uris": {"android": "https://dc.lft.to/lastmile_qr_scan", "ios": "https://dc.lft.to/lastmile_qr_scan"}, "is_disabled": 0, "fusion_lat": 0.0, "name": "4d84f2f36fd164aeb83696c30359db41", "fusion_lon": 0.0}, {"is_reserved": 0, "type": "electric_scooter", "bike_id": "0b42451fa90ec94dd7c43969f9d276c6", "lat": 38.93142266666667, "lon": -77.03833016666667, "rental_uris": {"android": "https://dc.lft.to/lastmile_qr_scan", "ios": "https://dc.lft.to/lastmile_qr_scan"}, "is_disabled": 0, "fusion_lat": 0.0, "name": "0b42451fa90ec94dd7c43969f9d276c6", "fusion_lon": 0.0}, {"is_reserved": 0, "type": "electric_scooter", "bike_id": "7b7fdfc41eb92a15b82cdbc8b59e7e9e", "lat": 38.908648166666666, "lon": -77.04651733333333, "rental_uris": {"android": "https://dc.lft.to/lastmile_qr_scan", "ios": "https://dc.lft.to/lastmile_qr_scan"}, "is_disabled": 0, "fusion_lat": 0.0, "name": "7b7fdfc41eb92a15b82cdbc8b59e7e9e", "fusion_lon": 0.0}, {"is_reserved": 0, "type": "electric_scooter", "bike_id": "f6127d819e8351c21cd0b17a2fab52cf", "lat": 38.92246733333333, "lon": -77.035187, "rental_uris": {"android": "https://dc.lft.to/lastmile_qr_scan", "ios": "https://dc.lft.to/lastmile_qr_scan"}, "is_disabled": 0, "fusion_lat": 0.0, "name": "f6127d819e8351c21cd0b17a2fab52cf", "fusion_lon": 0.0}, {"is_reserved": 0, "type": "electric_scooter", "bike_id": "ba3ccc13d075f9a7717562363922f3c7", "lat": 38.911159833333336, "lon": -77.04384283333333, "rental_uris": {"android": "https://dc.lft.to/lastmile_qr_scan", "ios": "https://dc.lft.to/lastmile_qr_scan"}, "is_disabled": 0, "fusion_lat": 0.0, "name": "ba3ccc13d075f9a7717562363922f3c7", "fusion_lon": 0.0}, {"is_reserved": 0, "type": "electric_scooter", "bike_id": "83f665f3f4fd8d82c757693337b78b91", "lat": 38.9079315, "lon": -77.047978, "rental_uris": {"android": "https://dc.lft.to/lastmile_qr_scan", "ios": "https://dc.lft.to/lastmile_qr_scan"}, "is_disabled": 0, "fusion_lat": 0.0, "name": "83f665f3f4fd8d82c757693337b78b91", "fusion_lon": 0.0}, {"is_reserved": 0, "type": "electric_scooter", "bike_id": "25eac941406d1bddc95d1b9261e082ae", "lat": 38.90548316666667, "lon": -77.05919383333334, "rental_uris": {"android": "https://dc.lft.to/lastmile_qr_scan", "ios": "https://dc.lft.to/lastmile_qr_scan"}, "is_disabled": 0, "fusion_lat": 0.0, "name": "25eac941406d1bddc95d1b9261e082ae", "fusion_lon": 0.0}, {"is_reserved": 0, "type": "electric_scooter", "bike_id": "792191ab44de0bec9fbda2b2568ee435", "lat": 38.8928135, "lon": -77.03226716666667, "rental_uris": {"android": "https://dc.lft.to/lastmile_qr_scan", "ios": "https://dc.lft.to/lastmile_qr_scan"}, "is_disabled": 0, "fusion_lat": 0.0, "name": "792191ab44de0bec9fbda2b2568ee435", "fusion_lon": 0.0}, {"is_reserved": 0, "type": "electric_scooter", "bike_id": "50662fabe8b9e9a8509ac31fc4c34d0d", "lat": 38.9053985, "lon": -77.05814966666667, "rental_uris": {"android": "https://dc.lft.to/lastmile_qr_scan", "ios": "https://dc.lft.to/lastmile_qr_scan"}, "is_disabled": 0, "fusion_lat": 0.0, "name": "50662fabe8b9e9a8509ac31fc4c34d0d", "fusion_lon": 0.0}, {"is_reserved": 0, "type": "electric_scooter", "bike_id": "4ea943996fc91d2d393666befbf039b4", "lat": 38.924363166666666, "lon": -77.0202205, "rental_uris": {"android": "https://dc.lft.to/lastmile_qr_scan", "ios": "https://dc.lft.to/lastmile_qr_scan"}, "is_disabled": 0, "fusion_lat": 0.0, "name": "4ea943996fc91d2d393666befbf039b4", "fusion_lon": 0.0}, {"is_reserved": 0, "type": "electric_scooter", "bike_id": "52ecc9f7807fc2ddc3cff606bc355514", "lat": 38.92415616666667, "lon": -77.02006533333333, "rental_uris": {"android": "https://dc.lft.to/lastmile_qr_scan", "ios": "https://dc.lft.to/lastmile_qr_scan"}, "is_disabled": 0, "fusion_lat": 0.0, "name": "52ecc9f7807fc2ddc3cff606bc355514", "fusion_lon": 0.0}, {"is_reserved": 0, "type": "electric_scooter", "bike_id": "c3972394b70cb5f6f59de1e5e1f1e4d0", "lat": 38.92249283333334, "lon": -77.04249083333333, "rental_uris": {"android": "https://dc.lft.to/lastmile_qr_scan", "ios": "https://dc.lft.to/lastmile_qr_scan"}, "is_disabled": 0, "fusion_lat": 0.0, "name": "c3972394b70cb5f6f59de1e5e1f1e4d0", "fusion_lon": 0.0}, {"is_reserved": 0, "type": "electric_scooter", "bike_id": "9308663a2a217df9817c283f809558a3", "lat": 38.936326333333334, "lon": -77.083264, "rental_uris": {"android": "https://dc.lft.to/lastmile_qr_scan", "ios": "https://dc.lft.to/lastmile_qr_scan"}, "is_disabled": 0, "fusion_lat": 0.0, "name": "9308663a2a217df9817c283f809558a3", "fusion_lon": 0.0}, {"is_reserved": 0, "type": "electric_scooter", "bike_id": "71dcbe0b57d1922737d6212f2df3dea3", "lat": 38.91817666666667, "lon": -77.04526433333334, "rental_uris": {"android": "https://dc.lft.to/lastmile_qr_scan", "ios": "https://dc.lft.to/lastmile_qr_scan"}, "is_disabled": 0, "fusion_lat": 0.0, "name": "71dcbe0b57d1922737d6212f2df3dea3", "fusion_lon": 0.0}, {"is_reserved": 0, "type": "electric_scooter", "bike_id": "a68c05221928ad26720c90473dcd532d", "lat": 38.905378666666664, "lon": -76.9882785, "rental_uris": {"android": "https://dc.lft.to/lastmile_qr_scan", "ios": "https://dc.lft.to/lastmile_qr_scan"}, "is_disabled": 0, "fusion_lat": 0.0, "name": "a68c05221928ad26720c90473dcd532d", "fusion_lon": 0.0}, {"is_reserved": 0, "type": "electric_scooter", "bike_id": "b0f26466f4ce7e4acce1aebe6ffff358", "lat": 38.91480133333334, "lon": -77.02178866666667, "rental_uris": {"android": "https://dc.lft.to/lastmile_qr_scan", "ios": "https://dc.lft.to/lastmile_qr_scan"}, "is_disabled": 0, "fusion_lat": 0.0, "name": "b0f26466f4ce7e4acce1aebe6ffff358", "fusion_lon": 0.0}, {"is_reserved": 0, "type": "electric_scooter", "bike_id": "208cec2308a9fa6ced4f652ccd0100bc", "lat": 38.8997885, "lon": -77.02592333333334, "rental_uris": {"android": "https://dc.lft.to/lastmile_qr_scan", "ios": "https://dc.lft.to/lastmile_qr_scan"}, "is_disabled": 0, "fusion_lat": 0.0, "name": "208cec2308a9fa6ced4f652ccd0100bc", "fusion_lon": 0.0}, {"is_reserved": 0, "type": "electric_bike", "bike_id": "999c433b4bd4d543979b74d58e2198a1", "lat": 38.9166705, "lon": -77.04702083333333, "rental_uris": {"android": "https://dc.lft.to/lastmile_qr_scan", "ios": "https://dc.lft.to/lastmile_qr_scan"}, "is_disabled": 0, "fusion_lat": 0.0, "name": "999c433b4bd4d543979b74d58e2198a1", "fusion_lon": 0.0}, {"is_reserved": 0, "type": "electric_scooter", "bike_id": "c16b1f122261b55830351a175b2dbb39", "lat": 38.922481, "lon": -77.02727733333333, "rental_uris": {"android": "https://dc.lft.to/lastmile_qr_scan", "ios": "https://dc.lft.to/lastmile_qr_scan"}, "is_disabled": 0, "fusion_lat": 0.0, "name": "c16b1f122261b55830351a175b2dbb39", "fusion_lon": 0.0}, {"is_reserved": 0, "type": "electric_bike", "bike_id": "dff03b0377df8c95e88f95f9eb030f7b", "lat": 38.9098245, "lon": -76.985184, "rental_uris": {"android": "https://dc.lft.to/lastmile_qr_scan", "ios": "https://dc.lft.to/lastmile_qr_scan"}, "is_disabled": 0, "fusion_lat": 0.0, "name": "dff03b0377df8c95e88f95f9eb030f7b", "fusion_lon": 0.0}, {"is_reserved": 0, "type": "electric_scooter", "bike_id": "00ab9ba8fb7c565194a9a3a561fd6220", "lat": 38.915085166666664, "lon": -77.00343933333333, "rental_uris": {"android": "https://dc.lft.to/lastmile_qr_scan", "ios": "https://dc.lft.to/lastmile_qr_scan"}, "is_disabled": 0, "fusion_lat": 0.0, "name": "00ab9ba8fb7c565194a9a3a561fd6220", "fusion_lon": 0.0}, {"is_reserved": 0, "type": "electric_scooter", "bike_id": "6e73297a61cc33dcaaa5fa8f2d6a75c6", "lat": 38.92092366666667, "lon": -77.02210516666666, "rental_uris": {"android": "https://dc.lft.to/lastmile_qr_scan", "ios": "https://dc.lft.to/lastmile_qr_scan"}, "is_disabled": 0, "fusion_lat": 0.0, "name": "6e73297a61cc33dcaaa5fa8f2d6a75c6", "fusion_lon": 0.0}, {"is_reserved": 0, "type": "electric_scooter", "bike_id": "1a28f92ece913a69d1e933f58b932153", "lat": 38.895966333333334, "lon": -76.9297975, "rental_uris": {"android": "https://dc.lft.to/lastmile_qr_scan", "ios": "https://dc.lft.to/lastmile_qr_scan"}, "is_disabled": 0, "fusion_lat": 0.0, "name": "1a28f92ece913a69d1e933f58b932153", "fusion_lon": 0.0}, {"is_reserved": 0, "type": "electric_scooter", "bike_id": "0292c7177a7b5a064be0bf37bd692853", "lat": 38.90375066666667, "lon": -77.03998466666667, "rental_uris": {"android": "https://dc.lft.to/lastmile_qr_scan", "ios": "https://dc.lft.to/lastmile_qr_scan"}, "is_disabled": 0, "fusion_lat": 0.0, "name": "0292c7177a7b5a064be0bf37bd692853", "fusion_lon": 0.0}, {"is_reserved": 0, "type": "electric_scooter", "bike_id": "ad57b1fef586c24fd2f6446fb8f83a90", "lat": 38.930202, "lon": -77.0378655, "rental_uris": {"android": "https://dc.lft.to/lastmile_qr_scan", "ios": "https://dc.lft.to/lastmile_qr_scan"}, "is_disabled": 0, "fusion_lat": 0.0, "name": "ad57b1fef586c24fd2f6446fb8f83a90", "fusion_lon": 0.0}, {"is_reserved": 0, "type": "electric_scooter", "bike_id": "657e85ea7eefe5ae4043a8e66ff22977", "lat": 38.93060216666667, "lon": -77.042197, "rental_uris": {"android": "https://dc.lft.to/lastmile_qr_scan", "ios": "https://dc.lft.to/lastmile_qr_scan"}, "is_disabled": 0, "fusion_lat": 0.0, "name": "657e85ea7eefe5ae4043a8e66ff22977", "fusion_lon": 0.0}, {"is_reserved": 0, "type": "electric_scooter", "bike_id": "a2a169a8f23cc94778960b03e1d27104", "lat": 38.926443666666664, "lon": -77.0214305, "rental_uris": {"android": "https://dc.lft.to/lastmile_qr_scan", "ios": "https://dc.lft.to/lastmile_qr_scan"}, "is_disabled": 0, "fusion_lat": 0.0, "name": "a2a169a8f23cc94778960b03e1d27104", "fusion_lon": 0.0}, {"is_reserved": 0, "type": "electric_scooter", "bike_id": "8608d36712378c168b98ce9f562261eb", "lat": 38.90563916666667, "lon": -77.0346495, "rental_uris": {"android": "https://dc.lft.to/lastmile_qr_scan", "ios": "https://dc.lft.to/lastmile_qr_scan"}, "is_disabled": 0, "fusion_lat": 0.0, "name": "8608d36712378c168b98ce9f562261eb", "fusion_lon": 0.0}, {"is_reserved": 0, "type": "electric_scooter", "bike_id": "9c679a9950c5450fa1b7cbb31c714c1a", "lat": 38.92746116666667, "lon": -77.06957416666667, "rental_uris": {"android": "https://dc.lft.to/lastmile_qr_scan", "ios": "https://dc.lft.to/lastmile_qr_scan"}, "is_disabled": 0, "fusion_lat": 0.0, "name": "9c679a9950c5450fa1b7cbb31c714c1a", "fusion_lon": 0.0}, {"is_reserved": 0, "type": "electric_scooter", "bike_id": "73935a72e2697b939ec774017b745f78", "lat": 38.92193816666666, "lon": -77.01831983333334, "rental_uris": {"android": "https://dc.lft.to/lastmile_qr_scan", "ios": "https://dc.lft.to/lastmile_qr_scan"}, "is_disabled": 0, "fusion_lat": 0.0, "name": "73935a72e2697b939ec774017b745f78", "fusion_lon": 0.0}, {"is_reserved": 0, "type": "electric_scooter", "bike_id": "507d73454e766d3a84720074252417cf", "lat": 38.87848133333333, "lon": -76.99944183333334, "rental_uris": {"android": "https://dc.lft.to/lastmile_qr_scan", "ios": "https://dc.lft.to/lastmile_qr_scan"}, "is_disabled": 0, "fusion_lat": 0.0, "name": "507d73454e766d3a84720074252417cf", "fusion_lon": 0.0}, {"is_reserved": 0, "type": "electric_scooter", "bike_id": "2af896ce690f35e143dedfb0fdf920fb", "lat": 38.86450033333333, "lon": -76.99118616666667, "rental_uris": {"android": "https://dc.lft.to/lastmile_qr_scan", "ios": "https://dc.lft.to/lastmile_qr_scan"}, "is_disabled": 0, "fusion_lat": 0.0, "name": "2af896ce690f35e143dedfb0fdf920fb", "fusion_lon": 0.0}, {"is_reserved": 0, "type": "electric_scooter", "bike_id": "5fe0cc4704f7e65187208d9cddd40d2b", "lat": 38.927915166666665, "lon": -77.035959, "rental_uris": {"android": "https://dc.lft.to/lastmile_qr_scan", "ios": "https://dc.lft.to/lastmile_qr_scan"}, "is_disabled": 0, "fusion_lat": 0.0, "name": "5fe0cc4704f7e65187208d9cddd40d2b", "fusion_lon": 0.0}, {"is_reserved": 0, "type": "electric_bike", "bike_id": "03718847ab0ae59e85cbaa0e6512519c", "lat": 39.094460166666664, "lon": -77.1346145, "rental_uris": {"android": "https://dc.lft.to/lastmile_qr_scan", "ios": "https://dc.lft.to/lastmile_qr_scan"}, "is_disabled": 0, "fusion_lat": 0.0, "name": "03718847ab0ae59e85cbaa0e6512519c", "fusion_lon": 0.0}, {"is_reserved": 0, "type": "electric_bike", "bike_id": "5a0312cb3cbe1a7eee25be956aed4ccc", "lat": 38.8985185, "lon": -76.93189016666666, "rental_uris": {"android": "https://dc.lft.to/lastmile_qr_scan", "ios": "https://dc.lft.to/lastmile_qr_scan"}, "is_disabled": 0, "fusion_lat": 0.0, "name": "5a0312cb3cbe1a7eee25be956aed4ccc", "fusion_lon": 0.0}, {"is_reserved": 0, "type": "electric_scooter", "bike_id": "b4e59009fed88d1c47fa5ce63c8f430b", "lat": 38.972952666666664, "lon": -77.03623583333334, "rental_uris": {"android": "https://dc.lft.to/lastmile_qr_scan", "ios": "https://dc.lft.to/lastmile_qr_scan"}, "is_disabled": 0, "fusion_lat": 0.0, "name": "b4e59009fed88d1c47fa5ce63c8f430b", "fusion_lon": 0.0}, {"is_reserved": 0, "type": "electric_scooter", "bike_id": "ff4b6fda8e6b5dbcfe5abbaf73b845b4", "lat": 38.9183165, "lon": -77.032097, "rental_uris": {"android": "https://dc.lft.to/lastmile_qr_scan", "ios": "https://dc.lft.to/lastmile_qr_scan"}, "is_disabled": 0, "fusion_lat": 0.0, "name": "ff4b6fda8e6b5dbcfe5abbaf73b845b4", "fusion_lon": 0.0}, {"is_reserved": 0, "type": "electric_scooter", "bike_id": "fb8b8eb52f1b853ff229fdda21206235", "lat": 38.91928766666667, "lon": -77.01976, "rental_uris": {"android": "https://dc.lft.to/lastmile_qr_scan", "ios": "https://dc.lft.to/lastmile_qr_scan"}, "is_disabled": 0, "fusion_lat": 0.0, "name": "fb8b8eb52f1b853ff229fdda21206235", "fusion_lon": 0.0}, {"is_reserved": 0, "type": "electric_scooter", "bike_id": "85f81c9323da2b8c112b606a95f51f85", "lat": 38.91117533333333, "lon": -77.03305716666667, "rental_uris": {"android": "https://dc.lft.to/lastmile_qr_scan", "ios": "https://dc.lft.to/lastmile_qr_scan"}, "is_disabled": 0, "fusion_lat": 0.0, "name": "85f81c9323da2b8c112b606a95f51f85", "fusion_lon": 0.0}, {"is_reserved": 0, "type": "electric_scooter", "bike_id": "86adf268a937899bfc27fdbf243f1f9b", "lat": 38.884586166666665, "lon": -76.92620983333333, "rental_uris": {"android": "https://dc.lft.to/lastmile_qr_scan", "ios": "https://dc.lft.to/lastmile_qr_scan"}, "is_disabled": 0, "fusion_lat": 0.0, "name": "86adf268a937899bfc27fdbf243f1f9b", "fusion_lon": 0.0}, {"is_reserved": 0, "type": "electric_scooter", "bike_id": "7c33ce00344cc5d979df670edfe2b72d", "lat": 38.92649516666667, "lon": -77.04054383333333, "rental_uris": {"android": "https://dc.lft.to/lastmile_qr_scan", "ios": "https://dc.lft.to/lastmile_qr_scan"}, "is_disabled": 0, "fusion_lat": 0.0, "name": "7c33ce00344cc5d979df670edfe2b72d", "fusion_lon": 0.0}, {"is_reserved": 0, "type": "electric_scooter", "bike_id": "57344c5a01f1e834e12806bfde4cbf20", "lat": 38.9170675, "lon": -77.03132483333333, "rental_uris": {"android": "https://dc.lft.to/lastmile_qr_scan", "ios": "https://dc.lft.to/lastmile_qr_scan"}, "is_disabled": 0, "fusion_lat": 0.0, "name": "57344c5a01f1e834e12806bfde4cbf20", "fusion_lon": 0.0}, {"is_reserved": 0, "type": "electric_scooter", "bike_id": "9e447d10485b264f6d054e84686a933e", "lat": 38.89384033333333, "lon": -76.97820783333333, "rental_uris": {"android": "https://dc.lft.to/lastmile_qr_scan", "ios": "https://dc.lft.to/lastmile_qr_scan"}, "is_disabled": 0, "fusion_lat": 0.0, "name": "9e447d10485b264f6d054e84686a933e", "fusion_lon": 0.0}, {"is_reserved": 0, "type": "electric_scooter", "bike_id": "5dc84b443d089850309d6c09a48e86ac", "lat": 38.921496833333336, "lon": -77.03867516666666, "rental_uris": {"android": "https://dc.lft.to/lastmile_qr_scan", "ios": "https://dc.lft.to/lastmile_qr_scan"}, "is_disabled": 0, "fusion_lat": 0.0, "name": "5dc84b443d089850309d6c09a48e86ac", "fusion_lon": 0.0}, {"is_reserved": 0, "type": "electric_scooter", "bike_id": "d71aef373487092702aca7fe53b2ef61", "lat": 38.9208185, "lon": -77.07697133333333, "rental_uris": {"android": "https://dc.lft.to/lastmile_qr_scan", "ios": "https://dc.lft.to/lastmile_qr_scan"}, "is_disabled": 0, "fusion_lat": 0.0, "name": "d71aef373487092702aca7fe53b2ef61", "fusion_lon": 0.0}, {"is_reserved": 0, "type": "electric_scooter", "bike_id": "d70d40cdab84a3293555c69edd57173d", "lat": 38.8972905, "lon": -77.02369833333333, "rental_uris": {"android": "https://dc.lft.to/lastmile_qr_scan", "ios": "https://dc.lft.to/lastmile_qr_scan"}, "is_disabled": 0, "fusion_lat": 0.0, "name": "d70d40cdab84a3293555c69edd57173d", "fusion_lon": 0.0}, {"is_reserved": 0, "type": "electric_scooter", "bike_id": "c2c6af8676489bee22835915fbff0239", "lat": 38.92112866666667, "lon": -77.0221805, "rental_uris": {"android": "https://dc.lft.to/lastmile_qr_scan", "ios": "https://dc.lft.to/lastmile_qr_scan"}, "is_disabled": 0, "fusion_lat": 0.0, "name": "c2c6af8676489bee22835915fbff0239", "fusion_lon": 0.0}, {"is_reserved": 0, "type": "electric_scooter", "bike_id": "c163fa46e5be3ae14c4e717ec043b945", "lat": 38.930668833333335, "lon": -77.03817483333333, "rental_uris": {"android": "https://dc.lft.to/lastmile_qr_scan", "ios": "https://dc.lft.to/lastmile_qr_scan"}, "is_disabled": 0, "fusion_lat": 0.0, "name": "c163fa46e5be3ae14c4e717ec043b945", "fusion_lon": 0.0}, {"is_reserved": 0, "type": "electric_scooter", "bike_id": "188ce9d997e72d5d0fde7e7b23179e85", "lat": 38.899803666666664, "lon": -77.027253, "rental_uris": {"android": "https://dc.lft.to/lastmile_qr_scan", "ios": "https://dc.lft.to/lastmile_qr_scan"}, "is_disabled": 0, "fusion_lat": 0.0, "name": "188ce9d997e72d5d0fde7e7b23179e85", "fusion_lon": 0.0}, {"is_reserved": 0, "type": "electric_scooter", "bike_id": "f50d47d72b06f7a66cb56d45ef895ec6", "lat": 38.9071955, "lon": -77.024494, "rental_uris": {"android": "https://dc.lft.to/lastmile_qr_scan", "ios": "https://dc.lft.to/lastmile_qr_scan"}, "is_disabled": 0, "fusion_lat": 0.0, "name": "f50d47d72b06f7a66cb56d45ef895ec6", "fusion_lon": 0.0}, {"is_reserved": 0, "type": "electric_scooter", "bike_id": "e578d13d36b142f9864021c9b1a8a158", "lat": 38.9191645, "lon": -77.03426716666667, "rental_uris": {"android": "https://dc.lft.to/lastmile_qr_scan", "ios": "https://dc.lft.to/lastmile_qr_scan"}, "is_disabled": 0, "fusion_lat": 0.0, "name": "e578d13d36b142f9864021c9b1a8a158", "fusion_lon": 0.0}, {"is_reserved": 0, "type": "electric_scooter", "bike_id": "34d8ae81c6bd6074bcd5c8163b7c046d", "lat": 38.92381483333333, "lon": -77.02955, "rental_uris": {"android": "https://dc.lft.to/lastmile_qr_scan", "ios": "https://dc.lft.to/lastmile_qr_scan"}, "is_disabled": 0, "fusion_lat": 0.0, "name": "34d8ae81c6bd6074bcd5c8163b7c046d", "fusion_lon": 0.0}, {"is_reserved": 0, "type": "electric_scooter", "bike_id": "03a5df682496bf801f914989bff19ec0", "lat": 38.93454833333333, "lon": -77.02948166666667, "rental_uris": {"android": "https://dc.lft.to/lastmile_qr_scan", "ios": "https://dc.lft.to/lastmile_qr_scan"}, "is_disabled": 0, "fusion_lat": 0.0, "name": "03a5df682496bf801f914989bff19ec0", "fusion_lon": 0.0}, {"is_reserved": 0, "type": "electric_scooter", "bike_id": "58d36ab0c4a351ebb9fdbc00e157df08", "lat": 38.92305, "lon": -77.03028333333333, "rental_uris": {"android": "https://dc.lft.to/lastmile_qr_scan", "ios": "https://dc.lft.to/lastmile_qr_scan"}, "is_disabled": 0, "fusion_lat": 0.0, "name": "58d36ab0c4a351ebb9fdbc00e157df08", "fusion_lon": 0.0}, {"is_reserved": 0, "type": "electric_scooter", "bike_id": "7584120c62eed748d7ff311a2684c3b9", "lat": 38.93720966666667, "lon": -77.03638883333333, "rental_uris": {"android": "https://dc.lft.to/lastmile_qr_scan", "ios": "https://dc.lft.to/lastmile_qr_scan"}, "is_disabled": 0, "fusion_lat": 0.0, "name": "7584120c62eed748d7ff311a2684c3b9", "fusion_lon": 0.0}, {"is_reserved": 0, "type": "electric_scooter", "bike_id": "3fde558ff0573c4a248d7797a039fd11", "lat": 38.900811, "lon": -77.049626, "rental_uris": {"android": "https://dc.lft.to/lastmile_qr_scan", "ios": "https://dc.lft.to/lastmile_qr_scan"}, "is_disabled": 0, "fusion_lat": 0.0, "name": "3fde558ff0573c4a248d7797a039fd11", "fusion_lon": 0.0}, {"is_reserved": 0, "type": "electric_scooter", "bike_id": "36b545bc9b65c920980befcbfef86159", "lat": 38.89245666666667, "lon": -77.03341333333333, "rental_uris": {"android": "https://dc.lft.to/lastmile_qr_scan", "ios": "https://dc.lft.to/lastmile_qr_scan"}, "is_disabled": 0, "fusion_lat": 0.0, "name": "36b545bc9b65c920980befcbfef86159", "fusion_lon": 0.0}, {"is_reserved": 0, "type": "electric_bike", "bike_id": "9e80cb2fbc6477acad0b8c85885af455", "lat": 38.883461, "lon": -76.9362395, "rental_uris": {"android": "https://dc.lft.to/lastmile_qr_scan", "ios": "https://dc.lft.to/lastmile_qr_scan"}, "is_disabled": 0, "fusion_lat": 0.0, "name": "9e80cb2fbc6477acad0b8c85885af455", "fusion_lon": 0.0}, {"is_reserved": 0, "type": "electric_scooter", "bike_id": "e77a85d4de94ace4351e9286e5774868", "lat": 38.92873083333333, "lon": -77.05652033333334, "rental_uris": {"android": "https://dc.lft.to/lastmile_qr_scan", "ios": "https://dc.lft.to/lastmile_qr_scan"}, "is_disabled": 0, "fusion_lat": 0.0, "name": "e77a85d4de94ace4351e9286e5774868", "fusion_lon": 0.0}, {"is_reserved": 0, "type": "electric_scooter", "bike_id": "8fb4e5ec80c6c49fdbc96147abf4a547", "lat": 38.939782666666666, "lon": -77.05475733333333, "rental_uris": {"android": "https://dc.lft.to/lastmile_qr_scan", "ios": "https://dc.lft.to/lastmile_qr_scan"}, "is_disabled": 0, "fusion_lat": 0.0, "name": "8fb4e5ec80c6c49fdbc96147abf4a547", "fusion_lon": 0.0}, {"is_reserved": 0, "type": "electric_scooter", "bike_id": "3edad7e3d3d5afa7f5b41e279f326919", "lat": 38.9264535, "lon": -77.02721383333333, "rental_uris": {"android": "https://dc.lft.to/lastmile_qr_scan", "ios": "https://dc.lft.to/lastmile_qr_scan"}, "is_disabled": 0, "fusion_lat": 0.0, "name": "3edad7e3d3d5afa7f5b41e279f326919", "fusion_lon": 0.0}, {"is_reserved": 0, "type": "electric_scooter", "bike_id": "5cab0fd5576d91bf9e0d9cceb29d32af", "lat": 38.87500683333333, "lon": -77.00047483333333, "rental_uris": {"android": "https://dc.lft.to/lastmile_qr_scan", "ios": "https://dc.lft.to/lastmile_qr_scan"}, "is_disabled": 0, "fusion_lat": 0.0, "name": "5cab0fd5576d91bf9e0d9cceb29d32af", "fusion_lon": 0.0}, {"is_reserved": 0, "type": "electric_scooter", "bike_id": "8507a5d96779b1db8ae77c34ac1ec3a7", "lat": 38.89547366666667, "lon": -76.98332633333334, "rental_uris": {"android": "https://dc.lft.to/lastmile_qr_scan", "ios": "https://dc.lft.to/lastmile_qr_scan"}, "is_disabled": 0, "fusion_lat": 0.0, "name": "8507a5d96779b1db8ae77c34ac1ec3a7", "fusion_lon": 0.0}, {"is_reserved": 0, "type": "electric_scooter", "bike_id": "7b992083be78dc30046c1c190921a07e", "lat": 38.91945366666667, "lon": -77.02888416666667, "rental_uris": {"android": "https://dc.lft.to/lastmile_qr_scan", "ios": "https://dc.lft.to/lastmile_qr_scan"}, "is_disabled": 0, "fusion_lat": 0.0, "name": "7b992083be78dc30046c1c190921a07e", "fusion_lon": 0.0}, {"is_reserved": 0, "type": "electric_scooter", "bike_id": "3f8fe51dee3b43af0453dd32a1ddb8bd", "lat": 38.921275666666666, "lon": -77.0318035, "rental_uris": {"android": "https://dc.lft.to/lastmile_qr_scan", "ios": "https://dc.lft.to/lastmile_qr_scan"}, "is_disabled": 0, "fusion_lat": 0.0, "name": "3f8fe51dee3b43af0453dd32a1ddb8bd", "fusion_lon": 0.0}, {"is_reserved": 0, "type": "electric_scooter", "bike_id": "61aafc6538686cb5c211aaa8dc71ce5f", "lat": 38.916766, "lon": -77.03206066666667, "rental_uris": {"android": "https://dc.lft.to/lastmile_qr_scan", "ios": "https://dc.lft.to/lastmile_qr_scan"}, "is_disabled": 0, "fusion_lat": 0.0, "name": "61aafc6538686cb5c211aaa8dc71ce5f", "fusion_lon": 0.0}, {"is_reserved": 0, "type": "electric_scooter", "bike_id": "4bc870eb11278425456340557a9de57f", "lat": 38.9179815, "lon": -77.02709066666667, "rental_uris": {"android": "https://dc.lft.to/lastmile_qr_scan", "ios": "https://dc.lft.to/lastmile_qr_scan"}, "is_disabled": 0, "fusion_lat": 0.0, "name": "4bc870eb11278425456340557a9de57f", "fusion_lon": 0.0}, {"is_reserved": 0, "type": "electric_scooter", "bike_id": "7cd88524db8c23078ce62e46080be829", "lat": 38.940273, "lon": -77.0251585, "rental_uris": {"android": "https://dc.lft.to/lastmile_qr_scan", "ios": "https://dc.lft.to/lastmile_qr_scan"}, "is_disabled": 0, "fusion_lat": 0.0, "name": "7cd88524db8c23078ce62e46080be829", "fusion_lon": 0.0}, {"is_reserved": 0, "type": "electric_bike", "bike_id": "d85f7f084acd8bd113e29a6c02f19316", "lat": 38.906956666666666, "lon": -76.95254116666666, "rental_uris": {"android": "https://dc.lft.to/lastmile_qr_scan", "ios": "https://dc.lft.to/lastmile_qr_scan"}, "is_disabled": 0, "fusion_lat": 0.0, "name": "d85f7f084acd8bd113e29a6c02f19316", "fusion_lon": 0.0}, {"is_reserved": 0, "type": "electric_scooter", "bike_id": "4f2e22f109004b96153f0e84e41a62ac", "lat": 38.924724166666664, "lon": -77.02251683333333, "rental_uris": {"android": "https://dc.lft.to/lastmile_qr_scan", "ios": "https://dc.lft.to/lastmile_qr_scan"}, "is_disabled": 0, "fusion_lat": 0.0, "name": "4f2e22f109004b96153f0e84e41a62ac", "fusion_lon": 0.0}, {"is_reserved": 0, "type": "electric_scooter", "bike_id": "a217b85cd1c29edc8829904a2b1c1b25", "lat": 38.91710416666667, "lon": -77.03856016666667, "rental_uris": {"android": "https://dc.lft.to/lastmile_qr_scan", "ios": "https://dc.lft.to/lastmile_qr_scan"}, "is_disabled": 0, "fusion_lat": 0.0, "name": "a217b85cd1c29edc8829904a2b1c1b25", "fusion_lon": 0.0}, {"is_reserved": 0, "type": "electric_scooter", "bike_id": "9e689682a14669159d302c2a76b907fb", "lat": 38.914627833333334, "lon": -77.00210433333334, "rental_uris": {"android": "https://dc.lft.to/lastmile_qr_scan", "ios": "https://dc.lft.to/lastmile_qr_scan"}, "is_disabled": 0, "fusion_lat": 0.0, "name": "9e689682a14669159d302c2a76b907fb", "fusion_lon": 0.0}, {"is_reserved": 0, "type": "electric_scooter", "bike_id": "aa186931e8e12c4cb6ca0f0fe6791d17", "lat": 38.890086, "lon": -77.0332065, "rental_uris": {"android": "https://dc.lft.to/lastmile_qr_scan", "ios": "https://dc.lft.to/lastmile_qr_scan"}, "is_disabled": 0, "fusion_lat": 0.0, "name": "aa186931e8e12c4cb6ca0f0fe6791d17", "fusion_lon": 0.0}, {"is_reserved": 0, "type": "electric_scooter", "bike_id": "51bef3ba5ab45dde4eb70ea518dd263f", "lat": 38.90730283333333, "lon": -77.04491383333334, "rental_uris": {"android": "https://dc.lft.to/lastmile_qr_scan", "ios": "https://dc.lft.to/lastmile_qr_scan"}, "is_disabled": 0, "fusion_lat": 0.0, "name": "51bef3ba5ab45dde4eb70ea518dd263f", "fusion_lon": 0.0}, {"is_reserved": 0, "type": "electric_scooter", "bike_id": "ad562ee2bbd453f72ce50859f361e828", "lat": 38.89864816666667, "lon": -77.01969083333333, "rental_uris": {"android": "https://dc.lft.to/lastmile_qr_scan", "ios": "https://dc.lft.to/lastmile_qr_scan"}, "is_disabled": 0, "fusion_lat": 0.0, "name": "ad562ee2bbd453f72ce50859f361e828", "fusion_lon": 0.0}, {"is_reserved": 0, "type": "electric_scooter", "bike_id": "f4e0a397233fd95fc4c2832dc03aa492", "lat": 38.90715633333333, "lon": -77.047516, "rental_uris": {"android": "https://dc.lft.to/lastmile_qr_scan", "ios": "https://dc.lft.to/lastmile_qr_scan"}, "is_disabled": 0, "fusion_lat": 0.0, "name": "f4e0a397233fd95fc4c2832dc03aa492", "fusion_lon": 0.0}, {"is_reserved": 0, "type": "electric_scooter", "bike_id": "7720feaaece4aadbdb14bbd80fe010d3", "lat": 38.92912966666667, "lon": -77.02189016666667, "rental_uris": {"android": "https://dc.lft.to/lastmile_qr_scan", "ios": "https://dc.lft.to/lastmile_qr_scan"}, "is_disabled": 0, "fusion_lat": 0.0, "name": "7720feaaece4aadbdb14bbd80fe010d3", "fusion_lon": 0.0}, {"is_reserved": 0, "type": "electric_scooter", "bike_id": "b751de232dffee303df3e795529c141a", "lat": 38.88986966666667, "lon": -77.00152333333334, "rental_uris": {"android": "https://dc.lft.to/lastmile_qr_scan", "ios": "https://dc.lft.to/lastmile_qr_scan"}, "is_disabled": 0, "fusion_lat": 0.0, "name": "b751de232dffee303df3e795529c141a", "fusion_lon": 0.0}, {"is_reserved": 0, "type": "electric_scooter", "bike_id": "893f6987b52901f91c012dfe73e59702", "lat": 38.904999333333336, "lon": -77.03478766666667, "rental_uris": {"android": "https://dc.lft.to/lastmile_qr_scan", "ios": "https://dc.lft.to/lastmile_qr_scan"}, "is_disabled": 0, "fusion_lat": 0.0, "name": "893f6987b52901f91c012dfe73e59702", "fusion_lon": 0.0}, {"is_reserved": 0, "type": "electric_scooter", "bike_id": "bc4821cc966512131c2d72633cdf5f0a", "lat": 38.924416, "lon": -77.04031, "rental_uris": {"android": "https://dc.lft.to/lastmile_qr_scan", "ios": "https://dc.lft.to/lastmile_qr_scan"}, "is_disabled": 0, "fusion_lat": 0.0, "name": "bc4821cc966512131c2d72633cdf5f0a", "fusion_lon": 0.0}, {"is_reserved": 0, "type": "electric_bike", "bike_id": "d1df3764f00a027aed507f0406a17316", "lat": 38.91249, "lon": -77.0465335, "rental_uris": {"android": "https://dc.lft.to/lastmile_qr_scan", "ios": "https://dc.lft.to/lastmile_qr_scan"}, "is_disabled": 0, "fusion_lat": 0.0, "name": "d1df3764f00a027aed507f0406a17316", "fusion_lon": 0.0}, {"is_reserved": 0, "type": "electric_scooter", "bike_id": "d4b550f676e935eeb50ce6994698e724", "lat": 38.9006085, "lon": -77.0453815, "rental_uris": {"android": "https://dc.lft.to/lastmile_qr_scan", "ios": "https://dc.lft.to/lastmile_qr_scan"}, "is_disabled": 0, "fusion_lat": 0.0, "name": "d4b550f676e935eeb50ce6994698e724", "fusion_lon": 0.0}, {"is_reserved": 0, "type": "electric_bike", "bike_id": "4ad8f80d26b90972fcec0107f3209b4b", "lat": 38.91223316666667, "lon": -77.06598783333334, "rental_uris": {"android": "https://dc.lft.to/lastmile_qr_scan", "ios": "https://dc.lft.to/lastmile_qr_scan"}, "is_disabled": 0, "fusion_lat": 0.0, "name": "4ad8f80d26b90972fcec0107f3209b4b", "fusion_lon": 0.0}, {"is_reserved": 0, "type": "electric_scooter", "bike_id": "a0f151495c1ca598341e8c9e956dc4e5", "lat": 38.90371916666667, "lon": -77.03135216666666, "rental_uris": {"android": "https://dc.lft.to/lastmile_qr_scan", "ios": "https://dc.lft.to/lastmile_qr_scan"}, "is_disabled": 0, "fusion_lat": 0.0, "name": "a0f151495c1ca598341e8c9e956dc4e5", "fusion_lon": 0.0}, {"is_reserved": 0, "type": "electric_scooter", "bike_id": "dc2d3e3440133bc131d42d2473e43b95", "lat": 38.89945133333333, "lon": -76.98195866666667, "rental_uris": {"android": "https://dc.lft.to/lastmile_qr_scan", "ios": "https://dc.lft.to/lastmile_qr_scan"}, "is_disabled": 0, "fusion_lat": 0.0, "name": "dc2d3e3440133bc131d42d2473e43b95", "fusion_lon": 0.0}, {"is_reserved": 0, "type": "electric_scooter", "bike_id": "cb402040655941b2c85e16c63a0af55a", "lat": 38.895598166666666, "lon": -77.01109333333333, "rental_uris": {"android": "https://dc.lft.to/lastmile_qr_scan", "ios": "https://dc.lft.to/lastmile_qr_scan"}, "is_disabled": 0, "fusion_lat": 0.0, "name": "cb402040655941b2c85e16c63a0af55a", "fusion_lon": 0.0}, {"is_reserved": 0, "type": "electric_scooter", "bike_id": "dfc44584040664b8f94b0ee0096d060e", "lat": 38.89961666666667, "lon": -77.05097833333333, "rental_uris": {"android": "https://dc.lft.to/lastmile_qr_scan", "ios": "https://dc.lft.to/lastmile_qr_scan"}, "is_disabled": 0, "fusion_lat": 0.0, "name": "dfc44584040664b8f94b0ee0096d060e", "fusion_lon": 0.0}, {"is_reserved": 0, "type": "electric_scooter", "bike_id": "380cb7e6a000eeaced0243f218b6c6c2", "lat": 38.9213765, "lon": -77.04704066666666, "rental_uris": {"android": "https://dc.lft.to/lastmile_qr_scan", "ios": "https://dc.lft.to/lastmile_qr_scan"}, "is_disabled": 0, "fusion_lat": 0.0, "name": "380cb7e6a000eeaced0243f218b6c6c2", "fusion_lon": 0.0}, {"is_reserved": 0, "type": "electric_scooter", "bike_id": "e83e6fdac6ba4562c1a488b04b9ca188", "lat": 38.9802385, "lon": -77.02662933333333, "rental_uris": {"android": "https://dc.lft.to/lastmile_qr_scan", "ios": "https://dc.lft.to/lastmile_qr_scan"}, "is_disabled": 0, "fusion_lat": 0.0, "name": "e83e6fdac6ba4562c1a488b04b9ca188", "fusion_lon": 0.0}, {"is_reserved": 0, "type": "electric_scooter", "bike_id": "cccd2bf415eb127cb8172fa2537a5f05", "lat": 38.933207, "lon": -77.081983, "rental_uris": {"android": "https://dc.lft.to/lastmile_qr_scan", "ios": "https://dc.lft.to/lastmile_qr_scan"}, "is_disabled": 0, "fusion_lat": 0.0, "name": "cccd2bf415eb127cb8172fa2537a5f05", "fusion_lon": 0.0}, {"is_reserved": 0, "type": "electric_scooter", "bike_id": "3e54132d3bbb26172903df22223bce04", "lat": 38.906688333333335, "lon": -77.02712616666666, "rental_uris": {"android": "https://dc.lft.to/lastmile_qr_scan", "ios": "https://dc.lft.to/lastmile_qr_scan"}, "is_disabled": 0, "fusion_lat": 0.0, "name": "3e54132d3bbb26172903df22223bce04", "fusion_lon": 0.0}, {"is_reserved": 0, "type": "electric_scooter", "bike_id": "6cc19cb89795c333291d60003c682a54", "lat": 38.90403716666667, "lon": -77.0250075, "rental_uris": {"android": "https://dc.lft.to/lastmile_qr_scan", "ios": "https://dc.lft.to/lastmile_qr_scan"}, "is_disabled": 0, "fusion_lat": 0.0, "name": "6cc19cb89795c333291d60003c682a54", "fusion_lon": 0.0}, {"is_reserved": 0, "type": "electric_scooter", "bike_id": "fba8e9029147ed25cba2ca506f6dfb53", "lat": 38.903951666666664, "lon": -77.0538875, "rental_uris": {"android": "https://dc.lft.to/lastmile_qr_scan", "ios": "https://dc.lft.to/lastmile_qr_scan"}, "is_disabled": 0, "fusion_lat": 0.0, "name": "fba8e9029147ed25cba2ca506f6dfb53", "fusion_lon": 0.0}, {"is_reserved": 0, "type": "electric_scooter", "bike_id": "fea5146c76bf83e350d85a77a7e1a112", "lat": 38.883166333333335, "lon": -77.00954116666666, "rental_uris": {"android": "https://dc.lft.to/lastmile_qr_scan", "ios": "https://dc.lft.to/lastmile_qr_scan"}, "is_disabled": 0, "fusion_lat": 0.0, "name": "fea5146c76bf83e350d85a77a7e1a112", "fusion_lon": 0.0}, {"is_reserved": 0, "type": "electric_scooter", "bike_id": "ba8571627fb07f517cb9f11b00aa3571", "lat": 38.9139215, "lon": -77.01982966666667, "rental_uris": {"android": "https://dc.lft.to/lastmile_qr_scan", "ios": "https://dc.lft.to/lastmile_qr_scan"}, "is_disabled": 0, "fusion_lat": 0.0, "name": "ba8571627fb07f517cb9f11b00aa3571", "fusion_lon": 0.0}, {"is_reserved": 0, "type": "electric_bike", "bike_id": "7fc5343cd52c69b1ff5d858b8cc1a532", "lat": 38.7840745, "lon": -77.1206615, "rental_uris": {"android": "https://dc.lft.to/lastmile_qr_scan", "ios": "https://dc.lft.to/lastmile_qr_scan"}, "is_disabled": 0, "fusion_lat": 0.0, "name": "7fc5343cd52c69b1ff5d858b8cc1a532", "fusion_lon": 0.0}, {"is_reserved": 0, "type": "electric_scooter", "bike_id": "c98e80f80ea97a375cd7c0c8be580234", "lat": 38.9189455, "lon": -77.03456616666666, "rental_uris": {"android": "https://dc.lft.to/lastmile_qr_scan", "ios": "https://dc.lft.to/lastmile_qr_scan"}, "is_disabled": 0, "fusion_lat": 0.0, "name": "c98e80f80ea97a375cd7c0c8be580234", "fusion_lon": 0.0}, {"is_reserved": 0, "type": "electric_scooter", "bike_id": "c6303aa57c1daaae8a1976c152445952", "lat": 38.92233483333333, "lon": -77.023313, "rental_uris": {"android": "https://dc.lft.to/lastmile_qr_scan", "ios": "https://dc.lft.to/lastmile_qr_scan"}, "is_disabled": 0, "fusion_lat": 0.0, "name": "c6303aa57c1daaae8a1976c152445952", "fusion_lon": 0.0}, {"is_reserved": 0, "type": "electric_scooter", "bike_id": "646a73dc5291a02e06ccd2445162c523", "lat": 38.92485383333333, "lon": -77.02272916666666, "rental_uris": {"android": "https://dc.lft.to/lastmile_qr_scan", "ios": "https://dc.lft.to/lastmile_qr_scan"}, "is_disabled": 0, "fusion_lat": 0.0, "name": "646a73dc5291a02e06ccd2445162c523", "fusion_lon": 0.0}, {"is_reserved": 0, "type": "electric_scooter", "bike_id": "5288044d00f11b8afc65d3bf7faa5877", "lat": 38.920940333333334, "lon": -77.03192233333333, "rental_uris": {"android": "https://dc.lft.to/lastmile_qr_scan", "ios": "https://dc.lft.to/lastmile_qr_scan"}, "is_disabled": 0, "fusion_lat": 0.0, "name": "5288044d00f11b8afc65d3bf7faa5877", "fusion_lon": 0.0}, {"is_reserved": 0, "type": "electric_scooter", "bike_id": "f60766f1c1bb5cc49491a675d49d329e", "lat": 38.9131425, "lon": -77.036408, "rental_uris": {"android": "https://dc.lft.to/lastmile_qr_scan", "ios": "https://dc.lft.to/lastmile_qr_scan"}, "is_disabled": 0, "fusion_lat": 0.0, "name": "f60766f1c1bb5cc49491a675d49d329e", "fusion_lon": 0.0}, {"is_reserved": 0, "type": "electric_scooter", "bike_id": "0f21a2027d1acdedc6cff6740a553995", "lat": 38.920871166666664, "lon": -77.02295533333333, "rental_uris": {"android": "https://dc.lft.to/lastmile_qr_scan", "ios": "https://dc.lft.to/lastmile_qr_scan"}, "is_disabled": 0, "fusion_lat": 0.0, "name": "0f21a2027d1acdedc6cff6740a553995", "fusion_lon": 0.0}, {"is_reserved": 0, "type": "electric_scooter", "bike_id": "8d460b3d82c064411614fafbfc1eaa76", "lat": 38.90743033333333, "lon": -77.00398183333333, "rental_uris": {"android": "https://dc.lft.to/lastmile_qr_scan", "ios": "https://dc.lft.to/lastmile_qr_scan"}, "is_disabled": 0, "fusion_lat": 0.0, "name": "8d460b3d82c064411614fafbfc1eaa76", "fusion_lon": 0.0}, {"is_reserved": 0, "type": "electric_scooter", "bike_id": "e11ac9d6244af84fe5193ea380c51b30", "lat": 38.907542666666664, "lon": -76.99879083333333, "rental_uris": {"android": "https://dc.lft.to/lastmile_qr_scan", "ios": "https://dc.lft.to/lastmile_qr_scan"}, "is_disabled": 0, "fusion_lat": 0.0, "name": "e11ac9d6244af84fe5193ea380c51b30", "fusion_lon": 0.0}, {"is_reserved": 0, "type": "electric_bike", "bike_id": "cec38655d6af44f823f76c1c527a93f6", "lat": 38.832388, "lon": -76.94616633333334, "rental_uris": {"android": "https://dc.lft.to/lastmile_qr_scan", "ios": "https://dc.lft.to/lastmile_qr_scan"}, "is_disabled": 0, "fusion_lat": 0.0, "name": "cec38655d6af44f823f76c1c527a93f6", "fusion_lon": 0.0}, {"is_reserved": 0, "type": "electric_scooter", "bike_id": "194607730e47894f1bd79ba851da1272", "lat": 38.91050383333334, "lon": -77.03444066666667, "rental_uris": {"android": "https://dc.lft.to/lastmile_qr_scan", "ios": "https://dc.lft.to/lastmile_qr_scan"}, "is_disabled": 0, "fusion_lat": 0.0, "name": "194607730e47894f1bd79ba851da1272", "fusion_lon": 0.0}, {"is_reserved": 0, "type": "electric_bike", "bike_id": "a028679c005c8a3e0af60291079e53e9", "lat": 38.823419666666666, "lon": -77.05817266666666, "rental_uris": {"android": "https://dc.lft.to/lastmile_qr_scan", "ios": "https://dc.lft.to/lastmile_qr_scan"}, "is_disabled": 0, "fusion_lat": 0.0, "name": "a028679c005c8a3e0af60291079e53e9", "fusion_lon": 0.0}, {"is_reserved": 0, "type": "electric_bike", "bike_id": "08b1c3c79f2fb916c9a57e4e800591b2", "lat": 38.892428833333334, "lon": -77.00261566666667, "rental_uris": {"android": "https://dc.lft.to/lastmile_qr_scan", "ios": "https://dc.lft.to/lastmile_qr_scan"}, "is_disabled": 0, "fusion_lat": 0.0, "name": "08b1c3c79f2fb916c9a57e4e800591b2", "fusion_lon": 0.0}, {"is_reserved": 0, "type": "electric_bike", "bike_id": "d27ccbe190ddf111b5c0be1266c5a64b", "lat": 38.914716, "lon": -77.04593166666666, "rental_uris": {"android": "https://dc.lft.to/lastmile_qr_scan", "ios": "https://dc.lft.to/lastmile_qr_scan"}, "is_disabled": 0, "fusion_lat": 0.0, "name": "d27ccbe190ddf111b5c0be1266c5a64b", "fusion_lon": 0.0}, {"is_reserved": 0, "type": "electric_bike", "bike_id": "cbfcb41716ab91d4672e4ad26ca8915b", "lat": 38.8838815, "lon": -76.95444483333333, "rental_uris": {"android": "https://dc.lft.to/lastmile_qr_scan", "ios": "https://dc.lft.to/lastmile_qr_scan"}, "is_disabled": 0, "fusion_lat": 0.0, "name": "cbfcb41716ab91d4672e4ad26ca8915b", "fusion_lon": 0.0}, {"is_reserved": 0, "type": "electric_scooter", "bike_id": "8f4dc13d0519562628105a262dcdd6d2", "lat": 38.900267166666666, "lon": -77.01186333333334, "rental_uris": {"android": "https://dc.lft.to/lastmile_qr_scan", "ios": "https://dc.lft.to/lastmile_qr_scan"}, "is_disabled": 0, "fusion_lat": 0.0, "name": "8f4dc13d0519562628105a262dcdd6d2", "fusion_lon": 0.0}, {"is_reserved": 0, "type": "electric_scooter", "bike_id": "1ef8751b7774f029ce302c07db9f6158", "lat": 38.90488333333333, "lon": -77.05833683333333, "rental_uris": {"android": "https://dc.lft.to/lastmile_qr_scan", "ios": "https://dc.lft.to/lastmile_qr_scan"}, "is_disabled": 0, "fusion_lat": 0.0, "name": "1ef8751b7774f029ce302c07db9f6158", "fusion_lon": 0.0}, {"is_reserved": 0, "type": "electric_bike", "bike_id": "99118b04d8ade28af9d344d32491b56a", "lat": 39.000308833333335, "lon": -77.04738216666667, "rental_uris": {"android": "https://dc.lft.to/lastmile_qr_scan", "ios": "https://dc.lft.to/lastmile_qr_scan"}, "is_disabled": 0, "fusion_lat": 0.0, "name": "99118b04d8ade28af9d344d32491b56a", "fusion_lon": 0.0}, {"is_reserved": 0, "type": "electric_scooter", "bike_id": "21233e40d6d1fd8c0d831753f1e14618", "lat": 38.897173, "lon": -77.00654466666667, "rental_uris": {"android": "https://dc.lft.to/lastmile_qr_scan", "ios": "https://dc.lft.to/lastmile_qr_scan"}, "is_disabled": 0, "fusion_lat": 0.0, "name": "21233e40d6d1fd8c0d831753f1e14618", "fusion_lon": 0.0}, {"is_reserved": 0, "type": "electric_scooter", "bike_id": "53b29dcebe428b1899b1eaa38cb04536", "lat": 38.932571, "lon": -77.0323065, "rental_uris": {"android": "https://dc.lft.to/lastmile_qr_scan", "ios": "https://dc.lft.to/lastmile_qr_scan"}, "is_disabled": 0, "fusion_lat": 0.0, "name": "53b29dcebe428b1899b1eaa38cb04536", "fusion_lon": 0.0}, {"is_reserved": 0, "type": "electric_scooter", "bike_id": "1ed28171239a8502d59ace2c35b64cf9", "lat": 38.882565, "lon": -77.00621683333334, "rental_uris": {"android": "https://dc.lft.to/lastmile_qr_scan", "ios": "https://dc.lft.to/lastmile_qr_scan"}, "is_disabled": 0, "fusion_lat": 0.0, "name": "1ed28171239a8502d59ace2c35b64cf9", "fusion_lon": 0.0}, {"is_reserved": 0, "type": "electric_scooter", "bike_id": "0b5ca829eb046bfb1f6e0d08180d406c", "lat": 38.92150933333333, "lon": -77.0350575, "rental_uris": {"android": "https://dc.lft.to/lastmile_qr_scan", "ios": "https://dc.lft.to/lastmile_qr_scan"}, "is_disabled": 0, "fusion_lat": 0.0, "name": "0b5ca829eb046bfb1f6e0d08180d406c", "fusion_lon": 0.0}, {"is_reserved": 0, "type": "electric_scooter", "bike_id": "b4bdf14a903a07bfc5fcb4ade262c372", "lat": 38.9073405, "lon": -77.01130666666667, "rental_uris": {"android": "https://dc.lft.to/lastmile_qr_scan", "ios": "https://dc.lft.to/lastmile_qr_scan"}, "is_disabled": 0, "fusion_lat": 0.0, "name": "b4bdf14a903a07bfc5fcb4ade262c372", "fusion_lon": 0.0}, {"is_reserved": 0, "type": "electric_scooter", "bike_id": "29157b9c5889d247c7a92e2be30fa83c", "lat": 38.90852, "lon": -77.01016783333333, "rental_uris": {"android": "https://dc.lft.to/lastmile_qr_scan", "ios": "https://dc.lft.to/lastmile_qr_scan"}, "is_disabled": 0, "fusion_lat": 0.0, "name": "29157b9c5889d247c7a92e2be30fa83c", "fusion_lon": 0.0}, {"is_reserved": 0, "type": "electric_scooter", "bike_id": "8d28fc960d6a756713386238f366ac85", "lat": 38.921505333333336, "lon": -77.03403233333333, "rental_uris": {"android": "https://dc.lft.to/lastmile_qr_scan", "ios": "https://dc.lft.to/lastmile_qr_scan"}, "is_disabled": 0, "fusion_lat": 0.0, "name": "8d28fc960d6a756713386238f366ac85", "fusion_lon": 0.0}, {"is_reserved": 0, "type": "electric_scooter", "bike_id": "9f519b1c28dd917c497efbe58c2a2420", "lat": 38.91265533333333, "lon": -77.03866316666667, "rental_uris": {"android": "https://dc.lft.to/lastmile_qr_scan", "ios": "https://dc.lft.to/lastmile_qr_scan"}, "is_disabled": 0, "fusion_lat": 0.0, "name": "9f519b1c28dd917c497efbe58c2a2420", "fusion_lon": 0.0}, {"is_reserved": 0, "type": "electric_bike", "bike_id": "ebbab3bbb803a4a733c9e58d92b8e93a", "lat": 38.89292366666667, "lon": -76.97615833333333, "rental_uris": {"android": "https://dc.lft.to/lastmile_qr_scan", "ios": "https://dc.lft.to/lastmile_qr_scan"}, "is_disabled": 0, "fusion_lat": 0.0, "name": "ebbab3bbb803a4a733c9e58d92b8e93a", "fusion_lon": 0.0}, {"is_reserved": 0, "type": "electric_scooter", "bike_id": "bd2f032658faa189a5c8aa56be1fa4db", "lat": 38.934099, "lon": -77.04218333333333, "rental_uris": {"android": "https://dc.lft.to/lastmile_qr_scan", "ios": "https://dc.lft.to/lastmile_qr_scan"}, "is_disabled": 0, "fusion_lat": 0.0, "name": "bd2f032658faa189a5c8aa56be1fa4db", "fusion_lon": 0.0}, {"is_reserved": 0, "type": "electric_scooter", "bike_id": "01792f534430fdd73f3e90ab2f9819ba", "lat": 38.892249166666666, "lon": -77.04333233333334, "rental_uris": {"android": "https://dc.lft.to/lastmile_qr_scan", "ios": "https://dc.lft.to/lastmile_qr_scan"}, "is_disabled": 0, "fusion_lat": 0.0, "name": "01792f534430fdd73f3e90ab2f9819ba", "fusion_lon": 0.0}, {"is_reserved": 0, "type": "electric_scooter", "bike_id": "04b3bec72a5dd1af4cc7f9ed7281567a", "lat": 38.897347, "lon": -77.00315983333333, "rental_uris": {"android": "https://dc.lft.to/lastmile_qr_scan", "ios": "https://dc.lft.to/lastmile_qr_scan"}, "is_disabled": 0, "fusion_lat": 0.0, "name": "04b3bec72a5dd1af4cc7f9ed7281567a", "fusion_lon": 0.0}, {"is_reserved": 0, "type": "electric_scooter", "bike_id": "835633ca088a53dc64e29198660e76f7", "lat": 38.921992, "lon": -77.04697183333333, "rental_uris": {"android": "https://dc.lft.to/lastmile_qr_scan", "ios": "https://dc.lft.to/lastmile_qr_scan"}, "is_disabled": 0, "fusion_lat": 0.0, "name": "835633ca088a53dc64e29198660e76f7", "fusion_lon": 0.0}, {"is_reserved": 0, "type": "electric_scooter", "bike_id": "07f393eb3e3684b50fba18856762597f", "lat": 38.892309833333336, "lon": -77.03180216666667, "rental_uris": {"android": "https://dc.lft.to/lastmile_qr_scan", "ios": "https://dc.lft.to/lastmile_qr_scan"}, "is_disabled": 0, "fusion_lat": 0.0, "name": "07f393eb3e3684b50fba18856762597f", "fusion_lon": 0.0}, {"is_reserved": 0, "type": "electric_scooter", "bike_id": "f8736723c0644c7ea5697e4c8061a2b7", "lat": 38.88532516666667, "lon": -76.99626483333333, "rental_uris": {"android": "https://dc.lft.to/lastmile_qr_scan", "ios": "https://dc.lft.to/lastmile_qr_scan"}, "is_disabled": 0, "fusion_lat": 0.0, "name": "f8736723c0644c7ea5697e4c8061a2b7", "fusion_lon": 0.0}, {"is_reserved": 0, "type": "electric_scooter", "bike_id": "7255d058a6f656133d3065e9e1682224", "lat": 38.916066666666666, "lon": -77.0460705, "rental_uris": {"android": "https://dc.lft.to/lastmile_qr_scan", "ios": "https://dc.lft.to/lastmile_qr_scan"}, "is_disabled": 0, "fusion_lat": 0.0, "name": "7255d058a6f656133d3065e9e1682224", "fusion_lon": 0.0}, {"is_reserved": 0, "type": "electric_scooter", "bike_id": "806f1d4b268598f4529814b7e860d311", "lat": 38.900986, "lon": -77.04881916666666, "rental_uris": {"android": "https://dc.lft.to/lastmile_qr_scan", "ios": "https://dc.lft.to/lastmile_qr_scan"}, "is_disabled": 0, "fusion_lat": 0.0, "name": "806f1d4b268598f4529814b7e860d311", "fusion_lon": 0.0}, {"is_reserved": 0, "type": "electric_scooter", "bike_id": "1094e6f4db5453d8c385874b0c5a705f", "lat": 38.898766333333334, "lon": -76.93182666666667, "rental_uris": {"android": "https://dc.lft.to/lastmile_qr_scan", "ios": "https://dc.lft.to/lastmile_qr_scan"}, "is_disabled": 0, "fusion_lat": 0.0, "name": "1094e6f4db5453d8c385874b0c5a705f", "fusion_lon": 0.0}, {"is_reserved": 0, "type": "electric_scooter", "bike_id": "76f4de2de8c5b222c8b61823c0695fc8", "lat": 38.917396833333335, "lon": -77.02806816666667, "rental_uris": {"android": "https://dc.lft.to/lastmile_qr_scan", "ios": "https://dc.lft.to/lastmile_qr_scan"}, "is_disabled": 0, "fusion_lat": 0.0, "name": "76f4de2de8c5b222c8b61823c0695fc8", "fusion_lon": 0.0}, {"is_reserved": 0, "type": "electric_scooter", "bike_id": "fbc3ba876ba336e7c6c749c135468fb5", "lat": 38.92621666666667, "lon": -77.03626616666666, "rental_uris": {"android": "https://dc.lft.to/lastmile_qr_scan", "ios": "https://dc.lft.to/lastmile_qr_scan"}, "is_disabled": 0, "fusion_lat": 0.0, "name": "fbc3ba876ba336e7c6c749c135468fb5", "fusion_lon": 0.0}, {"is_reserved": 0, "type": "electric_scooter", "bike_id": "df5cfe4b430d2e2fee7ce1b772c5f272", "lat": 38.91950516666667, "lon": -77.013551, "rental_uris": {"android": "https://dc.lft.to/lastmile_qr_scan", "ios": "https://dc.lft.to/lastmile_qr_scan"}, "is_disabled": 0, "fusion_lat": 0.0, "name": "df5cfe4b430d2e2fee7ce1b772c5f272", "fusion_lon": 0.0}, {"is_reserved": 0, "type": "electric_scooter", "bike_id": "5de941ac9576ba43adaa7c42ac5d5e24", "lat": 38.906851, "lon": -77.06256433333333, "rental_uris": {"android": "https://dc.lft.to/lastmile_qr_scan", "ios": "https://dc.lft.to/lastmile_qr_scan"}, "is_disabled": 0, "fusion_lat": 0.0, "name": "5de941ac9576ba43adaa7c42ac5d5e24", "fusion_lon": 0.0}, {"is_reserved": 0, "type": "electric_scooter", "bike_id": "dd7a655a8d59406a9f0dd2927b7eccf3", "lat": 38.90354833333333, "lon": -77.03188733333333, "rental_uris": {"android": "https://dc.lft.to/lastmile_qr_scan", "ios": "https://dc.lft.to/lastmile_qr_scan"}, "is_disabled": 0, "fusion_lat": 0.0, "name": "dd7a655a8d59406a9f0dd2927b7eccf3", "fusion_lon": 0.0}, {"is_reserved": 0, "type": "electric_scooter", "bike_id": "0b719d26fc0bfb2fadb1e03a69c5881d", "lat": 38.906597, "lon": -77.00908116666666, "rental_uris": {"android": "https://dc.lft.to/lastmile_qr_scan", "ios": "https://dc.lft.to/lastmile_qr_scan"}, "is_disabled": 0, "fusion_lat": 0.0, "name": "0b719d26fc0bfb2fadb1e03a69c5881d", "fusion_lon": 0.0}, {"is_reserved": 0, "type": "electric_scooter", "bike_id": "a8aacaaa352fae39f934f42d12bc9329", "lat": 38.875637, "lon": -77.00592716666667, "rental_uris": {"android": "https://dc.lft.to/lastmile_qr_scan", "ios": "https://dc.lft.to/lastmile_qr_scan"}, "is_disabled": 0, "fusion_lat": 0.0, "name": "a8aacaaa352fae39f934f42d12bc9329", "fusion_lon": 0.0}, {"is_reserved": 0, "type": "electric_scooter", "bike_id": "44f91c94ec8b0661add28bd3bceca915", "lat": 38.920321, "lon": -77.04184216666667, "rental_uris": {"android": "https://dc.lft.to/lastmile_qr_scan", "ios": "https://dc.lft.to/lastmile_qr_scan"}, "is_disabled": 0, "fusion_lat": 0.0, "name": "44f91c94ec8b0661add28bd3bceca915", "fusion_lon": 0.0}, {"is_reserved": 0, "type": "electric_scooter", "bike_id": "aa69ad12208b1d3479016b3bbf92e30d", "lat": 38.927693, "lon": -77.02776433333334, "rental_uris": {"android": "https://dc.lft.to/lastmile_qr_scan", "ios": "https://dc.lft.to/lastmile_qr_scan"}, "is_disabled": 0, "fusion_lat": 0.0, "name": "aa69ad12208b1d3479016b3bbf92e30d", "fusion_lon": 0.0}, {"is_reserved": 0, "type": "electric_scooter", "bike_id": "aee33e84da6b538b8caf6a84aa57e952", "lat": 38.9002915, "lon": -77.01186316666667, "rental_uris": {"android": "https://dc.lft.to/lastmile_qr_scan", "ios": "https://dc.lft.to/lastmile_qr_scan"}, "is_disabled": 0, "fusion_lat": 0.0, "name": "aee33e84da6b538b8caf6a84aa57e952", "fusion_lon": 0.0}, {"is_reserved": 0, "type": "electric_scooter", "bike_id": "b9929d0569c9d984d13187309cc3e660", "lat": 38.928431833333335, "lon": -77.05510066666666, "rental_uris": {"android": "https://dc.lft.to/lastmile_qr_scan", "ios": "https://dc.lft.to/lastmile_qr_scan"}, "is_disabled": 0, "fusion_lat": 0.0, "name": "b9929d0569c9d984d13187309cc3e660", "fusion_lon": 0.0},