{"data": {"bikes": [{"name": "b64bc425c8af71e69ec8ef9a45cbc11c", "fusion_lat": 0.0, "type": "electric_scooter", "lat": 38.92620516666667, "is_reserved": 0, "is_disabled": 0, "fusion_lon": 0.0, "bike_id": "b64bc425c8af71e69ec8ef9a45cbc11c", "lon": -77.04199283333334, "rental_uris": {"ios": "https://dc.lft.to/lastmile_qr_scan", "android": "https://dc.lft.to/lastmile_qr_scan"}}, {"name": "2d93cf5c335e6ec5eb8c68040fe8d814", "fusion_lat": 0.0, "type": "electric_scooter", "lat": 38.905143833333334, "is_reserved": 0, "is_disabled": 0, "fusion_lon": 0.0, "bike_id": "2d93cf5c335e6ec5eb8c68040fe8d814", "lon": -77.02600383333333, "rental_uris": {"ios": "https://dc.lft.to/lastmile_qr_scan", "android": "https://dc.lft.to/lastmile_qr_scan"}}, {"name": "54112afba6c84eade3de80aed50ffff8", "fusion_lat": 0.0, "type": "electric_scooter", "lat": 38.906962, "is_reserved": 0, "is_disabled": 0, "fusion_lon": 0.0, "bike_id": "54112afba6c84eade3de80aed50ffff8", "lon": -77.04364566666666, "rental_uris": {"ios": "https://dc.lft.to/lastmile_qr_scan", "android": "https://dc.lft.to/lastmile_qr_scan"}}, {"name": "6fe6be90a230df1f75e52089aa201900", "fusion_lat": 0.0, "type": "electric_scooter", "lat": 38.91118266666667, "is_reserved": 0, "is_disabled": 0, "fusion_lon": 0.0, "bike_id": "6fe6be90a230df1f75e52089aa201900", "lon": -77.02928566666667, "rental_uris": {"ios": "https://dc.lft.to/lastmile_qr_scan", "android": "https://dc.lft.to/lastmile_qr_scan"}}, {"name": "b0cf8d302fbf5b4c1aadade2ee99ff28", "fusion_lat": 0.0, "type": "electric_scooter", "lat": 38.88743516666667, "is_reserved": 0, "is_disabled": 0, "fusion_lon": 0.0, "bike_id": "b0cf8d302fbf5b4c1aadade2ee99ff28", "lon": -77.02128283333333, "rental_uris": {"ios": "https://dc.lft.to/lastmile_qr_scan", "android": "https://dc.lft.to/lastmile_qr_scan"}}, {"name": "54326edb44ac3c4082e867bd605014e4", "fusion_lat": 0.0, "type": "electric_scooter", "lat": 38.916358833333334, "is_reserved": 0, "is_disabled": 0, "fusion_lon": 0.0, "bike_id": "54326edb44ac3c4082e867bd605014e4", "lon": -77.03176416666666, "rental_uris": {"ios": "https://dc.lft.to/lastmile_qr_scan", "android": "https://dc.lft.to/lastmile_qr_scan"}}, {"name": "8fd22fcfdecd66f0fc0d78ec481e5b6b", "fusion_lat": 0.0, "type": "electric_scooter", "lat": 38.9358645, "is_reserved": 0, "is_disabled": 0, "fusion_lon": 0.0, "bike_id": "8fd22fcfdecd66f0fc0d78ec481e5b6b", "lon": -76.99102516666666, "rental_uris": {"ios": "https://dc.lft.to/lastmile_qr_scan", "android": "https://dc.lft.to/lastmile_qr_scan"}}, {"name": "ccb727b5a2d6280541ab7c3aebdf6535", "fusion_lat": 0.0, "type": "electric_scooter", "lat": 38.9117615, "is_reserved": 0, "is_disabled": 0, "fusion_lon": 0.0, "bike_id": "ccb727b5a2d6280541ab7c3aebdf6535", "lon": -77.00138383333334, "rental_uris": {"ios": "https://dc.lft.to/lastmile_qr_scan", "android": "https://dc.lft.to/lastmile_qr_scan"}}, {"name": "b347da43bd86cccd904d8e2c38909326", "fusion_lat": 0.0, "type": "electric_scooter", "lat": 38.89406616666667, "is_reserved": 0, "is_disabled": 0, "fusion_lon": 0.0, "bike_id": "b347da43bd86cccd904d8e2c38909326", "lon": -76.94800033333334, "rental_uris": {"ios": "https://dc.lft.to/lastmile_qr_scan", "android": "https://dc.lft.to/lastmile_qr_scan"}}, {"name": "15ce3b9b27bd863ea53da1c7d2240292", "fusion_lat": 0.0, "type": "electric_scooter", "lat": 38.9053245, "is_reserved": 0, "is_disabled": 0, "fusion_lon": 0.0, "bike_id": "15ce3b9b27bd863ea53da1c7d2240292", "lon": -77.05768833333333, "rental_uris": {"ios": "https://dc.lft.to/lastmile_qr_scan", "android": "https://dc.lft.to/lastmile_qr_scan"}}, {"name": "918993e469537cb72f3438899db00a86", "fusion_lat": 0.0, "type": "electric_scooter", "lat": 38.91928716666666, "is_reserved": 0, "is_disabled": 0, "fusion_lon": 0.0, "bike_id": "918993e469537cb72f3438899db00a86", "lon": -77.034233, "rental_uris": {"ios": "https://dc.lft.to/lastmile_qr_scan", "android": "https://dc.lft.to/lastmile_qr_scan"}}, {"name": "ac105019e99203fde1971f3ec50091c7", "fusion_lat": 0.0, "type": "electric_scooter", "lat": 38.928794833333335, "is_reserved": 0, "is_disabled": 0, "fusion_lon": 0.0, "bike_id": "ac105019e99203fde1971f3ec50091c7", "lon": -77.03345766666666, "rental_uris": {"ios": "https://dc.lft.to/lastmile_qr_scan", "android": "https://dc.lft.to/lastmile_qr_scan"}}, {"name": "7bbb21a23f4a8c166f15a6710fe93017", "fusion_lat": 0.0, "type": "electric_scooter", "lat": 38.9015495, "is_reserved": 0, "is_disabled": 0, "fusion_lon": 0.0, "bike_id": "7bbb21a23f4a8c166f15a6710fe93017", "lon": -76.93058183333333, "rental_uris": {"ios": "https://dc.lft.to/lastmile_qr_scan", "android": "https://dc.lft.to/lastmile_qr_scan"}}, {"name": "4ba4161725efc905fff07694a98c8f09", "fusion_lat": 0.0, "type": "electric_scooter", "lat": 38.92525916666666, "is_reserved": 0, "is_disabled": 0, "fusion_lon": 0.0, "bike_id": "4ba4161725efc905fff07694a98c8f09", "lon": -77.05553966666666, "rental_uris": {"ios": "https://dc.lft.to/lastmile_qr_scan", "android": "https://dc.lft.to/lastmile_qr_scan"}}, {"name": "52da939b8283d705e7e4d20e372e0ce0", "fusion_lat": 0.0, "type": "electric_scooter", "lat": 38.857104, "is_reserved": 0, "is_disabled": 0, "fusion_lon": 0.0, "bike_id": "52da939b8283d705e7e4d20e372e0ce0", "lon": -76.98128533333333, "rental_uris": {"ios": "https://dc.lft.to/lastmile_qr_scan", "android": "https://dc.lft.to/lastmile_qr_scan"}}, {"name": "59758ce162208b5de59e53e3776808da", "fusion_lat": 0.0, "type": "electric_bike", "lat": 38.8381045, "is_reserved": 0, "is_disabled": 0, "fusion_lon": 0.0, "bike_id": "59758ce162208b5de59e53e3776808da", "lon": -77.09518966666667, "rental_uris": {"ios": "https://dc.lft.to/lastmile_qr_scan", "android": "https://dc.lft.to/lastmile_qr_scan"}}, {"name": "67e8ef4347a365dd31bef9cc7cf0039a", "fusion_lat": 0.0, "type": "electric_scooter", "lat": 38.92347816666667, "is_reserved": 0, "is_disabled": 0, "fusion_lon": 0.0, "bike_id": "67e8ef4347a365dd31bef9cc7cf0039a", "lon": -77.0353665, "rental_uris": {"ios": "https://dc.lft.to/lastmile_qr_scan", "android": "https://dc.lft.to/lastmile_qr_scan"}}, {"name": "fb2e2b6ac73f37555fc4f5ed2140aada", "fusion_lat": 0.0, "type": "electric_scooter", "lat": 38.884305166666664, "is_reserved": 0, "is_disabled": 0, "fusion_lon": 0.0, "bike_id": "fb2e2b6ac73f37555fc4f5ed2140aada", "lon": -76.95754083333334, "rental_uris": {"ios": "https://dc.lft.to/lastmile_qr_scan", "android": "https://dc.lft.to/lastmile_qr_scan"}}, {"name": "db5d7720dee38320eb6ee4f15e543ebb", "fusion_lat": 0.0, "type": "electric_scooter", "lat": 38.89900133333333, "is_reserved": 0, "is_disabled": 0, "fusion_lon": 0.0, "bike_id": "db5d7720dee38320eb6ee4f15e543ebb", "lon": -77.03933716666667, "rental_uris": {"ios": "https://dc.lft.to/lastmile_qr_scan", "android": "https://dc.lft.to/lastmile_qr_scan"}}, {"name": "d8075553eb076b674f7d912cd3c4e501", "fusion_lat": 0.0, "type": "electric_scooter", "lat": 38.8985225, "is_reserved": 0, "is_disabled": 0, "fusion_lon": 0.0, "bike_id": "d8075553eb076b674f7d912cd3c4e501", "lon": -77.01612, "rental_uris": {"ios": "https://dc.lft.to/lastmile_qr_scan", "android": "https://dc.lft.to/lastmile_qr_scan"}}, {"name": "f5249c15cafc5a766ccfb41a64d66811", "fusion_lat": 0.0, "type": "electric_scooter", "lat": 38.910166, "is_reserved": 0, "is_disabled": 0, "fusion_lon": 0.0, "bike_id": "f5249c15cafc5a766ccfb41a64d66811", "lon": -77.02779033333333, "rental_uris": {"ios": "https://dc.lft.to/lastmile_qr_scan", "android": "https://dc.lft.to/lastmile_qr_scan"}}, {"name": "abd9a1fb551e93857e6b6fb4767dc8bf", "fusion_lat": 0.0, "type": "electric_scooter", "lat": 38.911866833333335, "is_reserved": 0, "is_disabled": 0, "fusion_lon": 0.0, "bike_id": "abd9a1fb551e93857e6b6fb4767dc8bf", "lon": -77.031413, "rental_uris": {"ios": "https://dc.lft.to/lastmile_qr_scan", "android": "https://dc.lft.to/lastmile_qr_scan"}}, {"name": "6d52e217bc3ab65f66165c4bb1ab0a85", "fusion_lat": 0.0, "type": "electric_scooter", "lat": 38.911351833333335, "is_reserved": 0, "is_disabled": 0, "fusion_lon": 0.0, "bike_id": "6d52e217bc3ab65f66165c4bb1ab0a85", "lon": -77.03660333333333, "rental_uris": {"ios": "https://dc.lft.to/lastmile_qr_scan", "android": "https://dc.lft.to/lastmile_qr_scan"}}, {"name": "6d8e19a591999a8cd85015e7ce852cc9", "fusion_lat": 0.0, "type": "electric_scooter", "lat": 38.86359616666667, "is_reserved": 0, "is_disabled": 0, "fusion_lon": 0.0, "bike_id": "6d8e19a591999a8cd85015e7ce852cc9", "lon": -76.9907295, "rental_uris": {"ios": "https://dc.lft.to/lastmile_qr_scan", "android": "https://dc.lft.to/lastmile_qr_scan"}}, {"name": "2a7abfe5a8eb30068cb446a58ca35bec", "fusion_lat": 0.0, "type": "electric_scooter", "lat": 38.89989966666667, "is_reserved": 0, "is_disabled": 0, "fusion_lon": 0.0, "bike_id": "2a7abfe5a8eb30068cb446a58ca35bec", "lon": -77.05511716666666, "rental_uris": {"ios": "https://dc.lft.to/lastmile_qr_scan", "android": "https://dc.lft.to/lastmile_qr_scan"}}, {"name": "921cc612faf188fe51d4e0fca8f8dd2f", "fusion_lat": 0.0, "type": "electric_scooter", "lat": 38.880555333333334, "is_reserved": 0, "is_disabled": 0, "fusion_lon": 0.0, "bike_id": "921cc612faf188fe51d4e0fca8f8dd2f", "lon": -77.01328783333334, "rental_uris": {"ios": "https://dc.lft.to/lastmile_qr_scan", "android": "https://dc.lft.to/lastmile_qr_scan"}}, {"name": "bc9ab7998f35876b8f04f9a039acdad0", "fusion_lat": 0.0, "type": "electric_scooter", "lat": 38.92297216666667, "is_reserved": 0, "is_disabled": 0, "fusion_lon": 0.0, "bike_id": "bc9ab7998f35876b8f04f9a039acdad0", "lon": -77.0420635, "rental_uris": {"ios": "https://dc.lft.to/lastmile_qr_scan", "android": "https://dc.lft.to/lastmile_qr_scan"}}, {"name": "a1df943c0c929f1c85b05880d97bd305", "fusion_lat": 0.0, "type": "electric_scooter", "lat": 38.912609333333336, "is_reserved": 0, "is_disabled": 0, "fusion_lon": 0.0, "bike_id": "a1df943c0c929f1c85b05880d97bd305", "lon": -77.03861333333333, "rental_uris": {"ios": "https://dc.lft.to/lastmile_qr_scan", "android": "https://dc.lft.to/lastmile_qr_scan"}}, {"name": "3e727508c4dd8f89734076d7b04a3b8c", "fusion_lat": 0.0, "type": "electric_scooter", "lat": 38.8983205, "is_reserved": 0, "is_disabled": 0, "fusion_lon": 0.0, "bike_id": "3e727508c4dd8f89734076d7b04a3b8c", "lon": -76.98779533333334, "rental_uris": {"ios": "https://dc.lft.to/lastmile_qr_scan", "android": "https://dc.lft.to/lastmile_qr_scan"}}, {"name": "c88ce2950c8e9395c623af1529242d71", "fusion_lat": 0.0, "type": "electric_scooter", "lat": 38.9421075, "is_reserved": 0, "is_disabled": 0, "fusion_lon": 0.0, "bike_id": "c88ce2950c8e9395c623af1529242d71", "lon": -77.03584333333333, "rental_uris": {"ios": "https://dc.lft.to/lastmile_qr_scan", "android": "https://dc.lft.to/lastmile_qr_scan"}}, {"name": "4816bfc4284326d8a0ca77ef27ec8f10", "fusion_lat": 0.0, "type": "electric_scooter", "lat": 38.8960675, "is_reserved": 0, "is_disabled": 0, "fusion_lon": 0.0, "bike_id": "4816bfc4284326d8a0ca77ef27ec8f10", "lon": -77.02686466666667, "rental_uris": {"ios": "https://dc.lft.to/lastmile_qr_scan", "android": "https://dc.lft.to/lastmile_qr_scan"}}, {"name": "67eb229c41b5ed58b5b37f21c4b8b187", "fusion_lat": 0.0, "type": "electric_scooter", "lat": 38.89802683333333, "is_reserved": 0, "is_disabled": 0, "fusion_lon": 0.0, "bike_id": "67eb229c41b5ed58b5b37f21c4b8b187", "lon": -76.99164983333333, "rental_uris": {"ios": "https://dc.lft.to/lastmile_qr_scan", "android": "https://dc.lft.to/lastmile_qr_scan"}}, {"name": "9ac0346a78472efc08604c0f2dab10a1", "fusion_lat": 0.0, "type": "electric_scooter", "lat": 38.904203, "is_reserved": 0, "is_disabled": 0, "fusion_lon": 0.0, "bike_id": "9ac0346a78472efc08604c0f2dab10a1", "lon": -77.00597616666667, "rental_uris": {"ios": "https://dc.lft.to/lastmile_qr_scan", "android": "https://dc.lft.to/lastmile_qr_scan"}}, {"name": "92f34b8eead60ccce6e53f1c946f8907", "fusion_lat": 0.0, "type": "electric_scooter", "lat": 38.90119116666666, "is_reserved": 0, "is_disabled": 0, "fusion_lon": 0.0, "bike_id": "92f34b8eead60ccce6e53f1c946f8907", "lon": -77.0497015, "rental_uris": {"ios": "https://dc.lft.to/lastmile_qr_scan", "android": "https://dc.lft.to/lastmile_qr_scan"}}, {"name": "3b21a032c099e916b7d80021e656c5f2", "fusion_lat": 0.0, "type": "electric_scooter", "lat": 38.90659633333333, "is_reserved": 0, "is_disabled": 0, "fusion_lon": 0.0, "bike_id": "3b21a032c099e916b7d80021e656c5f2", "lon": -77.05326516666666, "rental_uris": {"ios": "https://dc.lft.to/lastmile_qr_scan", "android": "https://dc.lft.to/lastmile_qr_scan"}}, {"name": "75b5cca949c4ffb2a4aea1b09d940a1d", "fusion_lat": 0.0, "type": "electric_scooter", "lat": 38.903579666666666, "is_reserved": 0, "is_disabled": 0, "fusion_lon": 0.0, "bike_id": "75b5cca949c4ffb2a4aea1b09d940a1d", "lon": -77.0356215, "rental_uris": {"ios": "https://dc.lft.to/lastmile_qr_scan", "android": "https://dc.lft.to/lastmile_qr_scan"}}, {"name": "bb05db787ade5a24377fb36c842ad641", "fusion_lat": 0.0, "type": "electric_scooter", "lat": 38.902603, "is_reserved": 0, "is_disabled": 0, "fusion_lon": 0.0, "bike_id": "bb05db787ade5a24377fb36c842ad641", "lon": -77.02155316666666, "rental_uris": {"ios": "https://dc.lft.to/lastmile_qr_scan", "android": "https://dc.lft.to/lastmile_qr_scan"}}, {"name": "106fe996d0296152e6f109e8a6e13bbd", "fusion_lat": 0.0, "type": "electric_scooter", "lat": 38.904480666666664, "is_reserved": 0, "is_disabled": 0, "fusion_lon": 0.0, "bike_id": "106fe996d0296152e6f109e8a6e13bbd", "lon": -77.03418916666666, "rental_uris": {"ios": "https://dc.lft.to/lastmile_qr_scan", "android": "https://dc.lft.to/lastmile_qr_scan"}}, {"name": "4a1c751e2ab17285ef6a00540585f001", "fusion_lat": 0.0, "type": "electric_scooter", "lat": 38.902445666666665, "is_reserved": 0, "is_disabled": 0, "fusion_lon": 0.0, "bike_id": "4a1c751e2ab17285ef6a00540585f001", "lon": -77.02688766666667, "rental_uris": {"ios": "https://dc.lft.to/lastmile_qr_scan", "android": "https://dc.lft.to/lastmile_qr_scan"}}, {"name": "bc4d197e371f35ab590f54949516b813", "fusion_lat": 0.0, "type": "electric_scooter", "lat": 38.923295333333336, "is_reserved": 0, "is_disabled": 0, "fusion_lon": 0.0, "bike_id": "bc4d197e371f35ab590f54949516b813", "lon": -77.0397035, "rental_uris": {"ios": "https://dc.lft.to/lastmile_qr_scan", "android": "https://dc.lft.to/lastmile_qr_scan"}}, {"name": "e8a298138919ae878ae27aa00930d6dd", "fusion_lat": 0.0, "type": "electric_scooter", "lat": 38.91208666666667, "is_reserved": 0, "is_disabled": 0, "fusion_lon": 0.0, "bike_id": "e8a298138919ae878ae27aa00930d6dd", "lon": -77.036514, "rental_uris": {"ios": "https://dc.lft.to/lastmile_qr_scan", "android": "https://dc.lft.to/lastmile_qr_scan"}}, {"name": "8d39a4830251c0154a0937c141a45006", "fusion_lat": 0.0, "type": "electric_scooter", "lat": 38.906325, "is_reserved": 0, "is_disabled": 0, "fusion_lon": 0.0, "bike_id": "8d39a4830251c0154a0937c141a45006", "lon": -77.0296395, "rental_uris": {"ios": "https://dc.lft.to/lastmile_qr_scan", "android": "https://dc.lft.to/lastmile_qr_scan"}}, {"name": "2ec6577aebc406a5db803ffa2a7dc59d", "fusion_lat": 0.0, "type": "electric_scooter", "lat": 38.924626, "is_reserved": 0, "is_disabled": 0, "fusion_lon": 0.0, "bike_id": "2ec6577aebc406a5db803ffa2a7dc59d", "lon": -77.03637183333333, "rental_uris": {"ios": "https://dc.lft.to/lastmile_qr_scan", "android": "https://dc.lft.to/lastmile_qr_scan"}}, {"name": "d871c6f140277eff40ef7170f3a08889", "fusion_lat": 0.0, "type": "electric_scooter", "lat": 38.928137166666666, "is_reserved": 0, "is_disabled": 0, "fusion_lon": 0.0, "bike_id": "d871c6f140277eff40ef7170f3a08889", "lon": -77.0362925, "rental_uris": {"ios": "https://dc.lft.to/lastmile_qr_scan", "android": "https://dc.lft.to/lastmile_qr_scan"}}, {"name": "8fc74f7b42a05385861101f752f5d287", "fusion_lat": 0.0, "type": "electric_scooter", "lat": 38.87867, "is_reserved": 0, "is_disabled": 0, "fusion_lon": 0.0, "bike_id": "8fc74f7b42a05385861101f752f5d287", "lon": -76.96529033333333, "rental_uris": {"ios": "https://dc.lft.to/lastmile_qr_scan", "android": "https://dc.lft.to/lastmile_qr_scan"}}, {"name": "117de0e39115b67924f6f3c21e8a4960", "fusion_lat": 0.0, "type": "electric_scooter", "lat": 38.89523966666667, "is_reserved": 0, "is_disabled": 0, "fusion_lon": 0.0, "bike_id": "117de0e39115b67924f6f3c21e8a4960", "lon": -76.99213166666667, "rental_uris": {"ios": "https://dc.lft.to/lastmile_qr_scan", "android": "https://dc.lft.to/lastmile_qr_scan"}}, {"name": "7fd716f12ad8ad6c9dd4569b29142906", "fusion_lat": 0.0, "type": "electric_scooter", "lat": 38.9007305, "is_reserved": 0, "is_disabled": 0, "fusion_lon": 0.0, "bike_id": "7fd716f12ad8ad6c9dd4569b29142906", "lon": -77.05013366666667, "rental_uris": {"ios": "https://dc.lft.to/lastmile_qr_scan", "android": "https://dc.lft.to/lastmile_qr_scan"}}, {"name": "2fc980b6d321ee3ae51cd6e660520467", "fusion_lat": 0.0, "type": "electric_scooter", "lat": 38.90346533333334, "is_reserved": 0, "is_disabled": 0, "fusion_lon": 0.0, "bike_id": "2fc980b6d321ee3ae51cd6e660520467", "lon": -77.05417466666667, "rental_uris": {"ios": "https://dc.lft.to/lastmile_qr_scan", "android": "https://dc.lft.to/lastmile_qr_scan"}}, {"name": "1a19ae93d0b8b1f1318d294afa58e29d", "fusion_lat": 0.0, "type": "electric_scooter", "lat": 38.92097783333333, "is_reserved": 0, "is_disabled": 0, "fusion_lon": 0.0, "bike_id": "1a19ae93d0b8b1f1318d294afa58e29d", "lon": -77.04685883333333, "rental_uris": {"ios": "https://dc.lft.to/lastmile_qr_scan", "android": "https://dc.lft.to/lastmile_qr_scan"}}, {"name": "f4adc40062b4891a84389d1c38bb3719", "fusion_lat": 0.0, "type": "electric_scooter", "lat": 38.943135, "is_reserved": 0, "is_disabled": 0, "fusion_lon": 0.0, "bike_id": "f4adc40062b4891a84389d1c38bb3719", "lon": -77.02486066666667, "rental_uris": {"ios": "https://dc.lft.to/lastmile_qr_scan", "android": "https://dc.lft.to/lastmile_qr_scan"}}, {"name": "277e84c6b283570994241eed561316c3", "fusion_lat": 0.0, "type": "electric_scooter", "lat": 38.86249733333333, "is_reserved": 0, "is_disabled": 0, "fusion_lon": 0.0, "bike_id": "277e84c6b283570994241eed561316c3", "lon": -76.995313, "rental_uris": {"ios": "https://dc.lft.to/lastmile_qr_scan", "android": "https://dc.lft.to/lastmile_qr_scan"}}, {"name": "a8892d08624b92a2a90ea4b5b3a7dd5a", "fusion_lat": 0.0, "type": "electric_scooter", "lat": 38.91249783333333, "is_reserved": 0, "is_disabled": 0, "fusion_lon": 0.0, "bike_id": "a8892d08624b92a2a90ea4b5b3a7dd5a", "lon": -77.0383375, "rental_uris": {"ios": "https://dc.lft.to/lastmile_qr_scan", "android": "https://dc.lft.to/lastmile_qr_scan"}}, {"name": "a0c11f1bf6121e4228bdb2e854074711", "fusion_lat": 0.0, "type": "electric_scooter", "lat": 38.88837566666667, "is_reserved": 0, "is_disabled": 0, "fusion_lon": 0.0, "bike_id": "a0c11f1bf6121e4228bdb2e854074711", "lon": -77.04908283333333, "rental_uris": {"ios": "https://dc.lft.to/lastmile_qr_scan", "android": "https://dc.lft.to/lastmile_qr_scan"}}, {"name": "366923368ecf2a53c20f75e217f8a2d5", "fusion_lat": 0.0, "type": "electric_scooter", "lat": 38.90095616666667, "is_reserved": 0, "is_disabled": 0, "fusion_lon": 0.0, "bike_id": "366923368ecf2a53c20f75e217f8a2d5", "lon": -77.05018866666667, "rental_uris": {"ios": "https://dc.lft.to/lastmile_qr_scan", "android": "https://dc.lft.to/lastmile_qr_scan"}}, {"name": "e54582a8c3b3cb3b0f015bff6ab8b88b", "fusion_lat": 0.0, "type": "electric_bike", "lat": 38.9015795, "is_reserved": 0, "is_disabled": 0, "fusion_lon": 0.0, "bike_id": "e54582a8c3b3cb3b0f015bff6ab8b88b", "lon": -77.02287366666667, "rental_uris": {"ios": "https://dc.lft.to/lastmile_qr_scan", "android": "https://dc.lft.to/lastmile_qr_scan"}}, {"name": "c0a399536593b11df6ddf44221397dc2", "fusion_lat": 0.0, "type": "electric_scooter", "lat": 38.91267333333333, "is_reserved": 0, "is_disabled": 0, "fusion_lon": 0.0, "bike_id": "c0a399536593b11df6ddf44221397dc2", "lon": -77.038262, "rental_uris": {"ios": "https://dc.lft.to/lastmile_qr_scan", "android": "https://dc.lft.to/lastmile_qr_scan"}}, {"name": "aad9655c2c8260a3e5cb3de8f1991acf", "fusion_lat": 0.0, "type": "electric_scooter", "lat": 38.92981833333333, "is_reserved": 0, "is_disabled": 0, "fusion_lon": 0.0, "bike_id": "aad9655c2c8260a3e5cb3de8f1991acf", "lon": -77.01451966666667, "rental_uris": {"ios": "https://dc.lft.to/lastmile_qr_scan", "android": "https://dc.lft.to/lastmile_qr_scan"}}, {"name": "82aaab1e7ae58c53f2ce81952f2a1230", "fusion_lat": 0.0, "type": "electric_scooter", "lat": 38.912226833333335, "is_reserved": 0, "is_disabled": 0, "fusion_lon": 0.0, "bike_id": "82aaab1e7ae58c53f2ce81952f2a1230", "lon": -77.03199916666667, "rental_uris": {"ios": "https://dc.lft.to/lastmile_qr_scan", "android": "https://dc.lft.to/lastmile_qr_scan"}}, {"name": "05a26fc2dc774491b7e4b6a864509952", "fusion_lat": 0.0, "type": "electric_scooter", "lat": 38.8958605, "is_reserved": 0, "is_disabled": 0, "fusion_lon": 0.0, "bike_id": "05a26fc2dc774491b7e4b6a864509952", "lon": -76.99355116666666, "rental_uris": {"ios": "https://dc.lft.to/lastmile_qr_scan", "android": "https://dc.lft.to/lastmile_qr_scan"}}, {"name": "eff4717cd013ec58b3d7ca13181669dd", "fusion_lat": 0.0, "type": "electric_bike", "lat": 38.839888, "is_reserved": 0, "is_disabled": 0, "fusion_lon": 0.0, "bike_id": "eff4717cd013ec58b3d7ca13181669dd", "lon": -77.0056805, "rental_uris": {"ios": "https://dc.lft.to/lastmile_qr_scan", "android": "https://dc.lft.to/lastmile_qr_scan"}}, {"name": "dfbdbb2658b037c40e237535530ecc89", "fusion_lat": 0.0, "type": "electric_scooter", "lat": 38.89219533333333, "is_reserved": 0, "is_disabled": 0, "fusion_lon": 0.0, "bike_id": "dfbdbb2658b037c40e237535530ecc89", "lon": -77.02228866666667, "rental_uris": {"ios": "https://dc.lft.to/lastmile_qr_scan", "android": "https://dc.lft.to/lastmile_qr_scan"}}, {"name": "4792172ef0c90f35b768b2e2edab1208", "fusion_lat": 0.0, "type": "electric_bike", "lat": 38.86269883333333, "is_reserved": 0, "is_disabled": 0, "fusion_lon": 0.0, "bike_id": "4792172ef0c90f35b768b2e2edab1208", "lon": -77.05983333333333, "rental_uris": {"ios": "https://dc.lft.to/lastmile_qr_scan", "android": "https://dc.lft.to/lastmile_qr_scan"}}, {"name": "5a8328c0a26f44b1924b101a5c652f67", "fusion_lat": 0.0, "type": "electric_scooter", "lat": 38.91730716666667, "is_reserved": 0, "is_disabled": 0, "fusion_lon": 0.0, "bike_id": "5a8328c0a26f44b1924b101a5c652f67", "lon": -77.03840716666667, "rental_uris": {"ios": "https://dc.lft.to/lastmile_qr_scan", "android": "https://dc.lft.to/lastmile_qr_scan"}}, {"name": "03bda752e956fa2b7b59aed9f4e8b875", "fusion_lat": 0.0, "type": "electric_scooter", "lat": 38.90067, "is_reserved": 0, "is_disabled": 0, "fusion_lon": 0.0, "bike_id": "03bda752e956fa2b7b59aed9f4e8b875", "lon": -77.04878266666667, "rental_uris": {"ios": "https://dc.lft.to/lastmile_qr_scan", "android": "https://dc.lft.to/lastmile_qr_scan"}}, {"name": "a2f4cf5573c8b616dc668920dfe84d99", "fusion_lat": 0.0, "type": "electric_scooter", "lat": 38.915752499999996, "is_reserved": 0, "is_disabled": 0, "fusion_lon": 0.0, "bike_id": "a2f4cf5573c8b616dc668920dfe84d99", "lon": -77.03191083333333, "rental_uris": {"ios": "https://dc.lft.to/lastmile_qr_scan", "android": "https://dc.lft.to/lastmile_qr_scan"}}, {"name": "1588e3aadee22291649d83b0016291c6", "fusion_lat": 0.0, "type": "electric_scooter", "lat": 38.88507633333333, "is_reserved": 0, "is_disabled": 0, "fusion_lon": 0.0, "bike_id": "1588e3aadee22291649d83b0016291c6", "lon": -77.021965, "rental_uris": {"ios": "https://dc.lft.to/lastmile_qr_scan", "android": "https://dc.lft.to/lastmile_qr_scan"}}, {"name": "c0c3f23439b90735ebc2e3604e2c6ded", "fusion_lat": 0.0, "type": "electric_scooter", "lat": 38.88050233333333, "is_reserved": 0, "is_disabled": 0, "fusion_lon": 0.0, "bike_id": "c0c3f23439b90735ebc2e3604e2c6ded", "lon": -76.95987916666667, "rental_uris": {"ios": "https://dc.lft.to/lastmile_qr_scan", "android": "https://dc.lft.to/lastmile_qr_scan"}}, {"name": "52afc988f89d70169cacda7f7f3d0010", "fusion_lat": 0.0, "type": "electric_scooter", "lat": 38.91953816666667, "is_reserved": 0, "is_disabled": 0, "fusion_lon": 0.0, "bike_id": "52afc988f89d70169cacda7f7f3d0010", "lon": -77.01396616666666, "rental_uris": {"ios": "https://dc.lft.to/lastmile_qr_scan", "android": "https://dc.lft.to/lastmile_qr_scan"}}, {"name": "1531c503bda46c847d0cc1195dd7122d", "fusion_lat": 0.0, "type": "electric_scooter", "lat": 38.93950666666667, "is_reserved": 0, "is_disabled": 0, "fusion_lon": 0.0, "bike_id": "1531c503bda46c847d0cc1195dd7122d", "lon": -77.032622, "rental_uris": {"ios": "https://dc.lft.to/lastmile_qr_scan", "android": "https://dc.lft.to/lastmile_qr_scan"}}, {"name": "49a309b433108660dbc59a0051824096", "fusion_lat": 0.0, "type": "electric_bike", "lat": 38.865958666666664, "is_reserved": 0, "is_disabled": 0, "fusion_lon": 0.0, "bike_id": "49a309b433108660dbc59a0051824096", "lon": -76.93227933333333, "rental_uris": {"ios": "https://dc.lft.to/lastmile_qr_scan", "android": "https://dc.lft.to/lastmile_qr_scan"}}, {"name": "98e38b8d867b7985a5f587fb1180aede", "fusion_lat": 0.0, "type": "electric_bike", "lat": 38.984528166666664, "is_reserved": 0, "is_disabled": 0, "fusion_lon": 0.0, "bike_id": "98e38b8d867b7985a5f587fb1180aede", "lon": -76.95519633333333, "rental_uris": {"ios": "https://dc.lft.to/lastmile_qr_scan", "android": "https://dc.lft.to/lastmile_qr_scan"}}, {"name": "69f3f2286eb7f1ea1ad632cff61846cd", "fusion_lat": 0.0, "type": "electric_scooter", "lat": 38.89551633333333, "is_reserved": 0, "is_disabled": 0, "fusion_lon": 0.0, "bike_id": "69f3f2286eb7f1ea1ad632cff61846cd", "lon": -76.98374683333333, "rental_uris": {"ios": "https://dc.lft.to/lastmile_qr_scan", "android": "https://dc.lft.to/lastmile_qr_scan"}}, {"name": "24e44d222f7dfe95234403520283232e", "fusion_lat": 0.0, "type": "electric_scooter", "lat": 38.8779015, "is_reserved": 0, "is_disabled": 0, "fusion_lon": 0.0, "bike_id": "24e44d222f7dfe95234403520283232e", "lon": -76.994126, "rental_uris": {"ios": "https://dc.lft.to/lastmile_qr_scan", "android": "https://dc.lft.to/lastmile_qr_scan"}}, {"name": "9a052bc6cbd99b54f44bbe2c420e4450", "fusion_lat": 0.0, "type": "electric_scooter", "lat": 38.93947466666667, "is_reserved": 0, "is_disabled": 0, "fusion_lon": 0.0, "bike_id": "9a052bc6cbd99b54f44bbe2c420e4450", "lon": -77.03263683333333, "rental_uris": {"ios": "https://dc.lft.to/lastmile_qr_scan", "android": "https://dc.lft.to/lastmile_qr_scan"}}, {"name": "1e9ef966d9413af6c0281599b7772133", "fusion_lat": 0.0, "type": "electric_bike", "lat": 38.85220483333333, "is_reserved": 0, "is_disabled": 0, "fusion_lon": 0.0, "bike_id": "1e9ef966d9413af6c0281599b7772133", "lon": -77.12957883333333, "rental_uris": {"ios": "https://dc.lft.to/lastmile_qr_scan", "android": "https://dc.lft.to/lastmile_qr_scan"}}, {"name": "00f417a237b9c5a37f8a1de99890dfbb", "fusion_lat": 0.0, "type": "electric_bike", "lat": 38.89567066666667, "is_reserved": 0, "is_disabled": 0, "fusion_lon": 0.0, "bike_id": "00f417a237b9c5a37f8a1de99890dfbb", "lon": -77.127376, "rental_uris": {"ios": "https://dc.lft.to/lastmile_qr_scan", "android": "https://dc.lft.to/lastmile_qr_scan"}}, {"name": "0e4554580a9de3aeaa69d6d390567b33", "fusion_lat": 0.0, "type": "electric_scooter", "lat": 38.9024215, "is_reserved": 0, "is_disabled": 0, "fusion_lon": 0.0, "bike_id": "0e4554580a9de3aeaa69d6d390567b33", "lon": -77.026904, "rental_uris": {"ios": "https://dc.lft.to/lastmile_qr_scan", "android": "https://dc.lft.to/lastmile_qr_scan"}}, {"name": "0b667159fe15ef694c7d594fbff57d1f", "fusion_lat": 0.0, "type": "electric_scooter", "lat": 38.896490166666666, "is_reserved": 0, "is_disabled": 0, "fusion_lon": 0.0, "bike_id": "0b667159fe15ef694c7d594fbff57d1f", "lon": -77.0464005, "rental_uris": {"ios": "https://dc.lft.to/lastmile_qr_scan", "android": "https://dc.lft.to/lastmile_qr_scan"}}, {"name": "82e78391cca76e8ee8e7e744a27e3333", "fusion_lat": 0.0, "type": "electric_scooter", "lat": 38.92385483333333, "is_reserved": 0, "is_disabled": 0, "fusion_lon": 0.0, "bike_id": "82e78391cca76e8ee8e7e744a27e3333", "lon": -77.030979, "rental_uris": {"ios": "https://dc.lft.to/lastmile_qr_scan", "android": "https://dc.lft.to/lastmile_qr_scan"}}, {"name": "a77f65b6f48c9a370ba33c8e775cfb32", "fusion_lat": 0.0, "type": "electric_scooter", "lat": 38.876467166666664, "is_reserved": 0, "is_disabled": 0, "fusion_lon": 0.0, "bike_id": "a77f65b6f48c9a370ba33c8e775cfb32", "lon": -76.96506216666667, "rental_uris": {"ios": "https://dc.lft.to/lastmile_qr_scan", "android": "https://dc.lft.to/lastmile_qr_scan"}}, {"name": "81159bff73dcc89ed9556ab0add18292", "fusion_lat": 0.0, "type": "electric_scooter", "lat": 38.9097105, "is_reserved": 0, "is_disabled": 0, "fusion_lon": 0.0, "bike_id": "81159bff73dcc89ed9556ab0add18292", "lon": -77.03675866666667, "rental_uris": {"ios": "https://dc.lft.to/lastmile_qr_scan", "android": "https://dc.lft.to/lastmile_qr_scan"}}, {"name": "9a0ad2ec136483cc0bff0af454f3def3", "fusion_lat": 0.0, "type": "electric_bike", "lat": 38.955438, "is_reserved": 0, "is_disabled": 0, "fusion_lon": 0.0, "bike_id": "9a0ad2ec136483cc0bff0af454f3def3", "lon": -77.01616366666667, "rental_uris": {"ios": "https://dc.lft.to/lastmile_qr_scan", "android": "https://dc.lft.to/lastmile_qr_scan"}}, {"name": "f5cdf4e43facdb0814ec6c3e34c3bf4a", "fusion_lat": 0.0, "type": "electric_scooter", "lat": 38.93580466666667, "is_reserved": 0, "is_disabled": 0, "fusion_lon": 0.0, "bike_id": "f5cdf4e43facdb0814ec6c3e34c3bf4a", "lon": -77.02746916666666, "rental_uris": {"ios": "https://dc.lft.to/lastmile_qr_scan", "android": "https://dc.lft.to/lastmile_qr_scan"}}, {"name": "7ab7d7e40c3ffe52bd015d4d9db27582", "fusion_lat": 0.0, "type": "electric_bike", "lat": 39.10565116666667, "is_reserved": 0, "is_disabled": 0, "fusion_lon": 0.0, "bike_id": "7ab7d7e40c3ffe52bd015d4d9db27582", "lon": -77.15265766666667, "rental_uris": {"ios": "https://dc.lft.to/lastmile_qr_scan", "android": "https://dc.lft.to/lastmile_qr_scan"}}, {"name": "082c70bbe5f20eebf1230f43d8dd549b", "fusion_lat": 0.0, "type": "electric_scooter", "lat": 38.90572483333333, "is_reserved": 0, "is_disabled": 0, "fusion_lon": 0.0, "bike_id": "082c70bbe5f20eebf1230f43d8dd549b", "lon": -77.02957133333334, "rental_uris": {"ios": "https://dc.lft.to/lastmile_qr_scan", "android": "https://dc.lft.to/lastmile_qr_scan"}}, {"name": "e2388ebbad5af0ee7b53d18d92618238", "fusion_lat": 0.0, "type": "electric_scooter", "lat": 38.911916833333336, "is_reserved": 0, "is_disabled": 0, "fusion_lon": 0.0, "bike_id": "e2388ebbad5af0ee7b53d18d92618238", "lon": -77.04494283333334, "rental_uris": {"ios": "https://dc.lft.to/lastmile_qr_scan", "android": "https://dc.lft.to/lastmile_qr_scan"}}, {"name": "41ade5ed8c64b3a5c846cf6ef6d7b8b1", "fusion_lat": 0.0, "type": "electric_scooter", "lat": 38.89603833333334, "is_reserved": 0, "is_disabled": 0, "fusion_lon": 0.0, "bike_id": "41ade5ed8c64b3a5c846cf6ef6d7b8b1", "lon": -77.041156, "rental_uris": {"ios": "https://dc.lft.to/lastmile_qr_scan", "android": "https://dc.lft.to/lastmile_qr_scan"}}, {"name": "560b50d3f599d0fef468bb66c204e01d", "fusion_lat": 0.0, "type": "electric_scooter", "lat": 38.92945616666667, "is_reserved": 0, "is_disabled": 0, "fusion_lon": 0.0, "bike_id": "560b50d3f599d0fef468bb66c204e01d", "lon": -76.99746683333333, "rental_uris": {"ios": "https://dc.lft.to/lastmile_qr_scan", "android": "https://dc.lft.to/lastmile_qr_scan"}}, {"name": "32f0358784fed928a20165ca3f6e3f1b", "fusion_lat": 0.0, "type": "electric_scooter", "lat": 38.931659, "is_reserved": 0, "is_disabled": 0, "fusion_lon": 0.0, "bike_id": "32f0358784fed928a20165ca3f6e3f1b", "lon": -77.02349216666667, "rental_uris": {"ios": "https://dc.lft.to/lastmile_qr_scan", "android": "https://dc.lft.to/lastmile_qr_scan"}}, {"name": "d91c25589c827758201eb8d8400edad0", "fusion_lat": 0.0, "type": "electric_scooter", "lat": 38.892289833333336, "is_reserved": 0, "is_disabled": 0, "fusion_lon": 0.0, "bike_id": "d91c25589c827758201eb8d8400edad0", "lon": -77.050075, "rental_uris": {"ios": "https://dc.lft.to/lastmile_qr_scan", "android": "https://dc.lft.to/lastmile_qr_scan"}}, {"name": "2b8c7209aae01eb372a2c926df3eaabb", "fusion_lat": 0.0, "type": "electric_scooter", "lat": 38.924211166666666, "is_reserved": 0, "is_disabled": 0, "fusion_lon": 0.0, "bike_id": "2b8c7209aae01eb372a2c926df3eaabb", "lon": -77.01949366666666, "rental_uris": {"ios": "https://dc.lft.to/lastmile_qr_scan", "android": "https://dc.lft.to/lastmile_qr_scan"}}, {"name": "93fe54e1f6e964535fd4ca0ecc158c6e", "fusion_lat": 0.0, "type": "electric_bike", "lat": 38.911017333333334, "is_reserved": 0, "is_disabled": 0, "fusion_lon": 0.0, "bike_id": "93fe54e1f6e964535fd4ca0ecc158c6e", "lon": -77.00496866666667, "rental_uris": {"ios": "https://dc.lft.to/lastmile_qr_scan", "android": "https://dc.lft.to/lastmile_qr_scan"}}, {"name": "fe24839348a35fcbba5038fb0cb8e384", "fusion_lat": 0.0, "type": "electric_scooter", "lat": 38.91815716666667, "is_reserved": 0, "is_disabled": 0, "fusion_lon": 0.0, "bike_id": "fe24839348a35fcbba5038fb0cb8e384", "lon": -77.04007983333334, "rental_uris": {"ios": "https://dc.lft.to/lastmile_qr_scan", "android": "https://dc.lft.to/lastmile_qr_scan"}}, {"name": "05937c477fe0e15caddbd6d2add7e328", "fusion_lat": 0.0, "type": "electric_scooter", "lat": 38.87754366666667, "is_reserved": 0, "is_disabled": 0, "fusion_lon": 0.0, "bike_id": "05937c477fe0e15caddbd6d2add7e328", "lon": -77.01999866666667, "rental_uris": {"ios": "https://dc.lft.to/lastmile_qr_scan", "android": "https://dc.lft.to/lastmile_qr_scan"}}, {"name": "cf013094382abc198eb595091fba8f79", "fusion_lat": 0.0, "type": "electric_scooter", "lat": 38.93616566666667, "is_reserved": 0, "is_disabled": 0, "fusion_lon": 0.0, "bike_id": "cf013094382abc198eb595091fba8f79", "lon": -77.032109, "rental_uris": {"ios": "https://dc.lft.to/lastmile_qr_scan", "android": "https://dc.lft.to/lastmile_qr_scan"}}, {"name": "c0f49de84d0ad570de9305057202e822", "fusion_lat": 0.0, "type": "electric_scooter", "lat": 38.92487233333333, "is_reserved": 0, "is_disabled": 0, "fusion_lon": 0.0, "bike_id": "c0f49de84d0ad570de9305057202e822", "lon": -77.02841316666667, "rental_uris": {"ios": "https://dc.lft.to/lastmile_qr_scan", "android": "https://dc.lft.to/lastmile_qr_scan"}}, {"name": "26dae9aa7deb5dba4c05dfeedddbb7c9", "fusion_lat": 0.0, "type": "electric_scooter", "lat": 38.90145833333333, "is_reserved": 0, "is_disabled": 0, "fusion_lon": 0.0, "bike_id": "26dae9aa7deb5dba4c05dfeedddbb7c9", "lon": -77.00069483333333, "rental_uris": {"ios": "https://dc.lft.to/lastmile_qr_scan", "android": "https://dc.lft.to/lastmile_qr_scan"}}, {"name": "305a57b838dec9e57fd5d4c738cfd0d2", "fusion_lat": 0.0, "type": "electric_scooter", "lat": 38.897213, "is_reserved": 0, "is_disabled": 0, "fusion_lon": 0.0, "bike_id": "305a57b838dec9e57fd5d4c738cfd0d2", "lon": -77.03264116666666, "rental_uris": {"ios": "https://dc.lft.to/lastmile_qr_scan", "android": "https://dc.lft.to/lastmile_qr_scan"}}, {"name": "c2eba392fbe19163b9d9be663dc1fa1e", "fusion_lat": 0.0, "type": "electric_scooter", "lat": 38.91871866666666, "is_reserved": 0, "is_disabled": 0, "fusion_lon": 0.0, "bike_id": "c2eba392fbe19163b9d9be663dc1fa1e", "lon": -77.04344466666667, "rental_uris": {"ios": "https://dc.lft.to/lastmile_qr_scan", "android": "https://dc.lft.to/lastmile_qr_scan"}}, {"name": "74ca1970d6f16bcc677e7be3fc88e1f5", "fusion_lat": 0.0, "type": "electric_scooter", "lat": 38.91502083333334, "is_reserved": 0, "is_disabled": 0, "fusion_lon": 0.0, "bike_id": "74ca1970d6f16bcc677e7be3fc88e1f5", "lon": -77.03256766666667, "rental_uris": {"ios": "https://dc.lft.to/lastmile_qr_scan", "android": "https://dc.lft.to/lastmile_qr_scan"}}, {"name": "be63a6d10e6d36259d39163e766f3837", "fusion_lat": 0.0, "type": "electric_scooter", "lat": 38.918162833333334, "is_reserved": 0, "is_disabled": 0, "fusion_lon": 0.0, "bike_id": "be63a6d10e6d36259d39163e766f3837", "lon": -77.03201583333333, "rental_uris": {"ios": "https://dc.lft.to/lastmile_qr_scan", "android": "https://dc.lft.to/lastmile_qr_scan"}}, {"name": "0d626803f7dcbd72ed8785f23a36c477", "fusion_lat": 0.0, "type": "electric_bike", "lat": 38.9686305, "is_reserved": 0, "is_disabled": 0, "fusion_lon": 0.0, "bike_id": "0d626803f7dcbd72ed8785f23a36c477", "lon": -77.033381, "rental_uris": {"ios": "https://dc.lft.to/lastmile_qr_scan", "android": "https://dc.lft.to/lastmile_qr_scan"}}, {"name": "7cfe9940cb6316e8666cf5f4a5542f96", "fusion_lat": 0.0, "type": "electric_scooter", "lat": 38.89578783333333, "is_reserved": 0, "is_disabled": 0, "fusion_lon": 0.0, "bike_id": "7cfe9940cb6316e8666cf5f4a5542f96", "lon": -76.94883816666666, "rental_uris": {"ios": "https://dc.lft.to/lastmile_qr_scan", "android": "https://dc.lft.to/lastmile_qr_scan"}}, {"name": "9c8f0be80f90881fdffcbc419be30828", "fusion_lat": 0.0, "type": "electric_scooter", "lat": 38.90075916666667, "is_reserved": 0, "is_disabled": 0, "fusion_lon": 0.0, "bike_id": "9c8f0be80f90881fdffcbc419be30828", "lon": -77.05014883333334, "rental_uris": {"ios": "https://dc.lft.to/lastmile_qr_scan", "android": "https://dc.lft.to/lastmile_qr_scan"}}, {"name": "8c78548da86b0340ffe88c0c0b3b0d10", "fusion_lat": 0.0, "type": "electric_scooter", "lat": 38.905788666666666, "is_reserved": 0, "is_disabled": 0, "fusion_lon": 0.0, "bike_id": "8c78548da86b0340ffe88c0c0b3b0d10", "lon": -77.03267666666666, "rental_uris": {"ios": "https://dc.lft.to/lastmile_qr_scan", "android": "https://dc.lft.to/lastmile_qr_scan"}}, {"name": "1f83565c035f54f01622c8d5ddc4cd17", "fusion_lat": 0.0, "type": "electric_scooter", "lat": 38.899614, "is_reserved": 0, "is_disabled": 0, "fusion_lon": 0.0, "bike_id": "1f83565c035f54f01622c8d5ddc4cd17", "lon": -77.03118166666667, "rental_uris": {"ios": "https://dc.lft.to/lastmile_qr_scan", "android": "https://dc.lft.to/lastmile_qr_scan"}}, {"name": "88869b269fe688967b5d1fb036732e65", "fusion_lat": 0.0, "type": "electric_scooter", "lat": 38.91119166666667, "is_reserved": 0, "is_disabled": 0, "fusion_lon": 0.0, "bike_id": "88869b269fe688967b5d1fb036732e65", "lon": -77.02414316666666, "rental_uris": {"ios": "https://dc.lft.to/lastmile_qr_scan", "android": "https://dc.lft.to/lastmile_qr_scan"}}, {"name": "3d11dca583725c8d67800a2cdeaf5557", "fusion_lat": 0.0, "type": "electric_scooter", "lat": 38.92243416666667, "is_reserved": 0, "is_disabled": 0, "fusion_lon": 0.0, "bike_id": "3d11dca583725c8d67800a2cdeaf5557", "lon": -77.03665033333333, "rental_uris": {"ios": "https://dc.lft.to/lastmile_qr_scan", "android": "https://dc.lft.to/lastmile_qr_scan"}}, {"name": "5d49a7a83ebc07e0023a7c8fb6c683e6", "fusion_lat": 0.0, "type": "electric_scooter", "lat": 38.915747333333336, "is_reserved": 0, "is_disabled": 0, "fusion_lon": 0.0, "bike_id": "5d49a7a83ebc07e0023a7c8fb6c683e6", "lon": -77.04671483333334, "rental_uris": {"ios": "https://dc.lft.to/lastmile_qr_scan", "android": "https://dc.lft.to/lastmile_qr_scan"}}, {"name": "c513b9bd35224413a9a36bc0d1f73090", "fusion_lat": 0.0, "type": "electric_scooter", "lat": 38.936051166666665, "is_reserved": 0, "is_disabled": 0, "fusion_lon": 0.0, "bike_id": "c513b9bd35224413a9a36bc0d1f73090", "lon": -77.05864483333333, "rental_uris": {"ios": "https://dc.lft.to/lastmile_qr_scan", "android": "https://dc.lft.to/lastmile_qr_scan"}}, {"name": "7e93724bd99931081ccb4f530c39086c", "fusion_lat": 0.0, "type": "electric_scooter", "lat": 38.93310983333333, "is_reserved": 0, "is_disabled": 0, "fusion_lon": 0.0, "bike_id": "7e93724bd99931081ccb4f530c39086c", "lon": -77.03764366666667, "rental_uris": {"ios": "https://dc.lft.to/lastmile_qr_scan", "android": "https://dc.lft.to/lastmile_qr_scan"}}, {"name": "f5b7b5a16cb7f13da118a66637b04440", "fusion_lat": 0.0, "type": "electric_scooter", "lat": 38.910078, "is_reserved": 0, "is_disabled": 0, "fusion_lon": 0.0, "bike_id": "f5b7b5a16cb7f13da118a66637b04440", "lon": -77.04423016666667, "rental_uris": {"ios": "https://dc.lft.to/lastmile_qr_scan", "android": "https://dc.lft.to/lastmile_qr_scan"}}, {"name": "0116a7b84640f4de1fa0565bdeead820", "fusion_lat": 0.0, "type": "electric_scooter", "lat": 38.900319833333334, "is_reserved": 0, "is_disabled": 0, "fusion_lon": 0.0, "bike_id": "0116a7b84640f4de1fa0565bdeead820", "lon": -77.00215016666667, "rental_uris": {"ios": "https://dc.lft.to/lastmile_qr_scan", "android": "https://dc.lft.to/lastmile_qr_scan"}}, {"name": "e07655e7ebe5290d010a91b1476b77d5", "fusion_lat": 0.0, "type": "electric_bike", "lat": 39.03344516666667, "is_reserved": 0, "is_disabled": 0, "fusion_lon": 0.0, "bike_id": "e07655e7ebe5290d010a91b1476b77d5", "lon": -77.0490815, "rental_uris": {"ios": "https://dc.lft.to/lastmile_qr_scan", "android": "https://dc.lft.to/lastmile_qr_scan"}}, {"name": "4530f095a18f80f80c584dad7c8d46da", "fusion_lat": 0.0, "type": "electric_scooter", "lat": 38.94373816666667, "is_reserved": 0, "is_disabled": 0, "fusion_lon": 0.0, "bike_id": "4530f095a18f80f80c584dad7c8d46da", "lon": -77.06093916666667, "rental_uris": {"ios": "https://dc.lft.to/lastmile_qr_scan", "android": "https://dc.lft.to/lastmile_qr_scan"}}, {"name": "c8123d3a096e51cfa92d0c9ac9f46dd9", "fusion_lat": 0.0, "type": "electric_scooter", "lat": 38.975085, "is_reserved": 0, "is_disabled": 0, "fusion_lon": 0.0, "bike_id": "c8123d3a096e51cfa92d0c9ac9f46dd9", "lon": -77.01690866666667, "rental_uris": {"ios": "https://dc.lft.to/lastmile_qr_scan", "android": "https://dc.lft.to/lastmile_qr_scan"}}, {"name": "b2323377df3555a4c89be1caf64b83ec", "fusion_lat": 0.0, "type": "electric_scooter", "lat": 38.90633616666667, "is_reserved": 0, "is_disabled": 0, "fusion_lon": 0.0, "bike_id": "b2323377df3555a4c89be1caf64b83ec", "lon": -77.051313, "rental_uris": {"ios": "https://dc.lft.to/lastmile_qr_scan", "android": "https://dc.lft.to/lastmile_qr_scan"}}, {"name": "1335dbaa13f8a3a423d53d4aefcb3058", "fusion_lat": 0.0, "type": "electric_scooter", "lat": 38.92364883333333, "is_reserved": 0, "is_disabled": 0, "fusion_lon": 0.0, "bike_id": "1335dbaa13f8a3a423d53d4aefcb3058", "lon": -77.01922633333334, "rental_uris": {"ios": "https://dc.lft.to/lastmile_qr_scan", "android": "https://dc.lft.to/lastmile_qr_scan"}}, {"name": "d5ae1add10ce8144e98b788f1427f8d6", "fusion_lat": 0.0, "type": "electric_scooter", "lat": 38.877875, "is_reserved": 0, "is_disabled": 0, "fusion_lon": 0.0, "bike_id": "d5ae1add10ce8144e98b788f1427f8d6", "lon": -76.994105, "rental_uris": {"ios": "https://dc.lft.to/lastmile_qr_scan", "android": "https://dc.lft.to/lastmile_qr_scan"}}, {"name": "eb7cc7a00caa40e3d496a039fc5cfaa3", "fusion_lat": 0.0, "type": "electric_scooter", "lat": 38.92486666666667, "is_reserved": 0, "is_disabled": 0, "fusion_lon": 0.0, "bike_id": "eb7cc7a00caa40e3d496a039fc5cfaa3", "lon": -77.03007066666666, "rental_uris": {"ios": "https://dc.lft.to/lastmile_qr_scan", "android": "https://dc.lft.to/lastmile_qr_scan"}}, {"name": "3e4551dd4e71d66a4ab4c0bd4da9ce13", "fusion_lat": 0.0, "type": "electric_scooter", "lat": 38.938931333333336, "is_reserved": 0, "is_disabled": 0, "fusion_lon": 0.0, "bike_id": "3e4551dd4e71d66a4ab4c0bd4da9ce13", "lon": -77.01762516666666, "rental_uris": {"ios": "https://dc.lft.to/lastmile_qr_scan", "android": "https://dc.lft.to/lastmile_qr_scan"}}, {"name": "fb3f7db9f26887498fdf90e1441bd32a", "fusion_lat": 0.0, "type": "electric_scooter", "lat": 38.919128, "is_reserved": 0, "is_disabled": 0, "fusion_lon": 0.0, "bike_id": "fb3f7db9f26887498fdf90e1441bd32a", "lon": -77.01124383333334, "rental_uris": {"ios": "https://dc.lft.to/lastmile_qr_scan", "android": "https://dc.lft.to/lastmile_qr_scan"}}, {"name": "b7d5c130ea31d723a46d2bf5f55af01d", "fusion_lat": 0.0, "type": "electric_scooter", "lat": 38.8722875, "is_reserved": 0, "is_disabled": 0, "fusion_lon": 0.0, "bike_id": "b7d5c130ea31d723a46d2bf5f55af01d", "lon": -77.01769783333333, "rental_uris": {"ios": "https://dc.lft.to/lastmile_qr_scan", "android": "https://dc.lft.to/lastmile_qr_scan"}}, {"name": "84b73ff12ecdfb10d22f3d9c7f520b9e", "fusion_lat": 0.0, "type": "electric_scooter", "lat": 38.912857833333334, "is_reserved": 0, "is_disabled": 0, "fusion_lon": 0.0, "bike_id": "84b73ff12ecdfb10d22f3d9c7f520b9e", "lon": -76.93793233333334, "rental_uris": {"ios": "https://dc.lft.to/lastmile_qr_scan", "android": "https://dc.lft.to/lastmile_qr_scan"}}, {"name": "a4870bf1e1d9cc14ce886a21ff8f8c91", "fusion_lat": 0.0, "type": "electric_bike", "lat": 38.87736066666667, "is_reserved": 0, "is_disabled": 0, "fusion_lon": 0.0, "bike_id": "a4870bf1e1d9cc14ce886a21ff8f8c91", "lon": -77.11844533333333, "rental_uris": {"ios": "https://dc.lft.to/lastmile_qr_scan", "android": "https://dc.lft.to/lastmile_qr_scan"}}, {"name": "8b58a8754a5b9247a455178143391a07", "fusion_lat": 0.0, "type": "electric_scooter", "lat": 38.898327, "is_reserved": 0, "is_disabled": 0, "fusion_lon": 0.0, "bike_id": "8b58a8754a5b9247a455178143391a07", "lon": -76.946422, "rental_uris": {"ios": "https://dc.lft.to/lastmile_qr_scan", "android": "https://dc.lft.to/lastmile_qr_scan"}}, {"name": "210ce3e2e8aaac783d9e2139851072b5", "fusion_lat": 0.0, "type": "electric_scooter", "lat": 38.900100333333334, "is_reserved": 0, "is_disabled": 0, "fusion_lon": 0.0, "bike_id": "210ce3e2e8aaac783d9e2139851072b5", "lon": -76.99466883333334, "rental_uris": {"ios": "https://dc.lft.to/lastmile_qr_scan", "android": "https://dc.lft.to/lastmile_qr_scan"}}, {"name": "32551832387106560e4ba8aeb94feca0", "fusion_lat": 0.0, "type": "electric_scooter", "lat": 38.914158666666665, "is_reserved": 0, "is_disabled": 0, "fusion_lon": 0.0, "bike_id": "32551832387106560e4ba8aeb94feca0", "lon": -77.04497733333334, "rental_uris": {"ios": "https://dc.lft.to/lastmile_qr_scan", "android": "https://dc.lft.to/lastmile_qr_scan"}}, {"name": "49f3d2339eecce279f8e631313d9de83", "fusion_lat": 0.0, "type": "electric_scooter", "lat": 38.908144666666665, "is_reserved": 0, "is_disabled": 0, "fusion_lon": 0.0, "bike_id": "49f3d2339eecce279f8e631313d9de83", "lon": -77.043347, "rental_uris": {"ios": "https://dc.lft.to/lastmile_qr_scan", "android": "https://dc.lft.to/lastmile_qr_scan"}}, {"name": "b819f74d337ec34025c0b4ec9f63ef94", "fusion_lat": 0.0, "type": "electric_scooter", "lat": 38.92116933333333, "is_reserved": 0, "is_disabled": 0, "fusion_lon": 0.0, "bike_id": "b819f74d337ec34025c0b4ec9f63ef94", "lon": -77.03924883333333, "rental_uris": {"ios": "https://dc.lft.to/lastmile_qr_scan", "android": "https://dc.lft.to/lastmile_qr_scan"}}, {"name": "62e8d657c24556a0f4aeaa871563afed", "fusion_lat": 0.0, "type": "electric_scooter", "lat": 38.9358265, "is_reserved": 0, "is_disabled": 0, "fusion_lon": 0.0, "bike_id": "62e8d657c24556a0f4aeaa871563afed", "lon": -77.0284265, "rental_uris": {"ios": "https://dc.lft.to/lastmile_qr_scan", "android": "https://dc.lft.to/lastmile_qr_scan"}}, {"name": "a7c6198b51973f7a82d2a281eeeb8228", "fusion_lat": 0.0, "type": "electric_scooter", "lat": 38.8941865, "is_reserved": 0, "is_disabled": 0, "fusion_lon": 0.0, "bike_id": "a7c6198b51973f7a82d2a281eeeb8228", "lon": -77.0218335, "rental_uris": {"ios": "https://dc.lft.to/lastmile_qr_scan", "android": "https://dc.lft.to/lastmile_qr_scan"}}, {"name": "c750bcdfc5c25fa2558bc2d3dfe27be1", "fusion_lat": 0.0, "type": "electric_scooter", "lat": 38.89841716666667, "is_reserved": 0, "is_disabled": 0, "fusion_lon": 0.0, "bike_id": "c750bcdfc5c25fa2558bc2d3dfe27be1", "lon": -77.04072566666666, "rental_uris": {"ios": "https://dc.lft.to/lastmile_qr_scan", "android": "https://dc.lft.to/lastmile_qr_scan"}}, {"name": "7eb5a949de0264084afd60a3520dac1d", "fusion_lat": 0.0, "type": "electric_scooter", "lat": 38.941849500000004, "is_reserved": 0, "is_disabled": 0, "fusion_lon": 0.0, "bike_id": "7eb5a949de0264084afd60a3520dac1d", "lon": -77.02491766666667, "rental_uris": {"ios": "https://dc.lft.to/lastmile_qr_scan", "android": "https://dc.lft.to/lastmile_qr_scan"}}, {"name": "254106358a869d0a8e6a73b2ffd2b589", "fusion_lat": 0.0, "type": "electric_bike", "lat": 38.9518325, "is_reserved": 0, "is_disabled": 0, "fusion_lon": 0.0, "bike_id": "254106358a869d0a8e6a73b2ffd2b589", "lon": -76.9354445, "rental_uris": {"ios": "https://dc.lft.to/lastmile_qr_scan", "android": "https://dc.lft.to/lastmile_qr_scan"}}, {"name": "803dc45437164a6a831d6d1d6a27db3d", "fusion_lat": 0.0, "type": "electric_scooter", "lat": 38.87269666666667, "is_reserved": 0, "is_disabled": 0, "fusion_lon": 0.0, "bike_id": "803dc45437164a6a831d6d1d6a27db3d", "lon": -77.01528816666666, "rental_uris": {"ios": "https://dc.lft.to/lastmile_qr_scan", "android": "https://dc.lft.to/lastmile_qr_scan"}}, {"name": "ac2fc43cb8b0e7114f12ccd685585b97", "fusion_lat": 0.0, "type": "electric_scooter", "lat": 38.8976915, "is_reserved": 0, "is_disabled": 0, "fusion_lon": 0.0, "bike_id": "ac2fc43cb8b0e7114f12ccd685585b97", "lon": -77.026547, "rental_uris": {"ios": "https://dc.lft.to/lastmile_qr_scan", "android": "https://dc.lft.to/lastmile_qr_scan"}}, {"name": "7f61eda6a988be15fd444f98b4d42970", "fusion_lat": 0.0, "type": "electric_scooter", "lat": 38.912311833333334, "is_reserved": 0, "is_disabled": 0, "fusion_lon": 0.0, "bike_id": "7f61eda6a988be15fd444f98b4d42970", "lon": -77.02946833333333, "rental_uris": {"ios": "https://dc.lft.to/lastmile_qr_scan", "android": "https://dc.lft.to/lastmile_qr_scan"}}, {"name": "207975571f65423ac821ca63144febbb", "fusion_lat": 0.0, "type": "electric_scooter", "lat": 38.90138816666666, "is_reserved": 0, "is_disabled": 0, "fusion_lon": 0.0, "bike_id": "207975571f65423ac821ca63144febbb", "lon": -77.00071033333333, "rental_uris": {"ios": "https://dc.lft.to/lastmile_qr_scan", "android": "https://dc.lft.to/lastmile_qr_scan"}}, {"name": "e7b98ef0db8d402ac1bc411ea00a0284", "fusion_lat": 0.0, "type": "electric_scooter", "lat": 38.93823166666667, "is_reserved": 0, "is_disabled": 0, "fusion_lon": 0.0, "bike_id": "e7b98ef0db8d402ac1bc411ea00a0284", "lon": -77.02656483333334, "rental_uris": {"ios": "https://dc.lft.to/lastmile_qr_scan", "android": "https://dc.lft.to/lastmile_qr_scan"}}, {"name": "481eabe7bf32ee69eea6ac183cb6170b", "fusion_lat": 0.0, "type": "electric_bike", "lat": 38.92346516666667, "is_reserved": 0, "is_disabled": 0, "fusion_lon": 0.0, "bike_id": "481eabe7bf32ee69eea6ac183cb6170b", "lon": -76.9924965, "rental_uris": {"ios": "https://dc.lft.to/lastmile_qr_scan", "android": "https://dc.lft.to/lastmile_qr_scan"}}, {"name": "7c70082cbea59df5627b0a70856736ff", "fusion_lat": 0.0, "type": "electric_scooter", "lat": 38.911322166666665, "is_reserved": 0, "is_disabled": 0, "fusion_lon": 0.0, "bike_id": "7c70082cbea59df5627b0a70856736ff", "lon": -77.02183616666667, "rental_uris": {"ios": "https://dc.lft.to/lastmile_qr_scan", "android": "https://dc.lft.to/lastmile_qr_scan"}}, {"name": "f83754e2e726b33a1ce6b43377407c39", "fusion_lat": 0.0, "type": "electric_scooter", "lat": 38.88619533333333, "is_reserved": 0, "is_disabled": 0, "fusion_lon": 0.0, "bike_id": "f83754e2e726b33a1ce6b43377407c39", "lon": -77.0200855, "rental_uris": {"ios": "https://dc.lft.to/lastmile_qr_scan", "android": "https://dc.lft.to/lastmile_qr_scan"}}, {"name": "46f6a5b3acd3a3dc564d5268a4a33408", "fusion_lat": 0.0, "type": "electric_scooter", "lat": 38.92064216666667, "is_reserved": 0, "is_disabled": 0, "fusion_lon": 0.0, "bike_id": "46f6a5b3acd3a3dc564d5268a4a33408", "lon": -77.04255183333333, "rental_uris": {"ios": "https://dc.lft.to/lastmile_qr_scan", "android": "https://dc.lft.to/lastmile_qr_scan"}}, {"name": "784b9e135b14004e16e8ef72fc313f7e", "fusion_lat": 0.0, "type": "electric_scooter", "lat": 38.910136333333334, "is_reserved": 0, "is_disabled": 0, "fusion_lon": 0.0, "bike_id": "784b9e135b14004e16e8ef72fc313f7e", "lon": -76.99390783333334, "rental_uris": {"ios": "https://dc.lft.to/lastmile_qr_scan", "android": "https://dc.lft.to/lastmile_qr_scan"}}, {"name": "56a35ab31a17f3ace3514ab92ae8ee9a", "fusion_lat": 0.0, "type": "electric_scooter", "lat": 38.905128833333336, "is_reserved": 0, "is_disabled": 0, "fusion_lon": 0.0, "bike_id": "56a35ab31a17f3ace3514ab92ae8ee9a", "lon": -77.0663225, "rental_uris": {"ios": "https://dc.lft.to/lastmile_qr_scan", "android": "https://dc.lft.to/lastmile_qr_scan"}}, {"name": "8de18b6a09e79466cfac979cc992e6c7", "fusion_lat": 0.0, "type": "electric_bike", "lat": 38.9427505, "is_reserved": 0, "is_disabled": 0, "fusion_lon": 0.0, "bike_id": "8de18b6a09e79466cfac979cc992e6c7", "lon": -76.9807395, "rental_uris": {"ios": "https://dc.lft.to/lastmile_qr_scan", "android": "https://dc.lft.to/lastmile_qr_scan"}}, {"name": "b9cd5875e9bccb360e53e41ef548fdaf", "fusion_lat": 0.0, "type": "electric_scooter", "lat": 38.896322, "is_reserved": 0, "is_disabled": 0, "fusion_lon": 0.0, "bike_id": "b9cd5875e9bccb360e53e41ef548fdaf", "lon": -77.01019316666667, "rental_uris": {"ios": "https://dc.lft.to/lastmile_qr_scan", "android": "https://dc.lft.to/lastmile_qr_scan"}}, {"name": "05fe1cecb78aa333818545edc2b7fb3a", "fusion_lat": 0.0, "type": "electric_bike", "lat": 38.87482166666667, "is_reserved": 0, "is_disabled": 0, "fusion_lon": 0.0, "bike_id": "05fe1cecb78aa333818545edc2b7fb3a", "lon": -76.96525883333334, "rental_uris": {"ios": "https://dc.lft.to/lastmile_qr_scan", "android": "https://dc.lft.to/lastmile_qr_scan"}}, {"name": "c5094ccb96ee60c1da1e97b5aa743aeb", "fusion_lat": 0.0, "type": "electric_scooter", "lat": 38.912598833333334, "is_reserved": 0, "is_disabled": 0, "fusion_lon": 0.0, "bike_id": "c5094ccb96ee60c1da1e97b5aa743aeb", "lon": -77.03441533333333, "rental_uris": {"ios": "https://dc.lft.to/lastmile_qr_scan", "android": "https://dc.lft.to/lastmile_qr_scan"}}, {"name": "bacd43688add8b480139ad38a432694b", "fusion_lat": 0.0, "type": "electric_scooter", "lat": 38.90016633333333, "is_reserved": 0, "is_disabled": 0, "fusion_lon": 0.0, "bike_id": "bacd43688add8b480139ad38a432694b", "lon": -77.01132983333333, "rental_uris": {"ios": "https://dc.lft.to/lastmile_qr_scan", "android": "https://dc.lft.to/lastmile_qr_scan"}}, {"name": "14871f34d12c88c3dea6bc602eea0494", "fusion_lat": 0.0, "type": "electric_scooter", "lat": 38.900393333333334, "is_reserved": 0, "is_disabled": 0, "fusion_lon": 0.0, "bike_id": "14871f34d12c88c3dea6bc602eea0494", "lon": -76.988444, "rental_uris": {"ios": "https://dc.lft.to/lastmile_qr_scan", "android": "https://dc.lft.to/lastmile_qr_scan"}}, {"name": "b36b92d6071ae00fc641363d3b4cf7bb", "fusion_lat": 0.0, "type": "electric_scooter", "lat": 38.932542166666664, "is_reserved": 0, "is_disabled": 0, "fusion_lon": 0.0, "bike_id": "b36b92d6071ae00fc641363d3b4cf7bb", "lon": -77.04010183333334, "rental_uris": {"ios": "https://dc.lft.to/lastmile_qr_scan", "android": "https://dc.lft.to/lastmile_qr_scan"}}, {"name": "91d793c7bfde56c25e65099164da34e5", "fusion_lat": 0.0, "type": "electric_scooter", "lat": 38.9165975, "is_reserved": 0, "is_disabled": 0, "fusion_lon": 0.0, "bike_id": "91d793c7bfde56c25e65099164da34e5", "lon": -77.02567716666667, "rental_uris": {"ios": "https://dc.lft.to/lastmile_qr_scan", "android": "https://dc.lft.to/lastmile_qr_scan"}}, {"name": "5ebca0390e54f865153987c5bb114260", "fusion_lat": 0.0, "type": "electric_scooter", "lat": 38.911240166666666, "is_reserved": 0, "is_disabled": 0, "fusion_lon": 0.0, "bike_id": "5ebca0390e54f865153987c5bb114260", "lon": -77.033013, "rental_uris": {"ios": "https://dc.lft.to/lastmile_qr_scan", "android": "https://dc.lft.to/lastmile_qr_scan"}}, {"name": "648e967e04dc8c9f4142f6a2c6204613", "fusion_lat": 0.0, "type": "electric_scooter", "lat": 38.917274, "is_reserved": 0, "is_disabled": 0, "fusion_lon": 0.0, "bike_id": "648e967e04dc8c9f4142f6a2c6204613", "lon": -77.038396, "rental_uris": {"ios": "https://dc.lft.to/lastmile_qr_scan", "android": "https://dc.lft.to/lastmile_qr_scan"}}, {"name": "ea4a9d2f595f5e4481f5369a8f34abae", "fusion_lat": 0.0, "type": "electric_scooter", "lat": 38.90003933333333, "is_reserved": 0, "is_disabled": 0, "fusion_lon": 0.0, "bike_id": "ea4a9d2f595f5e4481f5369a8f34abae", "lon": -77.03322216666666, "rental_uris": {"ios": "https://dc.lft.to/lastmile_qr_scan", "android": "https://dc.lft.to/lastmile_qr_scan"}}, {"name": "ce72752a3be4c0e42f61a5481f6f34a2", "fusion_lat": 0.0, "type": "electric_scooter", "lat": 38.906148, "is_reserved": 0, "is_disabled": 0, "fusion_lon": 0.0, "bike_id": "ce72752a3be4c0e42f61a5481f6f34a2", "lon": -77.04687566666666, "rental_uris": {"ios": "https://dc.lft.to/lastmile_qr_scan", "android": "https://dc.lft.to/lastmile_qr_scan"}}, {"name": "4ef38b223cf70baf68a43bdc83ade423", "fusion_lat": 0.0, "type": "electric_scooter", "lat": 38.866620166666664, "is_reserved": 0, "is_disabled": 0, "fusion_lon": 0.0, "bike_id": "4ef38b223cf70baf68a43bdc83ade423", "lon": -76.98888016666666, "rental_uris": {"ios": "https://dc.lft.to/lastmile_qr_scan", "android": "https://dc.lft.to/lastmile_qr_scan"}}, {"name": "5c1012927380ac93599f8b97ceb0d4ae", "fusion_lat": 0.0, "type": "electric_scooter", "lat": 38.92482433333333, "is_reserved": 0, "is_disabled": 0, "fusion_lon": 0.0, "bike_id": "5c1012927380ac93599f8b97ceb0d4ae", "lon": -77.029017, "rental_uris": {"ios": "https://dc.lft.to/lastmile_qr_scan", "android": "https://dc.lft.to/lastmile_qr_scan"}}, {"name": "36c532bbdd1aa83c4deca540891482ea", "fusion_lat": 0.0, "type": "electric_scooter", "lat": 38.91694966666667, "is_reserved": 0, "is_disabled": 0, "fusion_lon": 0.0, "bike_id": "36c532bbdd1aa83c4deca540891482ea", "lon": -77.02439166666667, "rental_uris": {"ios": "https://dc.lft.to/lastmile_qr_scan", "android": "https://dc.lft.to/lastmile_qr_scan"}}, {"name": "7d396c202ae27292ed32da0eed4a98a4", "fusion_lat": 0.0, "type": "electric_scooter", "lat": 38.90233, "is_reserved": 0, "is_disabled": 0, "fusion_lon": 0.0, "bike_id": "7d396c202ae27292ed32da0eed4a98a4", "lon": -77.045923, "rental_uris": {"ios": "https://dc.lft.to/lastmile_qr_scan", "android": "https://dc.lft.to/lastmile_qr_scan"}}, {"name": "a843376d7f65b58e67741af2fa715b76", "fusion_lat": 0.0, "type": "electric_scooter", "lat": 38.89669966666666, "is_reserved": 0, "is_disabled": 0, "fusion_lon": 0.0, "bike_id": "a843376d7f65b58e67741af2fa715b76", "lon": -77.04889566666667, "rental_uris": {"ios": "https://dc.lft.to/lastmile_qr_scan", "android": "https://dc.lft.to/lastmile_qr_scan"}}, {"name": "07ec04554c9aca4a7bf2a654cd99eaec", "fusion_lat": 0.0, "type": "electric_scooter", "lat": 38.924185333333334, "is_reserved": 0, "is_disabled": 0, "fusion_lon": 0.0, "bike_id": "07ec04554c9aca4a7bf2a654cd99eaec", "lon": -77.01948416666667, "rental_uris": {"ios": "https://dc.lft.to/lastmile_qr_scan", "android": "https://dc.lft.to/lastmile_qr_scan"}}, {"name": "519f7c420347f538b87dbf1a50a86167", "fusion_lat": 0.0, "type": "electric_scooter", "lat": 38.91113933333333, "is_reserved": 0, "is_disabled": 0, "fusion_lon": 0.0, "bike_id": "519f7c420347f538b87dbf1a50a86167", "lon": -77.03478883333334, "rental_uris": {"ios": "https://dc.lft.to/lastmile_qr_scan", "android": "https://dc.lft.to/lastmile_qr_scan"}}, {"name": "457d20dcd296d3bcc8fa873ca69e69a1", "fusion_lat": 0.0, "type": "electric_scooter", "lat": 38.904623666666666, "is_reserved": 0, "is_disabled": 0, "fusion_lon": 0.0, "bike_id": "457d20dcd296d3bcc8fa873ca69e69a1", "lon": -77.04155966666667, "rental_uris": {"ios": "https://dc.lft.to/lastmile_qr_scan", "android": "https://dc.lft.to/lastmile_qr_scan"}}, {"name": "f0e33fbe0762ffa8d85367ebd6e417b6", "fusion_lat": 0.0, "type": "electric_scooter", "lat": 38.9008255, "is_reserved": 0, "is_disabled": 0, "fusion_lon": 0.0, "bike_id": "f0e33fbe0762ffa8d85367ebd6e417b6", "lon": -77.05020933333333, "rental_uris": {"ios": "https://dc.lft.to/lastmile_qr_scan", "android": "https://dc.lft.to/lastmile_qr_scan"}}, {"name": "c83f0e51e37e5c5c8162d3afc54b219e", "fusion_lat": 0.0, "type": "electric_scooter", "lat": 38.928761333333334, "is_reserved": 0, "is_disabled": 0, "fusion_lon": 0.0, "bike_id": "c83f0e51e37e5c5c8162d3afc54b219e", "lon": -77.04124866666666, "rental_uris": {"ios": "https://dc.lft.to/lastmile_qr_scan", "android": "https://dc.lft.to/lastmile_qr_scan"}}, {"name": "6742e95ba29835892a9563f1c115c874", "fusion_lat": 0.0, "type": "electric_bike", "lat": 38.95479366666667, "is_reserved": 0, "is_disabled": 0, "fusion_lon": 0.0, "bike_id": "6742e95ba29835892a9563f1c115c874", "lon": -77.08240066666667, "rental_uris": {"ios": "https://dc.lft.to/lastmile_qr_scan", "android": "https://dc.lft.to/lastmile_qr_scan"}}, {"name": "716f25bceb690f73c4c2bf66ea190ef3", "fusion_lat": 0.0, "type": "electric_scooter", "lat": 38.93365583333333, "is_reserved": 0, "is_disabled": 0, "fusion_lon": 0.0, "bike_id": "716f25bceb690f73c4c2bf66ea190ef3", "lon": -77.05727133333333, "rental_uris": {"ios": "https://dc.lft.to/lastmile_qr_scan", "android": "https://dc.lft.to/lastmile_qr_scan"}}, {"name": "05590a66a86fb627d0c8d09fbc5a3621", "fusion_lat": 0.0, "type": "electric_scooter", "lat": 38.92899583333333, "is_reserved": 0, "is_disabled": 0, "fusion_lon": 0.0, "bike_id": "05590a66a86fb627d0c8d09fbc5a3621", "lon": -77.05936566666666, "rental_uris": {"ios": "https://dc.lft.to/lastmile_qr_scan", "android": "https://dc.lft.to/lastmile_qr_scan"}}, {"name": "d6c2a7d4939b6c89b8f9d89e72edb5ce", "fusion_lat": 0.0, "type": "electric_scooter", "lat": 38.93302633333333, "is_reserved": 0, "is_disabled": 0, "fusion_lon": 0.0, "bike_id": "d6c2a7d4939b6c89b8f9d89e72edb5ce", "lon": -77.0246655, "rental_uris": {"ios": "https://dc.lft.to/lastmile_qr_scan", "android": "https://dc.lft.to/lastmile_qr_scan"}}, {"name": "722f355380cab6ae90c24e981afb91d2", "fusion_lat": 0.0, "type": "electric_scooter", "lat": 38.9236915, "is_reserved": 0, "is_disabled": 0, "fusion_lon": 0.0, "bike_id": "722f355380cab6ae90c24e981afb91d2", "lon": -77.019097, "rental_uris": {"ios": "https://dc.lft.to/lastmile_qr_scan", "android": "https://dc.lft.to/lastmile_qr_scan"}}, {"name": "a1a1cc861c9f0b0a1275d66cff3bd32f", "fusion_lat": 0.0, "type": "electric_scooter", "lat": 38.87753716666667, "is_reserved": 0, "is_disabled": 0, "fusion_lon": 0.0, "bike_id": "a1a1cc861c9f0b0a1275d66cff3bd32f", "lon": -76.97241366666667, "rental_uris": {"ios": "https://dc.lft.to/lastmile_qr_scan", "android": "https://dc.lft.to/lastmile_qr_scan"}}, {"name": "7e1837a61a216b9fce616bc575d75000", "fusion_lat": 0.0, "type": "electric_scooter", "lat": 38.862137, "is_reserved": 0, "is_disabled": 0, "fusion_lon": 0.0, "bike_id": "7e1837a61a216b9fce616bc575d75000", "lon": -76.99471233333334, "rental_uris": {"ios": "https://dc.lft.to/lastmile_qr_scan", "android": "https://dc.lft.to/lastmile_qr_scan"}}, {"name": "c1f68f8f3826c6b643e41f74935bc387", "fusion_lat": 0.0, "type": "electric_bike", "lat": 38.87081766666667, "is_reserved": 0, "is_disabled": 0, "fusion_lon": 0.0, "bike_id": "c1f68f8f3826c6b643e41f74935bc387", "lon": -77.110432, "rental_uris": {"ios": "https://dc.lft.to/lastmile_qr_scan", "android": "https://dc.lft.to/lastmile_qr_scan"}}, {"name": "2b920a7f8733e1ec6c93f5bfa81165f5", "fusion_lat": 0.0, "type": "electric_scooter", "lat": 38.8969745, "is_reserved": 0, "is_disabled": 0, "fusion_lon": 0.0, "bike_id": "2b920a7f8733e1ec6c93f5bfa81165f5", "lon": -77.02157733333334, "rental_uris": {"ios": "https://dc.lft.to/lastmile_qr_scan", "android": "https://dc.lft.to/lastmile_qr_scan"}}, {"name": "c2846790775f7dc860c5c43719da7d8d", "fusion_lat": 0.0, "type": "electric_scooter", "lat": 38.92904333333333, "is_reserved": 0, "is_disabled": 0, "fusion_lon": 0.0, "bike_id": "c2846790775f7dc860c5c43719da7d8d", "lon": -77.02507033333333, "rental_uris": {"ios": "https://dc.lft.to/lastmile_qr_scan", "android": "https://dc.lft.to/lastmile_qr_scan"}}, {"name": "e297debad073f5a05012200e3e8e1546", "fusion_lat": 0.0, "type": "electric_scooter", "lat": 38.923180333333335, "is_reserved": 0, "is_disabled": 0, "fusion_lon": 0.0, "bike_id": "e297debad073f5a05012200e3e8e1546", "lon": -77.04114766666666, "rental_uris": {"ios": "https://dc.lft.to/lastmile_qr_scan", "android": "https://dc.lft.to/lastmile_qr_scan"}}, {"name": "cb250b1def63c905f7e2b1dcdd7b5bbe", "fusion_lat": 0.0, "type": "electric_scooter", "lat": 38.941821833333336, "is_reserved": 0, "is_disabled": 0, "fusion_lon": 0.0, "bike_id": "cb250b1def63c905f7e2b1dcdd7b5bbe", "lon": -77.024839, "rental_uris": {"ios": "https://dc.lft.to/lastmile_qr_scan", "android": "https://dc.lft.to/lastmile_qr_scan"}}, {"name": "c1273b8016862e95ee897c80f6cb4c9b", "fusion_lat": 0.0, "type": "electric_scooter", "lat": 38.94838516666667, "is_reserved": 0, "is_disabled": 0, "fusion_lon": 0.0, "bike_id": "c1273b8016862e95ee897c80f6cb4c9b", "lon": -77.02550683333334, "rental_uris": {"ios": "https://dc.lft.to/lastmile_qr_scan", "android": "https://dc.lft.to/lastmile_qr_scan"}}, {"name": "afc5bde072464edf0ee4ed06e5ba0b75", "fusion_lat": 0.0, "type": "electric_scooter", "lat": 38.91696866666667, "is_reserved": 0, "is_disabled": 0, "fusion_lon": 0.0, "bike_id": "afc5bde072464edf0ee4ed06e5ba0b75", "lon": -77.04336333333333, "rental_uris": {"ios": "https://dc.lft.to/lastmile_qr_scan", "android": "https://dc.lft.to/lastmile_qr_scan"}}, {"name": "2d2e5cf8f45953ad90c52a2d2f68c97a", "fusion_lat": 0.0, "type": "electric_scooter", "lat": 38.860823333333336, "is_reserved": 0, "is_disabled": 0, "fusion_lon": 0.0, "bike_id": "2d2e5cf8f45953ad90c52a2d2f68c97a", "lon": -76.96713566666666, "rental_uris": {"ios": "https://dc.lft.to/lastmile_qr_scan", "android": "https://dc.lft.to/lastmile_qr_scan"}}, {"name": "c7de966ea4c5426171f6570645cd6edb", "fusion_lat": 0.0, "type": "electric_scooter", "lat": 38.89973766666667, "is_reserved": 0, "is_disabled": 0, "fusion_lon": 0.0, "bike_id": "c7de966ea4c5426171f6570645cd6edb", "lon": -77.02951383333334, "rental_uris": {"ios": "https://dc.lft.to/lastmile_qr_scan", "android": "https://dc.lft.to/lastmile_qr_scan"}}, {"name": "afb34e2e45e2c861584b64eb37d6a189", "fusion_lat": 0.0, "type": "electric_scooter", "lat": 38.906626833333334, "is_reserved": 0, "is_disabled": 0, "fusion_lon": 0.0, "bike_id": "afb34e2e45e2c861584b64eb37d6a189", "lon": -77.02709533333334, "rental_uris": {"ios": "https://dc.lft.to/lastmile_qr_scan", "android": "https://dc.lft.to/lastmile_qr_scan"}}, {"name": "9ba8ef103454dee7ad1081a931619436", "fusion_lat": 0.0, "type": "electric_scooter", "lat": 38.927283333333335, "is_reserved": 0, "is_disabled": 0, "fusion_lon": 0.0, "bike_id": "9ba8ef103454dee7ad1081a931619436", "lon": -77.02307883333333, "rental_uris": {"ios": "https://dc.lft.to/lastmile_qr_scan", "android": "https://dc.lft.to/lastmile_qr_scan"}}, {"name": "16fb7b184bdb84a2e37c1628c14736f1", "fusion_lat": 0.0, "type": "electric_scooter", "lat": 38.948051, "is_reserved": 0, "is_disabled": 0, "fusion_lon": 0.0, "bike_id": "16fb7b184bdb84a2e37c1628c14736f1", "lon": -77.07906916666667, "rental_uris": {"ios": "https://dc.lft.to/lastmile_qr_scan", "android": "https://dc.lft.to/lastmile_qr_scan"}}, {"name": "d843b84cc94dc5770e12aaa6d8acd85c", "fusion_lat": 0.0, "type": "electric_scooter", "lat": 38.91944983333333, "is_reserved": 0, "is_disabled": 0, "fusion_lon": 0.0, "bike_id": "d843b84cc94dc5770e12aaa6d8acd85c", "lon": -77.04553733333333, "rental_uris": {"ios": "https://dc.lft.to/lastmile_qr_scan", "android": "https://dc.lft.to/lastmile_qr_scan"}}, {"name": "3128a08750eb094516a2f6555c60447c", "fusion_lat": 0.0, "type": "electric_scooter", "lat": 38.88842116666667, "is_reserved": 0, "is_disabled": 0, "fusion_lon": 0.0, "bike_id": "3128a08750eb094516a2f6555c60447c", "lon": -77.049044, "rental_uris": {"ios": "https://dc.lft.to/lastmile_qr_scan", "android": "https://dc.lft.to/lastmile_qr_scan"}}, {"name": "fde515fef6d0ff8bfcbd05ba51d54a97", "fusion_lat": 0.0, "type": "electric_bike", "lat": 38.9312015, "is_reserved": 0, "is_disabled": 0, "fusion_lon": 0.0, "bike_id": "fde515fef6d0ff8bfcbd05ba51d54a97", "lon": -77.02708566666666, "rental_uris": {"ios": "https://dc.lft.to/lastmile_qr_scan", "android": "https://dc.lft.to/lastmile_qr_scan"}}, {"name": "3827ca1ee85a7a9595cb7630225a1f81", "fusion_lat": 0.0, "type": "electric_scooter", "lat": 38.933716, "is_reserved": 0, "is_disabled": 0, "fusion_lon": 0.0, "bike_id": "3827ca1ee85a7a9595cb7630225a1f81", "lon": -77.03449533333334, "rental_uris": {"ios": "https://dc.lft.to/lastmile_qr_scan", "android": "https://dc.lft.to/lastmile_qr_scan"}}, {"name": "74aa3ea32ea31d984af53e2efda7f72f", "fusion_lat": 0.0, "type": "electric_scooter", "lat": 38.9043495, "is_reserved": 0, "is_disabled": 0, "fusion_lon": 0.0, "bike_id": "74aa3ea32ea31d984af53e2efda7f72f", "lon": -77.0530225, "rental_uris": {"ios": "https://dc.lft.to/lastmile_qr_scan", "android": "https://dc.lft.to/lastmile_qr_scan"}}, {"name": "a218c50a701e93ab610c23fc3a62d522", "fusion_lat": 0.0, "type": "electric_scooter", "lat": 38.925554166666664, "is_reserved": 0, "is_disabled": 0, "fusion_lon": 0.0, "bike_id": "a218c50a701e93ab610c23fc3a62d522", "lon": -77.032635, "rental_uris": {"ios": "https://dc.lft.to/lastmile_qr_scan", "android": "https://dc.lft.to/lastmile_qr_scan"}}, {"name": "4052883fe25bfc936b78261dd6bef235", "fusion_lat": 0.0, "type": "electric_scooter", "lat": 38.911104, "is_reserved": 0, "is_disabled": 0, "fusion_lon": 0.0, "bike_id": "4052883fe25bfc936b78261dd6bef235", "lon": -77.01058333333333, "rental_uris": {"ios": "https://dc.lft.to/lastmile_qr_scan", "android": "https://dc.lft.to/lastmile_qr_scan"}}, {"name": "4f956be3dd142a2b078fb0bdce37114d", "fusion_lat": 0.0, "type": "electric_scooter", "lat": 38.90269216666667, "is_reserved": 0, "is_disabled": 0, "fusion_lon": 0.0, "bike_id": "4f956be3dd142a2b078fb0bdce37114d", "lon": -77.01543133333334, "rental_uris": {"ios": "https://dc.lft.to/lastmile_qr_scan", "android": "https://dc.lft.to/lastmile_qr_scan"}}, {"name": "9d6c8629c9b7fd3919685cc77873fddc", "fusion_lat": 0.0, "type": "electric_scooter", "lat": 38.93632783333334, "is_reserved": 0, "is_disabled": 0, "fusion_lon": 0.0, "bike_id": "9d6c8629c9b7fd3919685cc77873fddc", "lon": -77.03659066666667, "rental_uris": {"ios": "https://dc.lft.to/lastmile_qr_scan", "android": "https://dc.lft.to/lastmile_qr_scan"}}, {"name": "65ce076a6095bb14e9bb4f6b9bc12664", "fusion_lat": 0.0, "type": "electric_scooter", "lat": 38.89554783333333, "is_reserved": 0, "is_disabled": 0, "fusion_lon": 0.0, "bike_id": "65ce076a6095bb14e9bb4f6b9bc12664", "lon": -77.01121683333334, "rental_uris": {"ios": "https://dc.lft.to/lastmile_qr_scan", "android": "https://dc.lft.to/lastmile_qr_scan"}}, {"name": "460fd57c57c98400d9d86632d9805e7b", "fusion_lat": 0.0, "type": "electric_scooter", "lat": 38.92312233333333, "is_reserved": 0, "is_disabled": 0, "fusion_lon": 0.0, "bike_id": "460fd57c57c98400d9d86632d9805e7b", "lon": -77.03958216666666, "rental_uris": {"ios": "https://dc.lft.to/lastmile_qr_scan", "android": "https://dc.lft.to/lastmile_qr_scan"}}, {"name": "1634ce890296e71b9e786c0fadb2fa65", "fusion_lat": 0.0, "type": "electric_scooter", "lat": 38.905386, "is_reserved": 0, "is_disabled": 0, "fusion_lon": 0.0, "bike_id": "1634ce890296e71b9e786c0fadb2fa65", "lon": -77.06269416666666, "rental_uris": {"ios": "https://dc.lft.to/lastmile_qr_scan", "android": "https://dc.lft.to/lastmile_qr_scan"}}, {"name": "cf25bd21719d1d6a9320a79123333301", "fusion_lat": 0.0, "type": "electric_scooter", "lat": 38.95085133333333, "is_reserved": 0, "is_disabled": 0, "fusion_lon": 0.0, "bike_id": "cf25bd21719d1d6a9320a79123333301", "lon": -77.02838, "rental_uris": {"ios": "https://dc.lft.to/lastmile_qr_scan", "android": "https://dc.lft.to/lastmile_qr_scan"}}, {"name": "f0d3d21c8839b4171a768c1eac9e6f06", "fusion_lat": 0.0, "type": "electric_scooter", "lat": 38.90503733333333, "is_reserved": 0, "is_disabled": 0, "fusion_lon": 0.0, "bike_id": "f0d3d21c8839b4171a768c1eac9e6f06", "lon": -77.069367, "rental_uris": {"ios": "https://dc.lft.to/lastmile_qr_scan", "android": "https://dc.lft.to/lastmile_qr_scan"}}, {"name": "3aac9159bbc8ac7bcc6a5b6f8253b25b", "fusion_lat": 0.0, "type": "electric_scooter", "lat": 38.93875883333333, "is_reserved": 0, "is_disabled": 0, "fusion_lon": 0.0, "bike_id": "3aac9159bbc8ac7bcc6a5b6f8253b25b", "lon": -77.03216833333333, "rental_uris": {"ios": "https://dc.lft.to/lastmile_qr_scan", "android": "https://dc.lft.to/lastmile_qr_scan"}}, {"name": "731b29a3460ca219af45c5c1fbfa5028", "fusion_lat": 0.0, "type": "electric_scooter", "lat": 38.907394833333335, "is_reserved": 0, "is_disabled": 0, "fusion_lon": 0.0, "bike_id": "731b29a3460ca219af45c5c1fbfa5028", "lon": -77.04659866666667, "rental_uris": {"ios": "https://dc.lft.to/lastmile_qr_scan", "android": "https://dc.lft.to/lastmile_qr_scan"}}, {"name": "36ccbc5ce1ea0cc4e829daa269c6ca46", "fusion_lat": 0.0, "type": "electric_scooter", "lat": 38.8924, "is_reserved": 0, "is_disabled": 0, "fusion_lon": 0.0, "bike_id": "36ccbc5ce1ea0cc4e829daa269c6ca46", "lon": -77.03181566666666, "rental_uris": {"ios": "https://dc.lft.to/lastmile_qr_scan", "android": "https://dc.lft.to/lastmile_qr_scan"}}, {"name": "0a914e0eb53c1d25ffda211ab30bee9d", "fusion_lat": 0.0, "type": "electric_scooter", "lat": 38.91185933333333, "is_reserved": 0, "is_disabled": 0, "fusion_lon": 0.0, "bike_id": "0a914e0eb53c1d25ffda211ab30bee9d", "lon": -77.00739516666667, "rental_uris": {"ios": "https://dc.lft.to/lastmile_qr_scan", "android": "https://dc.lft.to/lastmile_qr_scan"}}, {"name": "d27a840f7f1f1d79ec3df0c28c1d0112", "fusion_lat": 0.0, "type": "electric_bike", "lat": 38.94970933333333, "is_reserved": 0, "is_disabled": 0, "fusion_lon": 0.0, "bike_id": "d27a840f7f1f1d79ec3df0c28c1d0112", "lon": -76.97283083333333, "rental_uris": {"ios": "https://dc.lft.to/lastmile_qr_scan", "android": "https://dc.lft.to/lastmile_qr_scan"}}, {"name": "e5c102ef70ca39663dcbc82be5b5d91b", "fusion_lat": 0.0, "type": "electric_scooter", "lat": 38.912526166666666, "is_reserved": 0, "is_disabled": 0, "fusion_lon": 0.0, "bike_id": "e5c102ef70ca39663dcbc82be5b5d91b", "lon": -77.04032466666666, "rental_uris": {"ios": "https://dc.lft.to/lastmile_qr_scan", "android": "https://dc.lft.to/lastmile_qr_scan"}}, {"name": "7fe0cce864e7307bd01b9efce47e0811", "fusion_lat": 0.0, "type": "electric_scooter", "lat": 38.907372333333335, "is_reserved": 0, "is_disabled": 0, "fusion_lon": 0.0, "bike_id": "7fe0cce864e7307bd01b9efce47e0811", "lon": -77.046703, "rental_uris": {"ios": "https://dc.lft.to/lastmile_qr_scan", "android": "https://dc.lft.to/lastmile_qr_scan"}}, {"name": "cc4e3804f7295b1524408408a103d8b8", "fusion_lat": 0.0, "type": "electric_scooter", "lat": 38.896826, "is_reserved": 0, "is_disabled": 0, "fusion_lon": 0.0, "bike_id": "cc4e3804f7295b1524408408a103d8b8", "lon": -76.99628566666667, "rental_uris": {"ios": "https://dc.lft.to/lastmile_qr_scan", "android": "https://dc.lft.to/lastmile_qr_scan"}}, {"name": "532cde4308de09a499eb39f2633bee12", "fusion_lat": 0.0, "type": "electric_scooter", "lat": 38.90037316666667, "is_reserved": 0, "is_disabled": 0, "fusion_lon": 0.0, "bike_id": "532cde4308de09a499eb39f2633bee12", "lon": -77.00637933333333, "rental_uris": {"ios": "https://dc.lft.to/lastmile_qr_scan", "android": "https://dc.lft.to/lastmile_qr_scan"}}, {"name": "16a6505a1f1e4594ad670f2ae382fce0", "fusion_lat": 0.0, "type": "electric_bike", "lat": 38.87551366666667, "is_reserved": 0, "is_disabled": 0, "fusion_lon": 0.0, "bike_id": "16a6505a1f1e4594ad670f2ae382fce0", "lon": -76.96752016666667, "rental_uris": {"ios": "https://dc.lft.to/lastmile_qr_scan", "android": "https://dc.lft.to/lastmile_qr_scan"}}, {"name": "1bd0285a54bfa9e597b88a3d4e5e5be0", "fusion_lat": 0.0, "type": "electric_scooter", "lat": 38.91839133333333, "is_reserved": 0, "is_disabled": 0, "fusion_lon": 0.0, "bike_id": "1bd0285a54bfa9e597b88a3d4e5e5be0", "lon": -77.03640183333333, "rental_uris": {"ios": "https://dc.lft.to/lastmile_qr_scan", "android": "https://dc.lft.to/lastmile_qr_scan"}}, {"name": "70d0a325cc5f542f72fc54a5ff8db63b", "fusion_lat": 0.0, "type": "electric_scooter", "lat": 38.925190666666666, "is_reserved": 0, "is_disabled": 0, "fusion_lon": 0.0, "bike_id": "70d0a325cc5f542f72fc54a5ff8db63b", "lon": -77.00213416666666, "rental_uris": {"ios": "https://dc.lft.to/lastmile_qr_scan", "android": "https://dc.lft.to/lastmile_qr_scan"}}, {"name": "44ae0c3aab010d26c22a9bac7dd85d6b", "fusion_lat": 0.0, "type": "electric_scooter", "lat": 38.90969416666667, "is_reserved": 0, "is_disabled": 0, "fusion_lon": 0.0, "bike_id": "44ae0c3aab010d26c22a9bac7dd85d6b", "lon": -77.03176066666667, "rental_uris": {"ios": "https://dc.lft.to/lastmile_qr_scan", "android": "https://dc.lft.to/lastmile_qr_scan"}}, {"name": "65a1966568c4e68ae0c7da3d3b6e8b4e", "fusion_lat": 0.0, "type": "electric_scooter", "lat": 38.9565225, "is_reserved": 0, "is_disabled": 0, "fusion_lon": 0.0, "bike_id": "65a1966568c4e68ae0c7da3d3b6e8b4e", "lon": -77.03291483333334, "rental_uris": {"ios": "https://dc.lft.to/lastmile_qr_scan", "android": "https://dc.lft.to/lastmile_qr_scan"}}, {"name": "bae3d5bba97f56e542118dd016fcef2e", "fusion_lat": 0.0, "type": "electric_scooter", "lat": 38.90175833333333, "is_reserved": 0, "is_disabled": 0, "fusion_lon": 0.0, "bike_id": "bae3d5bba97f56e542118dd016fcef2e", "lon": -77.02513433333333, "rental_uris": {"ios": "https://dc.lft.to/lastmile_qr_scan", "android": "https://dc.lft.to/lastmile_qr_scan"}}, {"name": "7c258cb173d20ea2b621a5d2b46a8fa8", "fusion_lat": 0.0, "type": "electric_scooter", "lat": 38.89531983333333, "is_reserved": 0, "is_disabled": 0, "fusion_lon": 0.0, "bike_id": "7c258cb173d20ea2b621a5d2b46a8fa8", "lon": -77.03207366666666, "rental_uris": {"ios": "https://dc.lft.to/lastmile_qr_scan", "android": "https://dc.lft.to/lastmile_qr_scan"}}, {"name": "b67c3cd6598cd7d554e9771681dc094b", "fusion_lat": 0.0, "type": "electric_scooter", "lat": 38.922115833333336, "is_reserved": 0, "is_disabled": 0, "fusion_lon": 0.0, "bike_id": "b67c3cd6598cd7d554e9771681dc094b", "lon": -76.9874735, "rental_uris": {"ios": "https://dc.lft.to/lastmile_qr_scan", "android": "https://dc.lft.to/lastmile_qr_scan"}}, {"name": "a5ca22934335b2e876c43c056adc94ef", "fusion_lat": 0.0, "type": "electric_scooter", "lat": 38.95920983333333, "is_reserved": 0, "is_disabled": 0, "fusion_lon": 0.0, "bike_id": "a5ca22934335b2e876c43c056adc94ef", "lon": -77.08086366666667, "rental_uris": {"ios": "https://dc.lft.to/lastmile_qr_scan", "android": "https://dc.lft.to/lastmile_qr_scan"}}, {"name": "4a521ac0d4b59429239ff508037c8fd9", "fusion_lat": 0.0, "type": "electric_scooter", "lat": 38.93204183333334, "is_reserved": 0, "is_disabled": 0, "fusion_lon": 0.0, "bike_id": "4a521ac0d4b59429239ff508037c8fd9", "lon": -77.03656933333333, "rental_uris": {"ios": "https://dc.lft.to/lastmile_qr_scan", "android": "https://dc.lft.to/lastmile_qr_scan"}}, {"name": "168c08aed7a7d495af2d82bd6275adf9", "fusion_lat": 0.0, "type": "electric_scooter", "lat": 38.9248625, "is_reserved": 0, "is_disabled": 0, "fusion_lon": 0.0, "bike_id": "168c08aed7a7d495af2d82bd6275adf9", "lon": -77.05212166666666, "rental_uris": {"ios": "https://dc.lft.to/lastmile_qr_scan", "android": "https://dc.lft.to/lastmile_qr_scan"}}, {"name": "20ea824eafb9ec12b805462546025c80", "fusion_lat": 0.0, "type": "electric_scooter", "lat": 38.912801, "is_reserved": 0, "is_disabled": 0, "fusion_lon": 0.0, "bike_id": "20ea824eafb9ec12b805462546025c80", "lon": -77.0319965, "rental_uris": {"ios": "https://dc.lft.to/lastmile_qr_scan", "android": "https://dc.lft.to/lastmile_qr_scan"}}, {"name": "48ae44fc453b148f51f4c2397165c888", "fusion_lat": 0.0, "type": "electric_bike", "lat": 39.0037875, "is_reserved": 0, "is_disabled": 0, "fusion_lon": 0.0, "bike_id": "48ae44fc453b148f51f4c2397165c888", "lon": -77.01295016666667, "rental_uris": {"ios": "https://dc.lft.to/lastmile_qr_scan", "android": "https://dc.lft.to/lastmile_qr_scan"}}, {"name": "8dff7366382cb29034e1bbea8d8f25d7", "fusion_lat": 0.0, "type": "electric_bike", "lat": 38.807924666666665, "is_reserved": 0, "is_disabled": 0, "fusion_lon": 0.0, "bike_id": "8dff7366382cb29034e1bbea8d8f25d7", "lon": -77.129574, "rental_uris": {"ios": "https://dc.lft.to/lastmile_qr_scan", "android": "https://dc.lft.to/lastmile_qr_scan"}}, {"name": "ac69a80737ec9003495ca5d8cf8dc22d", "fusion_lat": 0.0, "type": "electric_scooter", "lat": 38.857929666666664, "is_reserved": 0, "is_disabled": 0, "fusion_lon": 0.0, "bike_id": "ac69a80737ec9003495ca5d8cf8dc22d", "lon": -76.99092333333333, "rental_uris": {"ios": "https://dc.lft.to/lastmile_qr_scan", "android": "https://dc.lft.to/lastmile_qr_scan"}}, {"name": "c300ce37ce95f048d8e49a75db79214b", "fusion_lat": 0.0, "type": "electric_scooter", "lat": 38.91703283333333, "is_reserved": 0, "is_disabled": 0, "fusion_lon": 0.0, "bike_id": "c300ce37ce95f048d8e49a75db79214b", "lon": -77.024641, "rental_uris": {"ios": "https://dc.lft.to/lastmile_qr_scan", "android": "https://dc.lft.to/lastmile_qr_scan"}}, {"name": "516781f86ae09f7c1a390c89153113ad", "fusion_lat": 0.0, "type": "electric_scooter", "lat": 38.89089583333333, "is_reserved": 0, "is_disabled": 0, "fusion_lon": 0.0, "bike_id": "516781f86ae09f7c1a390c89153113ad", "lon": -76.9873335, "rental_uris": {"ios": "https://dc.lft.to/lastmile_qr_scan", "android": "https://dc.lft.to/lastmile_qr_scan"}}, {"name": "2299c9d117245f9339ea0a91cb89fa98", "fusion_lat": 0.0, "type": "electric_scooter", "lat": 38.906984, "is_reserved": 0, "is_disabled": 0, "fusion_lon": 0.0, "bike_id": "2299c9d117245f9339ea0a91cb89fa98", "lon": -76.98854333333334, "rental_uris": {"ios": "https://dc.lft.to/lastmile_qr_scan", "android": "https://dc.lft.to/lastmile_qr_scan"}}, {"name": "4c85f745b8adf6cdd5984319ce44da5d", "fusion_lat": 0.0, "type": "electric_scooter", "lat": 38.92692133333333, "is_reserved": 0, "is_disabled": 0, "fusion_lon": 0.0, "bike_id": "4c85f745b8adf6cdd5984319ce44da5d", "lon": -77.03782933333333, "rental_uris": {"ios": "https://dc.lft.to/lastmile_qr_scan", "android": "https://dc.lft.to/lastmile_qr_scan"}}, {"name": "22d7061a61371f9d0f579b9047ac4fc4", "fusion_lat": 0.0, "type": "electric_scooter", "lat": 38.9325815, "is_reserved": 0, "is_disabled": 0, "fusion_lon": 0.0, "bike_id": "22d7061a61371f9d0f579b9047ac4fc4", "lon": -77.03999616666667, "rental_uris": {"ios": "https://dc.lft.to/lastmile_qr_scan", "android": "https://dc.lft.to/lastmile_qr_scan"}}, {"name": "88fa2cc311a15e27f465c1771d39382c", "fusion_lat": 0.0, "type": "electric_scooter", "lat": 38.90512733333333, "is_reserved": 0, "is_disabled": 0, "fusion_lon": 0.0, "bike_id": "88fa2cc311a15e27f465c1771d39382c", "lon": -77.04474266666666, "rental_uris": {"ios": "https://dc.lft.to/lastmile_qr_scan", "android": "https://dc.lft.to/lastmile_qr_scan"}}, {"name": "00c4c979af747b019f6e1594ae564eeb", "fusion_lat": 0.0, "type": "electric_scooter", "lat": 38.89996, "is_reserved": 0, "is_disabled": 0, "fusion_lon": 0.0, "bike_id": "00c4c979af747b019f6e1594ae564eeb", "lon": -77.026977, "rental_uris": {"ios": "https://dc.lft.to/lastmile_qr_scan", "android": "https://dc.lft.to/lastmile_qr_scan"}}, {"name": "7f1fd0ea829f999206b2381eb40af08c", "fusion_lat": 0.0, "type": "electric_scooter", "lat": 38.921223833333336, "is_reserved": 0, "is_disabled": 0, "fusion_lon": 0.0, "bike_id": "7f1fd0ea829f999206b2381eb40af08c", "lon": -77.03660716666667, "rental_uris": {"ios": "https://dc.lft.to/lastmile_qr_scan", "android": "https://dc.lft.to/lastmile_qr_scan"}}, {"name": "f263304d546837aad0600b60d0da03cb", "fusion_lat": 0.0, "type": "electric_scooter", "lat": 38.90921733333333, "is_reserved": 0, "is_disabled": 0, "fusion_lon": 0.0, "bike_id": "f263304d546837aad0600b60d0da03cb", "lon": -77.04158316666667, "rental_uris": {"ios": "https://dc.lft.to/lastmile_qr_scan", "android": "https://dc.lft.to/lastmile_qr_scan"}}, {"name": "06b321c2557be72f956a8b5343b4eeea", "fusion_lat": 0.0, "type": "electric_bike", "lat": 38.905351, "is_reserved": 0, "is_disabled": 0, "fusion_lon": 0.0, "bike_id": "06b321c2557be72f956a8b5343b4eeea", "lon": -76.99802716666667, "rental_uris": {"ios": "https://dc.lft.to/lastmile_qr_scan", "android": "https://dc.lft.to/lastmile_qr_scan"}}, {"name": "ad46d198bccda3935f76eb2e8fa1ffd0", "fusion_lat": 0.0, "type": "electric_scooter", "lat": 38.90863216666666, "is_reserved": 0, "is_disabled": 0, "fusion_lon": 0.0, "bike_id": "ad46d198bccda3935f76eb2e8fa1ffd0", "lon": -77.02711933333333, "rental_uris": {"ios": "https://dc.lft.to/lastmile_qr_scan", "android": "https://dc.lft.to/lastmile_qr_scan"}}, {"name": "d625cb06f6af266c9fc3992028774244", "fusion_lat": 0.0, "type": "electric_bike", "lat": 38.990916, "is_reserved": 0, "is_disabled": 0, "fusion_lon": 0.0, "bike_id": "d625cb06f6af266c9fc3992028774244", "lon": -76.874978, "rental_uris": {"ios": "https://dc.lft.to/lastmile_qr_scan", "android": "https://dc.lft.to/lastmile_qr_scan"}}, {"name": "5b630bd98c10edfd4ab94b2131aec725", "fusion_lat": 0.0, "type": "electric_scooter", "lat": 38.916955, "is_reserved": 0, "is_disabled": 0, "fusion_lon": 0.0, "bike_id": "5b630bd98c10edfd4ab94b2131aec725", "lon": -77.03896216666666, "rental_uris": {"ios": "https://dc.lft.to/lastmile_qr_scan", "android": "https://dc.lft.to/lastmile_qr_scan"}}, {"name": "aa38334fbe521a7bb0c1c629630649fc", "fusion_lat": 0.0, "type": "electric_scooter", "lat": 38.902990333333335, "is_reserved": 0, "is_disabled": 0, "fusion_lon": 0.0, "bike_id": "aa38334fbe521a7bb0c1c629630649fc", "lon": -77.03846133333333, "rental_uris": {"ios": "https://dc.lft.to/lastmile_qr_scan", "android": "https://dc.lft.to/lastmile_qr_scan"}}, {"name": "c3100ff6f37148713e9103e7da11f6a1", "fusion_lat": 0.0, "type": "electric_scooter", "lat": 38.90543233333333, "is_reserved": 0, "is_disabled": 0, "fusion_lon": 0.0, "bike_id": "c3100ff6f37148713e9103e7da11f6a1", "lon": -77.04075066666667, "rental_uris": {"ios": "https://dc.lft.to/lastmile_qr_scan", "android": "https://dc.lft.to/lastmile_qr_scan"}}, {"name": "a33c6f13cd0964ad8f5bc3e0f3823db3", "fusion_lat": 0.0, "type": "electric_scooter", "lat": 38.92693883333333, "is_reserved": 0, "is_disabled": 0, "fusion_lon": 0.0, "bike_id": "a33c6f13cd0964ad8f5bc3e0f3823db3", "lon": -77.02422866666667, "rental_uris": {"ios": "https://dc.lft.to/lastmile_qr_scan", "android": "https://dc.lft.to/lastmile_qr_scan"}}, {"name": "33942a208299ca65aeec4ccb65fe7ceb", "fusion_lat": 0.0, "type": "electric_scooter", "lat": 38.90725183333333, "is_reserved": 0, "is_disabled": 0, "fusion_lon": 0.0, "bike_id": "33942a208299ca65aeec4ccb65fe7ceb", "lon": -77.04889083333333, "rental_uris": {"ios": "https://dc.lft.to/lastmile_qr_scan", "android": "https://dc.lft.to/lastmile_qr_scan"}}, {"name": "e579327a1504554f47c677a2471a35d4", "fusion_lat": 0.0, "type": "electric_scooter", "lat": 38.91273833333333, "is_reserved": 0, "is_disabled": 0, "fusion_lon": 0.0, "bike_id": "e579327a1504554f47c677a2471a35d4", "lon": -77.04499216666666, "rental_uris": {"ios": "https://dc.lft.to/lastmile_qr_scan", "android": "https://dc.lft.to/lastmile_qr_scan"}}, {"name": "46dee54e687cfb67255f3089fe680250", "fusion_lat": 0.0, "type": "electric_scooter", "lat": 38.9000365, "is_reserved": 0, "is_disabled": 0, "fusion_lon": 0.0, "bike_id": "46dee54e687cfb67255f3089fe680250", "lon": -77.05566416666667, "rental_uris": {"ios": "https://dc.lft.to/lastmile_qr_scan", "android": "https://dc.lft.to/lastmile_qr_scan"}}, {"name": "c8d5352192db92f514ce5fac425c75d8", "fusion_lat": 0.0, "type": "electric_bike", "lat": 38.970904166666664, "is_reserved": 0, "is_disabled": 0, "fusion_lon": 0.0, "bike_id": "c8d5352192db92f514ce5fac425c75d8", "lon": -77.06961366666667, "rental_uris": {"ios": "https://dc.lft.to/lastmile_qr_scan", "android": "https://dc.lft.to/lastmile_qr_scan"}}, {"name": "0631f25e9544c865859d0339258f5c0c", "fusion_lat": 0.0, "type": "electric_scooter", "lat": 38.911946, "is_reserved": 0, "is_disabled": 0, "fusion_lon": 0.0, "bike_id": "0631f25e9544c865859d0339258f5c0c", "lon": -77.0453515, "rental_uris": {"ios": "https://dc.lft.to/lastmile_qr_scan", "android": "https://dc.lft.to/lastmile_qr_scan"}}, {"name": "2d9831493b50f2c7beb636956efd8277", "fusion_lat": 0.0, "type": "electric_scooter", "lat": 38.895092166666664, "is_reserved": 0, "is_disabled": 0, "fusion_lon": 0.0, "bike_id": "2d9831493b50f2c7beb636956efd8277", "lon": -77.01104816666667, "rental_uris": {"ios": "https://dc.lft.to/lastmile_qr_scan", "android": "https://dc.lft.to/lastmile_qr_scan"}}, {"name": "f12689aed390dc67e5acdcb854802f96", "fusion_lat": 0.0, "type": "electric_scooter", "lat": 38.9353665, "is_reserved": 0, "is_disabled": 0, "fusion_lon": 0.0, "bike_id": "f12689aed390dc67e5acdcb854802f96", "lon": -77.03416616666667, "rental_uris": {"ios": "https://dc.lft.to/lastmile_qr_scan", "android": "https://dc.lft.to/lastmile_qr_scan"}}, {"name": "8bcd4f6d0be55b734cd0422c61b31c40", "fusion_lat": 0.0, "type": "electric_scooter", "lat": 38.90569633333333, "is_reserved": 0, "is_disabled": 0, "fusion_lon": 0.0, "bike_id": "8bcd4f6d0be55b734cd0422c61b31c40", "lon": -77.00578433333334, "rental_uris": {"ios": "https://dc.lft.to/lastmile_qr_scan", "android": "https://dc.lft.to/lastmile_qr_scan"}}, {"name": "a1862beb7a8d91b3ecd4bad84eae8d84", "fusion_lat": 0.0, "type": "electric_scooter", "lat": 38.926347, "is_reserved": 0, "is_disabled": 0, "fusion_lon": 0.0, "bike_id": "a1862beb7a8d91b3ecd4bad84eae8d84", "lon": -77.03792066666666, "rental_uris": {"ios": "https://dc.lft.to/lastmile_qr_scan", "android": "https://dc.lft.to/lastmile_qr_scan"}}, {"name": "cc3a00addb1fdd0801e676a013959e38", "fusion_lat": 0.0, "type": "electric_bike", "lat": 38.910027, "is_reserved": 0, "is_disabled": 0, "fusion_lon": 0.0, "bike_id": "cc3a00addb1fdd0801e676a013959e38", "lon": -77.06168333333333, "rental_uris": {"ios": "https://dc.lft.to/lastmile_qr_scan", "android": "https://dc.lft.to/lastmile_qr_scan"}}, {"name": "aa5461dd8f05aa59899be312397f9864", "fusion_lat": 0.0, "type": "electric_scooter", "lat": 38.9023385, "is_reserved": 0, "is_disabled": 0, "fusion_lon": 0.0, "bike_id": "aa5461dd8f05aa59899be312397f9864", "lon": -77.04610633333333, "rental_uris": {"ios": "https://dc.lft.to/lastmile_qr_scan", "android": "https://dc.lft.to/lastmile_qr_scan"}}, {"name": "412967ba617fec42cb833b8026478c78", "fusion_lat": 0.0, "type": "electric_scooter", "lat": 38.923475833333335, "is_reserved": 0, "is_disabled": 0, "fusion_lon": 0.0, "bike_id": "412967ba617fec42cb833b8026478c78", "lon": -77.033909, "rental_uris": {"ios": "https://dc.lft.to/lastmile_qr_scan", "android": "https://dc.lft.to/lastmile_qr_scan"}}, {"name": "56de8406eece689100909f8b74cf955e", "fusion_lat": 0.0, "type": "electric_scooter", "lat": 38.913342, "is_reserved": 0, "is_disabled": 0, "fusion_lon": 0.0, "bike_id": "56de8406eece689100909f8b74cf955e", "lon": -77.0487275, "rental_uris": {"ios": "https://dc.lft.to/lastmile_qr_scan", "android": "https://dc.lft.to/lastmile_qr_scan"}}, {"name": "bbb8b1db5dbeee9f05415755b95fae61", "fusion_lat": 0.0, "type": "electric_scooter", "lat": 38.89852, "is_reserved": 0, "is_disabled": 0, "fusion_lon": 0.0, "bike_id": "bbb8b1db5dbeee9f05415755b95fae61", "lon": -77.0161395, "rental_uris": {"ios": "https://dc.lft.to/lastmile_qr_scan", "android": "https://dc.lft.to/lastmile_qr_scan"}}, {"name": "d092ae6d5bb361530f792efb7d64c908", "fusion_lat": 0.0, "type": "electric_scooter", "lat": 38.942812, "is_reserved": 0, "is_disabled": 0, "fusion_lon": 0.0, "bike_id": "d092ae6d5bb361530f792efb7d64c908", "lon": -77.02502133333333, "rental_uris": {"ios": "https://dc.lft.to/lastmile_qr_scan", "android": "https://dc.lft.to/lastmile_qr_scan"}}, {"name": "e5b02d60add691ace08091d5940e1ca5", "fusion_lat": 0.0, "type": "electric_scooter", "lat": 38.90034433333334, "is_reserved": 0, "is_disabled": 0, "fusion_lon": 0.0, "bike_id": "e5b02d60add691ace08091d5940e1ca5", "lon": -76.99835683333333, "rental_uris": {"ios": "https://dc.lft.to/lastmile_qr_scan", "android": "https://dc.lft.to/lastmile_qr_scan"}}, {"name": "4529f63409f1c0f1861b899f08a89317", "fusion_lat": 0.0, "type": "electric_scooter", "lat": 38.9020355, "is_reserved": 0, "is_disabled": 0, "fusion_lon": 0.0, "bike_id": "4529f63409f1c0f1861b899f08a89317", "lon": -76.98203583333333, "rental_uris": {"ios": "https://dc.lft.to/lastmile_qr_scan", "android": "https://dc.lft.to/lastmile_qr_scan"}}, {"name": "092771076ac1e0f3106d363bf53202c7", "fusion_lat": 0.0, "type": "electric_scooter", "lat": 38.885927333333335, "is_reserved": 0, "is_disabled": 0, "fusion_lon": 0.0, "bike_id": "092771076ac1e0f3106d363bf53202c7", "lon": -77.02208716666667, "rental_uris": {"ios": "https://dc.lft.to/lastmile_qr_scan", "android": "https://dc.lft.to/lastmile_qr_scan"}}, {"name": "a49eee465257d355fcbd5158523e16ae", "fusion_lat": 0.0, "type": "electric_scooter", "lat": 38.93420066666667, "is_reserved": 0, "is_disabled": 0, "fusion_lon": 0.0, "bike_id": "a49eee465257d355fcbd5158523e16ae", "lon": -77.041884, "rental_uris": {"ios": "https://dc.lft.to/lastmile_qr_scan", "android": "https://dc.lft.to/lastmile_qr_scan"}}, {"name": "1e6d46127a1b98d0f8ad0e5cb288bd0a", "fusion_lat": 0.0, "type": "electric_scooter", "lat": 38.9054615, "is_reserved": 0, "is_disabled": 0, "fusion_lon": 0.0, "bike_id": "1e6d46127a1b98d0f8ad0e5cb288bd0a", "lon": -77.06270533333333, "rental_uris": {"ios": "https://dc.lft.to/lastmile_qr_scan", "android": "https://dc.lft.to/lastmile_qr_scan"}}, {"name": "f29ef4969ff030707d43a58e2e1862d1", "fusion_lat": 0.0, "type": "electric_bike", "lat": 38.883461, "is_reserved": 0, "is_disabled": 0, "fusion_lon": 0.0, "bike_id": "f29ef4969ff030707d43a58e2e1862d1", "lon": -77.18294016666667, "rental_uris": {"ios": "https://dc.lft.to/lastmile_qr_scan", "android": "https://dc.lft.to/lastmile_qr_scan"}}, {"name": "1fcf73646e61634772230cb28dea7fb5", "fusion_lat": 0.0, "type": "electric_scooter", "lat": 38.9104715, "is_reserved": 0, "is_disabled": 0, "fusion_lon": 0.0, "bike_id": "1fcf73646e61634772230cb28dea7fb5", "lon": -77.04370233333333, "rental_uris": {"ios": "https://dc.lft.to/lastmile_qr_scan", "android": "https://dc.lft.to/lastmile_qr_scan"}}, {"name": "ba167cd50058d2d60d044bd0893becf0", "fusion_lat": 0.0, "type": "electric_scooter", "lat": 38.9272835, "is_reserved": 0, "is_disabled": 0, "fusion_lon": 0.0, "bike_id": "ba167cd50058d2d60d044bd0893becf0", "lon": -77.0714075, "rental_uris": {"ios": "https://dc.lft.to/lastmile_qr_scan", "android": "https://dc.lft.to/lastmile_qr_scan"}}, {"name": "b7d1404188691f2c11b2c5892b828d8a", "fusion_lat": 0.0, "type": "electric_scooter", "lat": 38.89373533333333, "is_reserved": 0, "is_disabled": 0, "fusion_lon": 0.0, "bike_id": "b7d1404188691f2c11b2c5892b828d8a", "lon": -76.94995883333333, "rental_uris": {"ios": "https://dc.lft.to/lastmile_qr_scan", "android": "https://dc.lft.to/lastmile_qr_scan"}}, {"name": "b517fec979be89640d23f5caaa47504e", "fusion_lat": 0.0, "type": "electric_scooter", "lat": 38.92667983333333, "is_reserved": 0, "is_disabled": 0, "fusion_lon": 0.0, "bike_id": "b517fec979be89640d23f5caaa47504e", "lon": -77.01481983333333, "rental_uris": {"ios": "https://dc.lft.to/lastmile_qr_scan", "android": "https://dc.lft.to/lastmile_qr_scan"}}, {"name": "2ec9e78e80c2903c1d663534618176df", "fusion_lat": 0.0, "type": "electric_scooter", "lat": 38.89594616666667, "is_reserved": 0, "is_disabled": 0, "fusion_lon": 0.0, "bike_id": "2ec9e78e80c2903c1d663534618176df", "lon": -77.02857633333333, "rental_uris": {"ios": "https://dc.lft.to/lastmile_qr_scan", "android": "https://dc.lft.to/lastmile_qr_scan"}}, {"name": "485f44a98c1b411a84cae65a4f338519", "fusion_lat": 0.0, "type": "electric_scooter", "lat": 38.9111825, "is_reserved": 0, "is_disabled": 0, "fusion_lon": 0.0, "bike_id": "485f44a98c1b411a84cae65a4f338519", "lon": -77.03921716666666, "rental_uris": {"ios": "https://dc.lft.to/lastmile_qr_scan", "android": "https://dc.lft.to/lastmile_qr_scan"}}, {"name": "af8ef72f9fa90dfd6f9f028b24789ebe", "fusion_lat": 0.0, "type": "electric_bike", "lat": 38.86908616666667, "is_reserved": 0, "is_disabled": 0, "fusion_lon": 0.0, "bike_id": "af8ef72f9fa90dfd6f9f028b24789ebe", "lon": -77.13176466666667, "rental_uris": {"ios": "https://dc.lft.to/lastmile_qr_scan", "android": "https://dc.lft.to/lastmile_qr_scan"}}, {"name": "39eddd92072eae8ef001d7fefeb56994", "fusion_lat": 0.0, "type": "electric_scooter", "lat": 38.899333666666664, "is_reserved": 0, "is_disabled": 0, "fusion_lon": 0.0, "bike_id": "39eddd92072eae8ef001d7fefeb56994", "lon": -77.00349916666667, "rental_uris": {"ios": "https://dc.lft.to/lastmile_qr_scan", "android": "https://dc.lft.to/lastmile_qr_scan"}}, {"name": "a03638d82e07f989155c5965de7045cf", "fusion_lat": 0.0, "type": "electric_scooter", "lat": 38.902588, "is_reserved": 0, "is_disabled": 0, "fusion_lon": 0.0, "bike_id": "a03638d82e07f989155c5965de7045cf", "lon": -77.01753283333333, "rental_uris": {"ios": "https://dc.lft.to/lastmile_qr_scan", "android": "https://dc.lft.to/lastmile_qr_scan"}}, {"name": "9332b060d3547dbb1ff4d841283e8c86", "fusion_lat": 0.0, "type": "electric_scooter", "lat": 38.9064415, "is_reserved": 0, "is_disabled": 0, "fusion_lon": 0.0, "bike_id": "9332b060d3547dbb1ff4d841283e8c86", "lon": -76.98573266666666, "rental_uris": {"ios": "https://dc.lft.to/lastmile_qr_scan", "android": "https://dc.lft.to/lastmile_qr_scan"}}, {"name": "a3dcccaf560deb3573b2b1a068e86b38", "fusion_lat": 0.0, "type": "electric_bike", "lat": 38.83439583333333, "is_reserved": 0, "is_disabled": 0, "fusion_lon": 0.0, "bike_id": "a3dcccaf560deb3573b2b1a068e86b38", "lon": -77.008277, "rental_uris": {"ios": "https://dc.lft.to/lastmile_qr_scan", "android": "https://dc.lft.to/lastmile_qr_scan"}}, {"name": "05c5cfb6f4b70b03cc1454745a59a926", "fusion_lat": 0.0, "type": "electric_scooter", "lat": 38.911228, "is_reserved": 0, "is_disabled": 0, "fusion_lon": 0.0, "bike_id": "05c5cfb6f4b70b03cc1454745a59a926", "lon": -77.04371733333333, "rental_uris": {"ios": "https://dc.lft.to/lastmile_qr_scan", "android": "https://dc.lft.to/lastmile_qr_scan"}}, {"name": "cdaa92248ec9bf68b2190a4d3a3efdf9", "fusion_lat": 0.0, "type": "electric_scooter", "lat": 38.892224, "is_reserved": 0, "is_disabled": 0, "fusion_lon": 0.0, "bike_id": "cdaa92248ec9bf68b2190a4d3a3efdf9", "lon": -77.01373083333333, "rental_uris": {"ios": "https://dc.lft.to/lastmile_qr_scan", "android": "https://dc.lft.to/lastmile_qr_scan"}}, {"name": "2eec3830565cbd53b7b4e9a0abf32962", "fusion_lat": 0.0, "type": "electric_scooter", "lat": 38.900484166666665, "is_reserved": 0, "is_disabled": 0, "fusion_lon": 0.0, "bike_id": "2eec3830565cbd53b7b4e9a0abf32962", "lon": -77.01695333333333, "rental_uris": {"ios": "https://dc.lft.to/lastmile_qr_scan", "android": "https://dc.lft.to/lastmile_qr_scan"}}, {"name": "5d3fe3b491d3360c51540b73f6b95d0f", "fusion_lat": 0.0, "type": "electric_scooter", "lat": 38.9003255, "is_reserved": 0, "is_disabled": 0, "fusion_lon": 0.0, "bike_id": "5d3fe3b491d3360c51540b73f6b95d0f", "lon": -77.00204566666666, "rental_uris": {"ios": "https://dc.lft.to/lastmile_qr_scan", "android": "https://dc.lft.to/lastmile_qr_scan"}}, {"name": "183cd08f62250d04b9c4dd33c2bbefdb", "fusion_lat": 0.0, "type": "electric_scooter", "lat": 38.84427083333333, "is_reserved": 0, "is_disabled": 0, "fusion_lon": 0.0, "bike_id": "183cd08f62250d04b9c4dd33c2bbefdb", "lon": -76.99779583333333, "rental_uris": {"ios": "https://dc.lft.to/lastmile_qr_scan", "android": "https://dc.lft.to/lastmile_qr_scan"}}, {"name": "eabbc5ffece357cb0b73e0ba7a780ef0", "fusion_lat": 0.0, "type": "electric_scooter", "lat": 38.917606666666664, "is_reserved": 0, "is_disabled": 0, "fusion_lon": 0.0, "bike_id": "eabbc5ffece357cb0b73e0ba7a780ef0", "lon": -77.02710033333334, "rental_uris": {"ios": "https://dc.lft.to/lastmile_qr_scan", "android": "https://dc.lft.to/lastmile_qr_scan"}}, {"name": "ff5a95c4591c30d94216b956285ace00", "fusion_lat": 0.0, "type": "electric_scooter", "lat": 38.926475333333336, "is_reserved": 0, "is_disabled": 0, "fusion_lon": 0.0, "bike_id": "ff5a95c4591c30d94216b956285ace00", "lon": -77.0369635, "rental_uris": {"ios": "https://dc.lft.to/lastmile_qr_scan", "android": "https://dc.lft.to/lastmile_qr_scan"}}, {"name": "de1dbaec405e0c620c7b211ffa5baa55", "fusion_lat": 0.0, "type": "electric_scooter", "lat": 38.902622, "is_reserved": 0, "is_disabled": 0, "fusion_lon": 0.0, "bike_id": "de1dbaec405e0c620c7b211ffa5baa55", "lon": -76.9960245, "rental_uris": {"ios": "https://dc.lft.to/lastmile_qr_scan", "android": "https://dc.lft.to/lastmile_qr_scan"}},