{"data": {"bikes": [{"rental_uris": {"ios": "https://dc.lft.to/lastmile_qr_scan", "android": "https://dc.lft.to/lastmile_qr_scan"}, "fusion_lon": 0.0, "type": "electric_scooter", "is_reserved": 0, "lon": -77.0056655, "is_disabled": 0, "fusion_lat": 0.0, "bike_id": "7ac6e6c9e3f0737d4b0b349cea82ba57", "name": "7ac6e6c9e3f0737d4b0b349cea82ba57", "lat": 38.8850595}, {"rental_uris": {"ios": "https://dc.lft.to/lastmile_qr_scan", "android": "https://dc.lft.to/lastmile_qr_scan"}, "fusion_lon": 0.0, "type": "electric_scooter", "is_reserved": 0, "lon": -77.04719033333333, "is_disabled": 0, "fusion_lat": 0.0, "bike_id": "219ac2bf34c38f47c003d86065d1d82a", "name": "219ac2bf34c38f47c003d86065d1d82a", "lat": 38.8996645}, {"rental_uris": {"ios": "https://dc.lft.to/lastmile_qr_scan", "android": "https://dc.lft.to/lastmile_qr_scan"}, "fusion_lon": 0.0, "type": "electric_bike", "is_reserved": 0, "lon": -77.058522, "is_disabled": 0, "fusion_lat": 0.0, "bike_id": "d1754f65563ee9b5ee0e4fa189330210", "name": "d1754f65563ee9b5ee0e4fa189330210", "lat": 38.92382383333333}, {"rental_uris": {"ios": "https://dc.lft.to/lastmile_qr_scan", "android": "https://dc.lft.to/lastmile_qr_scan"}, "fusion_lon": 0.0, "type": "electric_scooter", "is_reserved": 0, "lon": -77.04525316666667, "is_disabled": 0, "fusion_lat": 0.0, "bike_id": "9eeb6790f749d3138dc519b9021fe181", "name": "9eeb6790f749d3138dc519b9021fe181", "lat": 38.90570966666667}, {"rental_uris": {"ios": "https://dc.lft.to/lastmile_qr_scan", "android": "https://dc.lft.to/lastmile_qr_scan"}, "fusion_lon": 0.0, "type": "electric_scooter", "is_reserved": 0, "lon": -76.937631, "is_disabled": 0, "fusion_lat": 0.0, "bike_id": "86aa284332a77c39760b286c3c9c844a", "name": "86aa284332a77c39760b286c3c9c844a", "lat": 38.89964166666667}, {"rental_uris": {"ios": "https://dc.lft.to/lastmile_qr_scan", "android": "https://dc.lft.to/lastmile_qr_scan"}, "fusion_lon": 0.0, "type": "electric_scooter", "is_reserved": 0, "lon": -77.003476, "is_disabled": 0, "fusion_lat": 0.0, "bike_id": "f74d8704e512989a05b1d9f4579a6ef1", "name": "f74d8704e512989a05b1d9f4579a6ef1", "lat": 38.89617716666667}, {"rental_uris": {"ios": "https://dc.lft.to/lastmile_qr_scan", "android": "https://dc.lft.to/lastmile_qr_scan"}, "fusion_lon": 0.0, "type": "electric_scooter", "is_reserved": 0, "lon": -77.0150425, "is_disabled": 0, "fusion_lat": 0.0, "bike_id": "829b76c18814c7717c483590b90713ae", "name": "829b76c18814c7717c483590b90713ae", "lat": 38.907181}, {"rental_uris": {"ios": "https://dc.lft.to/lastmile_qr_scan", "android": "https://dc.lft.to/lastmile_qr_scan"}, "fusion_lon": 0.0, "type": "electric_scooter", "is_reserved": 0, "lon": -77.01784266666667, "is_disabled": 0, "fusion_lat": 0.0, "bike_id": "957e384e9d3382b0bcfa2b0caad9cb0a", "name": "957e384e9d3382b0bcfa2b0caad9cb0a", "lat": 38.921304}, {"rental_uris": {"ios": "https://dc.lft.to/lastmile_qr_scan", "android": "https://dc.lft.to/lastmile_qr_scan"}, "fusion_lon": 0.0, "type": "electric_scooter", "is_reserved": 0, "lon": -77.04151883333333, "is_disabled": 0, "fusion_lat": 0.0, "bike_id": "1a1e66ea5b9cdb6bedfc569cc83d7d37", "name": "1a1e66ea5b9cdb6bedfc569cc83d7d37", "lat": 38.89575516666667}, {"rental_uris": {"ios": "https://dc.lft.to/lastmile_qr_scan", "android": "https://dc.lft.to/lastmile_qr_scan"}, "fusion_lon": 0.0, "type": "electric_scooter", "is_reserved": 0, "lon": -77.011062, "is_disabled": 0, "fusion_lat": 0.0, "bike_id": "c2c8594244687453742cdd6a104fde2f", "name": "c2c8594244687453742cdd6a104fde2f", "lat": 38.90341816666667}, {"rental_uris": {"ios": "https://dc.lft.to/lastmile_qr_scan", "android": "https://dc.lft.to/lastmile_qr_scan"}, "fusion_lon": 0.0, "type": "electric_scooter", "is_reserved": 0, "lon": -77.0320305, "is_disabled": 0, "fusion_lat": 0.0, "bike_id": "5b86fa652599d066f011b50edc7773e3", "name": "5b86fa652599d066f011b50edc7773e3", "lat": 38.909231166666665}, {"rental_uris": {"ios": "https://dc.lft.to/lastmile_qr_scan", "android": "https://dc.lft.to/lastmile_qr_scan"}, "fusion_lon": 0.0, "type": "electric_bike", "is_reserved": 0, "lon": -77.00829233333333, "is_disabled": 0, "fusion_lat": 0.0, "bike_id": "d39e7d825dd205375f98d11aee4af6db", "name": "d39e7d825dd205375f98d11aee4af6db", "lat": 38.8302955}, {"rental_uris": {"ios": "https://dc.lft.to/lastmile_qr_scan", "android": "https://dc.lft.to/lastmile_qr_scan"}, "fusion_lon": 0.0, "type": "electric_bike", "is_reserved": 0, "lon": -77.06930633333333, "is_disabled": 0, "fusion_lat": 0.0, "bike_id": "21b08de97cdbc49998f248d083509bee", "name": "21b08de97cdbc49998f248d083509bee", "lat": 38.84628333333333}, {"rental_uris": {"ios": "https://dc.lft.to/lastmile_qr_scan", "android": "https://dc.lft.to/lastmile_qr_scan"}, "fusion_lon": 0.0, "type": "electric_scooter", "is_reserved": 0, "lon": -77.03779166666666, "is_disabled": 0, "fusion_lat": 0.0, "bike_id": "bfb71de7323c2d181d353e56bc5bf1d6", "name": "bfb71de7323c2d181d353e56bc5bf1d6", "lat": 38.92559933333333}, {"rental_uris": {"ios": "https://dc.lft.to/lastmile_qr_scan", "android": "https://dc.lft.to/lastmile_qr_scan"}, "fusion_lon": 0.0, "type": "electric_scooter", "is_reserved": 0, "lon": -77.0379975, "is_disabled": 0, "fusion_lat": 0.0, "bike_id": "f72104976a59373dcca53698ca6c9f33", "name": "f72104976a59373dcca53698ca6c9f33", "lat": 38.918077}, {"rental_uris": {"ios": "https://dc.lft.to/lastmile_qr_scan", "android": "https://dc.lft.to/lastmile_qr_scan"}, "fusion_lon": 0.0, "type": "electric_scooter", "is_reserved": 0, "lon": -77.038153, "is_disabled": 0, "fusion_lat": 0.0, "bike_id": "53f647ccd43ad47d5f2c4f64563bb3ef", "name": "53f647ccd43ad47d5f2c4f64563bb3ef", "lat": 38.91413133333333}, {"rental_uris": {"ios": "https://dc.lft.to/lastmile_qr_scan", "android": "https://dc.lft.to/lastmile_qr_scan"}, "fusion_lon": 0.0, "type": "electric_scooter", "is_reserved": 0, "lon": -77.0324775, "is_disabled": 0, "fusion_lat": 0.0, "bike_id": "870f95791fe28ae173775a8438414f49", "name": "870f95791fe28ae173775a8438414f49", "lat": 38.91703833333333}, {"rental_uris": {"ios": "https://dc.lft.to/lastmile_qr_scan", "android": "https://dc.lft.to/lastmile_qr_scan"}, "fusion_lon": 0.0, "type": "electric_scooter", "is_reserved": 0, "lon": -77.03384166666666, "is_disabled": 0, "fusion_lat": 0.0, "bike_id": "a3eee8f52633c9ccc30f6a3da5347fc3", "name": "a3eee8f52633c9ccc30f6a3da5347fc3", "lat": 38.90969183333333}, {"rental_uris": {"ios": "https://dc.lft.to/lastmile_qr_scan", "android": "https://dc.lft.to/lastmile_qr_scan"}, "fusion_lon": 0.0, "type": "electric_scooter", "is_reserved": 0, "lon": -77.04814516666667, "is_disabled": 0, "fusion_lat": 0.0, "bike_id": "e44e901785fee3039d92f8c2c6d2d29b", "name": "e44e901785fee3039d92f8c2c6d2d29b", "lat": 38.89831016666667}, {"rental_uris": {"ios": "https://dc.lft.to/lastmile_qr_scan", "android": "https://dc.lft.to/lastmile_qr_scan"}, "fusion_lon": 0.0, "type": "electric_scooter", "is_reserved": 0, "lon": -76.9244285, "is_disabled": 0, "fusion_lat": 0.0, "bike_id": "507abeea6f9d4798e196b762d2ddaca0", "name": "507abeea6f9d4798e196b762d2ddaca0", "lat": 38.88515133333333}, {"rental_uris": {"ios": "https://dc.lft.to/lastmile_qr_scan", "android": "https://dc.lft.to/lastmile_qr_scan"}, "fusion_lon": 0.0, "type": "electric_bike", "is_reserved": 0, "lon": -76.90750166666666, "is_disabled": 0, "fusion_lat": 0.0, "bike_id": "5f62d4332713315f30f6e13aabab233f", "name": "5f62d4332713315f30f6e13aabab233f", "lat": 38.8961465}, {"rental_uris": {"ios": "https://dc.lft.to/lastmile_qr_scan", "android": "https://dc.lft.to/lastmile_qr_scan"}, "fusion_lon": 0.0, "type": "electric_scooter", "is_reserved": 0, "lon": -77.07004933333333, "is_disabled": 0, "fusion_lat": 0.0, "bike_id": "ba214776afcb0048a131d95c8f1cc87b", "name": "ba214776afcb0048a131d95c8f1cc87b", "lat": 38.905978833333336}, {"rental_uris": {"ios": "https://dc.lft.to/lastmile_qr_scan", "android": "https://dc.lft.to/lastmile_qr_scan"}, "fusion_lon": 0.0, "type": "electric_scooter", "is_reserved": 0, "lon": -76.9770265, "is_disabled": 0, "fusion_lat": 0.0, "bike_id": "7adbb350ed899ecfd47c350d7cad03ac", "name": "7adbb350ed899ecfd47c350d7cad03ac", "lat": 38.902539}, {"rental_uris": {"ios": "https://dc.lft.to/lastmile_qr_scan", "android": "https://dc.lft.to/lastmile_qr_scan"}, "fusion_lon": 0.0, "type": "electric_scooter", "is_reserved": 0, "lon": -77.0347115, "is_disabled": 0, "fusion_lat": 0.0, "bike_id": "f8272a1070f20137446186e38f7c7335", "name": "f8272a1070f20137446186e38f7c7335", "lat": 38.935265}, {"rental_uris": {"ios": "https://dc.lft.to/lastmile_qr_scan", "android": "https://dc.lft.to/lastmile_qr_scan"}, "fusion_lon": 0.0, "type": "electric_scooter", "is_reserved": 0, "lon": -77.02008116666667, "is_disabled": 0, "fusion_lat": 0.0, "bike_id": "54090b0e64699cf5ac75f8a75799d3a8", "name": "54090b0e64699cf5ac75f8a75799d3a8", "lat": 38.924159833333334}, {"rental_uris": {"ios": "https://dc.lft.to/lastmile_qr_scan", "android": "https://dc.lft.to/lastmile_qr_scan"}, "fusion_lon": 0.0, "type": "electric_scooter", "is_reserved": 0, "lon": -77.03362966666667, "is_disabled": 0, "fusion_lat": 0.0, "bike_id": "070b15ee9e207af2056d2f0519e24f7c", "name": "070b15ee9e207af2056d2f0519e24f7c", "lat": 38.9111285}, {"rental_uris": {"ios": "https://dc.lft.to/lastmile_qr_scan", "android": "https://dc.lft.to/lastmile_qr_scan"}, "fusion_lon": 0.0, "type": "electric_scooter", "is_reserved": 0, "lon": -77.02207816666666, "is_disabled": 0, "fusion_lat": 0.0, "bike_id": "7004b69685060e4bcca27ca115c18d70", "name": "7004b69685060e4bcca27ca115c18d70", "lat": 38.95752133333333}, {"rental_uris": {"ios": "https://dc.lft.to/lastmile_qr_scan", "android": "https://dc.lft.to/lastmile_qr_scan"}, "fusion_lon": 0.0, "type": "electric_scooter", "is_reserved": 0, "lon": -77.02231433333333, "is_disabled": 0, "fusion_lat": 0.0, "bike_id": "5c21040aefc555e30b9ebc1eaf4e4cc5", "name": "5c21040aefc555e30b9ebc1eaf4e4cc5", "lat": 38.9017105}, {"rental_uris": {"ios": "https://dc.lft.to/lastmile_qr_scan", "android": "https://dc.lft.to/lastmile_qr_scan"}, "fusion_lon": 0.0, "type": "electric_scooter", "is_reserved": 0, "lon": -77.05330716666667, "is_disabled": 0, "fusion_lat": 0.0, "bike_id": "90c5d090039b001cc81942e34fa6dd3f", "name": "90c5d090039b001cc81942e34fa6dd3f", "lat": 38.904543333333336}, {"rental_uris": {"ios": "https://dc.lft.to/lastmile_qr_scan", "android": "https://dc.lft.to/lastmile_qr_scan"}, "fusion_lon": 0.0, "type": "electric_scooter", "is_reserved": 0, "lon": -76.98052683333333, "is_disabled": 0, "fusion_lat": 0.0, "bike_id": "5926908607b14f8f9db88565fef67e1b", "name": "5926908607b14f8f9db88565fef67e1b", "lat": 38.885271833333334}, {"rental_uris": {"ios": "https://dc.lft.to/lastmile_qr_scan", "android": "https://dc.lft.to/lastmile_qr_scan"}, "fusion_lon": 0.0, "type": "electric_scooter", "is_reserved": 0, "lon": -77.02114233333333, "is_disabled": 0, "fusion_lat": 0.0, "bike_id": "ca191b6920458c94ebe9818dfdce5122", "name": "ca191b6920458c94ebe9818dfdce5122", "lat": 38.91741183333333}, {"rental_uris": {"ios": "https://dc.lft.to/lastmile_qr_scan", "android": "https://dc.lft.to/lastmile_qr_scan"}, "fusion_lon": 0.0, "type": "electric_scooter", "is_reserved": 0, "lon": -77.0331055, "is_disabled": 0, "fusion_lat": 0.0, "bike_id": "7f47c16ce878d63363b82a463b353af1", "name": "7f47c16ce878d63363b82a463b353af1", "lat": 38.903064}, {"rental_uris": {"ios": "https://dc.lft.to/lastmile_qr_scan", "android": "https://dc.lft.to/lastmile_qr_scan"}, "fusion_lon": 0.0, "type": "electric_scooter", "is_reserved": 0, "lon": -77.03661983333333, "is_disabled": 0, "fusion_lat": 0.0, "bike_id": "707bc5950a4f7ac9655576be23a722ef", "name": "707bc5950a4f7ac9655576be23a722ef", "lat": 38.922431}, {"rental_uris": {"ios": "https://dc.lft.to/lastmile_qr_scan", "android": "https://dc.lft.to/lastmile_qr_scan"}, "fusion_lon": 0.0, "type": "electric_scooter", "is_reserved": 0, "lon": -77.04684433333334, "is_disabled": 0, "fusion_lat": 0.0, "bike_id": "b44293387820341f046b628a81ad6753", "name": "b44293387820341f046b628a81ad6753", "lat": 38.89740666666667}, {"rental_uris": {"ios": "https://dc.lft.to/lastmile_qr_scan", "android": "https://dc.lft.to/lastmile_qr_scan"}, "fusion_lon": 0.0, "type": "electric_scooter", "is_reserved": 0, "lon": -77.0226865, "is_disabled": 0, "fusion_lat": 0.0, "bike_id": "1a7e94aff65574fe7093e52a786411c2", "name": "1a7e94aff65574fe7093e52a786411c2", "lat": 38.926892333333335}, {"rental_uris": {"ios": "https://dc.lft.to/lastmile_qr_scan", "android": "https://dc.lft.to/lastmile_qr_scan"}, "fusion_lon": 0.0, "type": "electric_scooter", "is_reserved": 0, "lon": -77.031852, "is_disabled": 0, "fusion_lat": 0.0, "bike_id": "2297a079293c54692d317b311695b3f1", "name": "2297a079293c54692d317b311695b3f1", "lat": 38.916420333333335}, {"rental_uris": {"ios": "https://dc.lft.to/lastmile_qr_scan", "android": "https://dc.lft.to/lastmile_qr_scan"}, "fusion_lon": 0.0, "type": "electric_scooter", "is_reserved": 0, "lon": -77.00429833333334, "is_disabled": 0, "fusion_lat": 0.0, "bike_id": "ee4c0d672f1de274fea26fdae60e6438", "name": "ee4c0d672f1de274fea26fdae60e6438", "lat": 38.90396416666667}, {"rental_uris": {"ios": "https://dc.lft.to/lastmile_qr_scan", "android": "https://dc.lft.to/lastmile_qr_scan"}, "fusion_lon": 0.0, "type": "electric_bike", "is_reserved": 0, "lon": -76.90021983333334, "is_disabled": 0, "fusion_lat": 0.0, "bike_id": "ba49c3978a0dc7d3d74901463b4d2db9", "name": "ba49c3978a0dc7d3d74901463b4d2db9", "lat": 39.0064245}, {"rental_uris": {"ios": "https://dc.lft.to/lastmile_qr_scan", "android": "https://dc.lft.to/lastmile_qr_scan"}, "fusion_lon": 0.0, "type": "electric_scooter", "is_reserved": 0, "lon": -76.998359, "is_disabled": 0, "fusion_lat": 0.0, "bike_id": "51b5caf87a5c6ca93cd8158aa391fe30", "name": "51b5caf87a5c6ca93cd8158aa391fe30", "lat": 38.880002833333336}, {"rental_uris": {"ios": "https://dc.lft.to/lastmile_qr_scan", "android": "https://dc.lft.to/lastmile_qr_scan"}, "fusion_lon": 0.0, "type": "electric_scooter", "is_reserved": 0, "lon": -77.01710866666667, "is_disabled": 0, "fusion_lat": 0.0, "bike_id": "7f04c76c9792ac32c10e4417c0d45ab1", "name": "7f04c76c9792ac32c10e4417c0d45ab1", "lat": 38.90506}, {"rental_uris": {"ios": "https://dc.lft.to/lastmile_qr_scan", "android": "https://dc.lft.to/lastmile_qr_scan"}, "fusion_lon": 0.0, "type": "electric_scooter", "is_reserved": 0, "lon": -76.995037, "is_disabled": 0, "fusion_lat": 0.0, "bike_id": "264fd91beadc4be89fc2d172442cb60a", "name": "264fd91beadc4be89fc2d172442cb60a", "lat": 38.927008}, {"rental_uris": {"ios": "https://dc.lft.to/lastmile_qr_scan", "android": "https://dc.lft.to/lastmile_qr_scan"}, "fusion_lon": 0.0, "type": "electric_bike", "is_reserved": 0, "lon": -77.11412966666667, "is_disabled": 0, "fusion_lat": 0.0, "bike_id": "487093ef5edab6c8fe1ddb5520df38d1", "name": "487093ef5edab6c8fe1ddb5520df38d1", "lat": 38.85243583333333}, {"rental_uris": {"ios": "https://dc.lft.to/lastmile_qr_scan", "android": "https://dc.lft.to/lastmile_qr_scan"}, "fusion_lon": 0.0, "type": "electric_scooter", "is_reserved": 0, "lon": -76.93480266666667, "is_disabled": 0, "fusion_lat": 0.0, "bike_id": "b1d717f59d2505199d9a6e32dd89b1cd", "name": "b1d717f59d2505199d9a6e32dd89b1cd", "lat": 38.88294633333334}, {"rental_uris": {"ios": "https://dc.lft.to/lastmile_qr_scan", "android": "https://dc.lft.to/lastmile_qr_scan"}, "fusion_lon": 0.0, "type": "electric_scooter", "is_reserved": 0, "lon": -77.002517, "is_disabled": 0, "fusion_lat": 0.0, "bike_id": "925f3b327f09fd0f00a6b0da718cb6f3", "name": "925f3b327f09fd0f00a6b0da718cb6f3", "lat": 38.901272166666665}, {"rental_uris": {"ios": "https://dc.lft.to/lastmile_qr_scan", "android": "https://dc.lft.to/lastmile_qr_scan"}, "fusion_lon": 0.0, "type": "electric_scooter", "is_reserved": 0, "lon": -77.032862, "is_disabled": 0, "fusion_lat": 0.0, "bike_id": "b47b695742de4ec19d9927c26f22b64a", "name": "b47b695742de4ec19d9927c26f22b64a", "lat": 38.936195833333336}, {"rental_uris": {"ios": "https://dc.lft.to/lastmile_qr_scan", "android": "https://dc.lft.to/lastmile_qr_scan"}, "fusion_lon": 0.0, "type": "electric_scooter", "is_reserved": 0, "lon": -76.99613016666666, "is_disabled": 0, "fusion_lat": 0.0, "bike_id": "cf5ec0fedbdbeff8ea024904e733b3c4", "name": "cf5ec0fedbdbeff8ea024904e733b3c4", "lat": 38.8871905}, {"rental_uris": {"ios": "https://dc.lft.to/lastmile_qr_scan", "android": "https://dc.lft.to/lastmile_qr_scan"}, "fusion_lon": 0.0, "type": "electric_scooter", "is_reserved": 0, "lon": -77.00379583333333, "is_disabled": 0, "fusion_lat": 0.0, "bike_id": "cd763ff4d3f20bf9b159524a99a471d4", "name": "cd763ff4d3f20bf9b159524a99a471d4", "lat": 38.876367}, {"rental_uris": {"ios": "https://dc.lft.to/lastmile_qr_scan", "android": "https://dc.lft.to/lastmile_qr_scan"}, "fusion_lon": 0.0, "type": "electric_scooter", "is_reserved": 0, "lon": -76.93474416666666, "is_disabled": 0, "fusion_lat": 0.0, "bike_id": "ddeea441a63ec2af379ae08619be07d1", "name": "ddeea441a63ec2af379ae08619be07d1", "lat": 38.908316166666665}, {"rental_uris": {"ios": "https://dc.lft.to/lastmile_qr_scan", "android": "https://dc.lft.to/lastmile_qr_scan"}, "fusion_lon": 0.0, "type": "electric_scooter", "is_reserved": 0, "lon": -77.052272, "is_disabled": 0, "fusion_lat": 0.0, "bike_id": "008c098f187a1d0a21bfcd6e8b39fff3", "name": "008c098f187a1d0a21bfcd6e8b39fff3", "lat": 38.92353116666666}, {"rental_uris": {"ios": "https://dc.lft.to/lastmile_qr_scan", "android": "https://dc.lft.to/lastmile_qr_scan"}, "fusion_lon": 0.0, "type": "electric_scooter", "is_reserved": 0, "lon": -77.01232183333333, "is_disabled": 0, "fusion_lat": 0.0, "bike_id": "398c97dd328b7fc22256f7968b12f182", "name": "398c97dd328b7fc22256f7968b12f182", "lat": 38.900162}, {"rental_uris": {"ios": "https://dc.lft.to/lastmile_qr_scan", "android": "https://dc.lft.to/lastmile_qr_scan"}, "fusion_lon": 0.0, "type": "electric_scooter", "is_reserved": 0, "lon": -77.04528683333334, "is_disabled": 0, "fusion_lat": 0.0, "bike_id": "2065676ba2a44d076283881816ce3779", "name": "2065676ba2a44d076283881816ce3779", "lat": 38.899497333333336}, {"rental_uris": {"ios": "https://dc.lft.to/lastmile_qr_scan", "android": "https://dc.lft.to/lastmile_qr_scan"}, "fusion_lon": 0.0, "type": "electric_scooter", "is_reserved": 0, "lon": -76.9320945, "is_disabled": 0, "fusion_lat": 0.0, "bike_id": "f1c796fe39722c53c486065de28c49f2", "name": "f1c796fe39722c53c486065de28c49f2", "lat": 38.89661983333333}, {"rental_uris": {"ios": "https://dc.lft.to/lastmile_qr_scan", "android": "https://dc.lft.to/lastmile_qr_scan"}, "fusion_lon": 0.0, "type": "electric_scooter", "is_reserved": 0, "lon": -77.069995, "is_disabled": 0, "fusion_lat": 0.0, "bike_id": "c0e9d12b2db22bad8745ce56074eab2a", "name": "c0e9d12b2db22bad8745ce56074eab2a", "lat": 38.954940666666666}, {"rental_uris": {"ios": "https://dc.lft.to/lastmile_qr_scan", "android": "https://dc.lft.to/lastmile_qr_scan"}, "fusion_lon": 0.0, "type": "electric_bike", "is_reserved": 0, "lon": -76.98025116666666, "is_disabled": 0, "fusion_lat": 0.0, "bike_id": "ef335f0cd9c9d3435ca1caeef7bae103", "name": "ef335f0cd9c9d3435ca1caeef7bae103", "lat": 38.8681905}, {"rental_uris": {"ios": "https://dc.lft.to/lastmile_qr_scan", "android": "https://dc.lft.to/lastmile_qr_scan"}, "fusion_lon": 0.0, "type": "electric_scooter", "is_reserved": 0, "lon": -77.040481, "is_disabled": 0, "fusion_lat": 0.0, "bike_id": "48aec26055213396867dcc07446f8073", "name": "48aec26055213396867dcc07446f8073", "lat": 38.90874383333333}, {"rental_uris": {"ios": "https://dc.lft.to/lastmile_qr_scan", "android": "https://dc.lft.to/lastmile_qr_scan"}, "fusion_lon": 0.0, "type": "electric_scooter", "is_reserved": 0, "lon": -77.041532, "is_disabled": 0, "fusion_lat": 0.0, "bike_id": "5caa801387f8404791f05611d790f7d5", "name": "5caa801387f8404791f05611d790f7d5", "lat": 38.91941333333333}, {"rental_uris": {"ios": "https://dc.lft.to/lastmile_qr_scan", "android": "https://dc.lft.to/lastmile_qr_scan"}, "fusion_lon": 0.0, "type": "electric_scooter", "is_reserved": 0, "lon": -77.04483716666667, "is_disabled": 0, "fusion_lat": 0.0, "bike_id": "ca947039900d5057ddd6e8f0a95a42ce", "name": "ca947039900d5057ddd6e8f0a95a42ce", "lat": 38.911541666666665}, {"rental_uris": {"ios": "https://dc.lft.to/lastmile_qr_scan", "android": "https://dc.lft.to/lastmile_qr_scan"}, "fusion_lon": 0.0, "type": "electric_scooter", "is_reserved": 0, "lon": -77.00316866666667, "is_disabled": 0, "fusion_lat": 0.0, "bike_id": "f1e564dd031170b60269795e9d329024", "name": "f1e564dd031170b60269795e9d329024", "lat": 38.90121583333333}, {"rental_uris": {"ios": "https://dc.lft.to/lastmile_qr_scan", "android": "https://dc.lft.to/lastmile_qr_scan"}, "fusion_lon": 0.0, "type": "electric_scooter", "is_reserved": 0, "lon": -77.04864383333333, "is_disabled": 0, "fusion_lat": 0.0, "bike_id": "54bb5a9456e2e8d5b57561dd3b0e2abb", "name": "54bb5a9456e2e8d5b57561dd3b0e2abb", "lat": 38.9072235}, {"rental_uris": {"ios": "https://dc.lft.to/lastmile_qr_scan", "android": "https://dc.lft.to/lastmile_qr_scan"}, "fusion_lon": 0.0, "type": "electric_scooter", "is_reserved": 0, "lon": -77.02320366666666, "is_disabled": 0, "fusion_lat": 0.0, "bike_id": "e1570c6d45804e85dbe12f969384ccca", "name": "e1570c6d45804e85dbe12f969384ccca", "lat": 38.902203666666665}, {"rental_uris": {"ios": "https://dc.lft.to/lastmile_qr_scan", "android": "https://dc.lft.to/lastmile_qr_scan"}, "fusion_lon": 0.0, "type": "electric_scooter", "is_reserved": 0, "lon": -77.02158683333333, "is_disabled": 0, "fusion_lat": 0.0, "bike_id": "225a43e1563bd642f61ac15e141cbeff", "name": "225a43e1563bd642f61ac15e141cbeff", "lat": 38.925986333333334}, {"rental_uris": {"ios": "https://dc.lft.to/lastmile_qr_scan", "android": "https://dc.lft.to/lastmile_qr_scan"}, "fusion_lon": 0.0, "type": "electric_scooter", "is_reserved": 0, "lon": -77.04193066666667, "is_disabled": 0, "fusion_lat": 0.0, "bike_id": "dc15c1267fb49d55a9aa87ea03e05d48", "name": "dc15c1267fb49d55a9aa87ea03e05d48", "lat": 38.92050533333333}, {"rental_uris": {"ios": "https://dc.lft.to/lastmile_qr_scan", "android": "https://dc.lft.to/lastmile_qr_scan"}, "fusion_lon": 0.0, "type": "electric_scooter", "is_reserved": 0, "lon": -77.00335366666667, "is_disabled": 0, "fusion_lat": 0.0, "bike_id": "6faf0baf76c65b2b573bb0dd46e42b14", "name": "6faf0baf76c65b2b573bb0dd46e42b14", "lat": 38.897260833333334}, {"rental_uris": {"ios": "https://dc.lft.to/lastmile_qr_scan", "android": "https://dc.lft.to/lastmile_qr_scan"}, "fusion_lon": 0.0, "type": "electric_scooter", "is_reserved": 0, "lon": -77.01874183333334, "is_disabled": 0, "fusion_lat": 0.0, "bike_id": "3c9bd80cdcbed759327ddb2e45660176", "name": "3c9bd80cdcbed759327ddb2e45660176", "lat": 38.922078}, {"rental_uris": {"ios": "https://dc.lft.to/lastmile_qr_scan", "android": "https://dc.lft.to/lastmile_qr_scan"}, "fusion_lon": 0.0, "type": "electric_scooter", "is_reserved": 0, "lon": -77.00726116666667, "is_disabled": 0, "fusion_lat": 0.0, "bike_id": "cad1639e00f58a8e925c98d937fae0aa", "name": "cad1639e00f58a8e925c98d937fae0aa", "lat": 38.87658316666667}, {"rental_uris": {"ios": "https://dc.lft.to/lastmile_qr_scan", "android": "https://dc.lft.to/lastmile_qr_scan"}, "fusion_lon": 0.0, "type": "electric_scooter", "is_reserved": 0, "lon": -77.03177683333334, "is_disabled": 0, "fusion_lat": 0.0, "bike_id": "ea3beed4230f3aab9427a237f1c01cb0", "name": "ea3beed4230f3aab9427a237f1c01cb0", "lat": 38.9211285}, {"rental_uris": {"ios": "https://dc.lft.to/lastmile_qr_scan", "android": "https://dc.lft.to/lastmile_qr_scan"}, "fusion_lon": 0.0, "type": "electric_scooter", "is_reserved": 0, "lon": -77.00955833333333, "is_disabled": 0, "fusion_lat": 0.0, "bike_id": "64c902463ed8cfa3a5c6138ce885bac6", "name": "64c902463ed8cfa3a5c6138ce885bac6", "lat": 38.87628316666667}, {"rental_uris": {"ios": "https://dc.lft.to/lastmile_qr_scan", "android": "https://dc.lft.to/lastmile_qr_scan"}, "fusion_lon": 0.0, "type": "electric_scooter", "is_reserved": 0, "lon": -76.9987485, "is_disabled": 0, "fusion_lat": 0.0, "bike_id": "8024db4dfbe2754b0969232f595b6eec", "name": "8024db4dfbe2754b0969232f595b6eec", "lat": 38.923355666666666}, {"rental_uris": {"ios": "https://dc.lft.to/lastmile_qr_scan", "android": "https://dc.lft.to/lastmile_qr_scan"}, "fusion_lon": 0.0, "type": "electric_scooter", "is_reserved": 0, "lon": -76.97908583333333, "is_disabled": 0, "fusion_lat": 0.0, "bike_id": "95f715f07fa2b2f10c1fa1c800aa11f6", "name": "95f715f07fa2b2f10c1fa1c800aa11f6", "lat": 38.888561833333334}, {"rental_uris": {"ios": "https://dc.lft.to/lastmile_qr_scan", "android": "https://dc.lft.to/lastmile_qr_scan"}, "fusion_lon": 0.0, "type": "electric_scooter", "is_reserved": 0, "lon": -77.02289283333333, "is_disabled": 0, "fusion_lat": 0.0, "bike_id": "d462df107b2595c5a530b884ff850e86", "name": "d462df107b2595c5a530b884ff850e86", "lat": 38.91480583333333}, {"rental_uris": {"ios": "https://dc.lft.to/lastmile_qr_scan", "android": "https://dc.lft.to/lastmile_qr_scan"}, "fusion_lon": 0.0, "type": "electric_scooter", "is_reserved": 0, "lon": -77.0290525, "is_disabled": 0, "fusion_lat": 0.0, "bike_id": "7a3aa6d14feefc1fbf5996deede99477", "name": "7a3aa6d14feefc1fbf5996deede99477", "lat": 38.944501333333335}, {"rental_uris": {"ios": "https://dc.lft.to/lastmile_qr_scan", "android": "https://dc.lft.to/lastmile_qr_scan"}, "fusion_lon": 0.0, "type": "electric_scooter", "is_reserved": 0, "lon": -77.02983916666666, "is_disabled": 0, "fusion_lat": 0.0, "bike_id": "83c66f1e11f2917172650bd8710472b4", "name": "83c66f1e11f2917172650bd8710472b4", "lat": 38.9223275}, {"rental_uris": {"ios": "https://dc.lft.to/lastmile_qr_scan", "android": "https://dc.lft.to/lastmile_qr_scan"}, "fusion_lon": 0.0, "type": "electric_scooter", "is_reserved": 0, "lon": -77.07264133333334, "is_disabled": 0, "fusion_lat": 0.0, "bike_id": "450e9b2b14997f78f4e45bed135e55bb", "name": "450e9b2b14997f78f4e45bed135e55bb", "lat": 38.93943216666667}, {"rental_uris": {"ios": "https://dc.lft.to/lastmile_qr_scan", "android": "https://dc.lft.to/lastmile_qr_scan"}, "fusion_lon": 0.0, "type": "electric_scooter", "is_reserved": 0, "lon": -77.00860433333334, "is_disabled": 0, "fusion_lat": 0.0, "bike_id": "cdc66987547d66c9f13e6f67dbb126b4", "name": "cdc66987547d66c9f13e6f67dbb126b4", "lat": 38.9267875}, {"rental_uris": {"ios": "https://dc.lft.to/lastmile_qr_scan", "android": "https://dc.lft.to/lastmile_qr_scan"}, "fusion_lon": 0.0, "type": "electric_scooter", "is_reserved": 0, "lon": -77.004041, "is_disabled": 0, "fusion_lat": 0.0, "bike_id": "ec52f3b0a0f0b96039b21eeea5079e56", "name": "ec52f3b0a0f0b96039b21eeea5079e56", "lat": 38.879428833333336}, {"rental_uris": {"ios": "https://dc.lft.to/lastmile_qr_scan", "android": "https://dc.lft.to/lastmile_qr_scan"}, "fusion_lon": 0.0, "type": "electric_scooter", "is_reserved": 0, "lon": -76.9313455, "is_disabled": 0, "fusion_lat": 0.0, "bike_id": "bf15feaa5dfce867e14d7b72dce328e0", "name": "bf15feaa5dfce867e14d7b72dce328e0", "lat": 38.878373}, {"rental_uris": {"ios": "https://dc.lft.to/lastmile_qr_scan", "android": "https://dc.lft.to/lastmile_qr_scan"}, "fusion_lon": 0.0, "type": "electric_bike", "is_reserved": 0, "lon": -76.92242283333333, "is_disabled": 0, "fusion_lat": 0.0, "bike_id": "470e129d9b1ae6fc78ce1ef32bf31eb8", "name": "470e129d9b1ae6fc78ce1ef32bf31eb8", "lat": 39.01067316666666}, {"rental_uris": {"ios": "https://dc.lft.to/lastmile_qr_scan", "android": "https://dc.lft.to/lastmile_qr_scan"}, "fusion_lon": 0.0, "type": "electric_scooter", "is_reserved": 0, "lon": -77.02284816666666, "is_disabled": 0, "fusion_lat": 0.0, "bike_id": "95105b86bccd6f7b7a9a0de8bb51bc50", "name": "95105b86bccd6f7b7a9a0de8bb51bc50", "lat": 38.8984435}, {"rental_uris": {"ios": "https://dc.lft.to/lastmile_qr_scan", "android": "https://dc.lft.to/lastmile_qr_scan"}, "fusion_lon": 0.0, "type": "electric_scooter", "is_reserved": 0, "lon": -77.0366525, "is_disabled": 0, "fusion_lat": 0.0, "bike_id": "2c73468b6c4b1b45406b8735122b88de", "name": "2c73468b6c4b1b45406b8735122b88de", "lat": 38.915550833333334}, {"rental_uris": {"ios": "https://dc.lft.to/lastmile_qr_scan", "android": "https://dc.lft.to/lastmile_qr_scan"}, "fusion_lon": 0.0, "type": "electric_scooter", "is_reserved": 0, "lon": -77.029822, "is_disabled": 0, "fusion_lat": 0.0, "bike_id": "28ee2035cc8693d169a0dbfa867891b5", "name": "28ee2035cc8693d169a0dbfa867891b5", "lat": 38.9035955}, {"rental_uris": {"ios": "https://dc.lft.to/lastmile_qr_scan", "android": "https://dc.lft.to/lastmile_qr_scan"}, "fusion_lon": 0.0, "type": "electric_scooter", "is_reserved": 0, "lon": -77.02203033333333, "is_disabled": 0, "fusion_lat": 0.0, "bike_id": "7fdf6b74039c3f67225d44e0fbefc7a1", "name": "7fdf6b74039c3f67225d44e0fbefc7a1", "lat": 38.93139133333333}, {"rental_uris": {"ios": "https://dc.lft.to/lastmile_qr_scan", "android": "https://dc.lft.to/lastmile_qr_scan"}, "fusion_lon": 0.0, "type": "electric_scooter", "is_reserved": 0, "lon": -77.01399216666667, "is_disabled": 0, "fusion_lat": 0.0, "bike_id": "17674c0936e30cd3821b83a7c840c758", "name": "17674c0936e30cd3821b83a7c840c758", "lat": 38.91944783333334}, {"rental_uris": {"ios": "https://dc.lft.to/lastmile_qr_scan", "android": "https://dc.lft.to/lastmile_qr_scan"}, "fusion_lon": 0.0, "type": "electric_scooter", "is_reserved": 0, "lon": -77.02066316666667, "is_disabled": 0, "fusion_lat": 0.0, "bike_id": "854cac1061f2667cc08d20f97881d40a", "name": "854cac1061f2667cc08d20f97881d40a", "lat": 38.90373}, {"rental_uris": {"ios": "https://dc.lft.to/lastmile_qr_scan", "android": "https://dc.lft.to/lastmile_qr_scan"}, "fusion_lon": 0.0, "type": "electric_scooter", "is_reserved": 0, "lon": -77.05333616666667, "is_disabled": 0, "fusion_lat": 0.0, "bike_id": "1f1fe9a5cc0e739e4ed6afa442b59e7c", "name": "1f1fe9a5cc0e739e4ed6afa442b59e7c", "lat": 38.9023265}, {"rental_uris": {"ios": "https://dc.lft.to/lastmile_qr_scan", "android": "https://dc.lft.to/lastmile_qr_scan"}, "fusion_lon": 0.0, "type": "electric_scooter", "is_reserved": 0, "lon": -77.037587, "is_disabled": 0, "fusion_lat": 0.0, "bike_id": "91643a158197065dc37ed22e686dd2d8", "name": "91643a158197065dc37ed22e686dd2d8", "lat": 38.92946883333333}, {"rental_uris": {"ios": "https://dc.lft.to/lastmile_qr_scan", "android": "https://dc.lft.to/lastmile_qr_scan"}, "fusion_lon": 0.0, "type": "electric_scooter", "is_reserved": 0, "lon": -77.02691066666667, "is_disabled": 0, "fusion_lat": 0.0, "bike_id": "ae309de137f6e96f955aeecd6157f5e5", "name": "ae309de137f6e96f955aeecd6157f5e5", "lat": 38.89693416666667}, {"rental_uris": {"ios": "https://dc.lft.to/lastmile_qr_scan", "android": "https://dc.lft.to/lastmile_qr_scan"}, "fusion_lon": 0.0, "type": "electric_scooter", "is_reserved": 0, "lon": -77.03870116666667, "is_disabled": 0, "fusion_lat": 0.0, "bike_id": "c82dfac1d9d81f254ee8b633d7e6c4e0", "name": "c82dfac1d9d81f254ee8b633d7e6c4e0", "lat": 38.92070533333333}, {"rental_uris": {"ios": "https://dc.lft.to/lastmile_qr_scan", "android": "https://dc.lft.to/lastmile_qr_scan"}, "fusion_lon": 0.0, "type": "electric_scooter", "is_reserved": 0, "lon": -77.04973733333334, "is_disabled": 0, "fusion_lat": 0.0, "bike_id": "2662e585100d6330619d58898fc561a0", "name": "2662e585100d6330619d58898fc561a0", "lat": 38.89794416666667}, {"rental_uris": {"ios": "https://dc.lft.to/lastmile_qr_scan", "android": "https://dc.lft.to/lastmile_qr_scan"}, "fusion_lon": 0.0, "type": "electric_scooter", "is_reserved": 0, "lon": -77.01737766666666, "is_disabled": 0, "fusion_lat": 0.0, "bike_id": "01d811b2949037da6dfe85670f83ee6e", "name": "01d811b2949037da6dfe85670f83ee6e", "lat": 38.8921695}, {"rental_uris": {"ios": "https://dc.lft.to/lastmile_qr_scan", "android": "https://dc.lft.to/lastmile_qr_scan"}, "fusion_lon": 0.0, "type": "electric_scooter", "is_reserved": 0, "lon": -77.03832466666667, "is_disabled": 0, "fusion_lat": 0.0, "bike_id": "0d7a7ecdac09b655853b0c5e692cd7fc", "name": "0d7a7ecdac09b655853b0c5e692cd7fc", "lat": 38.911147166666666}, {"rental_uris": {"ios": "https://dc.lft.to/lastmile_qr_scan", "android": "https://dc.lft.to/lastmile_qr_scan"}, "fusion_lon": 0.0, "type": "electric_scooter", "is_reserved": 0, "lon": -77.02155466666666, "is_disabled": 0, "fusion_lat": 0.0, "bike_id": "d1313badb4abb544a6e94dea5cd9268d", "name": "d1313badb4abb544a6e94dea5cd9268d", "lat": 38.89977866666667}, {"rental_uris": {"ios": "https://dc.lft.to/lastmile_qr_scan", "android": "https://dc.lft.to/lastmile_qr_scan"}, "fusion_lon": 0.0, "type": "electric_scooter", "is_reserved": 0, "lon": -77.05033283333333, "is_disabled": 0, "fusion_lat": 0.0, "bike_id": "940d1be1049373c59c5e943316a5c8f8", "name": "940d1be1049373c59c5e943316a5c8f8", "lat": 38.901056833333335}, {"rental_uris": {"ios": "https://dc.lft.to/lastmile_qr_scan", "android": "https://dc.lft.to/lastmile_qr_scan"}, "fusion_lon": 0.0, "type": "electric_scooter", "is_reserved": 0, "lon": -77.047456, "is_disabled": 0, "fusion_lat": 0.0, "bike_id": "179487acac2cf9968374c60b6e0c15fa", "name": "179487acac2cf9968374c60b6e0c15fa", "lat": 38.905204499999996}, {"rental_uris": {"ios": "https://dc.lft.to/lastmile_qr_scan", "android": "https://dc.lft.to/lastmile_qr_scan"}, "fusion_lon": 0.0, "type": "electric_bike", "is_reserved": 0, "lon": -77.23413833333333, "is_disabled": 0, "fusion_lat": 0.0, "bike_id": "5d01f90fa30ac7a801f027d082ee79ba", "name": "5d01f90fa30ac7a801f027d082ee79ba", "lat": 38.87580066666666}, {"rental_uris": {"ios": "https://dc.lft.to/lastmile_qr_scan", "android": "https://dc.lft.to/lastmile_qr_scan"}, "fusion_lon": 0.0, "type": "electric_scooter", "is_reserved": 0, "lon": -77.04155533333333, "is_disabled": 0, "fusion_lat": 0.0, "bike_id": "592df7427ab6e9a1e487cd72c970527c", "name": "592df7427ab6e9a1e487cd72c970527c", "lat": 38.91747983333333}, {"rental_uris": {"ios": "https://dc.lft.to/lastmile_qr_scan", "android": "https://dc.lft.to/lastmile_qr_scan"}, "fusion_lon": 0.0, "type": "electric_scooter", "is_reserved": 0, "lon": -76.93935033333334, "is_disabled": 0, "fusion_lat": 0.0, "bike_id": "e1b88a4c17cc414e13ea61b393100708", "name": "e1b88a4c17cc414e13ea61b393100708", "lat": 38.89325816666667}, {"rental_uris": {"ios": "https://dc.lft.to/lastmile_qr_scan", "android": "https://dc.lft.to/lastmile_qr_scan"}, "fusion_lon": 0.0, "type": "electric_scooter", "is_reserved": 0, "lon": -77.0044845, "is_disabled": 0, "fusion_lat": 0.0, "bike_id": "5c8105cea996e7fa91f8e0b8e83fc0c4", "name": "5c8105cea996e7fa91f8e0b8e83fc0c4", "lat": 38.917481}, {"rental_uris": {"ios": "https://dc.lft.to/lastmile_qr_scan", "android": "https://dc.lft.to/lastmile_qr_scan"}, "fusion_lon": 0.0, "type": "electric_scooter", "is_reserved": 0, "lon": -77.02359016666666, "is_disabled": 0, "fusion_lat": 0.0, "bike_id": "10a803c25c33ce4b9d2cc6da45fb8fa3", "name": "10a803c25c33ce4b9d2cc6da45fb8fa3", "lat": 38.90201733333333}, {"rental_uris": {"ios": "https://dc.lft.to/lastmile_qr_scan", "android": "https://dc.lft.to/lastmile_qr_scan"}, "fusion_lon": 0.0, "type": "electric_scooter", "is_reserved": 0, "lon": -77.04245333333333, "is_disabled": 0, "fusion_lat": 0.0, "bike_id": "9a77913f2d0420bc6f6846b10100b5ae", "name": "9a77913f2d0420bc6f6846b10100b5ae", "lat": 38.924396333333334}, {"rental_uris": {"ios": "https://dc.lft.to/lastmile_qr_scan", "android": "https://dc.lft.to/lastmile_qr_scan"}, "fusion_lon": 0.0, "type": "electric_scooter", "is_reserved": 0, "lon": -77.025819, "is_disabled": 0, "fusion_lat": 0.0, "bike_id": "d09e351a465db19ae60229242e6e20e1", "name": "d09e351a465db19ae60229242e6e20e1", "lat": 38.885029}, {"rental_uris": {"ios": "https://dc.lft.to/lastmile_qr_scan", "android": "https://dc.lft.to/lastmile_qr_scan"}, "fusion_lon": 0.0, "type": "electric_scooter", "is_reserved": 0, "lon": -77.005368, "is_disabled": 0, "fusion_lat": 0.0, "bike_id": "9eea50ee6bdce14bde464e141dcd706b", "name": "9eea50ee6bdce14bde464e141dcd706b", "lat": 38.87543516666667}, {"rental_uris": {"ios": "https://dc.lft.to/lastmile_qr_scan", "android": "https://dc.lft.to/lastmile_qr_scan"}, "fusion_lon": 0.0, "type": "electric_scooter", "is_reserved": 0, "lon": -77.015011, "is_disabled": 0, "fusion_lat": 0.0, "bike_id": "92efc24151223dd3a9c90e8a472579ae", "name": "92efc24151223dd3a9c90e8a472579ae", "lat": 38.89959733333333}, {"rental_uris": {"ios": "https://dc.lft.to/lastmile_qr_scan", "android": "https://dc.lft.to/lastmile_qr_scan"}, "fusion_lon": 0.0, "type": "electric_scooter", "is_reserved": 0, "lon": -77.03630433333333, "is_disabled": 0, "fusion_lat": 0.0, "bike_id": "11d4d08826ae987fc46aaf400fa10c8f", "name": "11d4d08826ae987fc46aaf400fa10c8f", "lat": 38.95631733333333}, {"rental_uris": {"ios": "https://dc.lft.to/lastmile_qr_scan", "android": "https://dc.lft.to/lastmile_qr_scan"}, "fusion_lon": 0.0, "type": "electric_scooter", "is_reserved": 0, "lon": -77.02152933333333, "is_disabled": 0, "fusion_lat": 0.0, "bike_id": "22caeddf781fe0d99948cd9d4440eb4d", "name": "22caeddf781fe0d99948cd9d4440eb4d", "lat": 38.9233375}, {"rental_uris": {"ios": "https://dc.lft.to/lastmile_qr_scan", "android": "https://dc.lft.to/lastmile_qr_scan"}, "fusion_lon": 0.0, "type": "electric_scooter", "is_reserved": 0, "lon": -77.02334283333333, "is_disabled": 0, "fusion_lat": 0.0, "bike_id": "0d30f3b84d7ae8666eeb3b040658fef1", "name": "0d30f3b84d7ae8666eeb3b040658fef1", "lat": 38.91774733333333}, {"rental_uris": {"ios": "https://dc.lft.to/lastmile_qr_scan", "android": "https://dc.lft.to/lastmile_qr_scan"}, "fusion_lon": 0.0, "type": "electric_scooter", "is_reserved": 0, "lon": -77.04551183333334, "is_disabled": 0, "fusion_lat": 0.0, "bike_id": "cbeaaeec202d7da0673c54e3a7c6ce5e", "name": "cbeaaeec202d7da0673c54e3a7c6ce5e", "lat": 38.900588166666665}, {"rental_uris": {"ios": "https://dc.lft.to/lastmile_qr_scan", "android": "https://dc.lft.to/lastmile_qr_scan"}, "fusion_lon": 0.0, "type": "electric_scooter", "is_reserved": 0, "lon": -77.02429083333334, "is_disabled": 0, "fusion_lat": 0.0, "bike_id": "ce21c15c1553fcd45586a59a41487ec6", "name": "ce21c15c1553fcd45586a59a41487ec6", "lat": 38.91554133333333}, {"rental_uris": {"ios": "https://dc.lft.to/lastmile_qr_scan", "android": "https://dc.lft.to/lastmile_qr_scan"}, "fusion_lon": 0.0, "type": "electric_scooter", "is_reserved": 0, "lon": -77.04742366666666, "is_disabled": 0, "fusion_lat": 0.0, "bike_id": "ebafcd9fd5d58ee74573c25c6e8c1b92", "name": "ebafcd9fd5d58ee74573c25c6e8c1b92", "lat": 38.90531983333333}, {"rental_uris": {"ios": "https://dc.lft.to/lastmile_qr_scan", "android": "https://dc.lft.to/lastmile_qr_scan"}, "fusion_lon": 0.0, "type": "electric_scooter", "is_reserved": 0, "lon": -77.02422233333333, "is_disabled": 0, "fusion_lat": 0.0, "bike_id": "2173c21b6d55dd2c77bb9f94d039756a", "name": "2173c21b6d55dd2c77bb9f94d039756a", "lat": 38.93700033333333}, {"rental_uris": {"ios": "https://dc.lft.to/lastmile_qr_scan", "android": "https://dc.lft.to/lastmile_qr_scan"}, "fusion_lon": 0.0, "type": "electric_scooter", "is_reserved": 0, "lon": -76.99154066666667, "is_disabled": 0, "fusion_lat": 0.0, "bike_id": "2620539d51ae0d03a48cf61a8627929a", "name": "2620539d51ae0d03a48cf61a8627929a", "lat": 38.900308333333335}, {"rental_uris": {"ios": "https://dc.lft.to/lastmile_qr_scan", "android": "https://dc.lft.to/lastmile_qr_scan"}, "fusion_lon": 0.0, "type": "electric_scooter", "is_reserved": 0, "lon": -77.0204815, "is_disabled": 0, "fusion_lat": 0.0, "bike_id": "4df18b437ba2f973724c41db102bad7d", "name": "4df18b437ba2f973724c41db102bad7d", "lat": 38.91550633333333}, {"rental_uris": {"ios": "https://dc.lft.to/lastmile_qr_scan", "android": "https://dc.lft.to/lastmile_qr_scan"}, "fusion_lon": 0.0, "type": "electric_scooter", "is_reserved": 0, "lon": -77.00491183333334, "is_disabled": 0, "fusion_lat": 0.0, "bike_id": "987c6770dbeeeed3f25e5a4c878b54c7", "name": "987c6770dbeeeed3f25e5a4c878b54c7", "lat": 38.896852333333335}, {"rental_uris": {"ios": "https://dc.lft.to/lastmile_qr_scan", "android": "https://dc.lft.to/lastmile_qr_scan"}, "fusion_lon": 0.0, "type": "electric_scooter", "is_reserved": 0, "lon": -77.02631683333334, "is_disabled": 0, "fusion_lat": 0.0, "bike_id": "5e31085299747dc157c7a338754b0aa7", "name": "5e31085299747dc157c7a338754b0aa7", "lat": 38.94459066666667}, {"rental_uris": {"ios": "https://dc.lft.to/lastmile_qr_scan", "android": "https://dc.lft.to/lastmile_qr_scan"}, "fusion_lon": 0.0, "type": "electric_scooter", "is_reserved": 0, "lon": -76.9780495, "is_disabled": 0, "fusion_lat": 0.0, "bike_id": "2f244b4159d27e557314a17d29327c04", "name": "2f244b4159d27e557314a17d29327c04", "lat": 38.920357}, {"rental_uris": {"ios": "https://dc.lft.to/lastmile_qr_scan", "android": "https://dc.lft.to/lastmile_qr_scan"}, "fusion_lon": 0.0, "type": "electric_scooter", "is_reserved": 0, "lon": -77.04021683333333, "is_disabled": 0, "fusion_lat": 0.0, "bike_id": "f01dde33fc2735c05e3a001587b8f2fd", "name": "f01dde33fc2735c05e3a001587b8f2fd", "lat": 38.9216525}, {"rental_uris": {"ios": "https://dc.lft.to/lastmile_qr_scan", "android": "https://dc.lft.to/lastmile_qr_scan"}, "fusion_lon": 0.0, "type": "electric_scooter", "is_reserved": 0, "lon": -77.07129133333333, "is_disabled": 0, "fusion_lat": 0.0, "bike_id": "5e6b702a9113597c7bfaf431654469ab", "name": "5e6b702a9113597c7bfaf431654469ab", "lat": 38.92007366666667}, {"rental_uris": {"ios": "https://dc.lft.to/lastmile_qr_scan", "android": "https://dc.lft.to/lastmile_qr_scan"}, "fusion_lon": 0.0, "type": "electric_scooter", "is_reserved": 0, "lon": -77.03349116666666, "is_disabled": 0, "fusion_lat": 0.0, "bike_id": "7b0c03f40da0e923e154642a09053749", "name": "7b0c03f40da0e923e154642a09053749", "lat": 38.89235983333333}, {"rental_uris": {"ios": "https://dc.lft.to/lastmile_qr_scan", "android": "https://dc.lft.to/lastmile_qr_scan"}, "fusion_lon": 0.0, "type": "electric_scooter", "is_reserved": 0, "lon": -77.0033495, "is_disabled": 0, "fusion_lat": 0.0, "bike_id": "84e5e371be0fd6083810b2d8c63b3210", "name": "84e5e371be0fd6083810b2d8c63b3210", "lat": 38.876206333333336}, {"rental_uris": {"ios": "https://dc.lft.to/lastmile_qr_scan", "android": "https://dc.lft.to/lastmile_qr_scan"}, "fusion_lon": 0.0, "type": "electric_scooter", "is_reserved": 0, "lon": -77.02683083333334, "is_disabled": 0, "fusion_lat": 0.0, "bike_id": "e4200cf2fa40f204c9993762ceac2713", "name": "e4200cf2fa40f204c9993762ceac2713", "lat": 38.902341}, {"rental_uris": {"ios": "https://dc.lft.to/lastmile_qr_scan", "android": "https://dc.lft.to/lastmile_qr_scan"}, "fusion_lon": 0.0, "type": "electric_scooter", "is_reserved": 0, "lon": -77.0053505, "is_disabled": 0, "fusion_lat": 0.0, "bike_id": "0cf00dd121d0d81944797618de2b2ba5", "name": "0cf00dd121d0d81944797618de2b2ba5", "lat": 38.8747175}, {"rental_uris": {"ios": "https://dc.lft.to/lastmile_qr_scan", "android": "https://dc.lft.to/lastmile_qr_scan"}, "fusion_lon": 0.0, "type": "electric_scooter", "is_reserved": 0, "lon": -76.99052916666666, "is_disabled": 0, "fusion_lat": 0.0, "bike_id": "59a55b3aff9d5f89a72e7ba1a12f5c1d", "name": "59a55b3aff9d5f89a72e7ba1a12f5c1d", "lat": 38.92612583333333}, {"rental_uris": {"ios": "https://dc.lft.to/lastmile_qr_scan", "android": "https://dc.lft.to/lastmile_qr_scan"}, "fusion_lon": 0.0, "type": "electric_scooter", "is_reserved": 0, "lon": -77.048077, "is_disabled": 0, "fusion_lat": 0.0, "bike_id": "fe09aa8323a2d0b97719c2b2ef6954d7", "name": "fe09aa8323a2d0b97719c2b2ef6954d7", "lat": 38.91642016666667}, {"rental_uris": {"ios": "https://dc.lft.to/lastmile_qr_scan", "android": "https://dc.lft.to/lastmile_qr_scan"}, "fusion_lon": 0.0, "type": "electric_scooter", "is_reserved": 0, "lon": -77.01216033333333, "is_disabled": 0, "fusion_lat": 0.0, "bike_id": "0ff0d5ba058ab903e03b761a070a0da8", "name": "0ff0d5ba058ab903e03b761a070a0da8", "lat": 38.897759}, {"rental_uris": {"ios": "https://dc.lft.to/lastmile_qr_scan", "android": "https://dc.lft.to/lastmile_qr_scan"}, "fusion_lon": 0.0, "type": "electric_scooter", "is_reserved": 0, "lon": -77.01154966666667, "is_disabled": 0, "fusion_lat": 0.0, "bike_id": "9499899b4432e8a7aa2c4b42b54b38fd", "name": "9499899b4432e8a7aa2c4b42b54b38fd", "lat": 38.900209833333335}, {"rental_uris": {"ios": "https://dc.lft.to/lastmile_qr_scan", "android": "https://dc.lft.to/lastmile_qr_scan"}, "fusion_lon": 0.0, "type": "electric_scooter", "is_reserved": 0, "lon": -77.0268975, "is_disabled": 0, "fusion_lat": 0.0, "bike_id": "462f9fff16ba59a4bd60c66e67bf28d1", "name": "462f9fff16ba59a4bd60c66e67bf28d1", "lat": 38.902427833333334}, {"rental_uris": {"ios": "https://dc.lft.to/lastmile_qr_scan", "android": "https://dc.lft.to/lastmile_qr_scan"}, "fusion_lon": 0.0, "type": "electric_scooter", "is_reserved": 0, "lon": -76.98536833333333, "is_disabled": 0, "fusion_lat": 0.0, "bike_id": "e2471ff3ac8d70b4a5b1c6448b71b20e", "name": "e2471ff3ac8d70b4a5b1c6448b71b20e", "lat": 38.909542333333334}, {"rental_uris": {"ios": "https://dc.lft.to/lastmile_qr_scan", "android": "https://dc.lft.to/lastmile_qr_scan"}, "fusion_lon": 0.0, "type": "electric_scooter", "is_reserved": 0, "lon": -77.048981, "is_disabled": 0, "fusion_lat": 0.0, "bike_id": "f03affd48eccdc34403f983262b38e8e", "name": "f03affd48eccdc34403f983262b38e8e", "lat": 38.900647166666666}, {"rental_uris": {"ios": "https://dc.lft.to/lastmile_qr_scan", "android": "https://dc.lft.to/lastmile_qr_scan"}, "fusion_lon": 0.0, "type": "electric_scooter", "is_reserved": 0, "lon": -77.02293933333333, "is_disabled": 0, "fusion_lat": 0.0, "bike_id": "6a7c3799ea2b2804e2a5519a985a8676", "name": "6a7c3799ea2b2804e2a5519a985a8676", "lat": 38.917449166666664}, {"rental_uris": {"ios": "https://dc.lft.to/lastmile_qr_scan", "android": "https://dc.lft.to/lastmile_qr_scan"}, "fusion_lon": 0.0, "type": "electric_scooter", "is_reserved": 0, "lon": -77.01529, "is_disabled": 0, "fusion_lat": 0.0, "bike_id": "aaf658347cc3b8c7eab481c7d84cf287", "name": "aaf658347cc3b8c7eab481c7d84cf287", "lat": 38.887329666666666}, {"rental_uris": {"ios": "https://dc.lft.to/lastmile_qr_scan", "android": "https://dc.lft.to/lastmile_qr_scan"}, "fusion_lon": 0.0, "type": "electric_scooter", "is_reserved": 0, "lon": -77.02658116666667, "is_disabled": 0, "fusion_lat": 0.0, "bike_id": "415b91a1c494428f4ee5cbc109f6fcfd", "name": "415b91a1c494428f4ee5cbc109f6fcfd", "lat": 38.91703283333333}, {"rental_uris": {"ios": "https://dc.lft.to/lastmile_qr_scan", "android": "https://dc.lft.to/lastmile_qr_scan"}, "fusion_lon": 0.0, "type": "electric_scooter", "is_reserved": 0, "lon": -77.018302, "is_disabled": 0, "fusion_lat": 0.0, "bike_id": "e0b2f6821a148cfeb7b5806e6ce2caaa", "name": "e0b2f6821a148cfeb7b5806e6ce2caaa", "lat": 38.922292166666665}, {"rental_uris": {"ios": "https://dc.lft.to/lastmile_qr_scan", "android": "https://dc.lft.to/lastmile_qr_scan"}, "fusion_lon": 0.0, "type": "electric_scooter", "is_reserved": 0, "lon": -77.0024605, "is_disabled": 0, "fusion_lat": 0.0, "bike_id": "61542b4b22b076a2a95ab1dc216f5500", "name": "61542b4b22b076a2a95ab1dc216f5500", "lat": 38.91916783333333}, {"rental_uris": {"ios": "https://dc.lft.to/lastmile_qr_scan", "android": "https://dc.lft.to/lastmile_qr_scan"}, "fusion_lon": 0.0, "type": "electric_scooter", "is_reserved": 0, "lon": -77.07327683333334, "is_disabled": 0, "fusion_lat": 0.0, "bike_id": "79a69a70b283f02008b5907eb9b3ede5", "name": "79a69a70b283f02008b5907eb9b3ede5", "lat": 38.94321733333334}, {"rental_uris": {"ios": "https://dc.lft.to/lastmile_qr_scan", "android": "https://dc.lft.to/lastmile_qr_scan"}, "fusion_lon": 0.0, "type": "electric_scooter", "is_reserved": 0, "lon": -77.04160833333333, "is_disabled": 0, "fusion_lat": 0.0, "bike_id": "dbd580b3af24b7615aee4e1d89ca8924", "name": "dbd580b3af24b7615aee4e1d89ca8924", "lat": 38.901338833333334}, {"rental_uris": {"ios": "https://dc.lft.to/lastmile_qr_scan", "android": "https://dc.lft.to/lastmile_qr_scan"}, "fusion_lon": 0.0, "type": "electric_scooter", "is_reserved": 0, "lon": -77.021495, "is_disabled": 0, "fusion_lat": 0.0, "bike_id": "a745e232f163d8793f7283b686f6be0d", "name": "a745e232f163d8793f7283b686f6be0d", "lat": 38.902326333333335}, {"rental_uris": {"ios": "https://dc.lft.to/lastmile_qr_scan", "android": "https://dc.lft.to/lastmile_qr_scan"}, "fusion_lon": 0.0, "type": "electric_scooter", "is_reserved": 0, "lon": -77.0476585, "is_disabled": 0, "fusion_lat": 0.0, "bike_id": "910ff7f2bb9362ce012bc34df991ddac", "name": "910ff7f2bb9362ce012bc34df991ddac", "lat": 38.91251616666667}, {"rental_uris": {"ios": "https://dc.lft.to/lastmile_qr_scan", "android": "https://dc.lft.to/lastmile_qr_scan"}, "fusion_lon": 0.0, "type": "electric_scooter", "is_reserved": 0, "lon": -77.03842583333333, "is_disabled": 0, "fusion_lat": 0.0, "bike_id": "8dcd7cab87492c7ac74dd6ea35ada779", "name": "8dcd7cab87492c7ac74dd6ea35ada779", "lat": 38.9056985}, {"rental_uris": {"ios": "https://dc.lft.to/lastmile_qr_scan", "android": "https://dc.lft.to/lastmile_qr_scan"}, "fusion_lon": 0.0, "type": "electric_scooter", "is_reserved": 0, "lon": -77.02233233333334, "is_disabled": 0, "fusion_lat": 0.0, "bike_id": "10b5a1c5104b2693b218b1b706ef2fa0", "name": "10b5a1c5104b2693b218b1b706ef2fa0", "lat": 38.9247515}, {"rental_uris": {"ios": "https://dc.lft.to/lastmile_qr_scan", "android": "https://dc.lft.to/lastmile_qr_scan"}, "fusion_lon": 0.0, "type": "electric_scooter", "is_reserved": 0, "lon": -76.933867, "is_disabled": 0, "fusion_lat": 0.0, "bike_id": "c1c7bbc127b10505b6f7a67065e96c0e", "name": "c1c7bbc127b10505b6f7a67065e96c0e", "lat": 38.899089000000004}, {"rental_uris": {"ios": "https://dc.lft.to/lastmile_qr_scan", "android": "https://dc.lft.to/lastmile_qr_scan"}, "fusion_lon": 0.0, "type": "electric_scooter", "is_reserved": 0, "lon": -77.00742366666667, "is_disabled": 0, "fusion_lat": 0.0, "bike_id": "94e02bf3b7f61466828d8b5f5289be9b", "name": "94e02bf3b7f61466828d8b5f5289be9b", "lat": 38.89826383333333}, {"rental_uris": {"ios": "https://dc.lft.to/lastmile_qr_scan", "android": "https://dc.lft.to/lastmile_qr_scan"}, "fusion_lon": 0.0, "type": "electric_scooter", "is_reserved": 0, "lon": -77.0465485, "is_disabled": 0, "fusion_lat": 0.0, "bike_id": "2fb2145ac384c98a7c6c5a6dd0e2838f", "name": "2fb2145ac384c98a7c6c5a6dd0e2838f", "lat": 38.90969316666666}, {"rental_uris": {"ios": "https://dc.lft.to/lastmile_qr_scan", "android": "https://dc.lft.to/lastmile_qr_scan"}, "fusion_lon": 0.0, "type": "electric_scooter", "is_reserved": 0, "lon": -77.0233175, "is_disabled": 0, "fusion_lat": 0.0, "bike_id": "d2d0f92ea6b6657e5cf57b4800cac8a3", "name": "d2d0f92ea6b6657e5cf57b4800cac8a3", "lat": 38.917934}, {"rental_uris": {"ios": "https://dc.lft.to/lastmile_qr_scan", "android": "https://dc.lft.to/lastmile_qr_scan"}, "fusion_lon": 0.0, "type": "electric_scooter", "is_reserved": 0, "lon": -77.0489605, "is_disabled": 0, "fusion_lat": 0.0, "bike_id": "a00ee651670cde935610df672d5e2fd1", "name": "a00ee651670cde935610df672d5e2fd1", "lat": 38.900622}, {"rental_uris": {"ios": "https://dc.lft.to/lastmile_qr_scan", "android": "https://dc.lft.to/lastmile_qr_scan"}, "fusion_lon": 0.0, "type": "electric_scooter", "is_reserved": 0, "lon": -77.04568083333334, "is_disabled": 0, "fusion_lat": 0.0, "bike_id": "bcd53932604e246b40aeca6a46d56ac5", "name": "bcd53932604e246b40aeca6a46d56ac5", "lat": 38.9088725}, {"rental_uris": {"ios": "https://dc.lft.to/lastmile_qr_scan", "android": "https://dc.lft.to/lastmile_qr_scan"}, "fusion_lon": 0.0, "type": "electric_scooter", "is_reserved": 0, "lon": -77.05410383333333, "is_disabled": 0, "fusion_lat": 0.0, "bike_id": "b8b63e0764bfcdb469ac6ef54bfad237", "name": "b8b63e0764bfcdb469ac6ef54bfad237", "lat": 38.95055266666667}, {"rental_uris": {"ios": "https://dc.lft.to/lastmile_qr_scan", "android": "https://dc.lft.to/lastmile_qr_scan"}, "fusion_lon": 0.0, "type": "electric_scooter", "is_reserved": 0, "lon": -77.01676233333333, "is_disabled": 0, "fusion_lat": 0.0, "bike_id": "4eb695602fa59b0586ffbd5e915b5240", "name": "4eb695602fa59b0586ffbd5e915b5240", "lat": 38.920341666666666}, {"rental_uris": {"ios": "https://dc.lft.to/lastmile_qr_scan", "android": "https://dc.lft.to/lastmile_qr_scan"}, "fusion_lon": 0.0, "type": "electric_scooter", "is_reserved": 0, "lon": -77.02412533333333, "is_disabled": 0, "fusion_lat": 0.0, "bike_id": "e755927cde8b93ffc6d1ada36687e1c0", "name": "e755927cde8b93ffc6d1ada36687e1c0", "lat": 38.917041}, {"rental_uris": {"ios": "https://dc.lft.to/lastmile_qr_scan", "android": "https://dc.lft.to/lastmile_qr_scan"}, "fusion_lon": 0.0, "type": "electric_scooter", "is_reserved": 0, "lon": -77.03285266666667, "is_disabled": 0, "fusion_lat": 0.0, "bike_id": "1b35ee35df9aaf306af084f57a50ffc9", "name": "1b35ee35df9aaf306af084f57a50ffc9", "lat": 38.899003666666665}, {"rental_uris": {"ios": "https://dc.lft.to/lastmile_qr_scan", "android": "https://dc.lft.to/lastmile_qr_scan"}, "fusion_lon": 0.0, "type": "electric_scooter", "is_reserved": 0, "lon": -77.022711, "is_disabled": 0, "fusion_lat": 0.0, "bike_id": "850abd04497f710070a826a43ecfc38e", "name": "850abd04497f710070a826a43ecfc38e", "lat": 38.894582666666665}, {"rental_uris": {"ios": "https://dc.lft.to/lastmile_qr_scan", "android": "https://dc.lft.to/lastmile_qr_scan"}, "fusion_lon": 0.0, "type": "electric_scooter", "is_reserved": 0, "lon": -77.03262933333333, "is_disabled": 0, "fusion_lat": 0.0, "bike_id": "66c4427c63fdb230d99af1b3da79a33a", "name": "66c4427c63fdb230d99af1b3da79a33a", "lat": 38.9375105}, {"rental_uris": {"ios": "https://dc.lft.to/lastmile_qr_scan", "android": "https://dc.lft.to/lastmile_qr_scan"}, "fusion_lon": 0.0, "type": "electric_scooter", "is_reserved": 0, "lon": -77.04999166666667, "is_disabled": 0, "fusion_lat": 0.0, "bike_id": "6b764eae626a8d7e5ac59e5e14ba3448", "name": "6b764eae626a8d7e5ac59e5e14ba3448", "lat": 38.89396416666666}, {"rental_uris": {"ios": "https://dc.lft.to/lastmile_qr_scan", "android": "https://dc.lft.to/lastmile_qr_scan"}, "fusion_lon": 0.0, "type": "electric_scooter", "is_reserved": 0, "lon": -77.00239, "is_disabled": 0, "fusion_lat": 0.0, "bike_id": "66fd74c6388d2ecc45f4f83b0fbfcfbb", "name": "66fd74c6388d2ecc45f4f83b0fbfcfbb", "lat": 38.881259666666665}, {"rental_uris": {"ios": "https://dc.lft.to/lastmile_qr_scan", "android": "https://dc.lft.to/lastmile_qr_scan"}, "fusion_lon": 0.0, "type": "electric_scooter", "is_reserved": 0, "lon": -77.01459166666666, "is_disabled": 0, "fusion_lat": 0.0, "bike_id": "02fa9de5089514666486d28f527bc3c2", "name": "02fa9de5089514666486d28f527bc3c2", "lat": 38.92676633333333}, {"rental_uris": {"ios": "https://dc.lft.to/lastmile_qr_scan", "android": "https://dc.lft.to/lastmile_qr_scan"}, "fusion_lon": 0.0, "type": "electric_scooter", "is_reserved": 0, "lon": -77.00496966666667, "is_disabled": 0, "fusion_lat": 0.0, "bike_id": "b3a3fcb9f20e1ed3db1459cba13be9d6", "name": "b3a3fcb9f20e1ed3db1459cba13be9d6", "lat": 38.896920333333334}, {"rental_uris": {"ios": "https://dc.lft.to/lastmile_qr_scan", "android": "https://dc.lft.to/lastmile_qr_scan"}, "fusion_lon": 0.0, "type": "electric_scooter", "is_reserved": 0, "lon": -77.014504, "is_disabled": 0, "fusion_lat": 0.0, "bike_id": "a792a6ee48d41dc2938cd71bce6936e3", "name": "a792a6ee48d41dc2938cd71bce6936e3", "lat": 38.899411666666666}, {"rental_uris": {"ios": "https://dc.lft.to/lastmile_qr_scan", "android": "https://dc.lft.to/lastmile_qr_scan"}, "fusion_lon": 0.0, "type": "electric_scooter", "is_reserved": 0, "lon": -77.03135233333333, "is_disabled": 0, "fusion_lat": 0.0, "bike_id": "575815ca33dc5fe9a6c56ea129a23610", "name": "575815ca33dc5fe9a6c56ea129a23610", "lat": 38.9140265}, {"rental_uris": {"ios": "https://dc.lft.to/lastmile_qr_scan", "android": "https://dc.lft.to/lastmile_qr_scan"}, "fusion_lon": 0.0, "type": "electric_bike", "is_reserved": 0, "lon": -76.99001416666667, "is_disabled": 0, "fusion_lat": 0.0, "bike_id": "6c4205b048ff40319c928bf1fd7c3640", "name": "6c4205b048ff40319c928bf1fd7c3640", "lat": 38.86614866666667}, {"rental_uris": {"ios": "https://dc.lft.to/lastmile_qr_scan", "android": "https://dc.lft.to/lastmile_qr_scan"}, "fusion_lon": 0.0, "type": "electric_scooter", "is_reserved": 0, "lon": -77.03183066666666, "is_disabled": 0, "fusion_lat": 0.0, "bike_id": "023fe0a8a2cab73ee3008439fe3aa51c", "name": "023fe0a8a2cab73ee3008439fe3aa51c", "lat": 38.913224}, {"rental_uris": {"ios": "https://dc.lft.to/lastmile_qr_scan", "android": "https://dc.lft.to/lastmile_qr_scan"}, "fusion_lon": 0.0, "type": "electric_scooter", "is_reserved": 0, "lon": -76.944735, "is_disabled": 0, "fusion_lat": 0.0, "bike_id": "da8735142fb2faa59ce9d1f00ca7fbf9", "name": "da8735142fb2faa59ce9d1f00ca7fbf9", "lat": 38.87907166666667}, {"rental_uris": {"ios": "https://dc.lft.to/lastmile_qr_scan", "android": "https://dc.lft.to/lastmile_qr_scan"}, "fusion_lon": 0.0, "type": "electric_scooter", "is_reserved": 0, "lon": -77.04246616666667, "is_disabled": 0, "fusion_lat": 0.0, "bike_id": "3140acf60095741df906e584a67c12e8", "name": "3140acf60095741df906e584a67c12e8", "lat": 38.92209366666667}, {"rental_uris": {"ios": "https://dc.lft.to/lastmile_qr_scan", "android": "https://dc.lft.to/lastmile_qr_scan"}, "fusion_lon": 0.0, "type": "electric_scooter", "is_reserved": 0, "lon": -77.03181466666666, "is_disabled": 0, "fusion_lat": 0.0, "bike_id": "96b017a54707d540c50b40fc284e0de1", "name": "96b017a54707d540c50b40fc284e0de1", "lat": 38.91323283333333}, {"rental_uris": {"ios": "https://dc.lft.to/lastmile_qr_scan", "android": "https://dc.lft.to/lastmile_qr_scan"}, "fusion_lon": 0.0, "type": "electric_scooter", "is_reserved": 0, "lon": -77.03865466666667, "is_disabled": 0, "fusion_lat": 0.0, "bike_id": "1bf2f245cb1e8f7e809af63e4380875d", "name": "1bf2f245cb1e8f7e809af63e4380875d", "lat": 38.917064833333335}, {"rental_uris": {"ios": "https://dc.lft.to/lastmile_qr_scan", "android": "https://dc.lft.to/lastmile_qr_scan"}, "fusion_lon": 0.0, "type": "electric_bike", "is_reserved": 0, "lon": -76.910658, "is_disabled": 0, "fusion_lat": 0.0, "bike_id": "ffb043c6041db40b2b0179db1f3c2abe", "name": "ffb043c6041db40b2b0179db1f3c2abe", "lat": 39.01074966666667}, {"rental_uris": {"ios": "https://dc.lft.to/lastmile_qr_scan", "android": "https://dc.lft.to/lastmile_qr_scan"}, "fusion_lon": 0.0, "type": "electric_scooter", "is_reserved": 0, "lon": -77.0448845, "is_disabled": 0, "fusion_lat": 0.0, "bike_id": "365a688e17e7319c25657eeb29e8aec3", "name": "365a688e17e7319c25657eeb29e8aec3", "lat": 38.91367283333334}, {"rental_uris": {"ios": "https://dc.lft.to/lastmile_qr_scan", "android": "https://dc.lft.to/lastmile_qr_scan"}, "fusion_lon": 0.0, "type": "electric_bike", "is_reserved": 0, "lon": -77.0968565, "is_disabled": 0, "fusion_lat": 0.0, "bike_id": "c90e7e66acdd629dabf30dbcabd791ab", "name": "c90e7e66acdd629dabf30dbcabd791ab", "lat": 38.807362499999996}, {"rental_uris": {"ios": "https://dc.lft.to/lastmile_qr_scan", "android": "https://dc.lft.to/lastmile_qr_scan"}, "fusion_lon": 0.0, "type": "electric_scooter", "is_reserved": 0, "lon": -77.0532995, "is_disabled": 0, "fusion_lat": 0.0, "bike_id": "9442a1ad4e0713ba20db0d2b3fd1f4ae", "name": "9442a1ad4e0713ba20db0d2b3fd1f4ae", "lat": 38.90648733333333}, {"rental_uris": {"ios": "https://dc.lft.to/lastmile_qr_scan", "android": "https://dc.lft.to/lastmile_qr_scan"}, "fusion_lon": 0.0, "type": "electric_scooter", "is_reserved": 0, "lon": -77.043544, "is_disabled": 0, "fusion_lat": 0.0, "bike_id": "81739c7760ac459e937c782281d44970", "name": "81739c7760ac459e937c782281d44970", "lat": 38.92171833333333}, {"rental_uris": {"ios": "https://dc.lft.to/lastmile_qr_scan", "android": "https://dc.lft.to/lastmile_qr_scan"}, "fusion_lon": 0.0, "type": "electric_bike", "is_reserved": 0, "lon": -77.23392766666667, "is_disabled": 0, "fusion_lat": 0.0, "bike_id": "19817c0b1d66996f739885cc7b08074b", "name": "19817c0b1d66996f739885cc7b08074b", "lat": 38.87173133333334}, {"rental_uris": {"ios": "https://dc.lft.to/lastmile_qr_scan", "android": "https://dc.lft.to/lastmile_qr_scan"}, "fusion_lon": 0.0, "type": "electric_bike", "is_reserved": 0, "lon": -77.02730516666666, "is_disabled": 0, "fusion_lat": 0.0, "bike_id": "95ca335735afb38724f74f89a535ec71", "name": "95ca335735afb38724f74f89a535ec71", "lat": 38.971459833333334}, {"rental_uris": {"ios": "https://dc.lft.to/lastmile_qr_scan", "android": "https://dc.lft.to/lastmile_qr_scan"}, "fusion_lon": 0.0, "type": "electric_scooter", "is_reserved": 0, "lon": -76.98340216666666, "is_disabled": 0, "fusion_lat": 0.0, "bike_id": "a5ddd40f00cc32347683797986027528", "name": "a5ddd40f00cc32347683797986027528", "lat": 38.89546683333333}, {"rental_uris": {"ios": "https://dc.lft.to/lastmile_qr_scan", "android": "https://dc.lft.to/lastmile_qr_scan"}, "fusion_lon": 0.0, "type": "electric_scooter", "is_reserved": 0, "lon": -77.04551133333334, "is_disabled": 0, "fusion_lat": 0.0, "bike_id": "b1026d801f83c38c6612e20269edd576", "name": "b1026d801f83c38c6612e20269edd576", "lat": 38.907364}, {"rental_uris": {"ios": "https://dc.lft.to/lastmile_qr_scan", "android": "https://dc.lft.to/lastmile_qr_scan"}, "fusion_lon": 0.0, "type": "electric_scooter", "is_reserved": 0, "lon": -77.000329, "is_disabled": 0, "fusion_lat": 0.0, "bike_id": "4f76ac1c7cbb547b2dc4609aa44a119b", "name": "4f76ac1c7cbb547b2dc4609aa44a119b", "lat": 38.8739615}, {"rental_uris": {"ios": "https://dc.lft.to/lastmile_qr_scan", "android": "https://dc.lft.to/lastmile_qr_scan"}, "fusion_lon": 0.0, "type": "electric_scooter", "is_reserved": 0, "lon": -77.00602883333333, "is_disabled": 0, "fusion_lat": 0.0, "bike_id": "6afbb6e311333692e29a18445af46520", "name": "6afbb6e311333692e29a18445af46520", "lat": 38.9111115}, {"rental_uris": {"ios": "https://dc.lft.to/lastmile_qr_scan", "android": "https://dc.lft.to/lastmile_qr_scan"}, "fusion_lon": 0.0, "type": "electric_scooter", "is_reserved": 0, "lon": -76.99792416666666, "is_disabled": 0, "fusion_lat": 0.0, "bike_id": "8037ac9aa98ebdf506ca0aa5f5ff7faa", "name": "8037ac9aa98ebdf506ca0aa5f5ff7faa", "lat": 38.88551866666667}, {"rental_uris": {"ios": "https://dc.lft.to/lastmile_qr_scan", "android": "https://dc.lft.to/lastmile_qr_scan"}, "fusion_lon": 0.0, "type": "electric_scooter", "is_reserved": 0, "lon": -77.03811766666666, "is_disabled": 0, "fusion_lat": 0.0, "bike_id": "e8475b105116ad71da06f9f6e9ea3ff3", "name": "e8475b105116ad71da06f9f6e9ea3ff3", "lat": 38.911999333333334}, {"rental_uris": {"ios": "https://dc.lft.to/lastmile_qr_scan", "android": "https://dc.lft.to/lastmile_qr_scan"}, "fusion_lon": 0.0, "type": "electric_scooter", "is_reserved": 0, "lon": -77.0098935, "is_disabled": 0, "fusion_lat": 0.0, "bike_id": "83190375a93211902920e197c419ac9d", "name": "83190375a93211902920e197c419ac9d", "lat": 38.903621333333334}, {"rental_uris": {"ios": "https://dc.lft.to/lastmile_qr_scan", "android": "https://dc.lft.to/lastmile_qr_scan"}, "fusion_lon": 0.0, "type": "electric_scooter", "is_reserved": 0, "lon": -77.04000983333333, "is_disabled": 0, "fusion_lat": 0.0, "bike_id": "b7cec2566e7eedc34b9d189f4b9ed43b", "name": "b7cec2566e7eedc34b9d189f4b9ed43b", "lat": 38.92875883333333}, {"rental_uris": {"ios": "https://dc.lft.to/lastmile_qr_scan", "android": "https://dc.lft.to/lastmile_qr_scan"}, "fusion_lon": 0.0, "type": "electric_scooter", "is_reserved": 0, "lon": -77.02004066666667, "is_disabled": 0, "fusion_lat": 0.0, "bike_id": "ba6321ed5e45ee8c05a0440f4b9a42be", "name": "ba6321ed5e45ee8c05a0440f4b9a42be", "lat": 38.913598666666665}, {"rental_uris": {"ios": "https://dc.lft.to/lastmile_qr_scan", "android": "https://dc.lft.to/lastmile_qr_scan"}, "fusion_lon": 0.0, "type": "electric_scooter", "is_reserved": 0, "lon": -77.04768433333334, "is_disabled": 0, "fusion_lat": 0.0, "bike_id": "9f14c9004dd1988bea09f2b0c5ba017a", "name": "9f14c9004dd1988bea09f2b0c5ba017a", "lat": 38.917623}, {"rental_uris": {"ios": "https://dc.lft.to/lastmile_qr_scan", "android": "https://dc.lft.to/lastmile_qr_scan"}, "fusion_lon": 0.0, "type": "electric_scooter", "is_reserved": 0, "lon": -77.04488616666667, "is_disabled": 0, "fusion_lat": 0.0, "bike_id": "64a9d4e4534c7581cd78a84a8fa7405a", "name": "64a9d4e4534c7581cd78a84a8fa7405a", "lat": 38.913756}, {"rental_uris": {"ios": "https://dc.lft.to/lastmile_qr_scan", "android": "https://dc.lft.to/lastmile_qr_scan"}, "fusion_lon": 0.0, "type": "electric_scooter", "is_reserved": 0, "lon": -77.01794583333333, "is_disabled": 0, "fusion_lat": 0.0, "bike_id": "944e9aef392bbb1e4f010a365b6a8fa1", "name": "944e9aef392bbb1e4f010a365b6a8fa1", "lat": 38.919413166666665}, {"rental_uris": {"ios": "https://dc.lft.to/lastmile_qr_scan", "android": "https://dc.lft.to/lastmile_qr_scan"}, "fusion_lon": 0.0, "type": "electric_scooter", "is_reserved": 0, "lon": -76.98164266666667, "is_disabled": 0, "fusion_lat": 0.0, "bike_id": "d61372ca3e07b1059043ef1ecc44bc9d", "name": "d61372ca3e07b1059043ef1ecc44bc9d", "lat": 38.862358666666665}, {"rental_uris": {"ios": "https://dc.lft.to/lastmile_qr_scan", "android": "https://dc.lft.to/lastmile_qr_scan"}, "fusion_lon": 0.0, "type": "electric_scooter", "is_reserved": 0, "lon": -76.98814683333333, "is_disabled": 0, "fusion_lat": 0.0, "bike_id": "6b65f1392bc7691868ab2df36cfa7101", "name": "6b65f1392bc7691868ab2df36cfa7101", "lat": 38.900276166666664}, {"rental_uris": {"ios": "https://dc.lft.to/lastmile_qr_scan", "android": "https://dc.lft.to/lastmile_qr_scan"}, "fusion_lon": 0.0, "type": "electric_scooter", "is_reserved": 0, "lon": -77.044315, "is_disabled": 0, "fusion_lat": 0.0, "bike_id": "3aa264eb0a49ab1912911081ef223967", "name": "3aa264eb0a49ab1912911081ef223967", "lat": 38.91137783333333}, {"rental_uris": {"ios": "https://dc.lft.to/lastmile_qr_scan", "android": "https://dc.lft.to/lastmile_qr_scan"}, "fusion_lon": 0.0, "type": "electric_scooter", "is_reserved": 0, "lon": -77.040589, "is_disabled": 0, "fusion_lat": 0.0, "bike_id": "d176e03ecb4145a2e13143647716df8a", "name": "d176e03ecb4145a2e13143647716df8a", "lat": 38.917617166666666}, {"rental_uris": {"ios": "https://dc.lft.to/lastmile_qr_scan", "android": "https://dc.lft.to/lastmile_qr_scan"}, "fusion_lon": 0.0, "type": "electric_scooter", "is_reserved": 0, "lon": -77.04537533333334, "is_disabled": 0, "fusion_lat": 0.0, "bike_id": "b78fc73020450851e54efd63284bc5aa", "name": "b78fc73020450851e54efd63284bc5aa", "lat": 38.900614}, {"rental_uris": {"ios": "https://dc.lft.to/lastmile_qr_scan", "android": "https://dc.lft.to/lastmile_qr_scan"}, "fusion_lon": 0.0, "type": "electric_scooter", "is_reserved": 0, "lon": -77.03865683333333, "is_disabled": 0, "fusion_lat": 0.0, "bike_id": "b3fccb43a665f54a609b9d7341b65219", "name": "b3fccb43a665f54a609b9d7341b65219", "lat": 38.912541166666664}, {"rental_uris": {"ios": "https://dc.lft.to/lastmile_qr_scan", "android": "https://dc.lft.to/lastmile_qr_scan"}, "fusion_lon": 0.0, "type": "electric_scooter", "is_reserved": 0, "lon": -77.0143635, "is_disabled": 0, "fusion_lat": 0.0, "bike_id": "4488a6d82dd19bc5424c05bb088eaae0", "name": "4488a6d82dd19bc5424c05bb088eaae0", "lat": 38.91264866666667}, {"rental_uris": {"ios": "https://dc.lft.to/lastmile_qr_scan", "android": "https://dc.lft.to/lastmile_qr_scan"}, "fusion_lon": 0.0, "type": "electric_scooter", "is_reserved": 0, "lon": -77.0295855, "is_disabled": 0, "fusion_lat": 0.0, "bike_id": "3383f56fa0be72051fbb9317288c2cbd", "name": "3383f56fa0be72051fbb9317288c2cbd", "lat": 38.9268985}, {"rental_uris": {"ios": "https://dc.lft.to/lastmile_qr_scan", "android": "https://dc.lft.to/lastmile_qr_scan"}, "fusion_lon": 0.0, "type": "electric_scooter", "is_reserved": 0, "lon": -77.02051583333333, "is_disabled": 0, "fusion_lat": 0.0, "bike_id": "10358edb952f4f9d69f9c4c15774b053", "name": "10358edb952f4f9d69f9c4c15774b053", "lat": 38.919050166666665}, {"rental_uris": {"ios": "https://dc.lft.to/lastmile_qr_scan", "android": "https://dc.lft.to/lastmile_qr_scan"}, "fusion_lon": 0.0, "type": "electric_scooter", "is_reserved": 0, "lon": -77.0186815, "is_disabled": 0, "fusion_lat": 0.0, "bike_id": "825e8981bd43d9b3dfefe38589b51e54", "name": "825e8981bd43d9b3dfefe38589b51e54", "lat": 38.9514715}, {"rental_uris": {"ios": "https://dc.lft.to/lastmile_qr_scan", "android": "https://dc.lft.to/lastmile_qr_scan"}, "fusion_lon": 0.0, "type": "electric_scooter", "is_reserved": 0, "lon": -77.07274983333333, "is_disabled": 0, "fusion_lat": 0.0, "bike_id": "24963bb1f9e38a1e82d2d2570ebeb602", "name": "24963bb1f9e38a1e82d2d2570ebeb602", "lat": 38.93022716666667}, {"rental_uris": {"ios": "https://dc.lft.to/lastmile_qr_scan", "android": "https://dc.lft.to/lastmile_qr_scan"}, "fusion_lon": 0.0, "type": "electric_scooter", "is_reserved": 0, "lon": -77.03223416666667, "is_disabled": 0, "fusion_lat": 0.0, "bike_id": "f4ed4d479e5711721e24410b3fa713bb", "name": "f4ed4d479e5711721e24410b3fa713bb", "lat": 38.919279833333334}, {"rental_uris": {"ios": "https://dc.lft.to/lastmile_qr_scan", "android": "https://dc.lft.to/lastmile_qr_scan"}, "fusion_lon": 0.0, "type": "electric_scooter", "is_reserved": 0, "lon": -77.04336, "is_disabled": 0, "fusion_lat": 0.0, "bike_id": "d2a0803d4f16b2ec6200110675bc3051", "name": "d2a0803d4f16b2ec6200110675bc3051", "lat": 38.90018283333333}, {"rental_uris": {"ios": "https://dc.lft.to/lastmile_qr_scan", "android": "https://dc.lft.to/lastmile_qr_scan"}, "fusion_lon": 0.0, "type": "electric_scooter", "is_reserved": 0, "lon": -76.99690733333334, "is_disabled": 0, "fusion_lat": 0.0, "bike_id": "46adc3d051672e9ace50781c4d00ad26", "name": "46adc3d051672e9ace50781c4d00ad26", "lat": 38.90826416666667}, {"rental_uris": {"ios": "https://dc.lft.to/lastmile_qr_scan", "android": "https://dc.lft.to/lastmile_qr_scan"}, "fusion_lon": 0.0, "type": "electric_scooter", "is_reserved": 0, "lon": -76.93175916666667, "is_disabled": 0, "fusion_lat": 0.0, "bike_id": "f383eb482ff7c1b587dddf638569e4be", "name": "f383eb482ff7c1b587dddf638569e4be", "lat": 38.8987845}, {"rental_uris": {"ios": "https://dc.lft.to/lastmile_qr_scan", "android": "https://dc.lft.to/lastmile_qr_scan"}, "fusion_lon": 0.0, "type": "electric_scooter", "is_reserved": 0, "lon": -77.041923, "is_disabled": 0, "fusion_lat": 0.0, "bike_id": "42e28f29cfc2da2d2e80fbd2c591602a", "name": "42e28f29cfc2da2d2e80fbd2c591602a", "lat": 38.920377}, {"rental_uris": {"ios": "https://dc.lft.to/lastmile_qr_scan", "android": "https://dc.lft.to/lastmile_qr_scan"}, "fusion_lon": 0.0, "type": "electric_bike", "is_reserved": 0, "lon": -77.22932283333333, "is_disabled": 0, "fusion_lat": 0.0, "bike_id": "d39bd347138149865cc16952b984f5d0", "name": "d39bd347138149865cc16952b984f5d0", "lat": 38.927939333333335}, {"rental_uris": {"ios": "https://dc.lft.to/lastmile_qr_scan", "android": "https://dc.lft.to/lastmile_qr_scan"}, "fusion_lon": 0.0, "type": "electric_bike", "is_reserved": 0, "lon": -77.01810116666667, "is_disabled": 0, "fusion_lat": 0.0, "bike_id": "a7354c4ac9c88f0bef18c997adf21790", "name": "a7354c4ac9c88f0bef18c997adf21790", "lat": 38.93013783333333}, {"rental_uris": {"ios": "https://dc.lft.to/lastmile_qr_scan", "android": "https://dc.lft.to/lastmile_qr_scan"}, "fusion_lon": 0.0, "type": "electric_bike", "is_reserved": 0, "lon": -77.02410316666666, "is_disabled": 0, "fusion_lat": 0.0, "bike_id": "335a69f6134b4177a6db4a8badf29aae", "name": "335a69f6134b4177a6db4a8badf29aae", "lat": 38.906132666666664}, {"rental_uris": {"ios": "https://dc.lft.to/lastmile_qr_scan", "android": "https://dc.lft.to/lastmile_qr_scan"}, "fusion_lon": 0.0, "type": "electric_scooter", "is_reserved": 0, "lon": -77.06408933333333, "is_disabled": 0, "fusion_lat": 0.0, "bike_id": "f7251f2335e14bd33b9205b9be140f5b", "name": "f7251f2335e14bd33b9205b9be140f5b", "lat": 38.94551033333333}, {"rental_uris": {"ios": "https://dc.lft.to/lastmile_qr_scan", "android": "https://dc.lft.to/lastmile_qr_scan"}, "fusion_lon": 0.0, "type": "electric_scooter", "is_reserved": 0, "lon": -77.074249, "is_disabled": 0, "fusion_lat": 0.0, "bike_id": "d50aca1e9538a0d17fc2142aad9117f5", "name": "d50aca1e9538a0d17fc2142aad9117f5", "lat": 38.96425216666667}, {"rental_uris": {"ios": "https://dc.lft.to/lastmile_qr_scan", "android": "https://dc.lft.to/lastmile_qr_scan"}, "fusion_lon": 0.0, "type": "electric_scooter", "is_reserved": 0, "lon": -76.99143183333334, "is_disabled": 0, "fusion_lat": 0.0, "bike_id": "4d37eddf1ea0917baf59d02c77ccdfdc", "name": "4d37eddf1ea0917baf59d02c77ccdfdc", "lat": 38.900289666666666}, {"rental_uris": {"ios": "https://dc.lft.to/lastmile_qr_scan", "android": "https://dc.lft.to/lastmile_qr_scan"}, "fusion_lon": 0.0, "type": "electric_scooter", "is_reserved": 0, "lon": -76.98558016666667, "is_disabled": 0, "fusion_lat": 0.0, "bike_id": "d3edb14d4e0657c61685911af7f6359f", "name": "d3edb14d4e0657c61685911af7f6359f", "lat": 38.884304166666666}, {"rental_uris": {"ios": "https://dc.lft.to/lastmile_qr_scan", "android": "https://dc.lft.to/lastmile_qr_scan"}, "fusion_lon": 0.0, "type": "electric_scooter", "is_reserved": 0, "lon": -77.0145395, "is_disabled": 0, "fusion_lat": 0.0, "bike_id": "18302cb76d2a98863341fb0ae2894f13", "name": "18302cb76d2a98863341fb0ae2894f13", "lat": 38.95808183333333}, {"rental_uris": {"ios": "https://dc.lft.to/lastmile_qr_scan", "android": "https://dc.lft.to/lastmile_qr_scan"}, "fusion_lon": 0.0, "type": "electric_scooter", "is_reserved": 0, "lon": -77.04499633333333, "is_disabled": 0, "fusion_lat": 0.0, "bike_id": "2fce73a5a03fae1371e3741cd70f8945", "name": "2fce73a5a03fae1371e3741cd70f8945", "lat": 38.884861666666666}, {"rental_uris": {"ios": "https://dc.lft.to/lastmile_qr_scan", "android": "https://dc.lft.to/lastmile_qr_scan"}, "fusion_lon": 0.0, "type": "electric_scooter", "is_reserved": 0, "lon": -77.043559, "is_disabled": 0, "fusion_lat": 0.0, "bike_id": "16fb180e55bac0c2d47c11f41756c42e", "name": "16fb180e55bac0c2d47c11f41756c42e", "lat": 38.892208833333335}, {"rental_uris": {"ios": "https://dc.lft.to/lastmile_qr_scan", "android": "https://dc.lft.to/lastmile_qr_scan"}, "fusion_lon": 0.0, "type": "electric_scooter", "is_reserved": 0, "lon": -77.02310116666666, "is_disabled": 0, "fusion_lat": 0.0, "bike_id": "5b650a9458bc603ff193adfcb1fa0f9f", "name": "5b650a9458bc603ff193adfcb1fa0f9f", "lat": 38.916238}, {"rental_uris": {"ios": "https://dc.lft.to/lastmile_qr_scan", "android": "https://dc.lft.to/lastmile_qr_scan"}, "fusion_lon": 0.0, "type": "electric_scooter", "is_reserved": 0, "lon": -77.02438066666667, "is_disabled": 0, "fusion_lat": 0.0, "bike_id": "f838aa240a51af3cb43aa45b9815281f", "name": "f838aa240a51af3cb43aa45b9815281f", "lat": 38.922637333333334}, {"rental_uris": {"ios": "https://dc.lft.to/lastmile_qr_scan", "android": "https://dc.lft.to/lastmile_qr_scan"}, "fusion_lon": 0.0, "type": "electric_scooter", "is_reserved": 0, "lon": -77.0226995, "is_disabled": 0, "fusion_lat": 0.0, "bike_id": "3e6ff231f39c4a11d781f67d0de783b9", "name": "3e6ff231f39c4a11d781f67d0de783b9", "lat": 38.946322}, {"rental_uris": {"ios": "https://dc.lft.to/lastmile_qr_scan", "android": "https://dc.lft.to/lastmile_qr_scan"}, "fusion_lon": 0.0, "type": "electric_scooter", "is_reserved": 0, "lon": -77.03285916666667, "is_disabled": 0, "fusion_lat": 0.0, "bike_id": "51767c50b88ba5819284b5098c160e76", "name": "51767c50b88ba5819284b5098c160e76", "lat": 38.935102}, {"rental_uris": {"ios": "https://dc.lft.to/lastmile_qr_scan", "android": "https://dc.lft.to/lastmile_qr_scan"}, "fusion_lon": 0.0, "type": "electric_scooter", "is_reserved": 0, "lon": -77.04047633333333, "is_disabled": 0, "fusion_lat": 0.0, "bike_id": "d27c491edcd7b1075e30c162ec2c483a", "name": "d27c491edcd7b1075e30c162ec2c483a", "lat": 38.924254166666664}, {"rental_uris": {"ios": "https://dc.lft.to/lastmile_qr_scan", "android": "https://dc.lft.to/lastmile_qr_scan"}, "fusion_lon": 0.0, "type": "electric_scooter", "is_reserved": 0, "lon": -77.03261566666667, "is_disabled": 0, "fusion_lat": 0.0, "bike_id": "8f4a4f189c1cedc648eeb37b73fc58f7", "name": "8f4a4f189c1cedc648eeb37b73fc58f7", "lat": 38.914025}, {"rental_uris": {"ios": "https://dc.lft.to/lastmile_qr_scan", "android": "https://dc.lft.to/lastmile_qr_scan"}, "fusion_lon": 0.0, "type": "electric_scooter", "is_reserved": 0, "lon": -77.043071, "is_disabled": 0, "fusion_lat": 0.0, "bike_id": "e910667478fba74bf789c92c8354161b", "name": "e910667478fba74bf789c92c8354161b", "lat": 38.9237375}, {"rental_uris": {"ios": "https://dc.lft.to/lastmile_qr_scan", "android": "https://dc.lft.to/lastmile_qr_scan"}, "fusion_lon": 0.0, "type": "electric_scooter", "is_reserved": 0, "lon": -77.01950233333334, "is_disabled": 0, "fusion_lat": 0.0, "bike_id": "1dac7e7fc3f365abf292756085f97e08", "name": "1dac7e7fc3f365abf292756085f97e08", "lat": 38.924234166666665}, {"rental_uris": {"ios": "https://dc.lft.to/lastmile_qr_scan", "android": "https://dc.lft.to/lastmile_qr_scan"}, "fusion_lon": 0.0, "type": "electric_scooter", "is_reserved": 0, "lon": -77.03837333333334, "is_disabled": 0, "fusion_lat": 0.0, "bike_id": "2b7e20d4b6d2a67eb685e1b4b8aa05c8", "name": "2b7e20d4b6d2a67eb685e1b4b8aa05c8", "lat": 38.914758666666664}, {"rental_uris": {"ios": "https://dc.lft.to/lastmile_qr_scan", "android": "https://dc.lft.to/lastmile_qr_scan"}, "fusion_lon": 0.0, "type": "electric_scooter", "is_reserved": 0, "lon": -77.00439166666666, "is_disabled": 0, "fusion_lat": 0.0, "bike_id": "18d460bc62ee642b8f66ce5eb7779d9a", "name": "18d460bc62ee642b8f66ce5eb7779d9a", "lat": 38.876502333333335}, {"rental_uris": {"ios": "https://dc.lft.to/lastmile_qr_scan", "android": "https://dc.lft.to/lastmile_qr_scan"}, "fusion_lon": 0.0, "type": "electric_scooter", "is_reserved": 0, "lon": -77.06503983333333, "is_disabled": 0, "fusion_lat": 0.0, "bike_id": "59f1098a070f4856ca864cc53f456df8", "name": "59f1098a070f4856ca864cc53f456df8", "lat": 38.905176166666664}, {"rental_uris": {"ios": "https://dc.lft.to/lastmile_qr_scan", "android": "https://dc.lft.to/lastmile_qr_scan"}, "fusion_lon": 0.0, "type": "electric_scooter", "is_reserved": 0, "lon": -77.03995233333333, "is_disabled": 0, "fusion_lat": 0.0, "bike_id": "ef578ee70f48d3ff5ee1cd60341820e3", "name": "ef578ee70f48d3ff5ee1cd60341820e3", "lat": 38.917590833333335}, {"rental_uris": {"ios": "https://dc.lft.to/lastmile_qr_scan", "android": "https://dc.lft.to/lastmile_qr_scan"}, "fusion_lon": 0.0, "type": "electric_scooter", "is_reserved": 0, "lon": -77.01185233333334, "is_disabled": 0, "fusion_lat": 0.0, "bike_id": "61667be861f64c0de6633c11a6d63eac", "name": "61667be861f64c0de6633c11a6d63eac", "lat": 38.89645183333333}, {"rental_uris": {"ios": "https://dc.lft.to/lastmile_qr_scan", "android": "https://dc.lft.to/lastmile_qr_scan"}, "fusion_lon": 0.0, "type": "electric_scooter", "is_reserved": 0, "lon": -77.0445005, "is_disabled": 0, "fusion_lat": 0.0, "bike_id": "7143e626884cfde70fc22b0855f71335", "name": "7143e626884cfde70fc22b0855f71335", "lat": 38.9154225}, {"rental_uris": {"ios": "https://dc.lft.to/lastmile_qr_scan", "android": "https://dc.lft.to/lastmile_qr_scan"}, "fusion_lon": 0.0, "type": "electric_scooter", "is_reserved": 0, "lon": -77.01198933333333, "is_disabled": 0, "fusion_lat": 0.0, "bike_id": "5b698a991c8adb2e2829b78c0a1f06b5", "name": "5b698a991c8adb2e2829b78c0a1f06b5", "lat": 38.896581833333336}, {"rental_uris": {"ios": "https://dc.lft.to/lastmile_qr_scan", "android": "https://dc.lft.to/lastmile_qr_scan"}, "fusion_lon": 0.0, "type": "electric_scooter", "is_reserved": 0, "lon": -77.001477, "is_disabled": 0, "fusion_lat": 0.0, "bike_id": "c3820c41fc88c808ebff45a0b52d2745", "name": "c3820c41fc88c808ebff45a0b52d2745", "lat": 38.86751066666667}, {"rental_uris": {"ios": "https://dc.lft.to/lastmile_qr_scan", "android": "https://dc.lft.to/lastmile_qr_scan"}, "fusion_lon": 0.0, "type": "electric_scooter", "is_reserved": 0, "lon": -76.99515116666667, "is_disabled": 0, "fusion_lat": 0.0, "bike_id": "4ee58bfa3250b105c684ea90ce3939d5", "name": "4ee58bfa3250b105c684ea90ce3939d5", "lat": 38.894806833333334}, {"rental_uris": {"ios": "https://dc.lft.to/lastmile_qr_scan", "android": "https://dc.lft.to/lastmile_qr_scan"}, "fusion_lon": 0.0, "type": "electric_scooter", "is_reserved": 0, "lon": -77.0006295, "is_disabled": 0, "fusion_lat": 0.0, "bike_id": "ae8998933792da4db8c064ef1615e372", "name": "ae8998933792da4db8c064ef1615e372", "lat": 38.87664133333333}, {"rental_uris": {"ios": "https://dc.lft.to/lastmile_qr_scan", "android": "https://dc.lft.to/lastmile_qr_scan"}, "fusion_lon": 0.0, "type": "electric_scooter", "is_reserved": 0, "lon": -77.00324833333333, "is_disabled": 0, "fusion_lat": 0.0, "bike_id": "c5433b04e4d825e28d70be6940de0900", "name": "c5433b04e4d825e28d70be6940de0900", "lat": 38.88733766666667}, {"rental_uris": {"ios": "https://dc.lft.to/lastmile_qr_scan", "android": "https://dc.lft.to/lastmile_qr_scan"}, "fusion_lon": 0.0, "type": "electric_scooter", "is_reserved": 0, "lon": -77.024738, "is_disabled": 0, "fusion_lat": 0.0, "bike_id": "734dc4921acb850eee1ff1b609ccae4f", "name": "734dc4921acb850eee1ff1b609ccae4f", "lat": 38.931003833333335}, {"rental_uris": {"ios": "https://dc.lft.to/lastmile_qr_scan", "android": "https://dc.lft.to/lastmile_qr_scan"}, "fusion_lon": 0.0, "type": "electric_scooter", "is_reserved": 0, "lon": -77.04484, "is_disabled": 0, "fusion_lat": 0.0, "bike_id": "a8966886d4bc15f063172ad43fad2ef7", "name": "a8966886d4bc15f063172ad43fad2ef7", "lat": 38.911594}, {"rental_uris": {"ios": "https://dc.lft.to/lastmile_qr_scan", "android": "https://dc.lft.to/lastmile_qr_scan"}, "fusion_lon": 0.0, "type": "electric_scooter", "is_reserved": 0, "lon": -77.02219516666666, "is_disabled": 0, "fusion_lat": 0.0, "bike_id": "3cd96020c7a55a18fb5285208dfe8295", "name": "3cd96020c7a55a18fb5285208dfe8295", "lat": 38.924657}, {"rental_uris": {"ios": "https://dc.lft.to/lastmile_qr_scan", "android": "https://dc.lft.to/lastmile_qr_scan"}, "fusion_lon": 0.0, "type": "electric_scooter", "is_reserved": 0, "lon": -77.04218183333333, "is_disabled": 0, "fusion_lat": 0.0, "bike_id": "2f7889a6c8f6291f9e18b16b119f9ffc", "name": "2f7889a6c8f6291f9e18b16b119f9ffc", "lat": 38.92098883333333}, {"rental_uris": {"ios": "https://dc.lft.to/lastmile_qr_scan", "android": "https://dc.lft.to/lastmile_qr_scan"}, "fusion_lon": 0.0, "type": "electric_bike", "is_reserved": 0, "lon": -77.01964933333333, "is_disabled": 0, "fusion_lat": 0.0, "bike_id": "839b905e6b2a536b9a2a040a5b4652ed", "name": "839b905e6b2a536b9a2a040a5b4652ed", "lat": 39.025152}, {"rental_uris": {"ios": "https://dc.lft.to/lastmile_qr_scan", "android": "https://dc.lft.to/lastmile_qr_scan"}, "fusion_lon": 0.0, "type": "electric_scooter", "is_reserved": 0, "lon": -77.03189916666666, "is_disabled": 0, "fusion_lat": 0.0, "bike_id": "3057070ac9699c1547552faa6dc335bb", "name": "3057070ac9699c1547552faa6dc335bb", "lat": 38.892291}, {"rental_uris": {"ios": "https://dc.lft.to/lastmile_qr_scan", "android": "https://dc.lft.to/lastmile_qr_scan"}, "fusion_lon": 0.0, "type": "electric_bike", "is_reserved": 0, "lon": -76.9506215, "is_disabled": 0, "fusion_lat": 0.0, "bike_id": "9af3364be65c041530af52997b90f6d9", "name": "9af3364be65c041530af52997b90f6d9", "lat": 39.085071166666665}, {"rental_uris": {"ios": "https://dc.lft.to/lastmile_qr_scan", "android": "https://dc.lft.to/lastmile_qr_scan"}, "fusion_lon": 0.0, "type": "electric_scooter", "is_reserved": 0, "lon": -76.9700285, "is_disabled": 0, "fusion_lat": 0.0, "bike_id": "1c30529c3622bc23afe5c892eaa2a693", "name": "1c30529c3622bc23afe5c892eaa2a693", "lat": 38.860202666666666}, {"rental_uris": {"ios": "https://dc.lft.to/lastmile_qr_scan", "android": "https://dc.lft.to/lastmile_qr_scan"}, "fusion_lon": 0.0, "type": "electric_scooter", "is_reserved": 0, "lon": -77.02798333333334, "is_disabled": 0, "fusion_lat": 0.0, "bike_id": "e737915cd17372dcbda21e41537de534", "name": "e737915cd17372dcbda21e41537de534", "lat": 38.917123333333336}, {"rental_uris": {"ios": "https://dc.lft.to/lastmile_qr_scan", "android": "https://dc.lft.to/lastmile_qr_scan"}, "fusion_lon": 0.0, "type": "electric_scooter", "is_reserved": 0, "lon": -77.0155785, "is_disabled": 0, "fusion_lat": 0.0, "bike_id": "2b84823a0fe0a8ecd3d2b3b4262f5c19", "name": "2b84823a0fe0a8ecd3d2b3b4262f5c19", "lat": 38.89169483333333}, {"rental_uris": {"ios": "https://dc.lft.to/lastmile_qr_scan", "android": "https://dc.lft.to/lastmile_qr_scan"}, "fusion_lon": 0.0, "type": "electric_scooter", "is_reserved": 0, "lon": -76.95526733333334, "is_disabled": 0, "fusion_lat": 0.0, "bike_id": "fdaea0471230a15095ac3237b24c3ce6", "name": "fdaea0471230a15095ac3237b24c3ce6", "lat": 38.8878225}, {"rental_uris": {"ios": "https://dc.lft.to/lastmile_qr_scan", "android": "https://dc.lft.to/lastmile_qr_scan"}, "fusion_lon": 0.0, "type": "electric_scooter", "is_reserved": 0, "lon": -77.03369633333334, "is_disabled": 0, "fusion_lat": 0.0, "bike_id": "a52871d34c7294c9772063558b5b5f26", "name": "a52871d34c7294c9772063558b5b5f26", "lat": 38.922369333333336}, {"rental_uris": {"ios": "https://dc.lft.to/lastmile_qr_scan", "android": "https://dc.lft.to/lastmile_qr_scan"}, "fusion_lon": 0.0, "type": "electric_scooter", "is_reserved": 0, "lon": -77.05021066666667, "is_disabled": 0, "fusion_lat": 0.0, "bike_id": "533c8e79d8007ecebadd0af95c1ffe06", "name": "533c8e79d8007ecebadd0af95c1ffe06", "lat": 38.90056716666667}, {"rental_uris": {"ios": "https://dc.lft.to/lastmile_qr_scan", "android": "https://dc.lft.to/lastmile_qr_scan"}, "fusion_lon": 0.0, "type": "electric_scooter", "is_reserved": 0, "lon": -76.97861433333334, "is_disabled": 0, "fusion_lat": 0.0, "bike_id": "c5d327c8b9de8762b0db8e8dd432ee4a", "name": "c5d327c8b9de8762b0db8e8dd432ee4a", "lat": 38.897262833333336}, {"rental_uris": {"ios": "https://dc.lft.to/lastmile_qr_scan", "android": "https://dc.lft.to/lastmile_qr_scan"}, "fusion_lon": 0.0, "type": "electric_scooter", "is_reserved": 0, "lon": -77.00692466666666, "is_disabled": 0, "fusion_lat": 0.0, "bike_id": "f8c91a81d8811072c42e1ca7594fe5fb", "name": "f8c91a81d8811072c42e1ca7594fe5fb", "lat": 38.905605666666666}, {"rental_uris": {"ios": "https://dc.lft.to/lastmile_qr_scan", "android": "https://dc.lft.to/lastmile_qr_scan"}, "fusion_lon": 0.0, "type": "electric_scooter", "is_reserved": 0, "lon": -77.03783216666666, "is_disabled": 0, "fusion_lat": 0.0, "bike_id": "fa742cafe09baa9932bde33c5a6370ea", "name": "fa742cafe09baa9932bde33c5a6370ea", "lat": 38.9302035}, {"rental_uris": {"ios": "https://dc.lft.to/lastmile_qr_scan", "android": "https://dc.lft.to/lastmile_qr_scan"}, "fusion_lon": 0.0, "type": "electric_scooter", "is_reserved": 0, "lon": -77.03275533333333, "is_disabled": 0, "fusion_lat": 0.0, "bike_id": "039886b1035f8b07505b8d771aa88305", "name": "039886b1035f8b07505b8d771aa88305", "lat": 38.932474166666665}, {"rental_uris": {"ios": "https://dc.lft.to/lastmile_qr_scan", "android": "https://dc.lft.to/lastmile_qr_scan"}, "fusion_lon": 0.0, "type": "electric_scooter", "is_reserved": 0, "lon": -77.04178, "is_disabled": 0, "fusion_lat": 0.0, "bike_id": "72ae4af47b554822e7734d17e726bf98", "name": "72ae4af47b554822e7734d17e726bf98", "lat": 38.91339}, {"rental_uris": {"ios": "https://dc.lft.to/lastmile_qr_scan", "android": "https://dc.lft.to/lastmile_qr_scan"}, "fusion_lon": 0.0, "type": "electric_scooter", "is_reserved": 0, "lon": -77.02414816666666, "is_disabled": 0, "fusion_lat": 0.0, "bike_id": "f334b2cd7040090caba482466e5f314b", "name": "f334b2cd7040090caba482466e5f314b", "lat": 38.909575}, {"rental_uris": {"ios": "https://dc.lft.to/lastmile_qr_scan", "android": "https://dc.lft.to/lastmile_qr_scan"}, "fusion_lon": 0.0, "type": "electric_scooter", "is_reserved": 0, "lon": -77.04497033333334, "is_disabled": 0, "fusion_lat": 0.0, "bike_id": "02e2913dbb4b2c8d25be14ba662eb1d7", "name": "02e2913dbb4b2c8d25be14ba662eb1d7", "lat": 38.900141}, {"rental_uris": {"ios": "https://dc.lft.to/lastmile_qr_scan", "android": "https://dc.lft.to/lastmile_qr_scan"}, "fusion_lon": 0.0, "type": "electric_bike", "is_reserved": 0, "lon": -77.02913566666666, "is_disabled": 0, "fusion_lat": 0.0, "bike_id": "629a5b93ea54c05fe078a2a08421dba1", "name": "629a5b93ea54c05fe078a2a08421dba1", "lat": 38.916897166666665}, {"rental_uris": {"ios": "https://dc.lft.to/lastmile_qr_scan", "android": "https://dc.lft.to/lastmile_qr_scan"}, "fusion_lon": 0.0, "type": "electric_bike", "is_reserved": 0, "lon": -77.0464, "is_disabled": 0, "fusion_lat": 0.0, "bike_id": "5c77186b126e4257a71d11ea0604cc22", "name": "5c77186b126e4257a71d11ea0604cc22", "lat": 38.8153885}, {"rental_uris": {"ios": "https://dc.lft.to/lastmile_qr_scan", "android": "https://dc.lft.to/lastmile_qr_scan"}, "fusion_lon": 0.0, "type": "electric_scooter", "is_reserved": 0, "lon": -77.04175383333333, "is_disabled": 0, "fusion_lat": 0.0, "bike_id": "bea8ed87865b2578e18b0ae1982025df", "name": "bea8ed87865b2578e18b0ae1982025df", "lat": 38.925495}, {"rental_uris": {"ios": "https://dc.lft.to/lastmile_qr_scan", "android": "https://dc.lft.to/lastmile_qr_scan"}, "fusion_lon": 0.0, "type": "electric_scooter", "is_reserved": 0, "lon": -77.01949566666667, "is_disabled": 0, "fusion_lat": 0.0, "bike_id": "74060a1958b61c94d4008a981169ac1f", "name": "74060a1958b61c94d4008a981169ac1f", "lat": 38.92245583333333}, {"rental_uris": {"ios": "https://dc.lft.to/lastmile_qr_scan", "android": "https://dc.lft.to/lastmile_qr_scan"}, "fusion_lon": 0.0, "type": "electric_scooter", "is_reserved": 0, "lon": -77.05009266666667, "is_disabled": 0, "fusion_lat": 0.0, "bike_id": "e87ab4bde6924fe64d815e237a4457b8", "name": "e87ab4bde6924fe64d815e237a4457b8", "lat": 38.900718166666664}, {"rental_uris": {"ios": "https://dc.lft.to/lastmile_qr_scan", "android": "https://dc.lft.to/lastmile_qr_scan"}, "fusion_lon": 0.0, "type": "electric_scooter", "is_reserved": 0, "lon": -76.95767783333334, "is_disabled": 0, "fusion_lat": 0.0, "bike_id": "938cd30c7c9948e2db226a053d5cb0b7", "name": "938cd30c7c9948e2db226a053d5cb0b7", "lat": 38.88351733333333}, {"rental_uris": {"ios": "https://dc.lft.to/lastmile_qr_scan", "android": "https://dc.lft.to/lastmile_qr_scan"}, "fusion_lon": 0.0, "type": "electric_bike", "is_reserved": 0, "lon": -77.062522, "is_disabled": 0, "fusion_lat": 0.0, "bike_id": "2383e11a0b8769230f250d30e7faa3f6", "name": "2383e11a0b8769230f250d30e7faa3f6", "lat": 38.80630883333333}, {"rental_uris": {"ios": "https://dc.lft.to/lastmile_qr_scan", "android": "https://dc.lft.to/lastmile_qr_scan"}, "fusion_lon": 0.0, "type": "electric_scooter", "is_reserved": 0, "lon": -76.995711, "is_disabled": 0, "fusion_lat": 0.0, "bike_id": "e49ad43c279cbf10c6e002517eb8e696", "name": "e49ad43c279cbf10c6e002517eb8e696", "lat": 38.92013883333333}, {"rental_uris": {"ios": "https://dc.lft.to/lastmile_qr_scan", "android": "https://dc.lft.to/lastmile_qr_scan"}, "fusion_lon": 0.0, "type": "electric_scooter", "is_reserved": 0, "lon": -77.03522366666667, "is_disabled": 0, "fusion_lat": 0.0, "bike_id": "eacb316d1c0af51e22d523784ef74467", "name": "eacb316d1c0af51e22d523784ef74467", "lat": 38.92257016666667}, {"rental_uris": {"ios": "https://dc.lft.to/lastmile_qr_scan", "android": "https://dc.lft.to/lastmile_qr_scan"}, "fusion_lon": 0.0, "type": "electric_scooter", "is_reserved": 0, "lon": -76.99032516666666, "is_disabled": 0, "fusion_lat": 0.0, "bike_id": "205ff96b0fa44d1563b40509a7c3097b", "name": "205ff96b0fa44d1563b40509a7c3097b", "lat": 38.89847733333333}, {"rental_uris": {"ios": "https://dc.lft.to/lastmile_qr_scan", "android": "https://dc.lft.to/lastmile_qr_scan"}, "fusion_lon": 0.0, "type": "electric_scooter", "is_reserved": 0, "lon": -77.05569033333333, "is_disabled": 0, "fusion_lat": 0.0, "bike_id": "3264fd3f371f490729d4280c1e15a566", "name": "3264fd3f371f490729d4280c1e15a566", "lat": 38.899702}, {"rental_uris": {"ios": "https://dc.lft.to/lastmile_qr_scan", "android": "https://dc.lft.to/lastmile_qr_scan"}, "fusion_lon": 0.0, "type": "electric_scooter", "is_reserved": 0, "lon": -76.99489883333334, "is_disabled": 0, "fusion_lat": 0.0, "bike_id": "d8df78a19fbe26135de705434d67414a", "name": "d8df78a19fbe26135de705434d67414a", "lat": 38.925718333333336}, {"rental_uris": {"ios": "https://dc.lft.to/lastmile_qr_scan", "android": "https://dc.lft.to/lastmile_qr_scan"}, "fusion_lon": 0.0, "type": "electric_scooter", "is_reserved": 0, "lon": -77.04534633333333, "is_disabled": 0, "fusion_lat": 0.0, "bike_id": "dc0a095f096c5522eee8258b0b855437", "name": "dc0a095f096c5522eee8258b0b855437", "lat": 38.91290883333333}, {"rental_uris": {"ios": "https://dc.lft.to/lastmile_qr_scan", "android": "https://dc.lft.to/lastmile_qr_scan"}, "fusion_lon": 0.0, "type": "electric_scooter", "is_reserved": 0, "lon": -76.98470783333333, "is_disabled": 0, "fusion_lat": 0.0, "bike_id": "d55f6ed6929dbcc06407e0ddfa0ba7b1", "name": "d55f6ed6929dbcc06407e0ddfa0ba7b1", "lat": 38.9426805}, {"rental_uris": {"ios": "https://dc.lft.to/lastmile_qr_scan", "android": "https://dc.lft.to/lastmile_qr_scan"}, "fusion_lon": 0.0, "type": "electric_bike", "is_reserved": 0, "lon": -76.95257766666667, "is_disabled": 0, "fusion_lat": 0.0, "bike_id": "09b0855169a5d70a6adb9b86952477a9", "name": "09b0855169a5d70a6adb9b86952477a9", "lat": 38.90689233333333}, {"rental_uris": {"ios": "https://dc.lft.to/lastmile_qr_scan", "android": "https://dc.lft.to/lastmile_qr_scan"}, "fusion_lon": 0.0, "type": "electric_scooter", "is_reserved": 0, "lon": -77.026908, "is_disabled": 0, "fusion_lat": 0.0, "bike_id": "37416f2fc55adda35e5f6e18ca14b250", "name": "37416f2fc55adda35e5f6e18ca14b250", "lat": 38.89703}, {"rental_uris": {"ios": "https://dc.lft.to/lastmile_qr_scan", "android": "https://dc.lft.to/lastmile_qr_scan"}, "fusion_lon": 0.0, "type": "electric_scooter", "is_reserved": 0, "lon": -77.04167416666667, "is_disabled": 0, "fusion_lat": 0.0, "bike_id": "272c38d2cdb753f67d26f70f8d0f0b0e", "name": "272c38d2cdb753f67d26f70f8d0f0b0e", "lat": 38.9048155}, {"rental_uris": {"ios": "https://dc.lft.to/lastmile_qr_scan", "android": "https://dc.lft.to/lastmile_qr_scan"}, "fusion_lon": 0.0, "type": "electric_scooter", "is_reserved": 0, "lon": -77.05134983333333, "is_disabled": 0, "fusion_lat": 0.0, "bike_id": "38ef17f59f891487e4a6b3d10e64c8c7", "name": "38ef17f59f891487e4a6b3d10e64c8c7", "lat": 38.90717716666666}, {"rental_uris": {"ios": "https://dc.lft.to/lastmile_qr_scan", "android": "https://dc.lft.to/lastmile_qr_scan"}, "fusion_lon": 0.0, "type": "electric_scooter", "is_reserved": 0, "lon": -77.01448833333333, "is_disabled": 0, "fusion_lat": 0.0, "bike_id": "6d15965f461963a4a3d7ca300ecda1f1", "name": "6d15965f461963a4a3d7ca300ecda1f1", "lat": 38.9023995}, {"rental_uris": {"ios": "https://dc.lft.to/lastmile_qr_scan", "android": "https://dc.lft.to/lastmile_qr_scan"}, "fusion_lon": 0.0, "type": "electric_scooter", "is_reserved": 0, "lon": -76.99214233333333, "is_disabled": 0, "fusion_lat": 0.0, "bike_id": "c8434a970c9f0f1e9c5bd21d3ca6bf6d", "name": "c8434a970c9f0f1e9c5bd21d3ca6bf6d", "lat": 38.897397}, {"rental_uris": {"ios": "https://dc.lft.to/lastmile_qr_scan", "android": "https://dc.lft.to/lastmile_qr_scan"}, "fusion_lon": 0.0, "type": "electric_scooter", "is_reserved": 0, "lon": -77.0416775, "is_disabled": 0, "fusion_lat": 0.0, "bike_id": "ed8c2d6b411b0b5457482e02f71e44ba", "name": "ed8c2d6b411b0b5457482e02f71e44ba", "lat": 38.919508}, {"rental_uris": {"ios": "https://dc.lft.to/lastmile_qr_scan", "android": "https://dc.lft.to/lastmile_qr_scan"}, "fusion_lon": 0.0, "type": "electric_scooter", "is_reserved": 0, "lon": -77.02989666666667, "is_disabled": 0, "fusion_lat": 0.0, "bike_id": "75d060256659e42efef812971f73dc4c", "name": "75d060256659e42efef812971f73dc4c", "lat": 38.905692}, {"rental_uris": {"ios": "https://dc.lft.to/lastmile_qr_scan", "android": "https://dc.lft.to/lastmile_qr_scan"}, "fusion_lon": 0.0, "type": "electric_scooter", "is_reserved": 0, "lon": -77.04051983333333, "is_disabled": 0, "fusion_lat": 0.0, "bike_id": "a6b1366b6a219889d6293f27e75c8d5a", "name": "a6b1366b6a219889d6293f27e75c8d5a", "lat": 38.9028385}, {"rental_uris": {"ios": "https://dc.lft.to/lastmile_qr_scan", "android": "https://dc.lft.to/lastmile_qr_scan"}, "fusion_lon": 0.0, "type": "electric_scooter", "is_reserved": 0, "lon": -77.015006, "is_disabled": 0, "fusion_lat": 0.0, "bike_id": "b6c2b757c5341d7ef738626651ba0d18", "name": "b6c2b757c5341d7ef738626651ba0d18", "lat": 38.89964333333333}, {"rental_uris": {"ios": "https://dc.lft.to/lastmile_qr_scan", "android": "https://dc.lft.to/lastmile_qr_scan"}, "fusion_lon": 0.0, "type": "electric_scooter", "is_reserved": 0, "lon": -77.053303, "is_disabled": 0, "fusion_lat": 0.0, "bike_id": "ced1ecff55a6e12b51d3481a9f0e4fa9", "name": "ced1ecff55a6e12b51d3481a9f0e4fa9", "lat": 38.9232995}, {"rental_uris": {"ios": "https://dc.lft.to/lastmile_qr_scan", "android": "https://dc.lft.to/lastmile_qr_scan"}, "fusion_lon": 0.0, "type": "electric_scooter", "is_reserved": 0, "lon": -77.02183016666666, "is_disabled": 0, "fusion_lat": 0.0, "bike_id": "27f1e159136f3bebfad9ea6157fce4d1", "name": "27f1e159136f3bebfad9ea6157fce4d1", "lat": 38.91325333333333}, {"rental_uris": {"ios": "https://dc.lft.to/lastmile_qr_scan", "android": "https://dc.lft.to/lastmile_qr_scan"}, "fusion_lon": 0.0, "type": "electric_scooter", "is_reserved": 0, "lon": -77.03623816666666, "is_disabled": 0, "fusion_lat": 0.0, "bike_id": "a3c1e33cb19ff25aab96acb21c2340ab", "name": "a3c1e33cb19ff25aab96acb21c2340ab", "lat": 38.92788216666667}, {"rental_uris": {"ios": "https://dc.lft.to/lastmile_qr_scan", "android": "https://dc.lft.to/lastmile_qr_scan"}, "fusion_lon": 0.0, "type": "electric_bike", "is_reserved": 0, "lon": -77.021062, "is_disabled": 0, "fusion_lat": 0.0, "bike_id": "77605f4f11d6d51dd56b0c4c6acc6ea3", "name": "77605f4f11d6d51dd56b0c4c6acc6ea3", "lat": 39.022936333333334}, {"rental_uris": {"ios": "https://dc.lft.to/lastmile_qr_scan", "android": "https://dc.lft.to/lastmile_qr_scan"}, "fusion_lon": 0.0, "type": "electric_bike", "is_reserved": 0, "lon": -76.95213433333333, "is_disabled": 0, "fusion_lat": 0.0, "bike_id": "e1f7478bed3758667562452ae482e46c", "name": "e1f7478bed3758667562452ae482e46c", "lat": 38.86549516666667}, {"rental_uris": {"ios": "https://dc.lft.to/lastmile_qr_scan", "android": "https://dc.lft.to/lastmile_qr_scan"}, "fusion_lon": 0.0, "type": "electric_scooter", "is_reserved": 0, "lon": -77.0207955, "is_disabled": 0, "fusion_lat": 0.0, "bike_id": "992fbb247cbad62dae1c7ed0cd659b01", "name": "992fbb247cbad62dae1c7ed0cd659b01", "lat": 38.92117316666667}, {"rental_uris": {"ios": "https://dc.lft.to/lastmile_qr_scan", "android": "https://dc.lft.to/lastmile_qr_scan"}, "fusion_lon": 0.0, "type": "electric_scooter", "is_reserved": 0, "lon": -77.038816, "is_disabled": 0, "fusion_lat": 0.0, "bike_id": "6ede9da49e42fc16a4f940054b674ebf", "name": "6ede9da49e42fc16a4f940054b674ebf", "lat": 38.90244}, {"rental_uris": {"ios": "https://dc.lft.to/lastmile_qr_scan", "android": "https://dc.lft.to/lastmile_qr_scan"}, "fusion_lon": 0.0, "type": "electric_scooter", "is_reserved": 0, "lon": -77.00357866666667, "is_disabled": 0, "fusion_lat": 0.0, "bike_id": "a4ed87cd96cea7f2afa1a3845d2a270c", "name": "a4ed87cd96cea7f2afa1a3845d2a270c", "lat": 38.896203166666666}, {"rental_uris": {"ios": "https://dc.lft.to/lastmile_qr_scan", "android": "https://dc.lft.to/lastmile_qr_scan"}, "fusion_lon": 0.0, "type": "electric_bike", "is_reserved": 0, "lon": -76.98669533333333, "is_disabled": 0, "fusion_lat": 0.0, "bike_id": "21c83a21b5c4625af0eb27803d03cfa3", "name": "21c83a21b5c4625af0eb27803d03cfa3", "lat": 38.974735833333334}, {"rental_uris": {"ios": "https://dc.lft.to/lastmile_qr_scan", "android": "https://dc.lft.to/lastmile_qr_scan"}, "fusion_lon": 0.0, "type": "electric_bike", "is_reserved": 0, "lon": -77.094438, "is_disabled": 0, "fusion_lat": 0.0, "bike_id": "9dec04eaef4dee4c498b3079a7e19e9a", "name": "9dec04eaef4dee4c498b3079a7e19e9a", "lat": 38.894211166666665}, {"rental_uris": {"ios": "https://dc.lft.to/lastmile_qr_scan", "android": "https://dc.lft.to/lastmile_qr_scan"}, "fusion_lon": 0.0, "type": "electric_scooter", "is_reserved": 0, "lon": -77.02177883333333, "is_disabled": 0, "fusion_lat": 0.0, "bike_id": "04ff732a3a5ca21a6a7bb1df2e35324d", "name": "04ff732a3a5ca21a6a7bb1df2e35324d", "lat": 38.89968616666667}, {"rental_uris": {"ios": "https://dc.lft.to/lastmile_qr_scan", "android": "https://dc.lft.to/lastmile_qr_scan"}, "fusion_lon": 0.0, "type": "electric_scooter", "is_reserved": 0, "lon": -77.02449566666667, "is_disabled": 0, "fusion_lat": 0.0, "bike_id": "8b2c7288a1e1c1084e4e0a6b24145e57", "name": "8b2c7288a1e1c1084e4e0a6b24145e57", "lat": 38.893853166666666}, {"rental_uris": {"ios": "https://dc.lft.to/lastmile_qr_scan", "android": "https://dc.lft.to/lastmile_qr_scan"},