{"data": {"bikes": [{"lat": 38.923140833333335, "fusion_lat": 0.0, "type": "electric_scooter", "bike_id": "3f112db39afeacf235b092ed3029a100", "rental_uris": {"ios": "https://dc.lft.to/lastmile_qr_scan", "android": "https://dc.lft.to/lastmile_qr_scan"}, "fusion_lon": 0.0, "lon": -77.0364425, "name": "3f112db39afeacf235b092ed3029a100", "is_reserved": 0, "is_disabled": 0}, {"lat": 38.94191633333333, "fusion_lat": 0.0, "type": "electric_scooter", "bike_id": "6d45296d221ab892cd4f9b10c413fa1f", "rental_uris": {"ios": "https://dc.lft.to/lastmile_qr_scan", "android": "https://dc.lft.to/lastmile_qr_scan"}, "fusion_lon": 0.0, "lon": -77.03846383333334, "name": "6d45296d221ab892cd4f9b10c413fa1f", "is_reserved": 0, "is_disabled": 0}, {"lat": 38.897861666666664, "fusion_lat": 0.0, "type": "electric_scooter", "bike_id": "6630abb8e17c8b1701447f87677ae894", "rental_uris": {"ios": "https://dc.lft.to/lastmile_qr_scan", "android": "https://dc.lft.to/lastmile_qr_scan"}, "fusion_lon": 0.0, "lon": -77.01081833333333, "name": "6630abb8e17c8b1701447f87677ae894", "is_reserved": 0, "is_disabled": 0}, {"lat": 38.942905, "fusion_lat": 0.0, "type": "electric_scooter", "bike_id": "bfdd5cedb48c6cb56a282226359b33ad", "rental_uris": {"ios": "https://dc.lft.to/lastmile_qr_scan", "android": "https://dc.lft.to/lastmile_qr_scan"}, "fusion_lon": 0.0, "lon": -77.02171083333333, "name": "bfdd5cedb48c6cb56a282226359b33ad", "is_reserved": 0, "is_disabled": 0}, {"lat": 38.88729566666667, "fusion_lat": 0.0, "type": "electric_scooter", "bike_id": "fabb7d7d13b634d114cf9b419cc44f33", "rental_uris": {"ios": "https://dc.lft.to/lastmile_qr_scan", "android": "https://dc.lft.to/lastmile_qr_scan"}, "fusion_lon": 0.0, "lon": -76.983569, "name": "fabb7d7d13b634d114cf9b419cc44f33", "is_reserved": 0, "is_disabled": 0}, {"lat": 38.8843045, "fusion_lat": 0.0, "type": "electric_scooter", "bike_id": "1079dfc43405538a171294e0a887a3d3", "rental_uris": {"ios": "https://dc.lft.to/lastmile_qr_scan", "android": "https://dc.lft.to/lastmile_qr_scan"}, "fusion_lon": 0.0, "lon": -76.95757966666666, "name": "1079dfc43405538a171294e0a887a3d3", "is_reserved": 0, "is_disabled": 0}, {"lat": 38.91909183333333, "fusion_lat": 0.0, "type": "electric_scooter", "bike_id": "008593e5b6e187c625122250bcfe2a00", "rental_uris": {"ios": "https://dc.lft.to/lastmile_qr_scan", "android": "https://dc.lft.to/lastmile_qr_scan"}, "fusion_lon": 0.0, "lon": -77.02048283333333, "name": "008593e5b6e187c625122250bcfe2a00", "is_reserved": 0, "is_disabled": 0}, {"lat": 38.90382983333333, "fusion_lat": 0.0, "type": "electric_scooter", "bike_id": "032c92883a0b49e194b665eadc514138", "rental_uris": {"ios": "https://dc.lft.to/lastmile_qr_scan", "android": "https://dc.lft.to/lastmile_qr_scan"}, "fusion_lon": 0.0, "lon": -77.0506525, "name": "032c92883a0b49e194b665eadc514138", "is_reserved": 0, "is_disabled": 0}, {"lat": 38.896681, "fusion_lat": 0.0, "type": "electric_scooter", "bike_id": "43dd25fc9f8c8fa074e56ca955386365", "rental_uris": {"ios": "https://dc.lft.to/lastmile_qr_scan", "android": "https://dc.lft.to/lastmile_qr_scan"}, "fusion_lon": 0.0, "lon": -76.932045, "name": "43dd25fc9f8c8fa074e56ca955386365", "is_reserved": 0, "is_disabled": 0}, {"lat": 38.88426, "fusion_lat": 0.0, "type": "electric_scooter", "bike_id": "2c40c8230f13a383da9e92e02c2d87b5", "rental_uris": {"ios": "https://dc.lft.to/lastmile_qr_scan", "android": "https://dc.lft.to/lastmile_qr_scan"}, "fusion_lon": 0.0, "lon": -77.00813766666667, "name": "2c40c8230f13a383da9e92e02c2d87b5", "is_reserved": 0, "is_disabled": 0}, {"lat": 38.901563, "fusion_lat": 0.0, "type": "electric_scooter", "bike_id": "78e7bf37f44d729f4e3b69bf34e5562a", "rental_uris": {"ios": "https://dc.lft.to/lastmile_qr_scan", "android": "https://dc.lft.to/lastmile_qr_scan"}, "fusion_lon": 0.0, "lon": -77.02701883333333, "name": "78e7bf37f44d729f4e3b69bf34e5562a", "is_reserved": 0, "is_disabled": 0}, {"lat": 38.900229833333334, "fusion_lat": 0.0, "type": "electric_scooter", "bike_id": "5cc61f7dcfe3857778a94d644dde733c", "rental_uris": {"ios": "https://dc.lft.to/lastmile_qr_scan", "android": "https://dc.lft.to/lastmile_qr_scan"}, "fusion_lon": 0.0, "lon": -77.0398015, "name": "5cc61f7dcfe3857778a94d644dde733c", "is_reserved": 0, "is_disabled": 0}, {"lat": 38.90049, "fusion_lat": 0.0, "type": "electric_scooter", "bike_id": "e94a3a1c2590cbd80abc336efc35959a", "rental_uris": {"ios": "https://dc.lft.to/lastmile_qr_scan", "android": "https://dc.lft.to/lastmile_qr_scan"}, "fusion_lon": 0.0, "lon": -77.04502, "name": "e94a3a1c2590cbd80abc336efc35959a", "is_reserved": 0, "is_disabled": 0}, {"lat": 38.9201085, "fusion_lat": 0.0, "type": "electric_scooter", "bike_id": "17360cd559f4cc978cc67e3ae3099e7a", "rental_uris": {"ios": "https://dc.lft.to/lastmile_qr_scan", "android": "https://dc.lft.to/lastmile_qr_scan"}, "fusion_lon": 0.0, "lon": -77.021792, "name": "17360cd559f4cc978cc67e3ae3099e7a", "is_reserved": 0, "is_disabled": 0}, {"lat": 38.88766416666667, "fusion_lat": 0.0, "type": "electric_scooter", "bike_id": "5118071e538af567c7dfa5a3371af0f8", "rental_uris": {"ios": "https://dc.lft.to/lastmile_qr_scan", "android": "https://dc.lft.to/lastmile_qr_scan"}, "fusion_lon": 0.0, "lon": -76.9869455, "name": "5118071e538af567c7dfa5a3371af0f8", "is_reserved": 0, "is_disabled": 0}, {"lat": 38.877177333333336, "fusion_lat": 0.0, "type": "electric_scooter", "bike_id": "550f655906152fa0a4d652e40f5297a6", "rental_uris": {"ios": "https://dc.lft.to/lastmile_qr_scan", "android": "https://dc.lft.to/lastmile_qr_scan"}, "fusion_lon": 0.0, "lon": -77.01755033333333, "name": "550f655906152fa0a4d652e40f5297a6", "is_reserved": 0, "is_disabled": 0}, {"lat": 38.911929, "fusion_lat": 0.0, "type": "electric_scooter", "bike_id": "5d23c4a2b2a4e07b6288d735bd8a8614", "rental_uris": {"ios": "https://dc.lft.to/lastmile_qr_scan", "android": "https://dc.lft.to/lastmile_qr_scan"}, "fusion_lon": 0.0, "lon": -77.045408, "name": "5d23c4a2b2a4e07b6288d735bd8a8614", "is_reserved": 0, "is_disabled": 0}, {"lat": 38.9001475, "fusion_lat": 0.0, "type": "electric_scooter", "bike_id": "3865da205ede11fa61c315734f7be48f", "rental_uris": {"ios": "https://dc.lft.to/lastmile_qr_scan", "android": "https://dc.lft.to/lastmile_qr_scan"}, "fusion_lon": 0.0, "lon": -77.00665383333333, "name": "3865da205ede11fa61c315734f7be48f", "is_reserved": 0, "is_disabled": 0}, {"lat": 38.9031935, "fusion_lat": 0.0, "type": "electric_scooter", "bike_id": "5c13dfa10b1263a67fdda4560fe52314", "rental_uris": {"ios": "https://dc.lft.to/lastmile_qr_scan", "android": "https://dc.lft.to/lastmile_qr_scan"}, "fusion_lon": 0.0, "lon": -77.0332725, "name": "5c13dfa10b1263a67fdda4560fe52314", "is_reserved": 0, "is_disabled": 0}, {"lat": 38.897152, "fusion_lat": 0.0, "type": "electric_scooter", "bike_id": "f562b81ac99bec043c187b73d56198ab", "rental_uris": {"ios": "https://dc.lft.to/lastmile_qr_scan", "android": "https://dc.lft.to/lastmile_qr_scan"}, "fusion_lon": 0.0, "lon": -77.00795883333333, "name": "f562b81ac99bec043c187b73d56198ab", "is_reserved": 0, "is_disabled": 0}, {"lat": 38.93777033333333, "fusion_lat": 0.0, "type": "electric_scooter", "bike_id": "bc5501ad91abdf314124bf013ef94087", "rental_uris": {"ios": "https://dc.lft.to/lastmile_qr_scan", "android": "https://dc.lft.to/lastmile_qr_scan"}, "fusion_lon": 0.0, "lon": -77.03286133333333, "name": "bc5501ad91abdf314124bf013ef94087", "is_reserved": 0, "is_disabled": 0}, {"lat": 38.9066755, "fusion_lat": 0.0, "type": "electric_scooter", "bike_id": "06312c6d08b0b8c9554d7030694bc840", "rental_uris": {"ios": "https://dc.lft.to/lastmile_qr_scan", "android": "https://dc.lft.to/lastmile_qr_scan"}, "fusion_lon": 0.0, "lon": -77.02709233333333, "name": "06312c6d08b0b8c9554d7030694bc840", "is_reserved": 0, "is_disabled": 0}, {"lat": 38.92260666666667, "fusion_lat": 0.0, "type": "electric_scooter", "bike_id": "3a32dd20a8b220799ad6886f28a7e6f8", "rental_uris": {"ios": "https://dc.lft.to/lastmile_qr_scan", "android": "https://dc.lft.to/lastmile_qr_scan"}, "fusion_lon": 0.0, "lon": -77.02975166666667, "name": "3a32dd20a8b220799ad6886f28a7e6f8", "is_reserved": 0, "is_disabled": 0}, {"lat": 38.90136783333333, "fusion_lat": 0.0, "type": "electric_scooter", "bike_id": "fdd0cf25b0bfc6c0f104a6156e1146d6", "rental_uris": {"ios": "https://dc.lft.to/lastmile_qr_scan", "android": "https://dc.lft.to/lastmile_qr_scan"}, "fusion_lon": 0.0, "lon": -77.02546183333334, "name": "fdd0cf25b0bfc6c0f104a6156e1146d6", "is_reserved": 0, "is_disabled": 0}, {"lat": 38.87729266666667, "fusion_lat": 0.0, "type": "electric_scooter", "bike_id": "1e44fc0651b7e3fb966038bec24845d1", "rental_uris": {"ios": "https://dc.lft.to/lastmile_qr_scan", "android": "https://dc.lft.to/lastmile_qr_scan"}, "fusion_lon": 0.0, "lon": -77.0066815, "name": "1e44fc0651b7e3fb966038bec24845d1", "is_reserved": 0, "is_disabled": 0}, {"lat": 38.8811775, "fusion_lat": 0.0, "type": "electric_scooter", "bike_id": "6486890e4d94ff12ac56111b9de53f39", "rental_uris": {"ios": "https://dc.lft.to/lastmile_qr_scan", "android": "https://dc.lft.to/lastmile_qr_scan"}, "fusion_lon": 0.0, "lon": -77.0174145, "name": "6486890e4d94ff12ac56111b9de53f39", "is_reserved": 0, "is_disabled": 0}, {"lat": 38.874555666666666, "fusion_lat": 0.0, "type": "electric_scooter", "bike_id": "bd8c6b8aba3737991685014723018128", "rental_uris": {"ios": "https://dc.lft.to/lastmile_qr_scan", "android": "https://dc.lft.to/lastmile_qr_scan"}, "fusion_lon": 0.0, "lon": -77.0054525, "name": "bd8c6b8aba3737991685014723018128", "is_reserved": 0, "is_disabled": 0}, {"lat": 38.90196616666667, "fusion_lat": 0.0, "type": "electric_scooter", "bike_id": "bd3c66fa855adecfe4db6642335685fa", "rental_uris": {"ios": "https://dc.lft.to/lastmile_qr_scan", "android": "https://dc.lft.to/lastmile_qr_scan"}, "fusion_lon": 0.0, "lon": -77.021027, "name": "bd3c66fa855adecfe4db6642335685fa", "is_reserved": 0, "is_disabled": 0}, {"lat": 38.9226425, "fusion_lat": 0.0, "type": "electric_scooter", "bike_id": "8134f5d6259a29b45909fb81aabccdde", "rental_uris": {"ios": "https://dc.lft.to/lastmile_qr_scan", "android": "https://dc.lft.to/lastmile_qr_scan"}, "fusion_lon": 0.0, "lon": -77.02440883333334, "name": "8134f5d6259a29b45909fb81aabccdde", "is_reserved": 0, "is_disabled": 0}, {"lat": 38.9148665, "fusion_lat": 0.0, "type": "electric_scooter", "bike_id": "b7ad9f8b4865ce29cc2ea8619bd152d4", "rental_uris": {"ios": "https://dc.lft.to/lastmile_qr_scan", "android": "https://dc.lft.to/lastmile_qr_scan"}, "fusion_lon": 0.0, "lon": -76.98367833333333, "name": "b7ad9f8b4865ce29cc2ea8619bd152d4", "is_reserved": 0, "is_disabled": 0}, {"lat": 38.913184333333334, "fusion_lat": 0.0, "type": "electric_scooter", "bike_id": "44e567ebfb51d3527c0bde0a06f68392", "rental_uris": {"ios": "https://dc.lft.to/lastmile_qr_scan", "android": "https://dc.lft.to/lastmile_qr_scan"}, "fusion_lon": 0.0, "lon": -77.04557533333333, "name": "44e567ebfb51d3527c0bde0a06f68392", "is_reserved": 0, "is_disabled": 0}, {"lat": 38.91554983333333, "fusion_lat": 0.0, "type": "electric_scooter", "bike_id": "9ae249357d14d9c0b5b5f15501e42bdd", "rental_uris": {"ios": "https://dc.lft.to/lastmile_qr_scan", "android": "https://dc.lft.to/lastmile_qr_scan"}, "fusion_lon": 0.0, "lon": -77.028388, "name": "9ae249357d14d9c0b5b5f15501e42bdd", "is_reserved": 0, "is_disabled": 0}, {"lat": 38.88767583333333, "fusion_lat": 0.0, "type": "electric_scooter", "bike_id": "af10f25da09ff05744ea7ee2a19d1207", "rental_uris": {"ios": "https://dc.lft.to/lastmile_qr_scan", "android": "https://dc.lft.to/lastmile_qr_scan"}, "fusion_lon": 0.0, "lon": -77.02236, "name": "af10f25da09ff05744ea7ee2a19d1207", "is_reserved": 0, "is_disabled": 0}, {"lat": 38.862162833333336, "fusion_lat": 0.0, "type": "electric_scooter", "bike_id": "7c3a15ef6d1a8e00aba4cfd904a8e72d", "rental_uris": {"ios": "https://dc.lft.to/lastmile_qr_scan", "android": "https://dc.lft.to/lastmile_qr_scan"}, "fusion_lon": 0.0, "lon": -76.99481766666666, "name": "7c3a15ef6d1a8e00aba4cfd904a8e72d", "is_reserved": 0, "is_disabled": 0}, {"lat": 38.901352333333335, "fusion_lat": 0.0, "type": "electric_scooter", "bike_id": "0ef5433877ff7c2add1ff246eca077d0", "rental_uris": {"ios": "https://dc.lft.to/lastmile_qr_scan", "android": "https://dc.lft.to/lastmile_qr_scan"}, "fusion_lon": 0.0, "lon": -77.04426133333334, "name": "0ef5433877ff7c2add1ff246eca077d0", "is_reserved": 0, "is_disabled": 0}, {"lat": 38.954001, "fusion_lat": 0.0, "type": "electric_scooter", "bike_id": "12e66e94b319a6f8017805d6a5ad7491", "rental_uris": {"ios": "https://dc.lft.to/lastmile_qr_scan", "android": "https://dc.lft.to/lastmile_qr_scan"}, "fusion_lon": 0.0, "lon": -77.02793033333333, "name": "12e66e94b319a6f8017805d6a5ad7491", "is_reserved": 0, "is_disabled": 0}, {"lat": 38.92707516666667, "fusion_lat": 0.0, "type": "electric_scooter", "bike_id": "469664c17c1ee451efdd541e95f4f2ee", "rental_uris": {"ios": "https://dc.lft.to/lastmile_qr_scan", "android": "https://dc.lft.to/lastmile_qr_scan"}, "fusion_lon": 0.0, "lon": -77.0536475, "name": "469664c17c1ee451efdd541e95f4f2ee", "is_reserved": 0, "is_disabled": 0}, {"lat": 38.90469083333333, "fusion_lat": 0.0, "type": "electric_scooter", "bike_id": "5289e2d3b98797c0cf3766bf4dde6f5f", "rental_uris": {"ios": "https://dc.lft.to/lastmile_qr_scan", "android": "https://dc.lft.to/lastmile_qr_scan"}, "fusion_lon": 0.0, "lon": -77.06597016666667, "name": "5289e2d3b98797c0cf3766bf4dde6f5f", "is_reserved": 0, "is_disabled": 0}, {"lat": 38.86331583333333, "fusion_lat": 0.0, "type": "electric_bike", "bike_id": "1b43cee2edde222e15a54f557abafd34", "rental_uris": {"ios": "https://dc.lft.to/lastmile_qr_scan", "android": "https://dc.lft.to/lastmile_qr_scan"}, "fusion_lon": 0.0, "lon": -76.98722866666667, "name": "1b43cee2edde222e15a54f557abafd34", "is_reserved": 0, "is_disabled": 0}, {"lat": 38.93052633333333, "fusion_lat": 0.0, "type": "electric_scooter", "bike_id": "47bd05f1b842383ac35e4e157c181213", "rental_uris": {"ios": "https://dc.lft.to/lastmile_qr_scan", "android": "https://dc.lft.to/lastmile_qr_scan"}, "fusion_lon": 0.0, "lon": -77.0318555, "name": "47bd05f1b842383ac35e4e157c181213", "is_reserved": 0, "is_disabled": 0}, {"lat": 38.9345055, "fusion_lat": 0.0, "type": "electric_scooter", "bike_id": "2afca3d352d03f5f8d2daf963de8b2b1", "rental_uris": {"ios": "https://dc.lft.to/lastmile_qr_scan", "android": "https://dc.lft.to/lastmile_qr_scan"}, "fusion_lon": 0.0, "lon": -77.02970283333333, "name": "2afca3d352d03f5f8d2daf963de8b2b1", "is_reserved": 0, "is_disabled": 0}, {"lat": 38.898125, "fusion_lat": 0.0, "type": "electric_scooter", "bike_id": "8172e58c94deb8f47124dda8a623391c", "rental_uris": {"ios": "https://dc.lft.to/lastmile_qr_scan", "android": "https://dc.lft.to/lastmile_qr_scan"}, "fusion_lon": 0.0, "lon": -77.01536716666666, "name": "8172e58c94deb8f47124dda8a623391c", "is_reserved": 0, "is_disabled": 0}, {"lat": 38.91703166666667, "fusion_lat": 0.0, "type": "electric_scooter", "bike_id": "93f5519a186d6587de37e3142ba8254f", "rental_uris": {"ios": "https://dc.lft.to/lastmile_qr_scan", "android": "https://dc.lft.to/lastmile_qr_scan"}, "fusion_lon": 0.0, "lon": -77.03345783333333, "name": "93f5519a186d6587de37e3142ba8254f", "is_reserved": 0, "is_disabled": 0}, {"lat": 38.98783616666667, "fusion_lat": 0.0, "type": "electric_bike", "bike_id": "0fb7cb83f08f082ca8c653cf4382b3e1", "rental_uris": {"ios": "https://dc.lft.to/lastmile_qr_scan", "android": "https://dc.lft.to/lastmile_qr_scan"}, "fusion_lon": 0.0, "lon": -77.14101233333334, "name": "0fb7cb83f08f082ca8c653cf4382b3e1", "is_reserved": 0, "is_disabled": 0}, {"lat": 38.8387095, "fusion_lat": 0.0, "type": "electric_bike", "bike_id": "4e134641a5499c3bf33e51566840fd1a", "rental_uris": {"ios": "https://dc.lft.to/lastmile_qr_scan", "android": "https://dc.lft.to/lastmile_qr_scan"}, "fusion_lon": 0.0, "lon": -76.99704666666666, "name": "4e134641a5499c3bf33e51566840fd1a", "is_reserved": 0, "is_disabled": 0}, {"lat": 38.89545733333333, "fusion_lat": 0.0, "type": "electric_scooter", "bike_id": "0d6861d9845526affcefac36f1cef199", "rental_uris": {"ios": "https://dc.lft.to/lastmile_qr_scan", "android": "https://dc.lft.to/lastmile_qr_scan"}, "fusion_lon": 0.0, "lon": -76.98339766666666, "name": "0d6861d9845526affcefac36f1cef199", "is_reserved": 0, "is_disabled": 0}, {"lat": 38.9133755, "fusion_lat": 0.0, "type": "electric_scooter", "bike_id": "a9ca19674df3fbb9c5deef87eddc6a71", "rental_uris": {"ios": "https://dc.lft.to/lastmile_qr_scan", "android": "https://dc.lft.to/lastmile_qr_scan"}, "fusion_lon": 0.0, "lon": -77.00330933333333, "name": "a9ca19674df3fbb9c5deef87eddc6a71", "is_reserved": 0, "is_disabled": 0}, {"lat": 38.8737695, "fusion_lat": 0.0, "type": "electric_scooter", "bike_id": "ebb51a159df75cdd4fbcea48bbb18609", "rental_uris": {"ios": "https://dc.lft.to/lastmile_qr_scan", "android": "https://dc.lft.to/lastmile_qr_scan"}, "fusion_lon": 0.0, "lon": -77.00126816666666, "name": "ebb51a159df75cdd4fbcea48bbb18609", "is_reserved": 0, "is_disabled": 0}, {"lat": 38.92074983333333, "fusion_lat": 0.0, "type": "electric_bike", "bike_id": "63093eedcc09da280d6c5359a95e3113", "rental_uris": {"ios": "https://dc.lft.to/lastmile_qr_scan", "android": "https://dc.lft.to/lastmile_qr_scan"}, "fusion_lon": 0.0, "lon": -77.02422733333333, "name": "63093eedcc09da280d6c5359a95e3113", "is_reserved": 0, "is_disabled": 0}, {"lat": 38.9362695, "fusion_lat": 0.0, "type": "electric_scooter", "bike_id": "9fc7d99473b542ebc335585b6a94865f", "rental_uris": {"ios": "https://dc.lft.to/lastmile_qr_scan", "android": "https://dc.lft.to/lastmile_qr_scan"}, "fusion_lon": 0.0, "lon": -77.058793, "name": "9fc7d99473b542ebc335585b6a94865f", "is_reserved": 0, "is_disabled": 0}, {"lat": 38.956773, "fusion_lat": 0.0, "type": "electric_scooter", "bike_id": "9fb735cd505533953ec49cccb9ce2e1e", "rental_uris": {"ios": "https://dc.lft.to/lastmile_qr_scan", "android": "https://dc.lft.to/lastmile_qr_scan"}, "fusion_lon": 0.0, "lon": -77.01353983333334, "name": "9fb735cd505533953ec49cccb9ce2e1e", "is_reserved": 0, "is_disabled": 0}, {"lat": 38.912524166666664, "fusion_lat": 0.0, "type": "electric_scooter", "bike_id": "c71517f40719aed58f7dc59394ddc5bc", "rental_uris": {"ios": "https://dc.lft.to/lastmile_qr_scan", "android": "https://dc.lft.to/lastmile_qr_scan"}, "fusion_lon": 0.0, "lon": -77.019745, "name": "c71517f40719aed58f7dc59394ddc5bc", "is_reserved": 0, "is_disabled": 0}, {"lat": 38.92349466666667, "fusion_lat": 0.0, "type": "electric_scooter", "bike_id": "fb5445bafd91d081acb942873702d1a2", "rental_uris": {"ios": "https://dc.lft.to/lastmile_qr_scan", "android": "https://dc.lft.to/lastmile_qr_scan"}, "fusion_lon": 0.0, "lon": -77.0415055, "name": "fb5445bafd91d081acb942873702d1a2", "is_reserved": 0, "is_disabled": 0}, {"lat": 38.910278166666664, "fusion_lat": 0.0, "type": "electric_scooter", "bike_id": "6e7a2a524a7b9ca5349edc889ebea92c", "rental_uris": {"ios": "https://dc.lft.to/lastmile_qr_scan", "android": "https://dc.lft.to/lastmile_qr_scan"}, "fusion_lon": 0.0, "lon": -77.03443383333334, "name": "6e7a2a524a7b9ca5349edc889ebea92c", "is_reserved": 0, "is_disabled": 0}, {"lat": 38.91117933333334, "fusion_lat": 0.0, "type": "electric_scooter", "bike_id": "a687730857bcdd2ec0a314858e2c622d", "rental_uris": {"ios": "https://dc.lft.to/lastmile_qr_scan", "android": "https://dc.lft.to/lastmile_qr_scan"}, "fusion_lon": 0.0, "lon": -77.044853, "name": "a687730857bcdd2ec0a314858e2c622d", "is_reserved": 0, "is_disabled": 0}, {"lat": 38.896204, "fusion_lat": 0.0, "type": "electric_scooter", "bike_id": "d69bab38b1801524ef29c5fdeb1bdf0f", "rental_uris": {"ios": "https://dc.lft.to/lastmile_qr_scan", "android": "https://dc.lft.to/lastmile_qr_scan"}, "fusion_lon": 0.0, "lon": -77.02306966666667, "name": "d69bab38b1801524ef29c5fdeb1bdf0f", "is_reserved": 0, "is_disabled": 0}, {"lat": 38.9137375, "fusion_lat": 0.0, "type": "electric_scooter", "bike_id": "0f93454c890b181ea72c2c94e6e71a5b", "rental_uris": {"ios": "https://dc.lft.to/lastmile_qr_scan", "android": "https://dc.lft.to/lastmile_qr_scan"}, "fusion_lon": 0.0, "lon": -77.0221095, "name": "0f93454c890b181ea72c2c94e6e71a5b", "is_reserved": 0, "is_disabled": 0}, {"lat": 38.87400816666667, "fusion_lat": 0.0, "type": "electric_scooter", "bike_id": "1a37ca5f776f0c8d4e5486c1971c2226", "rental_uris": {"ios": "https://dc.lft.to/lastmile_qr_scan", "android": "https://dc.lft.to/lastmile_qr_scan"}, "fusion_lon": 0.0, "lon": -77.00031466666667, "name": "1a37ca5f776f0c8d4e5486c1971c2226", "is_reserved": 0, "is_disabled": 0}, {"lat": 38.901331166666665, "fusion_lat": 0.0, "type": "electric_scooter", "bike_id": "0c219b3f9c5f4a0e65b704f6acc84237", "rental_uris": {"ios": "https://dc.lft.to/lastmile_qr_scan", "android": "https://dc.lft.to/lastmile_qr_scan"}, "fusion_lon": 0.0, "lon": -77.03503083333334, "name": "0c219b3f9c5f4a0e65b704f6acc84237", "is_reserved": 0, "is_disabled": 0}, {"lat": 38.9166065, "fusion_lat": 0.0, "type": "electric_scooter", "bike_id": "5110cb6292ee0f5d034496b0f2785e1a", "rental_uris": {"ios": "https://dc.lft.to/lastmile_qr_scan", "android": "https://dc.lft.to/lastmile_qr_scan"}, "fusion_lon": 0.0, "lon": -77.04391666666666, "name": "5110cb6292ee0f5d034496b0f2785e1a", "is_reserved": 0, "is_disabled": 0}, {"lat": 38.94229516666667, "fusion_lat": 0.0, "type": "electric_scooter", "bike_id": "da2f9df49990ac608dbdb45e5cf95259", "rental_uris": {"ios": "https://dc.lft.to/lastmile_qr_scan", "android": "https://dc.lft.to/lastmile_qr_scan"}, "fusion_lon": 0.0, "lon": -77.0386685, "name": "da2f9df49990ac608dbdb45e5cf95259", "is_reserved": 0, "is_disabled": 0}, {"lat": 38.921149666666665, "fusion_lat": 0.0, "type": "electric_bike", "bike_id": "bdb5005b6bcb4486185c89f6b72beb96", "rental_uris": {"ios": "https://dc.lft.to/lastmile_qr_scan", "android": "https://dc.lft.to/lastmile_qr_scan"}, "fusion_lon": 0.0, "lon": -77.23672233333333, "name": "bdb5005b6bcb4486185c89f6b72beb96", "is_reserved": 0, "is_disabled": 0}, {"lat": 38.92257216666667, "fusion_lat": 0.0, "type": "electric_scooter", "bike_id": "2eafc069872d28bf556ea83adfa890d3", "rental_uris": {"ios": "https://dc.lft.to/lastmile_qr_scan", "android": "https://dc.lft.to/lastmile_qr_scan"}, "fusion_lon": 0.0, "lon": -77.03885066666666, "name": "2eafc069872d28bf556ea83adfa890d3", "is_reserved": 0, "is_disabled": 0}, {"lat": 38.90364816666667, "fusion_lat": 0.0, "type": "electric_scooter", "bike_id": "bfa8dddfada410dc880a9493d0ff2372", "rental_uris": {"ios": "https://dc.lft.to/lastmile_qr_scan", "android": "https://dc.lft.to/lastmile_qr_scan"}, "fusion_lon": 0.0, "lon": -77.01743, "name": "bfa8dddfada410dc880a9493d0ff2372", "is_reserved": 0, "is_disabled": 0}, {"lat": 38.90012883333333, "fusion_lat": 0.0, "type": "electric_scooter", "bike_id": "a0942e3660f7880d9df234e10dc598da", "rental_uris": {"ios": "https://dc.lft.to/lastmile_qr_scan", "android": "https://dc.lft.to/lastmile_qr_scan"}, "fusion_lon": 0.0, "lon": -77.0031235, "name": "a0942e3660f7880d9df234e10dc598da", "is_reserved": 0, "is_disabled": 0}, {"lat": 38.938415666666664, "fusion_lat": 0.0, "type": "electric_scooter", "bike_id": "125f03bc5a3c7eeb40f20ccd21ae30cd", "rental_uris": {"ios": "https://dc.lft.to/lastmile_qr_scan", "android": "https://dc.lft.to/lastmile_qr_scan"}, "fusion_lon": 0.0, "lon": -77.03402466666667, "name": "125f03bc5a3c7eeb40f20ccd21ae30cd", "is_reserved": 0, "is_disabled": 0}, {"lat": 38.8922505, "fusion_lat": 0.0, "type": "electric_scooter", "bike_id": "b4568c66c8869ee8fcdab4759caecfc6", "rental_uris": {"ios": "https://dc.lft.to/lastmile_qr_scan", "android": "https://dc.lft.to/lastmile_qr_scan"}, "fusion_lon": 0.0, "lon": -77.0489635, "name": "b4568c66c8869ee8fcdab4759caecfc6", "is_reserved": 0, "is_disabled": 0}, {"lat": 38.924840833333334, "fusion_lat": 0.0, "type": "electric_scooter", "bike_id": "ce6b6e3c055bf3cfebf02d2bec1c7144", "rental_uris": {"ios": "https://dc.lft.to/lastmile_qr_scan", "android": "https://dc.lft.to/lastmile_qr_scan"}, "fusion_lon": 0.0, "lon": -77.02272083333334, "name": "ce6b6e3c055bf3cfebf02d2bec1c7144", "is_reserved": 0, "is_disabled": 0}, {"lat": 38.915396, "fusion_lat": 0.0, "type": "electric_scooter", "bike_id": "8d0b33f79d1651c676667c2c862529aa", "rental_uris": {"ios": "https://dc.lft.to/lastmile_qr_scan", "android": "https://dc.lft.to/lastmile_qr_scan"}, "fusion_lon": 0.0, "lon": -77.02090133333333, "name": "8d0b33f79d1651c676667c2c862529aa", "is_reserved": 0, "is_disabled": 0}, {"lat": 38.9091545, "fusion_lat": 0.0, "type": "electric_scooter", "bike_id": "46cb40eac6c97e00fd9d15e4c421c987", "rental_uris": {"ios": "https://dc.lft.to/lastmile_qr_scan", "android": "https://dc.lft.to/lastmile_qr_scan"}, "fusion_lon": 0.0, "lon": -77.07271033333333, "name": "46cb40eac6c97e00fd9d15e4c421c987", "is_reserved": 0, "is_disabled": 0}, {"lat": 38.87655866666667, "fusion_lat": 0.0, "type": "electric_scooter", "bike_id": "0d9abad2599ce3cc4d9c1d1859cc250d", "rental_uris": {"ios": "https://dc.lft.to/lastmile_qr_scan", "android": "https://dc.lft.to/lastmile_qr_scan"}, "fusion_lon": 0.0, "lon": -77.00315933333333, "name": "0d9abad2599ce3cc4d9c1d1859cc250d", "is_reserved": 0, "is_disabled": 0}, {"lat": 38.901643666666665, "fusion_lat": 0.0, "type": "electric_scooter", "bike_id": "2527c04b86ce8a07eca074b78ebeec0f", "rental_uris": {"ios": "https://dc.lft.to/lastmile_qr_scan", "android": "https://dc.lft.to/lastmile_qr_scan"}, "fusion_lon": 0.0, "lon": -77.02591433333333, "name": "2527c04b86ce8a07eca074b78ebeec0f", "is_reserved": 0, "is_disabled": 0}, {"lat": 38.9191205, "fusion_lat": 0.0, "type": "electric_scooter", "bike_id": "ea7fd895f5d1ebae4fe68ab21b9af42d", "rental_uris": {"ios": "https://dc.lft.to/lastmile_qr_scan", "android": "https://dc.lft.to/lastmile_qr_scan"}, "fusion_lon": 0.0, "lon": -77.02506266666667, "name": "ea7fd895f5d1ebae4fe68ab21b9af42d", "is_reserved": 0, "is_disabled": 0}, {"lat": 38.872690166666665, "fusion_lat": 0.0, "type": "electric_scooter", "bike_id": "ddea81cf3c204c0150a1bfda3227f724", "rental_uris": {"ios": "https://dc.lft.to/lastmile_qr_scan", "android": "https://dc.lft.to/lastmile_qr_scan"}, "fusion_lon": 0.0, "lon": -77.01358583333334, "name": "ddea81cf3c204c0150a1bfda3227f724", "is_reserved": 0, "is_disabled": 0}, {"lat": 38.925773166666666, "fusion_lat": 0.0, "type": "electric_scooter", "bike_id": "2a6f4cc8ccf7235e4bbdcca400233baa", "rental_uris": {"ios": "https://dc.lft.to/lastmile_qr_scan", "android": "https://dc.lft.to/lastmile_qr_scan"}, "fusion_lon": 0.0, "lon": -77.03356483333333, "name": "2a6f4cc8ccf7235e4bbdcca400233baa", "is_reserved": 0, "is_disabled": 0}, {"lat": 38.91965066666667, "fusion_lat": 0.0, "type": "electric_scooter", "bike_id": "07e0eabce4d208d050fb5e57bc79575c", "rental_uris": {"ios": "https://dc.lft.to/lastmile_qr_scan", "android": "https://dc.lft.to/lastmile_qr_scan"}, "fusion_lon": 0.0, "lon": -77.0385805, "name": "07e0eabce4d208d050fb5e57bc79575c", "is_reserved": 0, "is_disabled": 0}, {"lat": 38.87377466666667, "fusion_lat": 0.0, "type": "electric_scooter", "bike_id": "4d5460ae9c4aa5a8b8fe1985bbdd87c8", "rental_uris": {"ios": "https://dc.lft.to/lastmile_qr_scan", "android": "https://dc.lft.to/lastmile_qr_scan"}, "fusion_lon": 0.0, "lon": -77.0008595, "name": "4d5460ae9c4aa5a8b8fe1985bbdd87c8", "is_reserved": 0, "is_disabled": 0}, {"lat": 38.897369166666664, "fusion_lat": 0.0, "type": "electric_scooter", "bike_id": "3c8e9ed6ffd5b87ae46d32a1f1e129cd", "rental_uris": {"ios": "https://dc.lft.to/lastmile_qr_scan", "android": "https://dc.lft.to/lastmile_qr_scan"}, "fusion_lon": 0.0, "lon": -77.0462155, "name": "3c8e9ed6ffd5b87ae46d32a1f1e129cd", "is_reserved": 0, "is_disabled": 0}, {"lat": 38.89872116666667, "fusion_lat": 0.0, "type": "electric_scooter", "bike_id": "2aec6c328a5a3fe0838aad24cfe59277", "rental_uris": {"ios": "https://dc.lft.to/lastmile_qr_scan", "android": "https://dc.lft.to/lastmile_qr_scan"}, "fusion_lon": 0.0, "lon": -77.0500775, "name": "2aec6c328a5a3fe0838aad24cfe59277", "is_reserved": 0, "is_disabled": 0}, {"lat": 38.89348583333334, "fusion_lat": 0.0, "type": "electric_scooter", "bike_id": "d850f5a18bb79a02e7fcfbe9135a870c", "rental_uris": {"ios": "https://dc.lft.to/lastmile_qr_scan", "android": "https://dc.lft.to/lastmile_qr_scan"}, "fusion_lon": 0.0, "lon": -77.0262505, "name": "d850f5a18bb79a02e7fcfbe9135a870c", "is_reserved": 0, "is_disabled": 0}, {"lat": 38.917052166666664, "fusion_lat": 0.0, "type": "electric_scooter", "bike_id": "b77fd524af2a0b04573c2d34a87add97", "rental_uris": {"ios": "https://dc.lft.to/lastmile_qr_scan", "android": "https://dc.lft.to/lastmile_qr_scan"}, "fusion_lon": 0.0, "lon": -77.04076916666666, "name": "b77fd524af2a0b04573c2d34a87add97", "is_reserved": 0, "is_disabled": 0}, {"lat": 38.91708766666667, "fusion_lat": 0.0, "type": "electric_scooter", "bike_id": "3bd11fbce8c41aaed93f71222141b004", "rental_uris": {"ios": "https://dc.lft.to/lastmile_qr_scan", "android": "https://dc.lft.to/lastmile_qr_scan"}, "fusion_lon": 0.0, "lon": -77.0255215, "name": "3bd11fbce8c41aaed93f71222141b004", "is_reserved": 0, "is_disabled": 0}, {"lat": 38.93245816666666, "fusion_lat": 0.0, "type": "electric_bike", "bike_id": "b2d856525229e7bcb70323b2c640da8e", "rental_uris": {"ios": "https://dc.lft.to/lastmile_qr_scan", "android": "https://dc.lft.to/lastmile_qr_scan"}, "fusion_lon": 0.0, "lon": -76.9970685, "name": "b2d856525229e7bcb70323b2c640da8e", "is_reserved": 0, "is_disabled": 0}, {"lat": 38.8696545, "fusion_lat": 0.0, "type": "electric_scooter", "bike_id": "8d71f785f8e917aac24e4c3ddb49a222", "rental_uris": {"ios": "https://dc.lft.to/lastmile_qr_scan", "android": "https://dc.lft.to/lastmile_qr_scan"}, "fusion_lon": 0.0, "lon": -76.978495, "name": "8d71f785f8e917aac24e4c3ddb49a222", "is_reserved": 0, "is_disabled": 0}, {"lat": 38.891841, "fusion_lat": 0.0, "type": "electric_scooter", "bike_id": "c156b3c8d760876da50b4328abeff9ac", "rental_uris": {"ios": "https://dc.lft.to/lastmile_qr_scan", "android": "https://dc.lft.to/lastmile_qr_scan"}, "fusion_lon": 0.0, "lon": -77.0159905, "name": "c156b3c8d760876da50b4328abeff9ac", "is_reserved": 0, "is_disabled": 0}, {"lat": 38.905522166666664, "fusion_lat": 0.0, "type": "electric_scooter", "bike_id": "760cc5aba7ec69fca5c857e462de5066", "rental_uris": {"ios": "https://dc.lft.to/lastmile_qr_scan", "android": "https://dc.lft.to/lastmile_qr_scan"}, "fusion_lon": 0.0, "lon": -77.04944583333334, "name": "760cc5aba7ec69fca5c857e462de5066", "is_reserved": 0, "is_disabled": 0}, {"lat": 38.887348333333335, "fusion_lat": 0.0, "type": "electric_scooter", "bike_id": "8146ead1efb7c8f19e398b8bbccee495", "rental_uris": {"ios": "https://dc.lft.to/lastmile_qr_scan", "android": "https://dc.lft.to/lastmile_qr_scan"}, "fusion_lon": 0.0, "lon": -77.03177783333334, "name": "8146ead1efb7c8f19e398b8bbccee495", "is_reserved": 0, "is_disabled": 0}, {"lat": 38.887343666666666, "fusion_lat": 0.0, "type": "electric_scooter", "bike_id": "48fe456f4e7d8e26328d7f9187d50ed8", "rental_uris": {"ios": "https://dc.lft.to/lastmile_qr_scan", "android": "https://dc.lft.to/lastmile_qr_scan"}, "fusion_lon": 0.0, "lon": -77.0138735, "name": "48fe456f4e7d8e26328d7f9187d50ed8", "is_reserved": 0, "is_disabled": 0}, {"lat": 38.96219083333333, "fusion_lat": 0.0, "type": "electric_bike", "bike_id": "493c000fb31301e03162047d25dc4743", "rental_uris": {"ios": "https://dc.lft.to/lastmile_qr_scan", "android": "https://dc.lft.to/lastmile_qr_scan"}, "fusion_lon": 0.0, "lon": -77.026274, "name": "493c000fb31301e03162047d25dc4743", "is_reserved": 0, "is_disabled": 0}, {"lat": 38.9025145, "fusion_lat": 0.0, "type": "electric_scooter", "bike_id": "bdc306ba9fbc898eb4d6918f9330b276", "rental_uris": {"ios": "https://dc.lft.to/lastmile_qr_scan", "android": "https://dc.lft.to/lastmile_qr_scan"}, "fusion_lon": 0.0, "lon": -77.04612716666666, "name": "bdc306ba9fbc898eb4d6918f9330b276", "is_reserved": 0, "is_disabled": 0}, {"lat": 38.925943333333336, "fusion_lat": 0.0, "type": "electric_scooter", "bike_id": "04ad5250013eb2625d7a340495d52f7f", "rental_uris": {"ios": "https://dc.lft.to/lastmile_qr_scan", "android": "https://dc.lft.to/lastmile_qr_scan"}, "fusion_lon": 0.0, "lon": -77.0363565, "name": "04ad5250013eb2625d7a340495d52f7f", "is_reserved": 0, "is_disabled": 0}, {"lat": 38.8801615, "fusion_lat": 0.0, "type": "electric_scooter", "bike_id": "060e3c86a60e6eb809f79e64b229fd72", "rental_uris": {"ios": "https://dc.lft.to/lastmile_qr_scan", "android": "https://dc.lft.to/lastmile_qr_scan"}, "fusion_lon": 0.0, "lon": -76.98068766666667, "name": "060e3c86a60e6eb809f79e64b229fd72", "is_reserved": 0, "is_disabled": 0}, {"lat": 38.91500633333333, "fusion_lat": 0.0, "type": "electric_scooter", "bike_id": "8901469907b7cbd95bcc9cecacc50465", "rental_uris": {"ios": "https://dc.lft.to/lastmile_qr_scan", "android": "https://dc.lft.to/lastmile_qr_scan"}, "fusion_lon": 0.0, "lon": -77.03259133333333, "name": "8901469907b7cbd95bcc9cecacc50465", "is_reserved": 0, "is_disabled": 0}, {"lat": 38.8874565, "fusion_lat": 0.0, "type": "electric_scooter", "bike_id": "c4a6963c9f239418dc6dab3046f4f345", "rental_uris": {"ios": "https://dc.lft.to/lastmile_qr_scan", "android": "https://dc.lft.to/lastmile_qr_scan"}, "fusion_lon": 0.0, "lon": -77.01402133333333, "name": "c4a6963c9f239418dc6dab3046f4f345", "is_reserved": 0, "is_disabled": 0}, {"lat": 38.945661666666666, "fusion_lat": 0.0, "type": "electric_scooter", "bike_id": "b24600ee0275f585ed1ccc89be2eb8c7", "rental_uris": {"ios": "https://dc.lft.to/lastmile_qr_scan", "android": "https://dc.lft.to/lastmile_qr_scan"}, "fusion_lon": 0.0, "lon": -77.07958533333333, "name": "b24600ee0275f585ed1ccc89be2eb8c7", "is_reserved": 0, "is_disabled": 0}, {"lat": 38.89222616666667, "fusion_lat": 0.0, "type": "electric_scooter", "bike_id": "81492c5dd27f9e54a4ed11b973c3e4c2", "rental_uris": {"ios": "https://dc.lft.to/lastmile_qr_scan", "android": "https://dc.lft.to/lastmile_qr_scan"}, "fusion_lon": 0.0, "lon": -77.04365933333334, "name": "81492c5dd27f9e54a4ed11b973c3e4c2", "is_reserved": 0, "is_disabled": 0}, {"lat": 38.892173666666665, "fusion_lat": 0.0, "type": "electric_scooter", "bike_id": "f9fa51bbf6829cb662e60eba4894d2f0", "rental_uris": {"ios": "https://dc.lft.to/lastmile_qr_scan", "android": "https://dc.lft.to/lastmile_qr_scan"}, "fusion_lon": 0.0, "lon": -77.02511116666666, "name": "f9fa51bbf6829cb662e60eba4894d2f0", "is_reserved": 0, "is_disabled": 0}, {"lat": 38.87823433333333, "fusion_lat": 0.0, "type": "electric_scooter", "bike_id": "d2b3a657538267e4071bf9557f37ba0c", "rental_uris": {"ios": "https://dc.lft.to/lastmile_qr_scan", "android": "https://dc.lft.to/lastmile_qr_scan"}, "fusion_lon": 0.0, "lon": -77.017366, "name": "d2b3a657538267e4071bf9557f37ba0c", "is_reserved": 0, "is_disabled": 0}, {"lat": 38.901991, "fusion_lat": 0.0, "type": "electric_scooter", "bike_id": "c0088b28a761eec9978eed61af893be5", "rental_uris": {"ios": "https://dc.lft.to/lastmile_qr_scan", "android": "https://dc.lft.to/lastmile_qr_scan"}, "fusion_lon": 0.0, "lon": -77.02377166666666, "name": "c0088b28a761eec9978eed61af893be5", "is_reserved": 0, "is_disabled": 0}, {"lat": 38.92725, "fusion_lat": 0.0, "type": "electric_scooter", "bike_id": "c15890a9436a4170ea1dd9f94c9bc607", "rental_uris": {"ios": "https://dc.lft.to/lastmile_qr_scan", "android": "https://dc.lft.to/lastmile_qr_scan"}, "fusion_lon": 0.0, "lon": -77.02779233333334, "name": "c15890a9436a4170ea1dd9f94c9bc607", "is_reserved": 0, "is_disabled": 0}, {"lat": 38.91222833333333, "fusion_lat": 0.0, "type": "electric_scooter", "bike_id": "c84f4dcd4c167aa8d48154a2fe2a13ab", "rental_uris": {"ios": "https://dc.lft.to/lastmile_qr_scan", "android": "https://dc.lft.to/lastmile_qr_scan"}, "fusion_lon": 0.0, "lon": -77.026948, "name": "c84f4dcd4c167aa8d48154a2fe2a13ab", "is_reserved": 0, "is_disabled": 0}, {"lat": 38.89011033333333, "fusion_lat": 0.0, "type": "electric_scooter", "bike_id": "d0167dbe1d7cf4e668e545b4873fdb19", "rental_uris": {"ios": "https://dc.lft.to/lastmile_qr_scan", "android": "https://dc.lft.to/lastmile_qr_scan"}, "fusion_lon": 0.0, "lon": -76.9374245, "name": "d0167dbe1d7cf4e668e545b4873fdb19", "is_reserved": 0, "is_disabled": 0}, {"lat": 38.893832333333336, "fusion_lat": 0.0, "type": "electric_scooter", "bike_id": "a88b58745a14f32cf5f1b0ffa841ac54", "rental_uris": {"ios": "https://dc.lft.to/lastmile_qr_scan", "android": "https://dc.lft.to/lastmile_qr_scan"}, "fusion_lon": 0.0, "lon": -77.04666416666667, "name": "a88b58745a14f32cf5f1b0ffa841ac54", "is_reserved": 0, "is_disabled": 0}, {"lat": 38.968374833333336, "fusion_lat": 0.0, "type": "electric_bike", "bike_id": "8b2e14699d3361fae1ab945d621f63ed", "rental_uris": {"ios": "https://dc.lft.to/lastmile_qr_scan", "android": "https://dc.lft.to/lastmile_qr_scan"}, "fusion_lon": 0.0, "lon": -77.00597266666666, "name": "8b2e14699d3361fae1ab945d621f63ed", "is_reserved": 0, "is_disabled": 0}, {"lat": 38.91709216666667, "fusion_lat": 0.0, "type": "electric_scooter", "bike_id": "85aeb99a6e15ee07a6c8ee334b7da7d6", "rental_uris": {"ios": "https://dc.lft.to/lastmile_qr_scan", "android": "https://dc.lft.to/lastmile_qr_scan"}, "fusion_lon": 0.0, "lon": -77.03671116666666, "name": "85aeb99a6e15ee07a6c8ee334b7da7d6", "is_reserved": 0, "is_disabled": 0}, {"lat": 38.8904275, "fusion_lat": 0.0, "type": "electric_scooter", "bike_id": "7ec73e667f9cc12513bc05afc8cdc3b8", "rental_uris": {"ios": "https://dc.lft.to/lastmile_qr_scan", "android": "https://dc.lft.to/lastmile_qr_scan"}, "fusion_lon": 0.0, "lon": -76.93757616666667, "name": "7ec73e667f9cc12513bc05afc8cdc3b8", "is_reserved": 0, "is_disabled": 0}, {"lat": 38.92492216666667, "fusion_lat": 0.0, "type": "electric_bike", "bike_id": "6080db00bf9f806bab672fe3af78f495", "rental_uris": {"ios": "https://dc.lft.to/lastmile_qr_scan", "android": "https://dc.lft.to/lastmile_qr_scan"}, "fusion_lon": 0.0, "lon": -77.23336283333333, "name": "6080db00bf9f806bab672fe3af78f495", "is_reserved": 0, "is_disabled": 0}, {"lat": 38.9276385, "fusion_lat": 0.0, "type": "electric_scooter", "bike_id": "d386deb86a1a676d1afbbea8b954c270", "rental_uris": {"ios": "https://dc.lft.to/lastmile_qr_scan", "android": "https://dc.lft.to/lastmile_qr_scan"}, "fusion_lon": 0.0, "lon": -76.97348433333333, "name": "d386deb86a1a676d1afbbea8b954c270", "is_reserved": 0, "is_disabled": 0}, {"lat": 38.94626783333333, "fusion_lat": 0.0, "type": "electric_scooter", "bike_id": "091244b29176dced10d06d3444c5baad", "rental_uris": {"ios": "https://dc.lft.to/lastmile_qr_scan", "android": "https://dc.lft.to/lastmile_qr_scan"}, "fusion_lon": 0.0, "lon": -77.03948216666667, "name": "091244b29176dced10d06d3444c5baad", "is_reserved": 0, "is_disabled": 0}, {"lat": 38.9246265, "fusion_lat": 0.0, "type": "electric_scooter", "bike_id": "86cfa81a49ee6988911d480a0c5a04f9", "rental_uris": {"ios": "https://dc.lft.to/lastmile_qr_scan", "android": "https://dc.lft.to/lastmile_qr_scan"}, "fusion_lon": 0.0, "lon": -77.0390695, "name": "86cfa81a49ee6988911d480a0c5a04f9", "is_reserved": 0, "is_disabled": 0}, {"lat": 38.87236016666667, "fusion_lat": 0.0, "type": "electric_bike", "bike_id": "f4d767c360d7e631c7794844a2420a72", "rental_uris": {"ios": "https://dc.lft.to/lastmile_qr_scan", "android": "https://dc.lft.to/lastmile_qr_scan"}, "fusion_lon": 0.0, "lon": -77.0088495, "name": "f4d767c360d7e631c7794844a2420a72", "is_reserved": 0, "is_disabled": 0}, {"lat": 38.90666916666667, "fusion_lat": 0.0, "type": "electric_scooter", "bike_id": "520820b5673101d72e9db37946c1666e", "rental_uris": {"ios": "https://dc.lft.to/lastmile_qr_scan", "android": "https://dc.lft.to/lastmile_qr_scan"}, "fusion_lon": 0.0, "lon": -77.02713966666667, "name": "520820b5673101d72e9db37946c1666e", "is_reserved": 0, "is_disabled": 0}, {"lat": 38.900473833333336, "fusion_lat": 0.0, "type": "electric_scooter", "bike_id": "a86339c9032bdd76ed6bfdc82d978941", "rental_uris": {"ios": "https://dc.lft.to/lastmile_qr_scan", "android": "https://dc.lft.to/lastmile_qr_scan"}, "fusion_lon": 0.0, "lon": -77.01274566666666, "name": "a86339c9032bdd76ed6bfdc82d978941", "is_reserved": 0, "is_disabled": 0}, {"lat": 38.92135616666667, "fusion_lat": 0.0, "type": "electric_scooter", "bike_id": "e4bb4a0650d89e3574c6011ab115a0e6", "rental_uris": {"ios": "https://dc.lft.to/lastmile_qr_scan", "android": "https://dc.lft.to/lastmile_qr_scan"}, "fusion_lon": 0.0, "lon": -77.009401, "name": "e4bb4a0650d89e3574c6011ab115a0e6", "is_reserved": 0, "is_disabled": 0}, {"lat": 38.903804666666666, "fusion_lat": 0.0, "type": "electric_scooter", "bike_id": "6631f617e0df4a669bee12b1a989e1ad", "rental_uris": {"ios": "https://dc.lft.to/lastmile_qr_scan", "android": "https://dc.lft.to/lastmile_qr_scan"}, "fusion_lon": 0.0, "lon": -76.9761435, "name": "6631f617e0df4a669bee12b1a989e1ad", "is_reserved": 0, "is_disabled": 0}, {"lat": 38.924191666666665, "fusion_lat": 0.0, "type": "electric_scooter", "bike_id": "61aa259aa82c9f1f4d5fabe570ac54a1", "rental_uris": {"ios": "https://dc.lft.to/lastmile_qr_scan", "android": "https://dc.lft.to/lastmile_qr_scan"}, "fusion_lon": 0.0, "lon": -77.019565, "name": "61aa259aa82c9f1f4d5fabe570ac54a1", "is_reserved": 0, "is_disabled": 0}, {"lat": 38.923901, "fusion_lat": 0.0, "type": "electric_bike", "bike_id": "3f272f6f233f4a07ac35018c27bc854f", "rental_uris": {"ios": "https://dc.lft.to/lastmile_qr_scan", "android": "https://dc.lft.to/lastmile_qr_scan"}, "fusion_lon": 0.0, "lon": -76.99998816666667, "name": "3f272f6f233f4a07ac35018c27bc854f", "is_reserved": 0, "is_disabled": 0}, {"lat": 38.904599, "fusion_lat": 0.0, "type": "electric_scooter", "bike_id": "a99e6807f805472c78e3b9ac4457022a", "rental_uris": {"ios": "https://dc.lft.to/lastmile_qr_scan", "android": "https://dc.lft.to/lastmile_qr_scan"}, "fusion_lon": 0.0, "lon": -77.0190205, "name": "a99e6807f805472c78e3b9ac4457022a", "is_reserved": 0, "is_disabled": 0}, {"lat": 38.912945666666666, "fusion_lat": 0.0, "type": "electric_scooter", "bike_id": "4841fb4e1397dee5977b5eaa87ccb067", "rental_uris": {"ios": "https://dc.lft.to/lastmile_qr_scan", "android": "https://dc.lft.to/lastmile_qr_scan"}, "fusion_lon": 0.0, "lon": -76.98473716666666, "name": "4841fb4e1397dee5977b5eaa87ccb067", "is_reserved": 0, "is_disabled": 0}, {"lat": 38.961373333333334, "fusion_lat": 0.0, "type": "electric_scooter", "bike_id": "c3ff973582a3c6dd25b4b7c395bcba57", "rental_uris": {"ios": "https://dc.lft.to/lastmile_qr_scan", "android": "https://dc.lft.to/lastmile_qr_scan"}, "fusion_lon": 0.0, "lon": -77.02784166666666, "name": "c3ff973582a3c6dd25b4b7c395bcba57", "is_reserved": 0, "is_disabled": 0}, {"lat": 38.89265, "fusion_lat": 0.0, "type": "electric_scooter", "bike_id": "742c33e3888de7e2cfb805bd527b5dcb", "rental_uris": {"ios": "https://dc.lft.to/lastmile_qr_scan", "android": "https://dc.lft.to/lastmile_qr_scan"}, "fusion_lon": 0.0, "lon": -77.04670816666666, "name": "742c33e3888de7e2cfb805bd527b5dcb", "is_reserved": 0, "is_disabled": 0}, {"lat": 38.91812783333334, "fusion_lat": 0.0, "type": "electric_scooter", "bike_id": "9d70094b8948b5ad5c457b706e63246d", "rental_uris": {"ios": "https://dc.lft.to/lastmile_qr_scan", "android": "https://dc.lft.to/lastmile_qr_scan"}, "fusion_lon": 0.0, "lon": -77.03639233333334, "name": "9d70094b8948b5ad5c457b706e63246d", "is_reserved": 0, "is_disabled": 0}, {"lat": 38.929087833333334, "fusion_lat": 0.0, "type": "electric_scooter", "bike_id": "51616129516c60478e04ad159a77dfe3", "rental_uris": {"ios": "https://dc.lft.to/lastmile_qr_scan", "android": "https://dc.lft.to/lastmile_qr_scan"}, "fusion_lon": 0.0, "lon": -77.07294166666667, "name": "51616129516c60478e04ad159a77dfe3", "is_reserved": 0, "is_disabled": 0}, {"lat": 38.9177775, "fusion_lat": 0.0, "type": "electric_scooter", "bike_id": "975e66692c1e5494c57ee22f25732d46", "rental_uris": {"ios": "https://dc.lft.to/lastmile_qr_scan", "android": "https://dc.lft.to/lastmile_qr_scan"}, "fusion_lon": 0.0, "lon": -77.02117316666667, "name": "975e66692c1e5494c57ee22f25732d46", "is_reserved": 0, "is_disabled": 0}, {"lat": 38.914027, "fusion_lat": 0.0, "type": "electric_scooter", "bike_id": "f963446fb04f9411513f1ad9d21e58ed", "rental_uris": {"ios": "https://dc.lft.to/lastmile_qr_scan", "android": "https://dc.lft.to/lastmile_qr_scan"}, "fusion_lon": 0.0, "lon": -77.03216, "name": "f963446fb04f9411513f1ad9d21e58ed", "is_reserved": 0, "is_disabled": 0}, {"lat": 38.91793716666667, "fusion_lat": 0.0, "type": "electric_scooter", "bike_id": "9700bac2c9d79dde851180df96a3aa65", "rental_uris": {"ios": "https://dc.lft.to/lastmile_qr_scan", "android": "https://dc.lft.to/lastmile_qr_scan"}, "fusion_lon": 0.0, "lon": -77.027144, "name": "9700bac2c9d79dde851180df96a3aa65", "is_reserved": 0, "is_disabled": 0}, {"lat": 38.910078, "fusion_lat": 0.0, "type": "electric_scooter", "bike_id": "ab3ccd41168933e1ab226a869062cd9d", "rental_uris": {"ios": "https://dc.lft.to/lastmile_qr_scan", "android": "https://dc.lft.to/lastmile_qr_scan"}, "fusion_lon": 0.0, "lon": -76.99403483333333, "name": "ab3ccd41168933e1ab226a869062cd9d", "is_reserved": 0, "is_disabled": 0}, {"lat": 38.920974333333334, "fusion_lat": 0.0, "type": "electric_scooter", "bike_id": "bb62f9018009d03ece9735163f0163a1", "rental_uris": {"ios": "https://dc.lft.to/lastmile_qr_scan", "android": "https://dc.lft.to/lastmile_qr_scan"}, "fusion_lon": 0.0, "lon": -77.03658383333334, "name": "bb62f9018009d03ece9735163f0163a1", "is_reserved": 0, "is_disabled": 0}, {"lat": 38.93708383333333, "fusion_lat": 0.0, "type": "electric_scooter", "bike_id": "f7520ef42de8a60e517b556dcd37bd46", "rental_uris": {"ios": "https://dc.lft.to/lastmile_qr_scan", "android": "https://dc.lft.to/lastmile_qr_scan"}, "fusion_lon": 0.0, "lon": -77.035198, "name": "f7520ef42de8a60e517b556dcd37bd46", "is_reserved": 0, "is_disabled": 0}, {"lat": 38.905793833333334, "fusion_lat": 0.0, "type": "electric_scooter", "bike_id": "3a7145a8e1b807cc109bcae5daf6c345", "rental_uris": {"ios": "https://dc.lft.to/lastmile_qr_scan", "android": "https://dc.lft.to/lastmile_qr_scan"}, "fusion_lon": 0.0, "lon": -77.03864666666666, "name": "3a7145a8e1b807cc109bcae5daf6c345", "is_reserved": 0, "is_disabled": 0}, {"lat": 38.89569783333334, "fusion_lat": 0.0, "type": "electric_scooter", "bike_id": "b35299b74d65b36f9451e330fdc5ca91", "rental_uris": {"ios": "https://dc.lft.to/lastmile_qr_scan", "android": "https://dc.lft.to/lastmile_qr_scan"}, "fusion_lon": 0.0, "lon": -76.98316716666666, "name": "b35299b74d65b36f9451e330fdc5ca91", "is_reserved": 0, "is_disabled": 0}, {"lat": 38.9143605, "fusion_lat": 0.0, "type": "electric_scooter", "bike_id": "84f9dde8eeb06af6e2b186b2d00c1461", "rental_uris": {"ios": "https://dc.lft.to/lastmile_qr_scan", "android": "https://dc.lft.to/lastmile_qr_scan"}, "fusion_lon": 0.0, "lon": -77.01717333333333, "name": "84f9dde8eeb06af6e2b186b2d00c1461", "is_reserved": 0, "is_disabled": 0}, {"lat": 38.886213, "fusion_lat": 0.0, "type": "electric_scooter", "bike_id": "f3ead5e87ee25b6b251925c36731402c", "rental_uris": {"ios": "https://dc.lft.to/lastmile_qr_scan", "android": "https://dc.lft.to/lastmile_qr_scan"}, "fusion_lon": 0.0, "lon": -76.9961615, "name": "f3ead5e87ee25b6b251925c36731402c", "is_reserved": 0, "is_disabled": 0}, {"lat": 38.92119983333333, "fusion_lat": 0.0, "type": "electric_scooter", "bike_id": "cf2c7eccabf5532bb5034e0114bbe40a", "rental_uris": {"ios": "https://dc.lft.to/lastmile_qr_scan", "android": "https://dc.lft.to/lastmile_qr_scan"}, "fusion_lon": 0.0, "lon": -77.04224933333333, "name": "cf2c7eccabf5532bb5034e0114bbe40a", "is_reserved": 0, "is_disabled": 0}, {"lat": 38.92612833333333, "fusion_lat": 0.0, "type": "electric_scooter", "bike_id": "b4eaf51f458c3b0534e899a8c95330c6", "rental_uris": {"ios": "https://dc.lft.to/lastmile_qr_scan", "android": "https://dc.lft.to/lastmile_qr_scan"}, "fusion_lon": 0.0, "lon": -77.021638, "name": "b4eaf51f458c3b0534e899a8c95330c6", "is_reserved": 0, "is_disabled": 0}, {"lat": 38.9169965, "fusion_lat": 0.0, "type": "electric_scooter", "bike_id": "759d0e6b643f6386c50daf2f47009623", "rental_uris": {"ios": "https://dc.lft.to/lastmile_qr_scan", "android": "https://dc.lft.to/lastmile_qr_scan"}, "fusion_lon": 0.0, "lon": -77.0332155, "name": "759d0e6b643f6386c50daf2f47009623", "is_reserved": 0, "is_disabled": 0}, {"lat": 38.92285716666667, "fusion_lat": 0.0, "type": "electric_scooter", "bike_id": "11b643963ac57f994e8f988b7227473b", "rental_uris": {"ios": "https://dc.lft.to/lastmile_qr_scan", "android": "https://dc.lft.to/lastmile_qr_scan"}, "fusion_lon": 0.0, "lon": -77.03661383333333, "name": "11b643963ac57f994e8f988b7227473b", "is_reserved": 0, "is_disabled": 0}, {"lat": 38.932205333333336, "fusion_lat": 0.0, "type": "electric_scooter", "bike_id": "1d60f7d1f9bf2e5f1153ceb0299631f0", "rental_uris": {"ios": "https://dc.lft.to/lastmile_qr_scan", "android": "https://dc.lft.to/lastmile_qr_scan"}, "fusion_lon": 0.0, "lon": -77.029743, "name": "1d60f7d1f9bf2e5f1153ceb0299631f0", "is_reserved": 0, "is_disabled": 0}, {"lat": 38.916336, "fusion_lat": 0.0, "type": "electric_scooter", "bike_id": "61333dda707ec6f037c4a89e06252fc6", "rental_uris": {"ios": "https://dc.lft.to/lastmile_qr_scan", "android": "https://dc.lft.to/lastmile_qr_scan"}, "fusion_lon": 0.0, "lon": -77.04014683333334, "name": "61333dda707ec6f037c4a89e06252fc6", "is_reserved": 0, "is_disabled": 0}, {"lat": 38.909560166666665, "fusion_lat": 0.0, "type": "electric_scooter", "bike_id": "581016ec5c02507ffac6ecbf7f501b08", "rental_uris": {"ios": "https://dc.lft.to/lastmile_qr_scan", "android": "https://dc.lft.to/lastmile_qr_scan"}, "fusion_lon": 0.0, "lon": -77.04437016666667, "name": "581016ec5c02507ffac6ecbf7f501b08", "is_reserved": 0, "is_disabled": 0}, {"lat": 38.90808966666667, "fusion_lat": 0.0, "type": "electric_scooter", "bike_id": "3031f41867292c5adf50630c03cd3006", "rental_uris": {"ios": "https://dc.lft.to/lastmile_qr_scan", "android": "https://dc.lft.to/lastmile_qr_scan"}, "fusion_lon": 0.0, "lon": -77.0253725, "name": "3031f41867292c5adf50630c03cd3006", "is_reserved": 0, "is_disabled": 0}, {"lat": 38.90728716666667, "fusion_lat": 0.0, "type": "electric_scooter", "bike_id": "2072039aa48750bb5b8d57b5a569b6b5", "rental_uris": {"ios": "https://dc.lft.to/lastmile_qr_scan", "android": "https://dc.lft.to/lastmile_qr_scan"}, "fusion_lon": 0.0, "lon": -77.07608333333333, "name": "2072039aa48750bb5b8d57b5a569b6b5", "is_reserved": 0, "is_disabled": 0}, {"lat": 38.897172833333336, "fusion_lat": 0.0, "type": "electric_scooter", "bike_id": "fb7318448e8ad3c2426879f6cf26e379", "rental_uris": {"ios": "https://dc.lft.to/lastmile_qr_scan", "android": "https://dc.lft.to/lastmile_qr_scan"}, "fusion_lon": 0.0, "lon": -77.00795533333333, "name": "fb7318448e8ad3c2426879f6cf26e379", "is_reserved": 0, "is_disabled": 0}, {"lat": 38.901251, "fusion_lat": 0.0, "type": "electric_scooter", "bike_id": "b30b5b2d6361f3e2f09ed723cca6c97d", "rental_uris": {"ios": "https://dc.lft.to/lastmile_qr_scan", "android": "https://dc.lft.to/lastmile_qr_scan"}, "fusion_lon": 0.0, "lon": -77.01760116666667, "name": "b30b5b2d6361f3e2f09ed723cca6c97d", "is_reserved": 0, "is_disabled": 0}, {"lat": 38.90731266666667, "fusion_lat": 0.0, "type": "electric_scooter", "bike_id": "29245271a00b2a82ab6dc14bf7f86090", "rental_uris": {"ios": "https://dc.lft.to/lastmile_qr_scan", "android": "https://dc.lft.to/lastmile_qr_scan"}, "fusion_lon": 0.0, "lon": -77.01305616666667, "name": "29245271a00b2a82ab6dc14bf7f86090", "is_reserved": 0, "is_disabled": 0}, {"lat": 38.90059433333333, "fusion_lat": 0.0, "type": "electric_scooter", "bike_id": "cf8398eae938d236069299baddeaee53", "rental_uris": {"ios": "https://dc.lft.to/lastmile_qr_scan", "android": "https://dc.lft.to/lastmile_qr_scan"}, "fusion_lon": 0.0, "lon": -77.0513415, "name": "cf8398eae938d236069299baddeaee53", "is_reserved": 0, "is_disabled": 0}, {"lat": 38.89878016666667, "fusion_lat": 0.0, "type": "electric_scooter", "bike_id": "48f107acf092986fc86d45a7f80b5bf4", "rental_uris": {"ios": "https://dc.lft.to/lastmile_qr_scan", "android": "https://dc.lft.to/lastmile_qr_scan"}, "fusion_lon": 0.0, "lon": -76.93188433333333, "name": "48f107acf092986fc86d45a7f80b5bf4", "is_reserved": 0, "is_disabled": 0}, {"lat": 38.91260483333333, "fusion_lat": 0.0, "type": "electric_scooter", "bike_id": "4a539cf744dcb6af97b7f021ad0e8b3d", "rental_uris": {"ios": "https://dc.lft.to/lastmile_qr_scan", "android": "https://dc.lft.to/lastmile_qr_scan"}, "fusion_lon": 0.0, "lon": -77.03175533333334, "name": "4a539cf744dcb6af97b7f021ad0e8b3d", "is_reserved": 0, "is_disabled": 0}, {"lat": 38.889331166666665, "fusion_lat": 0.0, "type": "electric_scooter", "bike_id": "2ec1425a8bbf65521c885a08bc83a7e4", "rental_uris": {"ios": "https://dc.lft.to/lastmile_qr_scan", "android": "https://dc.lft.to/lastmile_qr_scan"}, "fusion_lon": 0.0, "lon": -76.99373616666666, "name": "2ec1425a8bbf65521c885a08bc83a7e4", "is_reserved": 0, "is_disabled": 0}, {"lat": 38.898538333333335, "fusion_lat": 0.0, "type": "electric_scooter", "bike_id": "3b99e3599504908b2f7c5cacf274f81d", "rental_uris": {"ios": "https://dc.lft.to/lastmile_qr_scan", "android": "https://dc.lft.to/lastmile_qr_scan"}, "fusion_lon": 0.0, "lon": -77.01381166666667, "name": "3b99e3599504908b2f7c5cacf274f81d", "is_reserved": 0, "is_disabled": 0}, {"lat": 38.898292166666664, "fusion_lat": 0.0, "type": "electric_scooter", "bike_id": "0d6f43484b43a615b4e3476bc16f3a41", "rental_uris": {"ios": "https://dc.lft.to/lastmile_qr_scan", "android": "https://dc.lft.to/lastmile_qr_scan"}, "fusion_lon": 0.0, "lon": -77.04659, "name": "0d6f43484b43a615b4e3476bc16f3a41", "is_reserved": 0, "is_disabled": 0}, {"lat": 38.84758566666667, "fusion_lat": 0.0, "type": "electric_scooter", "bike_id": "622b8f2714bbf3cfb4eb24e55d5d532e", "rental_uris": {"ios": "https://dc.lft.to/lastmile_qr_scan", "android": "https://dc.lft.to/lastmile_qr_scan"}, "fusion_lon": 0.0, "lon": -76.9949995, "name": "622b8f2714bbf3cfb4eb24e55d5d532e", "is_reserved": 0, "is_disabled": 0}, {"lat": 38.89833133333333, "fusion_lat": 0.0, "type": "electric_scooter", "bike_id": "91067c23f025e39ade01713175ba94e5", "rental_uris": {"ios": "https://dc.lft.to/lastmile_qr_scan", "android": "https://dc.lft.to/lastmile_qr_scan"}, "fusion_lon": 0.0, "lon": -77.00753633333333, "name": "91067c23f025e39ade01713175ba94e5", "is_reserved": 0, "is_disabled": 0}, {"lat": 38.8984045, "fusion_lat": 0.0, "type": "electric_scooter", "bike_id": "2ca2abeb0b38d8693f91d28e0de6326f", "rental_uris": {"ios": "https://dc.lft.to/lastmile_qr_scan", "android": "https://dc.lft.to/lastmile_qr_scan"}, "fusion_lon": 0.0, "lon": -77.02849783333333, "name": "2ca2abeb0b38d8693f91d28e0de6326f", "is_reserved": 0, "is_disabled": 0}, {"lat": 38.9243295, "fusion_lat": 0.0, "type": "electric_scooter", "bike_id": "3fd1360e7a63a3dac92d761ab661ebee", "rental_uris": {"ios": "https://dc.lft.to/lastmile_qr_scan", "android": "https://dc.lft.to/lastmile_qr_scan"}, "fusion_lon": 0.0, "lon": -77.02033633333333, "name": "3fd1360e7a63a3dac92d761ab661ebee", "is_reserved": 0, "is_disabled": 0}, {"lat": 38.89696983333333, "fusion_lat": 0.0, "type": "electric_bike", "bike_id": "9bdf06d3007ddc162e791df52db53e84", "rental_uris": {"ios": "https://dc.lft.to/lastmile_qr_scan", "android": "https://dc.lft.to/lastmile_qr_scan"}, "fusion_lon": 0.0, "lon": -76.96305833333334, "name": "9bdf06d3007ddc162e791df52db53e84", "is_reserved": 0, "is_disabled": 0}, {"lat": 38.92444883333334, "fusion_lat": 0.0, "type": "electric_scooter", "bike_id": "f05b321b844b2300aa8f716773bb833c", "rental_uris": {"ios": "https://dc.lft.to/lastmile_qr_scan", "android": "https://dc.lft.to/lastmile_qr_scan"}, "fusion_lon": 0.0, "lon": -76.9898975, "name": "f05b321b844b2300aa8f716773bb833c", "is_reserved": 0, "is_disabled": 0}, {"lat": 38.92480416666667, "fusion_lat": 0.0, "type": "electric_scooter", "bike_id": "aca5e2f71197aea64d48398050992d8c", "rental_uris": {"ios": "https://dc.lft.to/lastmile_qr_scan", "android": "https://dc.lft.to/lastmile_qr_scan"}, "fusion_lon": 0.0, "lon": -77.0521785, "name": "aca5e2f71197aea64d48398050992d8c", "is_reserved": 0, "is_disabled": 0}, {"lat": 38.9232845, "fusion_lat": 0.0, "type": "electric_scooter", "bike_id": "ef230d3bcf1b676b41ff432d67a29ee8", "rental_uris": {"ios": "https://dc.lft.to/lastmile_qr_scan", "android": "https://dc.lft.to/lastmile_qr_scan"}, "fusion_lon": 0.0, "lon": -77.02130566666666, "name": "ef230d3bcf1b676b41ff432d67a29ee8", "is_reserved": 0, "is_disabled": 0}, {"lat": 38.8978855, "fusion_lat": 0.0, "type": "electric_scooter", "bike_id": "31f908b2407035531b2314026782ae75", "rental_uris": {"ios": "https://dc.lft.to/lastmile_qr_scan", "android": "https://dc.lft.to/lastmile_qr_scan"}, "fusion_lon": 0.0, "lon": -77.0222205, "name": "31f908b2407035531b2314026782ae75", "is_reserved": 0, "is_disabled": 0}, {"lat": 38.91592433333334, "fusion_lat": 0.0, "type": "electric_scooter", "bike_id": "dff12184c2884f19506141b53f968058", "rental_uris": {"ios": "https://dc.lft.to/lastmile_qr_scan", "android": "https://dc.lft.to/lastmile_qr_scan"}, "fusion_lon": 0.0, "lon": -77.03389133333333, "name": "dff12184c2884f19506141b53f968058", "is_reserved": 0, "is_disabled": 0}, {"lat": 38.94735516666667, "fusion_lat": 0.0, "type": "electric_scooter", "bike_id": "56ba7b7d593f099b4723c24331fd8508", "rental_uris": {"ios": "https://dc.lft.to/lastmile_qr_scan", "android": "https://dc.lft.to/lastmile_qr_scan"}, "fusion_lon": 0.0, "lon": -77.07951366666667, "name": "56ba7b7d593f099b4723c24331fd8508", "is_reserved": 0, "is_disabled": 0}, {"lat": 38.922463666666665, "fusion_lat": 0.0, "type": "electric_scooter", "bike_id": "8c281249374eafe379fc4d4eb0d5292f", "rental_uris": {"ios": "https://dc.lft.to/lastmile_qr_scan", "android": "https://dc.lft.to/lastmile_qr_scan"}, "fusion_lon": 0.0, "lon": -77.019534, "name": "8c281249374eafe379fc4d4eb0d5292f", "is_reserved": 0, "is_disabled": 0}, {"lat": 38.897899, "fusion_lat": 0.0, "type": "electric_scooter", "bike_id": "7e2c1cc717a7ee79fb7ffb042913ee22", "rental_uris": {"ios": "https://dc.lft.to/lastmile_qr_scan", "android": "https://dc.lft.to/lastmile_qr_scan"}, "fusion_lon": 0.0, "lon": -77.028077, "name": "7e2c1cc717a7ee79fb7ffb042913ee22", "is_reserved": 0, "is_disabled": 0}, {"lat": 38.89475933333333, "fusion_lat": 0.0, "type": "electric_scooter", "bike_id": "e9decfff44f93f36696e815b991c58bf", "rental_uris": {"ios": "https://dc.lft.to/lastmile_qr_scan", "android": "https://dc.lft.to/lastmile_qr_scan"}, "fusion_lon": 0.0, "lon": -77.003053, "name": "e9decfff44f93f36696e815b991c58bf", "is_reserved": 0, "is_disabled": 0}, {"lat": 38.90974, "fusion_lat": 0.0, "type": "electric_scooter", "bike_id": "6a530a8de60efe546c04a218e735ab6a", "rental_uris": {"ios": "https://dc.lft.to/lastmile_qr_scan", "android": "https://dc.lft.to/lastmile_qr_scan"}, "fusion_lon": 0.0, "lon": -77.03256766666667, "name": "6a530a8de60efe546c04a218e735ab6a", "is_reserved": 0, "is_disabled": 0}, {"lat": 38.922542, "fusion_lat": 0.0, "type": "electric_scooter", "bike_id": "314716a0aecf363fb982837e091393c6", "rental_uris": {"ios": "https://dc.lft.to/lastmile_qr_scan", "android": "https://dc.lft.to/lastmile_qr_scan"}, "fusion_lon": 0.0, "lon": -77.05287516666667, "name": "314716a0aecf363fb982837e091393c6", "is_reserved": 0, "is_disabled": 0}, {"lat": 38.90648616666667, "fusion_lat": 0.0, "type": "electric_scooter", "bike_id": "1e977e3648d105885a3d3e8b17a4cc41", "rental_uris": {"ios": "https://dc.lft.to/lastmile_qr_scan", "android": "https://dc.lft.to/lastmile_qr_scan"}, "fusion_lon": 0.0, "lon": -77.0143695, "name": "1e977e3648d105885a3d3e8b17a4cc41", "is_reserved": 0, "is_disabled": 0}, {"lat": 38.867579166666665, "fusion_lat": 0.0, "type": "electric_bike", "bike_id": "050b289d85b89ac6c3760eba30bc9da3", "rental_uris": {"ios": "https://dc.lft.to/lastmile_qr_scan", "android": "https://dc.lft.to/lastmile_qr_scan"}, "fusion_lon": 0.0, "lon": -76.945312, "name": "050b289d85b89ac6c3760eba30bc9da3", "is_reserved": 0, "is_disabled": 0}, {"lat": 38.960468166666665, "fusion_lat": 0.0, "type": "electric_bike", "bike_id": "76b90bee369ab55b749ec752559a170a", "rental_uris": {"ios": "https://dc.lft.to/lastmile_qr_scan", "android": "https://dc.lft.to/lastmile_qr_scan"}, "fusion_lon": 0.0, "lon": -76.93999266666667, "name": "76b90bee369ab55b749ec752559a170a", "is_reserved": 0, "is_disabled": 0}, {"lat": 38.875444, "fusion_lat": 0.0, "type": "electric_scooter", "bike_id": "b560253d19b990923ff5237be16390f9", "rental_uris": {"ios": "https://dc.lft.to/lastmile_qr_scan", "android": "https://dc.lft.to/lastmile_qr_scan"}, "fusion_lon": 0.0, "lon": -77.00537783333333, "name": "b560253d19b990923ff5237be16390f9", "is_reserved": 0, "is_disabled": 0}, {"lat": 38.893502, "fusion_lat": 0.0, "type": "electric_scooter", "bike_id": "05004ce80802f9d60cc34b460c55e784", "rental_uris": {"ios": "https://dc.lft.to/lastmile_qr_scan", "android": "https://dc.lft.to/lastmile_qr_scan"}, "fusion_lon": 0.0, "lon": -77.003333, "name": "05004ce80802f9d60cc34b460c55e784", "is_reserved": 0, "is_disabled": 0}, {"lat": 38.9012435, "fusion_lat": 0.0, "type": "electric_scooter", "bike_id": "57d11f544554f274c6e0290489877ae2", "rental_uris": {"ios": "https://dc.lft.to/lastmile_qr_scan", "android": "https://dc.lft.to/lastmile_qr_scan"}, "fusion_lon": 0.0, "lon": -77.02187483333333, "name": "57d11f544554f274c6e0290489877ae2", "is_reserved": 0, "is_disabled": 0}, {"lat": 38.94337616666667, "fusion_lat": 0.0, "type": "electric_scooter", "bike_id": "66524d174c317edb4ca325ea63c8208e", "rental_uris": {"ios": "https://dc.lft.to/lastmile_qr_scan", "android": "https://dc.lft.to/lastmile_qr_scan"}, "fusion_lon": 0.0, "lon": -76.98314916666666, "name": "66524d174c317edb4ca325ea63c8208e", "is_reserved": 0, "is_disabled": 0}, {"lat": 38.92354483333333, "fusion_lat": 0.0, "type": "electric_scooter", "bike_id": "0ab64100fa9405b95f59cceb07b2a7ca", "rental_uris": {"ios": "https://dc.lft.to/lastmile_qr_scan", "android": "https://dc.lft.to/lastmile_qr_scan"}, "fusion_lon": 0.0, "lon": -76.9994815, "name": "0ab64100fa9405b95f59cceb07b2a7ca", "is_reserved": 0, "is_disabled": 0}, {"lat": 38.96611383333333, "fusion_lat": 0.0, "type": "electric_scooter", "bike_id": "c9f269ecf7590b7654222b1e80c62e13", "rental_uris": {"ios": "https://dc.lft.to/lastmile_qr_scan", "android": "https://dc.lft.to/lastmile_qr_scan"}, "fusion_lon": 0.0, "lon": -77.0273465, "name": "c9f269ecf7590b7654222b1e80c62e13", "is_reserved": 0, "is_disabled": 0}, {"lat": 38.923421, "fusion_lat": 0.0, "type": "electric_scooter", "bike_id": "5483f9af2a9c55c1ea9f98202f3b383f", "rental_uris": {"ios": "https://dc.lft.to/lastmile_qr_scan", "android": "https://dc.lft.to/lastmile_qr_scan"}, "fusion_lon": 0.0, "lon": -77.05179916666667, "name": "5483f9af2a9c55c1ea9f98202f3b383f", "is_reserved": 0, "is_disabled": 0}, {"lat": 38.909671333333335, "fusion_lat": 0.0, "type": "electric_bike", "bike_id": "bcc1785703b69fff900fd8af83b85aa0", "rental_uris": {"ios": "https://dc.lft.to/lastmile_qr_scan", "android": "https://dc.lft.to/lastmile_qr_scan"}, "fusion_lon": 0.0, "lon": -77.08827, "name": "bcc1785703b69fff900fd8af83b85aa0", "is_reserved": 0, "is_disabled": 0}, {"lat": 38.950546833333334, "fusion_lat": 0.0, "type": "electric_scooter", "bike_id": "8fe41030c4ad352b34c1aaaeca09e63f", "rental_uris": {"ios": "https://dc.lft.to/lastmile_qr_scan", "android": "https://dc.lft.to/lastmile_qr_scan"}, "fusion_lon": 0.0, "lon": -77.08027, "name": "8fe41030c4ad352b34c1aaaeca09e63f", "is_reserved": 0, "is_disabled": 0}, {"lat": 38.918006166666665, "fusion_lat": 0.0, "type": "electric_scooter", "bike_id": "29a76813b2227b9ff445c08ffbd14f06", "rental_uris": {"ios": "https://dc.lft.to/lastmile_qr_scan", "android": "https://dc.lft.to/lastmile_qr_scan"}, "fusion_lon": 0.0, "lon": -77.02486883333333, "name": "29a76813b2227b9ff445c08ffbd14f06", "is_reserved": 0, "is_disabled": 0}, {"lat": 38.87577266666667, "fusion_lat": 0.0, "type": "electric_bike", "bike_id": "5abf7c58d6d4e9abc943638a5d0592d3", "rental_uris": {"ios": "https://dc.lft.to/lastmile_qr_scan", "android": "https://dc.lft.to/lastmile_qr_scan"}, "fusion_lon": 0.0, "lon": -77.23409416666667, "name": "5abf7c58d6d4e9abc943638a5d0592d3", "is_reserved": 0, "is_disabled": 0}, {"lat": 38.93446183333333, "fusion_lat": 0.0, "type": "electric_scooter", "bike_id": "41751b9bce13bdcd34e634a3cac5982d", "rental_uris": {"ios": "https://dc.lft.to/lastmile_qr_scan", "android": "https://dc.lft.to/lastmile_qr_scan"}, "fusion_lon": 0.0, "lon": -77.090564, "name": "41751b9bce13bdcd34e634a3cac5982d", "is_reserved": 0, "is_disabled": 0}, {"lat": 38.899024833333335, "fusion_lat": 0.0, "type": "electric_scooter", "bike_id": "4d917c2f49217d27fd89923063194d59", "rental_uris": {"ios": "https://dc.lft.to/lastmile_qr_scan", "android": "https://dc.lft.to/lastmile_qr_scan"}, "fusion_lon": 0.0, "lon": -76.999577, "name": "4d917c2f49217d27fd89923063194d59", "is_reserved": 0, "is_disabled": 0}, {"lat": 38.91750733333333, "fusion_lat": 0.0, "type": "electric_scooter", "bike_id": "867d020425fb743bceacbe682f48c46e", "rental_uris": {"ios": "https://dc.lft.to/lastmile_qr_scan", "android": "https://dc.lft.to/lastmile_qr_scan"}, "fusion_lon": 0.0, "lon": -77.03639483333333, "name": "867d020425fb743bceacbe682f48c46e", "is_reserved": 0, "is_disabled": 0}, {"lat": 38.915221333333335, "fusion_lat": 0.0, "type": "electric_scooter", "bike_id": "4d66bdac1ea34449b3fc3bbe304c5c43", "rental_uris": {"ios": "https://dc.lft.to/lastmile_qr_scan", "android": "https://dc.lft.to/lastmile_qr_scan"}, "fusion_lon": 0.0, "lon": -77.04862883333334, "name": "4d66bdac1ea34449b3fc3bbe304c5c43", "is_reserved": 0, "is_disabled": 0}, {"lat": 38.901652, "fusion_lat": 0.0, "type": "electric_scooter", "bike_id": "1711a2caae8fe0f114fba7ae8e1021ca", "rental_uris": {"ios": "https://dc.lft.to/lastmile_qr_scan", "android": "https://dc.lft.to/lastmile_qr_scan"}, "fusion_lon": 0.0, "lon": -77.02599366666666, "name": "1711a2caae8fe0f114fba7ae8e1021ca", "is_reserved": 0, "is_disabled": 0}, {"lat": 38.9117825, "fusion_lat": 0.0, "type": "electric_scooter", "bike_id": "fe1ff2a9e28e250ea70ffed70e06fde2", "rental_uris": {"ios": "https://dc.lft.to/lastmile_qr_scan", "android": "https://dc.lft.to/lastmile_qr_scan"}, "fusion_lon": 0.0, "lon": -77.035026, "name": "fe1ff2a9e28e250ea70ffed70e06fde2", "is_reserved": 0, "is_disabled": 0}, {"lat": 38.89222083333333, "fusion_lat": 0.0, "type": "electric_scooter", "bike_id": "395b0c8ec546ac31231317db67cfd14f", "rental_uris": {"ios": "https://dc.lft.to/lastmile_qr_scan", "android": "https://dc.lft.to/lastmile_qr_scan"}, "fusion_lon": 0.0, "lon": -77.02779, "name": "395b0c8ec546ac31231317db67cfd14f", "is_reserved": 0, "is_disabled": 0}, {"lat": 38.91058833333334, "fusion_lat": 0.0, "type": "electric_scooter", "bike_id": "20b03d8f1a65af01774d03481de7fb52", "rental_uris": {"ios": "https://dc.lft.to/lastmile_qr_scan", "android": "https://dc.lft.to/lastmile_qr_scan"}, "fusion_lon": 0.0, "lon": -77.03431716666667, "name": "20b03d8f1a65af01774d03481de7fb52", "is_reserved": 0, "is_disabled": 0}, {"lat": 38.925891, "fusion_lat": 0.0, "type": "electric_scooter", "bike_id": "f7be04e19e3ef8d2e239135703c48580", "rental_uris": {"ios": "https://dc.lft.to/lastmile_qr_scan", "android": "https://dc.lft.to/lastmile_qr_scan"}, "fusion_lon": 0.0, "lon": -77.096837, "name": "f7be04e19e3ef8d2e239135703c48580", "is_reserved": 0, "is_disabled": 0}, {"lat": 38.899367, "fusion_lat": 0.0, "type": "electric_scooter", "bike_id": "549eb9b19d09268989be9cef552bbdac", "rental_uris": {"ios": "https://dc.lft.to/lastmile_qr_scan", "android": "https://dc.lft.to/lastmile_qr_scan"}, "fusion_lon": 0.0, "lon": -77.041524, "name": "549eb9b19d09268989be9cef552bbdac", "is_reserved": 0, "is_disabled": 0}, {"lat": 38.8968545, "fusion_lat": 0.0, "type": "electric_scooter", "bike_id": "d069594efb531da4bf82387614656431", "rental_uris": {"ios": "https://dc.lft.to/lastmile_qr_scan", "android": "https://dc.lft.to/lastmile_qr_scan"}, "fusion_lon": 0.0, "lon": -76.93713183333334, "name": "d069594efb531da4bf82387614656431", "is_reserved": 0, "is_disabled": 0}, {"lat": 38.902836, "fusion_lat": 0.0, "type": "electric_scooter", "bike_id": "10b7ccbc16582f41e816fe3cb9e48101", "rental_uris": {"ios": "https://dc.lft.to/lastmile_qr_scan", "android": "https://dc.lft.to/lastmile_qr_scan"}, "fusion_lon": 0.0, "lon": -77.04687783333334, "name": "10b7ccbc16582f41e816fe3cb9e48101", "is_reserved": 0, "is_disabled": 0}, {"lat": 38.917245, "fusion_lat": 0.0, "type": "electric_scooter", "bike_id": "30ae610e70fafde23c4dcc0a3ae3e458", "rental_uris": {"ios": "https://dc.lft.to/lastmile_qr_scan", "android": "https://dc.lft.to/lastmile_qr_scan"}, "fusion_lon": 0.0, "lon": -77.02590633333334, "name": "30ae610e70fafde23c4dcc0a3ae3e458", "is_reserved": 0, "is_disabled": 0}, {"lat": 38.923501333333334, "fusion_lat": 0.0, "type": "electric_scooter", "bike_id": "25aa76391a73c5dc8f62c2a22c54a8bd", "rental_uris": {"ios": "https://dc.lft.to/lastmile_qr_scan", "android": "https://dc.lft.to/lastmile_qr_scan"}, "fusion_lon": 0.0, "lon": -77.003319, "name": "25aa76391a73c5dc8f62c2a22c54a8bd", "is_reserved": 0, "is_disabled": 0}, {"lat": 38.928780333333336, "fusion_lat": 0.0, "type": "electric_scooter", "bike_id": "4c80c54a85c9b90e05f0daba0bdd33e7", "rental_uris": {"ios": "https://dc.lft.to/lastmile_qr_scan", "android": "https://dc.lft.to/lastmile_qr_scan"}, "fusion_lon": 0.0, "lon": -77.0335965, "name": "4c80c54a85c9b90e05f0daba0bdd33e7", "is_reserved": 0, "is_disabled": 0}, {"lat": 38.892685, "fusion_lat": 0.0, "type": "electric_scooter", "bike_id": "00e05ee8d533ea10ee8361b900ef9fd7", "rental_uris": {"ios": "https://dc.lft.to/lastmile_qr_scan", "android": "https://dc.lft.to/lastmile_qr_scan"}, "fusion_lon": 0.0, "lon": -77.0467495, "name": "00e05ee8d533ea10ee8361b900ef9fd7", "is_reserved": 0, "is_disabled": 0}, {"lat": 38.921676, "fusion_lat": 0.0, "type": "electric_scooter", "bike_id": "0b2047283a82c6730682c57238301768", "rental_uris": {"ios": "https://dc.lft.to/lastmile_qr_scan", "android": "https://dc.lft.to/lastmile_qr_scan"}, "fusion_lon": 0.0, "lon": -77.04253833333334, "name": "0b2047283a82c6730682c57238301768", "is_reserved": 0, "is_disabled": 0}, {"lat": 38.898754833333335, "fusion_lat": 0.0, "type": "electric_scooter", "bike_id": "de5ad0d51cf66eadb225eb3492e86a02", "rental_uris": {"ios": "https://dc.lft.to/lastmile_qr_scan", "android": "https://dc.lft.to/lastmile_qr_scan"}, "fusion_lon": 0.0, "lon": -76.93187166666667, "name": "de5ad0d51cf66eadb225eb3492e86a02", "is_reserved": 0, "is_disabled": 0}, {"lat": 38.900952, "fusion_lat": 0.0, "type": "electric_scooter", "bike_id": "3272b213aba3461a016e8688869d0d7a", "rental_uris": {"ios": "https://dc.lft.to/lastmile_qr_scan", "android": "https://dc.lft.to/lastmile_qr_scan"}, "fusion_lon": 0.0, "lon": -77.02519216666667, "name": "3272b213aba3461a016e8688869d0d7a", "is_reserved": 0, "is_disabled": 0}, {"lat": 38.87292733333334, "fusion_lat": 0.0, "type": "electric_scooter", "bike_id": "b56db6ddd2246ceb91ce8b9e8902fa29", "rental_uris": {"ios": "https://dc.lft.to/lastmile_qr_scan", "android": "https://dc.lft.to/lastmile_qr_scan"}, "fusion_lon": 0.0, "lon": -77.00982, "name": "b56db6ddd2246ceb91ce8b9e8902fa29", "is_reserved": 0, "is_disabled": 0}, {"lat": 38.91780583333333, "fusion_lat": 0.0, "type": "electric_scooter", "bike_id": "3011c40fe94d20bf41ea0c1e2a5f443f", "rental_uris": {"ios": "https://dc.lft.to/lastmile_qr_scan", "android": "https://dc.lft.to/lastmile_qr_scan"}, "fusion_lon": 0.0, "lon": -77.02601633333333, "name": "3011c40fe94d20bf41ea0c1e2a5f443f", "is_reserved": 0, "is_disabled": 0}, {"lat": 38.93609, "fusion_lat": 0.0, "type": "electric_scooter", "bike_id": "351dcf2421771990ecab7c6778f62877", "rental_uris": {"ios": "https://dc.lft.to/lastmile_qr_scan", "android": "https://dc.lft.to/lastmile_qr_scan"}, "fusion_lon": 0.0, "lon": -77.07306133333333, "name": "351dcf2421771990ecab7c6778f62877", "is_reserved": 0, "is_disabled": 0}, {"lat": 38.9169625, "fusion_lat": 0.0, "type": "electric_scooter", "bike_id": "4c1d44007243587b16ee4c9db7342f25", "rental_uris": {"ios": "https://dc.lft.to/lastmile_qr_scan", "android": "https://dc.lft.to/lastmile_qr_scan"}, "fusion_lon": 0.0, "lon": -77.03894166666667, "name": "4c1d44007243587b16ee4c9db7342f25", "is_reserved": 0, "is_disabled": 0}, {"lat": 38.908612, "fusion_lat": 0.0, "type": "electric_scooter", "bike_id": "b127b67b1908cadae9af73ce8f5ce913", "rental_uris": {"ios": "https://dc.lft.to/lastmile_qr_scan", "android": "https://dc.lft.to/lastmile_qr_scan"}, "fusion_lon": 0.0, "lon": -76.99977983333333, "name": "b127b67b1908cadae9af73ce8f5ce913", "is_reserved": 0, "is_disabled": 0}, {"lat": 38.923459333333334, "fusion_lat": 0.0, "type": "electric_scooter", "bike_id": "00375a7e55500455ac3c3ed8eaeecdde", "rental_uris": {"ios": "https://dc.lft.to/lastmile_qr_scan", "android": "https://dc.lft.to/lastmile_qr_scan"}, "fusion_lon": 0.0, "lon": -77.051788, "name": "00375a7e55500455ac3c3ed8eaeecdde", "is_reserved": 0, "is_disabled": 0}, {"lat": 38.88442933333333, "fusion_lat": 0.0, "type": "electric_scooter", "bike_id": "534983e5192491748184d7e02d309b8a", "rental_uris": {"ios": "https://dc.lft.to/lastmile_qr_scan", "android": "https://dc.lft.to/lastmile_qr_scan"}, "fusion_lon": 0.0, "lon": -77.01754683333333, "name": "534983e5192491748184d7e02d309b8a", "is_reserved": 0, "is_disabled": 0}, {"lat": 38.906465, "fusion_lat": 0.0, "type": "electric_scooter", "bike_id": "887da6ea76e8a9700e60178df6d01ca4", "rental_uris": {"ios": "https://dc.lft.to/lastmile_qr_scan", "android": "https://dc.lft.to/lastmile_qr_scan"}, "fusion_lon": 0.0, "lon": -77.02469433333333, "name": "887da6ea76e8a9700e60178df6d01ca4", "is_reserved": 0, "is_disabled": 0}, {"lat": 38.922189, "fusion_lat": 0.0, "type": "electric_scooter", "bike_id": "bedff1985e235272ccf3e16a865ff035", "rental_uris": {"ios": "https://dc.lft.to/lastmile_qr_scan", "android": "https://dc.lft.to/lastmile_qr_scan"}, "fusion_lon": 0.0, "lon": -77.04335416666666, "name": "bedff1985e235272ccf3e16a865ff035", "is_reserved": 0, "is_disabled": 0}, {"lat": 38.904838, "fusion_lat": 0.0, "type": "electric_scooter", "bike_id": "0b23bd54b4fc3d27f818b161f68064f4", "rental_uris": {"ios": "https://dc.lft.to/lastmile_qr_scan", "android": "https://dc.lft.to/lastmile_qr_scan"}, "fusion_lon": 0.0, "lon": -76.97326916666667, "name": "0b23bd54b4fc3d27f818b161f68064f4", "is_reserved": 0, "is_disabled": 0}, {"lat": 38.92030233333333, "fusion_lat": 0.0, "type": "electric_scooter", "bike_id": "f7c5a516cbe7864242b023cf9d2f06aa", "rental_uris": {"ios": "https://dc.lft.to/lastmile_qr_scan", "android": "https://dc.lft.to/lastmile_qr_scan"}, "fusion_lon": 0.0, "lon": -77.03669266666667, "name": "f7c5a516cbe7864242b023cf9d2f06aa", "is_reserved": 0, "is_disabled": 0}, {"lat": 38.9139175, "fusion_lat": 0.0, "type": "electric_scooter", "bike_id": "4446d7bbc6251864e5534d35a43a52f3", "rental_uris": {"ios": "https://dc.lft.to/lastmile_qr_scan", "android": "https://dc.lft.to/lastmile_qr_scan"}, "fusion_lon": 0.0, "lon": -77.01650316666667, "name": "4446d7bbc6251864e5534d35a43a52f3", "is_reserved": 0, "is_disabled": 0}, {"lat": 38.9243015, "fusion_lat": 0.0, "type": "electric_scooter", "bike_id": "619c1e8418e42132ba2c9d9a75a565a8", "rental_uris": {"ios": "https://dc.lft.to/lastmile_qr_scan", "android": "https://dc.lft.to/lastmile_qr_scan"}, "fusion_lon": 0.0, "lon": -77.05177566666667, "name": "619c1e8418e42132ba2c9d9a75a565a8", "is_reserved": 0, "is_disabled": 0}, {"lat": 38.90149516666666, "fusion_lat": 0.0, "type": "electric_scooter", "bike_id": "53b23d5675cfe6445c1d20c7e0f67766", "rental_uris": {"ios": "https://dc.lft.to/lastmile_qr_scan", "android": "https://dc.lft.to/lastmile_qr_scan"}, "fusion_lon": 0.0, "lon": -76.93064666666666, "name": "53b23d5675cfe6445c1d20c7e0f67766", "is_reserved": 0, "is_disabled": 0}, {"lat": 38.9159325, "fusion_lat": 0.0, "type": "electric_scooter", "bike_id": "37c45ce4df9405e11f8668bc35738ada", "rental_uris": {"ios": "https://dc.lft.to/lastmile_qr_scan", "android": "https://dc.lft.to/lastmile_qr_scan"}, "fusion_lon": 0.0, "lon": -77.03938733333334, "name": "37c45ce4df9405e11f8668bc35738ada", "is_reserved": 0, "is_disabled": 0}, {"lat": 38.92608, "fusion_lat": 0.0, "type": "electric_scooter", "bike_id": "093329b78ed16e46ee3070554eb74771", "rental_uris": {"ios": "https://dc.lft.to/lastmile_qr_scan", "android": "https://dc.lft.to/lastmile_qr_scan"}, "fusion_lon": 0.0, "lon": -77.02164883333333, "name": "093329b78ed16e46ee3070554eb74771", "is_reserved": 0, "is_disabled": 0}, {"lat": 38.9030085, "fusion_lat": 0.0, "type": "electric_scooter", "bike_id": "be0f6be46414dddf3be0abcffac625af", "rental_uris": {"ios": "https://dc.lft.to/lastmile_qr_scan", "android": "https://dc.lft.to/lastmile_qr_scan"}, "fusion_lon": 0.0, "lon": -77.03387033333334, "name": "be0f6be46414dddf3be0abcffac625af", "is_reserved": 0, "is_disabled": 0}, {"lat": 38.92228683333333, "fusion_lat": 0.0, "type": "electric_scooter", "bike_id": "79bd7745dc15e90bf97a29314d632c6e", "rental_uris": {"ios": "https://dc.lft.to/lastmile_qr_scan", "android": "https://dc.lft.to/lastmile_qr_scan"}, "fusion_lon": 0.0, "lon": -77.02830083333333, "name": "79bd7745dc15e90bf97a29314d632c6e", "is_reserved": 0, "is_disabled": 0}, {"lat": 38.92141066666667, "fusion_lat": 0.0, "type": "electric_scooter", "bike_id": "f0dd74309b7e4bc45c39108fc2ab932c", "rental_uris": {"ios": "https://dc.lft.to/lastmile_qr_scan", "android": "https://dc.lft.to/lastmile_qr_scan"}, "fusion_lon": 0.0, "lon": -77.01802466666666, "name": "f0dd74309b7e4bc45c39108fc2ab932c", "is_reserved": 0, "is_disabled": 0}, {"lat": 38.90030316666667, "fusion_lat": 0.0, "type": "electric_scooter", "bike_id": "c71d8c13a9598039cecd5b26a14b2a43", "rental_uris": {"ios": "https://dc.lft.to/lastmile_qr_scan", "android": "https://dc.lft.to/lastmile_qr_scan"}, "fusion_lon": 0.0, "lon": -77.02409383333334, "name": "c71d8c13a9598039cecd5b26a14b2a43", "is_reserved": 0, "is_disabled": 0}, {"lat": 38.87560966666667, "fusion_lat": 0.0, "type": "electric_scooter", "bike_id": "0b569f853d00986f698fbcc0be419a4b", "rental_uris": {"ios": "https://dc.lft.to/lastmile_qr_scan", "android": "https://dc.lft.to/lastmile_qr_scan"}, "fusion_lon": 0.0, "lon": -77.00562233333333, "name": "0b569f853d00986f698fbcc0be419a4b", "is_reserved": 0, "is_disabled": 0}, {"lat": 38.92577083333333, "fusion_lat": 0.0, "type": "electric_scooter", "bike_id": "5a46f6c1b3db54f84c0f0a35800dc875", "rental_uris": {"ios": "https://dc.lft.to/lastmile_qr_scan", "android": "https://dc.lft.to/lastmile_qr_scan"}, "fusion_lon": 0.0, "lon": -77.0318815, "name": "5a46f6c1b3db54f84c0f0a35800dc875", "is_reserved": 0, "is_disabled": 0}, {"lat": 38.902740333333334, "fusion_lat": 0.0, "type": "electric_scooter", "bike_id": "7302246ddfdca9f76c6226c666b14f60", "rental_uris": {"ios": "https://dc.lft.to/lastmile_qr_scan", "android": "https://dc.lft.to/lastmile_qr_scan"}, "fusion_lon": 0.0, "lon": -77.04226066666666, "name": "7302246ddfdca9f76c6226c666b14f60", "is_reserved": 0, "is_disabled": 0}, {"lat": 38.9214505, "fusion_lat": 0.0, "type": "electric_scooter", "bike_id": "12ad120ba4f032c7b3aae2f824859d47", "rental_uris": {"ios": "https://dc.lft.to/lastmile_qr_scan", "android": "https://dc.lft.to/lastmile_qr_scan"}, "fusion_lon": 0.0, "lon": -77.01206883333333, "name": "12ad120ba4f032c7b3aae2f824859d47", "is_reserved": 0, "is_disabled": 0}, {"lat": 38.931289166666666, "fusion_lat": 0.0, "type": "electric_bike", "bike_id": "00a43ca375a9702ffdadeaeb3ad2491b", "rental_uris": {"ios": "https://dc.lft.to/lastmile_qr_scan", "android": "https://dc.lft.to/lastmile_qr_scan"}, "fusion_lon": 0.0, "lon": -77.019666, "name": "00a43ca375a9702ffdadeaeb3ad2491b", "is_reserved": 0, "is_disabled": 0}, {"lat": 38.90948616666667, "fusion_lat": 0.0, "type": "electric_scooter", "bike_id": "df271f36a9f567597973dd7a1cba3ff9", "rental_uris": {"ios": "https://dc.lft.to/lastmile_qr_scan", "android": "https://dc.lft.to/lastmile_qr_scan"}, "fusion_lon": 0.0, "lon": -77.0269225, "name": "df271f36a9f567597973dd7a1cba3ff9", "is_reserved": 0, "is_disabled": 0}, {"lat": 38.934691666666666, "fusion_lat": 0.0, "type": "electric_scooter", "bike_id": "88ecd81107f25f927244464a2bc8d652", "rental_uris": {"ios": "https://dc.lft.to/lastmile_qr_scan", "android": "https://dc.lft.to/lastmile_qr_scan"}, "fusion_lon": 0.0, "lon": -77.0727785, "name": "88ecd81107f25f927244464a2bc8d652", "is_reserved": 0, "is_disabled": 0}, {"lat": 38.911100166666664, "fusion_lat": 0.0, "type": "electric_scooter", "bike_id": "ef25747b804751671f9a637383277dbc", "rental_uris": {"ios": "https://dc.lft.to/lastmile_qr_scan", "android": "https://dc.lft.to/lastmile_qr_scan"}, "fusion_lon": 0.0, "lon": -77.04542383333333, "name": "ef25747b804751671f9a637383277dbc", "is_reserved": 0, "is_disabled": 0}, {"lat": 38.9170465, "fusion_lat": 0.0, "type": "electric_scooter", "bike_id": "ee73040478c70f9041f0d9d09903296d", "rental_uris": {"ios": "https://dc.lft.to/lastmile_qr_scan", "android": "https://dc.lft.to/lastmile_qr_scan"}, "fusion_lon": 0.0, "lon": -77.0333525, "name": "ee73040478c70f9041f0d9d09903296d", "is_reserved": 0, "is_disabled": 0}, {"lat": 38.90800733333333, "fusion_lat": 0.0, "type": "electric_scooter", "bike_id": "c024ffd74237849f8edcd9ed72b51435", "rental_uris": {"ios": "https://dc.lft.to/lastmile_qr_scan", "android": "https://dc.lft.to/lastmile_qr_scan"}, "fusion_lon": 0.0, "lon": -77.04245033333333, "name": "c024ffd74237849f8edcd9ed72b51435", "is_reserved": 0, "is_disabled": 0}, {"lat": 38.9049025, "fusion_lat": 0.0, "type": "electric_scooter", "bike_id": "0c58d037589ba9903a1de1568d34009e", "rental_uris": {"ios": "https://dc.lft.to/lastmile_qr_scan", "android": "https://dc.lft.to/lastmile_qr_scan"}, "fusion_lon": 0.0, "lon": -77.0282015, "name": "0c58d037589ba9903a1de1568d34009e", "is_reserved": 0, "is_disabled": 0}, {"lat": 38.920343333333335, "fusion_lat": 0.0, "type": "electric_scooter", "bike_id": "92e681c48a8e77f8e5a916f6a7593a57", "rental_uris": {"ios": "https://dc.lft.to/lastmile_qr_scan", "android": "https://dc.lft.to/lastmile_qr_scan"}, "fusion_lon": 0.0, "lon": -77.0122365, "name": "92e681c48a8e77f8e5a916f6a7593a57", "is_reserved": 0, "is_disabled": 0}, {"lat": 38.8876335, "fusion_lat": 0.0, "type": "electric_scooter", "bike_id": "d22a066596fba056873fe49cd3154172", "rental_uris": {"ios": "https://dc.lft.to/lastmile_qr_scan", "android": "https://dc.lft.to/lastmile_qr_scan"}, "fusion_lon": 0.0, "lon": -76.98297633333334, "name": "d22a066596fba056873fe49cd3154172", "is_reserved": 0, "is_disabled": 0}, {"lat": 38.915947333333335, "fusion_lat": 0.0, "type": "electric_scooter", "bike_id": "85b7e4b4df549173b73b493ee0a63151", "rental_uris": {"ios": "https://dc.lft.to/lastmile_qr_scan", "android": "https://dc.lft.to/lastmile_qr_scan"}, "fusion_lon": 0.0, "lon": -77.01480133333334, "name": "85b7e4b4df549173b73b493ee0a63151", "is_reserved": 0, "is_disabled": 0}, {"lat": 38.897318166666665, "fusion_lat": 0.0, "type": "electric_scooter", "bike_id": "9f6cf0436742121c6483c9776bbbaad0", "rental_uris": {"ios": "https://dc.lft.to/lastmile_qr_scan", "android": "https://dc.lft.to/lastmile_qr_scan"}, "fusion_lon": 0.0, "lon": -77.01277116666667, "name": "9f6cf0436742121c6483c9776bbbaad0", "is_reserved": 0, "is_disabled": 0}, {"lat": 38.93214616666667, "fusion_lat": 0.0, "type": "electric_scooter", "bike_id": "a8b2a16b804079e9a8c1a91661026090", "rental_uris": {"ios": "https://dc.lft.to/lastmile_qr_scan", "android": "https://dc.lft.to/lastmile_qr_scan"}, "fusion_lon": 0.0, "lon": -77.03517666666667, "name": "a8b2a16b804079e9a8c1a91661026090", "is_reserved": 0, "is_disabled": 0}, {"lat": 38.90757133333334, "fusion_lat": 0.0, "type": "electric_scooter", "bike_id": "53c53d391682ede614d80cdeb57a6d80", "rental_uris": {"ios": "https://dc.lft.to/lastmile_qr_scan", "android": "https://dc.lft.to/lastmile_qr_scan"}, "fusion_lon": 0.0, "lon": -77.0357635, "name": "53c53d391682ede614d80cdeb57a6d80", "is_reserved": 0, "is_disabled": 0}, {"lat": 38.9014695, "fusion_lat": 0.0, "type": "electric_scooter", "bike_id": "e41aa6f7e9c71feb26fb0f2dd00deda8", "rental_uris": {"ios": "https://dc.lft.to/lastmile_qr_scan", "android": "https://dc.lft.to/lastmile_qr_scan"}, "fusion_lon": 0.0, "lon": -76.9742505, "name": "e41aa6f7e9c71feb26fb0f2dd00deda8", "is_reserved": 0, "is_disabled": 0}, {"lat": 38.9199025, "fusion_lat": 0.0, "type": "electric_scooter", "bike_id": "9cb37c0121b9b481e49b9117c251c080", "rental_uris": {"ios": "https://dc.lft.to/lastmile_qr_scan", "android": "https://dc.lft.to/lastmile_qr_scan"}, "fusion_lon": 0.0, "lon": -76.97304, "name": "9cb37c0121b9b481e49b9117c251c080", "is_reserved": 0, "is_disabled": 0}, {"lat": 38.89796166666667, "fusion_lat": 0.0, "type": "electric_scooter", "bike_id": "a615cf210ea2b6c5933e7ce63c00e094", "rental_uris": {"ios": "https://dc.lft.to/lastmile_qr_scan", "android": "https://dc.lft.to/lastmile_qr_scan"}, "fusion_lon": 0.0, "lon": -77.04187533333334, "name": "a615cf210ea2b6c5933e7ce63c00e094", "is_reserved": 0, "is_disabled": 0}, {"lat": 38.9181215, "fusion_lat": 0.0, "type": "electric_scooter", "bike_id": "22b6c37d16dbab285438bb87524c43f2", "rental_uris": {"ios": "https://dc.lft.to/lastmile_qr_scan", "android": "https://dc.lft.to/lastmile_qr_scan"}, "fusion_lon": 0.0, "lon": -77.03469316666667, "name": "22b6c37d16dbab285438bb87524c43f2", "is_reserved": 0, "is_disabled": 0}, {"lat": 38.905022, "fusion_lat": 0.0, "type": "electric_scooter", "bike_id": "5e03527857ababcae371a1510822cd84", "rental_uris": {"ios": "https://dc.lft.to/lastmile_qr_scan", "android": "https://dc.lft.to/lastmile_qr_scan"}, "fusion_lon": 0.0, "lon": -77.06465733333333, "name": "5e03527857ababcae371a1510822cd84", "is_reserved": 0, "is_disabled": 0}, {"lat": 38.9223365, "fusion_lat": 0.0, "type": "electric_scooter", "bike_id": "83443ec253e14ea5b74dcfb52cbb9ecb", "rental_uris": {"ios": "https://dc.lft.to/lastmile_qr_scan", "android": "https://dc.lft.to/lastmile_qr_scan"}, "fusion_lon": 0.0, "lon": -77.01827733333333, "name": "83443ec253e14ea5b74dcfb52cbb9ecb", "is_reserved": 0, "is_disabled": 0}, {"lat": 38.917429166666665, "fusion_lat": 0.0, "type": "electric_scooter", "bike_id": "c19f8a0d448f4eacaf6a8869d4782b22", "rental_uris": {"ios": "https://dc.lft.to/lastmile_qr_scan", "android": "https://dc.lft.to/lastmile_qr_scan"}, "fusion_lon": 0.0, "lon": -77.03201733333333, "name": "c19f8a0d448f4eacaf6a8869d4782b22", "is_reserved": 0, "is_disabled": 0}, {"lat": 38.90242416666667, "fusion_lat": 0.0, "type": "electric_scooter", "bike_id": "55e30084576ee17e0d8d7109ebb9e34c", "rental_uris": {"ios": "https://dc.lft.to/lastmile_qr_scan", "android": "https://dc.lft.to/lastmile_qr_scan"}, "fusion_lon": 0.0, "lon": -77.035686, "name": "55e30084576ee17e0d8d7109ebb9e34c", "is_reserved": 0, "is_disabled": 0}, {"lat": 38.8849715, "fusion_lat": 0.0, "type": "electric_scooter", "bike_id": "d00921030550fb7e36d9873e0b55a9d0", "rental_uris": {"ios": "https://dc.lft.to/lastmile_qr_scan", "android": "https://dc.lft.to/lastmile_qr_scan"}, "fusion_lon": 0.0, "lon": -77.02966883333333, "name": "d00921030550fb7e36d9873e0b55a9d0", "is_reserved": 0, "is_disabled": 0}, {"lat": 38.9045665, "fusion_lat": 0.0, "type": "electric_scooter", "bike_id": "4082f6c6d1349ec2791a1903e9fa0bfb", "rental_uris": {"ios": "https://dc.lft.to/lastmile_qr_scan", "android": "https://dc.lft.to/lastmile_qr_scan"}, "fusion_lon": 0.0, "lon": -77.04668116666667, "name": "4082f6c6d1349ec2791a1903e9fa0bfb", "is_reserved": 0, "is_disabled": 0}, {"lat": 38.92791616666667, "fusion_lat": 0.0, "type": "electric_scooter", "bike_id": "889b6d05f9370d18078faccd914ac3b1", "rental_uris": {"ios": "https://dc.lft.to/lastmile_qr_scan", "android": "https://dc.lft.to/lastmile_qr_scan"}, "fusion_lon": 0.0, "lon": -77.0155035, "name": "889b6d05f9370d18078faccd914ac3b1", "is_reserved": 0, "is_disabled": 0}, {"lat": 38.956227, "fusion_lat": 0.0, "type": "electric_bike", "bike_id": "ebadab85290d92291f9d2e685aee23ee", "rental_uris": {"ios": "https://dc.lft.to/lastmile_qr_scan", "android": "https://dc.lft.to/lastmile_qr_scan"}, "fusion_lon": 0.0, "lon": -76.9386715, "name": "ebadab85290d92291f9d2e685aee23ee", "is_reserved": 0, "is_disabled": 0}, {"lat": 38.900309, "fusion_lat": 0.0, "type": "electric_scooter", "bike_id": "0fc35d573119945d2ff5f9e213ecf804", "rental_uris": {"ios": "https://dc.lft.to/lastmile_qr_scan", "android": "https://dc.lft.to/lastmile_qr_scan"}, "fusion_lon": 0.0, "lon": -77.01229033333334, "name": "0fc35d573119945d2ff5f9e213ecf804", "is_reserved": 0, "is_disabled": 0}, {"lat": 38.907592666666666, "fusion_lat": 0.0, "type": "electric_scooter", "bike_id": "61dccf7a4b74602ab0b7a5e1e1a550c9", "rental_uris": {"ios": "https://dc.lft.to/lastmile_qr_scan", "android": "https://dc.lft.to/lastmile_qr_scan"}, "fusion_lon": 0.0, "lon": -77.00029833333333, "name": "61dccf7a4b74602ab0b7a5e1e1a550c9", "is_reserved": 0, "is_disabled": 0}, {"lat": 38.93534733333333, "fusion_lat": 0.0, "type": "electric_scooter", "bike_id": "35eb60275c39c686d272bc0bd753cb2f", "rental_uris": {"ios": "https://dc.lft.to/lastmile_qr_scan", "android": "https://dc.lft.to/lastmile_qr_scan"}, "fusion_lon": 0.0, "lon": -77.05742766666667, "name": "35eb60275c39c686d272bc0bd753cb2f", "is_reserved": 0, "is_disabled": 0}, {"lat": 38.938469833333336, "fusion_lat": 0.0, "type": "electric_scooter", "bike_id": "3e8588dfadae9a1cccacbe1eb830cefa", "rental_uris": {"ios": "https://dc.lft.to/lastmile_qr_scan", "android": "https://dc.lft.to/lastmile_qr_scan"}, "fusion_lon": 0.0, "lon": -77.072322, "name": "3e8588dfadae9a1cccacbe1eb830cefa", "is_reserved": 0, "is_disabled": 0}, {"lat": 38.918135166666666, "fusion_lat": 0.0, "type": "electric_scooter", "bike_id": "67feb1f72d27473a722386cfa2024f23", "rental_uris": {"ios": "https://dc.lft.to/lastmile_qr_scan", "android": "https://dc.lft.to/lastmile_qr_scan"}, "fusion_lon": 0.0, "lon": -77.03559233333333, "name": "67feb1f72d27473a722386cfa2024f23", "is_reserved": 0, "is_disabled": 0}, {"lat": 38.9188155, "fusion_lat": 0.0, "type": "electric_scooter", "bike_id": "e6c1388778f1a53688bacb66fdd78517", "rental_uris": {"ios": "https://dc.lft.to/lastmile_qr_scan", "android": "https://dc.lft.to/lastmile_qr_scan"}, "fusion_lon": 0.0, "lon": -77.021904, "name": "e6c1388778f1a53688bacb66fdd78517", "is_reserved": 0, "is_disabled": 0}, {"lat": 38.922384, "fusion_lat": 0.0, "type": "electric_scooter", "bike_id": "6e75599914842c7409daf0463b75830d", "rental_uris": {"ios": "https://dc.lft.to/lastmile_qr_scan", "android": "https://dc.lft.to/lastmile_qr_scan"}, "fusion_lon": 0.0, "lon": -77.02199333333333, "name": "6e75599914842c7409daf0463b75830d", "is_reserved": 0, "is_disabled": 0}, {"lat": 38.97371566666666, "fusion_lat": 0.0, "type": "electric_scooter", "bike_id": "652079c3338915e1472399ed92090dc9", "rental_uris": {"ios": "https://dc.lft.to/lastmile_qr_scan", "android": "https://dc.lft.to/lastmile_qr_scan"}, "fusion_lon": 0.0, "lon": -77.01268983333334, "name": "652079c3338915e1472399ed92090dc9", "is_reserved": 0, "is_disabled": 0}, {"lat": 38.837878, "fusion_lat": 0.0, "type": "electric_scooter", "bike_id": "6de07dd35e2ff3c34e08f8e8a25942c5", "rental_uris": {"ios": "https://dc.lft.to/lastmile_qr_scan", "android": "https://dc.lft.to/lastmile_qr_scan"}, "fusion_lon": 0.0, "lon": -77.00554666666666, "name": "6de07dd35e2ff3c34e08f8e8a25942c5", "is_reserved": 0, "is_disabled": 0}, {"lat": 38.91107216666666, "fusion_lat": 0.0, "type": "electric_scooter", "bike_id": "7f12991a5f03540ee37cc14b792328f9", "rental_uris": {"ios": "https://dc.lft.to/lastmile_qr_scan", "android": "https://dc.lft.to/lastmile_qr_scan"}, "fusion_lon": 0.0, "lon": -77.04080283333333, "name": "7f12991a5f03540ee37cc14b792328f9", "is_reserved": 0, "is_disabled": 0}, {"lat": 38.966102, "fusion_lat": 0.0, "type": "electric_scooter", "bike_id": "82483f2807d1c7c434bac26f42739b4b", "rental_uris": {"ios": "https://dc.lft.to/lastmile_qr_scan", "android": "https://dc.lft.to/lastmile_qr_scan"}, "fusion_lon": 0.0, "lon": -77.02744616666666, "name": "82483f2807d1c7c434bac26f42739b4b", "is_reserved": 0, "is_disabled": 0}, {"lat": 38.892937833333335, "fusion_lat": 0.0, "type": "electric_scooter", "bike_id": "99d8e558b5eca0b66dc37139e5743b1a", "rental_uris": {"ios": "https://dc.lft.to/lastmile_qr_scan", "android": "https://dc.lft.to/lastmile_qr_scan"}, "fusion_lon": 0.0, "lon": -77.0122785, "name": "99d8e558b5eca0b66dc37139e5743b1a", "is_reserved": 0, "is_disabled": 0}, {"lat": 38.906691333333335, "fusion_lat": 0.0, "type": "electric_scooter", "bike_id": "c06bd51784cf0abc25b0e2031b468811", "rental_uris": {"ios": "https://dc.lft.to/lastmile_qr_scan", "android": "https://dc.lft.to/lastmile_qr_scan"}, "fusion_lon": 0.0, "lon": -76.98938416666667, "name": "c06bd51784cf0abc25b0e2031b468811", "is_reserved": 0, "is_disabled": 0}, {"lat": 38.90385033333333, "fusion_lat": 0.0, "type": "electric_scooter", "bike_id": "504ea670d235ea1f45f5d3b02ecf3595", "rental_uris": {"ios": "https://dc.lft.to/lastmile_qr_scan", "android": "https://dc.lft.to/lastmile_qr_scan"}, "fusion_lon": 0.0, "lon": -76.989524, "name": "504ea670d235ea1f45f5d3b02ecf3595", "is_reserved": 0, "is_disabled": 0}, {"lat": 38.9215055, "fusion_lat": 0.0, "type": "electric_scooter", "bike_id": "9ef915162a3c1fd6676ed8b2544a39ca", "rental_uris": {"ios": "https://dc.lft.to/lastmile_qr_scan", "android": "https://dc.lft.to/lastmile_qr_scan"}, "fusion_lon": 0.0, "lon": -77.02224716666667, "name": "9ef915162a3c1fd6676ed8b2544a39ca", "is_reserved": 0, "is_disabled": 0}, {"lat": 38.9191335, "fusion_lat": 0.0, "type": "electric_scooter", "bike_id": "c644757d4986b0a19022f916b2748ac7", "rental_uris": {"ios": "https://dc.lft.to/lastmile_qr_scan", "android": "https://dc.lft.to/lastmile_qr_scan"}, "fusion_lon": 0.0, "lon": -77.04475616666667, "name": "c644757d4986b0a19022f916b2748ac7", "is_reserved": 0, "is_disabled": 0}, {"lat": 38.88728583333334, "fusion_lat": 0.0, "type": "electric_scooter", "bike_id": "e4e4b2e55a95351027ca487a66b3c5e7", "rental_uris": {"ios": "https://dc.lft.to/lastmile_qr_scan", "android": "https://dc.lft.to/lastmile_qr_scan"}, "fusion_lon": 0.0, "lon": -76.9835755, "name": "e4e4b2e55a95351027ca487a66b3c5e7", "is_reserved": 0, "is_disabled": 0}, {"lat": 38.874998166666664, "fusion_lat": 0.0, "type": "electric_scooter", "bike_id": "5dbb579ce48a30ad84129d33f422b950", "rental_uris": {"ios": "https://dc.lft.to/lastmile_qr_scan", "android": "https://dc.lft.to/lastmile_qr_scan"}, "fusion_lon": 0.0, "lon": -77.0005645, "name": "5dbb579ce48a30ad84129d33f422b950", "is_reserved": 0, "is_disabled": 0}, {"lat": 38.88419866666667, "fusion_lat": 0.0, "type": "electric_scooter", "bike_id": "d12712a402b1963d13cab699726d8acf", "rental_uris": {"ios": "https://dc.lft.to/lastmile_qr_scan", "android": "https://dc.lft.to/lastmile_qr_scan"}, "fusion_lon": 0.0, "lon": -76.94201366666667, "name": "d12712a402b1963d13cab699726d8acf", "is_reserved": 0, "is_disabled": 0}, {"lat": 38.92345433333333, "fusion_lat": 0.0, "type": "electric_scooter", "bike_id": "3d2a0f1c158ce8a0881ed7a8a140c146", "rental_uris": {"ios": "https://dc.lft.to/lastmile_qr_scan", "android": "https://dc.lft.to/lastmile_qr_scan"}, "fusion_lon": 0.0, "lon": -77.05166283333334, "name": "3d2a0f1c158ce8a0881ed7a8a140c146", "is_reserved": 0, "is_disabled": 0}, {"lat": 38.90241733333333, "fusion_lat": 0.0, "type": "electric_scooter", "bike_id": "e14ac4eee7f6a8b845877fc508eb54ce", "rental_uris": {"ios": "https://dc.lft.to/lastmile_qr_scan", "android": "https://dc.lft.to/lastmile_qr_scan"}, "fusion_lon": 0.0, "lon": -77.05346166666666, "name": "e14ac4eee7f6a8b845877fc508eb54ce", "is_reserved": 0, "is_disabled": 0}, {"lat": 38.926020333333334, "fusion_lat": 0.0, "type": "electric_scooter", "bike_id": "5526e7394afd206f5bd388101788bad5", "rental_uris": {"ios": "https://dc.lft.to/lastmile_qr_scan", "android": "https://dc.lft.to/lastmile_qr_scan"}, "fusion_lon": 0.0, "lon": -77.021571, "name": "5526e7394afd206f5bd388101788bad5", "is_reserved": 0, "is_disabled": 0}, {"lat": 38.9063955, "fusion_lat": 0.0, "type": "electric_scooter", "bike_id": "5c05a3c5ee714ed0f6eeee5b9018c0d6", "rental_uris": {"ios": "https://dc.lft.to/lastmile_qr_scan", "android": "https://dc.lft.to/lastmile_qr_scan"}, "fusion_lon": 0.0, "lon": -77.03846383333334, "name": "5c05a3c5ee714ed0f6eeee5b9018c0d6", "is_reserved": 0, "is_disabled": 0}, {"lat": 38.910982833333335, "fusion_lat": 0.0, "type": "electric_scooter", "bike_id": "1c31dab65dc02743f4b995e326030fc1", "rental_uris": {"ios": "https://dc.lft.to/lastmile_qr_scan", "android": "https://dc.lft.to/lastmile_qr_scan"}, "fusion_lon": 0.0, "lon": -77.07355533333333, "name": "1c31dab65dc02743f4b995e326030fc1", "is_reserved": 0, "is_disabled": 0}, {"lat": 38.939305166666664, "fusion_lat": 0.0, "type": "electric_scooter", "bike_id": "f1aeef4c625f7558ebccd21eb38ddd7f", "rental_uris": {"ios": "https://dc.lft.to/lastmile_qr_scan", "android": "https://dc.lft.to/lastmile_qr_scan"}, "fusion_lon": 0.0, "lon": -77.01582216666667, "name": "f1aeef4c625f7558ebccd21eb38ddd7f", "is_reserved": 0, "is_disabled": 0}, {"lat": 38.91736816666667, "fusion_lat": 0.0, "type": "electric_scooter", "bike_id": "43bcf53ed4286f6093516d0be30e6843", "rental_uris": {"ios": "https://dc.lft.to/lastmile_qr_scan", "android": "https://dc.lft.to/lastmile_qr_scan"}, "fusion_lon": 0.0, "lon": -77.03641616666667, "name": "43bcf53ed4286f6093516d0be30e6843", "is_reserved": 0, "is_disabled": 0}, {"lat": 38.910275666666664, "fusion_lat": 0.0, "type": "electric_scooter", "bike_id": "05426e7fe4563504d8d18a588c112d9d", "rental_uris": {"ios": "https://dc.lft.to/lastmile_qr_scan", "android": "https://dc.lft.to/lastmile_qr_scan"}, "fusion_lon": 0.0, "lon": -76.98669033333333, "name": "05426e7fe4563504d8d18a588c112d9d", "is_reserved": 0, "is_disabled": 0}, {"lat": 38.927597166666665, "fusion_lat": 0.0, "type": "electric_scooter", "bike_id": "db24270ba7b13bb63c3736dc6a6c7f4a", "rental_uris": {"ios": "https://dc.lft.to/lastmile_qr_scan", "android": "https://dc.lft.to/lastmile_qr_scan"}, "fusion_lon": 0.0, "lon": -77.0527185, "name": "db24270ba7b13bb63c3736dc6a6c7f4a", "is_reserved": 0, "is_disabled": 0}, {"lat": 38.900567833333334, "fusion_lat": 0.0, "type": "electric_scooter", "bike_id": "264dce192c9dcce3f82d54cb4c93abae", "rental_uris": {"ios": "https://dc.lft.to/lastmile_qr_scan", "android": "https://dc.lft.to/lastmile_qr_scan"}, "fusion_lon": 0.0, "lon": -77.04553533333333, "name": "264dce192c9dcce3f82d54cb4c93abae", "is_reserved": 0, "is_disabled": 0}, {"lat": 38.920607833333335, "fusion_lat": 0.0, "type": "electric_scooter", "bike_id": "e2e9c811bd286e161d3a0f8ed0fc7a18", "rental_uris": {"ios": "https://dc.lft.to/lastmile_qr_scan", "android": "https://dc.lft.to/lastmile_qr_scan"}, "fusion_lon": 0.0, "lon": -77.04562316666667, "name": "e2e9c811bd286e161d3a0f8ed0fc7a18", "is_reserved": 0, "is_disabled": 0}, {"lat": 38.819862, "fusion_lat": 0.0, "type": "electric_bike", "bike_id": "b5edbfff8ac5c7e7db7d8d7674f0c2d7", "rental_uris": {"ios": "https://dc.lft.to/lastmile_qr_scan", "android": "https://dc.lft.to/lastmile_qr_scan"}, "fusion_lon": 0.0, "lon": -76.99807, "name": "b5edbfff8ac5c7e7db7d8d7674f0c2d7", "is_reserved": 0, "is_disabled": 0}, {"lat": 38.88435466666667, "fusion_lat": 0.0, "type": "electric_scooter", "bike_id": "721018ce13d1f8206d53bbce23d972fd", "rental_uris": {"ios": "https://dc.lft.to/lastmile_qr_scan", "android": "https://dc.lft.to/lastmile_qr_scan"}, "fusion_lon": 0.0, "lon": -77.01750883333334, "name": "721018ce13d1f8206d53bbce23d972fd", "is_reserved": 0, "is_disabled": 0}, {"lat": 38.91150116666667, "fusion_lat": 0.0, "type": "electric_scooter", "bike_id": "a7021901d2cf89f3640307f2abe8b2f8", "rental_uris": {"ios": "https://dc.lft.to/lastmile_qr_scan", "android": "https://dc.lft.to/lastmile_qr_scan"}, "fusion_lon": 0.0, "lon": -77.0021465, "name": "a7021901d2cf89f3640307f2abe8b2f8", "is_reserved": 0, "is_disabled": 0}, {"lat": 38.90953233333333, "fusion_lat": 0.0, "type": "electric_scooter", "bike_id": "a281bc36819ff6381760254e9b49f8cc", "rental_uris": {"ios": "https://dc.lft.to/lastmile_qr_scan", "android": "https://dc.lft.to/lastmile_qr_scan"},