{"data": {"bikes": [{"lon": -77.04866716666666, "bike_id": "1de719838a14d1eae60895adf26d3866", "lat": 38.89215883333333, "fusion_lon": 0.0, "fusion_lat": 0.0, "type": "electric_scooter", "name": "1de719838a14d1eae60895adf26d3866", "is_disabled": 0, "rental_uris": {"ios": "https://dc.lft.to/lastmile_qr_scan", "android": "https://dc.lft.to/lastmile_qr_scan"}, "is_reserved": 0}, {"lon": -77.01647633333333, "bike_id": "9f33fed472d96fbbd5d1bfaab617bb32", "lat": 38.87708266666667, "fusion_lon": 0.0, "fusion_lat": 0.0, "type": "electric_scooter", "name": "9f33fed472d96fbbd5d1bfaab617bb32", "is_disabled": 0, "rental_uris": {"ios": "https://dc.lft.to/lastmile_qr_scan", "android": "https://dc.lft.to/lastmile_qr_scan"}, "is_reserved": 0}, {"lon": -77.01964066666666, "bike_id": "4742aca4fb2f60a0d064d596386889c2", "lat": 38.90093733333333, "fusion_lon": 0.0, "fusion_lat": 0.0, "type": "electric_scooter", "name": "4742aca4fb2f60a0d064d596386889c2", "is_disabled": 0, "rental_uris": {"ios": "https://dc.lft.to/lastmile_qr_scan", "android": "https://dc.lft.to/lastmile_qr_scan"}, "is_reserved": 0}, {"lon": -77.019985, "bike_id": "ad360b8a5354852341d8e8400eec6387", "lat": 38.96623833333334, "fusion_lon": 0.0, "fusion_lat": 0.0, "type": "electric_scooter", "name": "ad360b8a5354852341d8e8400eec6387", "is_disabled": 0, "rental_uris": {"ios": "https://dc.lft.to/lastmile_qr_scan", "android": "https://dc.lft.to/lastmile_qr_scan"}, "is_reserved": 0}, {"lon": -77.02718533333334, "bike_id": "e9342f8e68ae432062e3416dbd5c7c30", "lat": 38.910723, "fusion_lon": 0.0, "fusion_lat": 0.0, "type": "electric_scooter", "name": "e9342f8e68ae432062e3416dbd5c7c30", "is_disabled": 0, "rental_uris": {"ios": "https://dc.lft.to/lastmile_qr_scan", "android": "https://dc.lft.to/lastmile_qr_scan"}, "is_reserved": 0}, {"lon": -76.98465483333334, "bike_id": "8d1d7c1b50835251232ec7f8bf4ebb69", "lat": 38.90397316666667, "fusion_lon": 0.0, "fusion_lat": 0.0, "type": "electric_scooter", "name": "8d1d7c1b50835251232ec7f8bf4ebb69", "is_disabled": 0, "rental_uris": {"ios": "https://dc.lft.to/lastmile_qr_scan", "android": "https://dc.lft.to/lastmile_qr_scan"}, "is_reserved": 0}, {"lon": -77.0362165, "bike_id": "be3a37af09764b2b18591beced8412dc", "lat": 38.93678383333334, "fusion_lon": 0.0, "fusion_lat": 0.0, "type": "electric_scooter", "name": "be3a37af09764b2b18591beced8412dc", "is_disabled": 0, "rental_uris": {"ios": "https://dc.lft.to/lastmile_qr_scan", "android": "https://dc.lft.to/lastmile_qr_scan"}, "is_reserved": 0}, {"lon": -77.01862616666666, "bike_id": "b1d912ec639c7a7e6c5de393006ab076", "lat": 38.898612666666665, "fusion_lon": 0.0, "fusion_lat": 0.0, "type": "electric_scooter", "name": "b1d912ec639c7a7e6c5de393006ab076", "is_disabled": 0, "rental_uris": {"ios": "https://dc.lft.to/lastmile_qr_scan", "android": "https://dc.lft.to/lastmile_qr_scan"}, "is_reserved": 0}, {"lon": -76.99454483333334, "bike_id": "760f67012c62c4c0ed63fbf8fde52882", "lat": 38.862169333333334, "fusion_lon": 0.0, "fusion_lat": 0.0, "type": "electric_scooter", "name": "760f67012c62c4c0ed63fbf8fde52882", "is_disabled": 0, "rental_uris": {"ios": "https://dc.lft.to/lastmile_qr_scan", "android": "https://dc.lft.to/lastmile_qr_scan"}, "is_reserved": 0}, {"lon": -77.02205866666667, "bike_id": "19f067dd3fd52aa6639b582d5210c7ef", "lat": 38.905368833333334, "fusion_lon": 0.0, "fusion_lat": 0.0, "type": "electric_scooter", "name": "19f067dd3fd52aa6639b582d5210c7ef", "is_disabled": 0, "rental_uris": {"ios": "https://dc.lft.to/lastmile_qr_scan", "android": "https://dc.lft.to/lastmile_qr_scan"}, "is_reserved": 0}, {"lon": -77.02812983333334, "bike_id": "fafb9298508a661fbb550cd8ada272f6", "lat": 38.88178583333333, "fusion_lon": 0.0, "fusion_lat": 0.0, "type": "electric_scooter", "name": "fafb9298508a661fbb550cd8ada272f6", "is_disabled": 0, "rental_uris": {"ios": "https://dc.lft.to/lastmile_qr_scan", "android": "https://dc.lft.to/lastmile_qr_scan"}, "is_reserved": 0}, {"lon": -77.03191, "bike_id": "cdaa6720f9ed10bd00f03d48966deea1", "lat": 38.913309166666664, "fusion_lon": 0.0, "fusion_lat": 0.0, "type": "electric_scooter", "name": "cdaa6720f9ed10bd00f03d48966deea1", "is_disabled": 0, "rental_uris": {"ios": "https://dc.lft.to/lastmile_qr_scan", "android": "https://dc.lft.to/lastmile_qr_scan"}, "is_reserved": 0}, {"lon": -77.05471533333333, "bike_id": "66add98bec0337da5414b000ad33e1fe", "lat": 38.904317, "fusion_lon": 0.0, "fusion_lat": 0.0, "type": "electric_scooter", "name": "66add98bec0337da5414b000ad33e1fe", "is_disabled": 0, "rental_uris": {"ios": "https://dc.lft.to/lastmile_qr_scan", "android": "https://dc.lft.to/lastmile_qr_scan"}, "is_reserved": 0}, {"lon": -77.02761566666666, "bike_id": "d5e033bb7d186117c6340c56c8bf7389", "lat": 38.954274833333336, "fusion_lon": 0.0, "fusion_lat": 0.0, "type": "electric_scooter", "name": "d5e033bb7d186117c6340c56c8bf7389", "is_disabled": 0, "rental_uris": {"ios": "https://dc.lft.to/lastmile_qr_scan", "android": "https://dc.lft.to/lastmile_qr_scan"}, "is_reserved": 0}, {"lon": -77.0150775, "bike_id": "85c8bd34d66ce586f881e54fec3e64c1", "lat": 38.926756833333336, "fusion_lon": 0.0, "fusion_lat": 0.0, "type": "electric_scooter", "name": "85c8bd34d66ce586f881e54fec3e64c1", "is_disabled": 0, "rental_uris": {"ios": "https://dc.lft.to/lastmile_qr_scan", "android": "https://dc.lft.to/lastmile_qr_scan"}, "is_reserved": 0}, {"lon": -77.04344133333333, "bike_id": "5810f7d8d969b9d74253a3a0d7c2439a", "lat": 38.908044, "fusion_lon": 0.0, "fusion_lat": 0.0, "type": "electric_scooter", "name": "5810f7d8d969b9d74253a3a0d7c2439a", "is_disabled": 0, "rental_uris": {"ios": "https://dc.lft.to/lastmile_qr_scan", "android": "https://dc.lft.to/lastmile_qr_scan"}, "is_reserved": 0}, {"lon": -77.03454933333333, "bike_id": "64ee518ee27c0fff47d1c3cd6ea3bd29", "lat": 38.90560966666666, "fusion_lon": 0.0, "fusion_lat": 0.0, "type": "electric_scooter", "name": "64ee518ee27c0fff47d1c3cd6ea3bd29", "is_disabled": 0, "rental_uris": {"ios": "https://dc.lft.to/lastmile_qr_scan", "android": "https://dc.lft.to/lastmile_qr_scan"}, "is_reserved": 0}, {"lon": -77.051127, "bike_id": "e10aae46094397c3bd23d1d51f9716a1", "lat": 38.92303, "fusion_lon": 0.0, "fusion_lat": 0.0, "type": "electric_scooter", "name": "e10aae46094397c3bd23d1d51f9716a1", "is_disabled": 0, "rental_uris": {"ios": "https://dc.lft.to/lastmile_qr_scan", "android": "https://dc.lft.to/lastmile_qr_scan"}, "is_reserved": 0}, {"lon": -77.05485866666666, "bike_id": "84a082d02d5e6759aef4a47adbbe228e", "lat": 38.8979605, "fusion_lon": 0.0, "fusion_lat": 0.0, "type": "electric_scooter", "name": "84a082d02d5e6759aef4a47adbbe228e", "is_disabled": 0, "rental_uris": {"ios": "https://dc.lft.to/lastmile_qr_scan", "android": "https://dc.lft.to/lastmile_qr_scan"}, "is_reserved": 0}, {"lon": -77.00648416666667, "bike_id": "a552fb6636ba91629ad75d82f016bff9", "lat": 38.880722166666665, "fusion_lon": 0.0, "fusion_lat": 0.0, "type": "electric_scooter", "name": "a552fb6636ba91629ad75d82f016bff9", "is_disabled": 0, "rental_uris": {"ios": "https://dc.lft.to/lastmile_qr_scan", "android": "https://dc.lft.to/lastmile_qr_scan"}, "is_reserved": 0}, {"lon": -77.02610433333334, "bike_id": "b099cfed65e609517a34a140d93be41e", "lat": 38.92990733333333, "fusion_lon": 0.0, "fusion_lat": 0.0, "type": "electric_scooter", "name": "b099cfed65e609517a34a140d93be41e", "is_disabled": 0, "rental_uris": {"ios": "https://dc.lft.to/lastmile_qr_scan", "android": "https://dc.lft.to/lastmile_qr_scan"}, "is_reserved": 0}, {"lon": -77.03334933333333, "bike_id": "df14b9d81145d6697face2783eb4fb9b", "lat": 38.898473833333334, "fusion_lon": 0.0, "fusion_lat": 0.0, "type": "electric_scooter", "name": "df14b9d81145d6697face2783eb4fb9b", "is_disabled": 0, "rental_uris": {"ios": "https://dc.lft.to/lastmile_qr_scan", "android": "https://dc.lft.to/lastmile_qr_scan"}, "is_reserved": 0}, {"lon": -77.02191883333333, "bike_id": "3c11ad933df1816bbbd506a6c1e3ae11", "lat": 38.911328166666664, "fusion_lon": 0.0, "fusion_lat": 0.0, "type": "electric_scooter", "name": "3c11ad933df1816bbbd506a6c1e3ae11", "is_disabled": 0, "rental_uris": {"ios": "https://dc.lft.to/lastmile_qr_scan", "android": "https://dc.lft.to/lastmile_qr_scan"}, "is_reserved": 0}, {"lon": -77.027901, "bike_id": "edfb78520e7022a2c0d3d6852c18197d", "lat": 38.962161, "fusion_lon": 0.0, "fusion_lat": 0.0, "type": "electric_scooter", "name": "edfb78520e7022a2c0d3d6852c18197d", "is_disabled": 0, "rental_uris": {"ios": "https://dc.lft.to/lastmile_qr_scan", "android": "https://dc.lft.to/lastmile_qr_scan"}, "is_reserved": 0}, {"lon": -77.0741575, "bike_id": "fc42357db64ec52c157668e6b7647999", "lat": 38.92885583333333, "fusion_lon": 0.0, "fusion_lat": 0.0, "type": "electric_scooter", "name": "fc42357db64ec52c157668e6b7647999", "is_disabled": 0, "rental_uris": {"ios": "https://dc.lft.to/lastmile_qr_scan", "android": "https://dc.lft.to/lastmile_qr_scan"}, "is_reserved": 0}, {"lon": -77.02950916666667, "bike_id": "dea2b8fb7b54af373f8fe777b1573235", "lat": 38.9077715, "fusion_lon": 0.0, "fusion_lat": 0.0, "type": "electric_scooter", "name": "dea2b8fb7b54af373f8fe777b1573235", "is_disabled": 0, "rental_uris": {"ios": "https://dc.lft.to/lastmile_qr_scan", "android": "https://dc.lft.to/lastmile_qr_scan"}, "is_reserved": 0}, {"lon": -77.0029985, "bike_id": "65573c2c3f155b995b3aa83c16233a20", "lat": 38.9088095, "fusion_lon": 0.0, "fusion_lat": 0.0, "type": "electric_scooter", "name": "65573c2c3f155b995b3aa83c16233a20", "is_disabled": 0, "rental_uris": {"ios": "https://dc.lft.to/lastmile_qr_scan", "android": "https://dc.lft.to/lastmile_qr_scan"}, "is_reserved": 0}, {"lon": -77.028093, "bike_id": "a5f3d6cb7ae3e431486a3e7e8d32f849", "lat": 38.930780166666665, "fusion_lon": 0.0, "fusion_lat": 0.0, "type": "electric_scooter", "name": "a5f3d6cb7ae3e431486a3e7e8d32f849", "is_disabled": 0, "rental_uris": {"ios": "https://dc.lft.to/lastmile_qr_scan", "android": "https://dc.lft.to/lastmile_qr_scan"}, "is_reserved": 0}, {"lon": -77.01019016666666, "bike_id": "9a7bbcea1636707dc82917e5816bb4c8", "lat": 38.9085125, "fusion_lon": 0.0, "fusion_lat": 0.0, "type": "electric_scooter", "name": "9a7bbcea1636707dc82917e5816bb4c8", "is_disabled": 0, "rental_uris": {"ios": "https://dc.lft.to/lastmile_qr_scan", "android": "https://dc.lft.to/lastmile_qr_scan"}, "is_reserved": 0}, {"lon": -77.00199583333334, "bike_id": "1d3e3b8b557c70ba3435444c3b705a3f", "lat": 38.90024, "fusion_lon": 0.0, "fusion_lat": 0.0, "type": "electric_scooter", "name": "1d3e3b8b557c70ba3435444c3b705a3f", "is_disabled": 0, "rental_uris": {"ios": "https://dc.lft.to/lastmile_qr_scan", "android": "https://dc.lft.to/lastmile_qr_scan"}, "is_reserved": 0}, {"lon": -77.039402, "bike_id": "6d74d36e8f9bfb42e6db10ca30075b69", "lat": 38.91570166666666, "fusion_lon": 0.0, "fusion_lat": 0.0, "type": "electric_scooter", "name": "6d74d36e8f9bfb42e6db10ca30075b69", "is_disabled": 0, "rental_uris": {"ios": "https://dc.lft.to/lastmile_qr_scan", "android": "https://dc.lft.to/lastmile_qr_scan"}, "is_reserved": 0}, {"lon": -77.03832616666666, "bike_id": "b8ca2290adabf9da8ae9d4aa88dddd5e", "lat": 38.911069166666664, "fusion_lon": 0.0, "fusion_lat": 0.0, "type": "electric_bike", "name": "b8ca2290adabf9da8ae9d4aa88dddd5e", "is_disabled": 0, "rental_uris": {"ios": "https://dc.lft.to/lastmile_qr_scan", "android": "https://dc.lft.to/lastmile_qr_scan"}, "is_reserved": 0}, {"lon": -77.02263366666666, "bike_id": "ac6050cd24899d989393a3b15c5dee00", "lat": 38.92740366666666, "fusion_lon": 0.0, "fusion_lat": 0.0, "type": "electric_scooter", "name": "ac6050cd24899d989393a3b15c5dee00", "is_disabled": 0, "rental_uris": {"ios": "https://dc.lft.to/lastmile_qr_scan", "android": "https://dc.lft.to/lastmile_qr_scan"}, "is_reserved": 0}, {"lon": -76.98064333333333, "bike_id": "36a8ae4ccfec6f9ddbf626ddcb2a9473", "lat": 38.88494266666667, "fusion_lon": 0.0, "fusion_lat": 0.0, "type": "electric_scooter", "name": "36a8ae4ccfec6f9ddbf626ddcb2a9473", "is_disabled": 0, "rental_uris": {"ios": "https://dc.lft.to/lastmile_qr_scan", "android": "https://dc.lft.to/lastmile_qr_scan"}, "is_reserved": 0}, {"lon": -77.02611733333333, "bike_id": "9ad258cbe5ac0df543fc1b87af3e16d0", "lat": 38.91689083333333, "fusion_lon": 0.0, "fusion_lat": 0.0, "type": "electric_scooter", "name": "9ad258cbe5ac0df543fc1b87af3e16d0", "is_disabled": 0, "rental_uris": {"ios": "https://dc.lft.to/lastmile_qr_scan", "android": "https://dc.lft.to/lastmile_qr_scan"}, "is_reserved": 0}, {"lon": -76.97396566666667, "bike_id": "5b030c34e432137f7eb888355e5f4b99", "lat": 38.902950833333335, "fusion_lon": 0.0, "fusion_lat": 0.0, "type": "electric_scooter", "name": "5b030c34e432137f7eb888355e5f4b99", "is_disabled": 0, "rental_uris": {"ios": "https://dc.lft.to/lastmile_qr_scan", "android": "https://dc.lft.to/lastmile_qr_scan"}, "is_reserved": 0}, {"lon": -77.0880835, "bike_id": "331d149144acc0062f277d23c31c0fd6", "lat": 38.911753166666664, "fusion_lon": 0.0, "fusion_lat": 0.0, "type": "electric_scooter", "name": "331d149144acc0062f277d23c31c0fd6", "is_disabled": 0, "rental_uris": {"ios": "https://dc.lft.to/lastmile_qr_scan", "android": "https://dc.lft.to/lastmile_qr_scan"}, "is_reserved": 0}, {"lon": -77.03035833333334, "bike_id": "0e2d4f52fa9954677e34017a91eeb6d1", "lat": 38.93712883333333, "fusion_lon": 0.0, "fusion_lat": 0.0, "type": "electric_scooter", "name": "0e2d4f52fa9954677e34017a91eeb6d1", "is_disabled": 0, "rental_uris": {"ios": "https://dc.lft.to/lastmile_qr_scan", "android": "https://dc.lft.to/lastmile_qr_scan"}, "is_reserved": 0}, {"lon": -77.0282095, "bike_id": "fa1f83244fc93096e1036dd3b2cbbd81", "lat": 38.902449833333336, "fusion_lon": 0.0, "fusion_lat": 0.0, "type": "electric_scooter", "name": "fa1f83244fc93096e1036dd3b2cbbd81", "is_disabled": 0, "rental_uris": {"ios": "https://dc.lft.to/lastmile_qr_scan", "android": "https://dc.lft.to/lastmile_qr_scan"}, "is_reserved": 0}, {"lon": -77.09044566666667, "bike_id": "dcb662163920e387cb6079df74e15857", "lat": 38.84969433333333, "fusion_lon": 0.0, "fusion_lat": 0.0, "type": "electric_bike", "name": "dcb662163920e387cb6079df74e15857", "is_disabled": 0, "rental_uris": {"ios": "https://dc.lft.to/lastmile_qr_scan", "android": "https://dc.lft.to/lastmile_qr_scan"}, "is_reserved": 0}, {"lon": -76.94594183333334, "bike_id": "10d5766ff0ce356550b6add9052f2d7d", "lat": 38.90150116666667, "fusion_lon": 0.0, "fusion_lat": 0.0, "type": "electric_scooter", "name": "10d5766ff0ce356550b6add9052f2d7d", "is_disabled": 0, "rental_uris": {"ios": "https://dc.lft.to/lastmile_qr_scan", "android": "https://dc.lft.to/lastmile_qr_scan"}, "is_reserved": 0}, {"lon": -76.98923633333334, "bike_id": "89450506d22461d929653707f7201ad5", "lat": 38.8648845, "fusion_lon": 0.0, "fusion_lat": 0.0, "type": "electric_scooter", "name": "89450506d22461d929653707f7201ad5", "is_disabled": 0, "rental_uris": {"ios": "https://dc.lft.to/lastmile_qr_scan", "android": "https://dc.lft.to/lastmile_qr_scan"}, "is_reserved": 0}, {"lon": -77.016387, "bike_id": "1891f9040b46ab8206c9860a4e3a969c", "lat": 38.9037615, "fusion_lon": 0.0, "fusion_lat": 0.0, "type": "electric_scooter", "name": "1891f9040b46ab8206c9860a4e3a969c", "is_disabled": 0, "rental_uris": {"ios": "https://dc.lft.to/lastmile_qr_scan", "android": "https://dc.lft.to/lastmile_qr_scan"}, "is_reserved": 0}, {"lon": -77.040014, "bike_id": "c9d50aa2dc70658b69ad76479273dd9f", "lat": 38.934306666666664, "fusion_lon": 0.0, "fusion_lat": 0.0, "type": "electric_scooter", "name": "c9d50aa2dc70658b69ad76479273dd9f", "is_disabled": 0, "rental_uris": {"ios": "https://dc.lft.to/lastmile_qr_scan", "android": "https://dc.lft.to/lastmile_qr_scan"}, "is_reserved": 0}, {"lon": -77.02449883333334, "bike_id": "9d22b0ae99c9babd51e2b332182a5fee", "lat": 38.93709166666667, "fusion_lon": 0.0, "fusion_lat": 0.0, "type": "electric_scooter", "name": "9d22b0ae99c9babd51e2b332182a5fee", "is_disabled": 0, "rental_uris": {"ios": "https://dc.lft.to/lastmile_qr_scan", "android": "https://dc.lft.to/lastmile_qr_scan"}, "is_reserved": 0}, {"lon": -77.02480716666666, "bike_id": "8d8d7e3c3beeedf0664853176b30e4a8", "lat": 38.919063333333334, "fusion_lon": 0.0, "fusion_lat": 0.0, "type": "electric_scooter", "name": "8d8d7e3c3beeedf0664853176b30e4a8", "is_disabled": 0, "rental_uris": {"ios": "https://dc.lft.to/lastmile_qr_scan", "android": "https://dc.lft.to/lastmile_qr_scan"}, "is_reserved": 0}, {"lon": -76.9373825, "bike_id": "4d878900393b666782830fe88d337538", "lat": 38.89013833333333, "fusion_lon": 0.0, "fusion_lat": 0.0, "type": "electric_scooter", "name": "4d878900393b666782830fe88d337538", "is_disabled": 0, "rental_uris": {"ios": "https://dc.lft.to/lastmile_qr_scan", "android": "https://dc.lft.to/lastmile_qr_scan"}, "is_reserved": 0}, {"lon": -77.0299, "bike_id": "d4dfd659b158b511ce83c30f625f4028", "lat": 38.92466916666667, "fusion_lon": 0.0, "fusion_lat": 0.0, "type": "electric_scooter", "name": "d4dfd659b158b511ce83c30f625f4028", "is_disabled": 0, "rental_uris": {"ios": "https://dc.lft.to/lastmile_qr_scan", "android": "https://dc.lft.to/lastmile_qr_scan"}, "is_reserved": 0}, {"lon": -76.93129516666667, "bike_id": "717a8719cbc4e247b8c05341cff51b9c", "lat": 38.876095666666664, "fusion_lon": 0.0, "fusion_lat": 0.0, "type": "electric_scooter", "name": "717a8719cbc4e247b8c05341cff51b9c", "is_disabled": 0, "rental_uris": {"ios": "https://dc.lft.to/lastmile_qr_scan", "android": "https://dc.lft.to/lastmile_qr_scan"}, "is_reserved": 0}, {"lon": -77.0543285, "bike_id": "2f6648b52698ecb4209888297c23fcc6", "lat": 38.92861966666667, "fusion_lon": 0.0, "fusion_lat": 0.0, "type": "electric_scooter", "name": "2f6648b52698ecb4209888297c23fcc6", "is_disabled": 0, "rental_uris": {"ios": "https://dc.lft.to/lastmile_qr_scan", "android": "https://dc.lft.to/lastmile_qr_scan"}, "is_reserved": 0}, {"lon": -77.03158266666667, "bike_id": "5516d4f5664390649aa6bb1bf1815577", "lat": 38.89215816666667, "fusion_lon": 0.0, "fusion_lat": 0.0, "type": "electric_scooter", "name": "5516d4f5664390649aa6bb1bf1815577", "is_disabled": 0, "rental_uris": {"ios": "https://dc.lft.to/lastmile_qr_scan", "android": "https://dc.lft.to/lastmile_qr_scan"}, "is_reserved": 0}, {"lon": -77.02400933333334, "bike_id": "44372040bb8db5319aff6b884653ab7a", "lat": 38.936992333333336, "fusion_lon": 0.0, "fusion_lat": 0.0, "type": "electric_scooter", "name": "44372040bb8db5319aff6b884653ab7a", "is_disabled": 0, "rental_uris": {"ios": "https://dc.lft.to/lastmile_qr_scan", "android": "https://dc.lft.to/lastmile_qr_scan"}, "is_reserved": 0}, {"lon": -77.031924, "bike_id": "0bd981c6f4b8fe6b6b61c975f3c63cb1", "lat": 38.913275666666664, "fusion_lon": 0.0, "fusion_lat": 0.0, "type": "electric_scooter", "name": "0bd981c6f4b8fe6b6b61c975f3c63cb1", "is_disabled": 0, "rental_uris": {"ios": "https://dc.lft.to/lastmile_qr_scan", "android": "https://dc.lft.to/lastmile_qr_scan"}, "is_reserved": 0}, {"lon": -77.016446, "bike_id": "817d794e8b0b7f40a5860280f07b1bf0", "lat": 38.929034, "fusion_lon": 0.0, "fusion_lat": 0.0, "type": "electric_scooter", "name": "817d794e8b0b7f40a5860280f07b1bf0", "is_disabled": 0, "rental_uris": {"ios": "https://dc.lft.to/lastmile_qr_scan", "android": "https://dc.lft.to/lastmile_qr_scan"}, "is_reserved": 0}, {"lon": -77.04900433333333, "bike_id": "f2fc804b24910a8c9a5061f53488b099", "lat": 38.90348783333334, "fusion_lon": 0.0, "fusion_lat": 0.0, "type": "electric_scooter", "name": "f2fc804b24910a8c9a5061f53488b099", "is_disabled": 0, "rental_uris": {"ios": "https://dc.lft.to/lastmile_qr_scan", "android": "https://dc.lft.to/lastmile_qr_scan"}, "is_reserved": 0}, {"lon": -76.99545933333333, "bike_id": "5a1fe237f7376d4704c816e9afcd82fd", "lat": 38.8625125, "fusion_lon": 0.0, "fusion_lat": 0.0, "type": "electric_scooter", "name": "5a1fe237f7376d4704c816e9afcd82fd", "is_disabled": 0, "rental_uris": {"ios": "https://dc.lft.to/lastmile_qr_scan", "android": "https://dc.lft.to/lastmile_qr_scan"}, "is_reserved": 0}, {"lon": -76.99552116666666, "bike_id": "ec8f1ccfd7d8d46d8d067a72e4f1b0f6", "lat": 38.92666633333333, "fusion_lon": 0.0, "fusion_lat": 0.0, "type": "electric_scooter", "name": "ec8f1ccfd7d8d46d8d067a72e4f1b0f6", "is_disabled": 0, "rental_uris": {"ios": "https://dc.lft.to/lastmile_qr_scan", "android": "https://dc.lft.to/lastmile_qr_scan"}, "is_reserved": 0}, {"lon": -77.03853816666667, "bike_id": "cba3b2224fed7f8fb181fa845c40f63e", "lat": 38.931287, "fusion_lon": 0.0, "fusion_lat": 0.0, "type": "electric_scooter", "name": "cba3b2224fed7f8fb181fa845c40f63e", "is_disabled": 0, "rental_uris": {"ios": "https://dc.lft.to/lastmile_qr_scan", "android": "https://dc.lft.to/lastmile_qr_scan"}, "is_reserved": 0}, {"lon": -77.02619483333334, "bike_id": "8345e320592926c219f56354d89d5859", "lat": 38.8962245, "fusion_lon": 0.0, "fusion_lat": 0.0, "type": "electric_scooter", "name": "8345e320592926c219f56354d89d5859", "is_disabled": 0, "rental_uris": {"ios": "https://dc.lft.to/lastmile_qr_scan", "android": "https://dc.lft.to/lastmile_qr_scan"}, "is_reserved": 0}, {"lon": -77.02827083333334, "bike_id": "04355cf8441754a091770e91bcfe325c", "lat": 38.88730416666667, "fusion_lon": 0.0, "fusion_lat": 0.0, "type": "electric_scooter", "name": "04355cf8441754a091770e91bcfe325c", "is_disabled": 0, "rental_uris": {"ios": "https://dc.lft.to/lastmile_qr_scan", "android": "https://dc.lft.to/lastmile_qr_scan"}, "is_reserved": 0}, {"lon": -77.02204583333334, "bike_id": "39ad65a718446f39e7a3a2d0f8b47ed7", "lat": 38.91297433333333, "fusion_lon": 0.0, "fusion_lat": 0.0, "type": "electric_scooter", "name": "39ad65a718446f39e7a3a2d0f8b47ed7", "is_disabled": 0, "rental_uris": {"ios": "https://dc.lft.to/lastmile_qr_scan", "android": "https://dc.lft.to/lastmile_qr_scan"}, "is_reserved": 0}, {"lon": -77.0246775, "bike_id": "b67d0cd180e5d3dd19273bdf40ed2d25", "lat": 38.93881, "fusion_lon": 0.0, "fusion_lat": 0.0, "type": "electric_scooter", "name": "b67d0cd180e5d3dd19273bdf40ed2d25", "is_disabled": 0, "rental_uris": {"ios": "https://dc.lft.to/lastmile_qr_scan", "android": "https://dc.lft.to/lastmile_qr_scan"}, "is_reserved": 0}, {"lon": -77.0464925, "bike_id": "53632c4486daf822d551a7d9e4b832cf", "lat": 38.909704833333336, "fusion_lon": 0.0, "fusion_lat": 0.0, "type": "electric_scooter", "name": "53632c4486daf822d551a7d9e4b832cf", "is_disabled": 0, "rental_uris": {"ios": "https://dc.lft.to/lastmile_qr_scan", "android": "https://dc.lft.to/lastmile_qr_scan"}, "is_reserved": 0}, {"lon": -77.026139, "bike_id": "2dbc9f7b7b874c0af4f54945fc7261da", "lat": 38.900218333333335, "fusion_lon": 0.0, "fusion_lat": 0.0, "type": "electric_scooter", "name": "2dbc9f7b7b874c0af4f54945fc7261da", "is_disabled": 0, "rental_uris": {"ios": "https://dc.lft.to/lastmile_qr_scan", "android": "https://dc.lft.to/lastmile_qr_scan"}, "is_reserved": 0}, {"lon": -76.937378, "bike_id": "b4fb29f4543cbc23cfecec7925054216", "lat": 38.89009266666667, "fusion_lon": 0.0, "fusion_lat": 0.0, "type": "electric_scooter", "name": "b4fb29f4543cbc23cfecec7925054216", "is_disabled": 0, "rental_uris": {"ios": "https://dc.lft.to/lastmile_qr_scan", "android": "https://dc.lft.to/lastmile_qr_scan"}, "is_reserved": 0}, {"lon": -76.99498966666667, "bike_id": "e8169284d4f2bf9f77f4e3f504665a01", "lat": 38.92269966666667, "fusion_lon": 0.0, "fusion_lat": 0.0, "type": "electric_scooter", "name": "e8169284d4f2bf9f77f4e3f504665a01", "is_disabled": 0, "rental_uris": {"ios": "https://dc.lft.to/lastmile_qr_scan", "android": "https://dc.lft.to/lastmile_qr_scan"}, "is_reserved": 0}, {"lon": -77.06472366666667, "bike_id": "4b8f7c746d92ca20f165b223dd123a07", "lat": 38.94650333333333, "fusion_lon": 0.0, "fusion_lat": 0.0, "type": "electric_scooter", "name": "4b8f7c746d92ca20f165b223dd123a07", "is_disabled": 0, "rental_uris": {"ios": "https://dc.lft.to/lastmile_qr_scan", "android": "https://dc.lft.to/lastmile_qr_scan"}, "is_reserved": 0}, {"lon": -76.97599516666666, "bike_id": "c68e2f99a37462bb62525062830c5201", "lat": 38.90569283333333, "fusion_lon": 0.0, "fusion_lat": 0.0, "type": "electric_scooter", "name": "c68e2f99a37462bb62525062830c5201", "is_disabled": 0, "rental_uris": {"ios": "https://dc.lft.to/lastmile_qr_scan", "android": "https://dc.lft.to/lastmile_qr_scan"}, "is_reserved": 0}, {"lon": -77.0075315, "bike_id": "42f8e73f8604666cdedcdd30ec987707", "lat": 38.897208166666665, "fusion_lon": 0.0, "fusion_lat": 0.0, "type": "electric_scooter", "name": "42f8e73f8604666cdedcdd30ec987707", "is_disabled": 0, "rental_uris": {"ios": "https://dc.lft.to/lastmile_qr_scan", "android": "https://dc.lft.to/lastmile_qr_scan"}, "is_reserved": 0}, {"lon": -77.0010295, "bike_id": "2ee387bf3ff538f1b9212236501afc2e", "lat": 38.90008066666667, "fusion_lon": 0.0, "fusion_lat": 0.0, "type": "electric_scooter", "name": "2ee387bf3ff538f1b9212236501afc2e", "is_disabled": 0, "rental_uris": {"ios": "https://dc.lft.to/lastmile_qr_scan", "android": "https://dc.lft.to/lastmile_qr_scan"}, "is_reserved": 0}, {"lon": -77.02286083333334, "bike_id": "fc5c96a2bed12c2fa7bd31614b5abe97", "lat": 38.91663766666667, "fusion_lon": 0.0, "fusion_lat": 0.0, "type": "electric_scooter", "name": "fc5c96a2bed12c2fa7bd31614b5abe97", "is_disabled": 0, "rental_uris": {"ios": "https://dc.lft.to/lastmile_qr_scan", "android": "https://dc.lft.to/lastmile_qr_scan"}, "is_reserved": 0}, {"lon": -77.00527733333334, "bike_id": "86f53fe78bdf64568352ab1793e7e216", "lat": 38.92978133333333, "fusion_lon": 0.0, "fusion_lat": 0.0, "type": "electric_scooter", "name": "86f53fe78bdf64568352ab1793e7e216", "is_disabled": 0, "rental_uris": {"ios": "https://dc.lft.to/lastmile_qr_scan", "android": "https://dc.lft.to/lastmile_qr_scan"}, "is_reserved": 0}, {"lon": -77.00205866666667, "bike_id": "50d945e53a3f5590f9b08bcba748284c", "lat": 38.895381666666665, "fusion_lon": 0.0, "fusion_lat": 0.0, "type": "electric_scooter", "name": "50d945e53a3f5590f9b08bcba748284c", "is_disabled": 0, "rental_uris": {"ios": "https://dc.lft.to/lastmile_qr_scan", "android": "https://dc.lft.to/lastmile_qr_scan"}, "is_reserved": 0}, {"lon": -77.03437466666666, "bike_id": "f24ac2bc81b91c5ad8c4d4ba712a4da5", "lat": 38.9174585, "fusion_lon": 0.0, "fusion_lat": 0.0, "type": "electric_scooter", "name": "f24ac2bc81b91c5ad8c4d4ba712a4da5", "is_disabled": 0, "rental_uris": {"ios": "https://dc.lft.to/lastmile_qr_scan", "android": "https://dc.lft.to/lastmile_qr_scan"}, "is_reserved": 0}, {"lon": -77.05595583333333, "bike_id": "701993ded90d8b805aacce03f2ffd99a", "lat": 38.93146183333333, "fusion_lon": 0.0, "fusion_lat": 0.0, "type": "electric_scooter", "name": "701993ded90d8b805aacce03f2ffd99a", "is_disabled": 0, "rental_uris": {"ios": "https://dc.lft.to/lastmile_qr_scan", "android": "https://dc.lft.to/lastmile_qr_scan"}, "is_reserved": 0}, {"lon": -77.027717, "bike_id": "7f7de8a137eb00cb46c929e8b33da24a", "lat": 38.96566283333333, "fusion_lon": 0.0, "fusion_lat": 0.0, "type": "electric_bike", "name": "7f7de8a137eb00cb46c929e8b33da24a", "is_disabled": 0, "rental_uris": {"ios": "https://dc.lft.to/lastmile_qr_scan", "android": "https://dc.lft.to/lastmile_qr_scan"}, "is_reserved": 0}, {"lon": -76.98825, "bike_id": "f0e093a93c05e536f476608074d5bcf7", "lat": 38.890758166666664, "fusion_lon": 0.0, "fusion_lat": 0.0, "type": "electric_scooter", "name": "f0e093a93c05e536f476608074d5bcf7", "is_disabled": 0, "rental_uris": {"ios": "https://dc.lft.to/lastmile_qr_scan", "android": "https://dc.lft.to/lastmile_qr_scan"}, "is_reserved": 0}, {"lon": -76.96131633333333, "bike_id": "d8f7ea34acf6cd15df9e68c515382eaa", "lat": 38.94213283333333, "fusion_lon": 0.0, "fusion_lat": 0.0, "type": "electric_bike", "name": "d8f7ea34acf6cd15df9e68c515382eaa", "is_disabled": 0, "rental_uris": {"ios": "https://dc.lft.to/lastmile_qr_scan", "android": "https://dc.lft.to/lastmile_qr_scan"}, "is_reserved": 0}, {"lon": -77.03392383333333, "bike_id": "d37e0f742d1278dd40c9c3620f11de26", "lat": 38.90962416666667, "fusion_lon": 0.0, "fusion_lat": 0.0, "type": "electric_scooter", "name": "d37e0f742d1278dd40c9c3620f11de26", "is_disabled": 0, "rental_uris": {"ios": "https://dc.lft.to/lastmile_qr_scan", "android": "https://dc.lft.to/lastmile_qr_scan"}, "is_reserved": 0}, {"lon": -77.046531, "bike_id": "d781f0c0a76bf93f7e853b4f71040079", "lat": 39.054945833333335, "fusion_lon": 0.0, "fusion_lat": 0.0, "type": "electric_bike", "name": "d781f0c0a76bf93f7e853b4f71040079", "is_disabled": 0, "rental_uris": {"ios": "https://dc.lft.to/lastmile_qr_scan", "android": "https://dc.lft.to/lastmile_qr_scan"}, "is_reserved": 0}, {"lon": -77.03995616666667, "bike_id": "6585b7e24e63a6135b6d86f186f93f32", "lat": 38.9036425, "fusion_lon": 0.0, "fusion_lat": 0.0, "type": "electric_scooter", "name": "6585b7e24e63a6135b6d86f186f93f32", "is_disabled": 0, "rental_uris": {"ios": "https://dc.lft.to/lastmile_qr_scan", "android": "https://dc.lft.to/lastmile_qr_scan"}, "is_reserved": 0}, {"lon": -77.00473916666667, "bike_id": "9c1fdac7373af5b5877278f369d8582d", "lat": 38.8958265, "fusion_lon": 0.0, "fusion_lat": 0.0, "type": "electric_scooter", "name": "9c1fdac7373af5b5877278f369d8582d", "is_disabled": 0, "rental_uris": {"ios": "https://dc.lft.to/lastmile_qr_scan", "android": "https://dc.lft.to/lastmile_qr_scan"}, "is_reserved": 0}, {"lon": -77.017821, "bike_id": "b0a5a7c0b3c6924be46e024fbd36fef4", "lat": 38.901414, "fusion_lon": 0.0, "fusion_lat": 0.0, "type": "electric_scooter", "name": "b0a5a7c0b3c6924be46e024fbd36fef4", "is_disabled": 0, "rental_uris": {"ios": "https://dc.lft.to/lastmile_qr_scan", "android": "https://dc.lft.to/lastmile_qr_scan"}, "is_reserved": 0}, {"lon": -77.12738166666666, "bike_id": "6fa63317f0a4afbfda29436748aec267", "lat": 38.895582833333336, "fusion_lon": 0.0, "fusion_lat": 0.0, "type": "electric_bike", "name": "6fa63317f0a4afbfda29436748aec267", "is_disabled": 0, "rental_uris": {"ios": "https://dc.lft.to/lastmile_qr_scan", "android": "https://dc.lft.to/lastmile_qr_scan"}, "is_reserved": 0}, {"lon": -76.95662366666667, "bike_id": "11a6c7f97d3c3905a13154de2ee06b69", "lat": 38.896247833333334, "fusion_lon": 0.0, "fusion_lat": 0.0, "type": "electric_scooter", "name": "11a6c7f97d3c3905a13154de2ee06b69", "is_disabled": 0, "rental_uris": {"ios": "https://dc.lft.to/lastmile_qr_scan", "android": "https://dc.lft.to/lastmile_qr_scan"}, "is_reserved": 0}, {"lon": -76.88400466666667, "bike_id": "e15b4e4c9cf8262c6b287bbd5e1f1220", "lat": 38.93169066666667, "fusion_lon": 0.0, "fusion_lat": 0.0, "type": "electric_bike", "name": "e15b4e4c9cf8262c6b287bbd5e1f1220", "is_disabled": 0, "rental_uris": {"ios": "https://dc.lft.to/lastmile_qr_scan", "android": "https://dc.lft.to/lastmile_qr_scan"}, "is_reserved": 0}, {"lon": -77.018107, "bike_id": "f9424b9096c6c3de425a087b4f332462", "lat": 38.96483116666667, "fusion_lon": 0.0, "fusion_lat": 0.0, "type": "electric_scooter", "name": "f9424b9096c6c3de425a087b4f332462", "is_disabled": 0, "rental_uris": {"ios": "https://dc.lft.to/lastmile_qr_scan", "android": "https://dc.lft.to/lastmile_qr_scan"}, "is_reserved": 0}, {"lon": -77.03884916666667, "bike_id": "4dac891cd71c6a272954f65d9e419c96", "lat": 38.948691, "fusion_lon": 0.0, "fusion_lat": 0.0, "type": "electric_scooter", "name": "4dac891cd71c6a272954f65d9e419c96", "is_disabled": 0, "rental_uris": {"ios": "https://dc.lft.to/lastmile_qr_scan", "android": "https://dc.lft.to/lastmile_qr_scan"}, "is_reserved": 0}, {"lon": -77.057417, "bike_id": "0ef3908458dea8240fa8a47e611b313f", "lat": 38.9338975, "fusion_lon": 0.0, "fusion_lat": 0.0, "type": "electric_scooter", "name": "0ef3908458dea8240fa8a47e611b313f", "is_disabled": 0, "rental_uris": {"ios": "https://dc.lft.to/lastmile_qr_scan", "android": "https://dc.lft.to/lastmile_qr_scan"}, "is_reserved": 0}, {"lon": -77.02604016666666, "bike_id": "80b7bd3685e2d05a0e28bb36b5eb1fad", "lat": 38.902428, "fusion_lon": 0.0, "fusion_lat": 0.0, "type": "electric_scooter", "name": "80b7bd3685e2d05a0e28bb36b5eb1fad", "is_disabled": 0, "rental_uris": {"ios": "https://dc.lft.to/lastmile_qr_scan", "android": "https://dc.lft.to/lastmile_qr_scan"}, "is_reserved": 0}, {"lon": -77.00205683333333, "bike_id": "86a10e99b7afe6e7748d8c0ed181550e", "lat": 38.90023333333333, "fusion_lon": 0.0, "fusion_lat": 0.0, "type": "electric_scooter", "name": "86a10e99b7afe6e7748d8c0ed181550e", "is_disabled": 0, "rental_uris": {"ios": "https://dc.lft.to/lastmile_qr_scan", "android": "https://dc.lft.to/lastmile_qr_scan"}, "is_reserved": 0}, {"lon": -77.1784195, "bike_id": "92fb96206b6c8c34ee8c04b15d40bde4", "lat": 39.08851216666667, "fusion_lon": 0.0, "fusion_lat": 0.0, "type": "electric_bike", "name": "92fb96206b6c8c34ee8c04b15d40bde4", "is_disabled": 0, "rental_uris": {"ios": "https://dc.lft.to/lastmile_qr_scan", "android": "https://dc.lft.to/lastmile_qr_scan"}, "is_reserved": 0}, {"lon": -77.05941883333334, "bike_id": "870a7754af8014bbe2e9c6034baa3d6f", "lat": 38.9118685, "fusion_lon": 0.0, "fusion_lat": 0.0, "type": "electric_bike", "name": "870a7754af8014bbe2e9c6034baa3d6f", "is_disabled": 0, "rental_uris": {"ios": "https://dc.lft.to/lastmile_qr_scan", "android": "https://dc.lft.to/lastmile_qr_scan"}, "is_reserved": 0}, {"lon": -77.07348083333333, "bike_id": "a4640742374100f56564d8128af05213", "lat": 38.9347835, "fusion_lon": 0.0, "fusion_lat": 0.0, "type": "electric_scooter", "name": "a4640742374100f56564d8128af05213", "is_disabled": 0, "rental_uris": {"ios": "https://dc.lft.to/lastmile_qr_scan", "android": "https://dc.lft.to/lastmile_qr_scan"}, "is_reserved": 0}, {"lon": -77.02218316666666, "bike_id": "95a3b89d9cf535aeb12ecbb0d6737cf7", "lat": 38.87895733333333, "fusion_lon": 0.0, "fusion_lat": 0.0, "type": "electric_bike", "name": "95a3b89d9cf535aeb12ecbb0d6737cf7", "is_disabled": 0, "rental_uris": {"ios": "https://dc.lft.to/lastmile_qr_scan", "android": "https://dc.lft.to/lastmile_qr_scan"}, "is_reserved": 0}, {"lon": -76.99173016666667, "bike_id": "f859441d8a198e27e9be60a37f49b5fd", "lat": 38.909632, "fusion_lon": 0.0, "fusion_lat": 0.0, "type": "electric_scooter", "name": "f859441d8a198e27e9be60a37f49b5fd", "is_disabled": 0, "rental_uris": {"ios": "https://dc.lft.to/lastmile_qr_scan", "android": "https://dc.lft.to/lastmile_qr_scan"}, "is_reserved": 0}, {"lon": -76.9565185, "bike_id": "9d8a95fe2ef63774934f584c858a515f", "lat": 38.89552716666667, "fusion_lon": 0.0, "fusion_lat": 0.0, "type": "electric_scooter", "name": "9d8a95fe2ef63774934f584c858a515f", "is_disabled": 0, "rental_uris": {"ios": "https://dc.lft.to/lastmile_qr_scan", "android": "https://dc.lft.to/lastmile_qr_scan"}, "is_reserved": 0}, {"lon": -77.03286316666667, "bike_id": "cbe071c1552f404f07b557d54aefab1a", "lat": 38.93642233333333, "fusion_lon": 0.0, "fusion_lat": 0.0, "type": "electric_scooter", "name": "cbe071c1552f404f07b557d54aefab1a", "is_disabled": 0, "rental_uris": {"ios": "https://dc.lft.to/lastmile_qr_scan", "android": "https://dc.lft.to/lastmile_qr_scan"}, "is_reserved": 0}, {"lon": -77.032992, "bike_id": "946cb73ece304ae60979786a98fac54a", "lat": 38.956515, "fusion_lon": 0.0, "fusion_lat": 0.0, "type": "electric_scooter", "name": "946cb73ece304ae60979786a98fac54a", "is_disabled": 0, "rental_uris": {"ios": "https://dc.lft.to/lastmile_qr_scan", "android": "https://dc.lft.to/lastmile_qr_scan"}, "is_reserved": 0}, {"lon": -76.9914725, "bike_id": "e3a269b97efcb83935113f89187fa8f9", "lat": 38.8820205, "fusion_lon": 0.0, "fusion_lat": 0.0, "type": "electric_scooter", "name": "e3a269b97efcb83935113f89187fa8f9", "is_disabled": 0, "rental_uris": {"ios": "https://dc.lft.to/lastmile_qr_scan", "android": "https://dc.lft.to/lastmile_qr_scan"}, "is_reserved": 0}, {"lon": -77.00970183333334, "bike_id": "280bcd8eb288e330b956b3ad95e5459b", "lat": 38.90791183333333, "fusion_lon": 0.0, "fusion_lat": 0.0, "type": "electric_scooter", "name": "280bcd8eb288e330b956b3ad95e5459b", "is_disabled": 0, "rental_uris": {"ios": "https://dc.lft.to/lastmile_qr_scan", "android": "https://dc.lft.to/lastmile_qr_scan"}, "is_reserved": 0}, {"lon": -77.03329783333334, "bike_id": "fd00c0546b3a4b5ea2ee22e52f6d0cc6", "lat": 38.91705066666667, "fusion_lon": 0.0, "fusion_lat": 0.0, "type": "electric_scooter", "name": "fd00c0546b3a4b5ea2ee22e52f6d0cc6", "is_disabled": 0, "rental_uris": {"ios": "https://dc.lft.to/lastmile_qr_scan", "android": "https://dc.lft.to/lastmile_qr_scan"}, "is_reserved": 0}, {"lon": -77.00937166666667, "bike_id": "4a2b1df94ec3257ec6335e6b3f5d8c50", "lat": 38.8831195, "fusion_lon": 0.0, "fusion_lat": 0.0, "type": "electric_scooter", "name": "4a2b1df94ec3257ec6335e6b3f5d8c50", "is_disabled": 0, "rental_uris": {"ios": "https://dc.lft.to/lastmile_qr_scan", "android": "https://dc.lft.to/lastmile_qr_scan"}, "is_reserved": 0}, {"lon": -77.03762083333334, "bike_id": "2d61ccffbc25290b48e2031c69c39f52", "lat": 38.92013033333333, "fusion_lon": 0.0, "fusion_lat": 0.0, "type": "electric_scooter", "name": "2d61ccffbc25290b48e2031c69c39f52", "is_disabled": 0, "rental_uris": {"ios": "https://dc.lft.to/lastmile_qr_scan", "android": "https://dc.lft.to/lastmile_qr_scan"}, "is_reserved": 0}, {"lon": -77.0247445, "bike_id": "96d76a5520107174b7c2dea43492eb5a", "lat": 38.90404733333333, "fusion_lon": 0.0, "fusion_lat": 0.0, "type": "electric_scooter", "name": "96d76a5520107174b7c2dea43492eb5a", "is_disabled": 0, "rental_uris": {"ios": "https://dc.lft.to/lastmile_qr_scan", "android": "https://dc.lft.to/lastmile_qr_scan"}, "is_reserved": 0}, {"lon": -77.038647, "bike_id": "7699f9c76381df4b5a70eb2e4b3841bb", "lat": 38.90761766666667, "fusion_lon": 0.0, "fusion_lat": 0.0, "type": "electric_scooter", "name": "7699f9c76381df4b5a70eb2e4b3841bb", "is_disabled": 0, "rental_uris": {"ios": "https://dc.lft.to/lastmile_qr_scan", "android": "https://dc.lft.to/lastmile_qr_scan"}, "is_reserved": 0}, {"lon": -77.04112433333333, "bike_id": "0c207aa0c0ed1b39fc2fe92a2492bb4f", "lat": 38.9279685, "fusion_lon": 0.0, "fusion_lat": 0.0, "type": "electric_scooter", "name": "0c207aa0c0ed1b39fc2fe92a2492bb4f", "is_disabled": 0, "rental_uris": {"ios": "https://dc.lft.to/lastmile_qr_scan", "android": "https://dc.lft.to/lastmile_qr_scan"}, "is_reserved": 0}, {"lon": -77.00716233333333, "bike_id": "07ae00b411c3e8f8b026cdd1dd1838db", "lat": 38.8334175, "fusion_lon": 0.0, "fusion_lat": 0.0, "type": "electric_bike", "name": "07ae00b411c3e8f8b026cdd1dd1838db", "is_disabled": 0, "rental_uris": {"ios": "https://dc.lft.to/lastmile_qr_scan", "android": "https://dc.lft.to/lastmile_qr_scan"}, "is_reserved": 0}, {"lon": -76.981512, "bike_id": "278225027f47dd7d4ee96a88578067f6", "lat": 38.90316883333333, "fusion_lon": 0.0, "fusion_lat": 0.0, "type": "electric_scooter", "name": "278225027f47dd7d4ee96a88578067f6", "is_disabled": 0, "rental_uris": {"ios": "https://dc.lft.to/lastmile_qr_scan", "android": "https://dc.lft.to/lastmile_qr_scan"}, "is_reserved": 0}, {"lon": -77.04351683333333, "bike_id": "8a79d7d6066169a101922294420dbe36", "lat": 38.90808083333334, "fusion_lon": 0.0, "fusion_lat": 0.0, "type": "electric_scooter", "name": "8a79d7d6066169a101922294420dbe36", "is_disabled": 0, "rental_uris": {"ios": "https://dc.lft.to/lastmile_qr_scan", "android": "https://dc.lft.to/lastmile_qr_scan"}, "is_reserved": 0}, {"lon": -77.04351016666666, "bike_id": "2d88ed74e1899619548233cf7f1e92b5", "lat": 38.903987, "fusion_lon": 0.0, "fusion_lat": 0.0, "type": "electric_scooter", "name": "2d88ed74e1899619548233cf7f1e92b5", "is_disabled": 0, "rental_uris": {"ios": "https://dc.lft.to/lastmile_qr_scan", "android": "https://dc.lft.to/lastmile_qr_scan"}, "is_reserved": 0}, {"lon": -77.03023683333333, "bike_id": "db942c265a2eb213b1ca70473e7bd8f5", "lat": 38.883910166666666, "fusion_lon": 0.0, "fusion_lat": 0.0, "type": "electric_scooter", "name": "db942c265a2eb213b1ca70473e7bd8f5", "is_disabled": 0, "rental_uris": {"ios": "https://dc.lft.to/lastmile_qr_scan", "android": "https://dc.lft.to/lastmile_qr_scan"}, "is_reserved": 0}, {"lon": -76.99855183333334, "bike_id": "c57e1cbe348c29862c34c0c5725ea6e3", "lat": 38.8907905, "fusion_lon": 0.0, "fusion_lat": 0.0, "type": "electric_scooter", "name": "c57e1cbe348c29862c34c0c5725ea6e3", "is_disabled": 0, "rental_uris": {"ios": "https://dc.lft.to/lastmile_qr_scan", "android": "https://dc.lft.to/lastmile_qr_scan"}, "is_reserved": 0}, {"lon": -76.98799866666667, "bike_id": "80b05c2ed37aea039f4059479bf6393b", "lat": 38.867290833333335, "fusion_lon": 0.0, "fusion_lat": 0.0, "type": "electric_scooter", "name": "80b05c2ed37aea039f4059479bf6393b", "is_disabled": 0, "rental_uris": {"ios": "https://dc.lft.to/lastmile_qr_scan", "android": "https://dc.lft.to/lastmile_qr_scan"}, "is_reserved": 0}, {"lon": -77.03083583333333, "bike_id": "ae2cdab119a26c0dffd3446204967d57", "lat": 38.927156, "fusion_lon": 0.0, "fusion_lat": 0.0, "type": "electric_scooter", "name": "ae2cdab119a26c0dffd3446204967d57", "is_disabled": 0, "rental_uris": {"ios": "https://dc.lft.to/lastmile_qr_scan", "android": "https://dc.lft.to/lastmile_qr_scan"}, "is_reserved": 0}, {"lon": -77.0020225, "bike_id": "a9a3341f4af9ae53e19ea9b9099012cc", "lat": 38.902401833333336, "fusion_lon": 0.0, "fusion_lat": 0.0, "type": "electric_scooter", "name": "a9a3341f4af9ae53e19ea9b9099012cc", "is_disabled": 0, "rental_uris": {"ios": "https://dc.lft.to/lastmile_qr_scan", "android": "https://dc.lft.to/lastmile_qr_scan"}, "is_reserved": 0}, {"lon": -77.04862416666667, "bike_id": "1ddceaed745317f4658758008074ffca", "lat": 38.8922215, "fusion_lon": 0.0, "fusion_lat": 0.0, "type": "electric_scooter", "name": "1ddceaed745317f4658758008074ffca", "is_disabled": 0, "rental_uris": {"ios": "https://dc.lft.to/lastmile_qr_scan", "android": "https://dc.lft.to/lastmile_qr_scan"}, "is_reserved": 0}, {"lon": -77.03260733333333, "bike_id": "cd3db279380d598e24c4c2261fb0fa12", "lat": 38.905866833333334, "fusion_lon": 0.0, "fusion_lat": 0.0, "type": "electric_scooter", "name": "cd3db279380d598e24c4c2261fb0fa12", "is_disabled": 0, "rental_uris": {"ios": "https://dc.lft.to/lastmile_qr_scan", "android": "https://dc.lft.to/lastmile_qr_scan"}, "is_reserved": 0}, {"lon": -77.022376, "bike_id": "7cdfc831a6b204e4389303df6c00378e", "lat": 38.91561466666667, "fusion_lon": 0.0, "fusion_lat": 0.0, "type": "electric_scooter", "name": "7cdfc831a6b204e4389303df6c00378e", "is_disabled": 0, "rental_uris": {"ios": "https://dc.lft.to/lastmile_qr_scan", "android": "https://dc.lft.to/lastmile_qr_scan"}, "is_reserved": 0}, {"lon": -77.07926516666667, "bike_id": "ce162247df67e6daa1ceeeac9401b7d3", "lat": 38.93086383333333, "fusion_lon": 0.0, "fusion_lat": 0.0, "type": "electric_scooter", "name": "ce162247df67e6daa1ceeeac9401b7d3", "is_disabled": 0, "rental_uris": {"ios": "https://dc.lft.to/lastmile_qr_scan", "android": "https://dc.lft.to/lastmile_qr_scan"}, "is_reserved": 0}, {"lon": -77.02499716666667, "bike_id": "6bf977ab395612d514e52df935f020a6", "lat": 38.94200983333333, "fusion_lon": 0.0, "fusion_lat": 0.0, "type": "electric_scooter", "name": "6bf977ab395612d514e52df935f020a6", "is_disabled": 0, "rental_uris": {"ios": "https://dc.lft.to/lastmile_qr_scan", "android": "https://dc.lft.to/lastmile_qr_scan"}, "is_reserved": 0}, {"lon": -77.03595766666666, "bike_id": "5dcddcc6865947f900ae6288713471aa", "lat": 38.939352, "fusion_lon": 0.0, "fusion_lat": 0.0, "type": "electric_scooter", "name": "5dcddcc6865947f900ae6288713471aa", "is_disabled": 0, "rental_uris": {"ios": "https://dc.lft.to/lastmile_qr_scan", "android": "https://dc.lft.to/lastmile_qr_scan"}, "is_reserved": 0}, {"lon": -76.99462166666666, "bike_id": "fc56743b171f0256c3a275eceaed85bc", "lat": 38.94066733333333, "fusion_lon": 0.0, "fusion_lat": 0.0, "type": "electric_scooter", "name": "fc56743b171f0256c3a275eceaed85bc", "is_disabled": 0, "rental_uris": {"ios": "https://dc.lft.to/lastmile_qr_scan", "android": "https://dc.lft.to/lastmile_qr_scan"}, "is_reserved": 0}, {"lon": -77.0295415, "bike_id": "1e5b1e5c995c694036e3ad93386d8592", "lat": 38.9046225, "fusion_lon": 0.0, "fusion_lat": 0.0, "type": "electric_scooter", "name": "1e5b1e5c995c694036e3ad93386d8592", "is_disabled": 0, "rental_uris": {"ios": "https://dc.lft.to/lastmile_qr_scan", "android": "https://dc.lft.to/lastmile_qr_scan"}, "is_reserved": 0}, {"lon": -76.97671583333333, "bike_id": "80dbd0c5f4c720387e5d6e7bc4b54451", "lat": 38.952443833333334, "fusion_lon": 0.0, "fusion_lat": 0.0, "type": "electric_bike", "name": "80dbd0c5f4c720387e5d6e7bc4b54451", "is_disabled": 0, "rental_uris": {"ios": "https://dc.lft.to/lastmile_qr_scan", "android": "https://dc.lft.to/lastmile_qr_scan"}, "is_reserved": 0}, {"lon": -77.023882, "bike_id": "12f6b993dd4ca4fdddde4d989e4902e7", "lat": 38.907307, "fusion_lon": 0.0, "fusion_lat": 0.0, "type": "electric_scooter", "name": "12f6b993dd4ca4fdddde4d989e4902e7", "is_disabled": 0, "rental_uris": {"ios": "https://dc.lft.to/lastmile_qr_scan", "android": "https://dc.lft.to/lastmile_qr_scan"}, "is_reserved": 0}, {"lon": -77.0417335, "bike_id": "aeffd65037193d2b92c55e93fbb69605", "lat": 38.9170215, "fusion_lon": 0.0, "fusion_lat": 0.0, "type": "electric_scooter", "name": "aeffd65037193d2b92c55e93fbb69605", "is_disabled": 0, "rental_uris": {"ios": "https://dc.lft.to/lastmile_qr_scan", "android": "https://dc.lft.to/lastmile_qr_scan"}, "is_reserved": 0}, {"lon": -77.07450833333333, "bike_id": "e8ca539a037692bc267eb4d884cc5544", "lat": 38.94503783333333, "fusion_lon": 0.0, "fusion_lat": 0.0, "type": "electric_scooter", "name": "e8ca539a037692bc267eb4d884cc5544", "is_disabled": 0, "rental_uris": {"ios": "https://dc.lft.to/lastmile_qr_scan", "android": "https://dc.lft.to/lastmile_qr_scan"}, "is_reserved": 0}, {"lon": -76.97629283333333, "bike_id": "cd8a85f2c57126c2a50deac0c031586f", "lat": 38.90566883333334, "fusion_lon": 0.0, "fusion_lat": 0.0, "type": "electric_scooter", "name": "cd8a85f2c57126c2a50deac0c031586f", "is_disabled": 0, "rental_uris": {"ios": "https://dc.lft.to/lastmile_qr_scan", "android": "https://dc.lft.to/lastmile_qr_scan"}, "is_reserved": 0}, {"lon": -77.03859616666666, "bike_id": "96c0bd5aa35cc189084be093da5e86ee", "lat": 38.901255166666665, "fusion_lon": 0.0, "fusion_lat": 0.0, "type": "electric_scooter", "name": "96c0bd5aa35cc189084be093da5e86ee", "is_disabled": 0, "rental_uris": {"ios": "https://dc.lft.to/lastmile_qr_scan", "android": "https://dc.lft.to/lastmile_qr_scan"}, "is_reserved": 0}, {"lon": -76.9986205, "bike_id": "822fefc74f4f15850680213bf96d5553", "lat": 38.90028066666667, "fusion_lon": 0.0, "fusion_lat": 0.0, "type": "electric_scooter", "name": "822fefc74f4f15850680213bf96d5553", "is_disabled": 0, "rental_uris": {"ios": "https://dc.lft.to/lastmile_qr_scan", "android": "https://dc.lft.to/lastmile_qr_scan"}, "is_reserved": 0}, {"lon": -77.03358216666666, "bike_id": "4b1863c840a580f5eaee0c4d4724a1a2", "lat": 38.886949, "fusion_lon": 0.0, "fusion_lat": 0.0, "type": "electric_scooter", "name": "4b1863c840a580f5eaee0c4d4724a1a2", "is_disabled": 0, "rental_uris": {"ios": "https://dc.lft.to/lastmile_qr_scan", "android": "https://dc.lft.to/lastmile_qr_scan"}, "is_reserved": 0}, {"lon": -77.07554966666666, "bike_id": "805fb4cb17df70c1a2d0c3cdc5216268", "lat": 38.894748166666666, "fusion_lon": 0.0, "fusion_lat": 0.0, "type": "electric_scooter", "name": "805fb4cb17df70c1a2d0c3cdc5216268", "is_disabled": 0, "rental_uris": {"ios": "https://dc.lft.to/lastmile_qr_scan", "android": "https://dc.lft.to/lastmile_qr_scan"}, "is_reserved": 0}, {"lon": -77.05911733333333, "bike_id": "6b9cce6e3d34d553eb580cbc4c51dda6", "lat": 38.90358333333333, "fusion_lon": 0.0, "fusion_lat": 0.0, "type": "electric_scooter", "name": "6b9cce6e3d34d553eb580cbc4c51dda6", "is_disabled": 0, "rental_uris": {"ios": "https://dc.lft.to/lastmile_qr_scan", "android": "https://dc.lft.to/lastmile_qr_scan"}, "is_reserved": 0}, {"lon": -77.04484583333333, "bike_id": "0e7b604a6a288b4f89cda224f0bfa49b", "lat": 38.892612666666665, "fusion_lon": 0.0, "fusion_lat": 0.0, "type": "electric_scooter", "name": "0e7b604a6a288b4f89cda224f0bfa49b", "is_disabled": 0, "rental_uris": {"ios": "https://dc.lft.to/lastmile_qr_scan", "android": "https://dc.lft.to/lastmile_qr_scan"}, "is_reserved": 0}, {"lon": -77.12532383333334, "bike_id": "7771776040db3d1fa7fb9ca14bb54629", "lat": 39.056321, "fusion_lon": 0.0, "fusion_lat": 0.0, "type": "electric_bike", "name": "7771776040db3d1fa7fb9ca14bb54629", "is_disabled": 0, "rental_uris": {"ios": "https://dc.lft.to/lastmile_qr_scan", "android": "https://dc.lft.to/lastmile_qr_scan"}, "is_reserved": 0}, {"lon": -77.025703, "bike_id": "a2cd5b52fc138a472388ff6198b74f29", "lat": 38.924545333333334, "fusion_lon": 0.0, "fusion_lat": 0.0, "type": "electric_scooter", "name": "a2cd5b52fc138a472388ff6198b74f29", "is_disabled": 0, "rental_uris": {"ios": "https://dc.lft.to/lastmile_qr_scan", "android": "https://dc.lft.to/lastmile_qr_scan"}, "is_reserved": 0}, {"lon": -77.00159483333333, "bike_id": "14c557bb1e68dc9339efa433014d5314", "lat": 38.8749335, "fusion_lon": 0.0, "fusion_lat": 0.0, "type": "electric_scooter", "name": "14c557bb1e68dc9339efa433014d5314", "is_disabled": 0, "rental_uris": {"ios": "https://dc.lft.to/lastmile_qr_scan", "android": "https://dc.lft.to/lastmile_qr_scan"}, "is_reserved": 0}, {"lon": -77.02407266666667, "bike_id": "c079f154672a906ce65e6572800d8450", "lat": 38.915218, "fusion_lon": 0.0, "fusion_lat": 0.0, "type": "electric_scooter", "name": "c079f154672a906ce65e6572800d8450", "is_disabled": 0, "rental_uris": {"ios": "https://dc.lft.to/lastmile_qr_scan", "android": "https://dc.lft.to/lastmile_qr_scan"}, "is_reserved": 0}, {"lon": -77.0362155, "bike_id": "28cb4587c2569ab7ed6e0e4933875217", "lat": 38.931580833333335, "fusion_lon": 0.0, "fusion_lat": 0.0, "type": "electric_scooter", "name": "28cb4587c2569ab7ed6e0e4933875217", "is_disabled": 0, "rental_uris": {"ios": "https://dc.lft.to/lastmile_qr_scan", "android": "https://dc.lft.to/lastmile_qr_scan"}, "is_reserved": 0}, {"lon": -76.98367816666666, "bike_id": "5deea39772bd0a8601f588a4f58955ec", "lat": 38.90881366666667, "fusion_lon": 0.0, "fusion_lat": 0.0, "type": "electric_scooter", "name": "5deea39772bd0a8601f588a4f58955ec", "is_disabled": 0, "rental_uris": {"ios": "https://dc.lft.to/lastmile_qr_scan", "android": "https://dc.lft.to/lastmile_qr_scan"}, "is_reserved": 0}, {"lon": -77.02279433333334, "bike_id": "3f8a3658277f2dcea72247f0607407b3", "lat": 38.9164795, "fusion_lon": 0.0, "fusion_lat": 0.0, "type": "electric_scooter", "name": "3f8a3658277f2dcea72247f0607407b3", "is_disabled": 0, "rental_uris": {"ios": "https://dc.lft.to/lastmile_qr_scan", "android": "https://dc.lft.to/lastmile_qr_scan"}, "is_reserved": 0}, {"lon": -77.011318, "bike_id": "e75b26bfbbeb70fb751d8ca66e0c7b61", "lat": 38.8948615, "fusion_lon": 0.0, "fusion_lat": 0.0, "type": "electric_scooter", "name": "e75b26bfbbeb70fb751d8ca66e0c7b61", "is_disabled": 0, "rental_uris": {"ios": "https://dc.lft.to/lastmile_qr_scan", "android": "https://dc.lft.to/lastmile_qr_scan"}, "is_reserved": 0}, {"lon": -76.98849483333333, "bike_id": "325a74184b32da4bde340cfbfc5be8e8", "lat": 38.901259, "fusion_lon": 0.0, "fusion_lat": 0.0, "type": "electric_scooter", "name": "325a74184b32da4bde340cfbfc5be8e8", "is_disabled": 0, "rental_uris": {"ios": "https://dc.lft.to/lastmile_qr_scan", "android": "https://dc.lft.to/lastmile_qr_scan"}, "is_reserved": 0}, {"lon": -77.02695866666667, "bike_id": "90d35f44dcacdce952f6ab5134c40baf", "lat": 38.906806833333334, "fusion_lon": 0.0, "fusion_lat": 0.0, "type": "electric_scooter", "name": "90d35f44dcacdce952f6ab5134c40baf", "is_disabled": 0, "rental_uris": {"ios": "https://dc.lft.to/lastmile_qr_scan", "android": "https://dc.lft.to/lastmile_qr_scan"}, "is_reserved": 0}, {"lon": -77.122217, "bike_id": "c3690ff2a839ced1f88b80ae1449fb52", "lat": 38.852977333333335, "fusion_lon": 0.0, "fusion_lat": 0.0, "type": "electric_bike", "name": "c3690ff2a839ced1f88b80ae1449fb52", "is_disabled": 0, "rental_uris": {"ios": "https://dc.lft.to/lastmile_qr_scan", "android": "https://dc.lft.to/lastmile_qr_scan"}, "is_reserved": 0}, {"lon": -77.0115385, "bike_id": "1ec16ba423afc65d0fe14e6c90bb1748", "lat": 38.895978, "fusion_lon": 0.0, "fusion_lat": 0.0, "type": "electric_scooter", "name": "1ec16ba423afc65d0fe14e6c90bb1748", "is_disabled": 0, "rental_uris": {"ios": "https://dc.lft.to/lastmile_qr_scan", "android": "https://dc.lft.to/lastmile_qr_scan"}, "is_reserved": 0}, {"lon": -77.02208, "bike_id": "8fdf373eff4903de00111cb528354061", "lat": 38.905431166666666, "fusion_lon": 0.0, "fusion_lat": 0.0, "type": "electric_scooter", "name": "8fdf373eff4903de00111cb528354061", "is_disabled": 0, "rental_uris": {"ios": "https://dc.lft.to/lastmile_qr_scan", "android": "https://dc.lft.to/lastmile_qr_scan"}, "is_reserved": 0}, {"lon": -77.0769265, "bike_id": "1ed641eceddf26bacec9a48a04233b91", "lat": 38.8407835, "fusion_lon": 0.0, "fusion_lat": 0.0, "type": "electric_bike", "name": "1ed641eceddf26bacec9a48a04233b91", "is_disabled": 0, "rental_uris": {"ios": "https://dc.lft.to/lastmile_qr_scan", "android": "https://dc.lft.to/lastmile_qr_scan"}, "is_reserved": 0}, {"lon": -77.044907, "bike_id": "1c3513184ac091c308013a6ab5a61e79", "lat": 38.90309466666667, "fusion_lon": 0.0, "fusion_lat": 0.0, "type": "electric_scooter", "name": "1c3513184ac091c308013a6ab5a61e79", "is_disabled": 0, "rental_uris": {"ios": "https://dc.lft.to/lastmile_qr_scan", "android": "https://dc.lft.to/lastmile_qr_scan"}, "is_reserved": 0}, {"lon": -77.02973283333333, "bike_id": "b0eec3bdae652772afe67617ac3f7c17", "lat": 38.930005666666666, "fusion_lon": 0.0, "fusion_lat": 0.0, "type": "electric_scooter", "name": "b0eec3bdae652772afe67617ac3f7c17", "is_disabled": 0, "rental_uris": {"ios": "https://dc.lft.to/lastmile_qr_scan", "android": "https://dc.lft.to/lastmile_qr_scan"}, "is_reserved": 0}, {"lon": -76.97751866666667, "bike_id": "1a7e42e608f322069beda6db266fd17d", "lat": 38.86508966666667, "fusion_lon": 0.0, "fusion_lat": 0.0, "type": "electric_scooter", "name": "1a7e42e608f322069beda6db266fd17d", "is_disabled": 0, "rental_uris": {"ios": "https://dc.lft.to/lastmile_qr_scan", "android": "https://dc.lft.to/lastmile_qr_scan"}, "is_reserved": 0}, {"lon": -77.0210775, "bike_id": "3db959d9e7d7ae67e44a0ce711bd3c47", "lat": 38.91769516666667, "fusion_lon": 0.0, "fusion_lat": 0.0, "type": "electric_scooter", "name": "3db959d9e7d7ae67e44a0ce711bd3c47", "is_disabled": 0, "rental_uris": {"ios": "https://dc.lft.to/lastmile_qr_scan", "android": "https://dc.lft.to/lastmile_qr_scan"}, "is_reserved": 0}, {"lon": -77.014815, "bike_id": "ddfe1b959be467903647e7e5a9adfb56", "lat": 38.958694666666666, "fusion_lon": 0.0, "fusion_lat": 0.0, "type": "electric_scooter", "name": "ddfe1b959be467903647e7e5a9adfb56", "is_disabled": 0, "rental_uris": {"ios": "https://dc.lft.to/lastmile_qr_scan", "android": "https://dc.lft.to/lastmile_qr_scan"}, "is_reserved": 0}, {"lon": -77.01846366666666, "bike_id": "090e255de56be4a72e7e3e97f57623fa", "lat": 38.91268483333333, "fusion_lon": 0.0, "fusion_lat": 0.0, "type": "electric_scooter", "name": "090e255de56be4a72e7e3e97f57623fa", "is_disabled": 0, "rental_uris": {"ios": "https://dc.lft.to/lastmile_qr_scan", "android": "https://dc.lft.to/lastmile_qr_scan"}, "is_reserved": 0}, {"lon": -77.02279766666666, "bike_id": "c8382030086ff7d9b366f3fde9e9b9c3", "lat": 38.917790333333336, "fusion_lon": 0.0, "fusion_lat": 0.0, "type": "electric_scooter", "name": "c8382030086ff7d9b366f3fde9e9b9c3", "is_disabled": 0, "rental_uris": {"ios": "https://dc.lft.to/lastmile_qr_scan", "android": "https://dc.lft.to/lastmile_qr_scan"}, "is_reserved": 0}, {"lon": -77.0261255, "bike_id": "7cda2a23a15be16a1af86a69f7b34152", "lat": 38.929893166666666, "fusion_lon": 0.0, "fusion_lat": 0.0, "type": "electric_scooter", "name": "7cda2a23a15be16a1af86a69f7b34152", "is_disabled": 0, "rental_uris": {"ios": "https://dc.lft.to/lastmile_qr_scan", "android": "https://dc.lft.to/lastmile_qr_scan"}, "is_reserved": 0}, {"lon": -77.03128516666666, "bike_id": "44f4c95e8b56a6b240849204e9baf54d", "lat": 38.90429566666667, "fusion_lon": 0.0, "fusion_lat": 0.0, "type": "electric_scooter", "name": "44f4c95e8b56a6b240849204e9baf54d", "is_disabled": 0, "rental_uris": {"ios": "https://dc.lft.to/lastmile_qr_scan", "android": "https://dc.lft.to/lastmile_qr_scan"}, "is_reserved": 0}, {"lon": -77.11578133333333, "bike_id": "0f1c72305b3d901aab5db698b8fd4fe8", "lat": 38.993509, "fusion_lon": 0.0, "fusion_lat": 0.0, "type": "electric_bike", "name": "0f1c72305b3d901aab5db698b8fd4fe8", "is_disabled": 0, "rental_uris": {"ios": "https://dc.lft.to/lastmile_qr_scan", "android": "https://dc.lft.to/lastmile_qr_scan"}, "is_reserved": 0}, {"lon": -77.13907266666666, "bike_id": "c3b72a6e1b7a4bae3ec099fb55e6b3c0", "lat": 38.89671516666667, "fusion_lon": 0.0, "fusion_lat": 0.0, "type": "electric_bike", "name": "c3b72a6e1b7a4bae3ec099fb55e6b3c0", "is_disabled": 0, "rental_uris": {"ios": "https://dc.lft.to/lastmile_qr_scan", "android": "https://dc.lft.to/lastmile_qr_scan"}, "is_reserved": 0}, {"lon": -77.0319975, "bike_id": "202b5b796f31961b4a7efd4433fa8f01", "lat": 38.9119705, "fusion_lon": 0.0, "fusion_lat": 0.0, "type": "electric_scooter", "name": "202b5b796f31961b4a7efd4433fa8f01", "is_disabled": 0, "rental_uris": {"ios": "https://dc.lft.to/lastmile_qr_scan", "android": "https://dc.lft.to/lastmile_qr_scan"}, "is_reserved": 0}, {"lon": -76.93361883333333, "bike_id": "d8e141dba416d52dbd35a050d1399756", "lat": 38.8991385, "fusion_lon": 0.0, "fusion_lat": 0.0, "type": "electric_scooter", "name": "d8e141dba416d52dbd35a050d1399756", "is_disabled": 0, "rental_uris": {"ios": "https://dc.lft.to/lastmile_qr_scan", "android": "https://dc.lft.to/lastmile_qr_scan"}, "is_reserved": 0}, {"lon": -76.981823, "bike_id": "1be00573cdf5d9ff0ee4b243debd664e", "lat": 38.895794, "fusion_lon": 0.0, "fusion_lat": 0.0, "type": "electric_scooter", "name": "1be00573cdf5d9ff0ee4b243debd664e", "is_disabled": 0, "rental_uris": {"ios": "https://dc.lft.to/lastmile_qr_scan", "android": "https://dc.lft.to/lastmile_qr_scan"}, "is_reserved": 0}, {"lon": -77.02289683333333, "bike_id": "b6cdefd71ae09e859e2c6df7af1d9977", "lat": 38.90980533333333, "fusion_lon": 0.0, "fusion_lat": 0.0, "type": "electric_scooter", "name": "b6cdefd71ae09e859e2c6df7af1d9977", "is_disabled": 0, "rental_uris": {"ios": "https://dc.lft.to/lastmile_qr_scan", "android": "https://dc.lft.to/lastmile_qr_scan"}, "is_reserved": 0}, {"lon": -77.0434295, "bike_id": "3678f8a0ddf0e36a7986d21965a42ba0", "lat": 38.92963016666667, "fusion_lon": 0.0, "fusion_lat": 0.0, "type": "electric_scooter", "name": "3678f8a0ddf0e36a7986d21965a42ba0", "is_disabled": 0, "rental_uris": {"ios": "https://dc.lft.to/lastmile_qr_scan", "android": "https://dc.lft.to/lastmile_qr_scan"}, "is_reserved": 0}, {"lon": -77.048765, "bike_id": "1f29d27cf38be3a3e6f2adeba832edfc", "lat": 38.9097495, "fusion_lon": 0.0, "fusion_lat": 0.0, "type": "electric_scooter", "name": "1f29d27cf38be3a3e6f2adeba832edfc", "is_disabled": 0, "rental_uris": {"ios": "https://dc.lft.to/lastmile_qr_scan", "android": "https://dc.lft.to/lastmile_qr_scan"}, "is_reserved": 0}, {"lon": -77.0268725, "bike_id": "756f22a2b2d2d8c3344ead82a1906b90", "lat": 38.91354333333334, "fusion_lon": 0.0, "fusion_lat": 0.0, "type": "electric_scooter", "name": "756f22a2b2d2d8c3344ead82a1906b90", "is_disabled": 0, "rental_uris": {"ios": "https://dc.lft.to/lastmile_qr_scan", "android": "https://dc.lft.to/lastmile_qr_scan"}, "is_reserved": 0}, {"lon": -77.03189166666667, "bike_id": "3ca92f3ff1ad2ecd72eafee97838b68a", "lat": 38.913283, "fusion_lon": 0.0, "fusion_lat": 0.0, "type": "electric_scooter", "name": "3ca92f3ff1ad2ecd72eafee97838b68a", "is_disabled": 0, "rental_uris": {"ios": "https://dc.lft.to/lastmile_qr_scan", "android": "https://dc.lft.to/lastmile_qr_scan"}, "is_reserved": 0}, {"lon": -77.02394833333334, "bike_id": "1942e4de5483efa8923a952eb4160422", "lat": 38.919123166666665, "fusion_lon": 0.0, "fusion_lat": 0.0, "type": "electric_scooter", "name": "1942e4de5483efa8923a952eb4160422", "is_disabled": 0, "rental_uris": {"ios": "https://dc.lft.to/lastmile_qr_scan", "android": "https://dc.lft.to/lastmile_qr_scan"}, "is_reserved": 0}, {"lon": -77.0228305, "bike_id": "2b5bda8edf83eb1625d3edf5db074614", "lat": 38.909578, "fusion_lon": 0.0, "fusion_lat": 0.0, "type": "electric_scooter", "name": "2b5bda8edf83eb1625d3edf5db074614", "is_disabled": 0, "rental_uris": {"ios": "https://dc.lft.to/lastmile_qr_scan", "android": "https://dc.lft.to/lastmile_qr_scan"}, "is_reserved": 0}, {"lon": -77.02385016666666, "bike_id": "46c1924bd919acfe8f3797c7f6e13d85", "lat": 38.907263666666665, "fusion_lon": 0.0, "fusion_lat": 0.0, "type": "electric_scooter", "name": "46c1924bd919acfe8f3797c7f6e13d85", "is_disabled": 0, "rental_uris": {"ios": "https://dc.lft.to/lastmile_qr_scan", "android": "https://dc.lft.to/lastmile_qr_scan"}, "is_reserved": 0}, {"lon": -77.0216595, "bike_id": "74873d0cf8d5342081fc5db876a0d18f", "lat": 38.89216583333334, "fusion_lon": 0.0, "fusion_lat": 0.0, "type": "electric_scooter", "name": "74873d0cf8d5342081fc5db876a0d18f", "is_disabled": 0, "rental_uris": {"ios": "https://dc.lft.to/lastmile_qr_scan", "android": "https://dc.lft.to/lastmile_qr_scan"}, "is_reserved": 0}, {"lon": -77.00114066666667, "bike_id": "1d33d5e0e46c396ab4e448548c06a557", "lat": 38.919652666666664, "fusion_lon": 0.0, "fusion_lat": 0.0, "type": "electric_scooter", "name": "1d33d5e0e46c396ab4e448548c06a557", "is_disabled": 0, "rental_uris": {"ios": "https://dc.lft.to/lastmile_qr_scan", "android": "https://dc.lft.to/lastmile_qr_scan"}, "is_reserved": 0}, {"lon": -77.0337585, "bike_id": "748aa471a8205bee7541ccf72e988316", "lat": 38.92152766666667, "fusion_lon": 0.0, "fusion_lat": 0.0, "type": "electric_scooter", "name": "748aa471a8205bee7541ccf72e988316", "is_disabled": 0, "rental_uris": {"ios": "https://dc.lft.to/lastmile_qr_scan", "android": "https://dc.lft.to/lastmile_qr_scan"}, "is_reserved": 0}, {"lon": -76.99861833333334, "bike_id": "341d2837562f378674c59816fb0949a0", "lat": 38.900308333333335, "fusion_lon": 0.0, "fusion_lat": 0.0, "type": "electric_scooter", "name": "341d2837562f378674c59816fb0949a0", "is_disabled": 0, "rental_uris": {"ios": "https://dc.lft.to/lastmile_qr_scan", "android": "https://dc.lft.to/lastmile_qr_scan"}, "is_reserved": 0}, {"lon": -76.99786883333333, "bike_id": "b6fd2ed8730c237e3497b46cc643a9d2", "lat": 38.890883, "fusion_lon": 0.0, "fusion_lat": 0.0, "type": "electric_scooter", "name": "b6fd2ed8730c237e3497b46cc643a9d2", "is_disabled": 0, "rental_uris": {"ios": "https://dc.lft.to/lastmile_qr_scan", "android": "https://dc.lft.to/lastmile_qr_scan"}, "is_reserved": 0}, {"lon": -77.0261215, "bike_id": "db58cf6c6e7b7b25559c0d3861518778", "lat": 38.929921, "fusion_lon": 0.0, "fusion_lat": 0.0, "type": "electric_scooter", "name": "db58cf6c6e7b7b25559c0d3861518778", "is_disabled": 0, "rental_uris": {"ios": "https://dc.lft.to/lastmile_qr_scan", "android": "https://dc.lft.to/lastmile_qr_scan"}, "is_reserved": 0}, {"lon": -77.0586305, "bike_id": "734bbc26d4c3accff54030aaaf0a06a4", "lat": 38.93606716666667, "fusion_lon": 0.0, "fusion_lat": 0.0, "type": "electric_scooter", "name": "734bbc26d4c3accff54030aaaf0a06a4", "is_disabled": 0, "rental_uris": {"ios": "https://dc.lft.to/lastmile_qr_scan", "android": "https://dc.lft.to/lastmile_qr_scan"}, "is_reserved": 0}, {"lon": -77.02163883333333, "bike_id": "3c2bd135c3c5e3963f99b55c27651978", "lat": 38.92612883333334, "fusion_lon": 0.0, "fusion_lat": 0.0, "type": "electric_scooter", "name": "3c2bd135c3c5e3963f99b55c27651978", "is_disabled": 0, "rental_uris": {"ios": "https://dc.lft.to/lastmile_qr_scan", "android": "https://dc.lft.to/lastmile_qr_scan"}, "is_reserved": 0}, {"lon": -77.0216525, "bike_id": "f67b181f4ab3b76147f93de2ad149816", "lat": 38.9096845, "fusion_lon": 0.0, "fusion_lat": 0.0, "type": "electric_scooter", "name": "f67b181f4ab3b76147f93de2ad149816", "is_disabled": 0, "rental_uris": {"ios": "https://dc.lft.to/lastmile_qr_scan", "android": "https://dc.lft.to/lastmile_qr_scan"}, "is_reserved": 0}, {"lon": -76.98106133333333, "bike_id": "78eaca60f71c8f03e7c6e77308472ee1", "lat": 38.87728516666667, "fusion_lon": 0.0, "fusion_lat": 0.0, "type": "electric_bike", "name": "78eaca60f71c8f03e7c6e77308472ee1", "is_disabled": 0, "rental_uris": {"ios": "https://dc.lft.to/lastmile_qr_scan", "android": "https://dc.lft.to/lastmile_qr_scan"}, "is_reserved": 0}, {"lon": -77.00592683333333, "bike_id": "d8dd111c51497c05689c350545d70165", "lat": 38.90031466666667, "fusion_lon": 0.0, "fusion_lat": 0.0, "type": "electric_scooter", "name": "d8dd111c51497c05689c350545d70165", "is_disabled": 0, "rental_uris": {"ios": "https://dc.lft.to/lastmile_qr_scan", "android": "https://dc.lft.to/lastmile_qr_scan"}, "is_reserved": 0}, {"lon": -77.00489783333333, "bike_id": "a07b19eb107ec3443f9f58534471e07d", "lat": 38.905708, "fusion_lon": 0.0, "fusion_lat": 0.0, "type": "electric_scooter", "name": "a07b19eb107ec3443f9f58534471e07d", "is_disabled": 0, "rental_uris": {"ios": "https://dc.lft.to/lastmile_qr_scan", "android": "https://dc.lft.to/lastmile_qr_scan"}, "is_reserved": 0}, {"lon": -76.982473, "bike_id": "b2535efb077d83893b0b2dac1d9476b6", "lat": 38.86456533333333, "fusion_lon": 0.0, "fusion_lat": 0.0, "type": "electric_scooter", "name": "b2535efb077d83893b0b2dac1d9476b6", "is_disabled": 0, "rental_uris": {"ios": "https://dc.lft.to/lastmile_qr_scan", "android": "https://dc.lft.to/lastmile_qr_scan"}, "is_reserved": 0}, {"lon": -77.04703116666667, "bike_id": "91982de2fa53c38a4ec8488a12e89bbf", "lat": 38.919060333333334, "fusion_lon": 0.0, "fusion_lat": 0.0, "type": "electric_scooter", "name": "91982de2fa53c38a4ec8488a12e89bbf", "is_disabled": 0, "rental_uris": {"ios": "https://dc.lft.to/lastmile_qr_scan", "android": "https://dc.lft.to/lastmile_qr_scan"}, "is_reserved": 0}, {"lon": -77.03066166666666, "bike_id": "53c733347c6c0a88b00b77674bc54d60", "lat": 38.924663, "fusion_lon": 0.0, "fusion_lat": 0.0, "type": "electric_scooter", "name": "53c733347c6c0a88b00b77674bc54d60", "is_disabled": 0, "rental_uris": {"ios": "https://dc.lft.to/lastmile_qr_scan", "android": "https://dc.lft.to/lastmile_qr_scan"}, "is_reserved": 0}, {"lon": -77.001861, "bike_id": "ce5846e8b0072312fb3ba9dc03536834", "lat": 38.894743, "fusion_lon": 0.0, "fusion_lat": 0.0, "type": "electric_scooter", "name": "ce5846e8b0072312fb3ba9dc03536834", "is_disabled": 0, "rental_uris": {"ios": "https://dc.lft.to/lastmile_qr_scan", "android": "https://dc.lft.to/lastmile_qr_scan"}, "is_reserved": 0}, {"lon": -77.01504333333334, "bike_id": "b51f6f47e2dbac10bd5388febd3128a9", "lat": 38.94532133333333, "fusion_lon": 0.0, "fusion_lat": 0.0, "type": "electric_scooter", "name": "b51f6f47e2dbac10bd5388febd3128a9", "is_disabled": 0, "rental_uris": {"ios": "https://dc.lft.to/lastmile_qr_scan", "android": "https://dc.lft.to/lastmile_qr_scan"}, "is_reserved": 0}, {"lon": -76.9491665, "bike_id": "95c32e295d33fe3321d0e496682c57cc", "lat": 38.89534366666667, "fusion_lon": 0.0, "fusion_lat": 0.0, "type": "electric_scooter", "name": "95c32e295d33fe3321d0e496682c57cc", "is_disabled": 0, "rental_uris": {"ios": "https://dc.lft.to/lastmile_qr_scan", "android": "https://dc.lft.to/lastmile_qr_scan"}, "is_reserved": 0}, {"lon": -77.0237325, "bike_id": "44c3d072a8802728094387b0b5fac1be", "lat": 38.909401, "fusion_lon": 0.0, "fusion_lat": 0.0, "type": "electric_scooter", "name": "44c3d072a8802728094387b0b5fac1be", "is_disabled": 0, "rental_uris": {"ios": "https://dc.lft.to/lastmile_qr_scan", "android": "https://dc.lft.to/lastmile_qr_scan"}, "is_reserved": 0}, {"lon": -76.98170983333333, "bike_id": "0c5e6cefad4f64baf04bf12401b38ffa", "lat": 38.90436583333333, "fusion_lon": 0.0, "fusion_lat": 0.0, "type": "electric_scooter", "name": "0c5e6cefad4f64baf04bf12401b38ffa", "is_disabled": 0, "rental_uris": {"ios": "https://dc.lft.to/lastmile_qr_scan", "android": "https://dc.lft.to/lastmile_qr_scan"}, "is_reserved": 0}, {"lon": -77.021675, "bike_id": "a635bbe82e29566e70706693bd18da7b", "lat": 38.892983666666666, "fusion_lon": 0.0, "fusion_lat": 0.0, "type": "electric_scooter", "name": "a635bbe82e29566e70706693bd18da7b", "is_disabled": 0, "rental_uris": {"ios": "https://dc.lft.to/lastmile_qr_scan", "android": "https://dc.lft.to/lastmile_qr_scan"}, "is_reserved": 0}, {"lon": -76.98106316666667, "bike_id": "aef626e3f48db82189bd5794cbe11e03", "lat": 38.90406983333333, "fusion_lon": 0.0, "fusion_lat": 0.0, "type": "electric_scooter", "name": "aef626e3f48db82189bd5794cbe11e03", "is_disabled": 0, "rental_uris": {"ios": "https://dc.lft.to/lastmile_qr_scan", "android": "https://dc.lft.to/lastmile_qr_scan"}, "is_reserved": 0}, {"lon": -77.02290933333333, "bike_id": "654b9bf76ebc11cc5995f046f0ab8673", "lat": 38.894613666666665, "fusion_lon": 0.0, "fusion_lat": 0.0, "type": "electric_scooter", "name": "654b9bf76ebc11cc5995f046f0ab8673", "is_disabled": 0, "rental_uris": {"ios": "https://dc.lft.to/lastmile_qr_scan", "android": "https://dc.lft.to/lastmile_qr_scan"}, "is_reserved": 0}, {"lon": -77.02162916666667, "bike_id": "9ab13179a2b4466dd52af44b4acec134", "lat": 38.90965716666667, "fusion_lon": 0.0, "fusion_lat": 0.0, "type": "electric_scooter", "name": "9ab13179a2b4466dd52af44b4acec134", "is_disabled": 0, "rental_uris": {"ios": "https://dc.lft.to/lastmile_qr_scan", "android": "https://dc.lft.to/lastmile_qr_scan"}, "is_reserved": 0}, {"lon": -76.98686766666667, "bike_id": "0fa1a24d856bae870fcf8028b3e2837a", "lat": 38.91215583333333, "fusion_lon": 0.0, "fusion_lat": 0.0, "type": "electric_scooter", "name": "0fa1a24d856bae870fcf8028b3e2837a", "is_disabled": 0, "rental_uris": {"ios": "https://dc.lft.to/lastmile_qr_scan", "android": "https://dc.lft.to/lastmile_qr_scan"}, "is_reserved": 0}, {"lon": -77.02347283333333, "bike_id": "be21015fa23f65e2103a6a5a591ae47e", "lat": 38.922474333333334, "fusion_lon": 0.0, "fusion_lat": 0.0, "type": "electric_scooter", "name": "be21015fa23f65e2103a6a5a591ae47e", "is_disabled": 0, "rental_uris": {"ios": "https://dc.lft.to/lastmile_qr_scan", "android": "https://dc.lft.to/lastmile_qr_scan"}, "is_reserved": 0}, {"lon": -77.02587183333333, "bike_id": "42ba979f4c4ecff0db1b1750821c6c43", "lat": 38.892318833333334, "fusion_lon": 0.0, "fusion_lat": 0.0, "type": "electric_scooter", "name": "42ba979f4c4ecff0db1b1750821c6c43", "is_disabled": 0, "rental_uris": {"ios": "https://dc.lft.to/lastmile_qr_scan", "android": "https://dc.lft.to/lastmile_qr_scan"}, "is_reserved": 0}, {"lon": -76.93643516666667, "bike_id": "4b763f9d760aa9228f73bf8ff028c3d4", "lat": 38.900637833333334, "fusion_lon": 0.0, "fusion_lat": 0.0, "type": "electric_scooter", "name": "4b763f9d760aa9228f73bf8ff028c3d4", "is_disabled": 0, "rental_uris": {"ios": "https://dc.lft.to/lastmile_qr_scan", "android": "https://dc.lft.to/lastmile_qr_scan"}, "is_reserved": 0}, {"lon": -77.0283635, "bike_id": "f3f7f5e9a40f116daff7f1e0d54986cf", "lat": 38.93183883333333, "fusion_lon": 0.0, "fusion_lat": 0.0, "type": "electric_scooter", "name": "f3f7f5e9a40f116daff7f1e0d54986cf", "is_disabled": 0, "rental_uris": {"ios": "https://dc.lft.to/lastmile_qr_scan", "android": "https://dc.lft.to/lastmile_qr_scan"}, "is_reserved": 0}, {"lon": -77.013034, "bike_id": "89f4d3a2d07101955816213a4620d124", "lat": 38.900611, "fusion_lon": 0.0, "fusion_lat": 0.0, "type": "electric_scooter", "name": "89f4d3a2d07101955816213a4620d124", "is_disabled": 0, "rental_uris": {"ios": "https://dc.lft.to/lastmile_qr_scan", "android": "https://dc.lft.to/lastmile_qr_scan"}, "is_reserved": 0}, {"lon": -76.93013933333333, "bike_id": "5fde4123428bd621a4781b5c10205219", "lat": 38.896512, "fusion_lon": 0.0, "fusion_lat": 0.0, "type": "electric_bike", "name": "5fde4123428bd621a4781b5c10205219", "is_disabled": 0, "rental_uris": {"ios": "https://dc.lft.to/lastmile_qr_scan", "android": "https://dc.lft.to/lastmile_qr_scan"}, "is_reserved": 0}, {"lon": -77.00840016666666, "bike_id": "d9c761b40b833305afaa375bd305dd50", "lat": 38.87799433333333, "fusion_lon": 0.0, "fusion_lat": 0.0, "type": "electric_bike", "name": "d9c761b40b833305afaa375bd305dd50", "is_disabled": 0, "rental_uris": {"ios": "https://dc.lft.to/lastmile_qr_scan", "android": "https://dc.lft.to/lastmile_qr_scan"}, "is_reserved": 0}, {"lon": -77.04194383333333, "bike_id": "95796f2826b2f87cd55fdc6cfc1f13ac", "lat": 38.92616233333333, "fusion_lon": 0.0, "fusion_lat": 0.0, "type": "electric_scooter", "name": "95796f2826b2f87cd55fdc6cfc1f13ac", "is_disabled": 0, "rental_uris": {"ios": "https://dc.lft.to/lastmile_qr_scan", "android": "https://dc.lft.to/lastmile_qr_scan"}, "is_reserved": 0}, {"lon": -77.01729016666667, "bike_id": "b389e1d509025fd7894c986e2818ccaa", "lat": 38.94310983333333, "fusion_lon": 0.0, "fusion_lat": 0.0, "type": "electric_scooter", "name": "b389e1d509025fd7894c986e2818ccaa", "is_disabled": 0, "rental_uris": {"ios": "https://dc.lft.to/lastmile_qr_scan", "android": "https://dc.lft.to/lastmile_qr_scan"}, "is_reserved": 0}, {"lon": -76.9317615, "bike_id": "286afd78afb09d1342212c5a3c032e61", "lat": 38.89883016666667, "fusion_lon": 0.0, "fusion_lat": 0.0, "type": "electric_scooter", "name": "286afd78afb09d1342212c5a3c032e61", "is_disabled": 0, "rental_uris": {"ios": "https://dc.lft.to/lastmile_qr_scan", "android": "https://dc.lft.to/lastmile_qr_scan"}, "is_reserved": 0}, {"lon": -77.03813833333334, "bike_id": "5c7d970d1ad33b49c9aacc7da09988a5", "lat": 38.920529, "fusion_lon": 0.0, "fusion_lat": 0.0, "type": "electric_scooter", "name": "5c7d970d1ad33b49c9aacc7da09988a5", "is_disabled": 0, "rental_uris": {"ios": "https://dc.lft.to/lastmile_qr_scan", "android": "https://dc.lft.to/lastmile_qr_scan"}, "is_reserved": 0}, {"lon": -77.03293516666666, "bike_id": "3bab6e5f42955a194e1c9b3a420c3903", "lat": 38.95648883333333, "fusion_lon": 0.0, "fusion_lat": 0.0, "type": "electric_scooter", "name": "3bab6e5f42955a194e1c9b3a420c3903", "is_disabled": 0, "rental_uris": {"ios": "https://dc.lft.to/lastmile_qr_scan", "android": "https://dc.lft.to/lastmile_qr_scan"}, "is_reserved": 0}, {"lon": -77.0239805, "bike_id": "ea43ab89ce8718c82e900ed436bcedd7", "lat": 38.92068416666667, "fusion_lon": 0.0, "fusion_lat": 0.0, "type": "electric_scooter", "name": "ea43ab89ce8718c82e900ed436bcedd7", "is_disabled": 0, "rental_uris": {"ios": "https://dc.lft.to/lastmile_qr_scan", "android": "https://dc.lft.to/lastmile_qr_scan"}, "is_reserved": 0}, {"lon": -77.06274716666667, "bike_id": "49e1629beb35b49578b76d48af223c23", "lat": 38.905415, "fusion_lon": 0.0, "fusion_lat": 0.0, "type": "electric_scooter", "name": "49e1629beb35b49578b76d48af223c23", "is_disabled": 0, "rental_uris": {"ios": "https://dc.lft.to/lastmile_qr_scan", "android": "https://dc.lft.to/lastmile_qr_scan"}, "is_reserved": 0}, {"lon": -77.044425, "bike_id": "d1ad4ba2c2e2365f61cec66733c111fb", "lat": 38.9216875, "fusion_lon": 0.0, "fusion_lat": 0.0, "type": "electric_scooter", "name": "d1ad4ba2c2e2365f61cec66733c111fb", "is_disabled": 0, "rental_uris": {"ios": "https://dc.lft.to/lastmile_qr_scan", "android": "https://dc.lft.to/lastmile_qr_scan"}, "is_reserved": 0}, {"lon": -77.025149, "bike_id": "fe10d62f0a2ff2597ccfc8f7e39e36bf", "lat": 38.904076833333335, "fusion_lon": 0.0, "fusion_lat": 0.0, "type": "electric_scooter", "name": "fe10d62f0a2ff2597ccfc8f7e39e36bf", "is_disabled": 0, "rental_uris": {"ios": "https://dc.lft.to/lastmile_qr_scan", "android": "https://dc.lft.to/lastmile_qr_scan"}, "is_reserved": 0}, {"lon": -76.97732, "bike_id": "37aa853314a9bb564a5f70978046f4cf", "lat": 38.872874, "fusion_lon": 0.0, "fusion_lat": 0.0, "type": "electric_scooter", "name": "37aa853314a9bb564a5f70978046f4cf", "is_disabled": 0, "rental_uris": {"ios": "https://dc.lft.to/lastmile_qr_scan", "android": "https://dc.lft.to/lastmile_qr_scan"}, "is_reserved": 0}, {"lon": -77.03049216666666, "bike_id": "873d452c3fe3b47b358bd73459b3cbc9", "lat": 38.91257133333333, "fusion_lon": 0.0, "fusion_lat": 0.0, "type": "electric_scooter", "name": "873d452c3fe3b47b358bd73459b3cbc9", "is_disabled": 0, "rental_uris": {"ios": "https://dc.lft.to/lastmile_qr_scan", "android": "https://dc.lft.to/lastmile_qr_scan"}, "is_reserved": 0}, {"lon": -77.04012633333333, "bike_id": "54c07975880ac42ce75859788502de93", "lat": 38.9099955, "fusion_lon": 0.0, "fusion_lat": 0.0, "type": "electric_scooter", "name": "54c07975880ac42ce75859788502de93", "is_disabled": 0, "rental_uris": {"ios": "https://dc.lft.to/lastmile_qr_scan", "android": "https://dc.lft.to/lastmile_qr_scan"}, "is_reserved": 0}, {"lon": -77.03202733333333, "bike_id": "9de9f936c4709489d6a7be80cc814e7e", "lat": 38.939687166666666, "fusion_lon": 0.0, "fusion_lat": 0.0, "type": "electric_scooter", "name": "9de9f936c4709489d6a7be80cc814e7e", "is_disabled": 0, "rental_uris": {"ios": "https://dc.lft.to/lastmile_qr_scan", "android": "https://dc.lft.to/lastmile_qr_scan"}, "is_reserved": 0}, {"lon": -76.9906505, "bike_id": "a771797b4e500824a5cd76ec51e5f11d", "lat": 38.8636325, "fusion_lon": 0.0, "fusion_lat": 0.0, "type": "electric_scooter", "name": "a771797b4e500824a5cd76ec51e5f11d", "is_disabled": 0, "rental_uris": {"ios": "https://dc.lft.to/lastmile_qr_scan", "android": "https://dc.lft.to/lastmile_qr_scan"}, "is_reserved": 0}, {"lon": -77.02797183333334, "bike_id": "f78628de87ea98ca913e962127588c29", "lat": 38.935368, "fusion_lon": 0.0, "fusion_lat": 0.0, "type": "electric_scooter", "name": "f78628de87ea98ca913e962127588c29", "is_disabled": 0, "rental_uris": {"ios": "https://dc.lft.to/lastmile_qr_scan", "android": "https://dc.lft.to/lastmile_qr_scan"}, "is_reserved": 0}, {"lon": -77.02918816666667, "bike_id": "f97a43a47468f57ad86e01dd748a08ed", "lat": 38.92370966666667, "fusion_lon": 0.0, "fusion_lat": 0.0, "type": "electric_scooter", "name": "f97a43a47468f57ad86e01dd748a08ed", "is_disabled": 0, "rental_uris": {"ios": "https://dc.lft.to/lastmile_qr_scan", "android": "https://dc.lft.to/lastmile_qr_scan"}, "is_reserved": 0}, {"lon": -77.04422766666667, "bike_id": "f858bc37fa0c49317b95f7e77b6f8ac5", "lat": 38.92129933333333, "fusion_lon": 0.0, "fusion_lat": 0.0, "type": "electric_scooter", "name": "f858bc37fa0c49317b95f7e77b6f8ac5", "is_disabled": 0, "rental_uris": {"ios": "https://dc.lft.to/lastmile_qr_scan", "android": "https://dc.lft.to/lastmile_qr_scan"}, "is_reserved": 0}, {"lon": -77.03856366666666, "bike_id": "1c4bdea0390fd3eebc7ae61beb63f728", "lat": 38.93199833333333, "fusion_lon": 0.0, "fusion_lat": 0.0, "type": "electric_scooter", "name": "1c4bdea0390fd3eebc7ae61beb63f728", "is_disabled": 0, "rental_uris": {"ios": "https://dc.lft.to/lastmile_qr_scan", "android": "https://dc.lft.to/lastmile_qr_scan"}, "is_reserved": 0}, {"lon": -77.013969, "bike_id": "922b6bc68877667d0282bd211b2507b9", "lat": 38.928338833333335, "fusion_lon": 0.0, "fusion_lat": 0.0, "type": "electric_scooter", "name": "922b6bc68877667d0282bd211b2507b9", "is_disabled": 0, "rental_uris": {"ios": "https://dc.lft.to/lastmile_qr_scan", "android": "https://dc.lft.to/lastmile_qr_scan"}, "is_reserved": 0}, {"lon": -77.03404, "bike_id": "a36ccbeaeea82841a2871829cc5a3dd9", "lat": 38.93122366666667, "fusion_lon": 0.0, "fusion_lat": 0.0, "type": "electric_scooter", "name": "a36ccbeaeea82841a2871829cc5a3dd9", "is_disabled": 0, "rental_uris": {"ios": "https://dc.lft.to/lastmile_qr_scan", "android": "https://dc.lft.to/lastmile_qr_scan"}, "is_reserved": 0}, {"lon": -77.064913, "bike_id": "c5cb530f75a695fa3ec97c7dc86c6ff6", "lat": 38.929044833333336, "fusion_lon": 0.0, "fusion_lat": 0.0, "type": "electric_scooter", "name": "c5cb530f75a695fa3ec97c7dc86c6ff6", "is_disabled": 0, "rental_uris": {"ios": "https://dc.lft.to/lastmile_qr_scan", "android": "https://dc.lft.to/lastmile_qr_scan"}, "is_reserved": 0}, {"lon": -77.02386183333333, "bike_id": "e2c929c02d1f85f2691812d6388e2d73", "lat": 38.90843533333334, "fusion_lon": 0.0, "fusion_lat": 0.0, "type": "electric_scooter", "name": "e2c929c02d1f85f2691812d6388e2d73", "is_disabled": 0, "rental_uris": {"ios": "https://dc.lft.to/lastmile_qr_scan", "android": "https://dc.lft.to/lastmile_qr_scan"}, "is_reserved": 0}, {"lon": -77.02674433333334, "bike_id": "7ee9123aa6c8a053643c9c36d61ea07d", "lat": 38.9842965, "fusion_lon": 0.0, "fusion_lat": 0.0, "type": "electric_scooter", "name": "7ee9123aa6c8a053643c9c36d61ea07d", "is_disabled": 0, "rental_uris": {"ios": "https://dc.lft.to/lastmile_qr_scan", "android": "https://dc.lft.to/lastmile_qr_scan"}, "is_reserved": 0}, {"lon": -76.98039966666667, "bike_id": "3d06ffccfa6f33272f9fb3ac0751472c", "lat": 38.88968833333333, "fusion_lon": 0.0, "fusion_lat": 0.0, "type": "electric_scooter", "name": "3d06ffccfa6f33272f9fb3ac0751472c", "is_disabled": 0, "rental_uris": {"ios": "https://dc.lft.to/lastmile_qr_scan", "android": "https://dc.lft.to/lastmile_qr_scan"}, "is_reserved": 0}, {"lon": -77.0228885, "bike_id": "92b76096792a265bf5024b397a7f487e", "lat": 38.91679966666667, "fusion_lon": 0.0, "fusion_lat": 0.0, "type": "electric_scooter", "name": "92b76096792a265bf5024b397a7f487e", "is_disabled": 0, "rental_uris": {"ios": "https://dc.lft.to/lastmile_qr_scan", "android": "https://dc.lft.to/lastmile_qr_scan"}, "is_reserved": 0}, {"lon": -77.0481445, "bike_id": "efe9faf4a8d8286af3bd46171e530574", "lat": 38.920428666666666, "fusion_lon": 0.0, "fusion_lat": 0.0, "type": "electric_scooter", "name": "efe9faf4a8d8286af3bd46171e530574", "is_disabled": 0, "rental_uris": {"ios": "https://dc.lft.to/lastmile_qr_scan", "android": "https://dc.lft.to/lastmile_qr_scan"}, "is_reserved": 0}, {"lon": -77.00221783333333, "bike_id": "15f7cff0e214681e80c28ed7e7e2c256", "lat": 38.9003715, "fusion_lon": 0.0, "fusion_lat": 0.0, "type": "electric_scooter", "name": "15f7cff0e214681e80c28ed7e7e2c256", "is_disabled": 0, "rental_uris": {"ios": "https://dc.lft.to/lastmile_qr_scan", "android": "https://dc.lft.to/lastmile_qr_scan"}, "is_reserved": 0}, {"lon": -77.0261205, "bike_id": "4ef38e13799aa21ae8f58e2d2acb76cd", "lat": 38.916886166666664, "fusion_lon": 0.0, "fusion_lat": 0.0, "type": "electric_scooter", "name": "4ef38e13799aa21ae8f58e2d2acb76cd", "is_disabled": 0, "rental_uris": {"ios": "https://dc.lft.to/lastmile_qr_scan", "android": "https://dc.lft.to/lastmile_qr_scan"}, "is_reserved": 0}, {"lon": -77.00886166666666, "bike_id": "c7f318014383607f542aae2932e9b49c", "lat": 38.91713683333333, "fusion_lon": 0.0, "fusion_lat": 0.0, "type": "electric_scooter", "name": "c7f318014383607f542aae2932e9b49c", "is_disabled": 0, "rental_uris": {"ios": "https://dc.lft.to/lastmile_qr_scan", "android": "https://dc.lft.to/lastmile_qr_scan"}, "is_reserved": 0}, {"lon": -77.03791183333334, "bike_id": "d09c9c856866f9e86c2a2fe7887f79e3", "lat": 38.925688, "fusion_lon": 0.0, "fusion_lat": 0.0, "type": "electric_scooter", "name": "d09c9c856866f9e86c2a2fe7887f79e3", "is_disabled": 0, "rental_uris": {"ios": "https://dc.lft.to/lastmile_qr_scan", "android": "https://dc.lft.to/lastmile_qr_scan"}, "is_reserved": 0}, {"lon": -77.025878, "bike_id": "be7f9a4561ad3f00dd83e96657bdbe23", "lat": 38.89229533333334, "fusion_lon": 0.0, "fusion_lat": 0.0, "type": "electric_scooter", "name": "be7f9a4561ad3f00dd83e96657bdbe23", "is_disabled": 0, "rental_uris": {"ios": "https://dc.lft.to/lastmile_qr_scan", "android": "https://dc.lft.to/lastmile_qr_scan"}, "is_reserved": 0}, {"lon": -76.9946655, "bike_id": "975a18be6affe6cb266f6734386ed550", "lat": 38.862223166666666, "fusion_lon": 0.0, "fusion_lat": 0.0, "type": "electric_scooter", "name": "975a18be6affe6cb266f6734386ed550", "is_disabled": 0, "rental_uris": {"ios": "https://dc.lft.to/lastmile_qr_scan", "android": "https://dc.lft.to/lastmile_qr_scan"}, "is_reserved": 0}, {"lon": -77.00196233333334, "bike_id": "79357bf0436db8ab2758a824cec15d80", "lat": 38.9003085, "fusion_lon": 0.0, "fusion_lat": 0.0, "type": "electric_scooter", "name": "79357bf0436db8ab2758a824cec15d80", "is_disabled": 0, "rental_uris": {"ios": "https://dc.lft.to/lastmile_qr_scan", "android": "https://dc.lft.to/lastmile_qr_scan"}, "is_reserved": 0}, {"lon": -77.048144, "bike_id": "fde57d0b2f40726ae44e90749392e165", "lat": 38.91636783333333, "fusion_lon": 0.0, "fusion_lat": 0.0, "type": "electric_scooter", "name": "fde57d0b2f40726ae44e90749392e165", "is_disabled": 0, "rental_uris": {"ios": "https://dc.lft.to/lastmile_qr_scan", "android": "https://dc.lft.to/lastmile_qr_scan"}, "is_reserved": 0}, {"lon": -77.04041166666667, "bike_id": "353f18a567e3176053d85f938a8404d0", "lat": 38.912658, "fusion_lon": 0.0, "fusion_lat": 0.0, "type": "electric_scooter", "name": "353f18a567e3176053d85f938a8404d0", "is_disabled": 0, "rental_uris": {"ios": "https://dc.lft.to/lastmile_qr_scan", "android": "https://dc.lft.to/lastmile_qr_scan"}, "is_reserved": 0}, {"lon": -77.0345735, "bike_id": "9db7e3cfb5b14109194b9f3ca69ecab4", "lat": 38.916600833333334, "fusion_lon": 0.0, "fusion_lat": 0.0, "type": "electric_scooter", "name": "9db7e3cfb5b14109194b9f3ca69ecab4", "is_disabled": 0, "rental_uris": {"ios": "https://dc.lft.to/lastmile_qr_scan", "android": "https://dc.lft.to/lastmile_qr_scan"}, "is_reserved": 0}, {"lon": -77.04327383333333, "bike_id": "c8ccb6b66dc7fa52a3208e4bc73a332d", "lat": 38.918745333333334, "fusion_lon": 0.0, "fusion_lat": 0.0, "type": "electric_scooter", "name": "c8ccb6b66dc7fa52a3208e4bc73a332d", "is_disabled": 0, "rental_uris": {"ios": "https://dc.lft.to/lastmile_qr_scan", "android": "https://dc.lft.to/lastmile_qr_scan"}, "is_reserved": 0}, {"lon": -77.02386066666666, "bike_id": "335d8779274b45732333dc26dc4ba071", "lat": 38.90636516666667, "fusion_lon": 0.0, "fusion_lat": 0.0, "type": "electric_scooter", "name": "335d8779274b45732333dc26dc4ba071", "is_disabled": 0, "rental_uris": {"ios": "https://dc.lft.to/lastmile_qr_scan", "android": "https://dc.lft.to/lastmile_qr_scan"}, "is_reserved": 0}, {"lon": -76.945798, "bike_id": "dccea62ede48d7688e76ca19c05b5a3b", "lat": 38.9374205, "fusion_lon": 0.0, "fusion_lat": 0.0, "type": "electric_bike", "name": "dccea62ede48d7688e76ca19c05b5a3b", "is_disabled": 0, "rental_uris": {"ios": "https://dc.lft.to/lastmile_qr_scan", "android": "https://dc.lft.to/lastmile_qr_scan"}, "is_reserved": 0}, {"lon": -77.02084683333334, "bike_id": "3a78c5e566a97068923841116154be12", "lat": 38.881824, "fusion_lon": 0.0, "fusion_lat": 0.0, "type": "electric_scooter", "name": "3a78c5e566a97068923841116154be12", "is_disabled": 0, "rental_uris": {"ios": "https://dc.lft.to/lastmile_qr_scan", "android": "https://dc.lft.to/lastmile_qr_scan"}, "is_reserved": 0}, {"lon": -77.002178, "bike_id": "bd4220ce320c6daf30a898e273a83b1a", "lat": 38.9003385, "fusion_lon": 0.0, "fusion_lat": 0.0, "type": "electric_scooter", "name": "bd4220ce320c6daf30a898e273a83b1a", "is_disabled": 0, "rental_uris": {"ios": "https://dc.lft.to/lastmile_qr_scan", "android": "https://dc.lft.to/lastmile_qr_scan"}, "is_reserved": 0}, {"lon": -77.02454666666667, "bike_id": "3d2d8aa9e4799bd1eb1f8c027d4e4946", "lat": 38.9370635, "fusion_lon": 0.0, "fusion_lat": 0.0, "type": "electric_scooter", "name": "3d2d8aa9e4799bd1eb1f8c027d4e4946", "is_disabled": 0, "rental_uris": {"ios": "https://dc.lft.to/lastmile_qr_scan", "android": "https://dc.lft.to/lastmile_qr_scan"}, "is_reserved": 0}, {"lon": -76.9850975, "bike_id": "12ac9c631c1db5275b277a66448496dd", "lat": 38.903426, "fusion_lon": 0.0, "fusion_lat": 0.0, "type": "electric_scooter", "name": "12ac9c631c1db5275b277a66448496dd", "is_disabled": 0, "rental_uris": {"ios": "https://dc.lft.to/lastmile_qr_scan", "android": "https://dc.lft.to/lastmile_qr_scan"}, "is_reserved": 0}, {"lon": -77.038757, "bike_id": "2366281552a7250c15f7b069ca792b5a", "lat": 38.90719, "fusion_lon": 0.0, "fusion_lat": 0.0, "type": "electric_scooter", "name": "2366281552a7250c15f7b069ca792b5a", "is_disabled": 0, "rental_uris": {"ios": "https://dc.lft.to/lastmile_qr_scan", "android": "https://dc.lft.to/lastmile_qr_scan"}, "is_reserved": 0}, {"lon": -77.0248545, "bike_id": "07df6c641309db3fee447761948a1ab0", "lat": 38.88011216666666, "fusion_lon": 0.0, "fusion_lat": 0.0, "type": "electric_scooter", "name": "07df6c641309db3fee447761948a1ab0", "is_disabled": 0, "rental_uris": {"ios": "https://dc.lft.to/lastmile_qr_scan", "android": "https://dc.lft.to/lastmile_qr_scan"}, "is_reserved": 0}, {"lon": -77.02319933333334, "bike_id": "f61f036add5f8ffce0cb386cf0fe031c", "lat": 38.955217166666664, "fusion_lon": 0.0, "fusion_lat": 0.0, "type": "electric_scooter", "name": "f61f036add5f8ffce0cb386cf0fe031c", "is_disabled": 0, "rental_uris": {"ios": "https://dc.lft.to/lastmile_qr_scan", "android": "https://dc.lft.to/lastmile_qr_scan"}, "is_reserved": 0}, {"lon": -76.949626, "bike_id": "ce7a978e2c9d5ccc6facb5e47766a3ad", "lat": 38.894426, "fusion_lon": 0.0, "fusion_lat": 0.0, "type": "electric_scooter", "name": "ce7a978e2c9d5ccc6facb5e47766a3ad", "is_disabled": 0, "rental_uris": {"ios": "https://dc.lft.to/lastmile_qr_scan", "android": "https://dc.lft.to/lastmile_qr_scan"}, "is_reserved": 0}, {"lon": -76.99473683333333, "bike_id": "969fb41d48e0d84e7ad16e987506414e", "lat": 38.86218866666667, "fusion_lon": 0.0, "fusion_lat": 0.0, "type": "electric_scooter", "name": "969fb41d48e0d84e7ad16e987506414e", "is_disabled": 0, "rental_uris": {"ios": "https://dc.lft.to/lastmile_qr_scan", "android": "https://dc.lft.to/lastmile_qr_scan"}, "is_reserved": 0}, {"lon": -77.03324266666667, "bike_id": "5f5f7767f12c4b3f664c2738ae309130", "lat": 38.9471625, "fusion_lon": 0.0, "fusion_lat": 0.0, "type": "electric_scooter", "name": "5f5f7767f12c4b3f664c2738ae309130", "is_disabled": 0, "rental_uris": {"ios": "https://dc.lft.to/lastmile_qr_scan", "android": "https://dc.lft.to/lastmile_qr_scan"}, "is_reserved": 0}, {"lon": -77.01141883333334, "bike_id": "b839d71f2fc1812b0265e9da6b0361a9", "lat": 38.91261866666667, "fusion_lon": 0.0, "fusion_lat": 0.0, "type": "electric_scooter", "name": "b839d71f2fc1812b0265e9da6b0361a9", "is_disabled": 0, "rental_uris": {"ios": "https://dc.lft.to/lastmile_qr_scan", "android": "https://dc.lft.to/lastmile_qr_scan"}, "is_reserved": 0}, {"lon": -76.996151, "bike_id": "ed10cf658cd1d4d69cdb68583194e997", "lat": 38.88305033333334, "fusion_lon": 0.0, "fusion_lat": 0.0, "type": "electric_scooter", "name": "ed10cf658cd1d4d69cdb68583194e997", "is_disabled": 0, "rental_uris": {"ios": "https://dc.lft.to/lastmile_qr_scan", "android": "https://dc.lft.to/lastmile_qr_scan"}, "is_reserved": 0}, {"lon": -76.93362433333333, "bike_id": "630632c356a18341e16104cfd92cb562", "lat": 38.899155666666665, "fusion_lon": 0.0, "fusion_lat": 0.0, "type": "electric_scooter", "name": "630632c356a18341e16104cfd92cb562", "is_disabled": 0, "rental_uris": {"ios": "https://dc.lft.to/lastmile_qr_scan", "android": "https://dc.lft.to/lastmile_qr_scan"}, "is_reserved": 0}, {"lon": -77.019975, "bike_id": "0a70657afe308b0beaaa6a31ea38f78c", "lat": 38.90391233333333, "fusion_lon": 0.0, "fusion_lat": 0.0, "type": "electric_scooter", "name": "0a70657afe308b0beaaa6a31ea38f78c", "is_disabled": 0, "rental_uris": {"ios": "https://dc.lft.to/lastmile_qr_scan", "android": "https://dc.lft.to/lastmile_qr_scan"}, "is_reserved": 0}, {"lon": -77.03383533333333, "bike_id": "35f5ebf2845978fae06d5beff22e154e", "lat": 38.909693, "fusion_lon": 0.0, "fusion_lat": 0.0, "type": "electric_scooter", "name": "35f5ebf2845978fae06d5beff22e154e", "is_disabled": 0, "rental_uris": {"ios": "https://dc.lft.to/lastmile_qr_scan", "android": "https://dc.lft.to/lastmile_qr_scan"}, "is_reserved": 0}, {"lon": -77.04119133333333, "bike_id": "bd964ac66494f058e62bc08e56f9b331", "lat": 38.9254295, "fusion_lon": 0.0, "fusion_lat": 0.0, "type": "electric_scooter", "name": "bd964ac66494f058e62bc08e56f9b331", "is_disabled": 0, "rental_uris": {"ios": "https://dc.lft.to/lastmile_qr_scan", "android": "https://dc.lft.to/lastmile_qr_scan"}, "is_reserved": 0}, {"lon": -76.9809045, "bike_id": "183172c310860f66cd926a59010b3015", "lat": 38.88131416666667, "fusion_lon": 0.0, "fusion_lat": 0.0, "type": "electric_bike", "name": "183172c310860f66cd926a59010b3015", "is_disabled": 0, "rental_uris": {"ios": "https://dc.lft.to/lastmile_qr_scan", "android": "https://dc.lft.to/lastmile_qr_scan"}, "is_reserved": 0}, {"lon": -77.0419215, "bike_id": "f79963fcbf6569ed55e0e6d9b78421f6", "lat": 38.92620983333333, "fusion_lon": 0.0, "fusion_lat": 0.0, "type": "electric_scooter", "name": "f79963fcbf6569ed55e0e6d9b78421f6", "is_disabled": 0, "rental_uris": {"ios": "https://dc.lft.to/lastmile_qr_scan", "android": "https://dc.lft.to/lastmile_qr_scan"}, "is_reserved": 0}, {"lon": -76.95197233333333, "bike_id": "38dacd468d0646883b74af6b997f002b", "lat": 38.900047, "fusion_lon": 0.0, "fusion_lat": 0.0, "type": "electric_scooter", "name": "38dacd468d0646883b74af6b997f002b", "is_disabled": 0, "rental_uris": {"ios": "https://dc.lft.to/lastmile_qr_scan", "android": "https://dc.lft.to/lastmile_qr_scan"}, "is_reserved": 0}, {"lon": -77.0410605, "bike_id": "08759459b8b42263904dd24b12d23950", "lat": 38.91850683333333, "fusion_lon": 0.0, "fusion_lat": 0.0, "type": "electric_scooter", "name": "08759459b8b42263904dd24b12d23950", "is_disabled": 0, "rental_uris": {"ios": "https://dc.lft.to/lastmile_qr_scan", "android": "https://dc.lft.to/lastmile_qr_scan"}, "is_reserved": 0}, {"lon": -77.0435535, "bike_id": "874536614e3284548fdbb6f5eb24e627", "lat": 38.9216085, "fusion_lon": 0.0, "fusion_lat": 0.0, "type": "electric_scooter", "name": "874536614e3284548fdbb6f5eb24e627", "is_disabled": 0, "rental_uris": {"ios": "https://dc.lft.to/lastmile_qr_scan", "android": "https://dc.lft.to/lastmile_qr_scan"}, "is_reserved": 0}, {"lon": -77.02379316666666, "bike_id": "f51172b692145fb938ea7e659d086f4c", "lat": 38.91832316666667, "fusion_lon": 0.0, "fusion_lat": 0.0, "type": "electric_scooter", "name": "f51172b692145fb938ea7e659d086f4c", "is_disabled": 0, "rental_uris": {"ios": "https://dc.lft.to/lastmile_qr_scan", "android": "https://dc.lft.to/lastmile_qr_scan"}, "is_reserved": 0}, {"lon": -77.03862966666667, "bike_id": "f23209745f224bdaaedb62ed0e8e7e80", "lat": 38.907656333333335, "fusion_lon": 0.0, "fusion_lat": 0.0, "type": "electric_scooter", "name": "f23209745f224bdaaedb62ed0e8e7e80", "is_disabled": 0, "rental_uris": {"ios": "https://dc.lft.to/lastmile_qr_scan", "android": "https://dc.lft.to/lastmile_qr_scan"}, "is_reserved": 0}, {"lon": -77.02964516666667, "bike_id": "e81dc595af84f03b03a06c0704032793", "lat": 38.9256605, "fusion_lon": 0.0, "fusion_lat": 0.0, "type": "electric_scooter", "name": "e81dc595af84f03b03a06c0704032793", "is_disabled": 0, "rental_uris": {"ios": "https://dc.lft.to/lastmile_qr_scan", "android": "https://dc.lft.to/lastmile_qr_scan"}, "is_reserved": 0}, {"lon": -77.00082483333334, "bike_id": "581557df1dd4aed882553afee9cff96f", "lat": 38.87551633333333, "fusion_lon": 0.0, "fusion_lat": 0.0, "type": "electric_scooter", "name": "581557df1dd4aed882553afee9cff96f", "is_disabled": 0, "rental_uris": {"ios": "https://dc.lft.to/lastmile_qr_scan", "android": "https://dc.lft.to/lastmile_qr_scan"}, "is_reserved": 0}, {"lon": -76.99840916666666, "bike_id": "8e4c2c991a6f0d177fb0e0418caf5942", "lat": 38.90236516666667, "fusion_lon": 0.0, "fusion_lat": 0.0, "type": "electric_scooter", "name": "8e4c2c991a6f0d177fb0e0418caf5942", "is_disabled": 0, "rental_uris": {"ios": "https://dc.lft.to/lastmile_qr_scan", "android": "https://dc.lft.to/lastmile_qr_scan"}, "is_reserved": 0}, {"lon": -77.03477016666666, "bike_id": "c758e2d308ac5b4e69c3dbdcf6449ef4", "lat": 38.928632, "fusion_lon": 0.0, "fusion_lat": 0.0, "type": "electric_scooter", "name": "c758e2d308ac5b4e69c3dbdcf6449ef4", "is_disabled": 0, "rental_uris": {"ios": "https://dc.lft.to/lastmile_qr_scan", "android": "https://dc.lft.to/lastmile_qr_scan"}, "is_reserved": 0}, {"lon": -76.931749, "bike_id": "a3e7b3f3cda54d2b4b22bc8fe8ee545a", "lat": 38.8988135, "fusion_lon": 0.0, "fusion_lat": 0.0, "type": "electric_scooter", "name": "a3e7b3f3cda54d2b4b22bc8fe8ee545a", "is_disabled": 0, "rental_uris": {"ios": "https://dc.lft.to/lastmile_qr_scan", "android": "https://dc.lft.to/lastmile_qr_scan"}, "is_reserved": 0}, {"lon": -77.087769, "bike_id": "370502b9e054e620aa3ebe02f9a112dc", "lat": 38.83899366666667, "fusion_lon": 0.0, "fusion_lat": 0.0, "type": "electric_bike", "name": "370502b9e054e620aa3ebe02f9a112dc", "is_disabled": 0, "rental_uris": {"ios": "https://dc.lft.to/lastmile_qr_scan", "android": "https://dc.lft.to/lastmile_qr_scan"}, "is_reserved": 0}, {"lon": -77.03631566666667, "bike_id": "26124d9045cd13a19fc7b2743d9ed4a4", "lat": 38.944954, "fusion_lon": 0.0, "fusion_lat": 0.0, "type": "electric_scooter", "name": "26124d9045cd13a19fc7b2743d9ed4a4", "is_disabled": 0, "rental_uris": {"ios": "https://dc.lft.to/lastmile_qr_scan", "android": "https://dc.lft.to/lastmile_qr_scan"}, "is_reserved": 0}, {"lon": -76.98343383333334, "bike_id": "dc4894d61e48033ea8898c3b172d3d1e", "lat": 38.90454966666667, "fusion_lon": 0.0, "fusion_lat": 0.0, "type": "electric_scooter", "name": "dc4894d61e48033ea8898c3b172d3d1e", "is_disabled": 0, "rental_uris": {"ios": "https://dc.lft.to/lastmile_qr_scan", "android": "https://dc.lft.to/lastmile_qr_scan"}, "is_reserved": 0}, {"lon": -77.03362483333333, "bike_id": "fe948f32662f75464a846a0d3c6afbfc", "lat": 38.93576433333333, "fusion_lon": 0.0, "fusion_lat": 0.0, "type": "electric_scooter", "name": "fe948f32662f75464a846a0d3c6afbfc", "is_disabled": 0, "rental_uris": {"ios": "https://dc.lft.to/lastmile_qr_scan", "android": "https://dc.lft.to/lastmile_qr_scan"}, "is_reserved": 0}, {"lon": -76.996067, "bike_id": "dd2e945751c95810b0c73322ba271bee", "lat": 38.887487666666665, "fusion_lon": 0.0, "fusion_lat": 0.0, "type": "electric_scooter", "name": "dd2e945751c95810b0c73322ba271bee", "is_disabled": 0, "rental_uris": {"ios": "https://dc.lft.to/lastmile_qr_scan", "android": "https://dc.lft.to/lastmile_qr_scan"}, "is_reserved": 0}, {"lon": -77.02656316666666, "bike_id": "6b4e07db502132075d88ebb992c421bb", "lat": 38.978091166666665, "fusion_lon": 0.0, "fusion_lat": 0.0, "type": "electric_scooter", "name": "6b4e07db502132075d88ebb992c421bb", "is_disabled": 0, "rental_uris": {"ios": "https://dc.lft.to/lastmile_qr_scan", "android": "https://dc.lft.to/lastmile_qr_scan"}, "is_reserved": 0}, {"lon": -76.97712683333333, "bike_id": "fe7940a01fbb86b3de5a1234b36835c1", "lat": 38.887758166666664, "fusion_lon": 0.0, "fusion_lat": 0.0, "type": "electric_scooter", "name": "fe7940a01fbb86b3de5a1234b36835c1", "is_disabled": 0, "rental_uris": {"ios": "https://dc.lft.to/lastmile_qr_scan", "android": "https://dc.lft.to/lastmile_qr_scan"}, "is_reserved": 0}, {"lon": -76.9786905, "bike_id": "4a2262af3738d08083ae00cea42f489b", "lat": 38.88300683333333, "fusion_lon": 0.0, "fusion_lat": 0.0, "type": "electric_scooter", "name": "4a2262af3738d08083ae00cea42f489b", "is_disabled": 0, "rental_uris": {"ios": "https://dc.lft.to/lastmile_qr_scan", "android": "https://dc.lft.to/lastmile_qr_scan"}, "is_reserved": 0}, {"lon": -77.01356166666666, "bike_id": "c3a2a80d6081dfbeb52892a63dc86388", "lat": 38.897175833333336, "fusion_lon": 0.0, "fusion_lat": 0.0, "type": "electric_scooter", "name": "c3a2a80d6081dfbeb52892a63dc86388", "is_disabled": 0, "rental_uris": {"ios": "https://dc.lft.to/lastmile_qr_scan", "android": "https://dc.lft.to/lastmile_qr_scan"}, "is_reserved": 0}, {"lon": -77.0449845, "bike_id": "1ea9e6fddcba6cd798ea64c7cceff3af", "lat": 38.903499333333336, "fusion_lon": 0.0, "fusion_lat": 0.0, "type": "electric_scooter", "name": "1ea9e6fddcba6cd798ea64c7cceff3af", "is_disabled": 0, "rental_uris": {"ios": "https://dc.lft.to/lastmile_qr_scan", "android": "https://dc.lft.to/lastmile_qr_scan"}, "is_reserved": 0}, {"lon": -77.04116866666666, "bike_id": "3d2df4bbc6f62aef8ce5e5db2f31e4f0", "lat": 38.934685333333334, "fusion_lon": 0.0, "fusion_lat": 0.0, "type": "electric_scooter", "name": "3d2df4bbc6f62aef8ce5e5db2f31e4f0", "is_disabled": 0, "rental_uris": {"ios": "https://dc.lft.to/lastmile_qr_scan", "android": "https://dc.lft.to/lastmile_qr_scan"}, "is_reserved": 0}, {"lon": -77.0219325, "bike_id": "d6612ef904470cc7f76946498d525aea", "lat": 38.91132233333333, "fusion_lon": 0.0, "fusion_lat": 0.0, "type": "electric_scooter", "name": "d6612ef904470cc7f76946498d525aea", "is_disabled": 0, "rental_uris": {"ios": "https://dc.lft.to/lastmile_qr_scan", "android": "https://dc.lft.to/lastmile_qr_scan"}, "is_reserved": 0},