{"data": {"bikes": [{"bike_id": "48041efdedc4303b16116aacd544f57e", "fusion_lon": 0.0, "name": "48041efdedc4303b16116aacd544f57e", "lat": 38.916426666666666, "is_disabled": 0, "is_reserved": 0, "lon": -77.04780233333334, "type": "electric_scooter", "fusion_lat": 0.0, "rental_uris": {"android": "https://dc.lft.to/lastmile_qr_scan", "ios": "https://dc.lft.to/lastmile_qr_scan"}}, {"bike_id": "3278a9e6b7cc5e912026d5faacbe2be4", "fusion_lon": 0.0, "name": "3278a9e6b7cc5e912026d5faacbe2be4", "lat": 38.89875083333333, "is_disabled": 0, "is_reserved": 0, "lon": -77.03264, "type": "electric_scooter", "fusion_lat": 0.0, "rental_uris": {"android": "https://dc.lft.to/lastmile_qr_scan", "ios": "https://dc.lft.to/lastmile_qr_scan"}}, {"bike_id": "ed0ec6e4dee2018b6630f0af207403ad", "fusion_lon": 0.0, "name": "ed0ec6e4dee2018b6630f0af207403ad", "lat": 38.9170705, "is_disabled": 0, "is_reserved": 0, "lon": -77.03472216666667, "type": "electric_scooter", "fusion_lat": 0.0, "rental_uris": {"android": "https://dc.lft.to/lastmile_qr_scan", "ios": "https://dc.lft.to/lastmile_qr_scan"}}, {"bike_id": "c4904593b0d08092857788a777891f0a", "fusion_lon": 0.0, "name": "c4904593b0d08092857788a777891f0a", "lat": 38.921037, "is_disabled": 0, "is_reserved": 0, "lon": -77.013175, "type": "electric_scooter", "fusion_lat": 0.0, "rental_uris": {"android": "https://dc.lft.to/lastmile_qr_scan", "ios": "https://dc.lft.to/lastmile_qr_scan"}}, {"bike_id": "23bbf67693470fb6b60de7d3a42fe945", "fusion_lon": 0.0, "name": "23bbf67693470fb6b60de7d3a42fe945", "lat": 38.961246833333334, "is_disabled": 0, "is_reserved": 0, "lon": -77.03269916666666, "type": "electric_bike", "fusion_lat": 0.0, "rental_uris": {"android": "https://dc.lft.to/lastmile_qr_scan", "ios": "https://dc.lft.to/lastmile_qr_scan"}}, {"bike_id": "cd105d888eb679cab5277c3eeda153d2", "fusion_lon": 0.0, "name": "cd105d888eb679cab5277c3eeda153d2", "lat": 38.8846265, "is_disabled": 0, "is_reserved": 0, "lon": -76.94980483333333, "type": "electric_scooter", "fusion_lat": 0.0, "rental_uris": {"android": "https://dc.lft.to/lastmile_qr_scan", "ios": "https://dc.lft.to/lastmile_qr_scan"}}, {"bike_id": "4e44267708b02de771a8e35b71c3b09e", "fusion_lon": 0.0, "name": "4e44267708b02de771a8e35b71c3b09e", "lat": 38.9367925, "is_disabled": 0, "is_reserved": 0, "lon": -77.03590833333334, "type": "electric_scooter", "fusion_lat": 0.0, "rental_uris": {"android": "https://dc.lft.to/lastmile_qr_scan", "ios": "https://dc.lft.to/lastmile_qr_scan"}}, {"bike_id": "c61e53afd8bf0708c07cb9ff451ae616", "fusion_lon": 0.0, "name": "c61e53afd8bf0708c07cb9ff451ae616", "lat": 38.908985, "is_disabled": 0, "is_reserved": 0, "lon": -77.04308783333333, "type": "electric_scooter", "fusion_lat": 0.0, "rental_uris": {"android": "https://dc.lft.to/lastmile_qr_scan", "ios": "https://dc.lft.to/lastmile_qr_scan"}}, {"bike_id": "a3b7949ced3e3a869c2ec5b56c1e085d", "fusion_lon": 0.0, "name": "a3b7949ced3e3a869c2ec5b56c1e085d", "lat": 38.88317583333333, "is_disabled": 0, "is_reserved": 0, "lon": -77.01759083333333, "type": "electric_scooter", "fusion_lat": 0.0, "rental_uris": {"android": "https://dc.lft.to/lastmile_qr_scan", "ios": "https://dc.lft.to/lastmile_qr_scan"}}, {"bike_id": "076bd0f9fae04bf72167e54cf242525b", "fusion_lon": 0.0, "name": "076bd0f9fae04bf72167e54cf242525b", "lat": 38.9052335, "is_disabled": 0, "is_reserved": 0, "lon": -77.06381616666667, "type": "electric_scooter", "fusion_lat": 0.0, "rental_uris": {"android": "https://dc.lft.to/lastmile_qr_scan", "ios": "https://dc.lft.to/lastmile_qr_scan"}}, {"bike_id": "ef5c110fd9478a5565cdd37ed3a2ca40", "fusion_lon": 0.0, "name": "ef5c110fd9478a5565cdd37ed3a2ca40", "lat": 38.967288833333335, "is_disabled": 0, "is_reserved": 0, "lon": -77.009178, "type": "electric_scooter", "fusion_lat": 0.0, "rental_uris": {"android": "https://dc.lft.to/lastmile_qr_scan", "ios": "https://dc.lft.to/lastmile_qr_scan"}}, {"bike_id": "ce7576cf8bd3987e2d32a2ee8a1fe430", "fusion_lon": 0.0, "name": "ce7576cf8bd3987e2d32a2ee8a1fe430", "lat": 38.9525125, "is_disabled": 0, "is_reserved": 0, "lon": -77.02380916666667, "type": "electric_scooter", "fusion_lat": 0.0, "rental_uris": {"android": "https://dc.lft.to/lastmile_qr_scan", "ios": "https://dc.lft.to/lastmile_qr_scan"}}, {"bike_id": "c92d6af5afac91b44f39c6669d1253a4", "fusion_lon": 0.0, "name": "c92d6af5afac91b44f39c6669d1253a4", "lat": 38.92863716666667, "is_disabled": 0, "is_reserved": 0, "lon": -77.03218783333334, "type": "electric_scooter", "fusion_lat": 0.0, "rental_uris": {"android": "https://dc.lft.to/lastmile_qr_scan", "ios": "https://dc.lft.to/lastmile_qr_scan"}}, {"bike_id": "8eb84a9a2a0a97ba27fa2b32f2f3c6c3", "fusion_lon": 0.0, "name": "8eb84a9a2a0a97ba27fa2b32f2f3c6c3", "lat": 38.885045, "is_disabled": 0, "is_reserved": 0, "lon": -77.00566366666666, "type": "electric_scooter", "fusion_lat": 0.0, "rental_uris": {"android": "https://dc.lft.to/lastmile_qr_scan", "ios": "https://dc.lft.to/lastmile_qr_scan"}}, {"bike_id": "4cda238e43946569a6b39696b5fcdd8e", "fusion_lon": 0.0, "name": "4cda238e43946569a6b39696b5fcdd8e", "lat": 38.89254616666667, "is_disabled": 0, "is_reserved": 0, "lon": -76.95120083333333, "type": "electric_bike", "fusion_lat": 0.0, "rental_uris": {"android": "https://dc.lft.to/lastmile_qr_scan", "ios": "https://dc.lft.to/lastmile_qr_scan"}}, {"bike_id": "4715c1d8b7be6fc7ead2d19bd206686d", "fusion_lon": 0.0, "name": "4715c1d8b7be6fc7ead2d19bd206686d", "lat": 38.896200666666665, "is_disabled": 0, "is_reserved": 0, "lon": -77.02658666666666, "type": "electric_scooter", "fusion_lat": 0.0, "rental_uris": {"android": "https://dc.lft.to/lastmile_qr_scan", "ios": "https://dc.lft.to/lastmile_qr_scan"}}, {"bike_id": "dbb1aad504d8a10d2c67750a7c468a3f", "fusion_lon": 0.0, "name": "dbb1aad504d8a10d2c67750a7c468a3f", "lat": 38.922257333333334, "is_disabled": 0, "is_reserved": 0, "lon": -77.04231183333333, "type": "electric_scooter", "fusion_lat": 0.0, "rental_uris": {"android": "https://dc.lft.to/lastmile_qr_scan", "ios": "https://dc.lft.to/lastmile_qr_scan"}}, {"bike_id": "7aa329976588a27ecdb68723ad9e65fa", "fusion_lon": 0.0, "name": "7aa329976588a27ecdb68723ad9e65fa", "lat": 38.88334433333333, "is_disabled": 0, "is_reserved": 0, "lon": -77.0173925, "type": "electric_scooter", "fusion_lat": 0.0, "rental_uris": {"android": "https://dc.lft.to/lastmile_qr_scan", "ios": "https://dc.lft.to/lastmile_qr_scan"}}, {"bike_id": "615fccba86280e2fd887487dbefd9642", "fusion_lon": 0.0, "name": "615fccba86280e2fd887487dbefd9642", "lat": 38.896050333333335, "is_disabled": 0, "is_reserved": 0, "lon": -77.0283895, "type": "electric_scooter", "fusion_lat": 0.0, "rental_uris": {"android": "https://dc.lft.to/lastmile_qr_scan", "ios": "https://dc.lft.to/lastmile_qr_scan"}}, {"bike_id": "a053136ad8635977054a97bfa4ed31b9", "fusion_lon": 0.0, "name": "a053136ad8635977054a97bfa4ed31b9", "lat": 38.898499666666666, "is_disabled": 0, "is_reserved": 0, "lon": -77.00737866666667, "type": "electric_scooter", "fusion_lat": 0.0, "rental_uris": {"android": "https://dc.lft.to/lastmile_qr_scan", "ios": "https://dc.lft.to/lastmile_qr_scan"}}, {"bike_id": "c113a61d8d1903041e5716e456b0f3cb", "fusion_lon": 0.0, "name": "c113a61d8d1903041e5716e456b0f3cb", "lat": 38.93180733333333, "is_disabled": 0, "is_reserved": 0, "lon": -77.03849816666667, "type": "electric_scooter", "fusion_lat": 0.0, "rental_uris": {"android": "https://dc.lft.to/lastmile_qr_scan", "ios": "https://dc.lft.to/lastmile_qr_scan"}}, {"bike_id": "704b8923d325e66b7419e009c583924c", "fusion_lon": 0.0, "name": "704b8923d325e66b7419e009c583924c", "lat": 38.899669, "is_disabled": 0, "is_reserved": 0, "lon": -77.04655583333333, "type": "electric_scooter", "fusion_lat": 0.0, "rental_uris": {"android": "https://dc.lft.to/lastmile_qr_scan", "ios": "https://dc.lft.to/lastmile_qr_scan"}}, {"bike_id": "2fd608d5808305e1bb62581cce35b80d", "fusion_lon": 0.0, "name": "2fd608d5808305e1bb62581cce35b80d", "lat": 38.80452983333333, "is_disabled": 0, "is_reserved": 0, "lon": -77.053882, "type": "electric_bike", "fusion_lat": 0.0, "rental_uris": {"android": "https://dc.lft.to/lastmile_qr_scan", "ios": "https://dc.lft.to/lastmile_qr_scan"}}, {"bike_id": "681c3d053be0bc8d891294831dbb15f7", "fusion_lon": 0.0, "name": "681c3d053be0bc8d891294831dbb15f7", "lat": 38.887027, "is_disabled": 0, "is_reserved": 0, "lon": -77.00246433333334, "type": "electric_scooter", "fusion_lat": 0.0, "rental_uris": {"android": "https://dc.lft.to/lastmile_qr_scan", "ios": "https://dc.lft.to/lastmile_qr_scan"}}, {"bike_id": "2cef5e4dfb37e1c0c50d6bcc1126ce63", "fusion_lon": 0.0, "name": "2cef5e4dfb37e1c0c50d6bcc1126ce63", "lat": 38.9156935, "is_disabled": 0, "is_reserved": 0, "lon": -77.04636116666667, "type": "electric_scooter", "fusion_lat": 0.0, "rental_uris": {"android": "https://dc.lft.to/lastmile_qr_scan", "ios": "https://dc.lft.to/lastmile_qr_scan"}}, {"bike_id": "b48d86e530092e33716997978ed948a3", "fusion_lon": 0.0, "name": "b48d86e530092e33716997978ed948a3", "lat": 38.907436833333335, "is_disabled": 0, "is_reserved": 0, "lon": -77.043429, "type": "electric_scooter", "fusion_lat": 0.0, "rental_uris": {"android": "https://dc.lft.to/lastmile_qr_scan", "ios": "https://dc.lft.to/lastmile_qr_scan"}}, {"bike_id": "4c00d82b35b01b6464cb6cb7d9f1a47a", "fusion_lon": 0.0, "name": "4c00d82b35b01b6464cb6cb7d9f1a47a", "lat": 38.90166583333333, "is_disabled": 0, "is_reserved": 0, "lon": -77.034422, "type": "electric_scooter", "fusion_lat": 0.0, "rental_uris": {"android": "https://dc.lft.to/lastmile_qr_scan", "ios": "https://dc.lft.to/lastmile_qr_scan"}}, {"bike_id": "44be11a863db1b930e7806485a49603a", "fusion_lon": 0.0, "name": "44be11a863db1b930e7806485a49603a", "lat": 38.9142755, "is_disabled": 0, "is_reserved": 0, "lon": -77.069214, "type": "electric_bike", "fusion_lat": 0.0, "rental_uris": {"android": "https://dc.lft.to/lastmile_qr_scan", "ios": "https://dc.lft.to/lastmile_qr_scan"}}, {"bike_id": "74953f3cfc003969c0d3606965f20004", "fusion_lon": 0.0, "name": "74953f3cfc003969c0d3606965f20004", "lat": 38.924568, "is_disabled": 0, "is_reserved": 0, "lon": -76.983599, "type": "electric_scooter", "fusion_lat": 0.0, "rental_uris": {"android": "https://dc.lft.to/lastmile_qr_scan", "ios": "https://dc.lft.to/lastmile_qr_scan"}}, {"bike_id": "e63be34225bffedf3fc5142e482e377c", "fusion_lon": 0.0, "name": "e63be34225bffedf3fc5142e482e377c", "lat": 38.8795455, "is_disabled": 0, "is_reserved": 0, "lon": -76.99021933333333, "type": "electric_scooter", "fusion_lat": 0.0, "rental_uris": {"android": "https://dc.lft.to/lastmile_qr_scan", "ios": "https://dc.lft.to/lastmile_qr_scan"}}, {"bike_id": "0410ae044466659ca8d98a5f36184c76", "fusion_lon": 0.0, "name": "0410ae044466659ca8d98a5f36184c76", "lat": 38.845962666666665, "is_disabled": 0, "is_reserved": 0, "lon": -77.11159283333333, "type": "electric_bike", "fusion_lat": 0.0, "rental_uris": {"android": "https://dc.lft.to/lastmile_qr_scan", "ios": "https://dc.lft.to/lastmile_qr_scan"}}, {"bike_id": "e0cff5d1329bfee588d97096baf6fc64", "fusion_lon": 0.0, "name": "e0cff5d1329bfee588d97096baf6fc64", "lat": 38.88316583333334, "is_disabled": 0, "is_reserved": 0, "lon": -77.01773183333333, "type": "electric_scooter", "fusion_lat": 0.0, "rental_uris": {"android": "https://dc.lft.to/lastmile_qr_scan", "ios": "https://dc.lft.to/lastmile_qr_scan"}}, {"bike_id": "9130d1f8c460be50b04edb3e61aca500", "fusion_lon": 0.0, "name": "9130d1f8c460be50b04edb3e61aca500", "lat": 38.914826166666664, "is_disabled": 0, "is_reserved": 0, "lon": -77.04560283333333, "type": "electric_scooter", "fusion_lat": 0.0, "rental_uris": {"android": "https://dc.lft.to/lastmile_qr_scan", "ios": "https://dc.lft.to/lastmile_qr_scan"}}, {"bike_id": "ab8150f509a04d67bebcd3f5363ec3a0", "fusion_lon": 0.0, "name": "ab8150f509a04d67bebcd3f5363ec3a0", "lat": 38.821841, "is_disabled": 0, "is_reserved": 0, "lon": -76.99521983333334, "type": "electric_bike", "fusion_lat": 0.0, "rental_uris": {"android": "https://dc.lft.to/lastmile_qr_scan", "ios": "https://dc.lft.to/lastmile_qr_scan"}}, {"bike_id": "ba921035f2f11b563a5aea6d7fdf4d48", "fusion_lon": 0.0, "name": "ba921035f2f11b563a5aea6d7fdf4d48", "lat": 38.9068545, "is_disabled": 0, "is_reserved": 0, "lon": -77.03474533333333, "type": "electric_scooter", "fusion_lat": 0.0, "rental_uris": {"android": "https://dc.lft.to/lastmile_qr_scan", "ios": "https://dc.lft.to/lastmile_qr_scan"}}, {"bike_id": "182b25d70346226f986000dcdd4b8b57", "fusion_lon": 0.0, "name": "182b25d70346226f986000dcdd4b8b57", "lat": 38.89829483333333, "is_disabled": 0, "is_reserved": 0, "lon": -76.94631383333333, "type": "electric_scooter", "fusion_lat": 0.0, "rental_uris": {"android": "https://dc.lft.to/lastmile_qr_scan", "ios": "https://dc.lft.to/lastmile_qr_scan"}}, {"bike_id": "acefa55f3c33b6fb0f0ae45dfe1dbcff", "fusion_lon": 0.0, "name": "acefa55f3c33b6fb0f0ae45dfe1dbcff", "lat": 38.90397933333333, "is_disabled": 0, "is_reserved": 0, "lon": -77.03850733333333, "type": "electric_scooter", "fusion_lat": 0.0, "rental_uris": {"android": "https://dc.lft.to/lastmile_qr_scan", "ios": "https://dc.lft.to/lastmile_qr_scan"}}, {"bike_id": "d8300f6822bdfb9b8857ca7902933c1c", "fusion_lon": 0.0, "name": "d8300f6822bdfb9b8857ca7902933c1c", "lat": 38.898707, "is_disabled": 0, "is_reserved": 0, "lon": -77.03276666666666, "type": "electric_scooter", "fusion_lat": 0.0, "rental_uris": {"android": "https://dc.lft.to/lastmile_qr_scan", "ios": "https://dc.lft.to/lastmile_qr_scan"}}, {"bike_id": "4571df93638a050e3ec89dc2aa0362ef", "fusion_lon": 0.0, "name": "4571df93638a050e3ec89dc2aa0362ef", "lat": 38.926027500000004, "is_disabled": 0, "is_reserved": 0, "lon": -77.0215455, "type": "electric_scooter", "fusion_lat": 0.0, "rental_uris": {"android": "https://dc.lft.to/lastmile_qr_scan", "ios": "https://dc.lft.to/lastmile_qr_scan"}}, {"bike_id": "195428a79bf84e47c92603d2fb3b6ebe", "fusion_lon": 0.0, "name": "195428a79bf84e47c92603d2fb3b6ebe", "lat": 38.92421016666667, "is_disabled": 0, "is_reserved": 0, "lon": -77.019475, "type": "electric_scooter", "fusion_lat": 0.0, "rental_uris": {"android": "https://dc.lft.to/lastmile_qr_scan", "ios": "https://dc.lft.to/lastmile_qr_scan"}}, {"bike_id": "eb1d2652acd7052822b0f2f5a03975cc", "fusion_lon": 0.0, "name": "eb1d2652acd7052822b0f2f5a03975cc", "lat": 38.89921733333333, "is_disabled": 0, "is_reserved": 0, "lon": -77.07191033333334, "type": "electric_scooter", "fusion_lat": 0.0, "rental_uris": {"android": "https://dc.lft.to/lastmile_qr_scan", "ios": "https://dc.lft.to/lastmile_qr_scan"}}, {"bike_id": "bd440760453bf3415bf3febec7b7c2f6", "fusion_lon": 0.0, "name": "bd440760453bf3415bf3febec7b7c2f6", "lat": 38.905684, "is_disabled": 0, "is_reserved": 0, "lon": -77.0463055, "type": "electric_scooter", "fusion_lat": 0.0, "rental_uris": {"android": "https://dc.lft.to/lastmile_qr_scan", "ios": "https://dc.lft.to/lastmile_qr_scan"}}, {"bike_id": "d985cdf2df59f9419bde7f98e256d466", "fusion_lon": 0.0, "name": "d985cdf2df59f9419bde7f98e256d466", "lat": 38.92232283333333, "is_disabled": 0, "is_reserved": 0, "lon": -77.02975683333334, "type": "electric_scooter", "fusion_lat": 0.0, "rental_uris": {"android": "https://dc.lft.to/lastmile_qr_scan", "ios": "https://dc.lft.to/lastmile_qr_scan"}}, {"bike_id": "f08dcaef521bed5f2d2d289815784339", "fusion_lon": 0.0, "name": "f08dcaef521bed5f2d2d289815784339", "lat": 38.873966, "is_disabled": 0, "is_reserved": 0, "lon": -77.000212, "type": "electric_scooter", "fusion_lat": 0.0, "rental_uris": {"android": "https://dc.lft.to/lastmile_qr_scan", "ios": "https://dc.lft.to/lastmile_qr_scan"}}, {"bike_id": "bc29c853a98876a31f6d017406f521f3", "fusion_lon": 0.0, "name": "bc29c853a98876a31f6d017406f521f3", "lat": 38.8963245, "is_disabled": 0, "is_reserved": 0, "lon": -77.03323233333333, "type": "electric_scooter", "fusion_lat": 0.0, "rental_uris": {"android": "https://dc.lft.to/lastmile_qr_scan", "ios": "https://dc.lft.to/lastmile_qr_scan"}}, {"bike_id": "3278692f8e231ad76c5aa6d1536e8e16", "fusion_lon": 0.0, "name": "3278692f8e231ad76c5aa6d1536e8e16", "lat": 38.943327, "is_disabled": 0, "is_reserved": 0, "lon": -77.02688166666667, "type": "electric_scooter", "fusion_lat": 0.0, "rental_uris": {"android": "https://dc.lft.to/lastmile_qr_scan", "ios": "https://dc.lft.to/lastmile_qr_scan"}}, {"bike_id": "af28f232eba50b236bb97ae0c8eadf1c", "fusion_lon": 0.0, "name": "af28f232eba50b236bb97ae0c8eadf1c", "lat": 38.938749666666666, "is_disabled": 0, "is_reserved": 0, "lon": -77.03082666666667, "type": "electric_scooter", "fusion_lat": 0.0, "rental_uris": {"android": "https://dc.lft.to/lastmile_qr_scan", "ios": "https://dc.lft.to/lastmile_qr_scan"}}, {"bike_id": "66fb85d95328d06cc6013a97466a339e", "fusion_lon": 0.0, "name": "66fb85d95328d06cc6013a97466a339e", "lat": 38.917074, "is_disabled": 0, "is_reserved": 0, "lon": -77.00112533333333, "type": "electric_scooter", "fusion_lat": 0.0, "rental_uris": {"android": "https://dc.lft.to/lastmile_qr_scan", "ios": "https://dc.lft.to/lastmile_qr_scan"}}, {"bike_id": "b8b282141329a54e8d5e758d3b83c0e9", "fusion_lon": 0.0, "name": "b8b282141329a54e8d5e758d3b83c0e9", "lat": 38.90242033333333, "is_disabled": 0, "is_reserved": 0, "lon": -77.01731766666667, "type": "electric_bike", "fusion_lat": 0.0, "rental_uris": {"android": "https://dc.lft.to/lastmile_qr_scan", "ios": "https://dc.lft.to/lastmile_qr_scan"}}, {"bike_id": "261278f394a2c5b36e96769bb183d665", "fusion_lon": 0.0, "name": "261278f394a2c5b36e96769bb183d665", "lat": 38.91911833333333, "is_disabled": 0, "is_reserved": 0, "lon": -77.04100116666666, "type": "electric_scooter", "fusion_lat": 0.0, "rental_uris": {"android": "https://dc.lft.to/lastmile_qr_scan", "ios": "https://dc.lft.to/lastmile_qr_scan"}}, {"bike_id": "bb53f0f29d678120ecd71be8821b54c2", "fusion_lon": 0.0, "name": "bb53f0f29d678120ecd71be8821b54c2", "lat": 38.896198166666665, "is_disabled": 0, "is_reserved": 0, "lon": -77.00915233333333, "type": "electric_scooter", "fusion_lat": 0.0, "rental_uris": {"android": "https://dc.lft.to/lastmile_qr_scan", "ios": "https://dc.lft.to/lastmile_qr_scan"}}, {"bike_id": "b6442ca467f8b8bc01d430898a680176", "fusion_lon": 0.0, "name": "b6442ca467f8b8bc01d430898a680176", "lat": 38.873711666666665, "is_disabled": 0, "is_reserved": 0, "lon": -76.97002316666666, "type": "electric_scooter", "fusion_lat": 0.0, "rental_uris": {"android": "https://dc.lft.to/lastmile_qr_scan", "ios": "https://dc.lft.to/lastmile_qr_scan"}}, {"bike_id": "9a830705a92209297cb3efdd0df6b585", "fusion_lon": 0.0, "name": "9a830705a92209297cb3efdd0df6b585", "lat": 38.88302316666667, "is_disabled": 0, "is_reserved": 0, "lon": -77.017696, "type": "electric_scooter", "fusion_lat": 0.0, "rental_uris": {"android": "https://dc.lft.to/lastmile_qr_scan", "ios": "https://dc.lft.to/lastmile_qr_scan"}}, {"bike_id": "993a2ac3f07f3fbe3ac0a0a1bd660023", "fusion_lon": 0.0, "name": "993a2ac3f07f3fbe3ac0a0a1bd660023", "lat": 38.904731166666664, "is_disabled": 0, "is_reserved": 0, "lon": -77.03473966666667, "type": "electric_scooter", "fusion_lat": 0.0, "rental_uris": {"android": "https://dc.lft.to/lastmile_qr_scan", "ios": "https://dc.lft.to/lastmile_qr_scan"}}, {"bike_id": "313b115a06c01e0fc65d11aa8095b3dd", "fusion_lon": 0.0, "name": "313b115a06c01e0fc65d11aa8095b3dd", "lat": 38.9098015, "is_disabled": 0, "is_reserved": 0, "lon": -77.064991, "type": "electric_scooter", "fusion_lat": 0.0, "rental_uris": {"android": "https://dc.lft.to/lastmile_qr_scan", "ios": "https://dc.lft.to/lastmile_qr_scan"}}, {"bike_id": "9d45260f2a40a0cf42844c36abb56cb2", "fusion_lon": 0.0, "name": "9d45260f2a40a0cf42844c36abb56cb2", "lat": 38.89875466666667, "is_disabled": 0, "is_reserved": 0, "lon": -76.931827, "type": "electric_scooter", "fusion_lat": 0.0, "rental_uris": {"android": "https://dc.lft.to/lastmile_qr_scan", "ios": "https://dc.lft.to/lastmile_qr_scan"}}, {"bike_id": "13990ba15f178e48e8b27b008e23e030", "fusion_lon": 0.0, "name": "13990ba15f178e48e8b27b008e23e030", "lat": 38.930477333333336, "is_disabled": 0, "is_reserved": 0, "lon": -77.0379545, "type": "electric_scooter", "fusion_lat": 0.0, "rental_uris": {"android": "https://dc.lft.to/lastmile_qr_scan", "ios": "https://dc.lft.to/lastmile_qr_scan"}}, {"bike_id": "a46a793f668ab7e2f833c32c48d51d93", "fusion_lon": 0.0, "name": "a46a793f668ab7e2f833c32c48d51d93", "lat": 38.91185516666667, "is_disabled": 0, "is_reserved": 0, "lon": -77.03863916666667, "type": "electric_scooter", "fusion_lat": 0.0, "rental_uris": {"android": "https://dc.lft.to/lastmile_qr_scan", "ios": "https://dc.lft.to/lastmile_qr_scan"}}, {"bike_id": "86ef87576e720a1dc5eb738ae8cadf68", "fusion_lon": 0.0, "name": "86ef87576e720a1dc5eb738ae8cadf68", "lat": 38.92313333333333, "is_disabled": 0, "is_reserved": 0, "lon": -77.01950266666667, "type": "electric_scooter", "fusion_lat": 0.0, "rental_uris": {"android": "https://dc.lft.to/lastmile_qr_scan", "ios": "https://dc.lft.to/lastmile_qr_scan"}}, {"bike_id": "e818bc942bebb5e9891588bd4e431e57", "fusion_lon": 0.0, "name": "e818bc942bebb5e9891588bd4e431e57", "lat": 38.887396833333334, "is_disabled": 0, "is_reserved": 0, "lon": -77.01532816666666, "type": "electric_scooter", "fusion_lat": 0.0, "rental_uris": {"android": "https://dc.lft.to/lastmile_qr_scan", "ios": "https://dc.lft.to/lastmile_qr_scan"}}, {"bike_id": "16c05e6de232dda8a2baf4a528bf0100", "fusion_lon": 0.0, "name": "16c05e6de232dda8a2baf4a528bf0100", "lat": 38.897602666666664, "is_disabled": 0, "is_reserved": 0, "lon": -77.00901383333333, "type": "electric_scooter", "fusion_lat": 0.0, "rental_uris": {"android": "https://dc.lft.to/lastmile_qr_scan", "ios": "https://dc.lft.to/lastmile_qr_scan"}}, {"bike_id": "eab21e5ef9c1124081e0a5fd8ba0643a", "fusion_lon": 0.0, "name": "eab21e5ef9c1124081e0a5fd8ba0643a", "lat": 38.883346333333336, "is_disabled": 0, "is_reserved": 0, "lon": -77.0173915, "type": "electric_scooter", "fusion_lat": 0.0, "rental_uris": {"android": "https://dc.lft.to/lastmile_qr_scan", "ios": "https://dc.lft.to/lastmile_qr_scan"}}, {"bike_id": "718812ff1823a9a8d74184d7acffc083", "fusion_lon": 0.0, "name": "718812ff1823a9a8d74184d7acffc083", "lat": 39.052541, "is_disabled": 0, "is_reserved": 0, "lon": -77.080666, "type": "electric_bike", "fusion_lat": 0.0, "rental_uris": {"android": "https://dc.lft.to/lastmile_qr_scan", "ios": "https://dc.lft.to/lastmile_qr_scan"}}, {"bike_id": "8ee3e0a6a6fe469763ca34bd16221492", "fusion_lon": 0.0, "name": "8ee3e0a6a6fe469763ca34bd16221492", "lat": 38.845063333333336, "is_disabled": 0, "is_reserved": 0, "lon": -76.9935275, "type": "electric_bike", "fusion_lat": 0.0, "rental_uris": {"android": "https://dc.lft.to/lastmile_qr_scan", "ios": "https://dc.lft.to/lastmile_qr_scan"}}, {"bike_id": "74f7dff74bacdd251bc2b8c8def9a0af", "fusion_lon": 0.0, "name": "74f7dff74bacdd251bc2b8c8def9a0af", "lat": 38.9248295, "is_disabled": 0, "is_reserved": 0, "lon": -77.02755083333334, "type": "electric_scooter", "fusion_lat": 0.0, "rental_uris": {"android": "https://dc.lft.to/lastmile_qr_scan", "ios": "https://dc.lft.to/lastmile_qr_scan"}}, {"bike_id": "4c9b76cc52f80e0a461db87aa879d77f", "fusion_lon": 0.0, "name": "4c9b76cc52f80e0a461db87aa879d77f", "lat": 38.90203416666667, "is_disabled": 0, "is_reserved": 0, "lon": -77.027646, "type": "electric_scooter", "fusion_lat": 0.0, "rental_uris": {"android": "https://dc.lft.to/lastmile_qr_scan", "ios": "https://dc.lft.to/lastmile_qr_scan"}}, {"bike_id": "5ba1fba84939a9558ec84c3c97bdf0bf", "fusion_lon": 0.0, "name": "5ba1fba84939a9558ec84c3c97bdf0bf", "lat": 38.91702016666667, "is_disabled": 0, "is_reserved": 0, "lon": -77.01167816666667, "type": "electric_scooter", "fusion_lat": 0.0, "rental_uris": {"android": "https://dc.lft.to/lastmile_qr_scan", "ios": "https://dc.lft.to/lastmile_qr_scan"}}, {"bike_id": "3a5c46379fda11aa5c4a4c628dbc5d28", "fusion_lon": 0.0, "name": "3a5c46379fda11aa5c4a4c628dbc5d28", "lat": 38.8975505, "is_disabled": 0, "is_reserved": 0, "lon": -77.0303015, "type": "electric_scooter", "fusion_lat": 0.0, "rental_uris": {"android": "https://dc.lft.to/lastmile_qr_scan", "ios": "https://dc.lft.to/lastmile_qr_scan"}}, {"bike_id": "f2c7edf7a13fec763b32477f8772c27e", "fusion_lon": 0.0, "name": "f2c7edf7a13fec763b32477f8772c27e", "lat": 38.95933633333333, "is_disabled": 0, "is_reserved": 0, "lon": -77.03119416666667, "type": "electric_scooter", "fusion_lat": 0.0, "rental_uris": {"android": "https://dc.lft.to/lastmile_qr_scan", "ios": "https://dc.lft.to/lastmile_qr_scan"}}, {"bike_id": "24e4ed9268d4e76ba982db9089153b20", "fusion_lon": 0.0, "name": "24e4ed9268d4e76ba982db9089153b20", "lat": 38.912115, "is_disabled": 0, "is_reserved": 0, "lon": -77.0379215, "type": "electric_scooter", "fusion_lat": 0.0, "rental_uris": {"android": "https://dc.lft.to/lastmile_qr_scan", "ios": "https://dc.lft.to/lastmile_qr_scan"}}, {"bike_id": "65ff120e4f4e6afbd0e52f60725445b0", "fusion_lon": 0.0, "name": "65ff120e4f4e6afbd0e52f60725445b0", "lat": 38.918223166666664, "is_disabled": 0, "is_reserved": 0, "lon": -77.041671, "type": "electric_scooter", "fusion_lat": 0.0, "rental_uris": {"android": "https://dc.lft.to/lastmile_qr_scan", "ios": "https://dc.lft.to/lastmile_qr_scan"}}, {"bike_id": "019a640059a4cb0b8cc2ce288abf57aa", "fusion_lon": 0.0, "name": "019a640059a4cb0b8cc2ce288abf57aa", "lat": 38.91930266666667, "is_disabled": 0, "is_reserved": 0, "lon": -77.02342433333334, "type": "electric_scooter", "fusion_lat": 0.0, "rental_uris": {"android": "https://dc.lft.to/lastmile_qr_scan", "ios": "https://dc.lft.to/lastmile_qr_scan"}}, {"bike_id": "1d3b4f18ffdd7b4a8332c0ff14c94da2", "fusion_lon": 0.0, "name": "1d3b4f18ffdd7b4a8332c0ff14c94da2", "lat": 38.920799833333334, "is_disabled": 0, "is_reserved": 0, "lon": -76.997304, "type": "electric_scooter", "fusion_lat": 0.0, "rental_uris": {"android": "https://dc.lft.to/lastmile_qr_scan", "ios": "https://dc.lft.to/lastmile_qr_scan"}}, {"bike_id": "651db24fb083a0d812f65dbb9cc6243d", "fusion_lon": 0.0, "name": "651db24fb083a0d812f65dbb9cc6243d", "lat": 38.916782833333336, "is_disabled": 0, "is_reserved": 0, "lon": -77.0368895, "type": "electric_scooter", "fusion_lat": 0.0, "rental_uris": {"android": "https://dc.lft.to/lastmile_qr_scan", "ios": "https://dc.lft.to/lastmile_qr_scan"}}, {"bike_id": "f0811c7497d976fb57c83d1f8ce20af5", "fusion_lon": 0.0, "name": "f0811c7497d976fb57c83d1f8ce20af5", "lat": 38.882993, "is_disabled": 0, "is_reserved": 0, "lon": -77.024776, "type": "electric_scooter", "fusion_lat": 0.0, "rental_uris": {"android": "https://dc.lft.to/lastmile_qr_scan", "ios": "https://dc.lft.to/lastmile_qr_scan"}}, {"bike_id": "e1fd83e9479f4ff178675435234108c8", "fusion_lon": 0.0, "name": "e1fd83e9479f4ff178675435234108c8", "lat": 38.883740833333334, "is_disabled": 0, "is_reserved": 0, "lon": -77.0199165, "type": "electric_scooter", "fusion_lat": 0.0, "rental_uris": {"android": "https://dc.lft.to/lastmile_qr_scan", "ios": "https://dc.lft.to/lastmile_qr_scan"}}, {"bike_id": "16d469aa202a516d2193bc0be9570dc6", "fusion_lon": 0.0, "name": "16d469aa202a516d2193bc0be9570dc6", "lat": 38.931938, "is_disabled": 0, "is_reserved": 0, "lon": -77.22926966666667, "type": "electric_bike", "fusion_lat": 0.0, "rental_uris": {"android": "https://dc.lft.to/lastmile_qr_scan", "ios": "https://dc.lft.to/lastmile_qr_scan"}}, {"bike_id": "069787823ff0475f8a38fc08785ee60c", "fusion_lon": 0.0, "name": "069787823ff0475f8a38fc08785ee60c", "lat": 38.91357333333333, "is_disabled": 0, "is_reserved": 0, "lon": -77.03444416666666, "type": "electric_scooter", "fusion_lat": 0.0, "rental_uris": {"android": "https://dc.lft.to/lastmile_qr_scan", "ios": "https://dc.lft.to/lastmile_qr_scan"}}, {"bike_id": "bce6f1683a51d008f4b41a1f8c318be2", "fusion_lon": 0.0, "name": "bce6f1683a51d008f4b41a1f8c318be2", "lat": 38.917084333333335, "is_disabled": 0, "is_reserved": 0, "lon": -77.041483, "type": "electric_scooter", "fusion_lat": 0.0, "rental_uris": {"android": "https://dc.lft.to/lastmile_qr_scan", "ios": "https://dc.lft.to/lastmile_qr_scan"}}, {"bike_id": "3c487edafc2ac2e1ae6d7fc529ee65db", "fusion_lon": 0.0, "name": "3c487edafc2ac2e1ae6d7fc529ee65db", "lat": 38.820386666666664, "is_disabled": 0, "is_reserved": 0, "lon": -77.05355466666667, "type": "electric_bike", "fusion_lat": 0.0, "rental_uris": {"android": "https://dc.lft.to/lastmile_qr_scan", "ios": "https://dc.lft.to/lastmile_qr_scan"}}, {"bike_id": "963ad453f101bfb1efc3c7a450fc20a2", "fusion_lon": 0.0, "name": "963ad453f101bfb1efc3c7a450fc20a2", "lat": 38.902788666666666, "is_disabled": 0, "is_reserved": 0, "lon": -77.02305433333333, "type": "electric_scooter", "fusion_lat": 0.0, "rental_uris": {"android": "https://dc.lft.to/lastmile_qr_scan", "ios": "https://dc.lft.to/lastmile_qr_scan"}}, {"bike_id": "bbab1d0d058879dab41239da523ba084", "fusion_lon": 0.0, "name": "bbab1d0d058879dab41239da523ba084", "lat": 38.909581333333335, "is_disabled": 0, "is_reserved": 0, "lon": -76.98434266666666, "type": "electric_bike", "fusion_lat": 0.0, "rental_uris": {"android": "https://dc.lft.to/lastmile_qr_scan", "ios": "https://dc.lft.to/lastmile_qr_scan"}}, {"bike_id": "a00a97706eec7f86044e6cda180f6043", "fusion_lon": 0.0, "name": "a00a97706eec7f86044e6cda180f6043", "lat": 38.88267966666667, "is_disabled": 0, "is_reserved": 0, "lon": -77.003678, "type": "electric_scooter", "fusion_lat": 0.0, "rental_uris": {"android": "https://dc.lft.to/lastmile_qr_scan", "ios": "https://dc.lft.to/lastmile_qr_scan"}}, {"bike_id": "83f3c0997976809e73c03c968d7157a9", "fusion_lon": 0.0, "name": "83f3c0997976809e73c03c968d7157a9", "lat": 38.8603005, "is_disabled": 0, "is_reserved": 0, "lon": -76.98374216666667, "type": "electric_scooter", "fusion_lat": 0.0, "rental_uris": {"android": "https://dc.lft.to/lastmile_qr_scan", "ios": "https://dc.lft.to/lastmile_qr_scan"}}, {"bike_id": "a731a763ca4a8bb88ff501c5b0575a39", "fusion_lon": 0.0, "name": "a731a763ca4a8bb88ff501c5b0575a39", "lat": 38.92297416666667, "is_disabled": 0, "is_reserved": 0, "lon": -77.041463, "type": "electric_scooter", "fusion_lat": 0.0, "rental_uris": {"android": "https://dc.lft.to/lastmile_qr_scan", "ios": "https://dc.lft.to/lastmile_qr_scan"}}, {"bike_id": "005c60afc6331a0856d84c72c25a88be", "fusion_lon": 0.0, "name": "005c60afc6331a0856d84c72c25a88be", "lat": 38.885402666666664, "is_disabled": 0, "is_reserved": 0, "lon": -77.00052783333334, "type": "electric_scooter", "fusion_lat": 0.0, "rental_uris": {"android": "https://dc.lft.to/lastmile_qr_scan", "ios": "https://dc.lft.to/lastmile_qr_scan"}}, {"bike_id": "0feb05417827647a4d1aff32f2912b70", "fusion_lon": 0.0, "name": "0feb05417827647a4d1aff32f2912b70", "lat": 38.8922385, "is_disabled": 0, "is_reserved": 0, "lon": -77.0418385, "type": "electric_scooter", "fusion_lat": 0.0, "rental_uris": {"android": "https://dc.lft.to/lastmile_qr_scan", "ios": "https://dc.lft.to/lastmile_qr_scan"}}, {"bike_id": "2cc770f807f4a755e64e6bd639f71265", "fusion_lon": 0.0, "name": "2cc770f807f4a755e64e6bd639f71265", "lat": 38.92472816666667, "is_disabled": 0, "is_reserved": 0, "lon": -77.02218216666667, "type": "electric_scooter", "fusion_lat": 0.0, "rental_uris": {"android": "https://dc.lft.to/lastmile_qr_scan", "ios": "https://dc.lft.to/lastmile_qr_scan"}}, {"bike_id": "22e4e7ee53f59f1053a3565ec0509c4f", "fusion_lon": 0.0, "name": "22e4e7ee53f59f1053a3565ec0509c4f", "lat": 38.90271083333333, "is_disabled": 0, "is_reserved": 0, "lon": -77.05317466666666, "type": "electric_scooter", "fusion_lat": 0.0, "rental_uris": {"android": "https://dc.lft.to/lastmile_qr_scan", "ios": "https://dc.lft.to/lastmile_qr_scan"}}, {"bike_id": "453f708bb7b23f0ba5f307e03594c1a1", "fusion_lon": 0.0, "name": "453f708bb7b23f0ba5f307e03594c1a1", "lat": 38.88740333333333, "is_disabled": 0, "is_reserved": 0, "lon": -77.01534616666666, "type": "electric_scooter", "fusion_lat": 0.0, "rental_uris": {"android": "https://dc.lft.to/lastmile_qr_scan", "ios": "https://dc.lft.to/lastmile_qr_scan"}}, {"bike_id": "3a2e61f25f5e012989dffd174ae3483e", "fusion_lon": 0.0, "name": "3a2e61f25f5e012989dffd174ae3483e", "lat": 38.865115333333335, "is_disabled": 0, "is_reserved": 0, "lon": -76.9731835, "type": "electric_bike", "fusion_lat": 0.0, "rental_uris": {"android": "https://dc.lft.to/lastmile_qr_scan", "ios": "https://dc.lft.to/lastmile_qr_scan"}}, {"bike_id": "ab44821b737241608d17c32a04a55161", "fusion_lon": 0.0, "name": "ab44821b737241608d17c32a04a55161", "lat": 38.866805666666664, "is_disabled": 0, "is_reserved": 0, "lon": -76.98572833333333, "type": "electric_scooter", "fusion_lat": 0.0, "rental_uris": {"android": "https://dc.lft.to/lastmile_qr_scan", "ios": "https://dc.lft.to/lastmile_qr_scan"}}, {"bike_id": "358773b7c1ecfcb0f775569c5740082b", "fusion_lon": 0.0, "name": "358773b7c1ecfcb0f775569c5740082b", "lat": 38.887433, "is_disabled": 0, "is_reserved": 0, "lon": -77.02023066666666, "type": "electric_scooter", "fusion_lat": 0.0, "rental_uris": {"android": "https://dc.lft.to/lastmile_qr_scan", "ios": "https://dc.lft.to/lastmile_qr_scan"}}, {"bike_id": "3e3a5e7d961ff76af964b198d9b99285", "fusion_lon": 0.0, "name": "3e3a5e7d961ff76af964b198d9b99285", "lat": 38.82785533333333, "is_disabled": 0, "is_reserved": 0, "lon": -77.12486516666667, "type": "electric_bike", "fusion_lat": 0.0, "rental_uris": {"android": "https://dc.lft.to/lastmile_qr_scan", "ios": "https://dc.lft.to/lastmile_qr_scan"}}, {"bike_id": "f9c90d99f399d96c26eb425134cf95d9", "fusion_lon": 0.0, "name": "f9c90d99f399d96c26eb425134cf95d9", "lat": 38.93609683333333, "is_disabled": 0, "is_reserved": 0, "lon": -77.0585915, "type": "electric_scooter", "fusion_lat": 0.0, "rental_uris": {"android": "https://dc.lft.to/lastmile_qr_scan", "ios": "https://dc.lft.to/lastmile_qr_scan"}}, {"bike_id": "965e2e0090becba6b01b7f0258d18ffd", "fusion_lon": 0.0, "name": "965e2e0090becba6b01b7f0258d18ffd", "lat": 38.91706033333333, "is_disabled": 0, "is_reserved": 0, "lon": -77.04174733333333, "type": "electric_scooter", "fusion_lat": 0.0, "rental_uris": {"android": "https://dc.lft.to/lastmile_qr_scan", "ios": "https://dc.lft.to/lastmile_qr_scan"}}, {"bike_id": "6a73491d84d64a8fe73a445a96da35d4", "fusion_lon": 0.0, "name": "6a73491d84d64a8fe73a445a96da35d4", "lat": 38.8922155, "is_disabled": 0, "is_reserved": 0, "lon": -77.03984316666667, "type": "electric_scooter", "fusion_lat": 0.0, "rental_uris": {"android": "https://dc.lft.to/lastmile_qr_scan", "ios": "https://dc.lft.to/lastmile_qr_scan"}}, {"bike_id": "0d1d77bb5bedff9892dce947231a7377", "fusion_lon": 0.0, "name": "0d1d77bb5bedff9892dce947231a7377", "lat": 38.920176, "is_disabled": 0, "is_reserved": 0, "lon": -77.03142783333334, "type": "electric_scooter", "fusion_lat": 0.0, "rental_uris": {"android": "https://dc.lft.to/lastmile_qr_scan", "ios": "https://dc.lft.to/lastmile_qr_scan"}}, {"bike_id": "446d153fe453b2ddb84d8e1baae01bea", "fusion_lon": 0.0, "name": "446d153fe453b2ddb84d8e1baae01bea", "lat": 38.866258, "is_disabled": 0, "is_reserved": 0, "lon": -76.9871145, "type": "electric_scooter", "fusion_lat": 0.0, "rental_uris": {"android": "https://dc.lft.to/lastmile_qr_scan", "ios": "https://dc.lft.to/lastmile_qr_scan"}}, {"bike_id": "ed91a1b37b1a3012bc7aa080d0662471", "fusion_lon": 0.0, "name": "ed91a1b37b1a3012bc7aa080d0662471", "lat": 38.90221866666667, "is_disabled": 0, "is_reserved": 0, "lon": -77.02825716666666, "type": "electric_scooter", "fusion_lat": 0.0, "rental_uris": {"android": "https://dc.lft.to/lastmile_qr_scan", "ios": "https://dc.lft.to/lastmile_qr_scan"}}, {"bike_id": "ec3afba3ff2f247f5e57e00402adf6d6", "fusion_lon": 0.0, "name": "ec3afba3ff2f247f5e57e00402adf6d6", "lat": 38.897304, "is_disabled": 0, "is_reserved": 0, "lon": -77.00986866666666, "type": "electric_scooter", "fusion_lat": 0.0, "rental_uris": {"android": "https://dc.lft.to/lastmile_qr_scan", "ios": "https://dc.lft.to/lastmile_qr_scan"}}, {"bike_id": "25eb7542e338f38eb54cdad059d23feb", "fusion_lon": 0.0, "name": "25eb7542e338f38eb54cdad059d23feb", "lat": 38.925884, "is_disabled": 0, "is_reserved": 0, "lon": -77.03767233333333, "type": "electric_scooter", "fusion_lat": 0.0, "rental_uris": {"android": "https://dc.lft.to/lastmile_qr_scan", "ios": "https://dc.lft.to/lastmile_qr_scan"}}, {"bike_id": "8210d7dbbcddcdb53e48ca8fb75cba20", "fusion_lon": 0.0, "name": "8210d7dbbcddcdb53e48ca8fb75cba20", "lat": 38.970687166666664, "is_disabled": 0, "is_reserved": 0, "lon": -76.936149, "type": "electric_bike", "fusion_lat": 0.0, "rental_uris": {"android": "https://dc.lft.to/lastmile_qr_scan", "ios": "https://dc.lft.to/lastmile_qr_scan"}}, {"bike_id": "1ca74ff58733146552994deb54a0e06f", "fusion_lon": 0.0, "name": "1ca74ff58733146552994deb54a0e06f", "lat": 38.9003, "is_disabled": 0, "is_reserved": 0, "lon": -77.00230283333333, "type": "electric_scooter", "fusion_lat": 0.0, "rental_uris": {"android": "https://dc.lft.to/lastmile_qr_scan", "ios": "https://dc.lft.to/lastmile_qr_scan"}}, {"bike_id": "0791b4f0a1bd7e2b74a58ce31c54047f", "fusion_lon": 0.0, "name": "0791b4f0a1bd7e2b74a58ce31c54047f", "lat": 38.9025065, "is_disabled": 0, "is_reserved": 0, "lon": -77.030418, "type": "electric_scooter", "fusion_lat": 0.0, "rental_uris": {"android": "https://dc.lft.to/lastmile_qr_scan", "ios": "https://dc.lft.to/lastmile_qr_scan"}}, {"bike_id": "bab7a6ab95569e1ac7977d41f8521029", "fusion_lon": 0.0, "name": "bab7a6ab95569e1ac7977d41f8521029", "lat": 38.909675666666665, "is_disabled": 0, "is_reserved": 0, "lon": -77.0370975, "type": "electric_scooter", "fusion_lat": 0.0, "rental_uris": {"android": "https://dc.lft.to/lastmile_qr_scan", "ios": "https://dc.lft.to/lastmile_qr_scan"}}, {"bike_id": "54f13d189bcef8ce2f0b1fee9cb8be79", "fusion_lon": 0.0, "name": "54f13d189bcef8ce2f0b1fee9cb8be79", "lat": 38.8733945, "is_disabled": 0, "is_reserved": 0, "lon": -77.01848216666667, "type": "electric_bike", "fusion_lat": 0.0, "rental_uris": {"android": "https://dc.lft.to/lastmile_qr_scan", "ios": "https://dc.lft.to/lastmile_qr_scan"}}, {"bike_id": "ff41fce2f0cb7b5503326c3b18242009", "fusion_lon": 0.0, "name": "ff41fce2f0cb7b5503326c3b18242009", "lat": 38.879602166666665, "is_disabled": 0, "is_reserved": 0, "lon": -77.02376766666667, "type": "electric_scooter", "fusion_lat": 0.0, "rental_uris": {"android": "https://dc.lft.to/lastmile_qr_scan", "ios": "https://dc.lft.to/lastmile_qr_scan"}}, {"bike_id": "655968e5d020b3a626c540bd54aec22d", "fusion_lon": 0.0, "name": "655968e5d020b3a626c540bd54aec22d", "lat": 38.915161, "is_disabled": 0, "is_reserved": 0, "lon": -77.00058516666667, "type": "electric_scooter", "fusion_lat": 0.0, "rental_uris": {"android": "https://dc.lft.to/lastmile_qr_scan", "ios": "https://dc.lft.to/lastmile_qr_scan"}}, {"bike_id": "da5c2ed3cdf13339f66f669472311629", "fusion_lon": 0.0, "name": "da5c2ed3cdf13339f66f669472311629", "lat": 38.89732766666667, "is_disabled": 0, "is_reserved": 0, "lon": -77.055255, "type": "electric_scooter", "fusion_lat": 0.0, "rental_uris": {"android": "https://dc.lft.to/lastmile_qr_scan", "ios": "https://dc.lft.to/lastmile_qr_scan"}}, {"bike_id": "cd6e5ff2d02ba92bc887362fc9f27a79", "fusion_lon": 0.0, "name": "cd6e5ff2d02ba92bc887362fc9f27a79", "lat": 38.8439335, "is_disabled": 0, "is_reserved": 0, "lon": -76.9895625, "type": "electric_scooter", "fusion_lat": 0.0, "rental_uris": {"android": "https://dc.lft.to/lastmile_qr_scan", "ios": "https://dc.lft.to/lastmile_qr_scan"}}, {"bike_id": "8af6c13d7519caaaf034b541a36e8197", "fusion_lon": 0.0, "name": "8af6c13d7519caaaf034b541a36e8197", "lat": 38.9057105, "is_disabled": 0, "is_reserved": 0, "lon": -77.04311533333333, "type": "electric_scooter", "fusion_lat": 0.0, "rental_uris": {"android": "https://dc.lft.to/lastmile_qr_scan", "ios": "https://dc.lft.to/lastmile_qr_scan"}}, {"bike_id": "994eb8751a58f70ceeb2b98df8c73e72", "fusion_lon": 0.0, "name": "994eb8751a58f70ceeb2b98df8c73e72", "lat": 38.93432833333333, "is_disabled": 0, "is_reserved": 0, "lon": -77.03999266666666, "type": "electric_scooter", "fusion_lat": 0.0, "rental_uris": {"android": "https://dc.lft.to/lastmile_qr_scan", "ios": "https://dc.lft.to/lastmile_qr_scan"}}, {"bike_id": "b08786513d58221ac2936b216a919785", "fusion_lon": 0.0, "name": "b08786513d58221ac2936b216a919785", "lat": 38.990559833333336, "is_disabled": 0, "is_reserved": 0, "lon": -77.03874433333333, "type": "electric_bike", "fusion_lat": 0.0, "rental_uris": {"android": "https://dc.lft.to/lastmile_qr_scan", "ios": "https://dc.lft.to/lastmile_qr_scan"}}, {"bike_id": "76a9037585312bf05f18b81453229285", "fusion_lon": 0.0, "name": "76a9037585312bf05f18b81453229285", "lat": 38.899366666666666, "is_disabled": 0, "is_reserved": 0, "lon": -77.0419455, "type": "electric_scooter", "fusion_lat": 0.0, "rental_uris": {"android": "https://dc.lft.to/lastmile_qr_scan", "ios": "https://dc.lft.to/lastmile_qr_scan"}}, {"bike_id": "4662e5f26800aa5d4ffe22e4e0068558", "fusion_lon": 0.0, "name": "4662e5f26800aa5d4ffe22e4e0068558", "lat": 38.890102, "is_disabled": 0, "is_reserved": 0, "lon": -76.93743583333334, "type": "electric_scooter", "fusion_lat": 0.0, "rental_uris": {"android": "https://dc.lft.to/lastmile_qr_scan", "ios": "https://dc.lft.to/lastmile_qr_scan"}}, {"bike_id": "7d5f95ddf608be0e7428a5005a845614", "fusion_lon": 0.0, "name": "7d5f95ddf608be0e7428a5005a845614", "lat": 38.92844766666666, "is_disabled": 0, "is_reserved": 0, "lon": -77.036381, "type": "electric_scooter", "fusion_lat": 0.0, "rental_uris": {"android": "https://dc.lft.to/lastmile_qr_scan", "ios": "https://dc.lft.to/lastmile_qr_scan"}}, {"bike_id": "a96802c4388035349da5ae0f2297d06e", "fusion_lon": 0.0, "name": "a96802c4388035349da5ae0f2297d06e", "lat": 38.83549683333333, "is_disabled": 0, "is_reserved": 0, "lon": -76.98724516666667, "type": "electric_bike", "fusion_lat": 0.0, "rental_uris": {"android": "https://dc.lft.to/lastmile_qr_scan", "ios": "https://dc.lft.to/lastmile_qr_scan"}}, {"bike_id": "df5ebe492b71845cceea1b7e5d4ab474", "fusion_lon": 0.0, "name": "df5ebe492b71845cceea1b7e5d4ab474", "lat": 38.9387025, "is_disabled": 0, "is_reserved": 0, "lon": -77.0321785, "type": "electric_scooter", "fusion_lat": 0.0, "rental_uris": {"android": "https://dc.lft.to/lastmile_qr_scan", "ios": "https://dc.lft.to/lastmile_qr_scan"}}, {"bike_id": "03092557873bf3b61b025bb7acdfc484", "fusion_lon": 0.0, "name": "03092557873bf3b61b025bb7acdfc484", "lat": 38.919179, "is_disabled": 0, "is_reserved": 0, "lon": -77.07023816666667, "type": "electric_bike", "fusion_lat": 0.0, "rental_uris": {"android": "https://dc.lft.to/lastmile_qr_scan", "ios": "https://dc.lft.to/lastmile_qr_scan"}}, {"bike_id": "3210f4df9f0aa6725db7f2ded36d19a2", "fusion_lon": 0.0, "name": "3210f4df9f0aa6725db7f2ded36d19a2", "lat": 38.88635333333333, "is_disabled": 0, "is_reserved": 0, "lon": -77.01544783333334, "type": "electric_scooter", "fusion_lat": 0.0, "rental_uris": {"android": "https://dc.lft.to/lastmile_qr_scan", "ios": "https://dc.lft.to/lastmile_qr_scan"}}, {"bike_id": "ee67b66f2529562d2b8dcc067693de4b", "fusion_lon": 0.0, "name": "ee67b66f2529562d2b8dcc067693de4b", "lat": 38.89220366666667, "is_disabled": 0, "is_reserved": 0, "lon": -77.03131133333333, "type": "electric_scooter", "fusion_lat": 0.0, "rental_uris": {"android": "https://dc.lft.to/lastmile_qr_scan", "ios": "https://dc.lft.to/lastmile_qr_scan"}}, {"bike_id": "b348194fc90274000f573f2ce60c7048", "fusion_lon": 0.0, "name": "b348194fc90274000f573f2ce60c7048", "lat": 38.923244, "is_disabled": 0, "is_reserved": 0, "lon": -77.0298145, "type": "electric_scooter", "fusion_lat": 0.0, "rental_uris": {"android": "https://dc.lft.to/lastmile_qr_scan", "ios": "https://dc.lft.to/lastmile_qr_scan"}}, {"bike_id": "5c0f0dba06cffba28aed64f3b2ab98bf", "fusion_lon": 0.0, "name": "5c0f0dba06cffba28aed64f3b2ab98bf", "lat": 38.885218, "is_disabled": 0, "is_reserved": 0, "lon": -77.01505716666667, "type": "electric_scooter", "fusion_lat": 0.0, "rental_uris": {"android": "https://dc.lft.to/lastmile_qr_scan", "ios": "https://dc.lft.to/lastmile_qr_scan"}}, {"bike_id": "ce7b06b67c94724294ebcff01101aa95", "fusion_lon": 0.0, "name": "ce7b06b67c94724294ebcff01101aa95", "lat": 38.9023185, "is_disabled": 0, "is_reserved": 0, "lon": -77.05943866666667, "type": "electric_scooter", "fusion_lat": 0.0, "rental_uris": {"android": "https://dc.lft.to/lastmile_qr_scan", "ios": "https://dc.lft.to/lastmile_qr_scan"}}, {"bike_id": "aa785d56eb16ddc8c1188f3469d114d5", "fusion_lon": 0.0, "name": "aa785d56eb16ddc8c1188f3469d114d5", "lat": 38.88721666666667, "is_disabled": 0, "is_reserved": 0, "lon": -76.99689816666667, "type": "electric_scooter", "fusion_lat": 0.0, "rental_uris": {"android": "https://dc.lft.to/lastmile_qr_scan", "ios": "https://dc.lft.to/lastmile_qr_scan"}}, {"bike_id": "54d43203631615cd9f2d908d76e9214d", "fusion_lon": 0.0, "name": "54d43203631615cd9f2d908d76e9214d", "lat": 38.92358816666667, "is_disabled": 0, "is_reserved": 0, "lon": -77.0505545, "type": "electric_scooter", "fusion_lat": 0.0, "rental_uris": {"android": "https://dc.lft.to/lastmile_qr_scan", "ios": "https://dc.lft.to/lastmile_qr_scan"}}, {"bike_id": "80b95a25f57eac0e92376a24c87bd93f", "fusion_lon": 0.0, "name": "80b95a25f57eac0e92376a24c87bd93f", "lat": 38.91763433333333, "is_disabled": 0, "is_reserved": 0, "lon": -77.0160585, "type": "electric_scooter", "fusion_lat": 0.0, "rental_uris": {"android": "https://dc.lft.to/lastmile_qr_scan", "ios": "https://dc.lft.to/lastmile_qr_scan"}}, {"bike_id": "0c343fe4e7748dbd34c9f7854708313d", "fusion_lon": 0.0, "name": "0c343fe4e7748dbd34c9f7854708313d", "lat": 38.9021285, "is_disabled": 0, "is_reserved": 0, "lon": -77.04824666666667, "type": "electric_scooter", "fusion_lat": 0.0, "rental_uris": {"android": "https://dc.lft.to/lastmile_qr_scan", "ios": "https://dc.lft.to/lastmile_qr_scan"}}, {"bike_id": "a0bfdcbf3ae61d76cf081447c6f1f898", "fusion_lon": 0.0, "name": "a0bfdcbf3ae61d76cf081447c6f1f898", "lat": 38.922726833333336, "is_disabled": 0, "is_reserved": 0, "lon": -77.042347, "type": "electric_scooter", "fusion_lat": 0.0, "rental_uris": {"android": "https://dc.lft.to/lastmile_qr_scan", "ios": "https://dc.lft.to/lastmile_qr_scan"}}, {"bike_id": "db35f76061519b24a86b78280c55ce62", "fusion_lon": 0.0, "name": "db35f76061519b24a86b78280c55ce62", "lat": 38.9100635, "is_disabled": 0, "is_reserved": 0, "lon": -76.99412566666666, "type": "electric_scooter", "fusion_lat": 0.0, "rental_uris": {"android": "https://dc.lft.to/lastmile_qr_scan", "ios": "https://dc.lft.to/lastmile_qr_scan"}}, {"bike_id": "3681bb35ee860d4d8cf2095fbaf80f7a", "fusion_lon": 0.0, "name": "3681bb35ee860d4d8cf2095fbaf80f7a", "lat": 38.91269416666667, "is_disabled": 0, "is_reserved": 0, "lon": -77.0382695, "type": "electric_scooter", "fusion_lat": 0.0, "rental_uris": {"android": "https://dc.lft.to/lastmile_qr_scan", "ios": "https://dc.lft.to/lastmile_qr_scan"}}, {"bike_id": "613bfd50f1169c7441388be07d7cf3dc", "fusion_lon": 0.0, "name": "613bfd50f1169c7441388be07d7cf3dc", "lat": 38.96142966666667, "is_disabled": 0, "is_reserved": 0, "lon": -77.02818, "type": "electric_scooter", "fusion_lat": 0.0, "rental_uris": {"android": "https://dc.lft.to/lastmile_qr_scan", "ios": "https://dc.lft.to/lastmile_qr_scan"}}, {"bike_id": "eedc93fd5cc8dcb3849b913424023b69", "fusion_lon": 0.0, "name": "eedc93fd5cc8dcb3849b913424023b69", "lat": 38.8922985, "is_disabled": 0, "is_reserved": 0, "lon": -77.0500245, "type": "electric_scooter", "fusion_lat": 0.0, "rental_uris": {"android": "https://dc.lft.to/lastmile_qr_scan", "ios": "https://dc.lft.to/lastmile_qr_scan"}}, {"bike_id": "08f693c38dc8a2207350dc9805f2a026", "fusion_lon": 0.0, "name": "08f693c38dc8a2207350dc9805f2a026", "lat": 38.905816333333334, "is_disabled": 0, "is_reserved": 0, "lon": -77.05142916666667, "type": "electric_scooter", "fusion_lat": 0.0, "rental_uris": {"android": "https://dc.lft.to/lastmile_qr_scan", "ios": "https://dc.lft.to/lastmile_qr_scan"}}, {"bike_id": "3fa4db17f886989175acc7d78a5580d9", "fusion_lon": 0.0, "name": "3fa4db17f886989175acc7d78a5580d9", "lat": 38.883122666666665, "is_disabled": 0, "is_reserved": 0, "lon": -77.013786, "type": "electric_scooter", "fusion_lat": 0.0, "rental_uris": {"android": "https://dc.lft.to/lastmile_qr_scan", "ios": "https://dc.lft.to/lastmile_qr_scan"}}, {"bike_id": "685d7be9948297825ced904155d62dba", "fusion_lon": 0.0, "name": "685d7be9948297825ced904155d62dba", "lat": 38.892233166666664, "is_disabled": 0, "is_reserved": 0, "lon": -77.04315216666667, "type": "electric_scooter", "fusion_lat": 0.0, "rental_uris": {"android": "https://dc.lft.to/lastmile_qr_scan", "ios": "https://dc.lft.to/lastmile_qr_scan"}}, {"bike_id": "ac42efb3681573550a43d017742e3a01", "fusion_lon": 0.0, "name": "ac42efb3681573550a43d017742e3a01", "lat": 38.91268633333333, "is_disabled": 0, "is_reserved": 0, "lon": -77.02215833333334, "type": "electric_scooter", "fusion_lat": 0.0, "rental_uris": {"android": "https://dc.lft.to/lastmile_qr_scan", "ios": "https://dc.lft.to/lastmile_qr_scan"}}, {"bike_id": "11c1c7e415f122876aad1440753238f8", "fusion_lon": 0.0, "name": "11c1c7e415f122876aad1440753238f8", "lat": 38.89218916666667, "is_disabled": 0, "is_reserved": 0, "lon": -77.02230066666667, "type": "electric_scooter", "fusion_lat": 0.0, "rental_uris": {"android": "https://dc.lft.to/lastmile_qr_scan", "ios": "https://dc.lft.to/lastmile_qr_scan"}}, {"bike_id": "00ea2b5461be2680a3bfef7f54d0334d", "fusion_lon": 0.0, "name": "00ea2b5461be2680a3bfef7f54d0334d", "lat": 38.89834316666666, "is_disabled": 0, "is_reserved": 0, "lon": -77.02506616666666, "type": "electric_scooter", "fusion_lat": 0.0, "rental_uris": {"android": "https://dc.lft.to/lastmile_qr_scan", "ios": "https://dc.lft.to/lastmile_qr_scan"}}, {"bike_id": "229f06201486bf3aa3d3cd7483a8a46e", "fusion_lon": 0.0, "name": "229f06201486bf3aa3d3cd7483a8a46e", "lat": 38.917397333333334, "is_disabled": 0, "is_reserved": 0, "lon": -77.0211645, "type": "electric_scooter", "fusion_lat": 0.0, "rental_uris": {"android": "https://dc.lft.to/lastmile_qr_scan", "ios": "https://dc.lft.to/lastmile_qr_scan"}}, {"bike_id": "818e310ddc01fd8dd962d5aa589c2c15", "fusion_lon": 0.0, "name": "818e310ddc01fd8dd962d5aa589c2c15", "lat": 38.923262, "is_disabled": 0, "is_reserved": 0, "lon": -77.02973233333333, "type": "electric_scooter", "fusion_lat": 0.0, "rental_uris": {"android": "https://dc.lft.to/lastmile_qr_scan", "ios": "https://dc.lft.to/lastmile_qr_scan"}}, {"bike_id": "1669c12bb26eae2c1e839697bc24111c", "fusion_lon": 0.0, "name": "1669c12bb26eae2c1e839697bc24111c", "lat": 38.97257416666667, "is_disabled": 0, "is_reserved": 0, "lon": -76.9927635, "type": "electric_bike", "fusion_lat": 0.0, "rental_uris": {"android": "https://dc.lft.to/lastmile_qr_scan", "ios": "https://dc.lft.to/lastmile_qr_scan"}}, {"bike_id": "770cbec0a52378f2877ae1b613de5736", "fusion_lon": 0.0, "name": "770cbec0a52378f2877ae1b613de5736", "lat": 38.906656166666664, "is_disabled": 0, "is_reserved": 0, "lon": -77.07517933333334, "type": "electric_scooter", "fusion_lat": 0.0, "rental_uris": {"android": "https://dc.lft.to/lastmile_qr_scan", "ios": "https://dc.lft.to/lastmile_qr_scan"}}, {"bike_id": "4e0124142359e440331fbfb1d899b0f7", "fusion_lon": 0.0, "name": "4e0124142359e440331fbfb1d899b0f7", "lat": 38.898469166666665, "is_disabled": 0, "is_reserved": 0, "lon": -77.0317835, "type": "electric_scooter", "fusion_lat": 0.0, "rental_uris": {"android": "https://dc.lft.to/lastmile_qr_scan", "ios": "https://dc.lft.to/lastmile_qr_scan"}}, {"bike_id": "be952aff3efb5329c3c0bac1f640a9d0", "fusion_lon": 0.0, "name": "be952aff3efb5329c3c0bac1f640a9d0", "lat": 38.90207683333333, "is_disabled": 0, "is_reserved": 0, "lon": -77.05118766666666, "type": "electric_scooter", "fusion_lat": 0.0, "rental_uris": {"android": "https://dc.lft.to/lastmile_qr_scan", "ios": "https://dc.lft.to/lastmile_qr_scan"}}, {"bike_id": "961c3e43bbef0ad0c2d70520b3db4989", "fusion_lon": 0.0, "name": "961c3e43bbef0ad0c2d70520b3db4989", "lat": 38.92240733333333, "is_disabled": 0, "is_reserved": 0, "lon": -77.03662466666667, "type": "electric_scooter", "fusion_lat": 0.0, "rental_uris": {"android": "https://dc.lft.to/lastmile_qr_scan", "ios": "https://dc.lft.to/lastmile_qr_scan"}}, {"bike_id": "bd348572cc347761891bf1fc211178cc", "fusion_lon": 0.0, "name": "bd348572cc347761891bf1fc211178cc", "lat": 38.9960935, "is_disabled": 0, "is_reserved": 0, "lon": -77.0780125, "type": "electric_bike", "fusion_lat": 0.0, "rental_uris": {"android": "https://dc.lft.to/lastmile_qr_scan", "ios": "https://dc.lft.to/lastmile_qr_scan"}}, {"bike_id": "16575ee68aee6ece56ef386f35c03c02", "fusion_lon": 0.0, "name": "16575ee68aee6ece56ef386f35c03c02", "lat": 38.92246933333333, "is_disabled": 0, "is_reserved": 0, "lon": -77.02997483333333, "type": "electric_scooter", "fusion_lat": 0.0, "rental_uris": {"android": "https://dc.lft.to/lastmile_qr_scan", "ios": "https://dc.lft.to/lastmile_qr_scan"}}, {"bike_id": "22919c861bdf1b894b6fb40fdbadf299", "fusion_lon": 0.0, "name": "22919c861bdf1b894b6fb40fdbadf299", "lat": 38.84276333333333, "is_disabled": 0, "is_reserved": 0, "lon": -76.98840133333333, "type": "electric_bike", "fusion_lat": 0.0, "rental_uris": {"android": "https://dc.lft.to/lastmile_qr_scan", "ios": "https://dc.lft.to/lastmile_qr_scan"}}, {"bike_id": "31bd7b8d60a41609ba48b14d823bbfce", "fusion_lon": 0.0, "name": "31bd7b8d60a41609ba48b14d823bbfce", "lat": 38.94658583333333, "is_disabled": 0, "is_reserved": 0, "lon": -77.007, "type": "electric_bike", "fusion_lat": 0.0, "rental_uris": {"android": "https://dc.lft.to/lastmile_qr_scan", "ios": "https://dc.lft.to/lastmile_qr_scan"}}, {"bike_id": "5cc65344947e42ba17e0eb399ee76c70", "fusion_lon": 0.0, "name": "5cc65344947e42ba17e0eb399ee76c70", "lat": 38.899309333333335, "is_disabled": 0, "is_reserved": 0, "lon": -77.02714016666667, "type": "electric_scooter", "fusion_lat": 0.0, "rental_uris": {"android": "https://dc.lft.to/lastmile_qr_scan", "ios": "https://dc.lft.to/lastmile_qr_scan"}}, {"bike_id": "4f66142400dd5deb2abc1df114aff971", "fusion_lon": 0.0, "name": "4f66142400dd5deb2abc1df114aff971", "lat": 38.8872455, "is_disabled": 0, "is_reserved": 0, "lon": -77.01331233333333, "type": "electric_scooter", "fusion_lat": 0.0, "rental_uris": {"android": "https://dc.lft.to/lastmile_qr_scan", "ios": "https://dc.lft.to/lastmile_qr_scan"}}, {"bike_id": "32a72f18d6102156fd04d119417e4a74", "fusion_lon": 0.0, "name": "32a72f18d6102156fd04d119417e4a74", "lat": 38.91769033333333, "is_disabled": 0, "is_reserved": 0, "lon": -77.02293716666667, "type": "electric_scooter", "fusion_lat": 0.0, "rental_uris": {"android": "https://dc.lft.to/lastmile_qr_scan", "ios": "https://dc.lft.to/lastmile_qr_scan"}}, {"bike_id": "00e504352e69ee59bc3f9b94a9594970", "fusion_lon": 0.0, "name": "00e504352e69ee59bc3f9b94a9594970", "lat": 38.918109, "is_disabled": 0, "is_reserved": 0, "lon": -77.0270635, "type": "electric_scooter", "fusion_lat": 0.0, "rental_uris": {"android": "https://dc.lft.to/lastmile_qr_scan", "ios": "https://dc.lft.to/lastmile_qr_scan"}}, {"bike_id": "af245302668b7e940939bfa90eb86856", "fusion_lon": 0.0, "name": "af245302668b7e940939bfa90eb86856", "lat": 38.893243, "is_disabled": 0, "is_reserved": 0, "lon": -77.02216883333334, "type": "electric_scooter", "fusion_lat": 0.0, "rental_uris": {"android": "https://dc.lft.to/lastmile_qr_scan", "ios": "https://dc.lft.to/lastmile_qr_scan"}}, {"bike_id": "cfb952b015bca7bb1ebd2d506561f284", "fusion_lon": 0.0, "name": "cfb952b015bca7bb1ebd2d506561f284", "lat": 38.936734, "is_disabled": 0, "is_reserved": 0, "lon": -77.03596533333334, "type": "electric_scooter", "fusion_lat": 0.0, "rental_uris": {"android": "https://dc.lft.to/lastmile_qr_scan", "ios": "https://dc.lft.to/lastmile_qr_scan"}}, {"bike_id": "95e74cfea4b59714014d5f106342c678", "fusion_lon": 0.0, "name": "95e74cfea4b59714014d5f106342c678", "lat": 38.8650705, "is_disabled": 0, "is_reserved": 0, "lon": -76.99002166666666, "type": "electric_scooter", "fusion_lat": 0.0, "rental_uris": {"android": "https://dc.lft.to/lastmile_qr_scan", "ios": "https://dc.lft.to/lastmile_qr_scan"}}, {"bike_id": "fda8ab1a525ed443cd5ab5fb56321c68", "fusion_lon": 0.0, "name": "fda8ab1a525ed443cd5ab5fb56321c68", "lat": 38.90402666666667, "is_disabled": 0, "is_reserved": 0, "lon": -77.02483283333333, "type": "electric_scooter", "fusion_lat": 0.0, "rental_uris": {"android": "https://dc.lft.to/lastmile_qr_scan", "ios": "https://dc.lft.to/lastmile_qr_scan"}}, {"bike_id": "af7412ea6c806bd0ecc54122c5ff2af3", "fusion_lon": 0.0, "name": "af7412ea6c806bd0ecc54122c5ff2af3", "lat": 38.883620666666665, "is_disabled": 0, "is_reserved": 0, "lon": -76.98215816666666, "type": "electric_scooter", "fusion_lat": 0.0, "rental_uris": {"android": "https://dc.lft.to/lastmile_qr_scan", "ios": "https://dc.lft.to/lastmile_qr_scan"}}, {"bike_id": "b5ddb5f2259ccffb6466a356dd8731a7", "fusion_lon": 0.0, "name": "b5ddb5f2259ccffb6466a356dd8731a7", "lat": 38.9169215, "is_disabled": 0, "is_reserved": 0, "lon": -77.0376675, "type": "electric_scooter", "fusion_lat": 0.0, "rental_uris": {"android": "https://dc.lft.to/lastmile_qr_scan", "ios": "https://dc.lft.to/lastmile_qr_scan"}}, {"bike_id": "e170b0b41b783747eef16bbbaf93f2ae", "fusion_lon": 0.0, "name": "e170b0b41b783747eef16bbbaf93f2ae", "lat": 38.904933666666665, "is_disabled": 0, "is_reserved": 0, "lon": -76.97425533333333, "type": "electric_bike", "fusion_lat": 0.0, "rental_uris": {"android": "https://dc.lft.to/lastmile_qr_scan", "ios": "https://dc.lft.to/lastmile_qr_scan"}}, {"bike_id": "a89c0de6f634b8e701e838aff68a499e", "fusion_lon": 0.0, "name": "a89c0de6f634b8e701e838aff68a499e", "lat": 38.90026316666667, "is_disabled": 0, "is_reserved": 0, "lon": -76.98751816666666, "type": "electric_scooter", "fusion_lat": 0.0, "rental_uris": {"android": "https://dc.lft.to/lastmile_qr_scan", "ios": "https://dc.lft.to/lastmile_qr_scan"}}, {"bike_id": "ba421acd8bffad00e730e54926f1965c", "fusion_lon": 0.0, "name": "ba421acd8bffad00e730e54926f1965c", "lat": 38.892300166666665, "is_disabled": 0, "is_reserved": 0, "lon": -77.02829283333334, "type": "electric_scooter", "fusion_lat": 0.0, "rental_uris": {"android": "https://dc.lft.to/lastmile_qr_scan", "ios": "https://dc.lft.to/lastmile_qr_scan"}}, {"bike_id": "fdf75a5577d524c8b0ae9ece9f724455", "fusion_lon": 0.0, "name": "fdf75a5577d524c8b0ae9ece9f724455", "lat": 38.950173666666664, "is_disabled": 0, "is_reserved": 0, "lon": -77.0335145, "type": "electric_scooter", "fusion_lat": 0.0, "rental_uris": {"android": "https://dc.lft.to/lastmile_qr_scan", "ios": "https://dc.lft.to/lastmile_qr_scan"}}, {"bike_id": "853764ab895986d57e9a6745778623de", "fusion_lon": 0.0, "name": "853764ab895986d57e9a6745778623de", "lat": 38.925195333333335, "is_disabled": 0, "is_reserved": 0, "lon": -77.05132266666666, "type": "electric_scooter", "fusion_lat": 0.0, "rental_uris": {"android": "https://dc.lft.to/lastmile_qr_scan", "ios": "https://dc.lft.to/lastmile_qr_scan"}}, {"bike_id": "4c85cd3e3fc943d4366cbab4b05e315b", "fusion_lon": 0.0, "name": "4c85cd3e3fc943d4366cbab4b05e315b", "lat": 38.882917666666664, "is_disabled": 0, "is_reserved": 0, "lon": -77.03021266666667, "type": "electric_bike", "fusion_lat": 0.0, "rental_uris": {"android": "https://dc.lft.to/lastmile_qr_scan", "ios": "https://dc.lft.to/lastmile_qr_scan"}}, {"bike_id": "84388c1b9f4398a282bcfaccf3ba3644", "fusion_lon": 0.0, "name": "84388c1b9f4398a282bcfaccf3ba3644", "lat": 38.893663333333336, "is_disabled": 0, "is_reserved": 0, "lon": -77.0196685, "type": "electric_scooter", "fusion_lat": 0.0, "rental_uris": {"android": "https://dc.lft.to/lastmile_qr_scan", "ios": "https://dc.lft.to/lastmile_qr_scan"}}, {"bike_id": "246ac4407fd23636abf85982ca3fe7b6", "fusion_lon": 0.0, "name": "246ac4407fd23636abf85982ca3fe7b6", "lat": 38.94129183333333, "is_disabled": 0, "is_reserved": 0, "lon": -77.01544416666667, "type": "electric_scooter", "fusion_lat": 0.0, "rental_uris": {"android": "https://dc.lft.to/lastmile_qr_scan", "ios": "https://dc.lft.to/lastmile_qr_scan"}}, {"bike_id": "d9d43f644142715ae97a7133b3be20e1", "fusion_lon": 0.0, "name": "d9d43f644142715ae97a7133b3be20e1", "lat": 38.884473, "is_disabled": 0, "is_reserved": 0, "lon": -77.0152175, "type": "electric_scooter", "fusion_lat": 0.0, "rental_uris": {"android": "https://dc.lft.to/lastmile_qr_scan", "ios": "https://dc.lft.to/lastmile_qr_scan"}}, {"bike_id": "be99446d4cc57bfbe000a6020e31c45a", "fusion_lon": 0.0, "name": "be99446d4cc57bfbe000a6020e31c45a", "lat": 38.9197815, "is_disabled": 0, "is_reserved": 0, "lon": -77.02497316666667, "type": "electric_scooter", "fusion_lat": 0.0, "rental_uris": {"android": "https://dc.lft.to/lastmile_qr_scan", "ios": "https://dc.lft.to/lastmile_qr_scan"}}, {"bike_id": "015530ab8dd44fee6a2f67ce1333a1f7", "fusion_lon": 0.0, "name": "015530ab8dd44fee6a2f67ce1333a1f7", "lat": 38.95639333333333, "is_disabled": 0, "is_reserved": 0, "lon": -77.03301083333334, "type": "electric_scooter", "fusion_lat": 0.0, "rental_uris": {"android": "https://dc.lft.to/lastmile_qr_scan", "ios": "https://dc.lft.to/lastmile_qr_scan"}}, {"bike_id": "e962d3069d73bde55ae3591ea207eb93", "fusion_lon": 0.0, "name": "e962d3069d73bde55ae3591ea207eb93", "lat": 38.90555583333333, "is_disabled": 0, "is_reserved": 0, "lon": -77.04439616666667, "type": "electric_scooter", "fusion_lat": 0.0, "rental_uris": {"android": "https://dc.lft.to/lastmile_qr_scan", "ios": "https://dc.lft.to/lastmile_qr_scan"}}, {"bike_id": "0f2c855107e212a9794b277e85f00693", "fusion_lon": 0.0, "name": "0f2c855107e212a9794b277e85f00693", "lat": 38.93895416666667, "is_disabled": 0, "is_reserved": 0, "lon": -77.03316066666666, "type": "electric_scooter", "fusion_lat": 0.0, "rental_uris": {"android": "https://dc.lft.to/lastmile_qr_scan", "ios": "https://dc.lft.to/lastmile_qr_scan"}}, {"bike_id": "590527343027430eeb40ae4f217a80b1", "fusion_lon": 0.0, "name": "590527343027430eeb40ae4f217a80b1", "lat": 38.917176, "is_disabled": 0, "is_reserved": 0, "lon": -77.02368583333333, "type": "electric_scooter", "fusion_lat": 0.0, "rental_uris": {"android": "https://dc.lft.to/lastmile_qr_scan", "ios": "https://dc.lft.to/lastmile_qr_scan"}}, {"bike_id": "f8b451a075a55000cc360e0f4bb5a291", "fusion_lon": 0.0, "name": "f8b451a075a55000cc360e0f4bb5a291", "lat": 38.8910275, "is_disabled": 0, "is_reserved": 0, "lon": -77.18416216666667, "type": "electric_bike", "fusion_lat": 0.0, "rental_uris": {"android": "https://dc.lft.to/lastmile_qr_scan", "ios": "https://dc.lft.to/lastmile_qr_scan"}}, {"bike_id": "bcce543efecc471dc15acbdafd1d924e", "fusion_lon": 0.0, "name": "bcce543efecc471dc15acbdafd1d924e", "lat": 38.916983, "is_disabled": 0, "is_reserved": 0, "lon": -77.0289075, "type": "electric_scooter", "fusion_lat": 0.0, "rental_uris": {"android": "https://dc.lft.to/lastmile_qr_scan", "ios": "https://dc.lft.to/lastmile_qr_scan"}}, {"bike_id": "39172345b432e825a4c6f3eb729d6478", "fusion_lon": 0.0, "name": "39172345b432e825a4c6f3eb729d6478", "lat": 38.89835466666667, "is_disabled": 0, "is_reserved": 0, "lon": -77.0285425, "type": "electric_scooter", "fusion_lat": 0.0, "rental_uris": {"android": "https://dc.lft.to/lastmile_qr_scan", "ios": "https://dc.lft.to/lastmile_qr_scan"}}, {"bike_id": "05d5b555347005bd5d6938cb9545ab0c", "fusion_lon": 0.0, "name": "05d5b555347005bd5d6938cb9545ab0c", "lat": 38.92870516666667, "is_disabled": 0, "is_reserved": 0, "lon": -77.03521433333333, "type": "electric_scooter", "fusion_lat": 0.0, "rental_uris": {"android": "https://dc.lft.to/lastmile_qr_scan", "ios": "https://dc.lft.to/lastmile_qr_scan"}}, {"bike_id": "c6759b9ca5c7714de9c109d57410f892", "fusion_lon": 0.0, "name": "c6759b9ca5c7714de9c109d57410f892", "lat": 38.91584483333333, "is_disabled": 0, "is_reserved": 0, "lon": -76.97960516666667, "type": "electric_scooter", "fusion_lat": 0.0, "rental_uris": {"android": "https://dc.lft.to/lastmile_qr_scan", "ios": "https://dc.lft.to/lastmile_qr_scan"}}, {"bike_id": "f952d1061c7b875d668cbbcaa0218be3", "fusion_lon": 0.0, "name": "f952d1061c7b875d668cbbcaa0218be3", "lat": 38.856997, "is_disabled": 0, "is_reserved": 0, "lon": -76.99591683333334, "type": "electric_scooter", "fusion_lat": 0.0, "rental_uris": {"android": "https://dc.lft.to/lastmile_qr_scan", "ios": "https://dc.lft.to/lastmile_qr_scan"}}, {"bike_id": "4f3a5ca2d38c7e4a235cf977328cb51f", "fusion_lon": 0.0, "name": "4f3a5ca2d38c7e4a235cf977328cb51f", "lat": 38.89624216666667, "is_disabled": 0, "is_reserved": 0, "lon": -76.98836466666667, "type": "electric_scooter", "fusion_lat": 0.0, "rental_uris": {"android": "https://dc.lft.to/lastmile_qr_scan", "ios": "https://dc.lft.to/lastmile_qr_scan"}}, {"bike_id": "88d7fd41b7d874baa0a1e7b69da99f66", "fusion_lon": 0.0, "name": "88d7fd41b7d874baa0a1e7b69da99f66", "lat": 38.887120333333336, "is_disabled": 0, "is_reserved": 0, "lon": -77.02200983333333, "type": "electric_scooter", "fusion_lat": 0.0, "rental_uris": {"android": "https://dc.lft.to/lastmile_qr_scan", "ios": "https://dc.lft.to/lastmile_qr_scan"}}, {"bike_id": "3ee682472f2ad67a8b05e5649145c70a", "fusion_lon": 0.0, "name": "3ee682472f2ad67a8b05e5649145c70a", "lat": 38.915307, "is_disabled": 0, "is_reserved": 0, "lon": -77.0122905, "type": "electric_scooter", "fusion_lat": 0.0, "rental_uris": {"android": "https://dc.lft.to/lastmile_qr_scan", "ios": "https://dc.lft.to/lastmile_qr_scan"}}, {"bike_id": "a737f224d142fad8f66aa128603cffd9", "fusion_lon": 0.0, "name": "a737f224d142fad8f66aa128603cffd9", "lat": 38.900080833333334, "is_disabled": 0, "is_reserved": 0, "lon": -76.9973395, "type": "electric_scooter", "fusion_lat": 0.0, "rental_uris": {"android": "https://dc.lft.to/lastmile_qr_scan", "ios": "https://dc.lft.to/lastmile_qr_scan"}}, {"bike_id": "6282d4a456fb4b16a866f94bbf12a70e", "fusion_lon": 0.0, "name": "6282d4a456fb4b16a866f94bbf12a70e", "lat": 38.8962365, "is_disabled": 0, "is_reserved": 0, "lon": -77.03219283333334, "type": "electric_scooter", "fusion_lat": 0.0, "rental_uris": {"android": "https://dc.lft.to/lastmile_qr_scan", "ios": "https://dc.lft.to/lastmile_qr_scan"}}, {"bike_id": "05c8d93e4797c01ea6facd5e9990efa2", "fusion_lon": 0.0, "name": "05c8d93e4797c01ea6facd5e9990efa2", "lat": 38.8590175, "is_disabled": 0, "is_reserved": 0, "lon": -77.095775, "type": "electric_bike", "fusion_lat": 0.0, "rental_uris": {"android": "https://dc.lft.to/lastmile_qr_scan", "ios": "https://dc.lft.to/lastmile_qr_scan"}}, {"bike_id": "40e9bcde6260de2741ba509dbb1a54a1", "fusion_lon": 0.0, "name": "40e9bcde6260de2741ba509dbb1a54a1", "lat": 38.915646333333335, "is_disabled": 0, "is_reserved": 0, "lon": -77.03335783333333, "type": "electric_scooter", "fusion_lat": 0.0, "rental_uris": {"android": "https://dc.lft.to/lastmile_qr_scan", "ios": "https://dc.lft.to/lastmile_qr_scan"}}, {"bike_id": "eb0cc366b58740bbcbd7fbadfe223784", "fusion_lon": 0.0, "name": "eb0cc366b58740bbcbd7fbadfe223784", "lat": 38.93609033333333, "is_disabled": 0, "is_reserved": 0, "lon": -77.0585975, "type": "electric_scooter", "fusion_lat": 0.0, "rental_uris": {"android": "https://dc.lft.to/lastmile_qr_scan", "ios": "https://dc.lft.to/lastmile_qr_scan"}}, {"bike_id": "937cf08b59e7be4dc832f65815e4be7e", "fusion_lon": 0.0, "name": "937cf08b59e7be4dc832f65815e4be7e", "lat": 38.902663833333335, "is_disabled": 0, "is_reserved": 0, "lon": -77.035174, "type": "electric_scooter", "fusion_lat": 0.0, "rental_uris": {"android": "https://dc.lft.to/lastmile_qr_scan", "ios": "https://dc.lft.to/lastmile_qr_scan"}}, {"bike_id": "244db555a8b873edb950afa95427a29a", "fusion_lon": 0.0, "name": "244db555a8b873edb950afa95427a29a", "lat": 38.881408, "is_disabled": 0, "is_reserved": 0, "lon": -76.99617, "type": "electric_scooter", "fusion_lat": 0.0, "rental_uris": {"android": "https://dc.lft.to/lastmile_qr_scan", "ios": "https://dc.lft.to/lastmile_qr_scan"}}, {"bike_id": "047e8d13e20255b08bb47ae53415b824", "fusion_lon": 0.0, "name": "047e8d13e20255b08bb47ae53415b824", "lat": 38.89790966666666, "is_disabled": 0, "is_reserved": 0, "lon": -76.931243, "type": "electric_scooter", "fusion_lat": 0.0, "rental_uris": {"android": "https://dc.lft.to/lastmile_qr_scan", "ios": "https://dc.lft.to/lastmile_qr_scan"}}, {"bike_id": "4bf924776164ec1adfe4d0fb7240a7f0", "fusion_lon": 0.0, "name": "4bf924776164ec1adfe4d0fb7240a7f0", "lat": 38.8650505, "is_disabled": 0, "is_reserved": 0, "lon": -76.99000883333333, "type": "electric_scooter", "fusion_lat": 0.0, "rental_uris": {"android": "https://dc.lft.to/lastmile_qr_scan", "ios": "https://dc.lft.to/lastmile_qr_scan"}}, {"bike_id": "227dac63498adb4f72e6ef7f96746379", "fusion_lon": 0.0, "name": "227dac63498adb4f72e6ef7f96746379", "lat": 38.90787616666667, "is_disabled": 0, "is_reserved": 0, "lon": -77.000223, "type": "electric_scooter", "fusion_lat": 0.0, "rental_uris": {"android": "https://dc.lft.to/lastmile_qr_scan", "ios": "https://dc.lft.to/lastmile_qr_scan"}}, {"bike_id": "2b4944ea5c7b1f7addb4a2b6ee3ba98c", "fusion_lon": 0.0, "name": "2b4944ea5c7b1f7addb4a2b6ee3ba98c", "lat": 38.913332, "is_disabled": 0, "is_reserved": 0, "lon": -77.03176416666666, "type": "electric_scooter", "fusion_lat": 0.0, "rental_uris": {"android": "https://dc.lft.to/lastmile_qr_scan", "ios": "https://dc.lft.to/lastmile_qr_scan"}}, {"bike_id": "d5ab97acc7a9efa4f8e64b13a278a05c", "fusion_lon": 0.0, "name": "d5ab97acc7a9efa4f8e64b13a278a05c", "lat": 38.901708166666666, "is_disabled": 0, "is_reserved": 0, "lon": -77.01360216666667, "type": "electric_scooter", "fusion_lat": 0.0, "rental_uris": {"android": "https://dc.lft.to/lastmile_qr_scan", "ios": "https://dc.lft.to/lastmile_qr_scan"}}, {"bike_id": "553ebac6068400013c0d327e1b59f215", "fusion_lon": 0.0, "name": "553ebac6068400013c0d327e1b59f215", "lat": 38.871378, "is_disabled": 0, "is_reserved": 0, "lon": -77.10026916666666, "type": "electric_bike", "fusion_lat": 0.0, "rental_uris": {"android": "https://dc.lft.to/lastmile_qr_scan", "ios": "https://dc.lft.to/lastmile_qr_scan"}}, {"bike_id": "1cb7a6370e4718c69a6e6985822177ee", "fusion_lon": 0.0, "name": "1cb7a6370e4718c69a6e6985822177ee", "lat": 38.804422333333335, "is_disabled": 0, "is_reserved": 0, "lon": -77.1322685, "type": "electric_bike", "fusion_lat": 0.0, "rental_uris": {"android": "https://dc.lft.to/lastmile_qr_scan", "ios": "https://dc.lft.to/lastmile_qr_scan"}}, {"bike_id": "493b66dc1f63c380bbeaaa888e926c4e", "fusion_lon": 0.0, "name": "493b66dc1f63c380bbeaaa888e926c4e", "lat": 38.89939666666667, "is_disabled": 0, "is_reserved": 0, "lon": -77.041977, "type": "electric_scooter", "fusion_lat": 0.0, "rental_uris": {"android": "https://dc.lft.to/lastmile_qr_scan", "ios": "https://dc.lft.to/lastmile_qr_scan"}}, {"bike_id": "9c0e3acf20103d28ab5c5eeaaacf17f1", "fusion_lon": 0.0, "name": "9c0e3acf20103d28ab5c5eeaaacf17f1", "lat": 38.92032666666667, "is_disabled": 0, "is_reserved": 0, "lon": -77.01286983333334, "type": "electric_scooter", "fusion_lat": 0.0, "rental_uris": {"android": "https://dc.lft.to/lastmile_qr_scan", "ios": "https://dc.lft.to/lastmile_qr_scan"}}, {"bike_id": "090d48f971378233bbe65cbb3438ee84", "fusion_lon": 0.0, "name": "090d48f971378233bbe65cbb3438ee84", "lat": 38.89988066666667, "is_disabled": 0, "is_reserved": 0, "lon": -77.01682533333333, "type": "electric_bike", "fusion_lat": 0.0, "rental_uris": {"android": "https://dc.lft.to/lastmile_qr_scan", "ios": "https://dc.lft.to/lastmile_qr_scan"}}, {"bike_id": "8c0649b28bcec1ce2a4fcffb5ba50da9", "fusion_lon": 0.0, "name": "8c0649b28bcec1ce2a4fcffb5ba50da9", "lat": 38.900783833333335, "is_disabled": 0, "is_reserved": 0, "lon": -77.0506495, "type": "electric_scooter", "fusion_lat": 0.0, "rental_uris": {"android": "https://dc.lft.to/lastmile_qr_scan", "ios": "https://dc.lft.to/lastmile_qr_scan"}}, {"bike_id": "0847999233149adf0068e743b0196870", "fusion_lon": 0.0, "name": "0847999233149adf0068e743b0196870", "lat": 38.923176833333336, "is_disabled": 0, "is_reserved": 0, "lon": -77.041799, "type": "electric_scooter", "fusion_lat": 0.0, "rental_uris": {"android": "https://dc.lft.to/lastmile_qr_scan", "ios": "https://dc.lft.to/lastmile_qr_scan"}}, {"bike_id": "0dc413fc40ff97bb90a7cf1532d2442e", "fusion_lon": 0.0, "name": "0dc413fc40ff97bb90a7cf1532d2442e", "lat": 38.892254666666666, "is_disabled": 0, "is_reserved": 0, "lon": -77.047717, "type": "electric_scooter", "fusion_lat": 0.0, "rental_uris": {"android": "https://dc.lft.to/lastmile_qr_scan", "ios": "https://dc.lft.to/lastmile_qr_scan"}}, {"bike_id": "14bf02a4354421655986b6e139fadbaf", "fusion_lon": 0.0, "name": "14bf02a4354421655986b6e139fadbaf", "lat": 38.88256766666667, "is_disabled": 0, "is_reserved": 0, "lon": -76.99490333333334, "type": "electric_scooter", "fusion_lat": 0.0, "rental_uris": {"android": "https://dc.lft.to/lastmile_qr_scan", "ios": "https://dc.lft.to/lastmile_qr_scan"}}, {"bike_id": "cde543e2160305adf92f888d9c69b42b", "fusion_lon": 0.0, "name": "cde543e2160305adf92f888d9c69b42b", "lat": 38.86556566666667, "is_disabled": 0, "is_reserved": 0, "lon": -76.98356066666666, "type": "electric_scooter", "fusion_lat": 0.0, "rental_uris": {"android": "https://dc.lft.to/lastmile_qr_scan", "ios": "https://dc.lft.to/lastmile_qr_scan"}}, {"bike_id": "a8dbbae4cafdcf9efab1228458788a07", "fusion_lon": 0.0, "name": "a8dbbae4cafdcf9efab1228458788a07", "lat": 38.90750366666666, "is_disabled": 0, "is_reserved": 0, "lon": -77.04348133333333, "type": "electric_scooter", "fusion_lat": 0.0, "rental_uris": {"android": "https://dc.lft.to/lastmile_qr_scan", "ios": "https://dc.lft.to/lastmile_qr_scan"}}, {"bike_id": "2d12ad638e2fe99a5110357aed3a271b", "fusion_lon": 0.0, "name": "2d12ad638e2fe99a5110357aed3a271b", "lat": 38.87761016666666, "is_disabled": 0, "is_reserved": 0, "lon": -77.00706566666666, "type": "electric_scooter", "fusion_lat": 0.0, "rental_uris": {"android": "https://dc.lft.to/lastmile_qr_scan", "ios": "https://dc.lft.to/lastmile_qr_scan"}}, {"bike_id": "5ea131240602f62583d2a4ccbbb36ca3", "fusion_lon": 0.0, "name": "5ea131240602f62583d2a4ccbbb36ca3", "lat": 38.89223166666667, "is_disabled": 0, "is_reserved": 0, "lon": -77.033775, "type": "electric_scooter", "fusion_lat": 0.0, "rental_uris": {"android": "https://dc.lft.to/lastmile_qr_scan", "ios": "https://dc.lft.to/lastmile_qr_scan"}}, {"bike_id": "cf5b5f7c4fb83467f73d1a6a93819bf0", "fusion_lon": 0.0, "name": "cf5b5f7c4fb83467f73d1a6a93819bf0", "lat": 38.922430166666665, "is_disabled": 0, "is_reserved": 0, "lon": -77.03664316666666, "type": "electric_scooter", "fusion_lat": 0.0, "rental_uris": {"android": "https://dc.lft.to/lastmile_qr_scan", "ios": "https://dc.lft.to/lastmile_qr_scan"}}, {"bike_id": "d0d04068a411ec53e7c689d505857b53", "fusion_lon": 0.0, "name": "d0d04068a411ec53e7c689d505857b53", "lat": 38.91405233333333, "is_disabled": 0, "is_reserved": 0, "lon": -77.02664, "type": "electric_scooter", "fusion_lat": 0.0, "rental_uris": {"android": "https://dc.lft.to/lastmile_qr_scan", "ios": "https://dc.lft.to/lastmile_qr_scan"}}, {"bike_id": "525d8500faa1c637b824fdd8a0dc8bd4", "fusion_lon": 0.0, "name": "525d8500faa1c637b824fdd8a0dc8bd4", "lat": 38.89761883333333, "is_disabled": 0, "is_reserved": 0, "lon": -76.98550266666666, "type": "electric_scooter", "fusion_lat": 0.0, "rental_uris": {"android": "https://dc.lft.to/lastmile_qr_scan", "ios": "https://dc.lft.to/lastmile_qr_scan"}}, {"bike_id": "630dee042b085945947ad251dd04720b", "fusion_lon": 0.0, "name": "630dee042b085945947ad251dd04720b", "lat": 38.921268833333336, "is_disabled": 0, "is_reserved": 0, "lon": -77.03178866666667, "type": "electric_scooter", "fusion_lat": 0.0, "rental_uris": {"android": "https://dc.lft.to/lastmile_qr_scan", "ios": "https://dc.lft.to/lastmile_qr_scan"}}, {"bike_id": "c1b0ec4d86d3779ae45ca8b5bc3298a1", "fusion_lon": 0.0, "name": "c1b0ec4d86d3779ae45ca8b5bc3298a1", "lat": 38.93602516666667, "is_disabled": 0, "is_reserved": 0, "lon": -77.05866283333333, "type": "electric_scooter", "fusion_lat": 0.0, "rental_uris": {"android": "https://dc.lft.to/lastmile_qr_scan", "ios": "https://dc.lft.to/lastmile_qr_scan"}}, {"bike_id": "36f3fe99c55246b0a14098981d056aa5", "fusion_lon": 0.0, "name": "36f3fe99c55246b0a14098981d056aa5", "lat": 38.84053266666667, "is_disabled": 0, "is_reserved": 0, "lon": -76.9766745, "type": "electric_scooter", "fusion_lat": 0.0, "rental_uris": {"android": "https://dc.lft.to/lastmile_qr_scan", "ios": "https://dc.lft.to/lastmile_qr_scan"}}, {"bike_id": "2b7395929dae17abd42f9c40c1febd69", "fusion_lon": 0.0, "name": "2b7395929dae17abd42f9c40c1febd69", "lat": 38.9235325, "is_disabled": 0, "is_reserved": 0, "lon": -77.03542516666667, "type": "electric_scooter", "fusion_lat": 0.0, "rental_uris": {"android": "https://dc.lft.to/lastmile_qr_scan", "ios": "https://dc.lft.to/lastmile_qr_scan"}}, {"bike_id": "c34f0f5ea23307b6382b628972b2e81e", "fusion_lon": 0.0, "name": "c34f0f5ea23307b6382b628972b2e81e", "lat": 38.898393, "is_disabled": 0, "is_reserved": 0, "lon": -76.931723, "type": "electric_scooter", "fusion_lat": 0.0, "rental_uris": {"android": "https://dc.lft.to/lastmile_qr_scan", "ios": "https://dc.lft.to/lastmile_qr_scan"}}, {"bike_id": "55510f91150c52818132c397104de11a", "fusion_lon": 0.0, "name": "55510f91150c52818132c397104de11a", "lat": 38.91305166666667, "is_disabled": 0, "is_reserved": 0, "lon": -77.04544283333334, "type": "electric_scooter", "fusion_lat": 0.0, "rental_uris": {"android": "https://dc.lft.to/lastmile_qr_scan", "ios": "https://dc.lft.to/lastmile_qr_scan"}}, {"bike_id": "3fd7030c7dfe16ab283b5762901e6239", "fusion_lon": 0.0, "name": "3fd7030c7dfe16ab283b5762901e6239", "lat": 38.949016666666665, "is_disabled": 0, "is_reserved": 0, "lon": -76.96375516666667, "type": "electric_bike", "fusion_lat": 0.0, "rental_uris": {"android": "https://dc.lft.to/lastmile_qr_scan", "ios": "https://dc.lft.to/lastmile_qr_scan"}}, {"bike_id": "36ac44abd4bb6f6dc21838b5debc98e7", "fusion_lon": 0.0, "name": "36ac44abd4bb6f6dc21838b5debc98e7", "lat": 38.9499105, "is_disabled": 0, "is_reserved": 0, "lon": -77.02705416666667, "type": "electric_scooter", "fusion_lat": 0.0, "rental_uris": {"android": "https://dc.lft.to/lastmile_qr_scan", "ios": "https://dc.lft.to/lastmile_qr_scan"}}, {"bike_id": "08524e57641066e39bc031393d106097", "fusion_lon": 0.0, "name": "08524e57641066e39bc031393d106097", "lat": 38.899179833333335, "is_disabled": 0, "is_reserved": 0, "lon": -77.00353166666666, "type": "electric_scooter", "fusion_lat": 0.0, "rental_uris": {"android": "https://dc.lft.to/lastmile_qr_scan", "ios": "https://dc.lft.to/lastmile_qr_scan"}}, {"bike_id": "adfd0b7c242eb778fff19bd9cd813d52", "fusion_lon": 0.0, "name": "adfd0b7c242eb778fff19bd9cd813d52", "lat": 38.917272, "is_disabled": 0, "is_reserved": 0, "lon": -77.02606216666666, "type": "electric_scooter", "fusion_lat": 0.0, "rental_uris": {"android": "https://dc.lft.to/lastmile_qr_scan", "ios": "https://dc.lft.to/lastmile_qr_scan"}}, {"bike_id": "8748a163e63511f59d5db65aa1ba706a", "fusion_lon": 0.0, "name": "8748a163e63511f59d5db65aa1ba706a", "lat": 38.88596283333333, "is_disabled": 0, "is_reserved": 0, "lon": -77.01721416666666, "type": "electric_scooter", "fusion_lat": 0.0, "rental_uris": {"android": "https://dc.lft.to/lastmile_qr_scan", "ios": "https://dc.lft.to/lastmile_qr_scan"}}, {"bike_id": "0bb1c0dc9fabab79aeb18e7b2fdd8e4b", "fusion_lon": 0.0, "name": "0bb1c0dc9fabab79aeb18e7b2fdd8e4b", "lat": 38.897994, "is_disabled": 0, "is_reserved": 0, "lon": -77.028243, "type": "electric_scooter", "fusion_lat": 0.0, "rental_uris": {"android": "https://dc.lft.to/lastmile_qr_scan", "ios": "https://dc.lft.to/lastmile_qr_scan"}}, {"bike_id": "5457c0780ff3b9111826c2eaf04b8f01", "fusion_lon": 0.0, "name": "5457c0780ff3b9111826c2eaf04b8f01", "lat": 38.911375, "is_disabled": 0, "is_reserved": 0, "lon": -77.02407016666666, "type": "electric_scooter", "fusion_lat": 0.0, "rental_uris": {"android": "https://dc.lft.to/lastmile_qr_scan", "ios": "https://dc.lft.to/lastmile_qr_scan"}}, {"bike_id": "cd88fd232b9a3b0a81754417135df9b4", "fusion_lon": 0.0, "name": "cd88fd232b9a3b0a81754417135df9b4", "lat": 38.933970333333335, "is_disabled": 0, "is_reserved": 0, "lon": -77.05743533333333, "type": "electric_scooter", "fusion_lat": 0.0, "rental_uris": {"android": "https://dc.lft.to/lastmile_qr_scan", "ios": "https://dc.lft.to/lastmile_qr_scan"}}, {"bike_id": "2499a5f7ff980ab3a97e0f146f01b166", "fusion_lon": 0.0, "name": "2499a5f7ff980ab3a97e0f146f01b166", "lat": 38.9243815, "is_disabled": 0, "is_reserved": 0, "lon": -77.04201, "type": "electric_scooter", "fusion_lat": 0.0, "rental_uris": {"android": "https://dc.lft.to/lastmile_qr_scan", "ios": "https://dc.lft.to/lastmile_qr_scan"}}, {"bike_id": "7041e035471063f3d0b30bf5ea1a034b", "fusion_lon": 0.0, "name": "7041e035471063f3d0b30bf5ea1a034b", "lat": 38.8967435, "is_disabled": 0, "is_reserved": 0, "lon": -77.0052045, "type": "electric_scooter", "fusion_lat": 0.0, "rental_uris": {"android": "https://dc.lft.to/lastmile_qr_scan", "ios": "https://dc.lft.to/lastmile_qr_scan"}}, {"bike_id": "8fa370ef7056678e8eed6285107e331d", "fusion_lon": 0.0, "name": "8fa370ef7056678e8eed6285107e331d", "lat": 38.910521833333334, "is_disabled": 0, "is_reserved": 0, "lon": -77.04091083333333, "type": "electric_scooter", "fusion_lat": 0.0, "rental_uris": {"android": "https://dc.lft.to/lastmile_qr_scan", "ios": "https://dc.lft.to/lastmile_qr_scan"}}, {"bike_id": "7ed039b74071fccaf0362a5d62ba93f1", "fusion_lon": 0.0, "name": "7ed039b74071fccaf0362a5d62ba93f1", "lat": 38.892336666666665, "is_disabled": 0, "is_reserved": 0, "lon": -77.041544, "type": "electric_scooter", "fusion_lat": 0.0, "rental_uris": {"android": "https://dc.lft.to/lastmile_qr_scan", "ios": "https://dc.lft.to/lastmile_qr_scan"}}, {"bike_id": "0090b5cea73b989cc58b094174e793f7", "fusion_lon": 0.0, "name": "0090b5cea73b989cc58b094174e793f7", "lat": 38.87411983333333, "is_disabled": 0, "is_reserved": 0, "lon": -77.00061333333333, "type": "electric_scooter", "fusion_lat": 0.0, "rental_uris": {"android": "https://dc.lft.to/lastmile_qr_scan", "ios": "https://dc.lft.to/lastmile_qr_scan"}}, {"bike_id": "3f2bdaf9e51a59748e561e9b80296976", "fusion_lon": 0.0, "name": "3f2bdaf9e51a59748e561e9b80296976", "lat": 38.864265, "is_disabled": 0, "is_reserved": 0, "lon": -76.99020766666666, "type": "electric_scooter", "fusion_lat": 0.0, "rental_uris": {"android": "https://dc.lft.to/lastmile_qr_scan", "ios": "https://dc.lft.to/lastmile_qr_scan"}}, {"bike_id": "b4fe46c1f470eac622e34a93ac507036", "fusion_lon": 0.0, "name": "b4fe46c1f470eac622e34a93ac507036", "lat": 38.89043683333333, "is_disabled": 0, "is_reserved": 0, "lon": -76.952442, "type": "electric_scooter", "fusion_lat": 0.0, "rental_uris": {"android": "https://dc.lft.to/lastmile_qr_scan", "ios": "https://dc.lft.to/lastmile_qr_scan"}}, {"bike_id": "822886784e0e950d727b2f7cde9f2808", "fusion_lon": 0.0, "name": "822886784e0e950d727b2f7cde9f2808", "lat": 38.91585516666667, "is_disabled": 0, "is_reserved": 0, "lon": -77.02115066666667, "type": "electric_scooter", "fusion_lat": 0.0, "rental_uris": {"android": "https://dc.lft.to/lastmile_qr_scan", "ios": "https://dc.lft.to/lastmile_qr_scan"}}, {"bike_id": "7823fc91440d48c7e68be94a76fc000b", "fusion_lon": 0.0, "name": "7823fc91440d48c7e68be94a76fc000b", "lat": 38.883002166666664, "is_disabled": 0, "is_reserved": 0, "lon": -76.94854483333333, "type": "electric_scooter", "fusion_lat": 0.0, "rental_uris": {"android": "https://dc.lft.to/lastmile_qr_scan", "ios": "https://dc.lft.to/lastmile_qr_scan"}}, {"bike_id": "8880a8327300665807c25a675098719f", "fusion_lon": 0.0, "name": "8880a8327300665807c25a675098719f", "lat": 38.900023833333336, "is_disabled": 0, "is_reserved": 0, "lon": -76.99899916666666, "type": "electric_scooter", "fusion_lat": 0.0, "rental_uris": {"android": "https://dc.lft.to/lastmile_qr_scan", "ios": "https://dc.lft.to/lastmile_qr_scan"}}, {"bike_id": "9f04707579c8c9ed209e27373ef0d179", "fusion_lon": 0.0, "name": "9f04707579c8c9ed209e27373ef0d179", "lat": 38.93132683333333, "is_disabled": 0, "is_reserved": 0, "lon": -77.032546, "type": "electric_scooter", "fusion_lat": 0.0, "rental_uris": {"android": "https://dc.lft.to/lastmile_qr_scan", "ios": "https://dc.lft.to/lastmile_qr_scan"}}, {"bike_id": "37d55d2c92952eca4f5e60390ae96b9c", "fusion_lon": 0.0, "name": "37d55d2c92952eca4f5e60390ae96b9c", "lat": 38.92380633333333, "is_disabled": 0, "is_reserved": 0, "lon": -77.03131966666666, "type": "electric_scooter", "fusion_lat": 0.0, "rental_uris": {"android": "https://dc.lft.to/lastmile_qr_scan", "ios": "https://dc.lft.to/lastmile_qr_scan"}}, {"bike_id": "3be0039f0d2cc4fb3414bd371c3acd68", "fusion_lon": 0.0, "name": "3be0039f0d2cc4fb3414bd371c3acd68", "lat": 38.892, "is_disabled": 0, "is_reserved": 0, "lon": -77.0028955, "type": "electric_scooter", "fusion_lat": 0.0, "rental_uris": {"android": "https://dc.lft.to/lastmile_qr_scan", "ios": "https://dc.lft.to/lastmile_qr_scan"}}, {"bike_id": "7f3716c2ef633409aefed0e37aef2d4a", "fusion_lon": 0.0, "name": "7f3716c2ef633409aefed0e37aef2d4a", "lat": 38.8831145, "is_disabled": 0, "is_reserved": 0, "lon": -77.01767433333333, "type": "electric_scooter", "fusion_lat": 0.0, "rental_uris": {"android": "https://dc.lft.to/lastmile_qr_scan", "ios": "https://dc.lft.to/lastmile_qr_scan"}}, {"bike_id": "dae42a37dba206e07ebffcabc4f1cf69", "fusion_lon": 0.0, "name": "dae42a37dba206e07ebffcabc4f1cf69", "lat": 38.889843666666664, "is_disabled": 0, "is_reserved": 0, "lon": -76.98737916666667, "type": "electric_scooter", "fusion_lat": 0.0, "rental_uris": {"android": "https://dc.lft.to/lastmile_qr_scan", "ios": "https://dc.lft.to/lastmile_qr_scan"}}, {"bike_id": "556abd8a40c33dcf7207e348042e5630", "fusion_lon": 0.0, "name": "556abd8a40c33dcf7207e348042e5630", "lat": 38.92119, "is_disabled": 0, "is_reserved": 0, "lon": -77.07219983333333, "type": "electric_scooter", "fusion_lat": 0.0, "rental_uris": {"android": "https://dc.lft.to/lastmile_qr_scan", "ios": "https://dc.lft.to/lastmile_qr_scan"}}, {"bike_id": "6448c3f733098daec61e03b811dfbcef", "fusion_lon": 0.0, "name": "6448c3f733098daec61e03b811dfbcef", "lat": 38.9021155, "is_disabled": 0, "is_reserved": 0, "lon": -77.02759683333333, "type": "electric_scooter", "fusion_lat": 0.0, "rental_uris": {"android": "https://dc.lft.to/lastmile_qr_scan", "ios": "https://dc.lft.to/lastmile_qr_scan"}}, {"bike_id": "493f5cfb447bce5298cd000c6642f9ac", "fusion_lon": 0.0, "name": "493f5cfb447bce5298cd000c6642f9ac", "lat": 38.9031075, "is_disabled": 0, "is_reserved": 0, "lon": -77.060133, "type": "electric_scooter", "fusion_lat": 0.0, "rental_uris": {"android": "https://dc.lft.to/lastmile_qr_scan", "ios": "https://dc.lft.to/lastmile_qr_scan"}}, {"bike_id": "11f567c2cee4a469f3494addc5750429", "fusion_lon": 0.0, "name": "11f567c2cee4a469f3494addc5750429", "lat": 38.9245745, "is_disabled": 0, "is_reserved": 0, "lon": -77.06731666666667, "type": "electric_bike", "fusion_lat": 0.0, "rental_uris": {"android": "https://dc.lft.to/lastmile_qr_scan", "ios": "https://dc.lft.to/lastmile_qr_scan"}}, {"bike_id": "6719394a5ded84d19216b6a350360286", "fusion_lon": 0.0, "name": "6719394a5ded84d19216b6a350360286", "lat": 38.91697116666667, "is_disabled": 0, "is_reserved": 0, "lon": -77.0332865, "type": "electric_scooter", "fusion_lat": 0.0, "rental_uris": {"android": "https://dc.lft.to/lastmile_qr_scan", "ios": "https://dc.lft.to/lastmile_qr_scan"}}, {"bike_id": "7a32fad5ec2a35a1f3e7169d302960f9", "fusion_lon": 0.0, "name": "7a32fad5ec2a35a1f3e7169d302960f9", "lat": 38.95637516666667, "is_disabled": 0, "is_reserved": 0, "lon": -77.033034, "type": "electric_scooter", "fusion_lat": 0.0, "rental_uris": {"android": "https://dc.lft.to/lastmile_qr_scan", "ios": "https://dc.lft.to/lastmile_qr_scan"}}, {"bike_id": "a5b419cb0ebd236a5a27fa43bc6561fc", "fusion_lon": 0.0, "name": "a5b419cb0ebd236a5a27fa43bc6561fc", "lat": 38.91775366666667, "is_disabled": 0, "is_reserved": 0, "lon": -77.04105966666667, "type": "electric_scooter", "fusion_lat": 0.0, "rental_uris": {"android": "https://dc.lft.to/lastmile_qr_scan", "ios": "https://dc.lft.to/lastmile_qr_scan"}}, {"bike_id": "bdc1904a4446420832ddeb4ac2918b6a", "fusion_lon": 0.0, "name": "bdc1904a4446420832ddeb4ac2918b6a", "lat": 38.8949465, "is_disabled": 0, "is_reserved": 0, "lon": -77.0112975, "type": "electric_scooter", "fusion_lat": 0.0, "rental_uris": {"android": "https://dc.lft.to/lastmile_qr_scan", "ios": "https://dc.lft.to/lastmile_qr_scan"}}, {"bike_id": "5db1bfd1913512267b831ffaf2d6d301", "fusion_lon": 0.0, "name": "5db1bfd1913512267b831ffaf2d6d301", "lat": 38.89821116666667, "is_disabled": 0, "is_reserved": 0, "lon": -77.03149683333334, "type": "electric_scooter", "fusion_lat": 0.0, "rental_uris": {"android": "https://dc.lft.to/lastmile_qr_scan", "ios": "https://dc.lft.to/lastmile_qr_scan"}}, {"bike_id": "3d5bb66525146a5bce8a87b2cf123233", "fusion_lon": 0.0, "name": "3d5bb66525146a5bce8a87b2cf123233", "lat": 38.8873595, "is_disabled": 0, "is_reserved": 0, "lon": -77.02580633333334, "type": "electric_scooter", "fusion_lat": 0.0, "rental_uris": {"android": "https://dc.lft.to/lastmile_qr_scan", "ios": "https://dc.lft.to/lastmile_qr_scan"}}, {"bike_id": "bd8615d95adf6eeac70acea4e9c5d44b", "fusion_lon": 0.0, "name": "bd8615d95adf6eeac70acea4e9c5d44b", "lat": 38.902478, "is_disabled": 0, "is_reserved": 0, "lon": -77.03449216666667, "type": "electric_scooter", "fusion_lat": 0.0, "rental_uris": {"android": "https://dc.lft.to/lastmile_qr_scan", "ios": "https://dc.lft.to/lastmile_qr_scan"}}, {"bike_id": "09672de9d82977e8fbc55c016c22817e", "fusion_lon": 0.0, "name": "09672de9d82977e8fbc55c016c22817e", "lat": 38.922578333333334, "is_disabled": 0, "is_reserved": 0, "lon": -77.00915333333333, "type": "electric_scooter", "fusion_lat": 0.0, "rental_uris": {"android": "https://dc.lft.to/lastmile_qr_scan", "ios": "https://dc.lft.to/lastmile_qr_scan"}}, {"bike_id": "8906fca5ca6790719f426e4e6119b3dc", "fusion_lon": 0.0, "name": "8906fca5ca6790719f426e4e6119b3dc", "lat": 38.91444966666667, "is_disabled": 0, "is_reserved": 0, "lon": -76.98820683333334, "type": "electric_scooter", "fusion_lat": 0.0, "rental_uris": {"android": "https://dc.lft.to/lastmile_qr_scan", "ios": "https://dc.lft.to/lastmile_qr_scan"}}, {"bike_id": "f5d804a262c2d7762faba4e54bfdca2a", "fusion_lon": 0.0, "name": "f5d804a262c2d7762faba4e54bfdca2a", "lat": 38.831614333333334, "is_disabled": 0, "is_reserved": 0, "lon": -76.99543683333333, "type": "electric_bike", "fusion_lat": 0.0, "rental_uris": {"android": "https://dc.lft.to/lastmile_qr_scan", "ios": "https://dc.lft.to/lastmile_qr_scan"}}, {"bike_id": "1c96f5549d19331cdf8b6543fcf6ed89", "fusion_lon": 0.0, "name": "1c96f5549d19331cdf8b6543fcf6ed89", "lat": 38.905725833333335, "is_disabled": 0, "is_reserved": 0, "lon": -77.00580166666667, "type": "electric_scooter", "fusion_lat": 0.0, "rental_uris": {"android": "https://dc.lft.to/lastmile_qr_scan", "ios": "https://dc.lft.to/lastmile_qr_scan"}}, {"bike_id": "2cb9860cead61346404fcaf0707bfff1", "fusion_lon": 0.0, "name": "2cb9860cead61346404fcaf0707bfff1", "lat": 38.938627, "is_disabled": 0, "is_reserved": 0, "lon": -77.02558766666667, "type": "electric_scooter", "fusion_lat": 0.0, "rental_uris": {"android": "https://dc.lft.to/lastmile_qr_scan", "ios": "https://dc.lft.to/lastmile_qr_scan"}}, {"bike_id": "2b8fd5cf7b7258a584e690f13a354c7c", "fusion_lon": 0.0, "name": "2b8fd5cf7b7258a584e690f13a354c7c", "lat": 38.900393333333334, "is_disabled": 0, "is_reserved": 0, "lon": -76.97223333333334, "type": "electric_bike", "fusion_lat": 0.0, "rental_uris": {"android": "https://dc.lft.to/lastmile_qr_scan", "ios": "https://dc.lft.to/lastmile_qr_scan"}}, {"bike_id": "d856c880851edf40f42f7b98f9da841a", "fusion_lon": 0.0, "name": "d856c880851edf40f42f7b98f9da841a", "lat": 38.892192666666666, "is_disabled": 0, "is_reserved": 0, "lon": -77.03144, "type": "electric_scooter", "fusion_lat": 0.0, "rental_uris": {"android": "https://dc.lft.to/lastmile_qr_scan", "ios": "https://dc.lft.to/lastmile_qr_scan"}}, {"bike_id": "ae197c782e66bd6d8f5d122cc157e8a4", "fusion_lon": 0.0, "name": "ae197c782e66bd6d8f5d122cc157e8a4", "lat": 38.87729983333333, "is_disabled": 0, "is_reserved": 0, "lon": -77.0042175, "type": "electric_scooter", "fusion_lat": 0.0, "rental_uris": {"android": "https://dc.lft.to/lastmile_qr_scan", "ios": "https://dc.lft.to/lastmile_qr_scan"}}, {"bike_id": "e451f476af245534497d53f3b308f04c", "fusion_lon": 0.0, "name": "e451f476af245534497d53f3b308f04c", "lat": 38.91399583333333, "is_disabled": 0, "is_reserved": 0, "lon": -77.04171733333334, "type": "electric_scooter", "fusion_lat": 0.0, "rental_uris": {"android": "https://dc.lft.to/lastmile_qr_scan", "ios": "https://dc.lft.to/lastmile_qr_scan"}}, {"bike_id": "dec6e2618f9a2126f6596efe8bac7b4d", "fusion_lon": 0.0, "name": "dec6e2618f9a2126f6596efe8bac7b4d", "lat": 38.90557116666667, "is_disabled": 0, "is_reserved": 0, "lon": -77.04337566666666, "type": "electric_scooter", "fusion_lat": 0.0, "rental_uris": {"android": "https://dc.lft.to/lastmile_qr_scan", "ios": "https://dc.lft.to/lastmile_qr_scan"}}, {"bike_id": "18b2e4e9cf4980f6eff81b378546920e", "fusion_lon": 0.0, "name": "18b2e4e9cf4980f6eff81b378546920e", "lat": 38.907696, "is_disabled": 0, "is_reserved": 0, "lon": -77.040081, "type": "electric_scooter", "fusion_lat": 0.0, "rental_uris": {"android": "https://dc.lft.to/lastmile_qr_scan", "ios": "https://dc.lft.to/lastmile_qr_scan"}}, {"bike_id": "a10f662711c83221ad109588e204d801", "fusion_lon": 0.0, "name": "a10f662711c83221ad109588e204d801", "lat": 38.90406866666667, "is_disabled": 0, "is_reserved": 0, "lon": -76.9733095, "type": "electric_scooter", "fusion_lat": 0.0, "rental_uris": {"android": "https://dc.lft.to/lastmile_qr_scan", "ios": "https://dc.lft.to/lastmile_qr_scan"}}, {"bike_id": "65354ccb6f7334d6aae7b9b1e603a7d8", "fusion_lon": 0.0, "name": "65354ccb6f7334d6aae7b9b1e603a7d8", "lat": 38.901868666666665, "is_disabled": 0, "is_reserved": 0, "lon": -77.021497, "type": "electric_scooter", "fusion_lat": 0.0, "rental_uris": {"android": "https://dc.lft.to/lastmile_qr_scan", "ios": "https://dc.lft.to/lastmile_qr_scan"}}, {"bike_id": "8ae0541cb48fe4f8ceefeda102799994", "fusion_lon": 0.0, "name": "8ae0541cb48fe4f8ceefeda102799994", "lat": 38.90854183333333, "is_disabled": 0, "is_reserved": 0, "lon": -76.99796033333334, "type": "electric_scooter", "fusion_lat": 0.0, "rental_uris": {"android": "https://dc.lft.to/lastmile_qr_scan", "ios": "https://dc.lft.to/lastmile_qr_scan"}}, {"bike_id": "21537dad77e30dd13d40844c9483ce25", "fusion_lon": 0.0, "name": "21537dad77e30dd13d40844c9483ce25", "lat": 38.90257116666667, "is_disabled": 0, "is_reserved": 0, "lon": -76.97451266666667, "type": "electric_scooter", "fusion_lat": 0.0, "rental_uris": {"android": "https://dc.lft.to/lastmile_qr_scan", "ios": "https://dc.lft.to/lastmile_qr_scan"}}, {"bike_id": "ac7475d188b5c435c2f15cd59aebef88", "fusion_lon": 0.0, "name": "ac7475d188b5c435c2f15cd59aebef88", "lat": 38.917073, "is_disabled": 0, "is_reserved": 0, "lon": -77.034737, "type": "electric_scooter", "fusion_lat": 0.0, "rental_uris": {"android": "https://dc.lft.to/lastmile_qr_scan", "ios": "https://dc.lft.to/lastmile_qr_scan"}}, {"bike_id": "34ea02c303837aeee7ddba733af44622", "fusion_lon": 0.0, "name": "34ea02c303837aeee7ddba733af44622", "lat": 38.93018583333333, "is_disabled": 0, "is_reserved": 0, "lon": -77.032972, "type": "electric_scooter", "fusion_lat": 0.0, "rental_uris": {"android": "https://dc.lft.to/lastmile_qr_scan", "ios": "https://dc.lft.to/lastmile_qr_scan"}}, {"bike_id": "9140048ed7ef3054ba63ce19675eeab4", "fusion_lon": 0.0, "name": "9140048ed7ef3054ba63ce19675eeab4", "lat": 38.892509, "is_disabled": 0, "is_reserved": 0, "lon": -77.04655583333333, "type": "electric_scooter", "fusion_lat": 0.0, "rental_uris": {"android": "https://dc.lft.to/lastmile_qr_scan", "ios": "https://dc.lft.to/lastmile_qr_scan"}}, {"bike_id": "c37b95d47390d872dc2d83f146a772c2", "fusion_lon": 0.0, "name": "c37b95d47390d872dc2d83f146a772c2", "lat": 38.928798, "is_disabled": 0, "is_reserved": 0, "lon": -77.02708683333333, "type": "electric_scooter", "fusion_lat": 0.0, "rental_uris": {"android": "https://dc.lft.to/lastmile_qr_scan", "ios": "https://dc.lft.to/lastmile_qr_scan"}}, {"bike_id": "ab4b8408f65e2fdc1ada63fe7c9e7957", "fusion_lon": 0.0, "name": "ab4b8408f65e2fdc1ada63fe7c9e7957", "lat": 38.91318616666667, "is_disabled": 0, "is_reserved": 0, "lon": -77.01514216666666, "type": "electric_scooter", "fusion_lat": 0.0, "rental_uris": {"android": "https://dc.lft.to/lastmile_qr_scan", "ios": "https://dc.lft.to/lastmile_qr_scan"}}, {"bike_id": "d576b85caf5ab421e6d8b2f14fe09b9e", "fusion_lon": 0.0, "name": "d576b85caf5ab421e6d8b2f14fe09b9e", "lat": 38.91115033333333, "is_disabled": 0, "is_reserved": 0, "lon": -77.04552533333333, "type": "electric_scooter", "fusion_lat": 0.0, "rental_uris": {"android": "https://dc.lft.to/lastmile_qr_scan", "ios": "https://dc.lft.to/lastmile_qr_scan"}}, {"bike_id": "ce349dbab940abd6428342f8cb930a69", "fusion_lon": 0.0, "name": "ce349dbab940abd6428342f8cb930a69", "lat": 38.90367466666667, "is_disabled": 0, "is_reserved": 0, "lon": -77.0445485, "type": "electric_scooter", "fusion_lat": 0.0, "rental_uris": {"android": "https://dc.lft.to/lastmile_qr_scan", "ios": "https://dc.lft.to/lastmile_qr_scan"}}, {"bike_id": "85da62dfb9aac47319ac09c646d0a135", "fusion_lon": 0.0, "name": "85da62dfb9aac47319ac09c646d0a135", "lat": 38.91799966666667, "is_disabled": 0, "is_reserved": 0, "lon": -77.03438016666666, "type": "electric_scooter", "fusion_lat": 0.0, "rental_uris": {"android": "https://dc.lft.to/lastmile_qr_scan", "ios": "https://dc.lft.to/lastmile_qr_scan"}}, {"bike_id": "5b9473b2e065fc89d91f1bdbeed689cd", "fusion_lon": 0.0, "name": "5b9473b2e065fc89d91f1bdbeed689cd", "lat": 38.9105865, "is_disabled": 0, "is_reserved": 0, "lon": -76.98526633333333, "type": "electric_scooter", "fusion_lat": 0.0, "rental_uris": {"android": "https://dc.lft.to/lastmile_qr_scan", "ios": "https://dc.lft.to/lastmile_qr_scan"}}, {"bike_id": "21d07f85dbc6ff93cc606fe25d8d389c", "fusion_lon": 0.0, "name": "21d07f85dbc6ff93cc606fe25d8d389c", "lat": 38.9159635, "is_disabled": 0, "is_reserved": 0, "lon": -77.04603433333334, "type": "electric_scooter", "fusion_lat": 0.0, "rental_uris": {"android": "https://dc.lft.to/lastmile_qr_scan", "ios": "https://dc.lft.to/lastmile_qr_scan"}}, {"bike_id": "a5b1d10069e9e13d9617b763e31924d1", "fusion_lon": 0.0, "name": "a5b1d10069e9e13d9617b763e31924d1", "lat": 38.855057333333335, "is_disabled": 0, "is_reserved": 0, "lon": -76.98411033333333, "type": "electric_bike", "fusion_lat": 0.0, "rental_uris": {"android": "https://dc.lft.to/lastmile_qr_scan", "ios": "https://dc.lft.to/lastmile_qr_scan"}}, {"bike_id": "47b7bbbc2bb0eeb4c7ba491d74a8dbe3", "fusion_lon": 0.0, "name": "47b7bbbc2bb0eeb4c7ba491d74a8dbe3", "lat": 38.93690983333333, "is_disabled": 0, "is_reserved": 0, "lon": -76.99060166666666, "type": "electric_bike", "fusion_lat": 0.0, "rental_uris": {"android": "https://dc.lft.to/lastmile_qr_scan", "ios": "https://dc.lft.to/lastmile_qr_scan"}}, {"bike_id": "ba57997927aad5e57d26dca0cf34b99d", "fusion_lon": 0.0, "name": "ba57997927aad5e57d26dca0cf34b99d", "lat": 38.88765466666667, "is_disabled": 0, "is_reserved": 0, "lon": -76.977485, "type": "electric_scooter", "fusion_lat": 0.0, "rental_uris": {"android": "https://dc.lft.to/lastmile_qr_scan", "ios": "https://dc.lft.to/lastmile_qr_scan"}}, {"bike_id": "c3aba1ad232246bef1c63c673a897f1f", "fusion_lon": 0.0, "name": "c3aba1ad232246bef1c63c673a897f1f", "lat": 38.9015265, "is_disabled": 0, "is_reserved": 0, "lon": -76.93062333333333, "type": "electric_scooter", "fusion_lat": 0.0, "rental_uris": {"android": "https://dc.lft.to/lastmile_qr_scan", "ios": "https://dc.lft.to/lastmile_qr_scan"}}, {"bike_id": "62cb5a1814814cc3577673b6ba604420", "fusion_lon": 0.0, "name": "62cb5a1814814cc3577673b6ba604420", "lat": 38.89775616666667, "is_disabled": 0, "is_reserved": 0, "lon": -77.0107375, "type": "electric_scooter", "fusion_lat": 0.0, "rental_uris": {"android": "https://dc.lft.to/lastmile_qr_scan", "ios": "https://dc.lft.to/lastmile_qr_scan"}},