{"data": {"bikes": [{"rental_uris": {"ios": "https://dc.lft.to/lastmile_qr_scan", "android": "https://dc.lft.to/lastmile_qr_scan"}, "fusion_lat": 0.0, "name": "3bc565620d16ee05e97c6dac4fa460ea", "bike_id": "3bc565620d16ee05e97c6dac4fa460ea", "is_disabled": 0, "type": "electric_scooter", "lat": 38.90797216666667, "lon": -77.03833183333333, "is_reserved": 0, "fusion_lon": 0.0}, {"rental_uris": {"ios": "https://dc.lft.to/lastmile_qr_scan", "android": "https://dc.lft.to/lastmile_qr_scan"}, "fusion_lat": 0.0, "name": "b7b7c3dc08de79e6041d3768aca5c38a", "bike_id": "b7b7c3dc08de79e6041d3768aca5c38a", "is_disabled": 0, "type": "electric_bike", "lat": 38.876697166666666, "lon": -77.01454966666667, "is_reserved": 0, "fusion_lon": 0.0}, {"rental_uris": {"ios": "https://dc.lft.to/lastmile_qr_scan", "android": "https://dc.lft.to/lastmile_qr_scan"}, "fusion_lat": 0.0, "name": "1c4be69aebc68a819e862bd821752409", "bike_id": "1c4be69aebc68a819e862bd821752409", "is_disabled": 0, "type": "electric_scooter", "lat": 38.8921635, "lon": -77.03158816666667, "is_reserved": 0, "fusion_lon": 0.0}, {"rental_uris": {"ios": "https://dc.lft.to/lastmile_qr_scan", "android": "https://dc.lft.to/lastmile_qr_scan"}, "fusion_lat": 0.0, "name": "85d0a95d3d7ea5bbc40c2586cb7a623c", "bike_id": "85d0a95d3d7ea5bbc40c2586cb7a623c", "is_disabled": 0, "type": "electric_scooter", "lat": 38.88813716666667, "lon": -76.9334405, "is_reserved": 0, "fusion_lon": 0.0}, {"rental_uris": {"ios": "https://dc.lft.to/lastmile_qr_scan", "android": "https://dc.lft.to/lastmile_qr_scan"}, "fusion_lat": 0.0, "name": "454aea4f2f27db2f5c63bff3fd114892", "bike_id": "454aea4f2f27db2f5c63bff3fd114892", "is_disabled": 0, "type": "electric_bike", "lat": 38.8398435, "lon": -77.00570833333333, "is_reserved": 0, "fusion_lon": 0.0}, {"rental_uris": {"ios": "https://dc.lft.to/lastmile_qr_scan", "android": "https://dc.lft.to/lastmile_qr_scan"}, "fusion_lat": 0.0, "name": "ef11fd3bd8b5aebddfb577abd1fb7c44", "bike_id": "ef11fd3bd8b5aebddfb577abd1fb7c44", "is_disabled": 0, "type": "electric_scooter", "lat": 38.92047616666667, "lon": -77.03405483333333, "is_reserved": 0, "fusion_lon": 0.0}, {"rental_uris": {"ios": "https://dc.lft.to/lastmile_qr_scan", "android": "https://dc.lft.to/lastmile_qr_scan"}, "fusion_lat": 0.0, "name": "9597c47a6cf9b82a2a109381e06a70b8", "bike_id": "9597c47a6cf9b82a2a109381e06a70b8", "is_disabled": 0, "type": "electric_scooter", "lat": 38.86685516666667, "lon": -76.9851915, "is_reserved": 0, "fusion_lon": 0.0}, {"rental_uris": {"ios": "https://dc.lft.to/lastmile_qr_scan", "android": "https://dc.lft.to/lastmile_qr_scan"}, "fusion_lat": 0.0, "name": "9c9138b3c366a1e10856c677bb88ceb0", "bike_id": "9c9138b3c366a1e10856c677bb88ceb0", "is_disabled": 0, "type": "electric_scooter", "lat": 38.9088655, "lon": -77.0320805, "is_reserved": 0, "fusion_lon": 0.0}, {"rental_uris": {"ios": "https://dc.lft.to/lastmile_qr_scan", "android": "https://dc.lft.to/lastmile_qr_scan"}, "fusion_lat": 0.0, "name": "936e7691fa148b73f44ab97a2df57740", "bike_id": "936e7691fa148b73f44ab97a2df57740", "is_disabled": 0, "type": "electric_scooter", "lat": 38.931772, "lon": -77.07062566666667, "is_reserved": 0, "fusion_lon": 0.0}, {"rental_uris": {"ios": "https://dc.lft.to/lastmile_qr_scan", "android": "https://dc.lft.to/lastmile_qr_scan"}, "fusion_lat": 0.0, "name": "e0e11910a7f8415b3a7ac4b5bb68e548", "bike_id": "e0e11910a7f8415b3a7ac4b5bb68e548", "is_disabled": 0, "type": "electric_scooter", "lat": 38.9180665, "lon": -77.02498366666667, "is_reserved": 0, "fusion_lon": 0.0}, {"rental_uris": {"ios": "https://dc.lft.to/lastmile_qr_scan", "android": "https://dc.lft.to/lastmile_qr_scan"}, "fusion_lat": 0.0, "name": "f22b891b227da584bdd75ebd32d30768", "bike_id": "f22b891b227da584bdd75ebd32d30768", "is_disabled": 0, "type": "electric_scooter", "lat": 38.90084983333333, "lon": -77.02715466666666, "is_reserved": 0, "fusion_lon": 0.0}, {"rental_uris": {"ios": "https://dc.lft.to/lastmile_qr_scan", "android": "https://dc.lft.to/lastmile_qr_scan"}, "fusion_lat": 0.0, "name": "5f76e34643eae77ce86fea36c7e79526", "bike_id": "5f76e34643eae77ce86fea36c7e79526", "is_disabled": 0, "type": "electric_scooter", "lat": 38.91691616666667, "lon": -77.02815016666666, "is_reserved": 0, "fusion_lon": 0.0}, {"rental_uris": {"ios": "https://dc.lft.to/lastmile_qr_scan", "android": "https://dc.lft.to/lastmile_qr_scan"}, "fusion_lat": 0.0, "name": "28faa8b4d19ad5c90436452a1efb938d", "bike_id": "28faa8b4d19ad5c90436452a1efb938d", "is_disabled": 0, "type": "electric_scooter", "lat": 38.9026365, "lon": -77.02736066666667, "is_reserved": 0, "fusion_lon": 0.0}, {"rental_uris": {"ios": "https://dc.lft.to/lastmile_qr_scan", "android": "https://dc.lft.to/lastmile_qr_scan"}, "fusion_lat": 0.0, "name": "b3fe51404a12492f292d150a726d8829", "bike_id": "b3fe51404a12492f292d150a726d8829", "is_disabled": 0, "type": "electric_scooter", "lat": 38.93337233333333, "lon": -77.04380433333333, "is_reserved": 0, "fusion_lon": 0.0}, {"rental_uris": {"ios": "https://dc.lft.to/lastmile_qr_scan", "android": "https://dc.lft.to/lastmile_qr_scan"}, "fusion_lat": 0.0, "name": "c66e9e72fc6f32a7b25815dad8689737", "bike_id": "c66e9e72fc6f32a7b25815dad8689737", "is_disabled": 0, "type": "electric_bike", "lat": 38.8521835, "lon": -77.12964866666667, "is_reserved": 0, "fusion_lon": 0.0}, {"rental_uris": {"ios": "https://dc.lft.to/lastmile_qr_scan", "android": "https://dc.lft.to/lastmile_qr_scan"}, "fusion_lat": 0.0, "name": "d7ae0382b66ce16a25ee89620421ae68", "bike_id": "d7ae0382b66ce16a25ee89620421ae68", "is_disabled": 0, "type": "electric_bike", "lat": 38.898105666666666, "lon": -76.99070516666667, "is_reserved": 0, "fusion_lon": 0.0}, {"rental_uris": {"ios": "https://dc.lft.to/lastmile_qr_scan", "android": "https://dc.lft.to/lastmile_qr_scan"}, "fusion_lat": 0.0, "name": "b47eea65d63d818894a479f5e59870ac", "bike_id": "b47eea65d63d818894a479f5e59870ac", "is_disabled": 0, "type": "electric_scooter", "lat": 38.909766, "lon": -77.03187516666667, "is_reserved": 0, "fusion_lon": 0.0}, {"rental_uris": {"ios": "https://dc.lft.to/lastmile_qr_scan", "android": "https://dc.lft.to/lastmile_qr_scan"}, "fusion_lat": 0.0, "name": "d97f8636baa563b22b1b570195bf7692", "bike_id": "d97f8636baa563b22b1b570195bf7692", "is_disabled": 0, "type": "electric_scooter", "lat": 38.898216, "lon": -77.02410283333333, "is_reserved": 0, "fusion_lon": 0.0}, {"rental_uris": {"ios": "https://dc.lft.to/lastmile_qr_scan", "android": "https://dc.lft.to/lastmile_qr_scan"}, "fusion_lat": 0.0, "name": "dd8300c4ab6ed05561925aa690177952", "bike_id": "dd8300c4ab6ed05561925aa690177952", "is_disabled": 0, "type": "electric_scooter", "lat": 38.917095833333335, "lon": -77.036727, "is_reserved": 0, "fusion_lon": 0.0}, {"rental_uris": {"ios": "https://dc.lft.to/lastmile_qr_scan", "android": "https://dc.lft.to/lastmile_qr_scan"}, "fusion_lat": 0.0, "name": "a8a58f044047a882695f956607d14321", "bike_id": "a8a58f044047a882695f956607d14321", "is_disabled": 0, "type": "electric_scooter", "lat": 38.89222266666667, "lon": -77.02622466666666, "is_reserved": 0, "fusion_lon": 0.0}, {"rental_uris": {"ios": "https://dc.lft.to/lastmile_qr_scan", "android": "https://dc.lft.to/lastmile_qr_scan"}, "fusion_lat": 0.0, "name": "b642e1f4c3c5d4483bcc4916af1a0017", "bike_id": "b642e1f4c3c5d4483bcc4916af1a0017", "is_disabled": 0, "type": "electric_bike", "lat": 38.95359116666667, "lon": -76.98087016666666, "is_reserved": 0, "fusion_lon": 0.0}, {"rental_uris": {"ios": "https://dc.lft.to/lastmile_qr_scan", "android": "https://dc.lft.to/lastmile_qr_scan"}, "fusion_lat": 0.0, "name": "370baccafd0f8a4540eca5686525fe7e", "bike_id": "370baccafd0f8a4540eca5686525fe7e", "is_disabled": 0, "type": "electric_bike", "lat": 38.865934333333335, "lon": -76.93232383333333, "is_reserved": 0, "fusion_lon": 0.0}, {"rental_uris": {"ios": "https://dc.lft.to/lastmile_qr_scan", "android": "https://dc.lft.to/lastmile_qr_scan"}, "fusion_lat": 0.0, "name": "779cc3001d104c85d5a9038cfa978ceb", "bike_id": "779cc3001d104c85d5a9038cfa978ceb", "is_disabled": 0, "type": "electric_scooter", "lat": 38.915655666666666, "lon": -77.01197583333334, "is_reserved": 0, "fusion_lon": 0.0}, {"rental_uris": {"ios": "https://dc.lft.to/lastmile_qr_scan", "android": "https://dc.lft.to/lastmile_qr_scan"}, "fusion_lat": 0.0, "name": "37aa1158f3092ba8542f6d99f789ba26", "bike_id": "37aa1158f3092ba8542f6d99f789ba26", "is_disabled": 0, "type": "electric_scooter", "lat": 38.87638, "lon": -77.01477216666666, "is_reserved": 0, "fusion_lon": 0.0}, {"rental_uris": {"ios": "https://dc.lft.to/lastmile_qr_scan", "android": "https://dc.lft.to/lastmile_qr_scan"}, "fusion_lat": 0.0, "name": "6aeb54c1c572979aa62b7fb60180f59b", "bike_id": "6aeb54c1c572979aa62b7fb60180f59b", "is_disabled": 0, "type": "electric_scooter", "lat": 38.910073833333335, "lon": -77.0401335, "is_reserved": 0, "fusion_lon": 0.0}, {"rental_uris": {"ios": "https://dc.lft.to/lastmile_qr_scan", "android": "https://dc.lft.to/lastmile_qr_scan"}, "fusion_lat": 0.0, "name": "33765b288093b5285f250e21763e3c19", "bike_id": "33765b288093b5285f250e21763e3c19", "is_disabled": 0, "type": "electric_bike", "lat": 38.80667166666667, "lon": -77.06069116666667, "is_reserved": 0, "fusion_lon": 0.0}, {"rental_uris": {"ios": "https://dc.lft.to/lastmile_qr_scan", "android": "https://dc.lft.to/lastmile_qr_scan"}, "fusion_lat": 0.0, "name": "e461bdd30c027aa30ec1b61c82af7d9e", "bike_id": "e461bdd30c027aa30ec1b61c82af7d9e", "is_disabled": 0, "type": "electric_scooter", "lat": 38.91706683333334, "lon": -77.03956116666667, "is_reserved": 0, "fusion_lon": 0.0}, {"rental_uris": {"ios": "https://dc.lft.to/lastmile_qr_scan", "android": "https://dc.lft.to/lastmile_qr_scan"}, "fusion_lat": 0.0, "name": "53f5daf32c32d11ab7d996c8a1627ea2", "bike_id": "53f5daf32c32d11ab7d996c8a1627ea2", "is_disabled": 0, "type": "electric_scooter", "lat": 38.865176166666664, "lon": -76.99033216666666, "is_reserved": 0, "fusion_lon": 0.0}, {"rental_uris": {"ios": "https://dc.lft.to/lastmile_qr_scan", "android": "https://dc.lft.to/lastmile_qr_scan"}, "fusion_lat": 0.0, "name": "4c486963fa40f00ff4260f99491f3f85", "bike_id": "4c486963fa40f00ff4260f99491f3f85", "is_disabled": 0, "type": "electric_scooter", "lat": 38.9243885, "lon": -77.0402815, "is_reserved": 0, "fusion_lon": 0.0}, {"rental_uris": {"ios": "https://dc.lft.to/lastmile_qr_scan", "android": "https://dc.lft.to/lastmile_qr_scan"}, "fusion_lat": 0.0, "name": "c67404eb97664be0de826de7bbb4ca25", "bike_id": "c67404eb97664be0de826de7bbb4ca25", "is_disabled": 0, "type": "electric_scooter", "lat": 38.908504666666666, "lon": -76.99801283333333, "is_reserved": 0, "fusion_lon": 0.0}, {"rental_uris": {"ios": "https://dc.lft.to/lastmile_qr_scan", "android": "https://dc.lft.to/lastmile_qr_scan"}, "fusion_lat": 0.0, "name": "a7ddd3cd63a568c53b6330cded049e9b", "bike_id": "a7ddd3cd63a568c53b6330cded049e9b", "is_disabled": 0, "type": "electric_scooter", "lat": 38.9244745, "lon": -77.0339115, "is_reserved": 0, "fusion_lon": 0.0}, {"rental_uris": {"ios": "https://dc.lft.to/lastmile_qr_scan", "android": "https://dc.lft.to/lastmile_qr_scan"}, "fusion_lat": 0.0, "name": "1a102f4d8af95e2843fbbcd72395d144", "bike_id": "1a102f4d8af95e2843fbbcd72395d144", "is_disabled": 0, "type": "electric_bike", "lat": 38.81325966666667, "lon": -77.0508745, "is_reserved": 0, "fusion_lon": 0.0}, {"rental_uris": {"ios": "https://dc.lft.to/lastmile_qr_scan", "android": "https://dc.lft.to/lastmile_qr_scan"}, "fusion_lat": 0.0, "name": "ae87e0c6ba7567c3cff5c17591ad2443", "bike_id": "ae87e0c6ba7567c3cff5c17591ad2443", "is_disabled": 0, "type": "electric_scooter", "lat": 38.887178, "lon": -77.01778416666667, "is_reserved": 0, "fusion_lon": 0.0}, {"rental_uris": {"ios": "https://dc.lft.to/lastmile_qr_scan", "android": "https://dc.lft.to/lastmile_qr_scan"}, "fusion_lat": 0.0, "name": "b808ea1e33003b9cab3a51570fcf2d4e", "bike_id": "b808ea1e33003b9cab3a51570fcf2d4e", "is_disabled": 0, "type": "electric_scooter", "lat": 38.890268, "lon": -76.951326, "is_reserved": 0, "fusion_lon": 0.0}, {"rental_uris": {"ios": "https://dc.lft.to/lastmile_qr_scan", "android": "https://dc.lft.to/lastmile_qr_scan"}, "fusion_lat": 0.0, "name": "62740ee2ccf4c16a08dfc7c703f7695e", "bike_id": "62740ee2ccf4c16a08dfc7c703f7695e", "is_disabled": 0, "type": "electric_scooter", "lat": 38.91813066666667, "lon": -77.03216616666667, "is_reserved": 0, "fusion_lon": 0.0}, {"rental_uris": {"ios": "https://dc.lft.to/lastmile_qr_scan", "android": "https://dc.lft.to/lastmile_qr_scan"}, "fusion_lat": 0.0, "name": "7d757e9a4a848ca60fc939419db15eb8", "bike_id": "7d757e9a4a848ca60fc939419db15eb8", "is_disabled": 0, "type": "electric_scooter", "lat": 38.93548583333333, "lon": -77.02222283333333, "is_reserved": 0, "fusion_lon": 0.0}, {"rental_uris": {"ios": "https://dc.lft.to/lastmile_qr_scan", "android": "https://dc.lft.to/lastmile_qr_scan"}, "fusion_lat": 0.0, "name": "7929ec545b551b833fb6825abc74896f", "bike_id": "7929ec545b551b833fb6825abc74896f", "is_disabled": 0, "type": "electric_bike", "lat": 38.84801433333333, "lon": -77.07519816666667, "is_reserved": 0, "fusion_lon": 0.0}, {"rental_uris": {"ios": "https://dc.lft.to/lastmile_qr_scan", "android": "https://dc.lft.to/lastmile_qr_scan"}, "fusion_lat": 0.0, "name": "82f6be032a1d1cc59c0f11858d1204ac", "bike_id": "82f6be032a1d1cc59c0f11858d1204ac", "is_disabled": 0, "type": "electric_scooter", "lat": 38.930753, "lon": -77.03726133333333, "is_reserved": 0, "fusion_lon": 0.0}, {"rental_uris": {"ios": "https://dc.lft.to/lastmile_qr_scan", "android": "https://dc.lft.to/lastmile_qr_scan"}, "fusion_lat": 0.0, "name": "5bd76a5fc58e85744771be63d7c5eee7", "bike_id": "5bd76a5fc58e85744771be63d7c5eee7", "is_disabled": 0, "type": "electric_bike", "lat": 39.07499816666667, "lon": -77.1190405, "is_reserved": 0, "fusion_lon": 0.0}, {"rental_uris": {"ios": "https://dc.lft.to/lastmile_qr_scan", "android": "https://dc.lft.to/lastmile_qr_scan"}, "fusion_lat": 0.0, "name": "3c5b9aed77c7b9c2839ed0e72eef8c75", "bike_id": "3c5b9aed77c7b9c2839ed0e72eef8c75", "is_disabled": 0, "type": "electric_scooter", "lat": 38.89999983333333, "lon": -77.0557255, "is_reserved": 0, "fusion_lon": 0.0}, {"rental_uris": {"ios": "https://dc.lft.to/lastmile_qr_scan", "android": "https://dc.lft.to/lastmile_qr_scan"}, "fusion_lat": 0.0, "name": "f969ec12e2cada104f1386e70a7280e0", "bike_id": "f969ec12e2cada104f1386e70a7280e0", "is_disabled": 0, "type": "electric_scooter", "lat": 38.9256315, "lon": -77.02697483333333, "is_reserved": 0, "fusion_lon": 0.0}, {"rental_uris": {"ios": "https://dc.lft.to/lastmile_qr_scan", "android": "https://dc.lft.to/lastmile_qr_scan"}, "fusion_lat": 0.0, "name": "e60c837f6bc8db0381089a5b77e44924", "bike_id": "e60c837f6bc8db0381089a5b77e44924", "is_disabled": 0, "type": "electric_scooter", "lat": 38.918435, "lon": -77.03212, "is_reserved": 0, "fusion_lon": 0.0}, {"rental_uris": {"ios": "https://dc.lft.to/lastmile_qr_scan", "android": "https://dc.lft.to/lastmile_qr_scan"}, "fusion_lat": 0.0, "name": "ba2606d96b5f1663dd402094f6f33a46", "bike_id": "ba2606d96b5f1663dd402094f6f33a46", "is_disabled": 0, "type": "electric_scooter", "lat": 38.8766305, "lon": -77.00464866666667, "is_reserved": 0, "fusion_lon": 0.0}, {"rental_uris": {"ios": "https://dc.lft.to/lastmile_qr_scan", "android": "https://dc.lft.to/lastmile_qr_scan"}, "fusion_lat": 0.0, "name": "9140315500892bc2453be55a7e05e2c0", "bike_id": "9140315500892bc2453be55a7e05e2c0", "is_disabled": 0, "type": "electric_scooter", "lat": 38.926025833333334, "lon": -77.03666216666667, "is_reserved": 0, "fusion_lon": 0.0}, {"rental_uris": {"ios": "https://dc.lft.to/lastmile_qr_scan", "android": "https://dc.lft.to/lastmile_qr_scan"}, "fusion_lat": 0.0, "name": "ce9abd7edd86f8bb5d7e4d6b737baec0", "bike_id": "ce9abd7edd86f8bb5d7e4d6b737baec0", "is_disabled": 0, "type": "electric_scooter", "lat": 38.91776466666666, "lon": -77.0233925, "is_reserved": 0, "fusion_lon": 0.0}, {"rental_uris": {"ios": "https://dc.lft.to/lastmile_qr_scan", "android": "https://dc.lft.to/lastmile_qr_scan"}, "fusion_lat": 0.0, "name": "5a6fcc6fee7d189b3a2cdce53aea4835", "bike_id": "5a6fcc6fee7d189b3a2cdce53aea4835", "is_disabled": 0, "type": "electric_scooter", "lat": 38.9188415, "lon": -77.0219075, "is_reserved": 0, "fusion_lon": 0.0}, {"rental_uris": {"ios": "https://dc.lft.to/lastmile_qr_scan", "android": "https://dc.lft.to/lastmile_qr_scan"}, "fusion_lat": 0.0, "name": "451c16484d1d3bf2f835b33fc58de2ea", "bike_id": "451c16484d1d3bf2f835b33fc58de2ea", "is_disabled": 0, "type": "electric_bike", "lat": 38.806788166666664, "lon": -77.08121166666666, "is_reserved": 0, "fusion_lon": 0.0}, {"rental_uris": {"ios": "https://dc.lft.to/lastmile_qr_scan", "android": "https://dc.lft.to/lastmile_qr_scan"}, "fusion_lat": 0.0, "name": "73f759640bf6a9200bfca99ac5285337", "bike_id": "73f759640bf6a9200bfca99ac5285337", "is_disabled": 0, "type": "electric_scooter", "lat": 38.911131166666664, "lon": -77.04355216666667, "is_reserved": 0, "fusion_lon": 0.0}, {"rental_uris": {"ios": "https://dc.lft.to/lastmile_qr_scan", "android": "https://dc.lft.to/lastmile_qr_scan"}, "fusion_lat": 0.0, "name": "66d1e4f1fd19dfc1e1a85f0a47140861", "bike_id": "66d1e4f1fd19dfc1e1a85f0a47140861", "is_disabled": 0, "type": "electric_scooter", "lat": 38.92438583333333, "lon": -77.0400795, "is_reserved": 0, "fusion_lon": 0.0}, {"rental_uris": {"ios": "https://dc.lft.to/lastmile_qr_scan", "android": "https://dc.lft.to/lastmile_qr_scan"}, "fusion_lat": 0.0, "name": "a3a343f8d714a3bb642c97d526866304", "bike_id": "a3a343f8d714a3bb642c97d526866304", "is_disabled": 0, "type": "electric_scooter", "lat": 38.9009995, "lon": -76.9801245, "is_reserved": 0, "fusion_lon": 0.0}, {"rental_uris": {"ios": "https://dc.lft.to/lastmile_qr_scan", "android": "https://dc.lft.to/lastmile_qr_scan"}, "fusion_lat": 0.0, "name": "17a85eadf738d4a0e96c194683da0c0f", "bike_id": "17a85eadf738d4a0e96c194683da0c0f", "is_disabled": 0, "type": "electric_scooter", "lat": 38.89223716666667, "lon": -77.04897283333334, "is_reserved": 0, "fusion_lon": 0.0}, {"rental_uris": {"ios": "https://dc.lft.to/lastmile_qr_scan", "android": "https://dc.lft.to/lastmile_qr_scan"}, "fusion_lat": 0.0, "name": "6522bdda6aebc25f414f3ac2b15091e6", "bike_id": "6522bdda6aebc25f414f3ac2b15091e6", "is_disabled": 0, "type": "electric_scooter", "lat": 38.943856833333335, "lon": -77.07705233333333, "is_reserved": 0, "fusion_lon": 0.0}, {"rental_uris": {"ios": "https://dc.lft.to/lastmile_qr_scan", "android": "https://dc.lft.to/lastmile_qr_scan"}, "fusion_lat": 0.0, "name": "127ca7b401393daa49228d68851245f4", "bike_id": "127ca7b401393daa49228d68851245f4", "is_disabled": 0, "type": "electric_scooter", "lat": 38.92145466666667, "lon": -77.03504133333334, "is_reserved": 0, "fusion_lon": 0.0}, {"rental_uris": {"ios": "https://dc.lft.to/lastmile_qr_scan", "android": "https://dc.lft.to/lastmile_qr_scan"}, "fusion_lat": 0.0, "name": "a9c28a1ec260ad4476c02b99799a7eeb", "bike_id": "a9c28a1ec260ad4476c02b99799a7eeb", "is_disabled": 0, "type": "electric_bike", "lat": 38.9226415, "lon": -76.9815855, "is_reserved": 0, "fusion_lon": 0.0}, {"rental_uris": {"ios": "https://dc.lft.to/lastmile_qr_scan", "android": "https://dc.lft.to/lastmile_qr_scan"}, "fusion_lat": 0.0, "name": "1b3ccaabb267380fe1230d8a7891fe85", "bike_id": "1b3ccaabb267380fe1230d8a7891fe85", "is_disabled": 0, "type": "electric_bike", "lat": 39.02928566666667, "lon": -77.04931333333333, "is_reserved": 0, "fusion_lon": 0.0}, {"rental_uris": {"ios": "https://dc.lft.to/lastmile_qr_scan", "android": "https://dc.lft.to/lastmile_qr_scan"}, "fusion_lat": 0.0, "name": "98692e18c3865fde10a63551e4265ff7", "bike_id": "98692e18c3865fde10a63551e4265ff7", "is_disabled": 0, "type": "electric_scooter", "lat": 38.9213165, "lon": -77.044217, "is_reserved": 0, "fusion_lon": 0.0}, {"rental_uris": {"ios": "https://dc.lft.to/lastmile_qr_scan", "android": "https://dc.lft.to/lastmile_qr_scan"}, "fusion_lat": 0.0, "name": "28862b2718f842ed2ca01ce1fa0ebb21", "bike_id": "28862b2718f842ed2ca01ce1fa0ebb21", "is_disabled": 0, "type": "electric_scooter", "lat": 38.896733833333336, "lon": -77.0051935, "is_reserved": 0, "fusion_lon": 0.0}, {"rental_uris": {"ios": "https://dc.lft.to/lastmile_qr_scan", "android": "https://dc.lft.to/lastmile_qr_scan"}, "fusion_lat": 0.0, "name": "0a065d3e85d9b3c97626db7801b0f1af", "bike_id": "0a065d3e85d9b3c97626db7801b0f1af", "is_disabled": 0, "type": "electric_scooter", "lat": 38.9028245, "lon": -77.02790516666667, "is_reserved": 0, "fusion_lon": 0.0}, {"rental_uris": {"ios": "https://dc.lft.to/lastmile_qr_scan", "android": "https://dc.lft.to/lastmile_qr_scan"}, "fusion_lat": 0.0, "name": "1f7a5780955c57f7d9e0e56dac0d411d", "bike_id": "1f7a5780955c57f7d9e0e56dac0d411d", "is_disabled": 0, "type": "electric_scooter", "lat": 38.902564, "lon": -77.03888033333334, "is_reserved": 0, "fusion_lon": 0.0}, {"rental_uris": {"ios": "https://dc.lft.to/lastmile_qr_scan", "android": "https://dc.lft.to/lastmile_qr_scan"}, "fusion_lat": 0.0, "name": "29f94d81e1334df9b1c5b7c6916daf32", "bike_id": "29f94d81e1334df9b1c5b7c6916daf32", "is_disabled": 0, "type": "electric_scooter", "lat": 38.90591033333333, "lon": -77.05130683333333, "is_reserved": 0, "fusion_lon": 0.0}, {"rental_uris": {"ios": "https://dc.lft.to/lastmile_qr_scan", "android": "https://dc.lft.to/lastmile_qr_scan"}, "fusion_lat": 0.0, "name": "f2a311de0810694816a1cfc345499e45", "bike_id": "f2a311de0810694816a1cfc345499e45", "is_disabled": 0, "type": "electric_scooter", "lat": 38.95635716666666, "lon": -77.0328845, "is_reserved": 0, "fusion_lon": 0.0}, {"rental_uris": {"ios": "https://dc.lft.to/lastmile_qr_scan", "android": "https://dc.lft.to/lastmile_qr_scan"}, "fusion_lat": 0.0, "name": "f2ed3b1ee3925044e3a4a421bf327f6c", "bike_id": "f2ed3b1ee3925044e3a4a421bf327f6c", "is_disabled": 0, "type": "electric_scooter", "lat": 38.92229483333333, "lon": -77.02978733333333, "is_reserved": 0, "fusion_lon": 0.0}, {"rental_uris": {"ios": "https://dc.lft.to/lastmile_qr_scan", "android": "https://dc.lft.to/lastmile_qr_scan"}, "fusion_lat": 0.0, "name": "1752a9d3cf648915078d0e7de600f4c8", "bike_id": "1752a9d3cf648915078d0e7de600f4c8", "is_disabled": 0, "type": "electric_scooter", "lat": 38.923671166666665, "lon": -77.03165883333334, "is_reserved": 0, "fusion_lon": 0.0}, {"rental_uris": {"ios": "https://dc.lft.to/lastmile_qr_scan", "android": "https://dc.lft.to/lastmile_qr_scan"}, "fusion_lat": 0.0, "name": "f943c10bcfe1179f1f7fd9852f105e64", "bike_id": "f943c10bcfe1179f1f7fd9852f105e64", "is_disabled": 0, "type": "electric_scooter", "lat": 38.927954666666665, "lon": -77.04162916666667, "is_reserved": 0, "fusion_lon": 0.0}, {"rental_uris": {"ios": "https://dc.lft.to/lastmile_qr_scan", "android": "https://dc.lft.to/lastmile_qr_scan"}, "fusion_lat": 0.0, "name": "b592c9f06906a0a834dbebc5f90b37f9", "bike_id": "b592c9f06906a0a834dbebc5f90b37f9", "is_disabled": 0, "type": "electric_bike", "lat": 39.06920616666667, "lon": -77.11493233333333, "is_reserved": 0, "fusion_lon": 0.0}, {"rental_uris": {"ios": "https://dc.lft.to/lastmile_qr_scan", "android": "https://dc.lft.to/lastmile_qr_scan"}, "fusion_lat": 0.0, "name": "d841d0ba7d6273d80dace5b8886bf64b", "bike_id": "d841d0ba7d6273d80dace5b8886bf64b", "is_disabled": 0, "type": "electric_scooter", "lat": 38.9319195, "lon": -77.028362, "is_reserved": 0, "fusion_lon": 0.0}, {"rental_uris": {"ios": "https://dc.lft.to/lastmile_qr_scan", "android": "https://dc.lft.to/lastmile_qr_scan"}, "fusion_lat": 0.0, "name": "9103c308deb3f96f0a61cde39682527b", "bike_id": "9103c308deb3f96f0a61cde39682527b", "is_disabled": 0, "type": "electric_scooter", "lat": 38.921684666666664, "lon": -77.04014083333334, "is_reserved": 0, "fusion_lon": 0.0}, {"rental_uris": {"ios": "https://dc.lft.to/lastmile_qr_scan", "android": "https://dc.lft.to/lastmile_qr_scan"}, "fusion_lat": 0.0, "name": "6052bedd833111cc9656e656f48cb308", "bike_id": "6052bedd833111cc9656e656f48cb308", "is_disabled": 0, "type": "electric_scooter", "lat": 38.912169166666665, "lon": -77.04152033333334, "is_reserved": 0, "fusion_lon": 0.0}, {"rental_uris": {"ios": "https://dc.lft.to/lastmile_qr_scan", "android": "https://dc.lft.to/lastmile_qr_scan"}, "fusion_lat": 0.0, "name": "09c4a63dc4d55c4cc3cdea9d162c41d0", "bike_id": "09c4a63dc4d55c4cc3cdea9d162c41d0", "is_disabled": 0, "type": "electric_bike", "lat": 38.933587833333334, "lon": -77.0996185, "is_reserved": 0, "fusion_lon": 0.0}, {"rental_uris": {"ios": "https://dc.lft.to/lastmile_qr_scan", "android": "https://dc.lft.to/lastmile_qr_scan"}, "fusion_lat": 0.0, "name": "a6dff4807fe8af015d5d15437e392ae5", "bike_id": "a6dff4807fe8af015d5d15437e392ae5", "is_disabled": 0, "type": "electric_scooter", "lat": 38.91491666666667, "lon": -77.03211016666667, "is_reserved": 0, "fusion_lon": 0.0}, {"rental_uris": {"ios": "https://dc.lft.to/lastmile_qr_scan", "android": "https://dc.lft.to/lastmile_qr_scan"}, "fusion_lat": 0.0, "name": "2b0eef492270997add55f99b616263d8", "bike_id": "2b0eef492270997add55f99b616263d8", "is_disabled": 0, "type": "electric_scooter", "lat": 38.91565666666666, "lon": -77.03150866666667, "is_reserved": 0, "fusion_lon": 0.0}, {"rental_uris": {"ios": "https://dc.lft.to/lastmile_qr_scan", "android": "https://dc.lft.to/lastmile_qr_scan"}, "fusion_lat": 0.0, "name": "7fb762be010efbbdcf7ba427c8b848ea", "bike_id": "7fb762be010efbbdcf7ba427c8b848ea", "is_disabled": 0, "type": "electric_scooter", "lat": 38.90804983333334, "lon": -77.043247, "is_reserved": 0, "fusion_lon": 0.0}, {"rental_uris": {"ios": "https://dc.lft.to/lastmile_qr_scan", "android": "https://dc.lft.to/lastmile_qr_scan"}, "fusion_lat": 0.0, "name": "94c5ac7cfb2f4e8a27fd965117e44d29", "bike_id": "94c5ac7cfb2f4e8a27fd965117e44d29", "is_disabled": 0, "type": "electric_bike", "lat": 38.9492305, "lon": -77.00797416666667, "is_reserved": 0, "fusion_lon": 0.0}, {"rental_uris": {"ios": "https://dc.lft.to/lastmile_qr_scan", "android": "https://dc.lft.to/lastmile_qr_scan"}, "fusion_lat": 0.0, "name": "e8afb2d19ced52c0e6c2b9c67385ed31", "bike_id": "e8afb2d19ced52c0e6c2b9c67385ed31", "is_disabled": 0, "type": "electric_scooter", "lat": 38.915707166666664, "lon": -77.03206816666666, "is_reserved": 0, "fusion_lon": 0.0}, {"rental_uris": {"ios": "https://dc.lft.to/lastmile_qr_scan", "android": "https://dc.lft.to/lastmile_qr_scan"}, "fusion_lat": 0.0, "name": "74d6132bc5fd005f54a52132cbdf0175", "bike_id": "74d6132bc5fd005f54a52132cbdf0175", "is_disabled": 0, "type": "electric_scooter", "lat": 38.91266483333333, "lon": -77.03805366666667, "is_reserved": 0, "fusion_lon": 0.0}, {"rental_uris": {"ios": "https://dc.lft.to/lastmile_qr_scan", "android": "https://dc.lft.to/lastmile_qr_scan"}, "fusion_lat": 0.0, "name": "c5400fee610f713eaf0d4f2e7e5a98d8", "bike_id": "c5400fee610f713eaf0d4f2e7e5a98d8", "is_disabled": 0, "type": "electric_scooter", "lat": 38.91251783333333, "lon": -77.022278, "is_reserved": 0, "fusion_lon": 0.0}, {"rental_uris": {"ios": "https://dc.lft.to/lastmile_qr_scan", "android": "https://dc.lft.to/lastmile_qr_scan"}, "fusion_lat": 0.0, "name": "be11f7fd51b05163fd8b9a6cb8826ab2", "bike_id": "be11f7fd51b05163fd8b9a6cb8826ab2", "is_disabled": 0, "type": "electric_scooter", "lat": 38.907411, "lon": -76.98341266666667, "is_reserved": 0, "fusion_lon": 0.0}, {"rental_uris": {"ios": "https://dc.lft.to/lastmile_qr_scan", "android": "https://dc.lft.to/lastmile_qr_scan"}, "fusion_lat": 0.0, "name": "1a4f630b972024f9d26bc341155cb10d", "bike_id": "1a4f630b972024f9d26bc341155cb10d", "is_disabled": 0, "type": "electric_bike", "lat": 38.87066333333333, "lon": -76.97833816666666, "is_reserved": 0, "fusion_lon": 0.0}, {"rental_uris": {"ios": "https://dc.lft.to/lastmile_qr_scan", "android": "https://dc.lft.to/lastmile_qr_scan"}, "fusion_lat": 0.0, "name": "1970a2019332b3639f2077d0e241f49d", "bike_id": "1970a2019332b3639f2077d0e241f49d", "is_disabled": 0, "type": "electric_scooter", "lat": 38.903782166666666, "lon": -77.03199966666666, "is_reserved": 0, "fusion_lon": 0.0}, {"rental_uris": {"ios": "https://dc.lft.to/lastmile_qr_scan", "android": "https://dc.lft.to/lastmile_qr_scan"}, "fusion_lat": 0.0, "name": "644f84eb783352816a1885fe1e64b036", "bike_id": "644f84eb783352816a1885fe1e64b036", "is_disabled": 0, "type": "electric_scooter", "lat": 38.910686166666665, "lon": -77.04394066666667, "is_reserved": 0, "fusion_lon": 0.0}, {"rental_uris": {"ios": "https://dc.lft.to/lastmile_qr_scan", "android": "https://dc.lft.to/lastmile_qr_scan"}, "fusion_lat": 0.0, "name": "d325fe4b249b0c61f61cdf0a84818bc4", "bike_id": "d325fe4b249b0c61f61cdf0a84818bc4", "is_disabled": 0, "type": "electric_bike", "lat": 38.95477366666667, "lon": -76.99018083333333, "is_reserved": 0, "fusion_lon": 0.0}, {"rental_uris": {"ios": "https://dc.lft.to/lastmile_qr_scan", "android": "https://dc.lft.to/lastmile_qr_scan"}, "fusion_lat": 0.0, "name": "27e9fe1eda908261e3de8a2d4684e24d", "bike_id": "27e9fe1eda908261e3de8a2d4684e24d", "is_disabled": 0, "type": "electric_bike", "lat": 38.893983666666664, "lon": -76.94800383333333, "is_reserved": 0, "fusion_lon": 0.0}, {"rental_uris": {"ios": "https://dc.lft.to/lastmile_qr_scan", "android": "https://dc.lft.to/lastmile_qr_scan"}, "fusion_lat": 0.0, "name": "3f20fc1bc0f5342e348a3b840918f925", "bike_id": "3f20fc1bc0f5342e348a3b840918f925", "is_disabled": 0, "type": "electric_bike", "lat": 38.9451065, "lon": -77.0067445, "is_reserved": 0, "fusion_lon": 0.0}, {"rental_uris": {"ios": "https://dc.lft.to/lastmile_qr_scan", "android": "https://dc.lft.to/lastmile_qr_scan"}, "fusion_lat": 0.0, "name": "5525dc6fe88bfe652af88871381188bc", "bike_id": "5525dc6fe88bfe652af88871381188bc", "is_disabled": 0, "type": "electric_scooter", "lat": 38.871790833333336, "lon": -77.00610233333333, "is_reserved": 0, "fusion_lon": 0.0}, {"rental_uris": {"ios": "https://dc.lft.to/lastmile_qr_scan", "android": "https://dc.lft.to/lastmile_qr_scan"}, "fusion_lat": 0.0, "name": "29ea2426278ae0824c0ca4ee261875f4", "bike_id": "29ea2426278ae0824c0ca4ee261875f4", "is_disabled": 0, "type": "electric_scooter", "lat": 38.8675065, "lon": -77.03857133333334, "is_reserved": 0, "fusion_lon": 0.0}, {"rental_uris": {"ios": "https://dc.lft.to/lastmile_qr_scan", "android": "https://dc.lft.to/lastmile_qr_scan"}, "fusion_lat": 0.0, "name": "d72c0a561703fa2675d4ffb4c13a7fb9", "bike_id": "d72c0a561703fa2675d4ffb4c13a7fb9", "is_disabled": 0, "type": "electric_scooter", "lat": 38.91704633333333, "lon": -77.03217166666667, "is_reserved": 0, "fusion_lon": 0.0}, {"rental_uris": {"ios": "https://dc.lft.to/lastmile_qr_scan", "android": "https://dc.lft.to/lastmile_qr_scan"}, "fusion_lat": 0.0, "name": "1661225433861dbd87e2a85d3cdcba4c", "bike_id": "1661225433861dbd87e2a85d3cdcba4c", "is_disabled": 0, "type": "electric_scooter", "lat": 38.91255433333333, "lon": -77.0444615, "is_reserved": 0, "fusion_lon": 0.0}, {"rental_uris": {"ios": "https://dc.lft.to/lastmile_qr_scan", "android": "https://dc.lft.to/lastmile_qr_scan"}, "fusion_lat": 0.0, "name": "6307b65cf799835697365901f21a8fc1", "bike_id": "6307b65cf799835697365901f21a8fc1", "is_disabled": 0, "type": "electric_bike", "lat": 38.88246266666667, "lon": -76.962624, "is_reserved": 0, "fusion_lon": 0.0}, {"rental_uris": {"ios": "https://dc.lft.to/lastmile_qr_scan", "android": "https://dc.lft.to/lastmile_qr_scan"}, "fusion_lat": 0.0, "name": "735f5f41c498b9e9cad3da3ad20e7b20", "bike_id": "735f5f41c498b9e9cad3da3ad20e7b20", "is_disabled": 0, "type": "electric_scooter", "lat": 38.90398533333333, "lon": -77.0219335, "is_reserved": 0, "fusion_lon": 0.0}, {"rental_uris": {"ios": "https://dc.lft.to/lastmile_qr_scan", "android": "https://dc.lft.to/lastmile_qr_scan"}, "fusion_lat": 0.0, "name": "3583f72e529802f8f59d9eaefbb7af92", "bike_id": "3583f72e529802f8f59d9eaefbb7af92", "is_disabled": 0, "type": "electric_scooter", "lat": 38.907267166666664, "lon": -77.03428866666667, "is_reserved": 0, "fusion_lon": 0.0}, {"rental_uris": {"ios": "https://dc.lft.to/lastmile_qr_scan", "android": "https://dc.lft.to/lastmile_qr_scan"}, "fusion_lat": 0.0, "name": "8e4c7aea1720fc4474772519747c3e78", "bike_id": "8e4c7aea1720fc4474772519747c3e78", "is_disabled": 0, "type": "electric_scooter", "lat": 38.916211833333335, "lon": -77.02315116666666, "is_reserved": 0, "fusion_lon": 0.0}, {"rental_uris": {"ios": "https://dc.lft.to/lastmile_qr_scan", "android": "https://dc.lft.to/lastmile_qr_scan"}, "fusion_lat": 0.0, "name": "73c197ac6462abfdb1f9a377c7b266a6", "bike_id": "73c197ac6462abfdb1f9a377c7b266a6", "is_disabled": 0, "type": "electric_scooter", "lat": 38.916243, "lon": -77.023057, "is_reserved": 0, "fusion_lon": 0.0}, {"rental_uris": {"ios": "https://dc.lft.to/lastmile_qr_scan", "android": "https://dc.lft.to/lastmile_qr_scan"}, "fusion_lat": 0.0, "name": "f5defe38971ecae9414932db09d651ec", "bike_id": "f5defe38971ecae9414932db09d651ec", "is_disabled": 0, "type": "electric_scooter", "lat": 38.8991165, "lon": -77.03379116666666, "is_reserved": 0, "fusion_lon": 0.0}, {"rental_uris": {"ios": "https://dc.lft.to/lastmile_qr_scan", "android": "https://dc.lft.to/lastmile_qr_scan"}, "fusion_lat": 0.0, "name": "7b08b0e884131c90ea29693fe6e1723c", "bike_id": "7b08b0e884131c90ea29693fe6e1723c", "is_disabled": 0, "type": "electric_scooter", "lat": 38.867206833333334, "lon": -76.9869445, "is_reserved": 0, "fusion_lon": 0.0}, {"rental_uris": {"ios": "https://dc.lft.to/lastmile_qr_scan", "android": "https://dc.lft.to/lastmile_qr_scan"}, "fusion_lat": 0.0, "name": "9f7bf5c34e55b38b5d5d293061fc605c", "bike_id": "9f7bf5c34e55b38b5d5d293061fc605c", "is_disabled": 0, "type": "electric_scooter", "lat": 38.909799666666665, "lon": -77.03178666666666, "is_reserved": 0, "fusion_lon": 0.0}, {"rental_uris": {"ios": "https://dc.lft.to/lastmile_qr_scan", "android": "https://dc.lft.to/lastmile_qr_scan"}, "fusion_lat": 0.0, "name": "7337c751edef7b14daa4123d7261ad8b", "bike_id": "7337c751edef7b14daa4123d7261ad8b", "is_disabled": 0, "type": "electric_scooter", "lat": 38.866643833333335, "lon": -77.0103965, "is_reserved": 0, "fusion_lon": 0.0}, {"rental_uris": {"ios": "https://dc.lft.to/lastmile_qr_scan", "android": "https://dc.lft.to/lastmile_qr_scan"}, "fusion_lat": 0.0, "name": "4fea7c6272d84deb57e4b42b725cf12d", "bike_id": "4fea7c6272d84deb57e4b42b725cf12d", "is_disabled": 0, "type": "electric_scooter", "lat": 38.89553083333333, "lon": -77.04673583333333, "is_reserved": 0, "fusion_lon": 0.0}, {"rental_uris": {"ios": "https://dc.lft.to/lastmile_qr_scan", "android": "https://dc.lft.to/lastmile_qr_scan"}, "fusion_lat": 0.0, "name": "362c2794a4dc0bd1f41147622530d4ba", "bike_id": "362c2794a4dc0bd1f41147622530d4ba", "is_disabled": 0, "type": "electric_scooter", "lat": 38.91878916666667, "lon": -77.0244265, "is_reserved": 0, "fusion_lon": 0.0}, {"rental_uris": {"ios": "https://dc.lft.to/lastmile_qr_scan", "android": "https://dc.lft.to/lastmile_qr_scan"}, "fusion_lat": 0.0, "name": "951681b6bf49096cc1826ad9dc295785", "bike_id": "951681b6bf49096cc1826ad9dc295785", "is_disabled": 0, "type": "electric_scooter", "lat": 38.93064366666667, "lon": -77.04029633333333, "is_reserved": 0, "fusion_lon": 0.0}, {"rental_uris": {"ios": "https://dc.lft.to/lastmile_qr_scan", "android": "https://dc.lft.to/lastmile_qr_scan"}, "fusion_lat": 0.0, "name": "67e7fab28c23f7647e59be8b3a071dd4", "bike_id": "67e7fab28c23f7647e59be8b3a071dd4", "is_disabled": 0, "type": "electric_scooter", "lat": 38.906208166666666, "lon": -77.00598966666666, "is_reserved": 0, "fusion_lon": 0.0}, {"rental_uris": {"ios": "https://dc.lft.to/lastmile_qr_scan", "android": "https://dc.lft.to/lastmile_qr_scan"}, "fusion_lat": 0.0, "name": "e70f2a5d5e009ef181d7b9c3bbd04893", "bike_id": "e70f2a5d5e009ef181d7b9c3bbd04893", "is_disabled": 0, "type": "electric_scooter", "lat": 38.93772533333333, "lon": -77.03262283333333, "is_reserved": 0, "fusion_lon": 0.0}, {"rental_uris": {"ios": "https://dc.lft.to/lastmile_qr_scan", "android": "https://dc.lft.to/lastmile_qr_scan"}, "fusion_lat": 0.0, "name": "ce590417d308297fff183beab0779164", "bike_id": "ce590417d308297fff183beab0779164", "is_disabled": 0, "type": "electric_scooter", "lat": 38.96162233333333, "lon": -77.0278655, "is_reserved": 0, "fusion_lon": 0.0}, {"rental_uris": {"ios": "https://dc.lft.to/lastmile_qr_scan", "android": "https://dc.lft.to/lastmile_qr_scan"}, "fusion_lat": 0.0, "name": "c9b3cfcb2525735a167bacf0b4e17a3e", "bike_id": "c9b3cfcb2525735a167bacf0b4e17a3e", "is_disabled": 0, "type": "electric_scooter", "lat": 38.90051616666667, "lon": -77.0074915, "is_reserved": 0, "fusion_lon": 0.0}, {"rental_uris": {"ios": "https://dc.lft.to/lastmile_qr_scan", "android": "https://dc.lft.to/lastmile_qr_scan"}, "fusion_lat": 0.0, "name": "b59b2e719c9bc04c2fba1928c484bf9a", "bike_id": "b59b2e719c9bc04c2fba1928c484bf9a", "is_disabled": 0, "type": "electric_scooter", "lat": 38.93713233333333, "lon": -77.03632383333333, "is_reserved": 0, "fusion_lon": 0.0}, {"rental_uris": {"ios": "https://dc.lft.to/lastmile_qr_scan", "android": "https://dc.lft.to/lastmile_qr_scan"}, "fusion_lat": 0.0, "name": "9cdff2e87f17be7f4d64ad6435bb67c9", "bike_id": "9cdff2e87f17be7f4d64ad6435bb67c9", "is_disabled": 0, "type": "electric_scooter", "lat": 38.935066166666665, "lon": -77.032663, "is_reserved": 0, "fusion_lon": 0.0}, {"rental_uris": {"ios": "https://dc.lft.to/lastmile_qr_scan", "android": "https://dc.lft.to/lastmile_qr_scan"}, "fusion_lat": 0.0, "name": "43e46a95294c4c8c748d63ae304e9b9c", "bike_id": "43e46a95294c4c8c748d63ae304e9b9c", "is_disabled": 0, "type": "electric_scooter", "lat": 38.918205666666665, "lon": -77.03167433333333, "is_reserved": 0, "fusion_lon": 0.0}, {"rental_uris": {"ios": "https://dc.lft.to/lastmile_qr_scan", "android": "https://dc.lft.to/lastmile_qr_scan"}, "fusion_lat": 0.0, "name": "f3962d30ef658556fc09948fa7e32043", "bike_id": "f3962d30ef658556fc09948fa7e32043", "is_disabled": 0, "type": "electric_scooter", "lat": 38.90031616666667, "lon": -76.99379233333333, "is_reserved": 0, "fusion_lon": 0.0}, {"rental_uris": {"ios": "https://dc.lft.to/lastmile_qr_scan", "android": "https://dc.lft.to/lastmile_qr_scan"}, "fusion_lat": 0.0, "name": "8508c346630785a215b243b9de4df389", "bike_id": "8508c346630785a215b243b9de4df389", "is_disabled": 0, "type": "electric_scooter", "lat": 38.892337, "lon": -77.028014, "is_reserved": 0, "fusion_lon": 0.0}, {"rental_uris": {"ios": "https://dc.lft.to/lastmile_qr_scan", "android": "https://dc.lft.to/lastmile_qr_scan"}, "fusion_lat": 0.0, "name": "5db2bec48cdf39e36efb518affc0a10f", "bike_id": "5db2bec48cdf39e36efb518affc0a10f", "is_disabled": 0, "type": "electric_scooter", "lat": 38.844309833333334, "lon": -76.99705183333333, "is_reserved": 0, "fusion_lon": 0.0}, {"rental_uris": {"ios": "https://dc.lft.to/lastmile_qr_scan", "android": "https://dc.lft.to/lastmile_qr_scan"}, "fusion_lat": 0.0, "name": "ecf754d001c2f343642214ef4fbae5d8", "bike_id": "ecf754d001c2f343642214ef4fbae5d8", "is_disabled": 0, "type": "electric_scooter", "lat": 38.89351633333333, "lon": -77.04142433333334, "is_reserved": 0, "fusion_lon": 0.0}, {"rental_uris": {"ios": "https://dc.lft.to/lastmile_qr_scan", "android": "https://dc.lft.to/lastmile_qr_scan"}, "fusion_lat": 0.0, "name": "8f9b7636d903ca9886fcedb26a67f395", "bike_id": "8f9b7636d903ca9886fcedb26a67f395", "is_disabled": 0, "type": "electric_scooter", "lat": 38.9055785, "lon": -77.043496, "is_reserved": 0, "fusion_lon": 0.0}, {"rental_uris": {"ios": "https://dc.lft.to/lastmile_qr_scan", "android": "https://dc.lft.to/lastmile_qr_scan"}, "fusion_lat": 0.0, "name": "a260e1343ce31f40026c9ae313ac3343", "bike_id": "a260e1343ce31f40026c9ae313ac3343", "is_disabled": 0, "type": "electric_scooter", "lat": 38.91033916666667, "lon": -77.0483045, "is_reserved": 0, "fusion_lon": 0.0}, {"rental_uris": {"ios": "https://dc.lft.to/lastmile_qr_scan", "android": "https://dc.lft.to/lastmile_qr_scan"}, "fusion_lat": 0.0, "name": "95ee5d31c85ea54226e3af9c04aaa41d", "bike_id": "95ee5d31c85ea54226e3af9c04aaa41d", "is_disabled": 0, "type": "electric_scooter", "lat": 38.91679083333333, "lon": -77.03204816666667, "is_reserved": 0, "fusion_lon": 0.0}, {"rental_uris": {"ios": "https://dc.lft.to/lastmile_qr_scan", "android": "https://dc.lft.to/lastmile_qr_scan"}, "fusion_lat": 0.0, "name": "828e0082d00e350989e6962a062a5d79", "bike_id": "828e0082d00e350989e6962a062a5d79", "is_disabled": 0, "type": "electric_scooter", "lat": 38.918039666666665, "lon": -77.0249925, "is_reserved": 0, "fusion_lon": 0.0}, {"rental_uris": {"ios": "https://dc.lft.to/lastmile_qr_scan", "android": "https://dc.lft.to/lastmile_qr_scan"}, "fusion_lat": 0.0, "name": "ca0b51b0fa96dd0cd6ab0771033407d0", "bike_id": "ca0b51b0fa96dd0cd6ab0771033407d0", "is_disabled": 0, "type": "electric_scooter", "lat": 38.892225, "lon": -77.043292, "is_reserved": 0, "fusion_lon": 0.0}, {"rental_uris": {"ios": "https://dc.lft.to/lastmile_qr_scan", "android": "https://dc.lft.to/lastmile_qr_scan"}, "fusion_lat": 0.0, "name": "36d4067777e8765c3b51cc0adf32952f", "bike_id": "36d4067777e8765c3b51cc0adf32952f", "is_disabled": 0, "type": "electric_scooter", "lat": 38.90812233333333, "lon": -77.03944166666666, "is_reserved": 0, "fusion_lon": 0.0}, {"rental_uris": {"ios": "https://dc.lft.to/lastmile_qr_scan", "android": "https://dc.lft.to/lastmile_qr_scan"}, "fusion_lat": 0.0, "name": "50668e7fdaaccee1c8b600845f4a9344", "bike_id": "50668e7fdaaccee1c8b600845f4a9344", "is_disabled": 0, "type": "electric_scooter", "lat": 38.90952383333333, "lon": -77.03208783333334, "is_reserved": 0, "fusion_lon": 0.0}, {"rental_uris": {"ios": "https://dc.lft.to/lastmile_qr_scan", "android": "https://dc.lft.to/lastmile_qr_scan"}, "fusion_lat": 0.0, "name": "b3f7c09c4c3d5cffb5514385e0c91c21", "bike_id": "b3f7c09c4c3d5cffb5514385e0c91c21", "is_disabled": 0, "type": "electric_scooter", "lat": 38.93360783333333, "lon": -77.08570183333333, "is_reserved": 0, "fusion_lon": 0.0}, {"rental_uris": {"ios": "https://dc.lft.to/lastmile_qr_scan", "android": "https://dc.lft.to/lastmile_qr_scan"}, "fusion_lat": 0.0, "name": "a27b967fc0844199274cb5f901861058", "bike_id": "a27b967fc0844199274cb5f901861058", "is_disabled": 0, "type": "electric_scooter", "lat": 38.911189666666665, "lon": -77.03791683333333, "is_reserved": 0, "fusion_lon": 0.0}, {"rental_uris": {"ios": "https://dc.lft.to/lastmile_qr_scan", "android": "https://dc.lft.to/lastmile_qr_scan"}, "fusion_lat": 0.0, "name": "99781ef760559c0e292b6919e94f22b4", "bike_id": "99781ef760559c0e292b6919e94f22b4", "is_disabled": 0, "type": "electric_scooter", "lat": 38.880879, "lon": -76.98396433333333, "is_reserved": 0, "fusion_lon": 0.0}, {"rental_uris": {"ios": "https://dc.lft.to/lastmile_qr_scan", "android": "https://dc.lft.to/lastmile_qr_scan"}, "fusion_lat": 0.0, "name": "b982ade29a99c581d163d0a26c8f4292", "bike_id": "b982ade29a99c581d163d0a26c8f4292", "is_disabled": 0, "type": "electric_scooter", "lat": 38.896912, "lon": -77.00499666666667, "is_reserved": 0, "fusion_lon": 0.0}, {"rental_uris": {"ios": "https://dc.lft.to/lastmile_qr_scan", "android": "https://dc.lft.to/lastmile_qr_scan"}, "fusion_lat": 0.0, "name": "59f95ac4296705d1b58eac28a8de26eb", "bike_id": "59f95ac4296705d1b58eac28a8de26eb", "is_disabled": 0, "type": "electric_scooter", "lat": 38.917631, "lon": -77.03636066666667, "is_reserved": 0, "fusion_lon": 0.0}, {"rental_uris": {"ios": "https://dc.lft.to/lastmile_qr_scan", "android": "https://dc.lft.to/lastmile_qr_scan"}, "fusion_lat": 0.0, "name": "dde47329c1b5b1df6ef7152653db2a8f", "bike_id": "dde47329c1b5b1df6ef7152653db2a8f", "is_disabled": 0, "type": "electric_scooter", "lat": 38.901576666666664, "lon": -77.02592966666667, "is_reserved": 0, "fusion_lon": 0.0}, {"rental_uris": {"ios": "https://dc.lft.to/lastmile_qr_scan", "android": "https://dc.lft.to/lastmile_qr_scan"}, "fusion_lat": 0.0, "name": "21f0b22bd3204ef1deb92eec7b60f1f6", "bike_id": "21f0b22bd3204ef1deb92eec7b60f1f6", "is_disabled": 0, "type": "electric_bike", "lat": 39.056317166666666, "lon": -77.12531316666667, "is_reserved": 0, "fusion_lon": 0.0}, {"rental_uris": {"ios": "https://dc.lft.to/lastmile_qr_scan", "android": "https://dc.lft.to/lastmile_qr_scan"}, "fusion_lat": 0.0, "name": "a31c277eae2497b390742565af52f728", "bike_id": "a31c277eae2497b390742565af52f728", "is_disabled": 0, "type": "electric_scooter", "lat": 38.91862116666667, "lon": -77.03191033333333, "is_reserved": 0, "fusion_lon": 0.0}, {"rental_uris": {"ios": "https://dc.lft.to/lastmile_qr_scan", "android": "https://dc.lft.to/lastmile_qr_scan"}, "fusion_lat": 0.0, "name": "36b12236416172c3912ea3a1e11a42d5", "bike_id": "36b12236416172c3912ea3a1e11a42d5", "is_disabled": 0, "type": "electric_scooter", "lat": 38.903321166666665, "lon": -77.0433895, "is_reserved": 0, "fusion_lon": 0.0}, {"rental_uris": {"ios": "https://dc.lft.to/lastmile_qr_scan", "android": "https://dc.lft.to/lastmile_qr_scan"}, "fusion_lat": 0.0, "name": "3b141f83b16e2f05353ac132aa6ac661", "bike_id": "3b141f83b16e2f05353ac132aa6ac661", "is_disabled": 0, "type": "electric_scooter", "lat": 38.887388, "lon": -77.015351, "is_reserved": 0, "fusion_lon": 0.0}, {"rental_uris": {"ios": "https://dc.lft.to/lastmile_qr_scan", "android": "https://dc.lft.to/lastmile_qr_scan"}, "fusion_lat": 0.0, "name": "cf86b66b7df77c96371b3fc7c0fb8ba3", "bike_id": "cf86b66b7df77c96371b3fc7c0fb8ba3", "is_disabled": 0, "type": "electric_scooter", "lat": 38.898247, "lon": -76.9465545, "is_reserved": 0, "fusion_lon": 0.0}, {"rental_uris": {"ios": "https://dc.lft.to/lastmile_qr_scan", "android": "https://dc.lft.to/lastmile_qr_scan"}, "fusion_lat": 0.0, "name": "b475e5a04b67bc2b14ba18bd3a315444", "bike_id": "b475e5a04b67bc2b14ba18bd3a315444", "is_disabled": 0, "type": "electric_scooter", "lat": 38.8668885, "lon": -76.985303, "is_reserved": 0, "fusion_lon": 0.0}, {"rental_uris": {"ios": "https://dc.lft.to/lastmile_qr_scan", "android": "https://dc.lft.to/lastmile_qr_scan"}, "fusion_lat": 0.0, "name": "268720958e77407ab6fe1f5c2ba94412", "bike_id": "268720958e77407ab6fe1f5c2ba94412", "is_disabled": 0, "type": "electric_scooter", "lat": 38.9024435, "lon": -77.043942, "is_reserved": 0, "fusion_lon": 0.0}, {"rental_uris": {"ios": "https://dc.lft.to/lastmile_qr_scan", "android": "https://dc.lft.to/lastmile_qr_scan"}, "fusion_lat": 0.0, "name": "88f81be9ba34286fff829ef2440a4513", "bike_id": "88f81be9ba34286fff829ef2440a4513", "is_disabled": 0, "type": "electric_scooter", "lat": 38.91413566666667, "lon": -77.01885366666667, "is_reserved": 0, "fusion_lon": 0.0}, {"rental_uris": {"ios": "https://dc.lft.to/lastmile_qr_scan", "android": "https://dc.lft.to/lastmile_qr_scan"}, "fusion_lat": 0.0, "name": "2187089452e1004c21d441433c59372c", "bike_id": "2187089452e1004c21d441433c59372c", "is_disabled": 0, "type": "electric_scooter", "lat": 38.905174833333334, "lon": -77.02714516666667, "is_reserved": 0, "fusion_lon": 0.0}, {"rental_uris": {"ios": "https://dc.lft.to/lastmile_qr_scan", "android": "https://dc.lft.to/lastmile_qr_scan"}, "fusion_lat": 0.0, "name": "46eb1faf9306397d0f907ce89fea8e5c", "bike_id": "46eb1faf9306397d0f907ce89fea8e5c", "is_disabled": 0, "type": "electric_scooter", "lat": 38.90791516666667, "lon": -76.997295, "is_reserved": 0, "fusion_lon": 0.0}, {"rental_uris": {"ios": "https://dc.lft.to/lastmile_qr_scan", "android": "https://dc.lft.to/lastmile_qr_scan"}, "fusion_lat": 0.0, "name": "caf34470335ff3c1f196f22cc0671824", "bike_id": "caf34470335ff3c1f196f22cc0671824", "is_disabled": 0, "type": "electric_scooter", "lat": 38.892190166666666, "lon": -77.02229016666666, "is_reserved": 0, "fusion_lon": 0.0}, {"rental_uris": {"ios": "https://dc.lft.to/lastmile_qr_scan", "android": "https://dc.lft.to/lastmile_qr_scan"}, "fusion_lat": 0.0, "name": "d0a4e7206d2336fcc35eb0c7a86593e3", "bike_id": "d0a4e7206d2336fcc35eb0c7a86593e3", "is_disabled": 0, "type": "electric_scooter", "lat": 38.9227935, "lon": -77.02976133333334, "is_reserved": 0, "fusion_lon": 0.0}, {"rental_uris": {"ios": "https://dc.lft.to/lastmile_qr_scan", "android": "https://dc.lft.to/lastmile_qr_scan"}, "fusion_lat": 0.0, "name": "50e82fed853588b288097f55b57c9719", "bike_id": "50e82fed853588b288097f55b57c9719", "is_disabled": 0, "type": "electric_scooter", "lat": 38.898811, "lon": -77.0327765, "is_reserved": 0, "fusion_lon": 0.0}, {"rental_uris": {"ios": "https://dc.lft.to/lastmile_qr_scan", "android": "https://dc.lft.to/lastmile_qr_scan"}, "fusion_lat": 0.0, "name": "fb4eaf34bd6545c7ce5a01ee7813dfc9", "bike_id": "fb4eaf34bd6545c7ce5a01ee7813dfc9", "is_disabled": 0, "type": "electric_scooter", "lat": 38.88746366666667, "lon": -77.03145483333333, "is_reserved": 0, "fusion_lon": 0.0}, {"rental_uris": {"ios": "https://dc.lft.to/lastmile_qr_scan", "android": "https://dc.lft.to/lastmile_qr_scan"}, "fusion_lat": 0.0, "name": "42a739a8036e360c5c4e0c3cfde5b37b", "bike_id": "42a739a8036e360c5c4e0c3cfde5b37b", "is_disabled": 0, "type": "electric_scooter", "lat": 38.91851616666667, "lon": -77.03448283333333, "is_reserved": 0, "fusion_lon": 0.0}, {"rental_uris": {"ios": "https://dc.lft.to/lastmile_qr_scan", "android": "https://dc.lft.to/lastmile_qr_scan"}, "fusion_lat": 0.0, "name": "b8e52abcf547a34b98ff0421801a8ba5", "bike_id": "b8e52abcf547a34b98ff0421801a8ba5", "is_disabled": 0, "type": "electric_scooter", "lat": 38.887135666666666, "lon": -77.01779266666667, "is_reserved": 0, "fusion_lon": 0.0}, {"rental_uris": {"ios": "https://dc.lft.to/lastmile_qr_scan", "android": "https://dc.lft.to/lastmile_qr_scan"}, "fusion_lat": 0.0, "name": "cf94789d09e81aa4fc1b09483e2deb88", "bike_id": "cf94789d09e81aa4fc1b09483e2deb88", "is_disabled": 0, "type": "electric_bike", "lat": 38.955521, "lon": -76.935409, "is_reserved": 0, "fusion_lon": 0.0}, {"rental_uris": {"ios": "https://dc.lft.to/lastmile_qr_scan", "android": "https://dc.lft.to/lastmile_qr_scan"}, "fusion_lat": 0.0, "name": "0f57fa627d40135dc367b0fa8b144056", "bike_id": "0f57fa627d40135dc367b0fa8b144056", "is_disabled": 0, "type": "electric_bike", "lat": 38.95956433333333, "lon": -77.03054783333333, "is_reserved": 0, "fusion_lon": 0.0}, {"rental_uris": {"ios": "https://dc.lft.to/lastmile_qr_scan", "android": "https://dc.lft.to/lastmile_qr_scan"}, "fusion_lat": 0.0, "name": "72c9166b3183aad1a62d1b50f44002e8", "bike_id": "72c9166b3183aad1a62d1b50f44002e8", "is_disabled": 0, "type": "electric_scooter", "lat": 38.91264116666667, "lon": -77.04440666666666, "is_reserved": 0, "fusion_lon": 0.0}, {"rental_uris": {"ios": "https://dc.lft.to/lastmile_qr_scan", "android": "https://dc.lft.to/lastmile_qr_scan"}, "fusion_lat": 0.0, "name": "2e86390323011c61d30315c805ebb380", "bike_id": "2e86390323011c61d30315c805ebb380", "is_disabled": 0, "type": "electric_scooter", "lat": 38.95075033333333, "lon": -77.03108033333334, "is_reserved": 0, "fusion_lon": 0.0}, {"rental_uris": {"ios": "https://dc.lft.to/lastmile_qr_scan", "android": "https://dc.lft.to/lastmile_qr_scan"}, "fusion_lat": 0.0, "name": "3e782ebd823694554bec75b41f9f6c0d", "bike_id": "3e782ebd823694554bec75b41f9f6c0d", "is_disabled": 0, "type": "electric_scooter", "lat": 38.89863966666667, "lon": -77.03972016666667, "is_reserved": 0, "fusion_lon": 0.0}, {"rental_uris": {"ios": "https://dc.lft.to/lastmile_qr_scan", "android": "https://dc.lft.to/lastmile_qr_scan"}, "fusion_lat": 0.0, "name": "6a2ee932b5d53a1f7a0d3c0ceccb1ea6", "bike_id": "6a2ee932b5d53a1f7a0d3c0ceccb1ea6", "is_disabled": 0, "type": "electric_scooter", "lat": 38.892192666666666, "lon": -77.0222295, "is_reserved": 0, "fusion_lon": 0.0}, {"rental_uris": {"ios": "https://dc.lft.to/lastmile_qr_scan", "android": "https://dc.lft.to/lastmile_qr_scan"}, "fusion_lat": 0.0, "name": "8fc2543f7632330db8e551fe2d02e7ed", "bike_id": "8fc2543f7632330db8e551fe2d02e7ed", "is_disabled": 0, "type": "electric_scooter", "lat": 38.934855166666665, "lon": -77.07276866666666, "is_reserved": 0, "fusion_lon": 0.0}, {"rental_uris": {"ios": "https://dc.lft.to/lastmile_qr_scan", "android": "https://dc.lft.to/lastmile_qr_scan"}, "fusion_lat": 0.0, "name": "e0df03382ce5a569a26724cff0c93577", "bike_id": "e0df03382ce5a569a26724cff0c93577", "is_disabled": 0, "type": "electric_scooter", "lat": 38.90030983333333, "lon": -76.997645, "is_reserved": 0, "fusion_lon": 0.0}, {"rental_uris": {"ios": "https://dc.lft.to/lastmile_qr_scan", "android": "https://dc.lft.to/lastmile_qr_scan"}, "fusion_lat": 0.0, "name": "08bfdceee8eaa23d60c13e0c8f0da1f3", "bike_id": "08bfdceee8eaa23d60c13e0c8f0da1f3", "is_disabled": 0, "type": "electric_scooter", "lat": 38.9259195, "lon": -77.02142216666667, "is_reserved": 0, "fusion_lon": 0.0}, {"rental_uris": {"ios": "https://dc.lft.to/lastmile_qr_scan", "android": "https://dc.lft.to/lastmile_qr_scan"}, "fusion_lat": 0.0, "name": "00cb2d9f5b4793bf1842e22eaee9edd6", "bike_id": "00cb2d9f5b4793bf1842e22eaee9edd6", "is_disabled": 0, "type": "electric_scooter", "lat": 38.90147666666667, "lon": -77.04393216666666, "is_reserved": 0, "fusion_lon": 0.0}, {"rental_uris": {"ios": "https://dc.lft.to/lastmile_qr_scan", "android": "https://dc.lft.to/lastmile_qr_scan"}, "fusion_lat": 0.0, "name": "ad37b4f6c6f35d62515c87d00cb0aa11", "bike_id": "ad37b4f6c6f35d62515c87d00cb0aa11", "is_disabled": 0, "type": "electric_scooter", "lat": 38.90012, "lon": -77.04032983333333, "is_reserved": 0, "fusion_lon": 0.0}, {"rental_uris": {"ios": "https://dc.lft.to/lastmile_qr_scan", "android": "https://dc.lft.to/lastmile_qr_scan"}, "fusion_lat": 0.0, "name": "6a03dc006886ff65aefa93bb95813537", "bike_id": "6a03dc006886ff65aefa93bb95813537", "is_disabled": 0, "type": "electric_scooter", "lat": 38.905732666666665, "lon": -77.0344185, "is_reserved": 0, "fusion_lon": 0.0}, {"rental_uris": {"ios": "https://dc.lft.to/lastmile_qr_scan", "android": "https://dc.lft.to/lastmile_qr_scan"}, "fusion_lat": 0.0, "name": "b4b8719dab922b80e9a19044a09c8e51", "bike_id": "b4b8719dab922b80e9a19044a09c8e51", "is_disabled": 0, "type": "electric_scooter", "lat": 38.9330305, "lon": -77.02468533333334, "is_reserved": 0, "fusion_lon": 0.0}, {"rental_uris": {"ios": "https://dc.lft.to/lastmile_qr_scan", "android": "https://dc.lft.to/lastmile_qr_scan"}, "fusion_lat": 0.0, "name": "56ac202f9fc5999b43a9737239eb5467", "bike_id": "56ac202f9fc5999b43a9737239eb5467", "is_disabled": 0, "type": "electric_bike", "lat": 38.84289, "lon": -77.04488816666667, "is_reserved": 0, "fusion_lon": 0.0}, {"rental_uris": {"ios": "https://dc.lft.to/lastmile_qr_scan", "android": "https://dc.lft.to/lastmile_qr_scan"}, "fusion_lat": 0.0, "name": "e5633d50d2f185a8441defec219b6a33", "bike_id": "e5633d50d2f185a8441defec219b6a33", "is_disabled": 0, "type": "electric_scooter", "lat": 38.926175666666666, "lon": -77.03952983333333, "is_reserved": 0, "fusion_lon": 0.0}, {"rental_uris": {"ios": "https://dc.lft.to/lastmile_qr_scan", "android": "https://dc.lft.to/lastmile_qr_scan"}, "fusion_lat": 0.0, "name": "ce1538883d0518db5cc66a2d743cf1df", "bike_id": "ce1538883d0518db5cc66a2d743cf1df", "is_disabled": 0, "type": "electric_scooter", "lat": 38.892287833333334, "lon": -77.03216316666666, "is_reserved": 0, "fusion_lon": 0.0}, {"rental_uris": {"ios": "https://dc.lft.to/lastmile_qr_scan", "android": "https://dc.lft.to/lastmile_qr_scan"}, "fusion_lat": 0.0, "name": "b7863339397611488fc0b28f0aa9a520", "bike_id": "b7863339397611488fc0b28f0aa9a520", "is_disabled": 0, "type": "electric_scooter", "lat": 38.908508499999996, "lon": -76.99805083333334, "is_reserved": 0, "fusion_lon": 0.0}, {"rental_uris": {"ios": "https://dc.lft.to/lastmile_qr_scan", "android": "https://dc.lft.to/lastmile_qr_scan"}, "fusion_lat": 0.0, "name": "f4dd8439078796f9e4081a353107cadf", "bike_id": "f4dd8439078796f9e4081a353107cadf", "is_disabled": 0, "type": "electric_scooter", "lat": 38.957085, "lon": -77.024036, "is_reserved": 0, "fusion_lon": 0.0}, {"rental_uris": {"ios": "https://dc.lft.to/lastmile_qr_scan", "android": "https://dc.lft.to/lastmile_qr_scan"}, "fusion_lat": 0.0, "name": "8d5b4c0070885dffabdea0869017360e", "bike_id": "8d5b4c0070885dffabdea0869017360e", "is_disabled": 0, "type": "electric_scooter", "lat": 38.8993745, "lon": -77.028041, "is_reserved": 0, "fusion_lon": 0.0}, {"rental_uris": {"ios": "https://dc.lft.to/lastmile_qr_scan", "android": "https://dc.lft.to/lastmile_qr_scan"}, "fusion_lat": 0.0, "name": "49a1ef79184b1a00c13a4b8c52370476", "bike_id": "49a1ef79184b1a00c13a4b8c52370476", "is_disabled": 0, "type": "electric_scooter", "lat": 38.905295, "lon": -77.0418545, "is_reserved": 0, "fusion_lon": 0.0}, {"rental_uris": {"ios": "https://dc.lft.to/lastmile_qr_scan", "android": "https://dc.lft.to/lastmile_qr_scan"}, "fusion_lat": 0.0, "name": "8b19378bf99aecf1c202bc51b568bf85", "bike_id": "8b19378bf99aecf1c202bc51b568bf85", "is_disabled": 0, "type": "electric_scooter", "lat": 38.919007666666666, "lon": -77.02085233333334, "is_reserved": 0, "fusion_lon": 0.0}, {"rental_uris": {"ios": "https://dc.lft.to/lastmile_qr_scan", "android": "https://dc.lft.to/lastmile_qr_scan"}, "fusion_lat": 0.0, "name": "93008a677603a17e22f85c157fde11b5", "bike_id": "93008a677603a17e22f85c157fde11b5", "is_disabled": 0, "type": "electric_scooter", "lat": 38.8981445, "lon": -77.0466575, "is_reserved": 0, "fusion_lon": 0.0}, {"rental_uris": {"ios": "https://dc.lft.to/lastmile_qr_scan", "android": "https://dc.lft.to/lastmile_qr_scan"}, "fusion_lat": 0.0, "name": "ef3e6e960f942041a11e592bb6995a21", "bike_id": "ef3e6e960f942041a11e592bb6995a21", "is_disabled": 0, "type": "electric_scooter", "lat": 38.90379016666667, "lon": -77.03222033333333, "is_reserved": 0, "fusion_lon": 0.0}, {"rental_uris": {"ios": "https://dc.lft.to/lastmile_qr_scan", "android": "https://dc.lft.to/lastmile_qr_scan"}, "fusion_lat": 0.0, "name": "1ef0c94740253f34056812b00632492b", "bike_id": "1ef0c94740253f34056812b00632492b", "is_disabled": 0, "type": "electric_scooter", "lat": 38.88250083333333, "lon": -77.00375966666667, "is_reserved": 0, "fusion_lon": 0.0}, {"rental_uris": {"ios": "https://dc.lft.to/lastmile_qr_scan", "android": "https://dc.lft.to/lastmile_qr_scan"}, "fusion_lat": 0.0, "name": "d9f0a49b1e697ea9983c6fd129664fdc", "bike_id": "d9f0a49b1e697ea9983c6fd129664fdc", "is_disabled": 0, "type": "electric_scooter", "lat": 38.889979333333336, "lon": -76.9541435, "is_reserved": 0, "fusion_lon": 0.0}, {"rental_uris": {"ios": "https://dc.lft.to/lastmile_qr_scan", "android": "https://dc.lft.to/lastmile_qr_scan"}, "fusion_lat": 0.0, "name": "2fd56192b1cdde24a379d74c68acd7d5", "bike_id": "2fd56192b1cdde24a379d74c68acd7d5", "is_disabled": 0, "type": "electric_scooter", "lat": 38.90135466666667, "lon": -77.0488975, "is_reserved": 0, "fusion_lon": 0.0}, {"rental_uris": {"ios": "https://dc.lft.to/lastmile_qr_scan", "android": "https://dc.lft.to/lastmile_qr_scan"}, "fusion_lat": 0.0, "name": "d91bebf9e0bb56a50a81066b825d4569", "bike_id": "d91bebf9e0bb56a50a81066b825d4569", "is_disabled": 0, "type": "electric_scooter", "lat": 38.91709383333333, "lon": -77.0367555, "is_reserved": 0, "fusion_lon": 0.0}, {"rental_uris": {"ios": "https://dc.lft.to/lastmile_qr_scan", "android": "https://dc.lft.to/lastmile_qr_scan"}, "fusion_lat": 0.0, "name": "ba6e0f392435980c15ef982e3d702b27", "bike_id": "ba6e0f392435980c15ef982e3d702b27", "is_disabled": 0, "type": "electric_scooter", "lat": 38.91499233333333, "lon": -77.045462, "is_reserved": 0, "fusion_lon": 0.0}, {"rental_uris": {"ios": "https://dc.lft.to/lastmile_qr_scan", "android": "https://dc.lft.to/lastmile_qr_scan"}, "fusion_lat": 0.0, "name": "c979d876263aa6aab5824a91eeb59f56", "bike_id": "c979d876263aa6aab5824a91eeb59f56", "is_disabled": 0, "type": "electric_scooter", "lat": 38.930649833333334, "lon": -77.02974433333333, "is_reserved": 0, "fusion_lon": 0.0}, {"rental_uris": {"ios": "https://dc.lft.to/lastmile_qr_scan", "android": "https://dc.lft.to/lastmile_qr_scan"}, "fusion_lat": 0.0, "name": "820be726e3a0266d439917172a53d22d", "bike_id": "820be726e3a0266d439917172a53d22d", "is_disabled": 0, "type": "electric_scooter", "lat": 38.903824666666665, "lon": -77.034841, "is_reserved": 0, "fusion_lon": 0.0}, {"rental_uris": {"ios": "https://dc.lft.to/lastmile_qr_scan", "android": "https://dc.lft.to/lastmile_qr_scan"}, "fusion_lat": 0.0, "name": "c7c3a4b99706b3e00ae157e61399899f", "bike_id": "c7c3a4b99706b3e00ae157e61399899f", "is_disabled": 0, "type": "electric_scooter", "lat": 38.9053105, "lon": -77.04183883333333, "is_reserved": 0, "fusion_lon": 0.0}, {"rental_uris": {"ios": "https://dc.lft.to/lastmile_qr_scan", "android": "https://dc.lft.to/lastmile_qr_scan"}, "fusion_lat": 0.0, "name": "95e809512feba7371683151de6a8baf0", "bike_id": "95e809512feba7371683151de6a8baf0", "is_disabled": 0, "type": "electric_scooter", "lat": 38.9154865, "lon": -77.04173, "is_reserved": 0, "fusion_lon": 0.0}, {"rental_uris": {"ios": "https://dc.lft.to/lastmile_qr_scan", "android": "https://dc.lft.to/lastmile_qr_scan"}, "fusion_lat": 0.0, "name": "c3f1861d79ba1db0ab2411cb5b6ae836", "bike_id": "c3f1861d79ba1db0ab2411cb5b6ae836", "is_disabled": 0, "type": "electric_scooter", "lat": 38.946202, "lon": -77.02517983333334, "is_reserved": 0, "fusion_lon": 0.0}, {"rental_uris": {"ios": "https://dc.lft.to/lastmile_qr_scan", "android": "https://dc.lft.to/lastmile_qr_scan"}, "fusion_lat": 0.0, "name": "bb45e28031734e12f1cbb51dad3f5206", "bike_id": "bb45e28031734e12f1cbb51dad3f5206", "is_disabled": 0, "type": "electric_bike", "lat": 38.98652933333334, "lon": -77.056355, "is_reserved": 0, "fusion_lon": 0.0}, {"rental_uris": {"ios": "https://dc.lft.to/lastmile_qr_scan", "android": "https://dc.lft.to/lastmile_qr_scan"}, "fusion_lat": 0.0, "name": "79ed7eca3d09d79fd01450589fee1b6b", "bike_id": "79ed7eca3d09d79fd01450589fee1b6b", "is_disabled": 0, "type": "electric_scooter", "lat": 38.90565483333334, "lon": -77.03478416666667, "is_reserved": 0, "fusion_lon": 0.0}, {"rental_uris": {"ios": "https://dc.lft.to/lastmile_qr_scan", "android": "https://dc.lft.to/lastmile_qr_scan"}, "fusion_lat": 0.0, "name": "38485346d32e6bddfc2ff0c12d8a0140", "bike_id": "38485346d32e6bddfc2ff0c12d8a0140", "is_disabled": 0, "type": "electric_scooter", "lat": 38.92390666666667, "lon": -77.035341, "is_reserved": 0, "fusion_lon": 0.0}, {"rental_uris": {"ios": "https://dc.lft.to/lastmile_qr_scan", "android": "https://dc.lft.to/lastmile_qr_scan"}, "fusion_lat": 0.0, "name": "ef603041758e4e72d70e0167a70660c7", "bike_id": "ef603041758e4e72d70e0167a70660c7", "is_disabled": 0, "type": "electric_scooter", "lat": 38.924382333333334, "lon": -77.05215716666666, "is_reserved": 0, "fusion_lon": 0.0}, {"rental_uris": {"ios": "https://dc.lft.to/lastmile_qr_scan", "android": "https://dc.lft.to/lastmile_qr_scan"}, "fusion_lat": 0.0, "name": "facdb8ca6eb2565c385996567673d4db", "bike_id": "facdb8ca6eb2565c385996567673d4db", "is_disabled": 0, "type": "electric_scooter", "lat": 38.91796816666667, "lon": -77.040136, "is_reserved": 0, "fusion_lon": 0.0}, {"rental_uris": {"ios": "https://dc.lft.to/lastmile_qr_scan", "android": "https://dc.lft.to/lastmile_qr_scan"}, "fusion_lat": 0.0, "name": "ec7f61135767dc2332cd500d7886f3fc", "bike_id": "ec7f61135767dc2332cd500d7886f3fc", "is_disabled": 0, "type": "electric_scooter", "lat": 38.9069655, "lon": -77.05027316666667, "is_reserved": 0, "fusion_lon": 0.0}, {"rental_uris": {"ios": "https://dc.lft.to/lastmile_qr_scan", "android": "https://dc.lft.to/lastmile_qr_scan"}, "fusion_lat": 0.0, "name": "aa5c17fec39c4e591aae0c02845a1bb9", "bike_id": "aa5c17fec39c4e591aae0c02845a1bb9", "is_disabled": 0, "type": "electric_bike", "lat": 38.969288, "lon": -77.02620516666667, "is_reserved": 0, "fusion_lon": 0.0}, {"rental_uris": {"ios": "https://dc.lft.to/lastmile_qr_scan", "android": "https://dc.lft.to/lastmile_qr_scan"}, "fusion_lat": 0.0, "name": "43c1544c9f8256bd391efd829a197d84", "bike_id": "43c1544c9f8256bd391efd829a197d84", "is_disabled": 0, "type": "electric_scooter", "lat": 38.914417666666665, "lon": -77.02286183333334, "is_reserved": 0, "fusion_lon": 0.0}, {"rental_uris": {"ios": "https://dc.lft.to/lastmile_qr_scan", "android": "https://dc.lft.to/lastmile_qr_scan"}, "fusion_lat": 0.0, "name": "0e920465233e2b62955f4231e8bbfe7e", "bike_id": "0e920465233e2b62955f4231e8bbfe7e", "is_disabled": 0, "type": "electric_bike", "lat": 38.873749, "lon": -77.11801933333334, "is_reserved": 0, "fusion_lon": 0.0}, {"rental_uris": {"ios": "https://dc.lft.to/lastmile_qr_scan", "android": "https://dc.lft.to/lastmile_qr_scan"}, "fusion_lat": 0.0, "name": "733a25e4c57d547ca715824c412ef8d3", "bike_id": "733a25e4c57d547ca715824c412ef8d3", "is_disabled": 0, "type": "electric_scooter", "lat": 38.9064215, "lon": -77.038927, "is_reserved": 0, "fusion_lon": 0.0}, {"rental_uris": {"ios": "https://dc.lft.to/lastmile_qr_scan", "android": "https://dc.lft.to/lastmile_qr_scan"}, "fusion_lat": 0.0, "name": "616dfa38eb04b9902dd6998061b27445", "bike_id": "616dfa38eb04b9902dd6998061b27445", "is_disabled": 0, "type": "electric_scooter", "lat": 38.926749, "lon": -77.01557183333334, "is_reserved": 0, "fusion_lon": 0.0}, {"rental_uris": {"ios": "https://dc.lft.to/lastmile_qr_scan", "android": "https://dc.lft.to/lastmile_qr_scan"}, "fusion_lat": 0.0, "name": "18b22a9937f34183aa95417ad704a0c4", "bike_id": "18b22a9937f34183aa95417ad704a0c4", "is_disabled": 0, "type": "electric_scooter", "lat": 38.91567166666667, "lon": -77.04522966666667, "is_reserved": 0, "fusion_lon": 0.0}, {"rental_uris": {"ios": "https://dc.lft.to/lastmile_qr_scan", "android": "https://dc.lft.to/lastmile_qr_scan"}, "fusion_lat": 0.0, "name": "c946d9bd2da858510fc9758557627ad4", "bike_id": "c946d9bd2da858510fc9758557627ad4", "is_disabled": 0, "type": "electric_scooter", "lat": 38.876282333333336, "lon": -76.96528883333333, "is_reserved": 0, "fusion_lon": 0.0}, {"rental_uris": {"ios": "https://dc.lft.to/lastmile_qr_scan", "android": "https://dc.lft.to/lastmile_qr_scan"}, "fusion_lat": 0.0, "name": "1a71a5b1ffac542902f41f2bfbab0ce2", "bike_id": "1a71a5b1ffac542902f41f2bfbab0ce2", "is_disabled": 0, "type": "electric_scooter", "lat": 38.907103166666666, "lon": -77.02994166666667, "is_reserved": 0, "fusion_lon": 0.0}, {"rental_uris": {"ios": "https://dc.lft.to/lastmile_qr_scan", "android": "https://dc.lft.to/lastmile_qr_scan"}, "fusion_lat": 0.0, "name": "7ab9d5b31b140f9af6312225812166ec", "bike_id": "7ab9d5b31b140f9af6312225812166ec", "is_disabled": 0, "type": "electric_scooter", "lat": 38.9111505, "lon": -77.044789, "is_reserved": 0, "fusion_lon": 0.0}, {"rental_uris": {"ios": "https://dc.lft.to/lastmile_qr_scan", "android": "https://dc.lft.to/lastmile_qr_scan"}, "fusion_lat": 0.0, "name": "4b6653a3a19eec5e253b39033312295d", "bike_id": "4b6653a3a19eec5e253b39033312295d", "is_disabled": 0, "type": "electric_scooter", "lat": 38.876305333333335, "lon": -76.96519383333333, "is_reserved": 0, "fusion_lon": 0.0}, {"rental_uris": {"ios": "https://dc.lft.to/lastmile_qr_scan", "android": "https://dc.lft.to/lastmile_qr_scan"}, "fusion_lat": 0.0, "name": "714dd3418a2e6e624e83704fd558c63d", "bike_id": "714dd3418a2e6e624e83704fd558c63d", "is_disabled": 0, "type": "electric_scooter", "lat": 38.890131, "lon": -76.937351, "is_reserved": 0, "fusion_lon": 0.0}, {"rental_uris": {"ios": "https://dc.lft.to/lastmile_qr_scan", "android": "https://dc.lft.to/lastmile_qr_scan"}, "fusion_lat": 0.0, "name": "32cfc5b12f016e4c17b30182162a8f34", "bike_id": "32cfc5b12f016e4c17b30182162a8f34", "is_disabled": 0, "type": "electric_scooter", "lat": 38.89881616666667, "lon": -76.93175516666666, "is_reserved": 0, "fusion_lon": 0.0}, {"rental_uris": {"ios": "https://dc.lft.to/lastmile_qr_scan", "android": "https://dc.lft.to/lastmile_qr_scan"}, "fusion_lat": 0.0, "name": "1eccd90415a571f9b2892c1d4d3c6479", "bike_id": "1eccd90415a571f9b2892c1d4d3c6479", "is_disabled": 0, "type": "electric_scooter", "lat": 38.89726816666666, "lon": -77.02173083333334, "is_reserved": 0, "fusion_lon": 0.0}, {"rental_uris": {"ios": "https://dc.lft.to/lastmile_qr_scan", "android": "https://dc.lft.to/lastmile_qr_scan"}, "fusion_lat": 0.0, "name": "8a056cfb21e2e1f4d6ec973474443311", "bike_id": "8a056cfb21e2e1f4d6ec973474443311", "is_disabled": 0, "type": "electric_scooter", "lat": 38.8667905, "lon": -76.98539316666667, "is_reserved": 0, "fusion_lon": 0.0}, {"rental_uris": {"ios": "https://dc.lft.to/lastmile_qr_scan", "android": "https://dc.lft.to/lastmile_qr_scan"}, "fusion_lat": 0.0, "name": "025bdf4a24bcde7cc290ce0e6f8a7fa2", "bike_id": "025bdf4a24bcde7cc290ce0e6f8a7fa2", "is_disabled": 0, "type": "electric_scooter", "lat": 38.913253833333336, "lon": -77.0319295, "is_reserved": 0, "fusion_lon": 0.0}, {"rental_uris": {"ios": "https://dc.lft.to/lastmile_qr_scan", "android": "https://dc.lft.to/lastmile_qr_scan"}, "fusion_lat": 0.0, "name": "f2471935eb553952a2d3e2ed5de741a0", "bike_id": "f2471935eb553952a2d3e2ed5de741a0", "is_disabled": 0, "type": "electric_scooter", "lat": 38.928217833333335, "lon": -77.02874466666667, "is_reserved": 0, "fusion_lon": 0.0}, {"rental_uris": {"ios": "https://dc.lft.to/lastmile_qr_scan", "android": "https://dc.lft.to/lastmile_qr_scan"}, "fusion_lat": 0.0, "name": "65d8d81ad45657123c136a3ba962d80c", "bike_id": "65d8d81ad45657123c136a3ba962d80c", "is_disabled": 0, "type": "electric_scooter", "lat": 38.91705116666667, "lon": -77.027235, "is_reserved": 0, "fusion_lon": 0.0}, {"rental_uris": {"ios": "https://dc.lft.to/lastmile_qr_scan", "android": "https://dc.lft.to/lastmile_qr_scan"}, "fusion_lat": 0.0, "name": "db693830a5da529ab88a8fc5adaa21d5", "bike_id": "db693830a5da529ab88a8fc5adaa21d5", "is_disabled": 0, "type": "electric_scooter", "lat": 38.918813666666665, "lon": -77.03625616666666, "is_reserved": 0, "fusion_lon": 0.0}, {"rental_uris": {"ios": "https://dc.lft.to/lastmile_qr_scan", "android": "https://dc.lft.to/lastmile_qr_scan"}, "fusion_lat": 0.0, "name": "67320d341e8cf7ce028d2e4307f0c21c", "bike_id": "67320d341e8cf7ce028d2e4307f0c21c", "is_disabled": 0, "type": "electric_scooter", "lat": 38.928515166666664, "lon": -77.030979, "is_reserved": 0, "fusion_lon": 0.0}, {"rental_uris": {"ios": "https://dc.lft.to/lastmile_qr_scan", "android": "https://dc.lft.to/lastmile_qr_scan"}, "fusion_lat": 0.0, "name": "3bdd38914c9df61cd838ae95764ad5ff", "bike_id": "3bdd38914c9df61cd838ae95764ad5ff", "is_disabled": 0, "type": "electric_bike", "lat": 38.86211633333333, "lon": -76.99781083333333, "is_reserved": 0, "fusion_lon": 0.0}, {"rental_uris": {"ios": "https://dc.lft.to/lastmile_qr_scan", "android": "https://dc.lft.to/lastmile_qr_scan"}, "fusion_lat": 0.0, "name": "2b86dbaa8935d0067049dea597c19516", "bike_id": "2b86dbaa8935d0067049dea597c19516", "is_disabled": 0, "type": "electric_scooter", "lat": 38.91272466666667, "lon": -77.0406795, "is_reserved": 0, "fusion_lon": 0.0}, {"rental_uris": {"ios": "https://dc.lft.to/lastmile_qr_scan", "android": "https://dc.lft.to/lastmile_qr_scan"}, "fusion_lat": 0.0, "name": "de46c5d742cdac65abb2efd9715031e7", "bike_id": "de46c5d742cdac65abb2efd9715031e7", "is_disabled": 0, "type": "electric_scooter", "lat": 38.89227833333333, "lon": -77.050045, "is_reserved": 0, "fusion_lon": 0.0}, {"rental_uris": {"ios": "https://dc.lft.to/lastmile_qr_scan", "android": "https://dc.lft.to/lastmile_qr_scan"}, "fusion_lat": 0.0, "name": "6ba4ff2d68fc840188b7f815af3b5aa3", "bike_id": "6ba4ff2d68fc840188b7f815af3b5aa3", "is_disabled": 0, "type": "electric_scooter", "lat": 38.865059333333335, "lon": -76.98979166666666, "is_reserved": 0, "fusion_lon": 0.0}, {"rental_uris": {"ios": "https://dc.lft.to/lastmile_qr_scan", "android": "https://dc.lft.to/lastmile_qr_scan"}, "fusion_lat": 0.0, "name": "a1b0d0c878f7f9b0ade8d187d806a378", "bike_id": "a1b0d0c878f7f9b0ade8d187d806a378", "is_disabled": 0, "type": "electric_scooter", "lat": 38.91569033333333, "lon": -77.03204016666666, "is_reserved": 0, "fusion_lon": 0.0}, {"rental_uris": {"ios": "https://dc.lft.to/lastmile_qr_scan", "android": "https://dc.lft.to/lastmile_qr_scan"}, "fusion_lat": 0.0, "name": "3b68d99f3b7cd46c4753b51034a00a34", "bike_id": "3b68d99f3b7cd46c4753b51034a00a34", "is_disabled": 0, "type": "electric_scooter", "lat": 38.91117, "lon": -77.04466983333333, "is_reserved": 0, "fusion_lon": 0.0}, {"rental_uris": {"ios": "https://dc.lft.to/lastmile_qr_scan", "android": "https://dc.lft.to/lastmile_qr_scan"}, "fusion_lat": 0.0, "name": "5015667f25e731595c3014be56e960f0", "bike_id": "5015667f25e731595c3014be56e960f0", "is_disabled": 0, "type": "electric_scooter", "lat": 38.90012466666667, "lon": -77.04871533333333, "is_reserved": 0, "fusion_lon": 0.0}, {"rental_uris": {"ios": "https://dc.lft.to/lastmile_qr_scan", "android": "https://dc.lft.to/lastmile_qr_scan"}, "fusion_lat": 0.0, "name": "450e8976c74df2cd98d2c8854e531836", "bike_id": "450e8976c74df2cd98d2c8854e531836", "is_disabled": 0, "type": "electric_scooter", "lat": 38.8519415, "lon": -76.97630383333333, "is_reserved": 0, "fusion_lon": 0.0}, {"rental_uris": {"ios": "https://dc.lft.to/lastmile_qr_scan", "android": "https://dc.lft.to/lastmile_qr_scan"}, "fusion_lat": 0.0, "name": "4dd887784d3945597e513c2ab2a2e140", "bike_id": "4dd887784d3945597e513c2ab2a2e140", "is_disabled": 0, "type": "electric_scooter", "lat": 38.91881883333333, "lon": -77.03507966666666, "is_reserved": 0, "fusion_lon": 0.0}, {"rental_uris": {"ios": "https://dc.lft.to/lastmile_qr_scan", "android": "https://dc.lft.to/lastmile_qr_scan"}, "fusion_lat": 0.0, "name": "dc6689e12a6acf4280967be07e55bddf", "bike_id": "dc6689e12a6acf4280967be07e55bddf", "is_disabled": 0, "type": "electric_scooter", "lat": 38.92060166666667, "lon": -77.0436235, "is_reserved": 0, "fusion_lon": 0.0}, {"rental_uris": {"ios": "https://dc.lft.to/lastmile_qr_scan", "android": "https://dc.lft.to/lastmile_qr_scan"}, "fusion_lat": 0.0, "name": "0985c45eea5c9b19678e03b8d0112f6c", "bike_id": "0985c45eea5c9b19678e03b8d0112f6c", "is_disabled": 0, "type": "electric_scooter", "lat": 38.90368466666666, "lon": -77.03222416666667, "is_reserved": 0, "fusion_lon": 0.0}, {"rental_uris": {"ios": "https://dc.lft.to/lastmile_qr_scan", "android": "https://dc.lft.to/lastmile_qr_scan"}, "fusion_lat": 0.0, "name": "637b71a4d525205601c70ea1c3be3bd8", "bike_id": "637b71a4d525205601c70ea1c3be3bd8", "is_disabled": 0, "type": "electric_scooter", "lat": 38.89980383333334, "lon": -77.03086316666666, "is_reserved": 0, "fusion_lon": 0.0}, {"rental_uris": {"ios": "https://dc.lft.to/lastmile_qr_scan", "android": "https://dc.lft.to/lastmile_qr_scan"}, "fusion_lat": 0.0, "name": "0bc41e38b3216fa33411344a4137a7c1", "bike_id": "0bc41e38b3216fa33411344a4137a7c1", "is_disabled": 0, "type": "electric_scooter", "lat": 38.90969833333333, "lon": -77.0378875, "is_reserved": 0, "fusion_lon": 0.0}, {"rental_uris": {"ios": "https://dc.lft.to/lastmile_qr_scan", "android": "https://dc.lft.to/lastmile_qr_scan"}, "fusion_lat": 0.0, "name": "8ca612113cacd025e0cd3092a417d144", "bike_id": "8ca612113cacd025e0cd3092a417d144", "is_disabled": 0, "type": "electric_scooter", "lat": 38.9028495, "lon": -77.03349916666667, "is_reserved": 0, "fusion_lon": 0.0}, {"rental_uris": {"ios": "https://dc.lft.to/lastmile_qr_scan", "android": "https://dc.lft.to/lastmile_qr_scan"}, "fusion_lat": 0.0, "name": "d5de09c19e54ec7a46fe89eafdbb37cf", "bike_id": "d5de09c19e54ec7a46fe89eafdbb37cf", "is_disabled": 0, "type": "electric_scooter", "lat": 38.88727316666667, "lon": -77.02833416666667, "is_reserved": 0, "fusion_lon": 0.0}, {"rental_uris": {"ios": "https://dc.lft.to/lastmile_qr_scan", "android": "https://dc.lft.to/lastmile_qr_scan"}, "fusion_lat": 0.0, "name": "6de67b353ee4d09e6362e4368356748d", "bike_id": "6de67b353ee4d09e6362e4368356748d", "is_disabled": 0, "type": "electric_scooter", "lat": 38.885952333333336, "lon": -77.030658, "is_reserved": 0, "fusion_lon": 0.0}, {"rental_uris": {"ios": "https://dc.lft.to/lastmile_qr_scan", "android": "https://dc.lft.to/lastmile_qr_scan"}, "fusion_lat": 0.0, "name": "b01c83b083904620a7bd7302417d08b9", "bike_id": "b01c83b083904620a7bd7302417d08b9", "is_disabled": 0, "type": "electric_scooter", "lat": 38.893451, "lon": -77.04150283333334, "is_reserved": 0, "fusion_lon": 0.0}, {"rental_uris": {"ios": "https://dc.lft.to/lastmile_qr_scan", "android": "https://dc.lft.to/lastmile_qr_scan"}, "fusion_lat": 0.0, "name": "6a23bad0be449ecd1053f02d667a07ad", "bike_id": "6a23bad0be449ecd1053f02d667a07ad", "is_disabled": 0, "type": "electric_scooter", "lat": 38.905602333333334, "lon": -77.002877, "is_reserved": 0, "fusion_lon": 0.0}, {"rental_uris": {"ios": "https://dc.lft.to/lastmile_qr_scan", "android": "https://dc.lft.to/lastmile_qr_scan"}, "fusion_lat": 0.0, "name": "99ef21f8bd623042b57cf5126f7e205d", "bike_id": "99ef21f8bd623042b57cf5126f7e205d", "is_disabled": 0, "type": "electric_bike", "lat": 38.9454835, "lon": -76.89537666666666, "is_reserved": 0, "fusion_lon": 0.0}, {"rental_uris": {"ios": "https://dc.lft.to/lastmile_qr_scan", "android": "https://dc.lft.to/lastmile_qr_scan"}, "fusion_lat": 0.0, "name": "e577b0dcd211489e7202bc72463be72a", "bike_id": "e577b0dcd211489e7202bc72463be72a", "is_disabled": 0, "type": "electric_scooter", "lat": 38.90731816666667, "lon": -77.02594616666667, "is_reserved": 0, "fusion_lon": 0.0}, {"rental_uris": {"ios": "https://dc.lft.to/lastmile_qr_scan", "android": "https://dc.lft.to/lastmile_qr_scan"}, "fusion_lat": 0.0, "name": "6d03b419183f11a692f6e23f2ac1ee53", "bike_id": "6d03b419183f11a692f6e23f2ac1ee53", "is_disabled": 0, "type": "electric_scooter", "lat": 38.932494, "lon": -77.02974283333333, "is_reserved": 0, "fusion_lon": 0.0}, {"rental_uris": {"ios": "https://dc.lft.to/lastmile_qr_scan", "android": "https://dc.lft.to/lastmile_qr_scan"}, "fusion_lat": 0.0, "name": "f029def0790509aa75208f7cb7badf90", "bike_id": "f029def0790509aa75208f7cb7badf90", "is_disabled": 0, "type": "electric_scooter", "lat": 38.9219485, "lon": -77.042323, "is_reserved": 0, "fusion_lon": 0.0}, {"rental_uris": {"ios": "https://dc.lft.to/lastmile_qr_scan", "android": "https://dc.lft.to/lastmile_qr_scan"}, "fusion_lat": 0.0, "name": "7a72aec8eb2113c5ae503cf642863cd2", "bike_id": "7a72aec8eb2113c5ae503cf642863cd2", "is_disabled": 0, "type": "electric_scooter", "lat": 38.8922255, "lon": -77.04149083333333, "is_reserved": 0, "fusion_lon": 0.0}, {"rental_uris": {"ios": "https://dc.lft.to/lastmile_qr_scan", "android": "https://dc.lft.to/lastmile_qr_scan"}, "fusion_lat": 0.0, "name": "7c13d8918478ae41cde0f675ff676203", "bike_id": "7c13d8918478ae41cde0f675ff676203", "is_disabled": 0, "type": "electric_scooter", "lat": 38.93238183333333, "lon": -76.99531383333333, "is_reserved": 0, "fusion_lon": 0.0}, {"rental_uris": {"ios": "https://dc.lft.to/lastmile_qr_scan", "android": "https://dc.lft.to/lastmile_qr_scan"}, "fusion_lat": 0.0, "name": "ecdf5b4238253e6cc5938d09f873038a", "bike_id": "ecdf5b4238253e6cc5938d09f873038a", "is_disabled": 0, "type": "electric_scooter", "lat": 38.903755333333336, "lon": -77.032176, "is_reserved": 0, "fusion_lon": 0.0}, {"rental_uris": {"ios": "https://dc.lft.to/lastmile_qr_scan", "android": "https://dc.lft.to/lastmile_qr_scan"}, "fusion_lat": 0.0, "name": "404884520beeb2fad282baf43a91b009", "bike_id": "404884520beeb2fad282baf43a91b009", "is_disabled": 0, "type": "electric_scooter", "lat": 38.866536333333336, "lon": -76.98884633333333, "is_reserved": 0, "fusion_lon": 0.0}, {"rental_uris": {"ios": "https://dc.lft.to/lastmile_qr_scan", "android": "https://dc.lft.to/lastmile_qr_scan"}, "fusion_lat": 0.0, "name": "7a18f9aa3e65bd19eee5a8f55f263993", "bike_id": "7a18f9aa3e65bd19eee5a8f55f263993", "is_disabled": 0, "type": "electric_scooter", "lat": 38.956396833333336, "lon": -77.032951, "is_reserved": 0, "fusion_lon": 0.0}, {"rental_uris": {"ios": "https://dc.lft.to/lastmile_qr_scan", "android": "https://dc.lft.to/lastmile_qr_scan"}, "fusion_lat": 0.0, "name": "652de27e4264cf091c2e59ebf55ff0a3", "bike_id": "652de27e4264cf091c2e59ebf55ff0a3", "is_disabled": 0, "type": "electric_scooter", "lat": 38.902379833333335, "lon": -77.059791, "is_reserved": 0, "fusion_lon": 0.0}, {"rental_uris": {"ios": "https://dc.lft.to/lastmile_qr_scan", "android": "https://dc.lft.to/lastmile_qr_scan"}, "fusion_lat": 0.0, "name": "052827759cc21ea0247dd3023e611fab", "bike_id": "052827759cc21ea0247dd3023e611fab", "is_disabled": 0, "type": "electric_scooter", "lat": 38.92543716666667, "lon": -77.05273466666667, "is_reserved": 0, "fusion_lon": 0.0}, {"rental_uris": {"ios": "https://dc.lft.to/lastmile_qr_scan", "android": "https://dc.lft.to/lastmile_qr_scan"}, "fusion_lat": 0.0, "name": "d51a8217d93932df849a6f5c731728bf", "bike_id": "d51a8217d93932df849a6f5c731728bf", "is_disabled": 0, "type": "electric_scooter", "lat": 38.911236, "lon": -77.02694316666667, "is_reserved": 0, "fusion_lon": 0.0}, {"rental_uris": {"ios": "https://dc.lft.to/lastmile_qr_scan", "android": "https://dc.lft.to/lastmile_qr_scan"}, "fusion_lat": 0.0, "name": "2c484a9c221528e24eff23fdaeaefb66", "bike_id": "2c484a9c221528e24eff23fdaeaefb66", "is_disabled": 0, "type": "electric_bike", "lat": 38.8956045, "lon": -77.12737033333333, "is_reserved": 0, "fusion_lon": 0.0}, {"rental_uris": {"ios": "https://dc.lft.to/lastmile_qr_scan", "android": "https://dc.lft.to/lastmile_qr_scan"}, "fusion_lat": 0.0, "name": "1a3edd5faf23587bd10fcef9e4b393e3", "bike_id": "1a3edd5faf23587bd10fcef9e4b393e3", "is_disabled": 0, "type": "electric_bike", "lat": 39.015699, "lon": -77.04421066666667, "is_reserved": 0, "fusion_lon": 0.0}, {"rental_uris": {"ios": "https://dc.lft.to/lastmile_qr_scan", "android": "https://dc.lft.to/lastmile_qr_scan"}, "fusion_lat": 0.0, "name": "6e9a92e3fb16fa1c6a1a252d5337823b", "bike_id": "6e9a92e3fb16fa1c6a1a252d5337823b", "is_disabled": 0, "type": "electric_scooter", "lat": 38.900174666666665, "lon": -77.03202933333333, "is_reserved": 0, "fusion_lon": 0.0}, {"rental_uris": {"ios": "https://dc.lft.to/lastmile_qr_scan", "android": "https://dc.lft.to/lastmile_qr_scan"}, "fusion_lat": 0.0, "name": "566930b6882806d40d8c760ccea568b9", "bike_id": "566930b6882806d40d8c760ccea568b9", "is_disabled": 0, "type": "electric_scooter", "lat": 38.92202233333333, "lon": -77.04009533333333, "is_reserved": 0, "fusion_lon": 0.0}, {"rental_uris": {"ios": "https://dc.lft.to/lastmile_qr_scan", "android": "https://dc.lft.to/lastmile_qr_scan"}, "fusion_lat": 0.0, "name": "142c28ea5824190f62e583a8fa35b0c9", "bike_id": "142c28ea5824190f62e583a8fa35b0c9", "is_disabled": 0, "type": "electric_scooter", "lat": 38.89937483333333, "lon": -77.02696666666667, "is_reserved": 0, "fusion_lon": 0.0}, {"rental_uris": {"ios": "https://dc.lft.to/lastmile_qr_scan", "android": "https://dc.lft.to/lastmile_qr_scan"}, "fusion_lat": 0.0, "name": "f1721c4d08933c4dcbc2982bfeb81a42", "bike_id": "f1721c4d08933c4dcbc2982bfeb81a42", "is_disabled": 0, "type": "electric_scooter", "lat": 38.9169105, "lon": -77.026889, "is_reserved": 0, "fusion_lon": 0.0}, {"rental_uris": {"ios": "https://dc.lft.to/lastmile_qr_scan", "android": "https://dc.lft.to/lastmile_qr_scan"}, "fusion_lat": 0.0, "name": "7f433c412c3cd8b5591e528612dfdc3a", "bike_id": "7f433c412c3cd8b5591e528612dfdc3a", "is_disabled": 0, "type": "electric_scooter", "lat": 38.918161, "lon": -77.02720533333333, "is_reserved": 0, "fusion_lon": 0.0}, {"rental_uris": {"ios": "https://dc.lft.to/lastmile_qr_scan", "android": "https://dc.lft.to/lastmile_qr_scan"}, "fusion_lat": 0.0, "name": "ea0adfd693e03dba842ad8b60183fe63", "bike_id": "ea0adfd693e03dba842ad8b60183fe63", "is_disabled": 0, "type": "electric_scooter", "lat": 38.898439, "lon": -76.9463675, "is_reserved": 0, "fusion_lon": 0.0}, {"rental_uris": {"ios": "https://dc.lft.to/lastmile_qr_scan", "android": "https://dc.lft.to/lastmile_qr_scan"}, "fusion_lat": 0.0, "name": "fe147c9c177882722deb598f0aedb923", "bike_id": "fe147c9c177882722deb598f0aedb923", "is_disabled": 0, "type": "electric_scooter", "lat": 38.918034666666664, "lon": -77.040325, "is_reserved": 0, "fusion_lon": 0.0}, {"rental_uris": {"ios": "https://dc.lft.to/lastmile_qr_scan", "android": "https://dc.lft.to/lastmile_qr_scan"}, "fusion_lat": 0.0, "name": "f9d4e4a2863e5633ca55a3801f7f4613", "bike_id": "f9d4e4a2863e5633ca55a3801f7f4613", "is_disabled": 0, "type": "electric_scooter", "lat": 38.915324166666664, "lon": -77.04470283333333, "is_reserved": 0, "fusion_lon": 0.0}, {"rental_uris": {"ios": "https://dc.lft.to/lastmile_qr_scan", "android": "https://dc.lft.to/lastmile_qr_scan"}, "fusion_lat": 0.0, "name": "38f28dd6b48602e36022983853695860", "bike_id": "38f28dd6b48602e36022983853695860", "is_disabled": 0, "type": "electric_scooter", "lat": 38.892249666666665, "lon": -77.04369133333333, "is_reserved": 0, "fusion_lon": 0.0}, {"rental_uris": {"ios": "https://dc.lft.to/lastmile_qr_scan", "android": "https://dc.lft.to/lastmile_qr_scan"}, "fusion_lat": 0.0, "name": "1902f2c529c954a65b9b3f47de2ce668", "bike_id": "1902f2c529c954a65b9b3f47de2ce668", "is_disabled": 0, "type": "electric_bike", "lat": 38.91278166666667, "lon": -77.07828716666667, "is_reserved": 0, "fusion_lon": 0.0}, {"rental_uris": {"ios": "https://dc.lft.to/lastmile_qr_scan", "android": "https://dc.lft.to/lastmile_qr_scan"}, "fusion_lat": 0.0, "name": "8d05a3b71169d1d1f646fea2ac72662f", "bike_id": "8d05a3b71169d1d1f646fea2ac72662f", "is_disabled": 0, "type": "electric_scooter", "lat": 38.900877666666666, "lon": -77.02089666666667, "is_reserved": 0, "fusion_lon": 0.0}, {"rental_uris": {"ios": "https://dc.lft.to/lastmile_qr_scan", "android": "https://dc.lft.to/lastmile_qr_scan"}, "fusion_lat": 0.0, "name": "97d026fdd1b30e40b74ebacb9501154a", "bike_id": "97d026fdd1b30e40b74ebacb9501154a", "is_disabled": 0, "type": "electric_scooter", "lat": 38.90787266666667, "lon": -77.04236383333334, "is_reserved": 0, "fusion_lon": 0.0}, {"rental_uris": {"ios": "https://dc.lft.to/lastmile_qr_scan", "android": "https://dc.lft.to/lastmile_qr_scan"}, "fusion_lat": 0.0, "name": "9e524a990e8d1bbfdf5fe45ac4c9c05f", "bike_id": "9e524a990e8d1bbfdf5fe45ac4c9c05f", "is_disabled": 0, "type": "electric_scooter", "lat": 38.961284, "lon": -77.02786716666667, "is_reserved": 0, "fusion_lon": 0.0}, {"rental_uris": {"ios": "https://dc.lft.to/lastmile_qr_scan", "android": "https://dc.lft.to/lastmile_qr_scan"}, "fusion_lat": 0.0, "name": "aa336ccdd5c2c19c64c702fb553cd6a8", "bike_id": "aa336ccdd5c2c19c64c702fb553cd6a8", "is_disabled": 0, "type": "electric_scooter", "lat": 38.911097166666664, "lon": -77.03083366666667, "is_reserved": 0, "fusion_lon": 0.0}, {"rental_uris": {"ios": "https://dc.lft.to/lastmile_qr_scan", "android": "https://dc.lft.to/lastmile_qr_scan"}, "fusion_lat": 0.0, "name": "42c481fb4f854069866c96b91f1acae2", "bike_id": "42c481fb4f854069866c96b91f1acae2", "is_disabled": 0, "type": "electric_bike", "lat": 38.89350566666667, "lon": -77.18744883333333, "is_reserved": 0, "fusion_lon": 0.0}, {"rental_uris": {"ios": "https://dc.lft.to/lastmile_qr_scan", "android": "https://dc.lft.to/lastmile_qr_scan"}, "fusion_lat": 0.0, "name": "149b5e6e88736ce06949a5e21c9c6c81", "bike_id": "149b5e6e88736ce06949a5e21c9c6c81", "is_disabled": 0, "type": "electric_scooter", "lat": 38.9172135, "lon": -77.03651783333333, "is_reserved": 0, "fusion_lon": 0.0}, {"rental_uris": {"ios": "https://dc.lft.to/lastmile_qr_scan", "android": "https://dc.lft.to/lastmile_qr_scan"}, "fusion_lat": 0.0, "name": "9366fd4d049bc316decff868838dddda", "bike_id": "9366fd4d049bc316decff868838dddda", "is_disabled": 0, "type": "electric_scooter", "lat": 38.9324275, "lon": -77.03856566666667, "is_reserved": 0, "fusion_lon": 0.0}, {"rental_uris": {"ios": "https://dc.lft.to/lastmile_qr_scan", "android": "https://dc.lft.to/lastmile_qr_scan"}, "fusion_lat": 0.0, "name": "230bdb04d00702ae46c52ea33bcdba32", "bike_id": "230bdb04d00702ae46c52ea33bcdba32", "is_disabled": 0, "type": "electric_scooter", "lat": 38.915502000000004, "lon": -77.038727, "is_reserved": 0, "fusion_lon": 0.0}, {"rental_uris": {"ios": "https://dc.lft.to/lastmile_qr_scan", "android": "https://dc.lft.to/lastmile_qr_scan"}, "fusion_lat": 0.0, "name": "4da664067b8be98f175a4dfa39b2d317", "bike_id": "4da664067b8be98f175a4dfa39b2d317", "is_disabled": 0, "type": "electric_scooter", "lat": 38.89930583333334, "lon": -77.03292533333334, "is_reserved": 0, "fusion_lon": 0.0}, {"rental_uris": {"ios": "https://dc.lft.to/lastmile_qr_scan", "android": "https://dc.lft.to/lastmile_qr_scan"}, "fusion_lat": 0.0, "name": "35f1b2675acbf2a9b2cc36829b4f6848", "bike_id": "35f1b2675acbf2a9b2cc36829b4f6848", "is_disabled": 0, "type": "electric_scooter", "lat": 38.88148183333333, "lon": -77.01284466666667, "is_reserved": 0, "fusion_lon": 0.0}, {"rental_uris": {"ios": "https://dc.lft.to/lastmile_qr_scan", "android": "https://dc.lft.to/lastmile_qr_scan"}, "fusion_lat": 0.0, "name": "b808dc21b6946423ae398c30f5d41ca9", "bike_id": "b808dc21b6946423ae398c30f5d41ca9", "is_disabled": 0, "type": "electric_scooter", "lat": 38.91778166666667, "lon": -77.023432, "is_reserved": 0, "fusion_lon": 0.0}, {"rental_uris": {"ios": "https://dc.lft.to/lastmile_qr_scan", "android": "https://dc.lft.to/lastmile_qr_scan"}, "fusion_lat": 0.0, "name": "767f9f857c512f5199b5adc2e5773b43", "bike_id": "767f9f857c512f5199b5adc2e5773b43", "is_disabled": 0, "type": "electric_scooter", "lat": 38.869571666666666, "lon": -76.96681266666667, "is_reserved": 0, "fusion_lon": 0.0}, {"rental_uris": {"ios": "https://dc.lft.to/lastmile_qr_scan", "android": "https://dc.lft.to/lastmile_qr_scan"}, "fusion_lat": 0.0, "name": "b8e855655a031d2f3122abae0da49065", "bike_id": "b8e855655a031d2f3122abae0da49065", "is_disabled": 0, "type": "electric_bike", "lat": 38.8638805, "lon": -76.98991916666667, "is_reserved": 0, "fusion_lon": 0.0}, {"rental_uris": {"ios": "https://dc.lft.to/lastmile_qr_scan", "android": "https://dc.lft.to/lastmile_qr_scan"}, "fusion_lat": 0.0, "name": "dd7ba70969ed9c5df4eaf880e2bcba2e", "bike_id": "dd7ba70969ed9c5df4eaf880e2bcba2e", "is_disabled": 0, "type": "electric_scooter", "lat": 38.95428316666667, "lon": -77.02760633333334, "is_reserved": 0, "fusion_lon": 0.0}, {"rental_uris": {"ios": "https://dc.lft.to/lastmile_qr_scan", "android": "https://dc.lft.to/lastmile_qr_scan"}, "fusion_lat": 0.0, "name": "4fe49668f76278067ee32426511b2840", "bike_id": "4fe49668f76278067ee32426511b2840", "is_disabled": 0, "type": "electric_scooter", "lat": 38.88731516666667, "lon": -77.02827316666666, "is_reserved": 0, "fusion_lon": 0.0}, {"rental_uris": {"ios": "https://dc.lft.to/lastmile_qr_scan", "android": "https://dc.lft.to/lastmile_qr_scan"}, "fusion_lat": 0.0, "name": "3c4824ff861d81a6dae84f976ae8e615", "bike_id": "3c4824ff861d81a6dae84f976ae8e615", "is_disabled": 0, "type": "electric_scooter", "lat": 38.9319235, "lon": -77.0331295, "is_reserved": 0, "fusion_lon": 0.0}, {"rental_uris": {"ios": "https://dc.lft.to/lastmile_qr_scan", "android": "https://dc.lft.to/lastmile_qr_scan"}, "fusion_lat": 0.0, "name": "8ea5b580db535a708dbb9c024e8899de", "bike_id": "8ea5b580db535a708dbb9c024e8899de", "is_disabled": 0, "type": "electric_bike", "lat": 38.9627825, "lon": -76.98297716666667, "is_reserved": 0, "fusion_lon": 0.0}, {"rental_uris": {"ios": "https://dc.lft.to/lastmile_qr_scan", "android": "https://dc.lft.to/lastmile_qr_scan"}, "fusion_lat": 0.0, "name": "8439c3d5ec2f93050267e6cab949cd4e", "bike_id": "8439c3d5ec2f93050267e6cab949cd4e", "is_disabled": 0, "type": "electric_scooter", "lat": 38.9355605, "lon": -77.02228466666666, "is_reserved": 0, "fusion_lon": 0.0}, {"rental_uris": {"ios": "https://dc.lft.to/lastmile_qr_scan", "android": "https://dc.lft.to/lastmile_qr_scan"}, "fusion_lat": 0.0, "name": "54d985c687e6b7167c3dca9b67a52334", "bike_id": "54d985c687e6b7167c3dca9b67a52334", "is_disabled": 0, "type": "electric_scooter", "lat": 38.9068095, "lon": -77.02699666666666, "is_reserved": 0, "fusion_lon": 0.0}, {"rental_uris": {"ios": "https://dc.lft.to/lastmile_qr_scan", "android": "https://dc.lft.to/lastmile_qr_scan"}, "fusion_lat": 0.0, "name": "7922e2fdb57c96f8acab7c9bdabb3067", "bike_id": "7922e2fdb57c96f8acab7c9bdabb3067", "is_disabled": 0, "type": "electric_scooter", "lat": 38.877929, "lon": -76.9942, "is_reserved": 0, "fusion_lon": 0.0}, {"rental_uris": {"ios": "https://dc.lft.to/lastmile_qr_scan", "android": "https://dc.lft.to/lastmile_qr_scan"}, "fusion_lat": 0.0, "name": "c30de840c014eb757be4e2f795b87450", "bike_id": "c30de840c014eb757be4e2f795b87450", "is_disabled": 0, "type": "electric_scooter", "lat": 38.895276833333334, "lon": -76.94893216666667, "is_reserved": 0, "fusion_lon": 0.0}, {"rental_uris": {"ios": "https://dc.lft.to/lastmile_qr_scan", "android": "https://dc.lft.to/lastmile_qr_scan"}, "fusion_lat": 0.0, "name": "ed4084543118b76bdea83ae53eb97f02", "bike_id": "ed4084543118b76bdea83ae53eb97f02", "is_disabled": 0, "type": "electric_scooter", "lat": 38.93512416666667, "lon": -77.03353466666667, "is_reserved": 0, "fusion_lon": 0.0}, {"rental_uris": {"ios": "https://dc.lft.to/lastmile_qr_scan", "android": "https://dc.lft.to/lastmile_qr_scan"}, "fusion_lat": 0.0, "name": "15e2b73e083b4c182dc5bf4370e79176", "bike_id": "15e2b73e083b4c182dc5bf4370e79176", "is_disabled": 0, "type": "electric_scooter", "lat": 38.906715, "lon": -77.02711383333333, "is_reserved": 0, "fusion_lon": 0.0}, {"rental_uris": {"ios": "https://dc.lft.to/lastmile_qr_scan", "android": "https://dc.lft.to/lastmile_qr_scan"}, "fusion_lat": 0.0, "name": "73cb5e0e04a8e7cabd994f585bbaa7ab", "bike_id": "73cb5e0e04a8e7cabd994f585bbaa7ab", "is_disabled": 0, "type": "electric_scooter", "lat": 38.93857783333333, "lon": -77.0309475, "is_reserved": 0, "fusion_lon": 0.0}, {"rental_uris": {"ios": "https://dc.lft.to/lastmile_qr_scan", "android": "https://dc.lft.to/lastmile_qr_scan"}, "fusion_lat": 0.0, "name": "81bf0fe83de7e28b3aa9a28368ad41d2", "bike_id": "81bf0fe83de7e28b3aa9a28368ad41d2", "is_disabled": 0, "type": "electric_bike", "lat": 38.885789333333335, "lon": -77.060771, "is_reserved": 0, "fusion_lon": 0.0}, {"rental_uris": {"ios": "https://dc.lft.to/lastmile_qr_scan", "android": "https://dc.lft.to/lastmile_qr_scan"}, "fusion_lat": 0.0, "name": "3cd3c230bed3989a2916d2a86afddb5b", "bike_id": "3cd3c230bed3989a2916d2a86afddb5b", "is_disabled": 0, "type": "electric_scooter", "lat": 38.932136666666665, "lon": -77.03370733333334, "is_reserved": 0, "fusion_lon": 0.0}, {"rental_uris": {"ios": "https://dc.lft.to/lastmile_qr_scan", "android": "https://dc.lft.to/lastmile_qr_scan"}, "fusion_lat": 0.0, "name": "9a418dabf060935ff77720bc741a0732", "bike_id": "9a418dabf060935ff77720bc741a0732", "is_disabled": 0, "type": "electric_scooter", "lat": 38.91117216666667, "lon": -77.02201216666667, "is_reserved": 0, "fusion_lon": 0.0}, {"rental_uris": {"ios": "https://dc.lft.to/lastmile_qr_scan", "android": "https://dc.lft.to/lastmile_qr_scan"}, "fusion_lat": 0.0, "name": "72742d4ecf9ea6f7e01fef4971b677bc", "bike_id": "72742d4ecf9ea6f7e01fef4971b677bc", "is_disabled": 0, "type": "electric_scooter", "lat": 38.907835, "lon": -77.032955, "is_reserved": 0, "fusion_lon": 0.0}, {"rental_uris": {"ios": "https://dc.lft.to/lastmile_qr_scan", "android": "https://dc.lft.to/lastmile_qr_scan"}, "fusion_lat": 0.0, "name": "f9eca477af97a7d6612ee16b9b90cc6f", "bike_id": "f9eca477af97a7d6612ee16b9b90cc6f", "is_disabled": 0, "type": "electric_scooter", "lat": 38.9002785, "lon": -77.01167616666666, "is_reserved": 0, "fusion_lon": 0.0}, {"rental_uris": {"ios": "https://dc.lft.to/lastmile_qr_scan", "android": "https://dc.lft.to/lastmile_qr_scan"}, "fusion_lat": 0.0, "name": "e7f02741177fd9e9102b49a39a9b9bb0", "bike_id": "e7f02741177fd9e9102b49a39a9b9bb0", "is_disabled": 0, "type": "electric_bike", "lat": 39.03043616666667, "lon": -77.09484716666667, "is_reserved": 0, "fusion_lon": 0.0}, {"rental_uris": {"ios": "https://dc.lft.to/lastmile_qr_scan", "android": "https://dc.lft.to/lastmile_qr_scan"}, "fusion_lat": 0.0, "name": "bfc96acb7bc5cf0ba36c475b557a83af", "bike_id": "bfc96acb7bc5cf0ba36c475b557a83af", "is_disabled": 0, "type": "electric_scooter", "lat": 38.892185, "lon": -77.02657433333333, "is_reserved": 0, "fusion_lon": 0.0}, {"rental_uris": {"ios": "https://dc.lft.to/lastmile_qr_scan", "android": "https://dc.lft.to/lastmile_qr_scan"}, "fusion_lat": 0.0, "name": "2d250631036932b24e284a65b6b3c3a0", "bike_id": "2d250631036932b24e284a65b6b3c3a0", "is_disabled": 0, "type": "electric_bike", "lat": 39.02428666666667, "lon": -77.1310425, "is_reserved": 0, "fusion_lon": 0.0}, {"rental_uris": {"ios": "https://dc.lft.to/lastmile_qr_scan", "android": "https://dc.lft.to/lastmile_qr_scan"}, "fusion_lat": 0.0, "name": "a5d35b7654069534c35918ade93137c0", "bike_id": "a5d35b7654069534c35918ade93137c0", "is_disabled": 0, "type": "electric_scooter", "lat": 38.9611585, "lon": -77.02848266666666, "is_reserved": 0, "fusion_lon": 0.0}, {"rental_uris": {"ios": "https://dc.lft.to/lastmile_qr_scan", "android": "https://dc.lft.to/lastmile_qr_scan"}, "fusion_lat": 0.0, "name": "155e5d86dd902df08b4da863a1311c02", "bike_id": "155e5d86dd902df08b4da863a1311c02", "is_disabled": 0, "type": "electric_scooter", "lat": 38.8811575, "lon": -76.998541, "is_reserved": 0, "fusion_lon": 0.0}, {"rental_uris": {"ios": "https://dc.lft.to/lastmile_qr_scan", "android": "https://dc.lft.to/lastmile_qr_scan"}, "fusion_lat": 0.0, "name": "ce55838db80f737622c974272dfe1ca7", "bike_id": "ce55838db80f737622c974272dfe1ca7", "is_disabled": 0, "type": "electric_scooter", "lat": 38.88111816666667, "lon": -77.01650333333333, "is_reserved": 0, "fusion_lon": 0.0}, {"rental_uris": {"ios": "https://dc.lft.to/lastmile_qr_scan", "android": "https://dc.lft.to/lastmile_qr_scan"}, "fusion_lat": 0.0, "name": "edd500b34e9e99ae6b84b5b069e0d1a0", "bike_id": "edd500b34e9e99ae6b84b5b069e0d1a0", "is_disabled": 0, "type": "electric_scooter", "lat": 38.9214955, "lon": -77.02427783333333, "is_reserved": 0, "fusion_lon": 0.0}, {"rental_uris": {"ios": "https://dc.lft.to/lastmile_qr_scan", "android": "https://dc.lft.to/lastmile_qr_scan"}, "fusion_lat": 0.0, "name": "4de92138f865f2a28a854d90f11d3780", "bike_id": "4de92138f865f2a28a854d90f11d3780", "is_disabled": 0, "type": "electric_scooter", "lat": 38.870713, "lon": -76.96866633333333, "is_reserved": 0, "fusion_lon": 0.0}, {"rental_uris": {"ios": "https://dc.lft.to/lastmile_qr_scan", "android": "https://dc.lft.to/lastmile_qr_scan"}, "fusion_lat": 0.0, "name": "59d03d9072401bfd5c117514985c02eb", "bike_id": "59d03d9072401bfd5c117514985c02eb", "is_disabled": 0, "type": "electric_scooter", "lat": 38.914400666666666, "lon": -77.021594, "is_reserved": 0, "fusion_lon": 0.0}, {"rental_uris": {"ios": "https://dc.lft.to/lastmile_qr_scan", "android": "https://dc.lft.to/lastmile_qr_scan"}, "fusion_lat": 0.0, "name": "78786d941a360f54d1c4927c60e95557", "bike_id": "78786d941a360f54d1c4927c60e95557", "is_disabled": 0, "type": "electric_scooter", "lat": 38.898813833333335, "lon": -77.02938016666667, "is_reserved": 0, "fusion_lon": 0.0}, {"rental_uris": {"ios": "https://dc.lft.to/lastmile_qr_scan", "android": "https://dc.lft.to/lastmile_qr_scan"}, "fusion_lat": 0.0, "name": "7d2fa754d84659fd4a4d1cd74125eb2d", "bike_id": "7d2fa754d84659fd4a4d1cd74125eb2d", "is_disabled": 0, "type": "electric_scooter", "lat": 38.907891666666664, "lon": -77.00958216666666, "is_reserved": 0, "fusion_lon": 0.0}, {"rental_uris": {"ios": "https://dc.lft.to/lastmile_qr_scan", "android": "https://dc.lft.to/lastmile_qr_scan"}, "fusion_lat": 0.0, "name": "0312e18f94356874294cfc38a2670d42", "bike_id": "0312e18f94356874294cfc38a2670d42", "is_disabled": 0, "type": "electric_scooter", "lat": 38.907956, "lon": -77.03441933333333, "is_reserved": 0, "fusion_lon": 0.0}, {"rental_uris": {"ios": "https://dc.lft.to/lastmile_qr_scan", "android": "https://dc.lft.to/lastmile_qr_scan"}, "fusion_lat": 0.0, "name": "e9681f2615e34350be80c5853088440a", "bike_id": "e9681f2615e34350be80c5853088440a", "is_disabled": 0, "type": "electric_scooter", "lat": 38.9086085, "lon": -77.04623066666667, "is_reserved": 0, "fusion_lon": 0.0}, {"rental_uris": {"ios": "https://dc.lft.to/lastmile_qr_scan", "android": "https://dc.lft.to/lastmile_qr_scan"}, "fusion_lat": 0.0, "name": "cc6e4afcb7596e000b74b91afe7ac55d", "bike_id": "cc6e4afcb7596e000b74b91afe7ac55d", "is_disabled": 0, "type": "electric_scooter", "lat": 38.844314833333335, "lon": -76.99781533333334, "is_reserved": 0, "fusion_lon": 0.0}, {"rental_uris": {"ios": "https://dc.lft.to/lastmile_qr_scan", "android": "https://dc.lft.to/lastmile_qr_scan"},