{"data": {"bikes": [{"rental_uris": {"android": "https://dc.lft.to/lastmile_qr_scan", "ios": "https://dc.lft.to/lastmile_qr_scan"}, "type": "electric_bike", "lon": -76.92343016666666, "name": "f6a05b5d47dcaa50261699f2ec381a62", "bike_id": "f6a05b5d47dcaa50261699f2ec381a62", "fusion_lat": 0.0, "is_reserved": 0, "lat": 38.887913833333336, "fusion_lon": 0.0, "is_disabled": 0}, {"rental_uris": {"android": "https://dc.lft.to/lastmile_qr_scan", "ios": "https://dc.lft.to/lastmile_qr_scan"}, "type": "electric_bike", "lon": -77.025125, "name": "bebe60bfc504b479b1e1d1ad3f84a3bc", "bike_id": "bebe60bfc504b479b1e1d1ad3f84a3bc", "fusion_lat": 0.0, "is_reserved": 0, "lat": 38.9341675, "fusion_lon": 0.0, "is_disabled": 0}, {"rental_uris": {"android": "https://dc.lft.to/lastmile_qr_scan", "ios": "https://dc.lft.to/lastmile_qr_scan"}, "type": "electric_scooter", "lon": -77.00183, "name": "d0eee8b894beb64d5fdd3694c909c214", "bike_id": "d0eee8b894beb64d5fdd3694c909c214", "fusion_lat": 0.0, "is_reserved": 0, "lat": 38.900158166666664, "fusion_lon": 0.0, "is_disabled": 0}, {"rental_uris": {"android": "https://dc.lft.to/lastmile_qr_scan", "ios": "https://dc.lft.to/lastmile_qr_scan"}, "type": "electric_scooter", "lon": -76.99029966666667, "name": "92a1b5223ba9c7015fd6b5b1b26777c4", "bike_id": "92a1b5223ba9c7015fd6b5b1b26777c4", "fusion_lat": 0.0, "is_reserved": 0, "lat": 38.86404516666666, "fusion_lon": 0.0, "is_disabled": 0}, {"rental_uris": {"android": "https://dc.lft.to/lastmile_qr_scan", "ios": "https://dc.lft.to/lastmile_qr_scan"}, "type": "electric_scooter", "lon": -77.04965916666667, "name": "b67faf0c114500a73d26b6c8e4e24f31", "bike_id": "b67faf0c114500a73d26b6c8e4e24f31", "fusion_lat": 0.0, "is_reserved": 0, "lat": 38.912567833333334, "fusion_lon": 0.0, "is_disabled": 0}, {"rental_uris": {"android": "https://dc.lft.to/lastmile_qr_scan", "ios": "https://dc.lft.to/lastmile_qr_scan"}, "type": "electric_scooter", "lon": -77.03241066666666, "name": "023db744109bf6a0d56cc2082d435e29", "bike_id": "023db744109bf6a0d56cc2082d435e29", "fusion_lat": 0.0, "is_reserved": 0, "lat": 38.93876066666667, "fusion_lon": 0.0, "is_disabled": 0}, {"rental_uris": {"android": "https://dc.lft.to/lastmile_qr_scan", "ios": "https://dc.lft.to/lastmile_qr_scan"}, "type": "electric_scooter", "lon": -77.023424, "name": "a4e2d3bae24592a2d2783e95dc5703d8", "bike_id": "a4e2d3bae24592a2d2783e95dc5703d8", "fusion_lat": 0.0, "is_reserved": 0, "lat": 38.929783, "fusion_lon": 0.0, "is_disabled": 0}, {"rental_uris": {"android": "https://dc.lft.to/lastmile_qr_scan", "ios": "https://dc.lft.to/lastmile_qr_scan"}, "type": "electric_scooter", "lon": -77.02850133333334, "name": "26a8b541f4b3b17a0deccfda502073ef", "bike_id": "26a8b541f4b3b17a0deccfda502073ef", "fusion_lat": 0.0, "is_reserved": 0, "lat": 38.92763166666667, "fusion_lon": 0.0, "is_disabled": 0}, {"rental_uris": {"android": "https://dc.lft.to/lastmile_qr_scan", "ios": "https://dc.lft.to/lastmile_qr_scan"}, "type": "electric_scooter", "lon": -77.03260566666667, "name": "84d61a11d2c2134b692a64ff653549a9", "bike_id": "84d61a11d2c2134b692a64ff653549a9", "fusion_lat": 0.0, "is_reserved": 0, "lat": 38.919285333333335, "fusion_lon": 0.0, "is_disabled": 0}, {"rental_uris": {"android": "https://dc.lft.to/lastmile_qr_scan", "ios": "https://dc.lft.to/lastmile_qr_scan"}, "type": "electric_scooter", "lon": -76.986978, "name": "2325f3ff9f0a1289f6559a10739af6b7", "bike_id": "2325f3ff9f0a1289f6559a10739af6b7", "fusion_lat": 0.0, "is_reserved": 0, "lat": 38.9070735, "fusion_lon": 0.0, "is_disabled": 0}, {"rental_uris": {"android": "https://dc.lft.to/lastmile_qr_scan", "ios": "https://dc.lft.to/lastmile_qr_scan"}, "type": "electric_scooter", "lon": -77.03446983333333, "name": "dcc12df297e1ce7e8e5f57bf29492354", "bike_id": "dcc12df297e1ce7e8e5f57bf29492354", "fusion_lat": 0.0, "is_reserved": 0, "lat": 38.90629, "fusion_lon": 0.0, "is_disabled": 0}, {"rental_uris": {"android": "https://dc.lft.to/lastmile_qr_scan", "ios": "https://dc.lft.to/lastmile_qr_scan"}, "type": "electric_scooter", "lon": -77.0112645, "name": "b51f52d0f1784f7e85c339a38db542aa", "bike_id": "b51f52d0f1784f7e85c339a38db542aa", "fusion_lat": 0.0, "is_reserved": 0, "lat": 38.903639166666665, "fusion_lon": 0.0, "is_disabled": 0}, {"rental_uris": {"android": "https://dc.lft.to/lastmile_qr_scan", "ios": "https://dc.lft.to/lastmile_qr_scan"}, "type": "electric_bike", "lon": -76.94961266666667, "name": "14603cd4fe034a95c2b8dcf71eb4669a", "bike_id": "14603cd4fe034a95c2b8dcf71eb4669a", "fusion_lat": 0.0, "is_reserved": 0, "lat": 38.93503533333333, "fusion_lon": 0.0, "is_disabled": 0}, {"rental_uris": {"android": "https://dc.lft.to/lastmile_qr_scan", "ios": "https://dc.lft.to/lastmile_qr_scan"}, "type": "electric_scooter", "lon": -77.0347665, "name": "b910ae13dd11a70fb15435396e952cac", "bike_id": "b910ae13dd11a70fb15435396e952cac", "fusion_lat": 0.0, "is_reserved": 0, "lat": 38.91120733333333, "fusion_lon": 0.0, "is_disabled": 0}, {"rental_uris": {"android": "https://dc.lft.to/lastmile_qr_scan", "ios": "https://dc.lft.to/lastmile_qr_scan"}, "type": "electric_scooter", "lon": -76.99513366666666, "name": "4269584a1a72a1baeee589d227227e79", "bike_id": "4269584a1a72a1baeee589d227227e79", "fusion_lat": 0.0, "is_reserved": 0, "lat": 38.877785333333335, "fusion_lon": 0.0, "is_disabled": 0}, {"rental_uris": {"android": "https://dc.lft.to/lastmile_qr_scan", "ios": "https://dc.lft.to/lastmile_qr_scan"}, "type": "electric_scooter", "lon": -77.0019595, "name": "76bbd80ab965dcdd47f56d815183b1d0", "bike_id": "76bbd80ab965dcdd47f56d815183b1d0", "fusion_lat": 0.0, "is_reserved": 0, "lat": 38.89341433333333, "fusion_lon": 0.0, "is_disabled": 0}, {"rental_uris": {"android": "https://dc.lft.to/lastmile_qr_scan", "ios": "https://dc.lft.to/lastmile_qr_scan"}, "type": "electric_scooter", "lon": -77.025141, "name": "49ec0970adfff33eae393fd14968a8f9", "bike_id": "49ec0970adfff33eae393fd14968a8f9", "fusion_lat": 0.0, "is_reserved": 0, "lat": 38.901612666666665, "fusion_lon": 0.0, "is_disabled": 0}, {"rental_uris": {"android": "https://dc.lft.to/lastmile_qr_scan", "ios": "https://dc.lft.to/lastmile_qr_scan"}, "type": "electric_scooter", "lon": -76.94637, "name": "dceed5cec8ab36c1633f60bf072bd7a6", "bike_id": "dceed5cec8ab36c1633f60bf072bd7a6", "fusion_lat": 0.0, "is_reserved": 0, "lat": 38.898447, "fusion_lon": 0.0, "is_disabled": 0}, {"rental_uris": {"android": "https://dc.lft.to/lastmile_qr_scan", "ios": "https://dc.lft.to/lastmile_qr_scan"}, "type": "electric_scooter", "lon": -77.02357433333333, "name": "ddb728d39889e7ac578384221a5bb3e7", "bike_id": "ddb728d39889e7ac578384221a5bb3e7", "fusion_lat": 0.0, "is_reserved": 0, "lat": 38.89221516666667, "fusion_lon": 0.0, "is_disabled": 0}, {"rental_uris": {"android": "https://dc.lft.to/lastmile_qr_scan", "ios": "https://dc.lft.to/lastmile_qr_scan"}, "type": "electric_scooter", "lon": -77.04149883333334, "name": "7c465509e408a8355fcf8fa3c1f02365", "bike_id": "7c465509e408a8355fcf8fa3c1f02365", "fusion_lat": 0.0, "is_reserved": 0, "lat": 38.917518666666666, "fusion_lon": 0.0, "is_disabled": 0}, {"rental_uris": {"android": "https://dc.lft.to/lastmile_qr_scan", "ios": "https://dc.lft.to/lastmile_qr_scan"}, "type": "electric_scooter", "lon": -77.03214333333334, "name": "dddbdef2a40ed5f65aec3ed6ba5bcce7", "bike_id": "dddbdef2a40ed5f65aec3ed6ba5bcce7", "fusion_lat": 0.0, "is_reserved": 0, "lat": 38.892208333333336, "fusion_lon": 0.0, "is_disabled": 0}, {"rental_uris": {"android": "https://dc.lft.to/lastmile_qr_scan", "ios": "https://dc.lft.to/lastmile_qr_scan"}, "type": "electric_scooter", "lon": -77.03203866666666, "name": "92d184123206817c88161c3710f2c4bf", "bike_id": "92d184123206817c88161c3710f2c4bf", "fusion_lat": 0.0, "is_reserved": 0, "lat": 38.92203416666667, "fusion_lon": 0.0, "is_disabled": 0}, {"rental_uris": {"android": "https://dc.lft.to/lastmile_qr_scan", "ios": "https://dc.lft.to/lastmile_qr_scan"}, "type": "electric_scooter", "lon": -76.99482966666666, "name": "38489bc0b3e46b849002eb542314140e", "bike_id": "38489bc0b3e46b849002eb542314140e", "fusion_lat": 0.0, "is_reserved": 0, "lat": 38.877371, "fusion_lon": 0.0, "is_disabled": 0}, {"rental_uris": {"android": "https://dc.lft.to/lastmile_qr_scan", "ios": "https://dc.lft.to/lastmile_qr_scan"}, "type": "electric_scooter", "lon": -77.02160466666666, "name": "fe03fba70706c84775f94245b504e739", "bike_id": "fe03fba70706c84775f94245b504e739", "fusion_lat": 0.0, "is_reserved": 0, "lat": 38.8849715, "fusion_lon": 0.0, "is_disabled": 0}, {"rental_uris": {"android": "https://dc.lft.to/lastmile_qr_scan", "ios": "https://dc.lft.to/lastmile_qr_scan"}, "type": "electric_scooter", "lon": -77.04173916666667, "name": "b76b8afa81fede01a5723b67e8225145", "bike_id": "b76b8afa81fede01a5723b67e8225145", "fusion_lat": 0.0, "is_reserved": 0, "lat": 38.913430166666664, "fusion_lon": 0.0, "is_disabled": 0}, {"rental_uris": {"android": "https://dc.lft.to/lastmile_qr_scan", "ios": "https://dc.lft.to/lastmile_qr_scan"}, "type": "electric_scooter", "lon": -77.002377, "name": "65cca22e74ce11d27f8bebc6e07d817e", "bike_id": "65cca22e74ce11d27f8bebc6e07d817e", "fusion_lat": 0.0, "is_reserved": 0, "lat": 38.87496016666667, "fusion_lon": 0.0, "is_disabled": 0}, {"rental_uris": {"android": "https://dc.lft.to/lastmile_qr_scan", "ios": "https://dc.lft.to/lastmile_qr_scan"}, "type": "electric_bike", "lon": -77.10995866666667, "name": "3c9fc6c40f53ea1fa6754ed976356c14", "bike_id": "3c9fc6c40f53ea1fa6754ed976356c14", "fusion_lat": 0.0, "is_reserved": 0, "lat": 38.87055466666666, "fusion_lon": 0.0, "is_disabled": 0}, {"rental_uris": {"android": "https://dc.lft.to/lastmile_qr_scan", "ios": "https://dc.lft.to/lastmile_qr_scan"}, "type": "electric_scooter", "lon": -77.03296483333334, "name": "5da06a43280665f0d70eb59aa477f9ab", "bike_id": "5da06a43280665f0d70eb59aa477f9ab", "fusion_lat": 0.0, "is_reserved": 0, "lat": 38.95650716666667, "fusion_lon": 0.0, "is_disabled": 0}, {"rental_uris": {"android": "https://dc.lft.to/lastmile_qr_scan", "ios": "https://dc.lft.to/lastmile_qr_scan"}, "type": "electric_scooter", "lon": -76.98994383333333, "name": "8ed60facbac6333d8edd744af69af02b", "bike_id": "8ed60facbac6333d8edd744af69af02b", "fusion_lat": 0.0, "is_reserved": 0, "lat": 38.86443966666667, "fusion_lon": 0.0, "is_disabled": 0}, {"rental_uris": {"android": "https://dc.lft.to/lastmile_qr_scan", "ios": "https://dc.lft.to/lastmile_qr_scan"}, "type": "electric_scooter", "lon": -77.03477633333334, "name": "cf0aafd8823f1f6ab65c7a307a0da323", "bike_id": "cf0aafd8823f1f6ab65c7a307a0da323", "fusion_lat": 0.0, "is_reserved": 0, "lat": 38.90306916666667, "fusion_lon": 0.0, "is_disabled": 0}, {"rental_uris": {"android": "https://dc.lft.to/lastmile_qr_scan", "ios": "https://dc.lft.to/lastmile_qr_scan"}, "type": "electric_scooter", "lon": -77.013099, "name": "60f55bd6a17cc031491902f1c9e54823", "bike_id": "60f55bd6a17cc031491902f1c9e54823", "fusion_lat": 0.0, "is_reserved": 0, "lat": 38.907405, "fusion_lon": 0.0, "is_disabled": 0}, {"rental_uris": {"android": "https://dc.lft.to/lastmile_qr_scan", "ios": "https://dc.lft.to/lastmile_qr_scan"}, "type": "electric_scooter", "lon": -76.99566666666666, "name": "852b5bc4452c2ead6cae3cd41cda0e23", "bike_id": "852b5bc4452c2ead6cae3cd41cda0e23", "fusion_lat": 0.0, "is_reserved": 0, "lat": 38.920175, "fusion_lon": 0.0, "is_disabled": 0}, {"rental_uris": {"android": "https://dc.lft.to/lastmile_qr_scan", "ios": "https://dc.lft.to/lastmile_qr_scan"}, "type": "electric_scooter", "lon": -77.02784033333333, "name": "e6a46cfd743eac7b200cd68c31ee0d78", "bike_id": "e6a46cfd743eac7b200cd68c31ee0d78", "fusion_lat": 0.0, "is_reserved": 0, "lat": 38.90275666666667, "fusion_lon": 0.0, "is_disabled": 0}, {"rental_uris": {"android": "https://dc.lft.to/lastmile_qr_scan", "ios": "https://dc.lft.to/lastmile_qr_scan"}, "type": "electric_scooter", "lon": -77.00758133333333, "name": "68756f70a68015c32bd5f18874cb449b", "bike_id": "68756f70a68015c32bd5f18874cb449b", "fusion_lat": 0.0, "is_reserved": 0, "lat": 38.900531, "fusion_lon": 0.0, "is_disabled": 0}, {"rental_uris": {"android": "https://dc.lft.to/lastmile_qr_scan", "ios": "https://dc.lft.to/lastmile_qr_scan"}, "type": "electric_scooter", "lon": -77.01559983333334, "name": "ff431dbe57a78facc699fc1b781043ce", "bike_id": "ff431dbe57a78facc699fc1b781043ce", "fusion_lat": 0.0, "is_reserved": 0, "lat": 38.91374833333333, "fusion_lon": 0.0, "is_disabled": 0}, {"rental_uris": {"android": "https://dc.lft.to/lastmile_qr_scan", "ios": "https://dc.lft.to/lastmile_qr_scan"}, "type": "electric_scooter", "lon": -77.03182116666666, "name": "c7f458f852db738de9af87d2ab58e82a", "bike_id": "c7f458f852db738de9af87d2ab58e82a", "fusion_lat": 0.0, "is_reserved": 0, "lat": 38.8865795, "fusion_lon": 0.0, "is_disabled": 0}, {"rental_uris": {"android": "https://dc.lft.to/lastmile_qr_scan", "ios": "https://dc.lft.to/lastmile_qr_scan"}, "type": "electric_scooter", "lon": -77.0175235, "name": "158143f295be4170d796ca69f40c4b29", "bike_id": "158143f295be4170d796ca69f40c4b29", "fusion_lat": 0.0, "is_reserved": 0, "lat": 38.913395333333334, "fusion_lon": 0.0, "is_disabled": 0}, {"rental_uris": {"android": "https://dc.lft.to/lastmile_qr_scan", "ios": "https://dc.lft.to/lastmile_qr_scan"}, "type": "electric_scooter", "lon": -77.021604, "name": "d5cdeacfea941a47960f359552a1b6a4", "bike_id": "d5cdeacfea941a47960f359552a1b6a4", "fusion_lat": 0.0, "is_reserved": 0, "lat": 38.92603533333333, "fusion_lon": 0.0, "is_disabled": 0}, {"rental_uris": {"android": "https://dc.lft.to/lastmile_qr_scan", "ios": "https://dc.lft.to/lastmile_qr_scan"}, "type": "electric_scooter", "lon": -76.992056, "name": "e50338cb28b0f2a31b6b49a2ca096704", "bike_id": "e50338cb28b0f2a31b6b49a2ca096704", "fusion_lat": 0.0, "is_reserved": 0, "lat": 38.895183833333334, "fusion_lon": 0.0, "is_disabled": 0}, {"rental_uris": {"android": "https://dc.lft.to/lastmile_qr_scan", "ios": "https://dc.lft.to/lastmile_qr_scan"}, "type": "electric_bike", "lon": -76.905384, "name": "23a8c27bd30b6ad8d47075a43832f177", "bike_id": "23a8c27bd30b6ad8d47075a43832f177", "fusion_lat": 0.0, "is_reserved": 0, "lat": 38.89736283333333, "fusion_lon": 0.0, "is_disabled": 0}, {"rental_uris": {"android": "https://dc.lft.to/lastmile_qr_scan", "ios": "https://dc.lft.to/lastmile_qr_scan"}, "type": "electric_scooter", "lon": -77.04176716666667, "name": "339846a5303703006560d71cba5ed83c", "bike_id": "339846a5303703006560d71cba5ed83c", "fusion_lat": 0.0, "is_reserved": 0, "lat": 38.91147683333333, "fusion_lon": 0.0, "is_disabled": 0}, {"rental_uris": {"android": "https://dc.lft.to/lastmile_qr_scan", "ios": "https://dc.lft.to/lastmile_qr_scan"}, "type": "electric_scooter", "lon": -77.048958, "name": "30fede279fec612acc1f670026523339", "bike_id": "30fede279fec612acc1f670026523339", "fusion_lat": 0.0, "is_reserved": 0, "lat": 38.89000333333333, "fusion_lon": 0.0, "is_disabled": 0}, {"rental_uris": {"android": "https://dc.lft.to/lastmile_qr_scan", "ios": "https://dc.lft.to/lastmile_qr_scan"}, "type": "electric_scooter", "lon": -76.99166266666667, "name": "236efb20e25e4d7d018eee5dc5e9f27e", "bike_id": "236efb20e25e4d7d018eee5dc5e9f27e", "fusion_lat": 0.0, "is_reserved": 0, "lat": 38.88210816666667, "fusion_lon": 0.0, "is_disabled": 0}, {"rental_uris": {"android": "https://dc.lft.to/lastmile_qr_scan", "ios": "https://dc.lft.to/lastmile_qr_scan"}, "type": "electric_scooter", "lon": -77.03632533333334, "name": "afcf726c3a2298bc067e27d28925ad5b", "bike_id": "afcf726c3a2298bc067e27d28925ad5b", "fusion_lat": 0.0, "is_reserved": 0, "lat": 38.93053166666667, "fusion_lon": 0.0, "is_disabled": 0}, {"rental_uris": {"android": "https://dc.lft.to/lastmile_qr_scan", "ios": "https://dc.lft.to/lastmile_qr_scan"}, "type": "electric_scooter", "lon": -77.00942833333333, "name": "f32fb05a5199429fa5ba4cc1274feadc", "bike_id": "f32fb05a5199429fa5ba4cc1274feadc", "fusion_lat": 0.0, "is_reserved": 0, "lat": 38.9125855, "fusion_lon": 0.0, "is_disabled": 0}, {"rental_uris": {"android": "https://dc.lft.to/lastmile_qr_scan", "ios": "https://dc.lft.to/lastmile_qr_scan"}, "type": "electric_scooter", "lon": -77.028284, "name": "23f869c20984d92f06d17464d48f42d7", "bike_id": "23f869c20984d92f06d17464d48f42d7", "fusion_lat": 0.0, "is_reserved": 0, "lat": 38.93290183333333, "fusion_lon": 0.0, "is_disabled": 0}, {"rental_uris": {"android": "https://dc.lft.to/lastmile_qr_scan", "ios": "https://dc.lft.to/lastmile_qr_scan"}, "type": "electric_scooter", "lon": -77.01372466666666, "name": "1369d8d24df27c42f028d1b6513201d4", "bike_id": "1369d8d24df27c42f028d1b6513201d4", "fusion_lat": 0.0, "is_reserved": 0, "lat": 38.892190666666664, "fusion_lon": 0.0, "is_disabled": 0}, {"rental_uris": {"android": "https://dc.lft.to/lastmile_qr_scan", "ios": "https://dc.lft.to/lastmile_qr_scan"}, "type": "electric_scooter", "lon": -77.03214133333333, "name": "4923dc2d8bd6b3a288f656b3a94a5496", "bike_id": "4923dc2d8bd6b3a288f656b3a94a5496", "fusion_lat": 0.0, "is_reserved": 0, "lat": 38.91424583333333, "fusion_lon": 0.0, "is_disabled": 0}, {"rental_uris": {"android": "https://dc.lft.to/lastmile_qr_scan", "ios": "https://dc.lft.to/lastmile_qr_scan"}, "type": "electric_scooter", "lon": -77.02437616666667, "name": "df13b1087d5c02a17de64993569d9a58", "bike_id": "df13b1087d5c02a17de64993569d9a58", "fusion_lat": 0.0, "is_reserved": 0, "lat": 38.920557, "fusion_lon": 0.0, "is_disabled": 0}, {"rental_uris": {"android": "https://dc.lft.to/lastmile_qr_scan", "ios": "https://dc.lft.to/lastmile_qr_scan"}, "type": "electric_scooter", "lon": -77.04155866666666, "name": "527d86308e922f6ef1ed5568770a4b2e", "bike_id": "527d86308e922f6ef1ed5568770a4b2e", "fusion_lat": 0.0, "is_reserved": 0, "lat": 38.9160115, "fusion_lon": 0.0, "is_disabled": 0}, {"rental_uris": {"android": "https://dc.lft.to/lastmile_qr_scan", "ios": "https://dc.lft.to/lastmile_qr_scan"}, "type": "electric_scooter", "lon": -77.047612, "name": "1c3b642b4f674905dbbc9c81d3af541a", "bike_id": "1c3b642b4f674905dbbc9c81d3af541a", "fusion_lat": 0.0, "is_reserved": 0, "lat": 38.90537, "fusion_lon": 0.0, "is_disabled": 0}, {"rental_uris": {"android": "https://dc.lft.to/lastmile_qr_scan", "ios": "https://dc.lft.to/lastmile_qr_scan"}, "type": "electric_scooter", "lon": -77.02168283333333, "name": "064f422feb4c07446f8da5eef76b14e5", "bike_id": "064f422feb4c07446f8da5eef76b14e5", "fusion_lat": 0.0, "is_reserved": 0, "lat": 38.887441833333334, "fusion_lon": 0.0, "is_disabled": 0}, {"rental_uris": {"android": "https://dc.lft.to/lastmile_qr_scan", "ios": "https://dc.lft.to/lastmile_qr_scan"}, "type": "electric_scooter", "lon": -77.030377, "name": "65b5c1dc0b3a60a893e5154493c53a39", "bike_id": "65b5c1dc0b3a60a893e5154493c53a39", "fusion_lat": 0.0, "is_reserved": 0, "lat": 38.922471, "fusion_lon": 0.0, "is_disabled": 0}, {"rental_uris": {"android": "https://dc.lft.to/lastmile_qr_scan", "ios": "https://dc.lft.to/lastmile_qr_scan"}, "type": "electric_scooter", "lon": -77.0248505, "name": "2868f3c4dbaf5acdb73ff5d48e3862de", "bike_id": "2868f3c4dbaf5acdb73ff5d48e3862de", "fusion_lat": 0.0, "is_reserved": 0, "lat": 38.9387995, "fusion_lon": 0.0, "is_disabled": 0}, {"rental_uris": {"android": "https://dc.lft.to/lastmile_qr_scan", "ios": "https://dc.lft.to/lastmile_qr_scan"}, "type": "electric_scooter", "lon": -77.02718116666667, "name": "34c88b2d14064b3f90bbb35c21bfd102", "bike_id": "34c88b2d14064b3f90bbb35c21bfd102", "fusion_lat": 0.0, "is_reserved": 0, "lat": 38.9075315, "fusion_lon": 0.0, "is_disabled": 0}, {"rental_uris": {"android": "https://dc.lft.to/lastmile_qr_scan", "ios": "https://dc.lft.to/lastmile_qr_scan"}, "type": "electric_bike", "lon": -76.90818416666667, "name": "3cd6bd5f1af01235918f057deb89ade8", "bike_id": "3cd6bd5f1af01235918f057deb89ade8", "fusion_lat": 0.0, "is_reserved": 0, "lat": 38.9945115, "fusion_lon": 0.0, "is_disabled": 0}, {"rental_uris": {"android": "https://dc.lft.to/lastmile_qr_scan", "ios": "https://dc.lft.to/lastmile_qr_scan"}, "type": "electric_scooter", "lon": -77.06241516666667, "name": "f19bc1dc63409d04ff30a89ca02aba01", "bike_id": "f19bc1dc63409d04ff30a89ca02aba01", "fusion_lat": 0.0, "is_reserved": 0, "lat": 38.905276, "fusion_lon": 0.0, "is_disabled": 0}, {"rental_uris": {"android": "https://dc.lft.to/lastmile_qr_scan", "ios": "https://dc.lft.to/lastmile_qr_scan"}, "type": "electric_scooter", "lon": -77.03623633333333, "name": "1d8710ac85d30802e5f03b4078e7350b", "bike_id": "1d8710ac85d30802e5f03b4078e7350b", "fusion_lat": 0.0, "is_reserved": 0, "lat": 38.952868333333335, "fusion_lon": 0.0, "is_disabled": 0}, {"rental_uris": {"android": "https://dc.lft.to/lastmile_qr_scan", "ios": "https://dc.lft.to/lastmile_qr_scan"}, "type": "electric_scooter", "lon": -77.10172033333333, "name": "dad12ff92659e1020be9aa1ed8166bce", "bike_id": "dad12ff92659e1020be9aa1ed8166bce", "fusion_lat": 0.0, "is_reserved": 0, "lat": 38.925509166666664, "fusion_lon": 0.0, "is_disabled": 0}, {"rental_uris": {"android": "https://dc.lft.to/lastmile_qr_scan", "ios": "https://dc.lft.to/lastmile_qr_scan"}, "type": "electric_bike", "lon": -76.978933, "name": "3fcfdca6702b2e9afcc361f1e031d513", "bike_id": "3fcfdca6702b2e9afcc361f1e031d513", "fusion_lat": 0.0, "is_reserved": 0, "lat": 38.8549115, "fusion_lon": 0.0, "is_disabled": 0}, {"rental_uris": {"android": "https://dc.lft.to/lastmile_qr_scan", "ios": "https://dc.lft.to/lastmile_qr_scan"}, "type": "electric_scooter", "lon": -76.99463816666666, "name": "a3b466c7d685138f4062a0ca6a134360", "bike_id": "a3b466c7d685138f4062a0ca6a134360", "fusion_lat": 0.0, "is_reserved": 0, "lat": 38.86223233333333, "fusion_lon": 0.0, "is_disabled": 0}, {"rental_uris": {"android": "https://dc.lft.to/lastmile_qr_scan", "ios": "https://dc.lft.to/lastmile_qr_scan"}, "type": "electric_scooter", "lon": -76.98719566666666, "name": "3a90b3e32c5b539dc5fdf8a5022d26d2", "bike_id": "3a90b3e32c5b539dc5fdf8a5022d26d2", "fusion_lat": 0.0, "is_reserved": 0, "lat": 38.8993435, "fusion_lon": 0.0, "is_disabled": 0}, {"rental_uris": {"android": "https://dc.lft.to/lastmile_qr_scan", "ios": "https://dc.lft.to/lastmile_qr_scan"}, "type": "electric_scooter", "lon": -77.032915, "name": "69c4c5f497b8ebf3a7f34439780d2148", "bike_id": "69c4c5f497b8ebf3a7f34439780d2148", "fusion_lat": 0.0, "is_reserved": 0, "lat": 38.95640566666667, "fusion_lon": 0.0, "is_disabled": 0}, {"rental_uris": {"android": "https://dc.lft.to/lastmile_qr_scan", "ios": "https://dc.lft.to/lastmile_qr_scan"}, "type": "electric_scooter", "lon": -77.04660266666667, "name": "46ed00e779b8763686179467f0dbe13d", "bike_id": "46ed00e779b8763686179467f0dbe13d", "fusion_lat": 0.0, "is_reserved": 0, "lat": 38.892426, "fusion_lon": 0.0, "is_disabled": 0}, {"rental_uris": {"android": "https://dc.lft.to/lastmile_qr_scan", "ios": "https://dc.lft.to/lastmile_qr_scan"}, "type": "electric_scooter", "lon": -77.03075916666667, "name": "5cdd6001221376d9595113534e1b2e8e", "bike_id": "5cdd6001221376d9595113534e1b2e8e", "fusion_lat": 0.0, "is_reserved": 0, "lat": 38.8996425, "fusion_lon": 0.0, "is_disabled": 0}, {"rental_uris": {"android": "https://dc.lft.to/lastmile_qr_scan", "ios": "https://dc.lft.to/lastmile_qr_scan"}, "type": "electric_scooter", "lon": -77.00658666666666, "name": "52305d66ed9e601c5ec9777e18329284", "bike_id": "52305d66ed9e601c5ec9777e18329284", "fusion_lat": 0.0, "is_reserved": 0, "lat": 38.87660916666667, "fusion_lon": 0.0, "is_disabled": 0}, {"rental_uris": {"android": "https://dc.lft.to/lastmile_qr_scan", "ios": "https://dc.lft.to/lastmile_qr_scan"}, "type": "electric_scooter", "lon": -77.02951866666666, "name": "f9d126f5d65b3821da977984f99964e0", "bike_id": "f9d126f5d65b3821da977984f99964e0", "fusion_lat": 0.0, "is_reserved": 0, "lat": 38.893406, "fusion_lon": 0.0, "is_disabled": 0}, {"rental_uris": {"android": "https://dc.lft.to/lastmile_qr_scan", "ios": "https://dc.lft.to/lastmile_qr_scan"}, "type": "electric_scooter", "lon": -76.92407783333333, "name": "fb5fc0e4b386b9be42af4f755751657f", "bike_id": "fb5fc0e4b386b9be42af4f755751657f", "fusion_lat": 0.0, "is_reserved": 0, "lat": 38.88985133333333, "fusion_lon": 0.0, "is_disabled": 0}, {"rental_uris": {"android": "https://dc.lft.to/lastmile_qr_scan", "ios": "https://dc.lft.to/lastmile_qr_scan"}, "type": "electric_scooter", "lon": -77.00577083333333, "name": "53d14129abb68ca6647ca2f65ec64271", "bike_id": "53d14129abb68ca6647ca2f65ec64271", "fusion_lat": 0.0, "is_reserved": 0, "lat": 38.88533783333333, "fusion_lon": 0.0, "is_disabled": 0}, {"rental_uris": {"android": "https://dc.lft.to/lastmile_qr_scan", "ios": "https://dc.lft.to/lastmile_qr_scan"}, "type": "electric_bike", "lon": -76.93416333333333, "name": "88a25fa2fdba9d6566e15c061e26212e", "bike_id": "88a25fa2fdba9d6566e15c061e26212e", "fusion_lat": 0.0, "is_reserved": 0, "lat": 38.94625333333333, "fusion_lon": 0.0, "is_disabled": 0}, {"rental_uris": {"android": "https://dc.lft.to/lastmile_qr_scan", "ios": "https://dc.lft.to/lastmile_qr_scan"}, "type": "electric_scooter", "lon": -77.0270015, "name": "f378e447dc789831c6fd5cbe1993e2e8", "bike_id": "f378e447dc789831c6fd5cbe1993e2e8", "fusion_lat": 0.0, "is_reserved": 0, "lat": 38.89934183333333, "fusion_lon": 0.0, "is_disabled": 0}, {"rental_uris": {"android": "https://dc.lft.to/lastmile_qr_scan", "ios": "https://dc.lft.to/lastmile_qr_scan"}, "type": "electric_scooter", "lon": -77.032894, "name": "b6e93ad181f81954d60dab29190a59a9", "bike_id": "b6e93ad181f81954d60dab29190a59a9", "fusion_lat": 0.0, "is_reserved": 0, "lat": 38.93098783333333, "fusion_lon": 0.0, "is_disabled": 0}, {"rental_uris": {"android": "https://dc.lft.to/lastmile_qr_scan", "ios": "https://dc.lft.to/lastmile_qr_scan"}, "type": "electric_scooter", "lon": -77.0498745, "name": "41b1521199bf39509fb9d6674c60ab72", "bike_id": "41b1521199bf39509fb9d6674c60ab72", "fusion_lat": 0.0, "is_reserved": 0, "lat": 38.901162, "fusion_lon": 0.0, "is_disabled": 0}, {"rental_uris": {"android": "https://dc.lft.to/lastmile_qr_scan", "ios": "https://dc.lft.to/lastmile_qr_scan"}, "type": "electric_scooter", "lon": -77.05295733333334, "name": "b73ae342b4f07112c798e75b782e3d1e", "bike_id": "b73ae342b4f07112c798e75b782e3d1e", "fusion_lat": 0.0, "is_reserved": 0, "lat": 38.927916833333335, "fusion_lon": 0.0, "is_disabled": 0}, {"rental_uris": {"android": "https://dc.lft.to/lastmile_qr_scan", "ios": "https://dc.lft.to/lastmile_qr_scan"}, "type": "electric_scooter", "lon": -76.990084, "name": "d59f720a29e310cbe1b33d1d9816b842", "bike_id": "d59f720a29e310cbe1b33d1d9816b842", "fusion_lat": 0.0, "is_reserved": 0, "lat": 38.865039833333334, "fusion_lon": 0.0, "is_disabled": 0}, {"rental_uris": {"android": "https://dc.lft.to/lastmile_qr_scan", "ios": "https://dc.lft.to/lastmile_qr_scan"}, "type": "electric_scooter", "lon": -77.02861266666666, "name": "f03b28d837aeda1282ee543e53b0b718", "bike_id": "f03b28d837aeda1282ee543e53b0b718", "fusion_lat": 0.0, "is_reserved": 0, "lat": 38.92219583333333, "fusion_lon": 0.0, "is_disabled": 0}, {"rental_uris": {"android": "https://dc.lft.to/lastmile_qr_scan", "ios": "https://dc.lft.to/lastmile_qr_scan"}, "type": "electric_scooter", "lon": -77.0223075, "name": "19359b334ae726148d9bfd5b40f5f7f8", "bike_id": "19359b334ae726148d9bfd5b40f5f7f8", "fusion_lat": 0.0, "is_reserved": 0, "lat": 38.88767566666667, "fusion_lon": 0.0, "is_disabled": 0}, {"rental_uris": {"android": "https://dc.lft.to/lastmile_qr_scan", "ios": "https://dc.lft.to/lastmile_qr_scan"}, "type": "electric_scooter", "lon": -76.934302, "name": "200b5676a49e2d3d04d9ab64bfa2dbef", "bike_id": "200b5676a49e2d3d04d9ab64bfa2dbef", "fusion_lat": 0.0, "is_reserved": 0, "lat": 38.89962216666667, "fusion_lon": 0.0, "is_disabled": 0}, {"rental_uris": {"android": "https://dc.lft.to/lastmile_qr_scan", "ios": "https://dc.lft.to/lastmile_qr_scan"}, "type": "electric_scooter", "lon": -76.94858683333334, "name": "5475a45834dd8cac9a680042320eb99f", "bike_id": "5475a45834dd8cac9a680042320eb99f", "fusion_lat": 0.0, "is_reserved": 0, "lat": 38.895805, "fusion_lon": 0.0, "is_disabled": 0}, {"rental_uris": {"android": "https://dc.lft.to/lastmile_qr_scan", "ios": "https://dc.lft.to/lastmile_qr_scan"}, "type": "electric_scooter", "lon": -77.0319645, "name": "e388cd6f17f29ecf564e04624153718e", "bike_id": "e388cd6f17f29ecf564e04624153718e", "fusion_lat": 0.0, "is_reserved": 0, "lat": 38.907671666666666, "fusion_lon": 0.0, "is_disabled": 0}, {"rental_uris": {"android": "https://dc.lft.to/lastmile_qr_scan", "ios": "https://dc.lft.to/lastmile_qr_scan"}, "type": "electric_scooter", "lon": -77.03890133333333, "name": "41bed41709dc08e7839c9a4808ece50c", "bike_id": "41bed41709dc08e7839c9a4808ece50c", "fusion_lat": 0.0, "is_reserved": 0, "lat": 38.9221885, "fusion_lon": 0.0, "is_disabled": 0}, {"rental_uris": {"android": "https://dc.lft.to/lastmile_qr_scan", "ios": "https://dc.lft.to/lastmile_qr_scan"}, "type": "electric_bike", "lon": -76.99543133333333, "name": "a8281c37fe21b045de777aa9d6557aa9", "bike_id": "a8281c37fe21b045de777aa9d6557aa9", "fusion_lat": 0.0, "is_reserved": 0, "lat": 38.9003045, "fusion_lon": 0.0, "is_disabled": 0}, {"rental_uris": {"android": "https://dc.lft.to/lastmile_qr_scan", "ios": "https://dc.lft.to/lastmile_qr_scan"}, "type": "electric_scooter", "lon": -77.03862783333334, "name": "ab9a72973b790aa8790c572e71a16da5", "bike_id": "ab9a72973b790aa8790c572e71a16da5", "fusion_lat": 0.0, "is_reserved": 0, "lat": 38.9067525, "fusion_lon": 0.0, "is_disabled": 0}, {"rental_uris": {"android": "https://dc.lft.to/lastmile_qr_scan", "ios": "https://dc.lft.to/lastmile_qr_scan"}, "type": "electric_scooter", "lon": -76.98728133333333, "name": "a2ff4bfa16c7dfe78cac378df417fca4", "bike_id": "a2ff4bfa16c7dfe78cac378df417fca4", "fusion_lat": 0.0, "is_reserved": 0, "lat": 38.86717866666667, "fusion_lon": 0.0, "is_disabled": 0}, {"rental_uris": {"android": "https://dc.lft.to/lastmile_qr_scan", "ios": "https://dc.lft.to/lastmile_qr_scan"}, "type": "electric_scooter", "lon": -77.02302833333333, "name": "fc252b82c9dca342c668cbfcd50ba53a", "bike_id": "fc252b82c9dca342c668cbfcd50ba53a", "fusion_lat": 0.0, "is_reserved": 0, "lat": 38.90888733333333, "fusion_lon": 0.0, "is_disabled": 0}, {"rental_uris": {"android": "https://dc.lft.to/lastmile_qr_scan", "ios": "https://dc.lft.to/lastmile_qr_scan"}, "type": "electric_scooter", "lon": -77.02491733333333, "name": "d824f2316952225158160b03b39ba169", "bike_id": "d824f2316952225158160b03b39ba169", "fusion_lat": 0.0, "is_reserved": 0, "lat": 38.9328785, "fusion_lon": 0.0, "is_disabled": 0}, {"rental_uris": {"android": "https://dc.lft.to/lastmile_qr_scan", "ios": "https://dc.lft.to/lastmile_qr_scan"}, "type": "electric_scooter", "lon": -76.98030483333334, "name": "6c3f29f2392e9499aacf858f7275337f", "bike_id": "6c3f29f2392e9499aacf858f7275337f", "fusion_lat": 0.0, "is_reserved": 0, "lat": 38.857321666666664, "fusion_lon": 0.0, "is_disabled": 0}, {"rental_uris": {"android": "https://dc.lft.to/lastmile_qr_scan", "ios": "https://dc.lft.to/lastmile_qr_scan"}, "type": "electric_scooter", "lon": -77.0281615, "name": "ffc178486544940027ec927bfa6531a2", "bike_id": "ffc178486544940027ec927bfa6531a2", "fusion_lat": 0.0, "is_reserved": 0, "lat": 38.914121, "fusion_lon": 0.0, "is_disabled": 0}, {"rental_uris": {"android": "https://dc.lft.to/lastmile_qr_scan", "ios": "https://dc.lft.to/lastmile_qr_scan"}, "type": "electric_scooter", "lon": -76.99607133333333, "name": "b3c6ba95a0cdc3ca11823461cb4313ce", "bike_id": "b3c6ba95a0cdc3ca11823461cb4313ce", "fusion_lat": 0.0, "is_reserved": 0, "lat": 38.9033435, "fusion_lon": 0.0, "is_disabled": 0}, {"rental_uris": {"android": "https://dc.lft.to/lastmile_qr_scan", "ios": "https://dc.lft.to/lastmile_qr_scan"}, "type": "electric_scooter", "lon": -77.0498225, "name": "fd6969e0bfbe7378f7d5c801840d7c19", "bike_id": "fd6969e0bfbe7378f7d5c801840d7c19", "fusion_lat": 0.0, "is_reserved": 0, "lat": 38.905204, "fusion_lon": 0.0, "is_disabled": 0}, {"rental_uris": {"android": "https://dc.lft.to/lastmile_qr_scan", "ios": "https://dc.lft.to/lastmile_qr_scan"}, "type": "electric_scooter", "lon": -77.02982133333333, "name": "5117005bf33e4ef10959b97d5bd392e6", "bike_id": "5117005bf33e4ef10959b97d5bd392e6", "fusion_lat": 0.0, "is_reserved": 0, "lat": 38.92538183333333, "fusion_lon": 0.0, "is_disabled": 0}, {"rental_uris": {"android": "https://dc.lft.to/lastmile_qr_scan", "ios": "https://dc.lft.to/lastmile_qr_scan"}, "type": "electric_scooter", "lon": -76.94985366666667, "name": "1d664a96d2cf640f8efe08e20fd7a256", "bike_id": "1d664a96d2cf640f8efe08e20fd7a256", "fusion_lat": 0.0, "is_reserved": 0, "lat": 38.89434716666667, "fusion_lon": 0.0, "is_disabled": 0}, {"rental_uris": {"android": "https://dc.lft.to/lastmile_qr_scan", "ios": "https://dc.lft.to/lastmile_qr_scan"}, "type": "electric_scooter", "lon": -76.99090766666667, "name": "bb0b81b1125bb43cbd9b12903905f953", "bike_id": "bb0b81b1125bb43cbd9b12903905f953", "fusion_lat": 0.0, "is_reserved": 0, "lat": 38.8624035, "fusion_lon": 0.0, "is_disabled": 0}, {"rental_uris": {"android": "https://dc.lft.to/lastmile_qr_scan", "ios": "https://dc.lft.to/lastmile_qr_scan"}, "type": "electric_scooter", "lon": -77.03378233333333, "name": "1045a18897586aae3f3697b4921de749", "bike_id": "1045a18897586aae3f3697b4921de749", "fusion_lat": 0.0, "is_reserved": 0, "lat": 38.90976, "fusion_lon": 0.0, "is_disabled": 0}, {"rental_uris": {"android": "https://dc.lft.to/lastmile_qr_scan", "ios": "https://dc.lft.to/lastmile_qr_scan"}, "type": "electric_scooter", "lon": -77.03866783333334, "name": "6f1437ad47c82b069213800ec56fe21d", "bike_id": "6f1437ad47c82b069213800ec56fe21d", "fusion_lat": 0.0, "is_reserved": 0, "lat": 38.91119616666667, "fusion_lon": 0.0, "is_disabled": 0}, {"rental_uris": {"android": "https://dc.lft.to/lastmile_qr_scan", "ios": "https://dc.lft.to/lastmile_qr_scan"}, "type": "electric_scooter", "lon": -77.03635716666666, "name": "701434003b5670de572f411f2d99381a", "bike_id": "701434003b5670de572f411f2d99381a", "fusion_lat": 0.0, "is_reserved": 0, "lat": 38.90270783333333, "fusion_lon": 0.0, "is_disabled": 0}, {"rental_uris": {"android": "https://dc.lft.to/lastmile_qr_scan", "ios": "https://dc.lft.to/lastmile_qr_scan"}, "type": "electric_scooter", "lon": -77.025081, "name": "f8749509ca16443d38ebea90742d0e21", "bike_id": "f8749509ca16443d38ebea90742d0e21", "fusion_lat": 0.0, "is_reserved": 0, "lat": 38.9239965, "fusion_lon": 0.0, "is_disabled": 0}, {"rental_uris": {"android": "https://dc.lft.to/lastmile_qr_scan", "ios": "https://dc.lft.to/lastmile_qr_scan"}, "type": "electric_scooter", "lon": -76.99081283333334, "name": "0a9a210633ac4714be359c605d511ec7", "bike_id": "0a9a210633ac4714be359c605d511ec7", "fusion_lat": 0.0, "is_reserved": 0, "lat": 38.84288133333333, "fusion_lon": 0.0, "is_disabled": 0}, {"rental_uris": {"android": "https://dc.lft.to/lastmile_qr_scan", "ios": "https://dc.lft.to/lastmile_qr_scan"}, "type": "electric_scooter", "lon": -77.0204065, "name": "2e9f8c7f53f25be320c75145d644837e", "bike_id": "2e9f8c7f53f25be320c75145d644837e", "fusion_lat": 0.0, "is_reserved": 0, "lat": 38.89267316666667, "fusion_lon": 0.0, "is_disabled": 0}, {"rental_uris": {"android": "https://dc.lft.to/lastmile_qr_scan", "ios": "https://dc.lft.to/lastmile_qr_scan"}, "type": "electric_bike", "lon": -76.94771966666667, "name": "a0c6e0736417675b8e4e15ff3b0d38b2", "bike_id": "a0c6e0736417675b8e4e15ff3b0d38b2", "fusion_lat": 0.0, "is_reserved": 0, "lat": 38.896248, "fusion_lon": 0.0, "is_disabled": 0}, {"rental_uris": {"android": "https://dc.lft.to/lastmile_qr_scan", "ios": "https://dc.lft.to/lastmile_qr_scan"}, "type": "electric_scooter", "lon": -77.0215625, "name": "d4c7df7fa7de3d3bd94f9336ecfffb87", "bike_id": "d4c7df7fa7de3d3bd94f9336ecfffb87", "fusion_lat": 0.0, "is_reserved": 0, "lat": 38.87914683333333, "fusion_lon": 0.0, "is_disabled": 0}, {"rental_uris": {"android": "https://dc.lft.to/lastmile_qr_scan", "ios": "https://dc.lft.to/lastmile_qr_scan"}, "type": "electric_scooter", "lon": -76.98462683333334, "name": "c9d7c402881263d69e77aefe53395e43", "bike_id": "c9d7c402881263d69e77aefe53395e43", "fusion_lat": 0.0, "is_reserved": 0, "lat": 38.893677833333335, "fusion_lon": 0.0, "is_disabled": 0}, {"rental_uris": {"android": "https://dc.lft.to/lastmile_qr_scan", "ios": "https://dc.lft.to/lastmile_qr_scan"}, "type": "electric_bike", "lon": -77.043984, "name": "101a5b00803368b2cec08c5b76ab6eec", "bike_id": "101a5b00803368b2cec08c5b76ab6eec", "fusion_lat": 0.0, "is_reserved": 0, "lat": 38.924422166666666, "fusion_lon": 0.0, "is_disabled": 0}, {"rental_uris": {"android": "https://dc.lft.to/lastmile_qr_scan", "ios": "https://dc.lft.to/lastmile_qr_scan"}, "type": "electric_scooter", "lon": -77.037475, "name": "0b3cd25d24f16337a0854d38ed485e2d", "bike_id": "0b3cd25d24f16337a0854d38ed485e2d", "fusion_lat": 0.0, "is_reserved": 0, "lat": 38.902299, "fusion_lon": 0.0, "is_disabled": 0}, {"rental_uris": {"android": "https://dc.lft.to/lastmile_qr_scan", "ios": "https://dc.lft.to/lastmile_qr_scan"}, "type": "electric_scooter", "lon": -77.01900866666666, "name": "9d457621c787811d004ba42b38461b35", "bike_id": "9d457621c787811d004ba42b38461b35", "fusion_lat": 0.0, "is_reserved": 0, "lat": 38.939189666666664, "fusion_lon": 0.0, "is_disabled": 0}, {"rental_uris": {"android": "https://dc.lft.to/lastmile_qr_scan", "ios": "https://dc.lft.to/lastmile_qr_scan"}, "type": "electric_bike", "lon": -77.05037366666667, "name": "bb226dc40506ead6f4e4a31b867cb790", "bike_id": "bb226dc40506ead6f4e4a31b867cb790", "fusion_lat": 0.0, "is_reserved": 0, "lat": 38.911136166666665, "fusion_lon": 0.0, "is_disabled": 0}, {"rental_uris": {"android": "https://dc.lft.to/lastmile_qr_scan", "ios": "https://dc.lft.to/lastmile_qr_scan"}, "type": "electric_scooter", "lon": -77.03353433333334, "name": "3da4cb2404c04646dc86539c1fe77baf", "bike_id": "3da4cb2404c04646dc86539c1fe77baf", "fusion_lat": 0.0, "is_reserved": 0, "lat": 38.922594333333336, "fusion_lon": 0.0, "is_disabled": 0}, {"rental_uris": {"android": "https://dc.lft.to/lastmile_qr_scan", "ios": "https://dc.lft.to/lastmile_qr_scan"}, "type": "electric_bike", "lon": -77.091632, "name": "69a7f7bbf95b131b74a3a6df57d3b42b", "bike_id": "69a7f7bbf95b131b74a3a6df57d3b42b", "fusion_lat": 0.0, "is_reserved": 0, "lat": 38.96766366666667, "fusion_lon": 0.0, "is_disabled": 0}, {"rental_uris": {"android": "https://dc.lft.to/lastmile_qr_scan", "ios": "https://dc.lft.to/lastmile_qr_scan"}, "type": "electric_scooter", "lon": -77.03731833333333, "name": "ff754a21f0bbcdd9601d46a883b7467a", "bike_id": "ff754a21f0bbcdd9601d46a883b7467a", "fusion_lat": 0.0, "is_reserved": 0, "lat": 38.91809533333333, "fusion_lon": 0.0, "is_disabled": 0}, {"rental_uris": {"android": "https://dc.lft.to/lastmile_qr_scan", "ios": "https://dc.lft.to/lastmile_qr_scan"}, "type": "electric_scooter", "lon": -77.03121816666666, "name": "1d0858637aae9ff94abff2fb94cf60f8", "bike_id": "1d0858637aae9ff94abff2fb94cf60f8", "fusion_lat": 0.0, "is_reserved": 0, "lat": 38.97373916666667, "fusion_lon": 0.0, "is_disabled": 0}, {"rental_uris": {"android": "https://dc.lft.to/lastmile_qr_scan", "ios": "https://dc.lft.to/lastmile_qr_scan"}, "type": "electric_scooter", "lon": -77.04656383333334, "name": "420c83867654ac815bc03b89bff40b88", "bike_id": "420c83867654ac815bc03b89bff40b88", "fusion_lat": 0.0, "is_reserved": 0, "lat": 38.89299316666666, "fusion_lon": 0.0, "is_disabled": 0}, {"rental_uris": {"android": "https://dc.lft.to/lastmile_qr_scan", "ios": "https://dc.lft.to/lastmile_qr_scan"}, "type": "electric_scooter", "lon": -77.044248, "name": "35c8fb735d1daf321f4b2ea53b0b1920", "bike_id": "35c8fb735d1daf321f4b2ea53b0b1920", "fusion_lat": 0.0, "is_reserved": 0, "lat": 38.8743585, "fusion_lon": 0.0, "is_disabled": 0}, {"rental_uris": {"android": "https://dc.lft.to/lastmile_qr_scan", "ios": "https://dc.lft.to/lastmile_qr_scan"}, "type": "electric_scooter", "lon": -76.966649, "name": "0d2f74a2c829bf8b4df7674c06bba76b", "bike_id": "0d2f74a2c829bf8b4df7674c06bba76b", "fusion_lat": 0.0, "is_reserved": 0, "lat": 38.85889366666667, "fusion_lon": 0.0, "is_disabled": 0}, {"rental_uris": {"android": "https://dc.lft.to/lastmile_qr_scan", "ios": "https://dc.lft.to/lastmile_qr_scan"}, "type": "electric_scooter", "lon": -77.01854383333334, "name": "1ddf12ccf956291ab21551d2b3a3d74b", "bike_id": "1ddf12ccf956291ab21551d2b3a3d74b", "fusion_lat": 0.0, "is_reserved": 0, "lat": 38.919934166666664, "fusion_lon": 0.0, "is_disabled": 0}, {"rental_uris": {"android": "https://dc.lft.to/lastmile_qr_scan", "ios": "https://dc.lft.to/lastmile_qr_scan"}, "type": "electric_scooter", "lon": -77.030388, "name": "8c566ac552d3fc5bbb7e429f3e5c80f2", "bike_id": "8c566ac552d3fc5bbb7e429f3e5c80f2", "fusion_lat": 0.0, "is_reserved": 0, "lat": 38.9398405, "fusion_lon": 0.0, "is_disabled": 0}, {"rental_uris": {"android": "https://dc.lft.to/lastmile_qr_scan", "ios": "https://dc.lft.to/lastmile_qr_scan"}, "type": "electric_scooter", "lon": -77.02159383333333, "name": "45a4d574e4043e9d63ad5407085f8f95", "bike_id": "45a4d574e4043e9d63ad5407085f8f95", "fusion_lat": 0.0, "is_reserved": 0, "lat": 38.926052, "fusion_lon": 0.0, "is_disabled": 0}, {"rental_uris": {"android": "https://dc.lft.to/lastmile_qr_scan", "ios": "https://dc.lft.to/lastmile_qr_scan"}, "type": "electric_scooter", "lon": -77.032046, "name": "9003cd1487f6bf76e7a65603ff5d6b3d", "bike_id": "9003cd1487f6bf76e7a65603ff5d6b3d", "fusion_lat": 0.0, "is_reserved": 0, "lat": 38.93966866666667, "fusion_lon": 0.0, "is_disabled": 0}, {"rental_uris": {"android": "https://dc.lft.to/lastmile_qr_scan", "ios": "https://dc.lft.to/lastmile_qr_scan"}, "type": "electric_scooter", "lon": -77.06763116666667, "name": "3b855619677dab05e65d1c6e1047a372", "bike_id": "3b855619677dab05e65d1c6e1047a372", "fusion_lat": 0.0, "is_reserved": 0, "lat": 38.949674, "fusion_lon": 0.0, "is_disabled": 0}, {"rental_uris": {"android": "https://dc.lft.to/lastmile_qr_scan", "ios": "https://dc.lft.to/lastmile_qr_scan"}, "type": "electric_bike", "lon": -76.9722065, "name": "d56a136c5363754d2e43f25f14f6986c", "bike_id": "d56a136c5363754d2e43f25f14f6986c", "fusion_lat": 0.0, "is_reserved": 0, "lat": 38.84485766666667, "fusion_lon": 0.0, "is_disabled": 0}, {"rental_uris": {"android": "https://dc.lft.to/lastmile_qr_scan", "ios": "https://dc.lft.to/lastmile_qr_scan"}, "type": "electric_scooter", "lon": -77.02052, "name": "311c40e43a7536191d377446f1febd34", "bike_id": "311c40e43a7536191d377446f1febd34", "fusion_lat": 0.0, "is_reserved": 0, "lat": 38.958695666666664, "fusion_lon": 0.0, "is_disabled": 0}, {"rental_uris": {"android": "https://dc.lft.to/lastmile_qr_scan", "ios": "https://dc.lft.to/lastmile_qr_scan"}, "type": "electric_scooter", "lon": -77.04545133333333, "name": "7bb907435699637d16d335438a1f9462", "bike_id": "7bb907435699637d16d335438a1f9462", "fusion_lat": 0.0, "is_reserved": 0, "lat": 38.920532333333334, "fusion_lon": 0.0, "is_disabled": 0}, {"rental_uris": {"android": "https://dc.lft.to/lastmile_qr_scan", "ios": "https://dc.lft.to/lastmile_qr_scan"}, "type": "electric_scooter", "lon": -77.0327765, "name": "1f1028afb3a27541eb4cea540211657f", "bike_id": "1f1028afb3a27541eb4cea540211657f", "fusion_lat": 0.0, "is_reserved": 0, "lat": 38.91263133333333, "fusion_lon": 0.0, "is_disabled": 0}, {"rental_uris": {"android": "https://dc.lft.to/lastmile_qr_scan", "ios": "https://dc.lft.to/lastmile_qr_scan"}, "type": "electric_bike", "lon": -76.90951666666666, "name": "b878acf7f7317ca2fd9cd1798673f651", "bike_id": "b878acf7f7317ca2fd9cd1798673f651", "fusion_lat": 0.0, "is_reserved": 0, "lat": 38.854209166666664, "fusion_lon": 0.0, "is_disabled": 0}, {"rental_uris": {"android": "https://dc.lft.to/lastmile_qr_scan", "ios": "https://dc.lft.to/lastmile_qr_scan"}, "type": "electric_scooter", "lon": -76.93755116666667, "name": "bea5264e20e90b6093ad103328062e46", "bike_id": "bea5264e20e90b6093ad103328062e46", "fusion_lat": 0.0, "is_reserved": 0, "lat": 38.8904045, "fusion_lon": 0.0, "is_disabled": 0}, {"rental_uris": {"android": "https://dc.lft.to/lastmile_qr_scan", "ios": "https://dc.lft.to/lastmile_qr_scan"}, "type": "electric_scooter", "lon": -77.0034805, "name": "03cfe300d20a5204e484479869587c9f", "bike_id": "03cfe300d20a5204e484479869587c9f", "fusion_lat": 0.0, "is_reserved": 0, "lat": 38.922688666666666, "fusion_lon": 0.0, "is_disabled": 0}, {"rental_uris": {"android": "https://dc.lft.to/lastmile_qr_scan", "ios": "https://dc.lft.to/lastmile_qr_scan"}, "type": "electric_scooter", "lon": -77.04340816666667, "name": "fb3fa98f2b5b2a477bd4b88c3df03d62", "bike_id": "fb3fa98f2b5b2a477bd4b88c3df03d62", "fusion_lat": 0.0, "is_reserved": 0, "lat": 38.90711833333334, "fusion_lon": 0.0, "is_disabled": 0}, {"rental_uris": {"android": "https://dc.lft.to/lastmile_qr_scan", "ios": "https://dc.lft.to/lastmile_qr_scan"}, "type": "electric_scooter", "lon": -77.034736, "name": "becf8fcef28c0eb2e83a966aa6c0faa1", "bike_id": "becf8fcef28c0eb2e83a966aa6c0faa1", "fusion_lat": 0.0, "is_reserved": 0, "lat": 38.931018, "fusion_lon": 0.0, "is_disabled": 0}, {"rental_uris": {"android": "https://dc.lft.to/lastmile_qr_scan", "ios": "https://dc.lft.to/lastmile_qr_scan"}, "type": "electric_scooter", "lon": -77.0656815, "name": "20ce0bc0129da846f4d1d43797361e59", "bike_id": "20ce0bc0129da846f4d1d43797361e59", "fusion_lat": 0.0, "is_reserved": 0, "lat": 38.905259666666666, "fusion_lon": 0.0, "is_disabled": 0}, {"rental_uris": {"android": "https://dc.lft.to/lastmile_qr_scan", "ios": "https://dc.lft.to/lastmile_qr_scan"}, "type": "electric_scooter", "lon": -77.06790516666666, "name": "3351e1b1458d4208fa557c4b9733c140", "bike_id": "3351e1b1458d4208fa557c4b9733c140", "fusion_lat": 0.0, "is_reserved": 0, "lat": 38.905142833333336, "fusion_lon": 0.0, "is_disabled": 0}, {"rental_uris": {"android": "https://dc.lft.to/lastmile_qr_scan", "ios": "https://dc.lft.to/lastmile_qr_scan"}, "type": "electric_scooter", "lon": -77.04116683333334, "name": "37bb0f85d6e76589bc6e9aa8295047c3", "bike_id": "37bb0f85d6e76589bc6e9aa8295047c3", "fusion_lat": 0.0, "is_reserved": 0, "lat": 38.9346915, "fusion_lon": 0.0, "is_disabled": 0}, {"rental_uris": {"android": "https://dc.lft.to/lastmile_qr_scan", "ios": "https://dc.lft.to/lastmile_qr_scan"}, "type": "electric_scooter", "lon": -77.04165933333333, "name": "7b0b1cd012eab359a1cb40df4be4668b", "bike_id": "7b0b1cd012eab359a1cb40df4be4668b", "fusion_lat": 0.0, "is_reserved": 0, "lat": 38.913483, "fusion_lon": 0.0, "is_disabled": 0}, {"rental_uris": {"android": "https://dc.lft.to/lastmile_qr_scan", "ios": "https://dc.lft.to/lastmile_qr_scan"}, "type": "electric_bike", "lon": -77.02377266666667, "name": "fa005546e53fb59523a811324ef5c16c", "bike_id": "fa005546e53fb59523a811324ef5c16c", "fusion_lat": 0.0, "is_reserved": 0, "lat": 38.952988500000004, "fusion_lon": 0.0, "is_disabled": 0}, {"rental_uris": {"android": "https://dc.lft.to/lastmile_qr_scan", "ios": "https://dc.lft.to/lastmile_qr_scan"}, "type": "electric_scooter", "lon": -77.04137366666667, "name": "f82eb40a823d7e0de98ea41b9ffb2a96", "bike_id": "f82eb40a823d7e0de98ea41b9ffb2a96", "fusion_lat": 0.0, "is_reserved": 0, "lat": 38.921214166666665, "fusion_lon": 0.0, "is_disabled": 0}, {"rental_uris": {"android": "https://dc.lft.to/lastmile_qr_scan", "ios": "https://dc.lft.to/lastmile_qr_scan"}, "type": "electric_scooter", "lon": -77.0120285, "name": "24815c7d853a915fe26f8eee85584ccd", "bike_id": "24815c7d853a915fe26f8eee85584ccd", "fusion_lat": 0.0, "is_reserved": 0, "lat": 38.8952205, "fusion_lon": 0.0, "is_disabled": 0}, {"rental_uris": {"android": "https://dc.lft.to/lastmile_qr_scan", "ios": "https://dc.lft.to/lastmile_qr_scan"}, "type": "electric_scooter", "lon": -77.03152916666667, "name": "e515e4a2d0cad1a3e86ba38a0b4a2759", "bike_id": "e515e4a2d0cad1a3e86ba38a0b4a2759", "fusion_lat": 0.0, "is_reserved": 0, "lat": 38.928083, "fusion_lon": 0.0, "is_disabled": 0}, {"rental_uris": {"android": "https://dc.lft.to/lastmile_qr_scan", "ios": "https://dc.lft.to/lastmile_qr_scan"}, "type": "electric_scooter", "lon": -77.023452, "name": "9c1d61d32f144bc13cf2c966759e3a45", "bike_id": "9c1d61d32f144bc13cf2c966759e3a45", "fusion_lat": 0.0, "is_reserved": 0, "lat": 38.9019845, "fusion_lon": 0.0, "is_disabled": 0}, {"rental_uris": {"android": "https://dc.lft.to/lastmile_qr_scan", "ios": "https://dc.lft.to/lastmile_qr_scan"}, "type": "electric_bike", "lon": -76.938912, "name": "12eee39f605e27f59f00275b064921f2", "bike_id": "12eee39f605e27f59f00275b064921f2", "fusion_lat": 0.0, "is_reserved": 0, "lat": 38.956390666666664, "fusion_lon": 0.0, "is_disabled": 0}, {"rental_uris": {"android": "https://dc.lft.to/lastmile_qr_scan", "ios": "https://dc.lft.to/lastmile_qr_scan"}, "type": "electric_scooter", "lon": -76.934625, "name": "eca3270e3f2e9cc827dbaa0171813344", "bike_id": "eca3270e3f2e9cc827dbaa0171813344", "fusion_lat": 0.0, "is_reserved": 0, "lat": 38.9018775, "fusion_lon": 0.0, "is_disabled": 0}, {"rental_uris": {"android": "https://dc.lft.to/lastmile_qr_scan", "ios": "https://dc.lft.to/lastmile_qr_scan"}, "type": "electric_scooter", "lon": -77.02433116666667, "name": "4aabc52e4ed11bbc4a9453703a851ca9", "bike_id": "4aabc52e4ed11bbc4a9453703a851ca9", "fusion_lat": 0.0, "is_reserved": 0, "lat": 38.92061966666667, "fusion_lon": 0.0, "is_disabled": 0}, {"rental_uris": {"android": "https://dc.lft.to/lastmile_qr_scan", "ios": "https://dc.lft.to/lastmile_qr_scan"}, "type": "electric_scooter", "lon": -76.99631866666667, "name": "a2ab17f9474a1a1ca257c8f856d4bf7a", "bike_id": "a2ab17f9474a1a1ca257c8f856d4bf7a", "fusion_lat": 0.0, "is_reserved": 0, "lat": 38.846197333333336, "fusion_lon": 0.0, "is_disabled": 0}, {"rental_uris": {"android": "https://dc.lft.to/lastmile_qr_scan", "ios": "https://dc.lft.to/lastmile_qr_scan"}, "type": "electric_scooter", "lon": -77.03146183333334, "name": "88a120b1ecdd5984dadeb33325ec3253", "bike_id": "88a120b1ecdd5984dadeb33325ec3253", "fusion_lat": 0.0, "is_reserved": 0, "lat": 38.93190966666667, "fusion_lon": 0.0, "is_disabled": 0}, {"rental_uris": {"android": "https://dc.lft.to/lastmile_qr_scan", "ios": "https://dc.lft.to/lastmile_qr_scan"}, "type": "electric_scooter", "lon": -77.03346166666667, "name": "d2668e4487bab806d4f4becc0cb9780f", "bike_id": "d2668e4487bab806d4f4becc0cb9780f", "fusion_lat": 0.0, "is_reserved": 0, "lat": 38.91710066666667, "fusion_lon": 0.0, "is_disabled": 0}, {"rental_uris": {"android": "https://dc.lft.to/lastmile_qr_scan", "ios": "https://dc.lft.to/lastmile_qr_scan"}, "type": "electric_scooter", "lon": -77.01755166666666, "name": "b9db4a1bfda3c65c1df287d5b83a03ab", "bike_id": "b9db4a1bfda3c65c1df287d5b83a03ab", "fusion_lat": 0.0, "is_reserved": 0, "lat": 38.91356233333333, "fusion_lon": 0.0, "is_disabled": 0}, {"rental_uris": {"android": "https://dc.lft.to/lastmile_qr_scan", "ios": "https://dc.lft.to/lastmile_qr_scan"}, "type": "electric_scooter", "lon": -77.046598, "name": "8bc6354feb14c40cd547672cd50bc2b9", "bike_id": "8bc6354feb14c40cd547672cd50bc2b9", "fusion_lat": 0.0, "is_reserved": 0, "lat": 38.8924325, "fusion_lon": 0.0, "is_disabled": 0}, {"rental_uris": {"android": "https://dc.lft.to/lastmile_qr_scan", "ios": "https://dc.lft.to/lastmile_qr_scan"}, "type": "electric_bike", "lon": -76.9875235, "name": "2862ece4eb2e4ebaf98aa1fd33e9f644", "bike_id": "2862ece4eb2e4ebaf98aa1fd33e9f644", "fusion_lat": 0.0, "is_reserved": 0, "lat": 38.98822, "fusion_lon": 0.0, "is_disabled": 0}, {"rental_uris": {"android": "https://dc.lft.to/lastmile_qr_scan", "ios": "https://dc.lft.to/lastmile_qr_scan"}, "type": "electric_scooter", "lon": -77.02175966666667, "name": "b00857bc12f9bc2a285c0917e0befe81", "bike_id": "b00857bc12f9bc2a285c0917e0befe81", "fusion_lat": 0.0, "is_reserved": 0, "lat": 38.9019675, "fusion_lon": 0.0, "is_disabled": 0}, {"rental_uris": {"android": "https://dc.lft.to/lastmile_qr_scan", "ios": "https://dc.lft.to/lastmile_qr_scan"}, "type": "electric_scooter", "lon": -77.02829333333334, "name": "86c50a23b4c02d9bef93df0756234308", "bike_id": "86c50a23b4c02d9bef93df0756234308", "fusion_lat": 0.0, "is_reserved": 0, "lat": 38.929619833333334, "fusion_lon": 0.0, "is_disabled": 0}, {"rental_uris": {"android": "https://dc.lft.to/lastmile_qr_scan", "ios": "https://dc.lft.to/lastmile_qr_scan"}, "type": "electric_scooter", "lon": -76.93264466666666, "name": "d235751c1e290e1e6ae0ec9726433c51", "bike_id": "d235751c1e290e1e6ae0ec9726433c51", "fusion_lat": 0.0, "is_reserved": 0, "lat": 38.887726, "fusion_lon": 0.0, "is_disabled": 0}, {"rental_uris": {"android": "https://dc.lft.to/lastmile_qr_scan", "ios": "https://dc.lft.to/lastmile_qr_scan"}, "type": "electric_bike", "lon": -77.131814, "name": "4f4e0f188b733b69129eecb22249bd4d", "bike_id": "4f4e0f188b733b69129eecb22249bd4d", "fusion_lat": 0.0, "is_reserved": 0, "lat": 38.86907683333333, "fusion_lon": 0.0, "is_disabled": 0}, {"rental_uris": {"android": "https://dc.lft.to/lastmile_qr_scan", "ios": "https://dc.lft.to/lastmile_qr_scan"}, "type": "electric_scooter", "lon": -76.98617083333333, "name": "c45dbbe9f22abd1daf003affebb89f22", "bike_id": "c45dbbe9f22abd1daf003affebb89f22", "fusion_lat": 0.0, "is_reserved": 0, "lat": 38.907035666666665, "fusion_lon": 0.0, "is_disabled": 0}, {"rental_uris": {"android": "https://dc.lft.to/lastmile_qr_scan", "ios": "https://dc.lft.to/lastmile_qr_scan"}, "type": "electric_scooter", "lon": -76.95111016666667, "name": "dd075c612f67801c3a94cafb72152b4b", "bike_id": "dd075c612f67801c3a94cafb72152b4b", "fusion_lat": 0.0, "is_reserved": 0, "lat": 38.8879525, "fusion_lon": 0.0, "is_disabled": 0}, {"rental_uris": {"android": "https://dc.lft.to/lastmile_qr_scan", "ios": "https://dc.lft.to/lastmile_qr_scan"}, "type": "electric_scooter", "lon": -77.02791016666667, "name": "e27ff8e3a8b76400025c6c5ab39e10c9", "bike_id": "e27ff8e3a8b76400025c6c5ab39e10c9", "fusion_lat": 0.0, "is_reserved": 0, "lat": 38.96134266666667, "fusion_lon": 0.0, "is_disabled": 0}, {"rental_uris": {"android": "https://dc.lft.to/lastmile_qr_scan", "ios": "https://dc.lft.to/lastmile_qr_scan"}, "type": "electric_scooter", "lon": -77.01623783333334, "name": "a357b04ce9da5345d70b294d66bf9a46", "bike_id": "a357b04ce9da5345d70b294d66bf9a46", "fusion_lat": 0.0, "is_reserved": 0, "lat": 38.906064, "fusion_lon": 0.0, "is_disabled": 0}, {"rental_uris": {"android": "https://dc.lft.to/lastmile_qr_scan", "ios": "https://dc.lft.to/lastmile_qr_scan"}, "type": "electric_scooter", "lon": -77.05190016666667, "name": "a6c4572e3368717bb9954b507581b723", "bike_id": "a6c4572e3368717bb9954b507581b723", "fusion_lat": 0.0, "is_reserved": 0, "lat": 38.9255275, "fusion_lon": 0.0, "is_disabled": 0}, {"rental_uris": {"android": "https://dc.lft.to/lastmile_qr_scan", "ios": "https://dc.lft.to/lastmile_qr_scan"}, "type": "electric_scooter", "lon": -76.98883616666667, "name": "f2e77b34eb26a6b82de8a859c1452b63", "bike_id": "f2e77b34eb26a6b82de8a859c1452b63", "fusion_lat": 0.0, "is_reserved": 0, "lat": 38.906343, "fusion_lon": 0.0, "is_disabled": 0}, {"rental_uris": {"android": "https://dc.lft.to/lastmile_qr_scan", "ios": "https://dc.lft.to/lastmile_qr_scan"}, "type": "electric_scooter", "lon": -77.01200233333333, "name": "70001ccbbf1932cbb8d6af69a144340e", "bike_id": "70001ccbbf1932cbb8d6af69a144340e", "fusion_lat": 0.0, "is_reserved": 0, "lat": 38.92186233333334, "fusion_lon": 0.0, "is_disabled": 0}, {"rental_uris": {"android": "https://dc.lft.to/lastmile_qr_scan", "ios": "https://dc.lft.to/lastmile_qr_scan"}, "type": "electric_scooter", "lon": -77.0465915, "name": "33fefa0025c5c01fb196682c49a1e071", "bike_id": "33fefa0025c5c01fb196682c49a1e071", "fusion_lat": 0.0, "is_reserved": 0, "lat": 38.893419333333334, "fusion_lon": 0.0, "is_disabled": 0}, {"rental_uris": {"android": "https://dc.lft.to/lastmile_qr_scan", "ios": "https://dc.lft.to/lastmile_qr_scan"}, "type": "electric_bike", "lon": -76.98161483333334, "name": "ef4d1cf00d3da41ee8be8e66c2cc2839", "bike_id": "ef4d1cf00d3da41ee8be8e66c2cc2839", "fusion_lat": 0.0, "is_reserved": 0, "lat": 38.95964983333333, "fusion_lon": 0.0, "is_disabled": 0}, {"rental_uris": {"android": "https://dc.lft.to/lastmile_qr_scan", "ios": "https://dc.lft.to/lastmile_qr_scan"}, "type": "electric_scooter", "lon": -77.03835933333333, "name": "0f00039e3d15a4d8d00d923910cfd7b0", "bike_id": "0f00039e3d15a4d8d00d923910cfd7b0", "fusion_lat": 0.0, "is_reserved": 0, "lat": 38.911889333333335, "fusion_lon": 0.0, "is_disabled": 0}, {"rental_uris": {"android": "https://dc.lft.to/lastmile_qr_scan", "ios": "https://dc.lft.to/lastmile_qr_scan"}, "type": "electric_scooter", "lon": -77.04372433333333, "name": "c5d778543e252bfbf68bb1c106ff44ee", "bike_id": "c5d778543e252bfbf68bb1c106ff44ee", "fusion_lat": 0.0, "is_reserved": 0, "lat": 38.92569133333333, "fusion_lon": 0.0, "is_disabled": 0}, {"rental_uris": {"android": "https://dc.lft.to/lastmile_qr_scan", "ios": "https://dc.lft.to/lastmile_qr_scan"}, "type": "electric_scooter", "lon": -77.03957966666667, "name": "cfa4a3e39917751ceeb80304181f9f15", "bike_id": "cfa4a3e39917751ceeb80304181f9f15", "fusion_lat": 0.0, "is_reserved": 0, "lat": 38.89243116666667, "fusion_lon": 0.0, "is_disabled": 0}, {"rental_uris": {"android": "https://dc.lft.to/lastmile_qr_scan", "ios": "https://dc.lft.to/lastmile_qr_scan"}, "type": "electric_scooter", "lon": -77.0467225, "name": "e1ae8d06101c40c0dcedd94847d50055", "bike_id": "e1ae8d06101c40c0dcedd94847d50055", "fusion_lat": 0.0, "is_reserved": 0, "lat": 38.8990305, "fusion_lon": 0.0, "is_disabled": 0}, {"rental_uris": {"android": "https://dc.lft.to/lastmile_qr_scan", "ios": "https://dc.lft.to/lastmile_qr_scan"}, "type": "electric_scooter", "lon": -77.02679983333333, "name": "84159319506422ffb0a86da1344e8f32", "bike_id": "84159319506422ffb0a86da1344e8f32", "fusion_lat": 0.0, "is_reserved": 0, "lat": 38.91075133333333, "fusion_lon": 0.0, "is_disabled": 0}, {"rental_uris": {"android": "https://dc.lft.to/lastmile_qr_scan", "ios": "https://dc.lft.to/lastmile_qr_scan"}, "type": "electric_scooter", "lon": -76.99458116666666, "name": "5c515c0e3669f20063a295a06b6a7293", "bike_id": "5c515c0e3669f20063a295a06b6a7293", "fusion_lat": 0.0, "is_reserved": 0, "lat": 38.851654, "fusion_lon": 0.0, "is_disabled": 0}, {"rental_uris": {"android": "https://dc.lft.to/lastmile_qr_scan", "ios": "https://dc.lft.to/lastmile_qr_scan"}, "type": "electric_bike", "lon": -77.0805335, "name": "4857f957ab4e637354b07c1caf125511", "bike_id": "4857f957ab4e637354b07c1caf125511", "fusion_lat": 0.0, "is_reserved": 0, "lat": 38.848402, "fusion_lon": 0.0, "is_disabled": 0}, {"rental_uris": {"android": "https://dc.lft.to/lastmile_qr_scan", "ios": "https://dc.lft.to/lastmile_qr_scan"}, "type": "electric_scooter", "lon": -77.04695683333334, "name": "a1c824d315c9949b178c119f27670586", "bike_id": "a1c824d315c9949b178c119f27670586", "fusion_lat": 0.0, "is_reserved": 0, "lat": 38.92109583333333, "fusion_lon": 0.0, "is_disabled": 0}, {"rental_uris": {"android": "https://dc.lft.to/lastmile_qr_scan", "ios": "https://dc.lft.to/lastmile_qr_scan"}, "type": "electric_scooter", "lon": -76.98473666666666, "name": "c08ce8ee9c06831802d9e8a2049705c1", "bike_id": "c08ce8ee9c06831802d9e8a2049705c1", "fusion_lat": 0.0, "is_reserved": 0, "lat": 38.9085745, "fusion_lon": 0.0, "is_disabled": 0}, {"rental_uris": {"android": "https://dc.lft.to/lastmile_qr_scan", "ios": "https://dc.lft.to/lastmile_qr_scan"}, "type": "electric_scooter", "lon": -77.021842, "name": "acdfcdc4fcf1d3019439edf1e0b1d827", "bike_id": "acdfcdc4fcf1d3019439edf1e0b1d827", "fusion_lat": 0.0, "is_reserved": 0, "lat": 38.89227866666667, "fusion_lon": 0.0, "is_disabled": 0}, {"rental_uris": {"android": "https://dc.lft.to/lastmile_qr_scan", "ios": "https://dc.lft.to/lastmile_qr_scan"}, "type": "electric_bike", "lon": -77.35312183333333, "name": "6ef194c79a4b90839e61335dba96d4a6", "bike_id": "6ef194c79a4b90839e61335dba96d4a6", "fusion_lat": 0.0, "is_reserved": 0, "lat": 38.94998566666666, "fusion_lon": 0.0, "is_disabled": 0}, {"rental_uris": {"android": "https://dc.lft.to/lastmile_qr_scan", "ios": "https://dc.lft.to/lastmile_qr_scan"}, "type": "electric_scooter", "lon": -77.03218833333334, "name": "e52ac20843fa2be01a9dcbf11e59b3da", "bike_id": "e52ac20843fa2be01a9dcbf11e59b3da", "fusion_lat": 0.0, "is_reserved": 0, "lat": 38.91187166666667, "fusion_lon": 0.0, "is_disabled": 0}, {"rental_uris": {"android": "https://dc.lft.to/lastmile_qr_scan", "ios": "https://dc.lft.to/lastmile_qr_scan"}, "type": "electric_scooter", "lon": -76.99709816666666, "name": "4932976e807acace26403a959baa67de", "bike_id": "4932976e807acace26403a959baa67de", "fusion_lat": 0.0, "is_reserved": 0, "lat": 38.910885, "fusion_lon": 0.0, "is_disabled": 0}, {"rental_uris": {"android": "https://dc.lft.to/lastmile_qr_scan", "ios": "https://dc.lft.to/lastmile_qr_scan"}, "type": "electric_scooter", "lon": -76.94657016666666, "name": "de922fc95a4c7f8db9bf6a4021b84f1a", "bike_id": "de922fc95a4c7f8db9bf6a4021b84f1a", "fusion_lat": 0.0, "is_reserved": 0, "lat": 38.898289, "fusion_lon": 0.0, "is_disabled": 0}, {"rental_uris": {"android": "https://dc.lft.to/lastmile_qr_scan", "ios": "https://dc.lft.to/lastmile_qr_scan"}, "type": "electric_scooter", "lon": -77.03379133333334, "name": "5c33fe0881880966a2c3ffa265e962c9", "bike_id": "5c33fe0881880966a2c3ffa265e962c9", "fusion_lat": 0.0, "is_reserved": 0, "lat": 38.90981633333333, "fusion_lon": 0.0, "is_disabled": 0}, {"rental_uris": {"android": "https://dc.lft.to/lastmile_qr_scan", "ios": "https://dc.lft.to/lastmile_qr_scan"}, "type": "electric_scooter", "lon": -77.03002383333333, "name": "89ad04294bb7f00d33582a41ba791362", "bike_id": "89ad04294bb7f00d33582a41ba791362", "fusion_lat": 0.0, "is_reserved": 0, "lat": 38.9279745, "fusion_lon": 0.0, "is_disabled": 0}, {"rental_uris": {"android": "https://dc.lft.to/lastmile_qr_scan", "ios": "https://dc.lft.to/lastmile_qr_scan"}, "type": "electric_scooter", "lon": -77.06346716666667, "name": "22dd535030dfca2561fb65639e3b834d", "bike_id": "22dd535030dfca2561fb65639e3b834d", "fusion_lat": 0.0, "is_reserved": 0, "lat": 38.913302333333334, "fusion_lon": 0.0, "is_disabled": 0}, {"rental_uris": {"android": "https://dc.lft.to/lastmile_qr_scan", "ios": "https://dc.lft.to/lastmile_qr_scan"}, "type": "electric_scooter", "lon": -77.01950433333333, "name": "d3279caf5b9d156d256cd1c9e4b01829", "bike_id": "d3279caf5b9d156d256cd1c9e4b01829", "fusion_lat": 0.0, "is_reserved": 0, "lat": 38.922483666666665, "fusion_lon": 0.0, "is_disabled": 0}, {"rental_uris": {"android": "https://dc.lft.to/lastmile_qr_scan", "ios": "https://dc.lft.to/lastmile_qr_scan"}, "type": "electric_scooter", "lon": -77.05753066666666, "name": "415a8470ca3e6dbd66ae80e9837f8800", "bike_id": "415a8470ca3e6dbd66ae80e9837f8800", "fusion_lat": 0.0, "is_reserved": 0, "lat": 38.925014166666664, "fusion_lon": 0.0, "is_disabled": 0}, {"rental_uris": {"android": "https://dc.lft.to/lastmile_qr_scan", "ios": "https://dc.lft.to/lastmile_qr_scan"}, "type": "electric_scooter", "lon": -77.00760433333333, "name": "d33a9124dec46a5832a984000a30bc6d", "bike_id": "d33a9124dec46a5832a984000a30bc6d", "fusion_lat": 0.0, "is_reserved": 0, "lat": 38.876468833333334, "fusion_lon": 0.0, "is_disabled": 0}, {"rental_uris": {"android": "https://dc.lft.to/lastmile_qr_scan", "ios": "https://dc.lft.to/lastmile_qr_scan"}, "type": "electric_scooter", "lon": -77.04496633333333, "name": "d37fc8724fe74967ce528447c40a879a", "bike_id": "d37fc8724fe74967ce528447c40a879a", "fusion_lat": 0.0, "is_reserved": 0, "lat": 38.909348666666666, "fusion_lon": 0.0, "is_disabled": 0}, {"rental_uris": {"android": "https://dc.lft.to/lastmile_qr_scan", "ios": "https://dc.lft.to/lastmile_qr_scan"}, "type": "electric_scooter", "lon": -77.024934, "name": "640a7c5462eff7c5962ed53ec17cb2ba", "bike_id": "640a7c5462eff7c5962ed53ec17cb2ba", "fusion_lat": 0.0, "is_reserved": 0, "lat": 38.941832, "fusion_lon": 0.0, "is_disabled": 0}, {"rental_uris": {"android": "https://dc.lft.to/lastmile_qr_scan", "ios": "https://dc.lft.to/lastmile_qr_scan"}, "type": "electric_scooter", "lon": -77.04547, "name": "fe0df1a649e3ae1dbc3e7f4db2f12e13", "bike_id": "fe0df1a649e3ae1dbc3e7f4db2f12e13", "fusion_lat": 0.0, "is_reserved": 0, "lat": 38.90754366666667, "fusion_lon": 0.0, "is_disabled": 0}, {"rental_uris": {"android": "https://dc.lft.to/lastmile_qr_scan", "ios": "https://dc.lft.to/lastmile_qr_scan"}, "type": "electric_scooter", "lon": -77.00286283333334, "name": "9b1f85db775129bef6716c1a0c06f518", "bike_id": "9b1f85db775129bef6716c1a0c06f518", "fusion_lat": 0.0, "is_reserved": 0, "lat": 38.90874516666667, "fusion_lon": 0.0, "is_disabled": 0}, {"rental_uris": {"android": "https://dc.lft.to/lastmile_qr_scan", "ios": "https://dc.lft.to/lastmile_qr_scan"}, "type": "electric_scooter", "lon": -77.02330983333333, "name": "019ad5853ad2829a52760e414e279ade", "bike_id": "019ad5853ad2829a52760e414e279ade", "fusion_lat": 0.0, "is_reserved": 0, "lat": 38.9014705, "fusion_lon": 0.0, "is_disabled": 0}, {"rental_uris": {"android": "https://dc.lft.to/lastmile_qr_scan", "ios": "https://dc.lft.to/lastmile_qr_scan"}, "type": "electric_scooter", "lon": -77.02646133333333, "name": "a4cad089e903b36ec9ae140267f860e2", "bike_id": "a4cad089e903b36ec9ae140267f860e2", "fusion_lat": 0.0, "is_reserved": 0, "lat": 38.88106916666667, "fusion_lon": 0.0, "is_disabled": 0}, {"rental_uris": {"android": "https://dc.lft.to/lastmile_qr_scan", "ios": "https://dc.lft.to/lastmile_qr_scan"}, "type": "electric_scooter", "lon": -77.04630883333333, "name": "01c6cc4df119ef9932287d52b35f140f", "bike_id": "01c6cc4df119ef9932287d52b35f140f", "fusion_lat": 0.0, "is_reserved": 0, "lat": 38.897141500000004, "fusion_lon": 0.0, "is_disabled": 0}, {"rental_uris": {"android": "https://dc.lft.to/lastmile_qr_scan", "ios": "https://dc.lft.to/lastmile_qr_scan"}, "type": "electric_scooter", "lon": -77.06495483333333, "name": "06b00f11bee5bbc0ec968e792a38bde6", "bike_id": "06b00f11bee5bbc0ec968e792a38bde6", "fusion_lat": 0.0, "is_reserved": 0, "lat": 38.905248666666665, "fusion_lon": 0.0, "is_disabled": 0}, {"rental_uris": {"android": "https://dc.lft.to/lastmile_qr_scan", "ios": "https://dc.lft.to/lastmile_qr_scan"}, "type": "electric_scooter", "lon": -76.9277435, "name": "951c39107c09a691965ce9b825d39367", "bike_id": "951c39107c09a691965ce9b825d39367", "fusion_lat": 0.0, "is_reserved": 0, "lat": 38.90273766666667, "fusion_lon": 0.0, "is_disabled": 0}, {"rental_uris": {"android": "https://dc.lft.to/lastmile_qr_scan", "ios": "https://dc.lft.to/lastmile_qr_scan"}, "type": "electric_scooter", "lon": -77.03548033333334, "name": "3bafcb98ed1712d627d6c5067b4bf313", "bike_id": "3bafcb98ed1712d627d6c5067b4bf313", "fusion_lat": 0.0, "is_reserved": 0, "lat": 38.917118333333335, "fusion_lon": 0.0, "is_disabled": 0}, {"rental_uris": {"android": "https://dc.lft.to/lastmile_qr_scan", "ios": "https://dc.lft.to/lastmile_qr_scan"}, "type": "electric_scooter", "lon": -77.04532966666666, "name": "8de9bce58e2f45269082a25178899508", "bike_id": "8de9bce58e2f45269082a25178899508", "fusion_lat": 0.0, "is_reserved": 0, "lat": 38.905321, "fusion_lon": 0.0, "is_disabled": 0}, {"rental_uris": {"android": "https://dc.lft.to/lastmile_qr_scan", "ios": "https://dc.lft.to/lastmile_qr_scan"}, "type": "electric_scooter", "lon": -77.02607383333333, "name": "13ea4768c65cdf0cfcd7a6574bb99cf3", "bike_id": "13ea4768c65cdf0cfcd7a6574bb99cf3", "fusion_lat": 0.0, "is_reserved": 0, "lat": 38.914254666666665, "fusion_lon": 0.0, "is_disabled": 0}, {"rental_uris": {"android": "https://dc.lft.to/lastmile_qr_scan", "ios": "https://dc.lft.to/lastmile_qr_scan"}, "type": "electric_scooter", "lon": -76.9692895, "name": "6c39943ecdf058b174cf6ebc203f1c0c", "bike_id": "6c39943ecdf058b174cf6ebc203f1c0c", "fusion_lat": 0.0, "is_reserved": 0, "lat": 38.9303075, "fusion_lon": 0.0, "is_disabled": 0}, {"rental_uris": {"android": "https://dc.lft.to/lastmile_qr_scan", "ios": "https://dc.lft.to/lastmile_qr_scan"}, "type": "electric_scooter", "lon": -76.9945355, "name": "4bb623ce09bd69b7bf31bafcb0310714", "bike_id": "4bb623ce09bd69b7bf31bafcb0310714", "fusion_lat": 0.0, "is_reserved": 0, "lat": 38.905128, "fusion_lon": 0.0, "is_disabled": 0}, {"rental_uris": {"android": "https://dc.lft.to/lastmile_qr_scan", "ios": "https://dc.lft.to/lastmile_qr_scan"}, "type": "electric_scooter", "lon": -76.95520433333333, "name": "45720ebc71256b2a91d581e87a1815f9", "bike_id": "45720ebc71256b2a91d581e87a1815f9", "fusion_lat": 0.0, "is_reserved": 0, "lat": 38.890527666666664, "fusion_lon": 0.0, "is_disabled": 0}, {"rental_uris": {"android": "https://dc.lft.to/lastmile_qr_scan", "ios": "https://dc.lft.to/lastmile_qr_scan"}, "type": "electric_scooter", "lon": -77.0271505, "name": "82aa9c902ad3be4526e81edc2007ef7c", "bike_id": "82aa9c902ad3be4526e81edc2007ef7c", "fusion_lat": 0.0, "is_reserved": 0, "lat": 38.90666983333333, "fusion_lon": 0.0, "is_disabled": 0}, {"rental_uris": {"android": "https://dc.lft.to/lastmile_qr_scan", "ios": "https://dc.lft.to/lastmile_qr_scan"}, "type": "electric_scooter", "lon": -76.946447, "name": "631c70316422e5bc58ad1724263c81b1", "bike_id": "631c70316422e5bc58ad1724263c81b1", "fusion_lat": 0.0, "is_reserved": 0, "lat": 38.89842, "fusion_lon": 0.0, "is_disabled": 0}, {"rental_uris": {"android": "https://dc.lft.to/lastmile_qr_scan", "ios": "https://dc.lft.to/lastmile_qr_scan"}, "type": "electric_bike", "lon": -76.92920866666667, "name": "9af1917d5a8fdaf5ddf78ae825044f7b", "bike_id": "9af1917d5a8fdaf5ddf78ae825044f7b", "fusion_lat": 0.0, "is_reserved": 0, "lat": 38.98016283333333, "fusion_lon": 0.0, "is_disabled": 0}, {"rental_uris": {"android": "https://dc.lft.to/lastmile_qr_scan", "ios": "https://dc.lft.to/lastmile_qr_scan"}, "type": "electric_bike", "lon": -77.0311095, "name": "fc590c402c585ae49bdf82280dafa919", "bike_id": "fc590c402c585ae49bdf82280dafa919", "fusion_lat": 0.0, "is_reserved": 0, "lat": 38.993910166666666, "fusion_lon": 0.0, "is_disabled": 0}, {"rental_uris": {"android": "https://dc.lft.to/lastmile_qr_scan", "ios": "https://dc.lft.to/lastmile_qr_scan"}, "type": "electric_bike", "lon": -77.09586983333334, "name": "fea6194436c560befd661866f68e48c4", "bike_id": "fea6194436c560befd661866f68e48c4", "fusion_lat": 0.0, "is_reserved": 0, "lat": 38.9855975, "fusion_lon": 0.0, "is_disabled": 0}, {"rental_uris": {"android": "https://dc.lft.to/lastmile_qr_scan", "ios": "https://dc.lft.to/lastmile_qr_scan"}, "type": "electric_scooter", "lon": -77.03878633333333, "name": "ee6b22efc98e0a5e1881000e048fcf73", "bike_id": "ee6b22efc98e0a5e1881000e048fcf73", "fusion_lat": 0.0, "is_reserved": 0, "lat": 38.919739666666665, "fusion_lon": 0.0, "is_disabled": 0}, {"rental_uris": {"android": "https://dc.lft.to/lastmile_qr_scan", "ios": "https://dc.lft.to/lastmile_qr_scan"}, "type": "electric_scooter", "lon": -77.01198433333333, "name": "13493a9f75aaf44e870eda66402ea1bb", "bike_id": "13493a9f75aaf44e870eda66402ea1bb", "fusion_lat": 0.0, "is_reserved": 0, "lat": 38.893317833333334, "fusion_lon": 0.0, "is_disabled": 0}, {"rental_uris": {"android": "https://dc.lft.to/lastmile_qr_scan", "ios": "https://dc.lft.to/lastmile_qr_scan"}, "type": "electric_scooter", "lon": -76.991712, "name": "5e0cd7375de06c55b8a907aeb2e68f53", "bike_id": "5e0cd7375de06c55b8a907aeb2e68f53", "fusion_lat": 0.0, "is_reserved": 0, "lat": 38.87908133333333, "fusion_lon": 0.0, "is_disabled": 0}, {"rental_uris": {"android": "https://dc.lft.to/lastmile_qr_scan", "ios": "https://dc.lft.to/lastmile_qr_scan"}, "type": "electric_scooter", "lon": -77.038649, "name": "5625fe4a7b870c0bff40b9a73982bbfa", "bike_id": "5625fe4a7b870c0bff40b9a73982bbfa", "fusion_lat": 0.0, "is_reserved": 0, "lat": 38.910997, "fusion_lon": 0.0, "is_disabled": 0}, {"rental_uris": {"android": "https://dc.lft.to/lastmile_qr_scan", "ios": "https://dc.lft.to/lastmile_qr_scan"}, "type": "electric_scooter", "lon": -77.02612, "name": "afac8d2659b3707249c2bd0c55073d4f", "bike_id": "afac8d2659b3707249c2bd0c55073d4f", "fusion_lat": 0.0, "is_reserved": 0, "lat": 38.916883166666665, "fusion_lon": 0.0, "is_disabled": 0}, {"rental_uris": {"android": "https://dc.lft.to/lastmile_qr_scan", "ios": "https://dc.lft.to/lastmile_qr_scan"}, "type": "electric_scooter", "lon": -77.037665, "name": "e4ee482375028a78465ae60c11b7ba49", "bike_id": "e4ee482375028a78465ae60c11b7ba49", "fusion_lat": 0.0, "is_reserved": 0, "lat": 38.92475066666667, "fusion_lon": 0.0, "is_disabled": 0}, {"rental_uris": {"android": "https://dc.lft.to/lastmile_qr_scan", "ios": "https://dc.lft.to/lastmile_qr_scan"}, "type": "electric_scooter", "lon": -77.00885733333334, "name": "99d2d2a6c2c4b6e60d72747c450020b1", "bike_id": "99d2d2a6c2c4b6e60d72747c450020b1", "fusion_lat": 0.0, "is_reserved": 0, "lat": 38.876343166666665, "fusion_lon": 0.0, "is_disabled": 0}, {"rental_uris": {"android": "https://dc.lft.to/lastmile_qr_scan", "ios": "https://dc.lft.to/lastmile_qr_scan"}, "type": "electric_scooter", "lon": -77.02822, "name": "e9866b863a2d736864ca822886f33b65", "bike_id": "e9866b863a2d736864ca822886f33b65", "fusion_lat": 0.0, "is_reserved": 0, "lat": 38.90627033333333, "fusion_lon": 0.0, "is_disabled": 0}, {"rental_uris": {"android": "https://dc.lft.to/lastmile_qr_scan", "ios": "https://dc.lft.to/lastmile_qr_scan"}, "type": "electric_scooter", "lon": -77.012, "name": "0874695e332834c302643a3f8679a423", "bike_id": "0874695e332834c302643a3f8679a423", "fusion_lat": 0.0, "is_reserved": 0, "lat": 38.87152233333333, "fusion_lon": 0.0, "is_disabled": 0}, {"rental_uris": {"android": "https://dc.lft.to/lastmile_qr_scan", "ios": "https://dc.lft.to/lastmile_qr_scan"}, "type": "electric_scooter", "lon": -77.03112866666666, "name": "be97bae6aca10e9269ef872f21b7e4d4", "bike_id": "be97bae6aca10e9269ef872f21b7e4d4", "fusion_lat": 0.0, "is_reserved": 0, "lat": 38.892190666666664, "fusion_lon": 0.0, "is_disabled": 0}, {"rental_uris": {"android": "https://dc.lft.to/lastmile_qr_scan", "ios": "https://dc.lft.to/lastmile_qr_scan"}, "type": "electric_scooter", "lon": -77.03422083333334, "name": "c84009bb84e6cc3cca8eb1e980c37c31", "bike_id": "c84009bb84e6cc3cca8eb1e980c37c31", "fusion_lat": 0.0, "is_reserved": 0, "lat": 38.929574, "fusion_lon": 0.0, "is_disabled": 0}, {"rental_uris": {"android": "https://dc.lft.to/lastmile_qr_scan", "ios": "https://dc.lft.to/lastmile_qr_scan"}, "type": "electric_scooter", "lon": -77.04650666666667, "name": "e104e12e3db341ea40cd55cfde7972cc", "bike_id": "e104e12e3db341ea40cd55cfde7972cc", "fusion_lat": 0.0, "is_reserved": 0, "lat": 38.91563883333333, "fusion_lon": 0.0, "is_disabled": 0}, {"rental_uris": {"android": "https://dc.lft.to/lastmile_qr_scan", "ios": "https://dc.lft.to/lastmile_qr_scan"}, "type": "electric_scooter", "lon": -77.034739, "name": "83317e1bfe54d70176c7c5562fd21ef3", "bike_id": "83317e1bfe54d70176c7c5562fd21ef3", "fusion_lat": 0.0, "is_reserved": 0, "lat": 38.902583, "fusion_lon": 0.0, "is_disabled": 0}, {"rental_uris": {"android": "https://dc.lft.to/lastmile_qr_scan", "ios": "https://dc.lft.to/lastmile_qr_scan"}, "type": "electric_scooter", "lon": -77.03226066666667, "name": "8b5f8beb26e7b3bc89ca831a2372ef0e", "bike_id": "8b5f8beb26e7b3bc89ca831a2372ef0e", "fusion_lat": 0.0, "is_reserved": 0, "lat": 38.93877716666667, "fusion_lon": 0.0, "is_disabled": 0}, {"rental_uris": {"android": "https://dc.lft.to/lastmile_qr_scan", "ios": "https://dc.lft.to/lastmile_qr_scan"}, "type": "electric_scooter", "lon": -77.03066916666667, "name": "c3a34f1c11f8268ea0a372872f803a09", "bike_id": "c3a34f1c11f8268ea0a372872f803a09", "fusion_lat": 0.0, "is_reserved": 0, "lat": 38.88043533333333, "fusion_lon": 0.0, "is_disabled": 0}, {"rental_uris": {"android": "https://dc.lft.to/lastmile_qr_scan", "ios": "https://dc.lft.to/lastmile_qr_scan"}, "type": "electric_bike", "lon": -77.13184116666666, "name": "509ddda12021b1cd7f0d820eae7b6117", "bike_id": "509ddda12021b1cd7f0d820eae7b6117", "fusion_lat": 0.0, "is_reserved": 0, "lat": 38.86910683333333, "fusion_lon": 0.0, "is_disabled": 0}, {"rental_uris": {"android": "https://dc.lft.to/lastmile_qr_scan", "ios": "https://dc.lft.to/lastmile_qr_scan"}, "type": "electric_scooter", "lon": -77.04877483333334, "name": "a56ec39374f751ce77b4ed50c2304558", "bike_id": "a56ec39374f751ce77b4ed50c2304558", "fusion_lat": 0.0, "is_reserved": 0, "lat": 38.90459233333333, "fusion_lon": 0.0, "is_disabled": 0}, {"rental_uris": {"android": "https://dc.lft.to/lastmile_qr_scan", "ios": "https://dc.lft.to/lastmile_qr_scan"}, "type": "electric_scooter", "lon": -77.027752, "name": "495f6a9359fc8e9d435d61a18f687c51", "bike_id": "495f6a9359fc8e9d435d61a18f687c51", "fusion_lat": 0.0, "is_reserved": 0, "lat": 38.8816035, "fusion_lon": 0.0, "is_disabled": 0}, {"rental_uris": {"android": "https://dc.lft.to/lastmile_qr_scan", "ios": "https://dc.lft.to/lastmile_qr_scan"}, "type": "electric_scooter", "lon": -76.92956083333334, "name": "8766b1cfcf410be53dbb6dc89e9fb25f", "bike_id": "8766b1cfcf410be53dbb6dc89e9fb25f", "fusion_lat": 0.0, "is_reserved": 0, "lat": 38.8988365, "fusion_lon": 0.0, "is_disabled": 0}, {"rental_uris": {"android": "https://dc.lft.to/lastmile_qr_scan", "ios": "https://dc.lft.to/lastmile_qr_scan"}, "type": "electric_scooter", "lon": -77.00605683333333, "name": "a757440fc4417d9a5e177a814edc4388", "bike_id": "a757440fc4417d9a5e177a814edc4388", "fusion_lat": 0.0, "is_reserved": 0, "lat": 38.90556133333333, "fusion_lon": 0.0, "is_disabled": 0}, {"rental_uris": {"android": "https://dc.lft.to/lastmile_qr_scan", "ios": "https://dc.lft.to/lastmile_qr_scan"}, "type": "electric_bike", "lon": -76.99759283333333, "name": "f0616cffd6b5aebffedab4df20dd14a8", "bike_id": "f0616cffd6b5aebffedab4df20dd14a8", "fusion_lat": 0.0, "is_reserved": 0, "lat": 39.00590283333333, "fusion_lon": 0.0, "is_disabled": 0}, {"rental_uris": {"android": "https://dc.lft.to/lastmile_qr_scan", "ios": "https://dc.lft.to/lastmile_qr_scan"}, "type": "electric_scooter", "lon": -77.021812, "name": "812a2aa4624ed362f2024136ede277ef", "bike_id": "812a2aa4624ed362f2024136ede277ef", "fusion_lat": 0.0, "is_reserved": 0, "lat": 38.91114983333333, "fusion_lon": 0.0, "is_disabled": 0}, {"rental_uris": {"android": "https://dc.lft.to/lastmile_qr_scan", "ios": "https://dc.lft.to/lastmile_qr_scan"}, "type": "electric_scooter", "lon": -77.003398, "name": "cfff9171ad0587a01c744ac22d742a91", "bike_id": "cfff9171ad0587a01c744ac22d742a91", "fusion_lat": 0.0, "is_reserved": 0, "lat": 38.895041, "fusion_lon": 0.0, "is_disabled": 0}, {"rental_uris": {"android": "https://dc.lft.to/lastmile_qr_scan", "ios": "https://dc.lft.to/lastmile_qr_scan"}, "type": "electric_scooter", "lon": -77.04385216666667, "name": "52262a7a66441e2a7c0a7a33e4dcc4f2", "bike_id": "52262a7a66441e2a7c0a7a33e4dcc4f2", "fusion_lat": 0.0, "is_reserved": 0, "lat": 38.910480166666666, "fusion_lon": 0.0, "is_disabled": 0}, {"rental_uris": {"android": "https://dc.lft.to/lastmile_qr_scan", "ios": "https://dc.lft.to/lastmile_qr_scan"}, "type": "electric_scooter", "lon": -77.00072433333334, "name": "91ee1e2d600d6a36a900303fae8c9f9c", "bike_id": "91ee1e2d600d6a36a900303fae8c9f9c", "fusion_lat": 0.0, "is_reserved": 0, "lat": 38.89746316666667, "fusion_lon": 0.0, "is_disabled": 0}, {"rental_uris": {"android": "https://dc.lft.to/lastmile_qr_scan", "ios": "https://dc.lft.to/lastmile_qr_scan"}, "type": "electric_bike", "lon": -76.8749795, "name": "6a734d6b613aab802bdb8814c982b365", "bike_id": "6a734d6b613aab802bdb8814c982b365", "fusion_lat": 0.0, "is_reserved": 0, "lat": 38.9909, "fusion_lon": 0.0, "is_disabled": 0}, {"rental_uris": {"android": "https://dc.lft.to/lastmile_qr_scan", "ios": "https://dc.lft.to/lastmile_qr_scan"}, "type": "electric_scooter", "lon": -77.03850383333334, "name": "576633a82f1f504971167939a2cdaf14", "bike_id": "576633a82f1f504971167939a2cdaf14", "fusion_lat": 0.0, "is_reserved": 0, "lat": 38.912076, "fusion_lon": 0.0, "is_disabled": 0}, {"rental_uris": {"android": "https://dc.lft.to/lastmile_qr_scan", "ios": "https://dc.lft.to/lastmile_qr_scan"}, "type": "electric_scooter", "lon": -77.06557533333333, "name": "ca8ed33f057bd957fe99e2a22fa5168e", "bike_id": "ca8ed33f057bd957fe99e2a22fa5168e", "fusion_lat": 0.0, "is_reserved": 0, "lat": 38.905218166666664, "fusion_lon": 0.0, "is_disabled": 0}, {"rental_uris": {"android": "https://dc.lft.to/lastmile_qr_scan", "ios": "https://dc.lft.to/lastmile_qr_scan"}, "type": "electric_scooter", "lon": -77.02683583333334, "name": "90ba5961723be1b7c9688025a7ba4c91", "bike_id": "90ba5961723be1b7c9688025a7ba4c91", "fusion_lat": 0.0, "is_reserved": 0, "lat": 38.89859833333333, "fusion_lon": 0.0, "is_disabled": 0}, {"rental_uris": {"android": "https://dc.lft.to/lastmile_qr_scan", "ios": "https://dc.lft.to/lastmile_qr_scan"}, "type": "electric_scooter", "lon": -77.03984683333333, "name": "1aebc901bade631be009dc6dfdbbb2f8", "bike_id": "1aebc901bade631be009dc6dfdbbb2f8", "fusion_lat": 0.0, "is_reserved": 0, "lat": 38.89866766666667, "fusion_lon": 0.0, "is_disabled": 0}, {"rental_uris": {"android": "https://dc.lft.to/lastmile_qr_scan", "ios": "https://dc.lft.to/lastmile_qr_scan"}, "type": "electric_scooter", "lon": -76.93163683333333, "name": "5981b1351f1f8535e5d7eaa5ba61c78c", "bike_id": "5981b1351f1f8535e5d7eaa5ba61c78c", "fusion_lat": 0.0, "is_reserved": 0, "lat": 38.898821833333336, "fusion_lon": 0.0, "is_disabled": 0}, {"rental_uris": {"android": "https://dc.lft.to/lastmile_qr_scan", "ios": "https://dc.lft.to/lastmile_qr_scan"}, "type": "electric_scooter", "lon": -76.99013166666667, "name": "be8780582e80d9d6786f40b154fda1fe", "bike_id": "be8780582e80d9d6786f40b154fda1fe", "fusion_lat": 0.0, "is_reserved": 0, "lat": 38.90396483333333, "fusion_lon": 0.0, "is_disabled": 0}, {"rental_uris": {"android": "https://dc.lft.to/lastmile_qr_scan", "ios": "https://dc.lft.to/lastmile_qr_scan"}, "type": "electric_scooter", "lon": -77.00062783333334, "name": "6a0d68f54cae56a25c2a22a497ee2d9b", "bike_id": "6a0d68f54cae56a25c2a22a497ee2d9b", "fusion_lat": 0.0, "is_reserved": 0, "lat": 38.876538833333335, "fusion_lon": 0.0, "is_disabled": 0}, {"rental_uris": {"android": "https://dc.lft.to/lastmile_qr_scan", "ios": "https://dc.lft.to/lastmile_qr_scan"}, "type": "electric_scooter", "lon": -77.02957583333334, "name": "0b93715cf1f1db4d35f454beb33ee284", "bike_id": "0b93715cf1f1db4d35f454beb33ee284", "fusion_lat": 0.0, "is_reserved": 0, "lat": 38.921466333333335, "fusion_lon": 0.0, "is_disabled": 0}, {"rental_uris": {"android": "https://dc.lft.to/lastmile_qr_scan", "ios": "https://dc.lft.to/lastmile_qr_scan"}, "type": "electric_scooter", "lon": -77.02493733333333, "name": "21e87781e3c3a6af5782c812a6b57914", "bike_id": "21e87781e3c3a6af5782c812a6b57914", "fusion_lat": 0.0, "is_reserved": 0, "lat": 38.9418545, "fusion_lon": 0.0, "is_disabled": 0}, {"rental_uris": {"android": "https://dc.lft.to/lastmile_qr_scan", "ios": "https://dc.lft.to/lastmile_qr_scan"}, "type": "electric_scooter", "lon": -77.0274955, "name": "1a4687ede7236a5671e7e2b4d8b013fb", "bike_id": "1a4687ede7236a5671e7e2b4d8b013fb", "fusion_lat": 0.0, "is_reserved": 0, "lat": 38.956097166666666, "fusion_lon": 0.0, "is_disabled": 0}, {"rental_uris": {"android": "https://dc.lft.to/lastmile_qr_scan", "ios": "https://dc.lft.to/lastmile_qr_scan"}, "type": "electric_scooter", "lon": -77.02508733333333, "name": "3f2e842af0190c3e8ef6553089889126", "bike_id": "3f2e842af0190c3e8ef6553089889126", "fusion_lat": 0.0, "is_reserved": 0, "lat": 38.919354, "fusion_lon": 0.0, "is_disabled": 0}, {"rental_uris": {"android": "https://dc.lft.to/lastmile_qr_scan", "ios": "https://dc.lft.to/lastmile_qr_scan"}, "type": "electric_scooter", "lon": -77.04825666666666, "name": "bbb999e2e5c12077ecacb7b5aa09141e", "bike_id": "bbb999e2e5c12077ecacb7b5aa09141e", "fusion_lat": 0.0, "is_reserved": 0, "lat": 38.91490666666667, "fusion_lon": 0.0, "is_disabled": 0}, {"rental_uris": {"android": "https://dc.lft.to/lastmile_qr_scan", "ios": "https://dc.lft.to/lastmile_qr_scan"}, "type": "electric_scooter", "lon": -76.99494583333333, "name": "0bce589263d14a0ce5b5075054b42a14", "bike_id": "0bce589263d14a0ce5b5075054b42a14", "fusion_lat": 0.0, "is_reserved": 0, "lat": 38.862420666666665, "fusion_lon": 0.0, "is_disabled": 0}, {"rental_uris": {"android": "https://dc.lft.to/lastmile_qr_scan", "ios": "https://dc.lft.to/lastmile_qr_scan"}, "type": "electric_scooter", "lon": -77.01625083333333, "name": "c8e4bd73300a41906bab546706e958e8", "bike_id": "c8e4bd73300a41906bab546706e958e8", "fusion_lat": 0.0, "is_reserved": 0, "lat": 38.901710333333334, "fusion_lon": 0.0, "is_disabled": 0}, {"rental_uris": {"android": "https://dc.lft.to/lastmile_qr_scan", "ios": "https://dc.lft.to/lastmile_qr_scan"}, "type": "electric_scooter", "lon": -77.03488116666666, "name": "2364236962c9d3899f1a9623ed38e4ee", "bike_id": "2364236962c9d3899f1a9623ed38e4ee", "fusion_lat": 0.0, "is_reserved": 0, "lat": 38.91127016666667, "fusion_lon": 0.0, "is_disabled": 0}, {"rental_uris": {"android": "https://dc.lft.to/lastmile_qr_scan", "ios": "https://dc.lft.to/lastmile_qr_scan"}, "type": "electric_scooter", "lon": -77.00607883333333, "name": "2409684d0d4a2db21f816ab4ee027fef", "bike_id": "2409684d0d4a2db21f816ab4ee027fef", "fusion_lat": 0.0, "is_reserved": 0, "lat": 38.90554083333333, "fusion_lon": 0.0, "is_disabled": 0}, {"rental_uris": {"android": "https://dc.lft.to/lastmile_qr_scan", "ios": "https://dc.lft.to/lastmile_qr_scan"}, "type": "electric_scooter", "lon": -77.03177416666666, "name": "41fa2f69ca4303a8b68cb66753c6688e", "bike_id": "41fa2f69ca4303a8b68cb66753c6688e", "fusion_lat": 0.0, "is_reserved": 0, "lat": 38.89755816666667, "fusion_lon": 0.0, "is_disabled": 0}, {"rental_uris": {"android": "https://dc.lft.to/lastmile_qr_scan", "ios": "https://dc.lft.to/lastmile_qr_scan"}, "type": "electric_scooter", "lon": -77.021826, "name": "b925b1d368fa89f006ea951201e0cb14", "bike_id": "b925b1d368fa89f006ea951201e0cb14", "fusion_lat": 0.0, "is_reserved": 0, "lat": 38.89225483333333, "fusion_lon": 0.0, "is_disabled": 0}, {"rental_uris": {"android": "https://dc.lft.to/lastmile_qr_scan", "ios": "https://dc.lft.to/lastmile_qr_scan"}, "type": "electric_scooter", "lon": -77.03260516666667, "name": "ba9e2164c8a5efeeabcde2f4b4c114e4", "bike_id": "ba9e2164c8a5efeeabcde2f4b4c114e4", "fusion_lat": 0.0, "is_reserved": 0, "lat": 38.932207166666664, "fusion_lon": 0.0, "is_disabled": 0}, {"rental_uris": {"android": "https://dc.lft.to/lastmile_qr_scan", "ios": "https://dc.lft.to/lastmile_qr_scan"}, "type": "electric_scooter", "lon": -77.021853, "name": "7aef7ea91230ff5b436d74eb5c89d398", "bike_id": "7aef7ea91230ff5b436d74eb5c89d398", "fusion_lat": 0.0, "is_reserved": 0, "lat": 38.892262, "fusion_lon": 0.0, "is_disabled": 0}, {"rental_uris": {"android": "https://dc.lft.to/lastmile_qr_scan", "ios": "https://dc.lft.to/lastmile_qr_scan"}, "type": "electric_scooter", "lon": -77.04591783333333, "name": "4e3777ada8cddb26eb45f4c67cd9fb00", "bike_id": "4e3777ada8cddb26eb45f4c67cd9fb00", "fusion_lat": 0.0, "is_reserved": 0, "lat": 38.921372166666664, "fusion_lon": 0.0, "is_disabled": 0}, {"rental_uris": {"android": "https://dc.lft.to/lastmile_qr_scan", "ios": "https://dc.lft.to/lastmile_qr_scan"}, "type": "electric_scooter", "lon": -77.03493233333333, "name": "709150b24033dce680536c63be597c86", "bike_id": "709150b24033dce680536c63be597c86", "fusion_lat": 0.0, "is_reserved": 0, "lat": 38.916889833333336, "fusion_lon": 0.0, "is_disabled": 0}, {"rental_uris": {"android": "https://dc.lft.to/lastmile_qr_scan", "ios": "https://dc.lft.to/lastmile_qr_scan"}, "type": "electric_scooter", "lon": -77.02320483333334, "name": "c070215fb60dd74ca5c1682774fb6c7f", "bike_id": "c070215fb60dd74ca5c1682774fb6c7f", "fusion_lat": 0.0, "is_reserved": 0, "lat": 38.90210883333334, "fusion_lon": 0.0, "is_disabled": 0}, {"rental_uris": {"android": "https://dc.lft.to/lastmile_qr_scan", "ios": "https://dc.lft.to/lastmile_qr_scan"}, "type": "electric_bike", "lon": -76.9882825, "name": "02581af89f5db288d7761e55320608e0", "bike_id": "02581af89f5db288d7761e55320608e0", "fusion_lat": 0.0, "is_reserved": 0, "lat": 38.985610333333334, "fusion_lon": 0.0, "is_disabled": 0}, {"rental_uris": {"android": "https://dc.lft.to/lastmile_qr_scan", "ios": "https://dc.lft.to/lastmile_qr_scan"}, "type": "electric_scooter", "lon": -77.04848383333334, "name": "9f3a974cd1ce3d39a7a6a730fc0454b0", "bike_id": "9f3a974cd1ce3d39a7a6a730fc0454b0", "fusion_lat": 0.0, "is_reserved": 0, "lat": 38.90050733333333, "fusion_lon": 0.0, "is_disabled": 0}, {"rental_uris": {"android": "https://dc.lft.to/lastmile_qr_scan", "ios": "https://dc.lft.to/lastmile_qr_scan"}, "type": "electric_scooter", "lon": -77.04475433333333, "name": "fac9050bb2792be050a5ea29681ca363", "bike_id": "fac9050bb2792be050a5ea29681ca363", "fusion_lat": 0.0, "is_reserved": 0, "lat": 38.90410033333333, "fusion_lon": 0.0, "is_disabled": 0}, {"rental_uris": {"android": "https://dc.lft.to/lastmile_qr_scan", "ios": "https://dc.lft.to/lastmile_qr_scan"}, "type": "electric_bike", "lon": -77.0237945, "name": "36648fbdd722df1a1efc7f5caa644fa9", "bike_id": "36648fbdd722df1a1efc7f5caa644fa9", "fusion_lat": 0.0, "is_reserved": 0, "lat": 38.9322455, "fusion_lon": 0.0, "is_disabled": 0}, {"rental_uris": {"android": "https://dc.lft.to/lastmile_qr_scan", "ios": "https://dc.lft.to/lastmile_qr_scan"}, "type": "electric_scooter", "lon": -77.0235335, "name": "963cc960b159d61b0d3177e800879662", "bike_id": "963cc960b159d61b0d3177e800879662", "fusion_lat": 0.0, "is_reserved": 0, "lat": 38.933236666666666, "fusion_lon": 0.0, "is_disabled": 0}, {"rental_uris": {"android": "https://dc.lft.to/lastmile_qr_scan", "ios": "https://dc.lft.to/lastmile_qr_scan"}, "type": "electric_scooter", "lon": -77.02916766666667, "name": "01bda66fc1a3a4881182e9c7a742ffcb", "bike_id": "01bda66fc1a3a4881182e9c7a742ffcb", "fusion_lat": 0.0, "is_reserved": 0, "lat": 38.916825, "fusion_lon": 0.0, "is_disabled": 0}, {"rental_uris": {"android": "https://dc.lft.to/lastmile_qr_scan", "ios": "https://dc.lft.to/lastmile_qr_scan"}, "type": "electric_bike", "lon": -77.04643416666667, "name": "1acf3327e99213163fd073075b6b6296", "bike_id": "1acf3327e99213163fd073075b6b6296", "fusion_lat": 0.0, "is_reserved": 0, "lat": 38.88398316666667, "fusion_lon": 0.0, "is_disabled": 0}, {"rental_uris": {"android": "https://dc.lft.to/lastmile_qr_scan", "ios": "https://dc.lft.to/lastmile_qr_scan"}, "type": "electric_bike", "lon": -77.10510433333333, "name": "6edf83c769605b357972df055f28614f", "bike_id": "6edf83c769605b357972df055f28614f", "fusion_lat": 0.0, "is_reserved": 0, "lat": 38.92849616666667, "fusion_lon": 0.0, "is_disabled": 0}, {"rental_uris": {"android": "https://dc.lft.to/lastmile_qr_scan", "ios": "https://dc.lft.to/lastmile_qr_scan"}, "type": "electric_scooter", "lon": -77.028533, "name": "cac0a2ffe200ca5d69f4ef888bfa35e6", "bike_id": "cac0a2ffe200ca5d69f4ef888bfa35e6", "fusion_lat": 0.0, "is_reserved": 0, "lat": 38.932714, "fusion_lon": 0.0, "is_disabled": 0}, {"rental_uris": {"android": "https://dc.lft.to/lastmile_qr_scan", "ios": "https://dc.lft.to/lastmile_qr_scan"}, "type": "electric_scooter", "lon": -77.042429, "name": "40b73276a551cc3c4297bd756ee15251", "bike_id": "40b73276a551cc3c4297bd756ee15251", "fusion_lat": 0.0, "is_reserved": 0, "lat": 38.917852833333335, "fusion_lon": 0.0, "is_disabled": 0}, {"rental_uris": {"android": "https://dc.lft.to/lastmile_qr_scan", "ios": "https://dc.lft.to/lastmile_qr_scan"}, "type": "electric_scooter", "lon": -77.065963, "name": "4fa400e33910aa90cad021cf6ab21103", "bike_id": "4fa400e33910aa90cad021cf6ab21103", "fusion_lat": 0.0, "is_reserved": 0, "lat": 38.903641666666665, "fusion_lon": 0.0, "is_disabled": 0}, {"rental_uris": {"android": "https://dc.lft.to/lastmile_qr_scan", "ios": "https://dc.lft.to/lastmile_qr_scan"}, "type": "electric_scooter", "lon": -77.03077166666667, "name": "c5c0c5d21ca2e13445279ad539cee98c", "bike_id": "c5c0c5d21ca2e13445279ad539cee98c", "fusion_lat": 0.0, "is_reserved": 0, "lat": 38.899743, "fusion_lon": 0.0, "is_disabled": 0}, {"rental_uris": {"android": "https://dc.lft.to/lastmile_qr_scan", "ios": "https://dc.lft.to/lastmile_qr_scan"}, "type": "electric_scooter", "lon": -77.01337916666667, "name": "12ff4a3a1c1baff136147f36cc63c61d", "bike_id": "12ff4a3a1c1baff136147f36cc63c61d", "fusion_lat": 0.0, "is_reserved": 0, "lat": 38.88141616666667, "fusion_lon": 0.0, "is_disabled": 0}, {"rental_uris": {"android": "https://dc.lft.to/lastmile_qr_scan", "ios": "https://dc.lft.to/lastmile_qr_scan"}, "type": "electric_scooter", "lon": -77.01134333333333, "name": "539900107cd7d225c12bd2af196d2bd1", "bike_id": "539900107cd7d225c12bd2af196d2bd1", "fusion_lat": 0.0, "is_reserved": 0, "lat": 38.8852195, "fusion_lon": 0.0, "is_disabled": 0}, {"rental_uris": {"android": "https://dc.lft.to/lastmile_qr_scan", "ios": "https://dc.lft.to/lastmile_qr_scan"}, "type": "electric_scooter", "lon": -77.02821916666667, "name": "410564c9a46416fa1d2cb3905023c7e0", "bike_id": "410564c9a46416fa1d2cb3905023c7e0", "fusion_lat": 0.0, "is_reserved": 0, "lat": 38.93069283333333, "fusion_lon": 0.0, "is_disabled": 0}, {"rental_uris": {"android": "https://dc.lft.to/lastmile_qr_scan", "ios": "https://dc.lft.to/lastmile_qr_scan"}, "type": "electric_bike", "lon": -77.095496, "name": "be517373ef818434baa2e5d9df9616ef", "bike_id": "be517373ef818434baa2e5d9df9616ef", "fusion_lat": 0.0, "is_reserved": 0, "lat": 38.83809816666667, "fusion_lon": 0.0, "is_disabled": 0}, {"rental_uris": {"android": "https://dc.lft.to/lastmile_qr_scan", "ios": "https://dc.lft.to/lastmile_qr_scan"}, "type": "electric_scooter", "lon": -77.03825716666667, "name": "48e0cee666c9fd55ca4bd1c84cb52354", "bike_id": "48e0cee666c9fd55ca4bd1c84cb52354", "fusion_lat": 0.0, "is_reserved": 0, "lat": 38.90392633333333, "fusion_lon": 0.0, "is_disabled": 0}, {"rental_uris": {"android": "https://dc.lft.to/lastmile_qr_scan", "ios": "https://dc.lft.to/lastmile_qr_scan"}, "type": "electric_scooter", "lon": -77.0726295, "name": "a4991ac80623e79310d0e6ab62feba38", "bike_id": "a4991ac80623e79310d0e6ab62feba38", "fusion_lat": 0.0, "is_reserved": 0, "lat": 38.913264833333336, "fusion_lon": 0.0, "is_disabled": 0}, {"rental_uris": {"android": "https://dc.lft.to/lastmile_qr_scan", "ios": "https://dc.lft.to/lastmile_qr_scan"}, "type": "electric_scooter", "lon": -77.02882183333334, "name": "b2a3c77bdfab6c12e338d76c8c6c55d4", "bike_id": "b2a3c77bdfab6c12e338d76c8c6c55d4", "fusion_lat": 0.0, "is_reserved": 0, "lat": 38.90117933333333, "fusion_lon": 0.0, "is_disabled": 0}, {"rental_uris": {"android": "https://dc.lft.to/lastmile_qr_scan", "ios": "https://dc.lft.to/lastmile_qr_scan"}, "type": "electric_scooter", "lon": -77.04956583333333, "name": "59bd2ee3e01be8cafee60c0461b34fb6", "bike_id": "59bd2ee3e01be8cafee60c0461b34fb6", "fusion_lat": 0.0, "is_reserved": 0, "lat": 38.90525683333333, "fusion_lon": 0.0, "is_disabled": 0}, {"rental_uris": {"android": "https://dc.lft.to/lastmile_qr_scan", "ios": "https://dc.lft.to/lastmile_qr_scan"}, "type": "electric_scooter", "lon": -77.01587833333333, "name": "20b74bdf66fe7cfeefa67d0974e85756", "bike_id": "20b74bdf66fe7cfeefa67d0974e85756", "fusion_lat": 0.0, "is_reserved": 0, "lat": 38.87681333333333, "fusion_lon": 0.0, "is_disabled": 0}, {"rental_uris": {"android": "https://dc.lft.to/lastmile_qr_scan", "ios": "https://dc.lft.to/lastmile_qr_scan"}, "type": "electric_scooter", "lon": -77.04300983333333, "name": "0cd640e2d986105269b998cb085133f2", "bike_id": "0cd640e2d986105269b998cb085133f2", "fusion_lat": 0.0, "is_reserved": 0, "lat": 38.92260266666667, "fusion_lon": 0.0, "is_disabled": 0}, {"rental_uris": {"android": "https://dc.lft.to/lastmile_qr_scan", "ios": "https://dc.lft.to/lastmile_qr_scan"}, "type": "electric_scooter", "lon": -76.95199916666667, "name": "46936a8bc2731d9b7d7c80da0d6e32bb", "bike_id": "46936a8bc2731d9b7d7c80da0d6e32bb", "fusion_lat": 0.0, "is_reserved": 0, "lat": 38.8867125, "fusion_lon": 0.0, "is_disabled": 0}, {"rental_uris": {"android": "https://dc.lft.to/lastmile_qr_scan", "ios": "https://dc.lft.to/lastmile_qr_scan"}, "type": "electric_scooter", "lon": -77.042616, "name": "a28a21a08b18ec9e72a4adac94c4be71", "bike_id": "a28a21a08b18ec9e72a4adac94c4be71", "fusion_lat": 0.0, "is_reserved": 0, "lat": 38.92044716666667, "fusion_lon": 0.0, "is_disabled": 0}, {"rental_uris": {"android": "https://dc.lft.to/lastmile_qr_scan", "ios": "https://dc.lft.to/lastmile_qr_scan"}, "type": "electric_bike", "lon": -76.9320095, "name": "8c9fbbfe6ff6ffe4a5d62cd9cbe390f1", "bike_id": "8c9fbbfe6ff6ffe4a5d62cd9cbe390f1", "fusion_lat": 0.0, "is_reserved": 0, "lat": 38.872369, "fusion_lon": 0.0, "is_disabled": 0}, {"rental_uris": {"android": "https://dc.lft.to/lastmile_qr_scan", "ios": "https://dc.lft.to/lastmile_qr_scan"}, "type": "electric_bike", "lon": -77.09965566666666, "name": "331746f88c828498e8669fd5ae3fc865", "bike_id": "331746f88c828498e8669fd5ae3fc865", "fusion_lat": 0.0, "is_reserved": 0, "lat": 38.857800833333336, "fusion_lon": 0.0, "is_disabled": 0}, {"rental_uris": {"android": "https://dc.lft.to/lastmile_qr_scan", "ios": "https://dc.lft.to/lastmile_qr_scan"}, "type": "electric_scooter", "lon": -77.07662783333333, "name": "74fbfae622f497bdb85ddefba926db82", "bike_id": "74fbfae622f497bdb85ddefba926db82", "fusion_lat": 0.0, "is_reserved": 0, "lat": 38.910788333333336, "fusion_lon": 0.0, "is_disabled": 0}, {"rental_uris": {"android": "https://dc.lft.to/lastmile_qr_scan", "ios": "https://dc.lft.to/lastmile_qr_scan"}, "type": "electric_scooter", "lon": -77.0365635, "name": "77c1a60839e55fe9f21875a2bfc7cbc6", "bike_id": "77c1a60839e55fe9f21875a2bfc7cbc6", "fusion_lat": 0.0, "is_reserved": 0, "lat": 38.95643716666667, "fusion_lon": 0.0, "is_disabled": 0}, {"rental_uris": {"android": "https://dc.lft.to/lastmile_qr_scan", "ios": "https://dc.lft.to/lastmile_qr_scan"}, "type": "electric_scooter", "lon": -77.02626383333333, "name": "4bbf091a0439cfc4d9cd31c42a9e142d", "bike_id": "4bbf091a0439cfc4d9cd31c42a9e142d", "fusion_lat": 0.0, "is_reserved": 0, "lat": 38.887368, "fusion_lon": 0.0, "is_disabled": 0}, {"rental_uris": {"android": "https://dc.lft.to/lastmile_qr_scan", "ios": "https://dc.lft.to/lastmile_qr_scan"}, "type": "electric_scooter", "lon": -77.03855166666666, "name": "7bb930ac07e1dde897b8b522ea4869b2", "bike_id": "7bb930ac07e1dde897b8b522ea4869b2", "fusion_lat": 0.0, "is_reserved": 0, "lat": 38.916084, "fusion_lon": 0.0, "is_disabled": 0}, {"rental_uris": {"android": "https://dc.lft.to/lastmile_qr_scan", "ios": "https://dc.lft.to/lastmile_qr_scan"}, "type": "electric_bike", "lon": -77.00346983333333, "name": "f12c1695fc25481fceafeafe795bb62b", "bike_id": "f12c1695fc25481fceafeafe795bb62b", "fusion_lat": 0.0, "is_reserved": 0, "lat": 38.907411333333336, "fusion_lon": 0.0, "is_disabled": 0}, {"rental_uris": {"android": "https://dc.lft.to/lastmile_qr_scan", "ios": "https://dc.lft.to/lastmile_qr_scan"}, "type": "electric_scooter", "lon": -77.03506316666666, "name": "7e1e889f7fb7eb4c4cbf9f34610dc1bf", "bike_id": "7e1e889f7fb7eb4c4cbf9f34610dc1bf", "fusion_lat": 0.0, "is_reserved": 0, "lat": 38.9187985, "fusion_lon": 0.0, "is_disabled": 0}, {"rental_uris": {"android": "https://dc.lft.to/lastmile_qr_scan", "ios": "https://dc.lft.to/lastmile_qr_scan"}, "type": "electric_scooter", "lon": -77.022089, "name": "957dbf7ac913da7837e2e067756ca173", "bike_id": "957dbf7ac913da7837e2e067756ca173", "fusion_lat": 0.0, "is_reserved": 0, "lat": 38.9210855, "fusion_lon": 0.0, "is_disabled": 0}, {"rental_uris": {"android": "https://dc.lft.to/lastmile_qr_scan", "ios": "https://dc.lft.to/lastmile_qr_scan"}, "type": "electric_scooter", "lon": -77.03959966666666, "name": "d51118dd51614057e1eb710f897d0eeb", "bike_id": "d51118dd51614057e1eb710f897d0eeb", "fusion_lat": 0.0, "is_reserved": 0, "lat": 38.892435166666665, "fusion_lon": 0.0, "is_disabled": 0}, {"rental_uris": {"android": "https://dc.lft.to/lastmile_qr_scan", "ios": "https://dc.lft.to/lastmile_qr_scan"}, "type": "electric_scooter", "lon": -77.02775733333333, "name": "dc7f6b185b4f6eaee0772d0da6cffcf9", "bike_id": "dc7f6b185b4f6eaee0772d0da6cffcf9", "fusion_lat": 0.0, "is_reserved": 0, "lat": 38.89211233333333, "fusion_lon": 0.0, "is_disabled": 0}, {"rental_uris": {"android": "https://dc.lft.to/lastmile_qr_scan", "ios": "https://dc.lft.to/lastmile_qr_scan"},