{"data": {"bikes": [{"rental_uris": {"ios": "https://dc.lft.to/lastmile_qr_scan", "android": "https://dc.lft.to/lastmile_qr_scan"}, "lon": -77.03973733333333, "type": "electric_scooter", "fusion_lat": 0.0, "lat": 38.9023835, "name": "f53064c4a8de4888d0438e21b14a30de", "fusion_lon": 0.0, "bike_id": "f53064c4a8de4888d0438e21b14a30de", "is_disabled": 0, "is_reserved": 0}, {"rental_uris": {"ios": "https://dc.lft.to/lastmile_qr_scan", "android": "https://dc.lft.to/lastmile_qr_scan"}, "lon": -77.05031933333333, "type": "electric_scooter", "fusion_lat": 0.0, "lat": 38.89654683333333, "name": "77eaf8fc9b8221503b8dba3c47da81b1", "fusion_lon": 0.0, "bike_id": "77eaf8fc9b8221503b8dba3c47da81b1", "is_disabled": 0, "is_reserved": 0}, {"rental_uris": {"ios": "https://dc.lft.to/lastmile_qr_scan", "android": "https://dc.lft.to/lastmile_qr_scan"}, "lon": -77.03669083333334, "type": "electric_scooter", "fusion_lat": 0.0, "lat": 38.929941166666666, "name": "8547ce1cce2f12f271fa5572f0f3bf31", "fusion_lon": 0.0, "bike_id": "8547ce1cce2f12f271fa5572f0f3bf31", "is_disabled": 0, "is_reserved": 0}, {"rental_uris": {"ios": "https://dc.lft.to/lastmile_qr_scan", "android": "https://dc.lft.to/lastmile_qr_scan"}, "lon": -77.0245635, "type": "electric_scooter", "fusion_lat": 0.0, "lat": 38.9793765, "name": "0ac455dd54ff3a8be434dcaa4e554009", "fusion_lon": 0.0, "bike_id": "0ac455dd54ff3a8be434dcaa4e554009", "is_disabled": 0, "is_reserved": 0}, {"rental_uris": {"ios": "https://dc.lft.to/lastmile_qr_scan", "android": "https://dc.lft.to/lastmile_qr_scan"}, "lon": -77.04134616666667, "type": "electric_scooter", "fusion_lat": 0.0, "lat": 38.92351883333333, "name": "5aa54c66a7cf3c48f61cd9433ed1eb00", "fusion_lon": 0.0, "bike_id": "5aa54c66a7cf3c48f61cd9433ed1eb00", "is_disabled": 0, "is_reserved": 0}, {"rental_uris": {"ios": "https://dc.lft.to/lastmile_qr_scan", "android": "https://dc.lft.to/lastmile_qr_scan"}, "lon": -76.9732945, "type": "electric_bike", "fusion_lat": 0.0, "lat": 38.85058083333333, "name": "f18b8716d6df6551d21c7a05feac694a", "fusion_lon": 0.0, "bike_id": "f18b8716d6df6551d21c7a05feac694a", "is_disabled": 0, "is_reserved": 0}, {"rental_uris": {"ios": "https://dc.lft.to/lastmile_qr_scan", "android": "https://dc.lft.to/lastmile_qr_scan"}, "lon": -77.030973, "type": "electric_scooter", "fusion_lat": 0.0, "lat": 38.90444566666667, "name": "d5889de377409675532185b1612766ab", "fusion_lon": 0.0, "bike_id": "d5889de377409675532185b1612766ab", "is_disabled": 0, "is_reserved": 0}, {"rental_uris": {"ios": "https://dc.lft.to/lastmile_qr_scan", "android": "https://dc.lft.to/lastmile_qr_scan"}, "lon": -77.04794766666667, "type": "electric_scooter", "fusion_lat": 0.0, "lat": 38.907205833333336, "name": "38343c873bc3d2707a748d7c371e42a5", "fusion_lon": 0.0, "bike_id": "38343c873bc3d2707a748d7c371e42a5", "is_disabled": 0, "is_reserved": 0}, {"rental_uris": {"ios": "https://dc.lft.to/lastmile_qr_scan", "android": "https://dc.lft.to/lastmile_qr_scan"}, "lon": -77.02416083333334, "type": "electric_scooter", "fusion_lat": 0.0, "lat": 38.918249, "name": "532557d4c1f72e96f12f37f3c0cf95ca", "fusion_lon": 0.0, "bike_id": "532557d4c1f72e96f12f37f3c0cf95ca", "is_disabled": 0, "is_reserved": 0}, {"rental_uris": {"ios": "https://dc.lft.to/lastmile_qr_scan", "android": "https://dc.lft.to/lastmile_qr_scan"}, "lon": -77.02334966666666, "type": "electric_scooter", "fusion_lat": 0.0, "lat": 38.930537666666666, "name": "7013dcfbf46f8b7ca1058e120571a723", "fusion_lon": 0.0, "bike_id": "7013dcfbf46f8b7ca1058e120571a723", "is_disabled": 0, "is_reserved": 0}, {"rental_uris": {"ios": "https://dc.lft.to/lastmile_qr_scan", "android": "https://dc.lft.to/lastmile_qr_scan"}, "lon": -77.04613333333333, "type": "electric_scooter", "fusion_lat": 0.0, "lat": 38.90205666666667, "name": "18b0b810b04223add24a3022444842a2", "fusion_lon": 0.0, "bike_id": "18b0b810b04223add24a3022444842a2", "is_disabled": 0, "is_reserved": 0}, {"rental_uris": {"ios": "https://dc.lft.to/lastmile_qr_scan", "android": "https://dc.lft.to/lastmile_qr_scan"}, "lon": -77.05272233333334, "type": "electric_scooter", "fusion_lat": 0.0, "lat": 38.91008683333333, "name": "c441bcea08505d5832c5d1dc107a7dd3", "fusion_lon": 0.0, "bike_id": "c441bcea08505d5832c5d1dc107a7dd3", "is_disabled": 0, "is_reserved": 0}, {"rental_uris": {"ios": "https://dc.lft.to/lastmile_qr_scan", "android": "https://dc.lft.to/lastmile_qr_scan"}, "lon": -77.0379675, "type": "electric_scooter", "fusion_lat": 0.0, "lat": 38.921888833333334, "name": "ab59ac5423fdfc1a218647c1f5db33e6", "fusion_lon": 0.0, "bike_id": "ab59ac5423fdfc1a218647c1f5db33e6", "is_disabled": 0, "is_reserved": 0}, {"rental_uris": {"ios": "https://dc.lft.to/lastmile_qr_scan", "android": "https://dc.lft.to/lastmile_qr_scan"}, "lon": -77.02578933333334, "type": "electric_scooter", "fusion_lat": 0.0, "lat": 38.9182045, "name": "77c29fbfb7c4f4ea45927be30697f8d0", "fusion_lon": 0.0, "bike_id": "77c29fbfb7c4f4ea45927be30697f8d0", "is_disabled": 0, "is_reserved": 0}, {"rental_uris": {"ios": "https://dc.lft.to/lastmile_qr_scan", "android": "https://dc.lft.to/lastmile_qr_scan"}, "lon": -77.03811566666667, "type": "electric_bike", "fusion_lat": 0.0, "lat": 38.91803866666667, "name": "730d6a3874f8c9ce7f605781f29613b2", "fusion_lon": 0.0, "bike_id": "730d6a3874f8c9ce7f605781f29613b2", "is_disabled": 0, "is_reserved": 0}, {"rental_uris": {"ios": "https://dc.lft.to/lastmile_qr_scan", "android": "https://dc.lft.to/lastmile_qr_scan"}, "lon": -77.0240715, "type": "electric_scooter", "fusion_lat": 0.0, "lat": 38.915483, "name": "7d60aefbefdc1124813ec6c0375f754a", "fusion_lon": 0.0, "bike_id": "7d60aefbefdc1124813ec6c0375f754a", "is_disabled": 0, "is_reserved": 0}, {"rental_uris": {"ios": "https://dc.lft.to/lastmile_qr_scan", "android": "https://dc.lft.to/lastmile_qr_scan"}, "lon": -76.94996533333334, "type": "electric_scooter", "fusion_lat": 0.0, "lat": 38.8937085, "name": "7c9cac5af7c8b0c223290b65e87c07e5", "fusion_lon": 0.0, "bike_id": "7c9cac5af7c8b0c223290b65e87c07e5", "is_disabled": 0, "is_reserved": 0}, {"rental_uris": {"ios": "https://dc.lft.to/lastmile_qr_scan", "android": "https://dc.lft.to/lastmile_qr_scan"}, "lon": -77.03843683333334, "type": "electric_scooter", "fusion_lat": 0.0, "lat": 38.902987, "name": "b1cf4d5c09e6ebe043e13f07b8ffa9d7", "fusion_lon": 0.0, "bike_id": "b1cf4d5c09e6ebe043e13f07b8ffa9d7", "is_disabled": 0, "is_reserved": 0}, {"rental_uris": {"ios": "https://dc.lft.to/lastmile_qr_scan", "android": "https://dc.lft.to/lastmile_qr_scan"}, "lon": -77.08264233333334, "type": "electric_scooter", "fusion_lat": 0.0, "lat": 38.93036566666667, "name": "b16aa6a179e6ef2f7a810a8dbbe93beb", "fusion_lon": 0.0, "bike_id": "b16aa6a179e6ef2f7a810a8dbbe93beb", "is_disabled": 0, "is_reserved": 0}, {"rental_uris": {"ios": "https://dc.lft.to/lastmile_qr_scan", "android": "https://dc.lft.to/lastmile_qr_scan"}, "lon": -77.07198883333334, "type": "electric_scooter", "fusion_lat": 0.0, "lat": 38.93189316666667, "name": "3ff4aa8bf521d9fca94b0facfa3b310a", "fusion_lon": 0.0, "bike_id": "3ff4aa8bf521d9fca94b0facfa3b310a", "is_disabled": 0, "is_reserved": 0}, {"rental_uris": {"ios": "https://dc.lft.to/lastmile_qr_scan", "android": "https://dc.lft.to/lastmile_qr_scan"}, "lon": -77.05059866666667, "type": "electric_scooter", "fusion_lat": 0.0, "lat": 38.900732833333336, "name": "22e5a6eb3a4aaa8a8edbbdb324af3da7", "fusion_lon": 0.0, "bike_id": "22e5a6eb3a4aaa8a8edbbdb324af3da7", "is_disabled": 0, "is_reserved": 0}, {"rental_uris": {"ios": "https://dc.lft.to/lastmile_qr_scan", "android": "https://dc.lft.to/lastmile_qr_scan"}, "lon": -77.0242635, "type": "electric_scooter", "fusion_lat": 0.0, "lat": 38.91564616666667, "name": "f42ce3c04707a3f8f891d2a739a9cb6c", "fusion_lon": 0.0, "bike_id": "f42ce3c04707a3f8f891d2a739a9cb6c", "is_disabled": 0, "is_reserved": 0}, {"rental_uris": {"ios": "https://dc.lft.to/lastmile_qr_scan", "android": "https://dc.lft.to/lastmile_qr_scan"}, "lon": -77.01774083333333, "type": "electric_scooter", "fusion_lat": 0.0, "lat": 38.900338833333336, "name": "2c1d5210a397aee78ff1c33c3e272f12", "fusion_lon": 0.0, "bike_id": "2c1d5210a397aee78ff1c33c3e272f12", "is_disabled": 0, "is_reserved": 0}, {"rental_uris": {"ios": "https://dc.lft.to/lastmile_qr_scan", "android": "https://dc.lft.to/lastmile_qr_scan"}, "lon": -77.18291866666667, "type": "electric_bike", "fusion_lat": 0.0, "lat": 38.883446166666666, "name": "7e28141d107cc4271650af0a2c157fae", "fusion_lon": 0.0, "bike_id": "7e28141d107cc4271650af0a2c157fae", "is_disabled": 0, "is_reserved": 0}, {"rental_uris": {"ios": "https://dc.lft.to/lastmile_qr_scan", "android": "https://dc.lft.to/lastmile_qr_scan"}, "lon": -76.97817733333333, "type": "electric_scooter", "fusion_lat": 0.0, "lat": 38.89522683333333, "name": "0fbe2b790c7842b8710f6dcac82a7b27", "fusion_lon": 0.0, "bike_id": "0fbe2b790c7842b8710f6dcac82a7b27", "is_disabled": 0, "is_reserved": 0}, {"rental_uris": {"ios": "https://dc.lft.to/lastmile_qr_scan", "android": "https://dc.lft.to/lastmile_qr_scan"}, "lon": -77.024782, "type": "electric_scooter", "fusion_lat": 0.0, "lat": 38.93095816666667, "name": "46a2238d7f5c8866344c99fee92c546e", "fusion_lon": 0.0, "bike_id": "46a2238d7f5c8866344c99fee92c546e", "is_disabled": 0, "is_reserved": 0}, {"rental_uris": {"ios": "https://dc.lft.to/lastmile_qr_scan", "android": "https://dc.lft.to/lastmile_qr_scan"}, "lon": -77.03467083333334, "type": "electric_scooter", "fusion_lat": 0.0, "lat": 38.9077135, "name": "7979df58a99b2fd0639dc98a9e81fe1b", "fusion_lon": 0.0, "bike_id": "7979df58a99b2fd0639dc98a9e81fe1b", "is_disabled": 0, "is_reserved": 0}, {"rental_uris": {"ios": "https://dc.lft.to/lastmile_qr_scan", "android": "https://dc.lft.to/lastmile_qr_scan"}, "lon": -77.0333275, "type": "electric_scooter", "fusion_lat": 0.0, "lat": 38.901539666666665, "name": "64578e963671c8e8e594022d673ee0a1", "fusion_lon": 0.0, "bike_id": "64578e963671c8e8e594022d673ee0a1", "is_disabled": 0, "is_reserved": 0}, {"rental_uris": {"ios": "https://dc.lft.to/lastmile_qr_scan", "android": "https://dc.lft.to/lastmile_qr_scan"}, "lon": -77.02746583333334, "type": "electric_scooter", "fusion_lat": 0.0, "lat": 38.97143583333333, "name": "def166f8542ab14e409539cd619dc5e7", "fusion_lon": 0.0, "bike_id": "def166f8542ab14e409539cd619dc5e7", "is_disabled": 0, "is_reserved": 0}, {"rental_uris": {"ios": "https://dc.lft.to/lastmile_qr_scan", "android": "https://dc.lft.to/lastmile_qr_scan"}, "lon": -77.05040483333333, "type": "electric_scooter", "fusion_lat": 0.0, "lat": 38.923646166666664, "name": "13501f8b455d7d83cddd9b0f4271539b", "fusion_lon": 0.0, "bike_id": "13501f8b455d7d83cddd9b0f4271539b", "is_disabled": 0, "is_reserved": 0}, {"rental_uris": {"ios": "https://dc.lft.to/lastmile_qr_scan", "android": "https://dc.lft.to/lastmile_qr_scan"}, "lon": -77.02564633333333, "type": "electric_scooter", "fusion_lat": 0.0, "lat": 38.90854483333333, "name": "c0d01a6675a220b31307594df74d880c", "fusion_lon": 0.0, "bike_id": "c0d01a6675a220b31307594df74d880c", "is_disabled": 0, "is_reserved": 0}, {"rental_uris": {"ios": "https://dc.lft.to/lastmile_qr_scan", "android": "https://dc.lft.to/lastmile_qr_scan"}, "lon": -76.9323935, "type": "electric_bike", "fusion_lat": 0.0, "lat": 38.88276183333333, "name": "1f792420ee7eaa22bd34489b45ac7ea2", "fusion_lon": 0.0, "bike_id": "1f792420ee7eaa22bd34489b45ac7ea2", "is_disabled": 0, "is_reserved": 0}, {"rental_uris": {"ios": "https://dc.lft.to/lastmile_qr_scan", "android": "https://dc.lft.to/lastmile_qr_scan"}, "lon": -77.070974, "type": "electric_scooter", "fusion_lat": 0.0, "lat": 38.933649833333334, "name": "0504c73c67363b24c919a81da731ae7f", "fusion_lon": 0.0, "bike_id": "0504c73c67363b24c919a81da731ae7f", "is_disabled": 0, "is_reserved": 0}, {"rental_uris": {"ios": "https://dc.lft.to/lastmile_qr_scan", "android": "https://dc.lft.to/lastmile_qr_scan"}, "lon": -76.982089, "type": "electric_scooter", "fusion_lat": 0.0, "lat": 38.89087766666667, "name": "7a84d0cb6b965112dfd6665b8a28fe73", "fusion_lon": 0.0, "bike_id": "7a84d0cb6b965112dfd6665b8a28fe73", "is_disabled": 0, "is_reserved": 0}, {"rental_uris": {"ios": "https://dc.lft.to/lastmile_qr_scan", "android": "https://dc.lft.to/lastmile_qr_scan"}, "lon": -77.055035, "type": "electric_scooter", "fusion_lat": 0.0, "lat": 38.929735666666666, "name": "d5c3664266fcff7eb34b68174cee69d7", "fusion_lon": 0.0, "bike_id": "d5c3664266fcff7eb34b68174cee69d7", "is_disabled": 0, "is_reserved": 0}, {"rental_uris": {"ios": "https://dc.lft.to/lastmile_qr_scan", "android": "https://dc.lft.to/lastmile_qr_scan"}, "lon": -77.02784316666667, "type": "electric_scooter", "fusion_lat": 0.0, "lat": 38.96133, "name": "780d34f441c42812ecc12b074527b6f2", "fusion_lon": 0.0, "bike_id": "780d34f441c42812ecc12b074527b6f2", "is_disabled": 0, "is_reserved": 0}, {"rental_uris": {"ios": "https://dc.lft.to/lastmile_qr_scan", "android": "https://dc.lft.to/lastmile_qr_scan"}, "lon": -77.03211033333334, "type": "electric_scooter", "fusion_lat": 0.0, "lat": 38.920735, "name": "1f95eef3d2a3aae8f13fa23f64da189b", "fusion_lon": 0.0, "bike_id": "1f95eef3d2a3aae8f13fa23f64da189b", "is_disabled": 0, "is_reserved": 0}, {"rental_uris": {"ios": "https://dc.lft.to/lastmile_qr_scan", "android": "https://dc.lft.to/lastmile_qr_scan"}, "lon": -77.036415, "type": "electric_scooter", "fusion_lat": 0.0, "lat": 38.90326916666667, "name": "4eb684ab6d3650e1accb977d4dc0e67d", "fusion_lon": 0.0, "bike_id": "4eb684ab6d3650e1accb977d4dc0e67d", "is_disabled": 0, "is_reserved": 0}, {"rental_uris": {"ios": "https://dc.lft.to/lastmile_qr_scan", "android": "https://dc.lft.to/lastmile_qr_scan"}, "lon": -77.0395365, "type": "electric_scooter", "fusion_lat": 0.0, "lat": 38.92611516666667, "name": "62ca182f590165c4c6700e1b4a7211e3", "fusion_lon": 0.0, "bike_id": "62ca182f590165c4c6700e1b4a7211e3", "is_disabled": 0, "is_reserved": 0}, {"rental_uris": {"ios": "https://dc.lft.to/lastmile_qr_scan", "android": "https://dc.lft.to/lastmile_qr_scan"}, "lon": -77.0418865, "type": "electric_scooter", "fusion_lat": 0.0, "lat": 38.92201716666667, "name": "6ee01aa05c102904b6bf5d6bfcd64830", "fusion_lon": 0.0, "bike_id": "6ee01aa05c102904b6bf5d6bfcd64830", "is_disabled": 0, "is_reserved": 0}, {"rental_uris": {"ios": "https://dc.lft.to/lastmile_qr_scan", "android": "https://dc.lft.to/lastmile_qr_scan"}, "lon": -77.05315583333334, "type": "electric_scooter", "fusion_lat": 0.0, "lat": 38.9017175, "name": "6d304c3c72fd9e1dc74473e6da3599a5", "fusion_lon": 0.0, "bike_id": "6d304c3c72fd9e1dc74473e6da3599a5", "is_disabled": 0, "is_reserved": 0}, {"rental_uris": {"ios": "https://dc.lft.to/lastmile_qr_scan", "android": "https://dc.lft.to/lastmile_qr_scan"}, "lon": -76.99146816666666, "type": "electric_scooter", "fusion_lat": 0.0, "lat": 38.9003735, "name": "70957976aa461eb39ab8bd7c3dd5e5ab", "fusion_lon": 0.0, "bike_id": "70957976aa461eb39ab8bd7c3dd5e5ab", "is_disabled": 0, "is_reserved": 0}, {"rental_uris": {"ios": "https://dc.lft.to/lastmile_qr_scan", "android": "https://dc.lft.to/lastmile_qr_scan"}, "lon": -76.9800475, "type": "electric_bike", "fusion_lat": 0.0, "lat": 38.86280216666667, "name": "15fa7685e755dffd0087bf31a7197e7b", "fusion_lon": 0.0, "bike_id": "15fa7685e755dffd0087bf31a7197e7b", "is_disabled": 0, "is_reserved": 0}, {"rental_uris": {"ios": "https://dc.lft.to/lastmile_qr_scan", "android": "https://dc.lft.to/lastmile_qr_scan"}, "lon": -77.072415, "type": "electric_scooter", "fusion_lat": 0.0, "lat": 38.933897, "name": "5e2ce95384a428ff7bd0a8532f3c1441", "fusion_lon": 0.0, "bike_id": "5e2ce95384a428ff7bd0a8532f3c1441", "is_disabled": 0, "is_reserved": 0}, {"rental_uris": {"ios": "https://dc.lft.to/lastmile_qr_scan", "android": "https://dc.lft.to/lastmile_qr_scan"}, "lon": -76.93099383333333, "type": "electric_scooter", "fusion_lat": 0.0, "lat": 38.90140683333333, "name": "0b514df4c3a67ff746c2c66fc64cce5d", "fusion_lon": 0.0, "bike_id": "0b514df4c3a67ff746c2c66fc64cce5d", "is_disabled": 0, "is_reserved": 0}, {"rental_uris": {"ios": "https://dc.lft.to/lastmile_qr_scan", "android": "https://dc.lft.to/lastmile_qr_scan"}, "lon": -77.05354116666666, "type": "electric_scooter", "fusion_lat": 0.0, "lat": 38.902789166666665, "name": "2abc5324cb709fb3793e15507b364685", "fusion_lon": 0.0, "bike_id": "2abc5324cb709fb3793e15507b364685", "is_disabled": 0, "is_reserved": 0}, {"rental_uris": {"ios": "https://dc.lft.to/lastmile_qr_scan", "android": "https://dc.lft.to/lastmile_qr_scan"}, "lon": -77.02200333333333, "type": "electric_scooter", "fusion_lat": 0.0, "lat": 38.914208333333335, "name": "76bda38da73d0053ef6296b90469a6e2", "fusion_lon": 0.0, "bike_id": "76bda38da73d0053ef6296b90469a6e2", "is_disabled": 0, "is_reserved": 0}, {"rental_uris": {"ios": "https://dc.lft.to/lastmile_qr_scan", "android": "https://dc.lft.to/lastmile_qr_scan"}, "lon": -76.985532, "type": "electric_scooter", "fusion_lat": 0.0, "lat": 38.89768133333333, "name": "8ce2e0123171fef9f02c25dda4c1a788", "fusion_lon": 0.0, "bike_id": "8ce2e0123171fef9f02c25dda4c1a788", "is_disabled": 0, "is_reserved": 0}, {"rental_uris": {"ios": "https://dc.lft.to/lastmile_qr_scan", "android": "https://dc.lft.to/lastmile_qr_scan"}, "lon": -77.06421066666667, "type": "electric_bike", "fusion_lat": 0.0, "lat": 38.90507016666667, "name": "3643e9994e79a68541a15bfdb7ec027d", "fusion_lon": 0.0, "bike_id": "3643e9994e79a68541a15bfdb7ec027d", "is_disabled": 0, "is_reserved": 0}, {"rental_uris": {"ios": "https://dc.lft.to/lastmile_qr_scan", "android": "https://dc.lft.to/lastmile_qr_scan"}, "lon": -77.03373083333334, "type": "electric_scooter", "fusion_lat": 0.0, "lat": 38.9103975, "name": "c2430f0bddd43fa2a8607c0b2d6d8598", "fusion_lon": 0.0, "bike_id": "c2430f0bddd43fa2a8607c0b2d6d8598", "is_disabled": 0, "is_reserved": 0}, {"rental_uris": {"ios": "https://dc.lft.to/lastmile_qr_scan", "android": "https://dc.lft.to/lastmile_qr_scan"}, "lon": -77.04621566666667, "type": "electric_bike", "fusion_lat": 0.0, "lat": 38.999112333333336, "name": "9f5c537ba4f1bff9bbc729fc6e086c49", "fusion_lon": 0.0, "bike_id": "9f5c537ba4f1bff9bbc729fc6e086c49", "is_disabled": 0, "is_reserved": 0}, {"rental_uris": {"ios": "https://dc.lft.to/lastmile_qr_scan", "android": "https://dc.lft.to/lastmile_qr_scan"}, "lon": -77.00115433333333, "type": "electric_scooter", "fusion_lat": 0.0, "lat": 38.92450933333333, "name": "8ab83115b4aa3806478c8a9e8bb350b3", "fusion_lon": 0.0, "bike_id": "8ab83115b4aa3806478c8a9e8bb350b3", "is_disabled": 0, "is_reserved": 0}, {"rental_uris": {"ios": "https://dc.lft.to/lastmile_qr_scan", "android": "https://dc.lft.to/lastmile_qr_scan"}, "lon": -77.03808383333333, "type": "electric_scooter", "fusion_lat": 0.0, "lat": 38.93116283333333, "name": "92d346ec7b65e2138924e622573f9b85", "fusion_lon": 0.0, "bike_id": "92d346ec7b65e2138924e622573f9b85", "is_disabled": 0, "is_reserved": 0}, {"rental_uris": {"ios": "https://dc.lft.to/lastmile_qr_scan", "android": "https://dc.lft.to/lastmile_qr_scan"}, "lon": -77.0647285, "type": "electric_bike", "fusion_lat": 0.0, "lat": 38.973851833333335, "name": "c85b4080d1e5d563d5d1749ec864e3e0", "fusion_lon": 0.0, "bike_id": "c85b4080d1e5d563d5d1749ec864e3e0", "is_disabled": 0, "is_reserved": 0}, {"rental_uris": {"ios": "https://dc.lft.to/lastmile_qr_scan", "android": "https://dc.lft.to/lastmile_qr_scan"}, "lon": -77.09619916666666, "type": "electric_bike", "fusion_lat": 0.0, "lat": 38.84573533333333, "name": "74536e57c860449421a426331446bb79", "fusion_lon": 0.0, "bike_id": "74536e57c860449421a426331446bb79", "is_disabled": 0, "is_reserved": 0}, {"rental_uris": {"ios": "https://dc.lft.to/lastmile_qr_scan", "android": "https://dc.lft.to/lastmile_qr_scan"}, "lon": -77.023809, "type": "electric_scooter", "fusion_lat": 0.0, "lat": 38.93695, "name": "5db2a950c32b022b9d913c4a2d98e3ec", "fusion_lon": 0.0, "bike_id": "5db2a950c32b022b9d913c4a2d98e3ec", "is_disabled": 0, "is_reserved": 0}, {"rental_uris": {"ios": "https://dc.lft.to/lastmile_qr_scan", "android": "https://dc.lft.to/lastmile_qr_scan"}, "lon": -77.022332, "type": "electric_bike", "fusion_lat": 0.0, "lat": 38.95688633333333, "name": "6171f53c5ac9be3bf5408aa72cefacda", "fusion_lon": 0.0, "bike_id": "6171f53c5ac9be3bf5408aa72cefacda", "is_disabled": 0, "is_reserved": 0}, {"rental_uris": {"ios": "https://dc.lft.to/lastmile_qr_scan", "android": "https://dc.lft.to/lastmile_qr_scan"}, "lon": -77.06363366666666, "type": "electric_scooter", "fusion_lat": 0.0, "lat": 38.944425, "name": "90f73abf6a47a8d3aa7f7d8aaf07ce0e", "fusion_lon": 0.0, "bike_id": "90f73abf6a47a8d3aa7f7d8aaf07ce0e", "is_disabled": 0, "is_reserved": 0}, {"rental_uris": {"ios": "https://dc.lft.to/lastmile_qr_scan", "android": "https://dc.lft.to/lastmile_qr_scan"}, "lon": -77.03170633333333, "type": "electric_scooter", "fusion_lat": 0.0, "lat": 38.929710666666665, "name": "c1e48571274799dbbd1591a5a9ce68ce", "fusion_lon": 0.0, "bike_id": "c1e48571274799dbbd1591a5a9ce68ce", "is_disabled": 0, "is_reserved": 0}, {"rental_uris": {"ios": "https://dc.lft.to/lastmile_qr_scan", "android": "https://dc.lft.to/lastmile_qr_scan"}, "lon": -77.11061166666667, "type": "electric_bike", "fusion_lat": 0.0, "lat": 38.870717666666664, "name": "1970241b6b4d8cfac093faf039d6e676", "fusion_lon": 0.0, "bike_id": "1970241b6b4d8cfac093faf039d6e676", "is_disabled": 0, "is_reserved": 0}, {"rental_uris": {"ios": "https://dc.lft.to/lastmile_qr_scan", "android": "https://dc.lft.to/lastmile_qr_scan"}, "lon": -76.98999616666667, "type": "electric_scooter", "fusion_lat": 0.0, "lat": 38.865041, "name": "e6119a71fff5d1f7d5c02fbdc59925ce", "fusion_lon": 0.0, "bike_id": "e6119a71fff5d1f7d5c02fbdc59925ce", "is_disabled": 0, "is_reserved": 0}, {"rental_uris": {"ios": "https://dc.lft.to/lastmile_qr_scan", "android": "https://dc.lft.to/lastmile_qr_scan"}, "lon": -77.08253016666667, "type": "electric_scooter", "fusion_lat": 0.0, "lat": 38.93591833333333, "name": "cadfa876044f1d175a0ea23e562a3c0d", "fusion_lon": 0.0, "bike_id": "cadfa876044f1d175a0ea23e562a3c0d", "is_disabled": 0, "is_reserved": 0}, {"rental_uris": {"ios": "https://dc.lft.to/lastmile_qr_scan", "android": "https://dc.lft.to/lastmile_qr_scan"}, "lon": -77.08198016666667, "type": "electric_scooter", "fusion_lat": 0.0, "lat": 38.933257, "name": "a028a4c891473bb62d6bb054d5e1b34c", "fusion_lon": 0.0, "bike_id": "a028a4c891473bb62d6bb054d5e1b34c", "is_disabled": 0, "is_reserved": 0}, {"rental_uris": {"ios": "https://dc.lft.to/lastmile_qr_scan", "android": "https://dc.lft.to/lastmile_qr_scan"}, "lon": -77.04041383333333, "type": "electric_scooter", "fusion_lat": 0.0, "lat": 38.92468683333333, "name": "bb6b457bf0a135b54f79d22e2c9f4ee2", "fusion_lon": 0.0, "bike_id": "bb6b457bf0a135b54f79d22e2c9f4ee2", "is_disabled": 0, "is_reserved": 0}, {"rental_uris": {"ios": "https://dc.lft.to/lastmile_qr_scan", "android": "https://dc.lft.to/lastmile_qr_scan"}, "lon": -77.029702, "type": "electric_scooter", "fusion_lat": 0.0, "lat": 38.907253833333336, "name": "d411bd0f6dd5e4023b64f11a399dfb3d", "fusion_lon": 0.0, "bike_id": "d411bd0f6dd5e4023b64f11a399dfb3d", "is_disabled": 0, "is_reserved": 0}, {"rental_uris": {"ios": "https://dc.lft.to/lastmile_qr_scan", "android": "https://dc.lft.to/lastmile_qr_scan"}, "lon": -76.992485, "type": "electric_bike", "fusion_lat": 0.0, "lat": 38.92549066666667, "name": "281e51ff88c1e8df4ec607547d9b78fb", "fusion_lon": 0.0, "bike_id": "281e51ff88c1e8df4ec607547d9b78fb", "is_disabled": 0, "is_reserved": 0}, {"rental_uris": {"ios": "https://dc.lft.to/lastmile_qr_scan", "android": "https://dc.lft.to/lastmile_qr_scan"}, "lon": -77.0098735, "type": "electric_scooter", "fusion_lat": 0.0, "lat": 38.9156235, "name": "c1b2f525c64123cff9483dc3de251c6e", "fusion_lon": 0.0, "bike_id": "c1b2f525c64123cff9483dc3de251c6e", "is_disabled": 0, "is_reserved": 0}, {"rental_uris": {"ios": "https://dc.lft.to/lastmile_qr_scan", "android": "https://dc.lft.to/lastmile_qr_scan"}, "lon": -76.9802035, "type": "electric_scooter", "fusion_lat": 0.0, "lat": 38.88767566666667, "name": "7a2d46c5863ca8065115f9f463ac0927", "fusion_lon": 0.0, "bike_id": "7a2d46c5863ca8065115f9f463ac0927", "is_disabled": 0, "is_reserved": 0}, {"rental_uris": {"ios": "https://dc.lft.to/lastmile_qr_scan", "android": "https://dc.lft.to/lastmile_qr_scan"}, "lon": -77.0176025, "type": "electric_scooter", "fusion_lat": 0.0, "lat": 38.87690333333333, "name": "95651f1d266eb2dc7a8584c075ec1380", "fusion_lon": 0.0, "bike_id": "95651f1d266eb2dc7a8584c075ec1380", "is_disabled": 0, "is_reserved": 0}, {"rental_uris": {"ios": "https://dc.lft.to/lastmile_qr_scan", "android": "https://dc.lft.to/lastmile_qr_scan"}, "lon": -76.97272516666666, "type": "electric_bike", "fusion_lat": 0.0, "lat": 38.91973316666667, "name": "520f7d7c1b2a8ba76654d6a79937f990", "fusion_lon": 0.0, "bike_id": "520f7d7c1b2a8ba76654d6a79937f990", "is_disabled": 0, "is_reserved": 0}, {"rental_uris": {"ios": "https://dc.lft.to/lastmile_qr_scan", "android": "https://dc.lft.to/lastmile_qr_scan"}, "lon": -77.00713466666667, "type": "electric_scooter", "fusion_lat": 0.0, "lat": 38.905691, "name": "7eef75ea75bed54b72dac6a56a15b056", "fusion_lon": 0.0, "bike_id": "7eef75ea75bed54b72dac6a56a15b056", "is_disabled": 0, "is_reserved": 0}, {"rental_uris": {"ios": "https://dc.lft.to/lastmile_qr_scan", "android": "https://dc.lft.to/lastmile_qr_scan"}, "lon": -77.02809516666666, "type": "electric_scooter", "fusion_lat": 0.0, "lat": 38.910611833333334, "name": "3135ada63344791ad33bde9b0060f945", "fusion_lon": 0.0, "bike_id": "3135ada63344791ad33bde9b0060f945", "is_disabled": 0, "is_reserved": 0}, {"rental_uris": {"ios": "https://dc.lft.to/lastmile_qr_scan", "android": "https://dc.lft.to/lastmile_qr_scan"}, "lon": -77.0106985, "type": "electric_bike", "fusion_lat": 0.0, "lat": 38.91914883333333, "name": "f0325a77aea953761becd54447e878d7", "fusion_lon": 0.0, "bike_id": "f0325a77aea953761becd54447e878d7", "is_disabled": 0, "is_reserved": 0}, {"rental_uris": {"ios": "https://dc.lft.to/lastmile_qr_scan", "android": "https://dc.lft.to/lastmile_qr_scan"}, "lon": -77.02714366666666, "type": "electric_scooter", "fusion_lat": 0.0, "lat": 38.906904833333336, "name": "9dad6df2315fcb0feafa5ec500681460", "fusion_lon": 0.0, "bike_id": "9dad6df2315fcb0feafa5ec500681460", "is_disabled": 0, "is_reserved": 0}, {"rental_uris": {"ios": "https://dc.lft.to/lastmile_qr_scan", "android": "https://dc.lft.to/lastmile_qr_scan"}, "lon": -76.91650166666666, "type": "electric_bike", "fusion_lat": 0.0, "lat": 38.86862333333333, "name": "db386ac8d4eb219653ceb949a363ce30", "fusion_lon": 0.0, "bike_id": "db386ac8d4eb219653ceb949a363ce30", "is_disabled": 0, "is_reserved": 0}, {"rental_uris": {"ios": "https://dc.lft.to/lastmile_qr_scan", "android": "https://dc.lft.to/lastmile_qr_scan"}, "lon": -77.027109, "type": "electric_scooter", "fusion_lat": 0.0, "lat": 38.90906916666667, "name": "219f36c9e31318d08b4178500430e340", "fusion_lon": 0.0, "bike_id": "219f36c9e31318d08b4178500430e340", "is_disabled": 0, "is_reserved": 0}, {"rental_uris": {"ios": "https://dc.lft.to/lastmile_qr_scan", "android": "https://dc.lft.to/lastmile_qr_scan"}, "lon": -76.99005416666667, "type": "electric_scooter", "fusion_lat": 0.0, "lat": 38.90393816666667, "name": "b66e112d2cbb8b7f5d967f4968375807", "fusion_lon": 0.0, "bike_id": "b66e112d2cbb8b7f5d967f4968375807", "is_disabled": 0, "is_reserved": 0}, {"rental_uris": {"ios": "https://dc.lft.to/lastmile_qr_scan", "android": "https://dc.lft.to/lastmile_qr_scan"}, "lon": -77.01066966666667, "type": "electric_scooter", "fusion_lat": 0.0, "lat": 38.87477483333333, "name": "49306ac8a31707fc1a9d79781567b7c0", "fusion_lon": 0.0, "bike_id": "49306ac8a31707fc1a9d79781567b7c0", "is_disabled": 0, "is_reserved": 0}, {"rental_uris": {"ios": "https://dc.lft.to/lastmile_qr_scan", "android": "https://dc.lft.to/lastmile_qr_scan"}, "lon": -77.0097315, "type": "electric_scooter", "fusion_lat": 0.0, "lat": 38.91412716666667, "name": "7670a57af355033c6b7b9a53a0840519", "fusion_lon": 0.0, "bike_id": "7670a57af355033c6b7b9a53a0840519", "is_disabled": 0, "is_reserved": 0}, {"rental_uris": {"ios": "https://dc.lft.to/lastmile_qr_scan", "android": "https://dc.lft.to/lastmile_qr_scan"}, "lon": -77.127349, "type": "electric_bike", "fusion_lat": 0.0, "lat": 38.8955805, "name": "1b65412236a4b9beb9a3f52ba9645dd7", "fusion_lon": 0.0, "bike_id": "1b65412236a4b9beb9a3f52ba9645dd7", "is_disabled": 0, "is_reserved": 0}, {"rental_uris": {"ios": "https://dc.lft.to/lastmile_qr_scan", "android": "https://dc.lft.to/lastmile_qr_scan"}, "lon": -76.94858666666667, "type": "electric_scooter", "fusion_lat": 0.0, "lat": 38.895904333333334, "name": "e2eea0a851d46c77d48f35578dfd76cb", "fusion_lon": 0.0, "bike_id": "e2eea0a851d46c77d48f35578dfd76cb", "is_disabled": 0, "is_reserved": 0}, {"rental_uris": {"ios": "https://dc.lft.to/lastmile_qr_scan", "android": "https://dc.lft.to/lastmile_qr_scan"}, "lon": -77.360986, "type": "electric_bike", "fusion_lat": 0.0, "lat": 38.9395485, "name": "5d0ad431226a8f39c4a521f7b4199092", "fusion_lon": 0.0, "bike_id": "5d0ad431226a8f39c4a521f7b4199092", "is_disabled": 0, "is_reserved": 0}, {"rental_uris": {"ios": "https://dc.lft.to/lastmile_qr_scan", "android": "https://dc.lft.to/lastmile_qr_scan"}, "lon": -77.01505033333333, "type": "electric_scooter", "fusion_lat": 0.0, "lat": 38.9019365, "name": "284b79e14ce6d8f25ae080ff9023b8e0", "fusion_lon": 0.0, "bike_id": "284b79e14ce6d8f25ae080ff9023b8e0", "is_disabled": 0, "is_reserved": 0}, {"rental_uris": {"ios": "https://dc.lft.to/lastmile_qr_scan", "android": "https://dc.lft.to/lastmile_qr_scan"}, "lon": -77.00195533333333, "type": "electric_bike", "fusion_lat": 0.0, "lat": 38.94149616666667, "name": "c6125b5f8ecac64f1c2026271fad77d4", "fusion_lon": 0.0, "bike_id": "c6125b5f8ecac64f1c2026271fad77d4", "is_disabled": 0, "is_reserved": 0}, {"rental_uris": {"ios": "https://dc.lft.to/lastmile_qr_scan", "android": "https://dc.lft.to/lastmile_qr_scan"}, "lon": -77.0271625, "type": "electric_scooter", "fusion_lat": 0.0, "lat": 38.909681, "name": "6039f7debd552826238b2497c4561534", "fusion_lon": 0.0, "bike_id": "6039f7debd552826238b2497c4561534", "is_disabled": 0, "is_reserved": 0}, {"rental_uris": {"ios": "https://dc.lft.to/lastmile_qr_scan", "android": "https://dc.lft.to/lastmile_qr_scan"}, "lon": -77.03202683333333, "type": "electric_scooter", "fusion_lat": 0.0, "lat": 38.914681333333334, "name": "f6fe255e76c5c092e9782cb66cb10b05", "fusion_lon": 0.0, "bike_id": "f6fe255e76c5c092e9782cb66cb10b05", "is_disabled": 0, "is_reserved": 0}, {"rental_uris": {"ios": "https://dc.lft.to/lastmile_qr_scan", "android": "https://dc.lft.to/lastmile_qr_scan"}, "lon": -77.03297033333334, "type": "electric_scooter", "fusion_lat": 0.0, "lat": 38.922149833333336, "name": "c9b672b91dd5c2c5aac84abbd8932a84", "fusion_lon": 0.0, "bike_id": "c9b672b91dd5c2c5aac84abbd8932a84", "is_disabled": 0, "is_reserved": 0}, {"rental_uris": {"ios": "https://dc.lft.to/lastmile_qr_scan", "android": "https://dc.lft.to/lastmile_qr_scan"}, "lon": -77.04099533333333, "type": "electric_scooter", "fusion_lat": 0.0, "lat": 38.91776516666667, "name": "95c31f8cea8f0f281122e8cc8b6c0fe2", "fusion_lon": 0.0, "bike_id": "95c31f8cea8f0f281122e8cc8b6c0fe2", "is_disabled": 0, "is_reserved": 0}, {"rental_uris": {"ios": "https://dc.lft.to/lastmile_qr_scan", "android": "https://dc.lft.to/lastmile_qr_scan"}, "lon": -77.02095883333334, "type": "electric_scooter", "fusion_lat": 0.0, "lat": 38.9100315, "name": "8728ef7704d96cfba78aae1f442d6609", "fusion_lon": 0.0, "bike_id": "8728ef7704d96cfba78aae1f442d6609", "is_disabled": 0, "is_reserved": 0}, {"rental_uris": {"ios": "https://dc.lft.to/lastmile_qr_scan", "android": "https://dc.lft.to/lastmile_qr_scan"}, "lon": -77.05334133333334, "type": "electric_scooter", "fusion_lat": 0.0, "lat": 38.90020666666667, "name": "927bf91950c1cb288ba87658939c7d28", "fusion_lon": 0.0, "bike_id": "927bf91950c1cb288ba87658939c7d28", "is_disabled": 0, "is_reserved": 0}, {"rental_uris": {"ios": "https://dc.lft.to/lastmile_qr_scan", "android": "https://dc.lft.to/lastmile_qr_scan"}, "lon": -76.97985166666666, "type": "electric_bike", "fusion_lat": 0.0, "lat": 38.8775235, "name": "a31e97411f28485b8647c1086cea4b27", "fusion_lon": 0.0, "bike_id": "a31e97411f28485b8647c1086cea4b27", "is_disabled": 0, "is_reserved": 0}, {"rental_uris": {"ios": "https://dc.lft.to/lastmile_qr_scan", "android": "https://dc.lft.to/lastmile_qr_scan"}, "lon": -77.03371183333333, "type": "electric_scooter", "fusion_lat": 0.0, "lat": 38.89949766666667, "name": "42f11860e915f7b23691a4759afa1620", "fusion_lon": 0.0, "bike_id": "42f11860e915f7b23691a4759afa1620", "is_disabled": 0, "is_reserved": 0}, {"rental_uris": {"ios": "https://dc.lft.to/lastmile_qr_scan", "android": "https://dc.lft.to/lastmile_qr_scan"}, "lon": -77.04222216666666, "type": "electric_scooter", "fusion_lat": 0.0, "lat": 38.92129283333333, "name": "c060c38deddc2ab0548cd08c9bbd1a4a", "fusion_lon": 0.0, "bike_id": "c060c38deddc2ab0548cd08c9bbd1a4a", "is_disabled": 0, "is_reserved": 0}, {"rental_uris": {"ios": "https://dc.lft.to/lastmile_qr_scan", "android": "https://dc.lft.to/lastmile_qr_scan"}, "lon": -77.00343983333333, "type": "electric_scooter", "fusion_lat": 0.0, "lat": 38.90733683333333, "name": "2b5442a1a798fabcb5b928872638bea1", "fusion_lon": 0.0, "bike_id": "2b5442a1a798fabcb5b928872638bea1", "is_disabled": 0, "is_reserved": 0}, {"rental_uris": {"ios": "https://dc.lft.to/lastmile_qr_scan", "android": "https://dc.lft.to/lastmile_qr_scan"}, "lon": -77.03330416666667, "type": "electric_scooter", "fusion_lat": 0.0, "lat": 38.9036305, "name": "18fe4e4e33ee4bb5ca1797d237465063", "fusion_lon": 0.0, "bike_id": "18fe4e4e33ee4bb5ca1797d237465063", "is_disabled": 0, "is_reserved": 0}, {"rental_uris": {"ios": "https://dc.lft.to/lastmile_qr_scan", "android": "https://dc.lft.to/lastmile_qr_scan"}, "lon": -77.05001933333334, "type": "electric_scooter", "fusion_lat": 0.0, "lat": 38.90025933333333, "name": "846512b86b3bebf6482748210c1ed3ec", "fusion_lon": 0.0, "bike_id": "846512b86b3bebf6482748210c1ed3ec", "is_disabled": 0, "is_reserved": 0}, {"rental_uris": {"ios": "https://dc.lft.to/lastmile_qr_scan", "android": "https://dc.lft.to/lastmile_qr_scan"}, "lon": -76.97325433333333, "type": "electric_scooter", "fusion_lat": 0.0, "lat": 38.930308333333336, "name": "d6246891daef6bd63911f256332441b4", "fusion_lon": 0.0, "bike_id": "d6246891daef6bd63911f256332441b4", "is_disabled": 0, "is_reserved": 0}, {"rental_uris": {"ios": "https://dc.lft.to/lastmile_qr_scan", "android": "https://dc.lft.to/lastmile_qr_scan"}, "lon": -77.038407, "type": "electric_scooter", "fusion_lat": 0.0, "lat": 38.931128666666666, "name": "6b6813467e93bc893013e01ea988143a", "fusion_lon": 0.0, "bike_id": "6b6813467e93bc893013e01ea988143a", "is_disabled": 0, "is_reserved": 0}, {"rental_uris": {"ios": "https://dc.lft.to/lastmile_qr_scan", "android": "https://dc.lft.to/lastmile_qr_scan"}, "lon": -76.997699, "type": "electric_bike", "fusion_lat": 0.0, "lat": 38.909271, "name": "b4991e8e7cccdba7a1cc85130a31c9e7", "fusion_lon": 0.0, "bike_id": "b4991e8e7cccdba7a1cc85130a31c9e7", "is_disabled": 0, "is_reserved": 0}, {"rental_uris": {"ios": "https://dc.lft.to/lastmile_qr_scan", "android": "https://dc.lft.to/lastmile_qr_scan"}, "lon": -77.045003, "type": "electric_scooter", "fusion_lat": 0.0, "lat": 38.9193985, "name": "0575f8718f126ed96341987621729105", "fusion_lon": 0.0, "bike_id": "0575f8718f126ed96341987621729105", "is_disabled": 0, "is_reserved": 0}, {"rental_uris": {"ios": "https://dc.lft.to/lastmile_qr_scan", "android": "https://dc.lft.to/lastmile_qr_scan"}, "lon": -76.988912, "type": "electric_scooter", "fusion_lat": 0.0, "lat": 38.866569166666665, "name": "fadcca1f0271af2a4fc2c7e851a2619f", "fusion_lon": 0.0, "bike_id": "fadcca1f0271af2a4fc2c7e851a2619f", "is_disabled": 0, "is_reserved": 0}, {"rental_uris": {"ios": "https://dc.lft.to/lastmile_qr_scan", "android": "https://dc.lft.to/lastmile_qr_scan"}, "lon": -76.985797, "type": "electric_scooter", "fusion_lat": 0.0, "lat": 38.86149866666667, "name": "8c6c0d6eb57339afa2876137b05fa447", "fusion_lon": 0.0, "bike_id": "8c6c0d6eb57339afa2876137b05fa447", "is_disabled": 0, "is_reserved": 0}, {"rental_uris": {"ios": "https://dc.lft.to/lastmile_qr_scan", "android": "https://dc.lft.to/lastmile_qr_scan"}, "lon": -77.04849933333334, "type": "electric_scooter", "fusion_lat": 0.0, "lat": 38.909780833333336, "name": "45ea0ee42e468b30f082fb3ac75b3364", "fusion_lon": 0.0, "bike_id": "45ea0ee42e468b30f082fb3ac75b3364", "is_disabled": 0, "is_reserved": 0}, {"rental_uris": {"ios": "https://dc.lft.to/lastmile_qr_scan", "android": "https://dc.lft.to/lastmile_qr_scan"}, "lon": -77.0112245, "type": "electric_scooter", "fusion_lat": 0.0, "lat": 38.894962166666666, "name": "3124f94b784db7ec1ad07588be82a4fa", "fusion_lon": 0.0, "bike_id": "3124f94b784db7ec1ad07588be82a4fa", "is_disabled": 0, "is_reserved": 0}, {"rental_uris": {"ios": "https://dc.lft.to/lastmile_qr_scan", "android": "https://dc.lft.to/lastmile_qr_scan"}, "lon": -77.04890983333334, "type": "electric_scooter", "fusion_lat": 0.0, "lat": 38.9188165, "name": "dfe4077ddda82b2f54a6f9a00681bbe6", "fusion_lon": 0.0, "bike_id": "dfe4077ddda82b2f54a6f9a00681bbe6", "is_disabled": 0, "is_reserved": 0}, {"rental_uris": {"ios": "https://dc.lft.to/lastmile_qr_scan", "android": "https://dc.lft.to/lastmile_qr_scan"}, "lon": -76.97551266666666, "type": "electric_scooter", "fusion_lat": 0.0, "lat": 38.9044055, "name": "daf81adcdc146a937ed8491411e73118", "fusion_lon": 0.0, "bike_id": "daf81adcdc146a937ed8491411e73118", "is_disabled": 0, "is_reserved": 0}, {"rental_uris": {"ios": "https://dc.lft.to/lastmile_qr_scan", "android": "https://dc.lft.to/lastmile_qr_scan"}, "lon": -76.99613233333334, "type": "electric_scooter", "fusion_lat": 0.0, "lat": 38.88621033333333, "name": "023745b4a4d60c29456c520099173e65", "fusion_lon": 0.0, "bike_id": "023745b4a4d60c29456c520099173e65", "is_disabled": 0, "is_reserved": 0}, {"rental_uris": {"ios": "https://dc.lft.to/lastmile_qr_scan", "android": "https://dc.lft.to/lastmile_qr_scan"}, "lon": -76.99144366666667, "type": "electric_scooter", "fusion_lat": 0.0, "lat": 38.9003335, "name": "f824debbb1958056188e1e654bea5739", "fusion_lon": 0.0, "bike_id": "f824debbb1958056188e1e654bea5739", "is_disabled": 0, "is_reserved": 0}, {"rental_uris": {"ios": "https://dc.lft.to/lastmile_qr_scan", "android": "https://dc.lft.to/lastmile_qr_scan"}, "lon": -76.99559533333333, "type": "electric_scooter", "fusion_lat": 0.0, "lat": 38.928763000000004, "name": "99d3043bd53f79757554e3eb7e0f61f4", "fusion_lon": 0.0, "bike_id": "99d3043bd53f79757554e3eb7e0f61f4", "is_disabled": 0, "is_reserved": 0}, {"rental_uris": {"ios": "https://dc.lft.to/lastmile_qr_scan", "android": "https://dc.lft.to/lastmile_qr_scan"}, "lon": -76.9387455, "type": "electric_scooter", "fusion_lat": 0.0, "lat": 38.90084866666667, "name": "d67df23b6a2da72555c177c97a63e91a", "fusion_lon": 0.0, "bike_id": "d67df23b6a2da72555c177c97a63e91a", "is_disabled": 0, "is_reserved": 0}, {"rental_uris": {"ios": "https://dc.lft.to/lastmile_qr_scan", "android": "https://dc.lft.to/lastmile_qr_scan"}, "lon": -76.98656383333334, "type": "electric_scooter", "fusion_lat": 0.0, "lat": 38.858021, "name": "5f0b32d350c22d66cd951cea05297946", "fusion_lon": 0.0, "bike_id": "5f0b32d350c22d66cd951cea05297946", "is_disabled": 0, "is_reserved": 0}, {"rental_uris": {"ios": "https://dc.lft.to/lastmile_qr_scan", "android": "https://dc.lft.to/lastmile_qr_scan"}, "lon": -77.04499083333333, "type": "electric_scooter", "fusion_lat": 0.0, "lat": 38.900178333333336, "name": "7592b506eca5dc2d4e1156d5fe52b225", "fusion_lon": 0.0, "bike_id": "7592b506eca5dc2d4e1156d5fe52b225", "is_disabled": 0, "is_reserved": 0}, {"rental_uris": {"ios": "https://dc.lft.to/lastmile_qr_scan", "android": "https://dc.lft.to/lastmile_qr_scan"}, "lon": -77.0466375, "type": "electric_scooter", "fusion_lat": 0.0, "lat": 38.907504333333335, "name": "d06a968198135ca9a1c8339d71a58383", "fusion_lon": 0.0, "bike_id": "d06a968198135ca9a1c8339d71a58383", "is_disabled": 0, "is_reserved": 0}, {"rental_uris": {"ios": "https://dc.lft.to/lastmile_qr_scan", "android": "https://dc.lft.to/lastmile_qr_scan"}, "lon": -77.03994066666667, "type": "electric_scooter", "fusion_lat": 0.0, "lat": 38.908354833333334, "name": "9ffc7cecc6ecf6692b0517d0ec8b1ebc", "fusion_lon": 0.0, "bike_id": "9ffc7cecc6ecf6692b0517d0ec8b1ebc", "is_disabled": 0, "is_reserved": 0}, {"rental_uris": {"ios": "https://dc.lft.to/lastmile_qr_scan", "android": "https://dc.lft.to/lastmile_qr_scan"}, "lon": -77.00657933333333, "type": "electric_scooter", "fusion_lat": 0.0, "lat": 38.9120185, "name": "e37d28c670d6beaea511bfcb3e0927ca", "fusion_lon": 0.0, "bike_id": "e37d28c670d6beaea511bfcb3e0927ca", "is_disabled": 0, "is_reserved": 0}, {"rental_uris": {"ios": "https://dc.lft.to/lastmile_qr_scan", "android": "https://dc.lft.to/lastmile_qr_scan"}, "lon": -76.99671066666667, "type": "electric_scooter", "fusion_lat": 0.0, "lat": 38.91011866666667, "name": "688f6dede145676166d5ae03d97aaf28", "fusion_lon": 0.0, "bike_id": "688f6dede145676166d5ae03d97aaf28", "is_disabled": 0, "is_reserved": 0}, {"rental_uris": {"ios": "https://dc.lft.to/lastmile_qr_scan", "android": "https://dc.lft.to/lastmile_qr_scan"}, "lon": -77.06101166666667, "type": "electric_scooter", "fusion_lat": 0.0, "lat": 38.93702833333333, "name": "d03b56dcef39852ffa264d87881cebc2", "fusion_lon": 0.0, "bike_id": "d03b56dcef39852ffa264d87881cebc2", "is_disabled": 0, "is_reserved": 0}, {"rental_uris": {"ios": "https://dc.lft.to/lastmile_qr_scan", "android": "https://dc.lft.to/lastmile_qr_scan"}, "lon": -77.02362166666667, "type": "electric_scooter", "fusion_lat": 0.0, "lat": 38.9030835, "name": "e6437f72c132c0aa50b17c48aa9f4bf3", "fusion_lon": 0.0, "bike_id": "e6437f72c132c0aa50b17c48aa9f4bf3", "is_disabled": 0, "is_reserved": 0}, {"rental_uris": {"ios": "https://dc.lft.to/lastmile_qr_scan", "android": "https://dc.lft.to/lastmile_qr_scan"}, "lon": -77.03742966666667, "type": "electric_scooter", "fusion_lat": 0.0, "lat": 38.92902, "name": "e346b63edd04b5052e20cb999309857a", "fusion_lon": 0.0, "bike_id": "e346b63edd04b5052e20cb999309857a", "is_disabled": 0, "is_reserved": 0}, {"rental_uris": {"ios": "https://dc.lft.to/lastmile_qr_scan", "android": "https://dc.lft.to/lastmile_qr_scan"}, "lon": -77.06006933333333, "type": "electric_scooter", "fusion_lat": 0.0, "lat": 38.912607, "name": "c997c58bb1305a998ecff3cf6c2f7f45", "fusion_lon": 0.0, "bike_id": "c997c58bb1305a998ecff3cf6c2f7f45", "is_disabled": 0, "is_reserved": 0}, {"rental_uris": {"ios": "https://dc.lft.to/lastmile_qr_scan", "android": "https://dc.lft.to/lastmile_qr_scan"}, "lon": -77.05467916666667, "type": "electric_scooter", "fusion_lat": 0.0, "lat": 38.920988, "name": "80f034c1b7952266ce1b529c26c26eea", "fusion_lon": 0.0, "bike_id": "80f034c1b7952266ce1b529c26c26eea", "is_disabled": 0, "is_reserved": 0}, {"rental_uris": {"ios": "https://dc.lft.to/lastmile_qr_scan", "android": "https://dc.lft.to/lastmile_qr_scan"}, "lon": -76.98710866666667, "type": "electric_scooter", "fusion_lat": 0.0, "lat": 38.86261066666667, "name": "92055d61771b81cc3a21a08c7f55f1a1", "fusion_lon": 0.0, "bike_id": "92055d61771b81cc3a21a08c7f55f1a1", "is_disabled": 0, "is_reserved": 0}, {"rental_uris": {"ios": "https://dc.lft.to/lastmile_qr_scan", "android": "https://dc.lft.to/lastmile_qr_scan"}, "lon": -76.94178283333333, "type": "electric_scooter", "fusion_lat": 0.0, "lat": 38.88218416666667, "name": "4d814944935b296441f9bf0fdfa2ccb1", "fusion_lon": 0.0, "bike_id": "4d814944935b296441f9bf0fdfa2ccb1", "is_disabled": 0, "is_reserved": 0}, {"rental_uris": {"ios": "https://dc.lft.to/lastmile_qr_scan", "android": "https://dc.lft.to/lastmile_qr_scan"}, "lon": -77.03617466666667, "type": "electric_scooter", "fusion_lat": 0.0, "lat": 38.93255583333333, "name": "c770fdca5b1be553e20d0aae707b223d", "fusion_lon": 0.0, "bike_id": "c770fdca5b1be553e20d0aae707b223d", "is_disabled": 0, "is_reserved": 0}, {"rental_uris": {"ios": "https://dc.lft.to/lastmile_qr_scan", "android": "https://dc.lft.to/lastmile_qr_scan"}, "lon": -76.95528216666666, "type": "electric_scooter", "fusion_lat": 0.0, "lat": 38.88783, "name": "3d29c565098995c031e040d0b34dfb25", "fusion_lon": 0.0, "bike_id": "3d29c565098995c031e040d0b34dfb25", "is_disabled": 0, "is_reserved": 0}, {"rental_uris": {"ios": "https://dc.lft.to/lastmile_qr_scan", "android": "https://dc.lft.to/lastmile_qr_scan"}, "lon": -77.12961816666666, "type": "electric_bike", "fusion_lat": 0.0, "lat": 38.8521425, "name": "90d191d8df180508146ef88061cdeb77", "fusion_lon": 0.0, "bike_id": "90d191d8df180508146ef88061cdeb77", "is_disabled": 0, "is_reserved": 0}, {"rental_uris": {"ios": "https://dc.lft.to/lastmile_qr_scan", "android": "https://dc.lft.to/lastmile_qr_scan"}, "lon": -77.0660505, "type": "electric_scooter", "fusion_lat": 0.0, "lat": 38.90573166666667, "name": "26096fd0b3f4588d91a2d8eb03652f2a", "fusion_lon": 0.0, "bike_id": "26096fd0b3f4588d91a2d8eb03652f2a", "is_disabled": 0, "is_reserved": 0}, {"rental_uris": {"ios": "https://dc.lft.to/lastmile_qr_scan", "android": "https://dc.lft.to/lastmile_qr_scan"}, "lon": -77.054749, "type": "electric_scooter", "fusion_lat": 0.0, "lat": 38.893908833333334, "name": "84088885f13a6d49a11357cbcc6d7f33", "fusion_lon": 0.0, "bike_id": "84088885f13a6d49a11357cbcc6d7f33", "is_disabled": 0, "is_reserved": 0}, {"rental_uris": {"ios": "https://dc.lft.to/lastmile_qr_scan", "android": "https://dc.lft.to/lastmile_qr_scan"}, "lon": -76.98376183333333, "type": "electric_scooter", "fusion_lat": 0.0, "lat": 38.89546883333333, "name": "c8f18c704506aa3d90dff3f810716dfb", "fusion_lon": 0.0, "bike_id": "c8f18c704506aa3d90dff3f810716dfb", "is_disabled": 0, "is_reserved": 0}, {"rental_uris": {"ios": "https://dc.lft.to/lastmile_qr_scan", "android": "https://dc.lft.to/lastmile_qr_scan"}, "lon": -76.95988233333334, "type": "electric_scooter", "fusion_lat": 0.0, "lat": 38.880431, "name": "fb33b840d865e55be7aa192b0344bfe4", "fusion_lon": 0.0, "bike_id": "fb33b840d865e55be7aa192b0344bfe4", "is_disabled": 0, "is_reserved": 0}, {"rental_uris": {"ios": "https://dc.lft.to/lastmile_qr_scan", "android": "https://dc.lft.to/lastmile_qr_scan"}, "lon": -77.03049833333333, "type": "electric_scooter", "fusion_lat": 0.0, "lat": 38.91722716666666, "name": "ea072350decbfd200177ab481d209939", "fusion_lon": 0.0, "bike_id": "ea072350decbfd200177ab481d209939", "is_disabled": 0, "is_reserved": 0}, {"rental_uris": {"ios": "https://dc.lft.to/lastmile_qr_scan", "android": "https://dc.lft.to/lastmile_qr_scan"}, "lon": -77.02603683333334, "type": "electric_bike", "fusion_lat": 0.0, "lat": 38.962634666666666, "name": "b9037bf305c44bf40a21c7ad026225cd", "fusion_lon": 0.0, "bike_id": "b9037bf305c44bf40a21c7ad026225cd", "is_disabled": 0, "is_reserved": 0}, {"rental_uris": {"ios": "https://dc.lft.to/lastmile_qr_scan", "android": "https://dc.lft.to/lastmile_qr_scan"}, "lon": -76.996942, "type": "electric_scooter", "fusion_lat": 0.0, "lat": 38.90075066666667, "name": "41a0c6662c7e313a87b3bc1db847f7a5", "fusion_lon": 0.0, "bike_id": "41a0c6662c7e313a87b3bc1db847f7a5", "is_disabled": 0, "is_reserved": 0}, {"rental_uris": {"ios": "https://dc.lft.to/lastmile_qr_scan", "android": "https://dc.lft.to/lastmile_qr_scan"}, "lon": -77.00207766666666, "type": "electric_scooter", "fusion_lat": 0.0, "lat": 38.899875333333334, "name": "f0e00b0692aa49a62606e3dd752c6a72", "fusion_lon": 0.0, "bike_id": "f0e00b0692aa49a62606e3dd752c6a72", "is_disabled": 0, "is_reserved": 0}, {"rental_uris": {"ios": "https://dc.lft.to/lastmile_qr_scan", "android": "https://dc.lft.to/lastmile_qr_scan"}, "lon": -76.932306, "type": "electric_bike", "fusion_lat": 0.0, "lat": 38.86594866666667, "name": "edf43f0ce6f74b0270cd55f3fa2f754b", "fusion_lon": 0.0, "bike_id": "edf43f0ce6f74b0270cd55f3fa2f754b", "is_disabled": 0, "is_reserved": 0}, {"rental_uris": {"ios": "https://dc.lft.to/lastmile_qr_scan", "android": "https://dc.lft.to/lastmile_qr_scan"}, "lon": -76.9475705, "type": "electric_scooter", "fusion_lat": 0.0, "lat": 38.900587, "name": "4888f90a643d82707c29fb878a31e6e6", "fusion_lon": 0.0, "bike_id": "4888f90a643d82707c29fb878a31e6e6", "is_disabled": 0, "is_reserved": 0}, {"rental_uris": {"ios": "https://dc.lft.to/lastmile_qr_scan", "android": "https://dc.lft.to/lastmile_qr_scan"}, "lon": -76.97289966666666, "type": "electric_scooter", "fusion_lat": 0.0, "lat": 38.90338916666666, "name": "a81d365b93b3b7eef198aef5775770e6", "fusion_lon": 0.0, "bike_id": "a81d365b93b3b7eef198aef5775770e6", "is_disabled": 0, "is_reserved": 0}, {"rental_uris": {"ios": "https://dc.lft.to/lastmile_qr_scan", "android": "https://dc.lft.to/lastmile_qr_scan"}, "lon": -77.00861283333333, "type": "electric_bike", "fusion_lat": 0.0, "lat": 38.827310833333335, "name": "0cceebf82b2118a08b9164ed066592ee", "fusion_lon": 0.0, "bike_id": "0cceebf82b2118a08b9164ed066592ee", "is_disabled": 0, "is_reserved": 0}, {"rental_uris": {"ios": "https://dc.lft.to/lastmile_qr_scan", "android": "https://dc.lft.to/lastmile_qr_scan"}, "lon": -76.9900125, "type": "electric_scooter", "fusion_lat": 0.0, "lat": 38.865012, "name": "581117982e5b6e9e71e8dc14636c7ba8", "fusion_lon": 0.0, "bike_id": "581117982e5b6e9e71e8dc14636c7ba8", "is_disabled": 0, "is_reserved": 0}, {"rental_uris": {"ios": "https://dc.lft.to/lastmile_qr_scan", "android": "https://dc.lft.to/lastmile_qr_scan"}, "lon": -77.019459, "type": "electric_scooter", "fusion_lat": 0.0, "lat": 38.92416133333333, "name": "deb92809b45a78915979d6b0c3ff669b", "fusion_lon": 0.0, "bike_id": "deb92809b45a78915979d6b0c3ff669b", "is_disabled": 0, "is_reserved": 0}, {"rental_uris": {"ios": "https://dc.lft.to/lastmile_qr_scan", "android": "https://dc.lft.to/lastmile_qr_scan"}, "lon": -77.0314775, "type": "electric_scooter", "fusion_lat": 0.0, "lat": 38.91420816666667, "name": "cb3d73112725a0831f3a5bcba4de5cf2", "fusion_lon": 0.0, "bike_id": "cb3d73112725a0831f3a5bcba4de5cf2", "is_disabled": 0, "is_reserved": 0}, {"rental_uris": {"ios": "https://dc.lft.to/lastmile_qr_scan", "android": "https://dc.lft.to/lastmile_qr_scan"}, "lon": -77.047124, "type": "electric_scooter", "fusion_lat": 0.0, "lat": 38.922377, "name": "fb301c878b6dd902db00ed4ef2655538", "fusion_lon": 0.0, "bike_id": "fb301c878b6dd902db00ed4ef2655538", "is_disabled": 0, "is_reserved": 0}, {"rental_uris": {"ios": "https://dc.lft.to/lastmile_qr_scan", "android": "https://dc.lft.to/lastmile_qr_scan"}, "lon": -77.03298183333334, "type": "electric_scooter", "fusion_lat": 0.0, "lat": 38.8922895, "name": "32fc0bc60415222f9673d7deabfb75fb", "fusion_lon": 0.0, "bike_id": "32fc0bc60415222f9673d7deabfb75fb", "is_disabled": 0, "is_reserved": 0}, {"rental_uris": {"ios": "https://dc.lft.to/lastmile_qr_scan", "android": "https://dc.lft.to/lastmile_qr_scan"}, "lon": -77.05405316666666, "type": "electric_scooter", "fusion_lat": 0.0, "lat": 38.90248066666667, "name": "2f9e10e4ebf870f1fbc7308dac841d7e", "fusion_lon": 0.0, "bike_id": "2f9e10e4ebf870f1fbc7308dac841d7e", "is_disabled": 0, "is_reserved": 0}, {"rental_uris": {"ios": "https://dc.lft.to/lastmile_qr_scan", "android": "https://dc.lft.to/lastmile_qr_scan"}, "lon": -77.01772166666667, "type": "electric_scooter", "fusion_lat": 0.0, "lat": 38.921143666666666, "name": "22f19b02769dfedaa830250ddf26b497", "fusion_lon": 0.0, "bike_id": "22f19b02769dfedaa830250ddf26b497", "is_disabled": 0, "is_reserved": 0}, {"rental_uris": {"ios": "https://dc.lft.to/lastmile_qr_scan", "android": "https://dc.lft.to/lastmile_qr_scan"}, "lon": -77.03442416666667, "type": "electric_scooter", "fusion_lat": 0.0, "lat": 38.909744333333336, "name": "f0836cfd340e86171c40679678147db9", "fusion_lon": 0.0, "bike_id": "f0836cfd340e86171c40679678147db9", "is_disabled": 0, "is_reserved": 0}, {"rental_uris": {"ios": "https://dc.lft.to/lastmile_qr_scan", "android": "https://dc.lft.to/lastmile_qr_scan"}, "lon": -77.03503016666667, "type": "electric_scooter", "fusion_lat": 0.0, "lat": 38.9215735, "name": "d3c982f4c893e0d967daa194f18dcfda", "fusion_lon": 0.0, "bike_id": "d3c982f4c893e0d967daa194f18dcfda", "is_disabled": 0, "is_reserved": 0}, {"rental_uris": {"ios": "https://dc.lft.to/lastmile_qr_scan", "android": "https://dc.lft.to/lastmile_qr_scan"}, "lon": -77.02183233333334, "type": "electric_scooter", "fusion_lat": 0.0, "lat": 38.905427, "name": "66d6667055026ec96b4f6101dfbb558f", "fusion_lon": 0.0, "bike_id": "66d6667055026ec96b4f6101dfbb558f", "is_disabled": 0, "is_reserved": 0}, {"rental_uris": {"ios": "https://dc.lft.to/lastmile_qr_scan", "android": "https://dc.lft.to/lastmile_qr_scan"}, "lon": -77.05291466666667, "type": "electric_scooter", "fusion_lat": 0.0, "lat": 38.918939, "name": "40cbf14470cacfba0029ed3c3a452bdf", "fusion_lon": 0.0, "bike_id": "40cbf14470cacfba0029ed3c3a452bdf", "is_disabled": 0, "is_reserved": 0}, {"rental_uris": {"ios": "https://dc.lft.to/lastmile_qr_scan", "android": "https://dc.lft.to/lastmile_qr_scan"}, "lon": -77.0706935, "type": "electric_scooter", "fusion_lat": 0.0, "lat": 38.952200166666664, "name": "2bba92b91346127f53a907cc55c40941", "fusion_lon": 0.0, "bike_id": "2bba92b91346127f53a907cc55c40941", "is_disabled": 0, "is_reserved": 0}, {"rental_uris": {"ios": "https://dc.lft.to/lastmile_qr_scan", "android": "https://dc.lft.to/lastmile_qr_scan"}, "lon": -76.985484, "type": "electric_scooter", "fusion_lat": 0.0, "lat": 38.855858166666664, "name": "aefa95b3ba733e40944b4db501daf945", "fusion_lon": 0.0, "bike_id": "aefa95b3ba733e40944b4db501daf945", "is_disabled": 0, "is_reserved": 0}, {"rental_uris": {"ios": "https://dc.lft.to/lastmile_qr_scan", "android": "https://dc.lft.to/lastmile_qr_scan"}, "lon": -77.05505183333334, "type": "electric_scooter", "fusion_lat": 0.0, "lat": 38.929763333333334, "name": "9b8949c86876205b5b89cd3c9484de34", "fusion_lon": 0.0, "bike_id": "9b8949c86876205b5b89cd3c9484de34", "is_disabled": 0, "is_reserved": 0}, {"rental_uris": {"ios": "https://dc.lft.to/lastmile_qr_scan", "android": "https://dc.lft.to/lastmile_qr_scan"}, "lon": -76.9489545, "type": "electric_scooter", "fusion_lat": 0.0, "lat": 38.8952935, "name": "49279b37b7e98bd406bfa9f3395a04e9", "fusion_lon": 0.0, "bike_id": "49279b37b7e98bd406bfa9f3395a04e9", "is_disabled": 0, "is_reserved": 0}, {"rental_uris": {"ios": "https://dc.lft.to/lastmile_qr_scan", "android": "https://dc.lft.to/lastmile_qr_scan"}, "lon": -77.04201616666667, "type": "electric_scooter", "fusion_lat": 0.0, "lat": 38.90330083333333, "name": "12052573eabdef0ef5ad21f1acdaac8c", "fusion_lon": 0.0, "bike_id": "12052573eabdef0ef5ad21f1acdaac8c", "is_disabled": 0, "is_reserved": 0}, {"rental_uris": {"ios": "https://dc.lft.to/lastmile_qr_scan", "android": "https://dc.lft.to/lastmile_qr_scan"}, "lon": -77.00728616666666, "type": "electric_scooter", "fusion_lat": 0.0, "lat": 38.896182833333334, "name": "c2cec41ec007445a5e470668ad66b368", "fusion_lon": 0.0, "bike_id": "c2cec41ec007445a5e470668ad66b368", "is_disabled": 0, "is_reserved": 0}, {"rental_uris": {"ios": "https://dc.lft.to/lastmile_qr_scan", "android": "https://dc.lft.to/lastmile_qr_scan"}, "lon": -76.9588435, "type": "electric_scooter", "fusion_lat": 0.0, "lat": 38.85847316666667, "name": "c1a217224698cdc2672d271836b2b3be", "fusion_lon": 0.0, "bike_id": "c1a217224698cdc2672d271836b2b3be", "is_disabled": 0, "is_reserved": 0}, {"rental_uris": {"ios": "https://dc.lft.to/lastmile_qr_scan", "android": "https://dc.lft.to/lastmile_qr_scan"}, "lon": -77.0211465, "type": "electric_scooter", "fusion_lat": 0.0, "lat": 38.93697133333333, "name": "197a3c2190b6c9babc3037b6fafd0fe0", "fusion_lon": 0.0, "bike_id": "197a3c2190b6c9babc3037b6fafd0fe0", "is_disabled": 0, "is_reserved": 0}, {"rental_uris": {"ios": "https://dc.lft.to/lastmile_qr_scan", "android": "https://dc.lft.to/lastmile_qr_scan"}, "lon": -77.0654195, "type": "electric_scooter", "fusion_lat": 0.0, "lat": 38.904880166666665, "name": "6ef434eb734c06d252f5b90f0674d987", "fusion_lon": 0.0, "bike_id": "6ef434eb734c06d252f5b90f0674d987", "is_disabled": 0, "is_reserved": 0}, {"rental_uris": {"ios": "https://dc.lft.to/lastmile_qr_scan", "android": "https://dc.lft.to/lastmile_qr_scan"}, "lon": -76.99681016666666, "type": "electric_scooter", "fusion_lat": 0.0, "lat": 38.88683366666667, "name": "f0e5d83d8e7446ca73b3ebafdb8b1d53", "fusion_lon": 0.0, "bike_id": "f0e5d83d8e7446ca73b3ebafdb8b1d53", "is_disabled": 0, "is_reserved": 0}, {"rental_uris": {"ios": "https://dc.lft.to/lastmile_qr_scan", "android": "https://dc.lft.to/lastmile_qr_scan"}, "lon": -77.04333316666667, "type": "electric_scooter", "fusion_lat": 0.0, "lat": 38.9279385, "name": "d3a40c58b9a3676c38437cc78bce880f", "fusion_lon": 0.0, "bike_id": "d3a40c58b9a3676c38437cc78bce880f", "is_disabled": 0, "is_reserved": 0}, {"rental_uris": {"ios": "https://dc.lft.to/lastmile_qr_scan", "android": "https://dc.lft.to/lastmile_qr_scan"}, "lon": -76.957623, "type": "electric_scooter", "fusion_lat": 0.0, "lat": 38.88683866666667, "name": "83cd8d725e11766be0b7c068a12b2a35", "fusion_lon": 0.0, "bike_id": "83cd8d725e11766be0b7c068a12b2a35", "is_disabled": 0, "is_reserved": 0}, {"rental_uris": {"ios": "https://dc.lft.to/lastmile_qr_scan", "android": "https://dc.lft.to/lastmile_qr_scan"}, "lon": -77.014848, "type": "electric_scooter", "fusion_lat": 0.0, "lat": 38.87269, "name": "bc6eebea4d6c05a76f754939b41ae236", "fusion_lon": 0.0, "bike_id": "bc6eebea4d6c05a76f754939b41ae236", "is_disabled": 0, "is_reserved": 0}, {"rental_uris": {"ios": "https://dc.lft.to/lastmile_qr_scan", "android": "https://dc.lft.to/lastmile_qr_scan"}, "lon": -77.04417533333333, "type": "electric_scooter", "fusion_lat": 0.0, "lat": 38.91130916666667, "name": "259a41727065e20babc7f00da5844707", "fusion_lon": 0.0, "bike_id": "259a41727065e20babc7f00da5844707", "is_disabled": 0, "is_reserved": 0}, {"rental_uris": {"ios": "https://dc.lft.to/lastmile_qr_scan", "android": "https://dc.lft.to/lastmile_qr_scan"}, "lon": -77.01641916666667, "type": "electric_scooter", "fusion_lat": 0.0, "lat": 38.92936866666667, "name": "1bf63e179ff9e4760cf9007951718296", "fusion_lon": 0.0, "bike_id": "1bf63e179ff9e4760cf9007951718296", "is_disabled": 0, "is_reserved": 0}, {"rental_uris": {"ios": "https://dc.lft.to/lastmile_qr_scan", "android": "https://dc.lft.to/lastmile_qr_scan"}, "lon": -77.046433, "type": "electric_scooter", "fusion_lat": 0.0, "lat": 38.915323, "name": "9f9f7e95522879271252bd4d46af8dd8", "fusion_lon": 0.0, "bike_id": "9f9f7e95522879271252bd4d46af8dd8", "is_disabled": 0, "is_reserved": 0}, {"rental_uris": {"ios": "https://dc.lft.to/lastmile_qr_scan", "android": "https://dc.lft.to/lastmile_qr_scan"}, "lon": -77.05995033333333, "type": "electric_scooter", "fusion_lat": 0.0, "lat": 38.905263833333336, "name": "06291a73b88ae5ede065bfb946663105", "fusion_lon": 0.0, "bike_id": "06291a73b88ae5ede065bfb946663105", "is_disabled": 0, "is_reserved": 0}, {"rental_uris": {"ios": "https://dc.lft.to/lastmile_qr_scan", "android": "https://dc.lft.to/lastmile_qr_scan"}, "lon": -77.03974316666667, "type": "electric_scooter", "fusion_lat": 0.0, "lat": 38.92311983333333, "name": "046827ea471db06f066fa62e9d18c2e2", "fusion_lon": 0.0, "bike_id": "046827ea471db06f066fa62e9d18c2e2", "is_disabled": 0, "is_reserved": 0}, {"rental_uris": {"ios": "https://dc.lft.to/lastmile_qr_scan", "android": "https://dc.lft.to/lastmile_qr_scan"}, "lon": -77.0309325, "type": "electric_bike", "fusion_lat": 0.0, "lat": 38.9407815, "name": "10764bb16b139a07f02b0c9cec67865a", "fusion_lon": 0.0, "bike_id": "10764bb16b139a07f02b0c9cec67865a", "is_disabled": 0, "is_reserved": 0}, {"rental_uris": {"ios": "https://dc.lft.to/lastmile_qr_scan", "android": "https://dc.lft.to/lastmile_qr_scan"}, "lon": -77.048388, "type": "electric_scooter", "fusion_lat": 0.0, "lat": 38.907203833333334, "name": "0a57faa15f2008cc9bd0bb79de22ceb1", "fusion_lon": 0.0, "bike_id": "0a57faa15f2008cc9bd0bb79de22ceb1", "is_disabled": 0, "is_reserved": 0}, {"rental_uris": {"ios": "https://dc.lft.to/lastmile_qr_scan", "android": "https://dc.lft.to/lastmile_qr_scan"}, "lon": -76.99479933333333, "type": "electric_scooter", "fusion_lat": 0.0, "lat": 38.902340333333335, "name": "04db3db30dd9458cc464c2dd9cf36921", "fusion_lon": 0.0, "bike_id": "04db3db30dd9458cc464c2dd9cf36921", "is_disabled": 0, "is_reserved": 0}, {"rental_uris": {"ios": "https://dc.lft.to/lastmile_qr_scan", "android": "https://dc.lft.to/lastmile_qr_scan"}, "lon": -77.024086, "type": "electric_scooter", "fusion_lat": 0.0, "lat": 38.909633666666664, "name": "4fdabe824ccecc46ca13fa702eca0f3b", "fusion_lon": 0.0, "bike_id": "4fdabe824ccecc46ca13fa702eca0f3b", "is_disabled": 0, "is_reserved": 0}, {"rental_uris": {"ios": "https://dc.lft.to/lastmile_qr_scan", "android": "https://dc.lft.to/lastmile_qr_scan"}, "lon": -77.04029083333333, "type": "electric_scooter", "fusion_lat": 0.0, "lat": 38.92441783333334, "name": "67f4bec609e28531d782d19bcfbe12e6", "fusion_lon": 0.0, "bike_id": "67f4bec609e28531d782d19bcfbe12e6", "is_disabled": 0, "is_reserved": 0}, {"rental_uris": {"ios": "https://dc.lft.to/lastmile_qr_scan", "android": "https://dc.lft.to/lastmile_qr_scan"}, "lon": -77.06933783333334, "type": "electric_scooter", "fusion_lat": 0.0, "lat": 38.905144, "name": "2f44913b749e4ca7294a76dff6a11672", "fusion_lon": 0.0, "bike_id": "2f44913b749e4ca7294a76dff6a11672", "is_disabled": 0, "is_reserved": 0}, {"rental_uris": {"ios": "https://dc.lft.to/lastmile_qr_scan", "android": "https://dc.lft.to/lastmile_qr_scan"}, "lon": -76.9361925, "type": "electric_bike", "fusion_lat": 0.0, "lat": 38.97056466666667, "name": "dee10c40d6fb2b489e135f7aee9268aa", "fusion_lon": 0.0, "bike_id": "dee10c40d6fb2b489e135f7aee9268aa", "is_disabled": 0, "is_reserved": 0}, {"rental_uris": {"ios": "https://dc.lft.to/lastmile_qr_scan", "android": "https://dc.lft.to/lastmile_qr_scan"}, "lon": -77.0204305, "type": "electric_scooter", "fusion_lat": 0.0, "lat": 38.9156245, "name": "d208dfb8a75b74ee1e9d45e46fddcc30", "fusion_lon": 0.0, "bike_id": "d208dfb8a75b74ee1e9d45e46fddcc30", "is_disabled": 0, "is_reserved": 0}, {"rental_uris": {"ios": "https://dc.lft.to/lastmile_qr_scan", "android": "https://dc.lft.to/lastmile_qr_scan"}, "lon": -77.0033465, "type": "electric_scooter", "fusion_lat": 0.0, "lat": 38.91337766666667, "name": "89294887cc732675cc771e20104dc6de", "fusion_lon": 0.0, "bike_id": "89294887cc732675cc771e20104dc6de", "is_disabled": 0, "is_reserved": 0}, {"rental_uris": {"ios": "https://dc.lft.to/lastmile_qr_scan", "android": "https://dc.lft.to/lastmile_qr_scan"}, "lon": -77.005366, "type": "electric_scooter", "fusion_lat": 0.0, "lat": 38.87459066666667, "name": "0ed7283660bc6afa23671920dd5ae0e9", "fusion_lon": 0.0, "bike_id": "0ed7283660bc6afa23671920dd5ae0e9", "is_disabled": 0, "is_reserved": 0}, {"rental_uris": {"ios": "https://dc.lft.to/lastmile_qr_scan", "android": "https://dc.lft.to/lastmile_qr_scan"}, "lon": -77.02349316666667, "type": "electric_scooter", "fusion_lat": 0.0, "lat": 38.93382966666667, "name": "b079e19c1ddf613dea5077e23fb21d90", "fusion_lon": 0.0, "bike_id": "b079e19c1ddf613dea5077e23fb21d90", "is_disabled": 0, "is_reserved": 0}, {"rental_uris": {"ios": "https://dc.lft.to/lastmile_qr_scan", "android": "https://dc.lft.to/lastmile_qr_scan"}, "lon": -76.98087833333334, "type": "electric_bike", "fusion_lat": 0.0, "lat": 38.9028755, "name": "eb5506527e20ec36d8b7aca489ece4b2", "fusion_lon": 0.0, "bike_id": "eb5506527e20ec36d8b7aca489ece4b2", "is_disabled": 0, "is_reserved": 0}, {"rental_uris": {"ios": "https://dc.lft.to/lastmile_qr_scan", "android": "https://dc.lft.to/lastmile_qr_scan"}, "lon": -77.07909233333334, "type": "electric_bike", "fusion_lat": 0.0, "lat": 38.839362, "name": "c7c55ca2c8db7ad8b9342065a271deda", "fusion_lon": 0.0, "bike_id": "c7c55ca2c8db7ad8b9342065a271deda", "is_disabled": 0, "is_reserved": 0}, {"rental_uris": {"ios": "https://dc.lft.to/lastmile_qr_scan", "android": "https://dc.lft.to/lastmile_qr_scan"}, "lon": -77.02379416666666, "type": "electric_scooter", "fusion_lat": 0.0, "lat": 38.937698833333336, "name": "782c7ba11d8141cc367db739369153c6", "fusion_lon": 0.0, "bike_id": "782c7ba11d8141cc367db739369153c6", "is_disabled": 0, "is_reserved": 0}, {"rental_uris": {"ios": "https://dc.lft.to/lastmile_qr_scan", "android": "https://dc.lft.to/lastmile_qr_scan"}, "lon": -77.01207016666666, "type": "electric_scooter", "fusion_lat": 0.0, "lat": 38.921216333333334, "name": "659fa9305e25871ad2b82fd40c31ddd8", "fusion_lon": 0.0, "bike_id": "659fa9305e25871ad2b82fd40c31ddd8", "is_disabled": 0, "is_reserved": 0}, {"rental_uris": {"ios": "https://dc.lft.to/lastmile_qr_scan", "android": "https://dc.lft.to/lastmile_qr_scan"}, "lon": -77.03194183333333, "type": "electric_scooter", "fusion_lat": 0.0, "lat": 38.9148, "name": "c4225ccadb2b1b5736800f96ee5cce2b", "fusion_lon": 0.0, "bike_id": "c4225ccadb2b1b5736800f96ee5cce2b", "is_disabled": 0, "is_reserved": 0}, {"rental_uris": {"ios": "https://dc.lft.to/lastmile_qr_scan", "android": "https://dc.lft.to/lastmile_qr_scan"}, "lon": -77.05744316666667, "type": "electric_scooter", "fusion_lat": 0.0, "lat": 38.93399083333333, "name": "4d69730e1c514f1238c8d9ec9ad3bbf1", "fusion_lon": 0.0, "bike_id": "4d69730e1c514f1238c8d9ec9ad3bbf1", "is_disabled": 0, "is_reserved": 0}, {"rental_uris": {"ios": "https://dc.lft.to/lastmile_qr_scan", "android": "https://dc.lft.to/lastmile_qr_scan"}, "lon": -77.031987, "type": "electric_scooter", "fusion_lat": 0.0, "lat": 38.88580016666667, "name": "950efbc6da32fa8aecc938cf6aa166bf", "fusion_lon": 0.0, "bike_id": "950efbc6da32fa8aecc938cf6aa166bf", "is_disabled": 0, "is_reserved": 0}, {"rental_uris": {"ios": "https://dc.lft.to/lastmile_qr_scan", "android": "https://dc.lft.to/lastmile_qr_scan"}, "lon": -77.11520533333334, "type": "electric_bike", "fusion_lat": 0.0, "lat": 38.854924833333335, "name": "58ea9672ab2f49d633a469ba0c22d14f", "fusion_lon": 0.0, "bike_id": "58ea9672ab2f49d633a469ba0c22d14f", "is_disabled": 0, "is_reserved": 0}, {"rental_uris": {"ios": "https://dc.lft.to/lastmile_qr_scan", "android": "https://dc.lft.to/lastmile_qr_scan"}, "lon": -77.01105033333333, "type": "electric_scooter", "fusion_lat": 0.0, "lat": 38.91162, "name": "571bef6b4229ffdf01dcf102123d67f8", "fusion_lon": 0.0, "bike_id": "571bef6b4229ffdf01dcf102123d67f8", "is_disabled": 0, "is_reserved": 0}, {"rental_uris": {"ios": "https://dc.lft.to/lastmile_qr_scan", "android": "https://dc.lft.to/lastmile_qr_scan"}, "lon": -76.99260133333334, "type": "electric_scooter", "fusion_lat": 0.0, "lat": 38.91969566666667, "name": "75530fe7d73484ae1b000be09df104fe", "fusion_lon": 0.0, "bike_id": "75530fe7d73484ae1b000be09df104fe", "is_disabled": 0, "is_reserved": 0}, {"rental_uris": {"ios": "https://dc.lft.to/lastmile_qr_scan", "android": "https://dc.lft.to/lastmile_qr_scan"}, "lon": -77.01801016666667, "type": "electric_scooter", "fusion_lat": 0.0, "lat": 38.9039455, "name": "816a54e12ec3bc8fc4842ebfc730a6e5", "fusion_lon": 0.0, "bike_id": "816a54e12ec3bc8fc4842ebfc730a6e5", "is_disabled": 0, "is_reserved": 0}, {"rental_uris": {"ios": "https://dc.lft.to/lastmile_qr_scan", "android": "https://dc.lft.to/lastmile_qr_scan"}, "lon": -77.032792, "type": "electric_scooter", "fusion_lat": 0.0, "lat": 38.93804266666667, "name": "0730d1bb466ba30c90564f30a8105599", "fusion_lon": 0.0, "bike_id": "0730d1bb466ba30c90564f30a8105599", "is_disabled": 0, "is_reserved": 0}, {"rental_uris": {"ios": "https://dc.lft.to/lastmile_qr_scan", "android": "https://dc.lft.to/lastmile_qr_scan"}, "lon": -77.02973416666667, "type": "electric_scooter", "fusion_lat": 0.0, "lat": 38.962296333333335, "name": "18d96f361fedb5667262bc03dfef16d2", "fusion_lon": 0.0, "bike_id": "18d96f361fedb5667262bc03dfef16d2", "is_disabled": 0, "is_reserved": 0}, {"rental_uris": {"ios": "https://dc.lft.to/lastmile_qr_scan", "android": "https://dc.lft.to/lastmile_qr_scan"}, "lon": -77.01357316666666, "type": "electric_scooter", "fusion_lat": 0.0, "lat": 38.871171, "name": "4c25a2a5483eacd80d344b950cc97745", "fusion_lon": 0.0, "bike_id": "4c25a2a5483eacd80d344b950cc97745", "is_disabled": 0, "is_reserved": 0}, {"rental_uris": {"ios": "https://dc.lft.to/lastmile_qr_scan", "android": "https://dc.lft.to/lastmile_qr_scan"}, "lon": -77.00845433333333, "type": "electric_bike", "fusion_lat": 0.0, "lat": 38.94917383333333, "name": "520a019ea62007af53d0643b89aa19e2", "fusion_lon": 0.0, "bike_id": "520a019ea62007af53d0643b89aa19e2", "is_disabled": 0, "is_reserved": 0}, {"rental_uris": {"ios": "https://dc.lft.to/lastmile_qr_scan", "android": "https://dc.lft.to/lastmile_qr_scan"}, "lon": -77.0315015, "type": "electric_scooter", "fusion_lat": 0.0, "lat": 38.883032666666665, "name": "badefa351a7c43e91f99c4ca5165e596", "fusion_lon": 0.0, "bike_id": "badefa351a7c43e91f99c4ca5165e596", "is_disabled": 0, "is_reserved": 0}, {"rental_uris": {"ios": "https://dc.lft.to/lastmile_qr_scan", "android": "https://dc.lft.to/lastmile_qr_scan"}, "lon": -77.02845016666667, "type": "electric_scooter", "fusion_lat": 0.0, "lat": 38.934762666666664, "name": "23479552260ec382eeda83bcc9cb874f", "fusion_lon": 0.0, "bike_id": "23479552260ec382eeda83bcc9cb874f", "is_disabled": 0, "is_reserved": 0}, {"rental_uris": {"ios": "https://dc.lft.to/lastmile_qr_scan", "android": "https://dc.lft.to/lastmile_qr_scan"}, "lon": -77.00401266666667, "type": "electric_scooter", "fusion_lat": 0.0, "lat": 38.87926266666667, "name": "2fb94f9ac774000b2bf6734f34eb7e73", "fusion_lon": 0.0, "bike_id": "2fb94f9ac774000b2bf6734f34eb7e73", "is_disabled": 0, "is_reserved": 0}, {"rental_uris": {"ios": "https://dc.lft.to/lastmile_qr_scan", "android": "https://dc.lft.to/lastmile_qr_scan"}, "lon": -77.04678366666667, "type": "electric_scooter", "fusion_lat": 0.0, "lat": 38.90589466666667, "name": "5cf542dfb8efd2699ac45fddac3f2d42", "fusion_lon": 0.0, "bike_id": "5cf542dfb8efd2699ac45fddac3f2d42", "is_disabled": 0, "is_reserved": 0}, {"rental_uris": {"ios": "https://dc.lft.to/lastmile_qr_scan", "android": "https://dc.lft.to/lastmile_qr_scan"}, "lon": -77.03472033333334, "type": "electric_scooter", "fusion_lat": 0.0, "lat": 38.920449166666664, "name": "d1449783f82dcc4cfc0ebbe79908fbdc", "fusion_lon": 0.0, "bike_id": "d1449783f82dcc4cfc0ebbe79908fbdc", "is_disabled": 0, "is_reserved": 0}, {"rental_uris": {"ios": "https://dc.lft.to/lastmile_qr_scan", "android": "https://dc.lft.to/lastmile_qr_scan"}, "lon": -76.99518816666667, "type": "electric_scooter", "fusion_lat": 0.0, "lat": 38.862595, "name": "a6a7b4224fbbdab8cbee195eb1fb9cc8", "fusion_lon": 0.0, "bike_id": "a6a7b4224fbbdab8cbee195eb1fb9cc8", "is_disabled": 0, "is_reserved": 0}, {"rental_uris": {"ios": "https://dc.lft.to/lastmile_qr_scan", "android": "https://dc.lft.to/lastmile_qr_scan"}, "lon": -77.1411755, "type": "electric_bike", "fusion_lat": 0.0, "lat": 38.816066166666666, "name": "5c9b83f63021ff0aa7786289e51eff45", "fusion_lon": 0.0, "bike_id": "5c9b83f63021ff0aa7786289e51eff45", "is_disabled": 0, "is_reserved": 0}, {"rental_uris": {"ios": "https://dc.lft.to/lastmile_qr_scan", "android": "https://dc.lft.to/lastmile_qr_scan"}, "lon": -77.01087933333334, "type": "electric_scooter", "fusion_lat": 0.0, "lat": 38.9162825, "name": "dbb1c6a7d0b0c5daff8f2711f159b313", "fusion_lon": 0.0, "bike_id": "dbb1c6a7d0b0c5daff8f2711f159b313", "is_disabled": 0, "is_reserved": 0}, {"rental_uris": {"ios": "https://dc.lft.to/lastmile_qr_scan", "android": "https://dc.lft.to/lastmile_qr_scan"}, "lon": -76.97457783333333, "type": "electric_scooter", "fusion_lat": 0.0, "lat": 38.865417666666666, "name": "ded1b96b324487f7a37dca205a3f5ac6", "fusion_lon": 0.0, "bike_id": "ded1b96b324487f7a37dca205a3f5ac6", "is_disabled": 0, "is_reserved": 0}, {"rental_uris": {"ios": "https://dc.lft.to/lastmile_qr_scan", "android": "https://dc.lft.to/lastmile_qr_scan"}, "lon": -77.03197466666667, "type": "electric_scooter", "fusion_lat": 0.0, "lat": 38.9001435, "name": "ee6569ff49fcf6eb14f46151b4b15958", "fusion_lon": 0.0, "bike_id": "ee6569ff49fcf6eb14f46151b4b15958", "is_disabled": 0, "is_reserved": 0}, {"rental_uris": {"ios": "https://dc.lft.to/lastmile_qr_scan", "android": "https://dc.lft.to/lastmile_qr_scan"}, "lon": -77.02697083333334, "type": "electric_scooter", "fusion_lat": 0.0, "lat": 38.918082, "name": "6519936b013ecd869d244e1e24360b45", "fusion_lon": 0.0, "bike_id": "6519936b013ecd869d244e1e24360b45", "is_disabled": 0, "is_reserved": 0}, {"rental_uris": {"ios": "https://dc.lft.to/lastmile_qr_scan", "android": "https://dc.lft.to/lastmile_qr_scan"}, "lon": -77.012243, "type": "electric_scooter", "fusion_lat": 0.0, "lat": 38.915944833333334, "name": "74921f25f7c20ab127596491032684f8", "fusion_lon": 0.0, "bike_id": "74921f25f7c20ab127596491032684f8", "is_disabled": 0, "is_reserved": 0}, {"rental_uris": {"ios": "https://dc.lft.to/lastmile_qr_scan", "android": "https://dc.lft.to/lastmile_qr_scan"}, "lon": -77.02905233333334, "type": "electric_scooter", "fusion_lat": 0.0, "lat": 38.89224083333333, "name": "fe75f67df3779045bbdc9667feff6175", "fusion_lon": 0.0, "bike_id": "fe75f67df3779045bbdc9667feff6175", "is_disabled": 0, "is_reserved": 0}, {"rental_uris": {"ios": "https://dc.lft.to/lastmile_qr_scan", "android": "https://dc.lft.to/lastmile_qr_scan"}, "lon": -77.03843016666667, "type": "electric_scooter", "fusion_lat": 0.0, "lat": 38.926470333333334, "name": "24f97eaff37a7d52884594ea5c2cd898", "fusion_lon": 0.0, "bike_id": "24f97eaff37a7d52884594ea5c2cd898", "is_disabled": 0, "is_reserved": 0}, {"rental_uris": {"ios": "https://dc.lft.to/lastmile_qr_scan", "android": "https://dc.lft.to/lastmile_qr_scan"}, "lon": -77.059796, "type": "electric_scooter", "fusion_lat": 0.0, "lat": 38.93549633333333, "name": "68d2ba66add15b49b133fa43dc0fccae", "fusion_lon": 0.0, "bike_id": "68d2ba66add15b49b133fa43dc0fccae", "is_disabled": 0, "is_reserved": 0}, {"rental_uris": {"ios": "https://dc.lft.to/lastmile_qr_scan", "android": "https://dc.lft.to/lastmile_qr_scan"}, "lon": -77.04631533333334, "type": "electric_scooter", "fusion_lat": 0.0, "lat": 38.91909533333333, "name": "809d734337fc14c6be7ac2756921a6a8", "fusion_lon": 0.0, "bike_id": "809d734337fc14c6be7ac2756921a6a8", "is_disabled": 0, "is_reserved": 0}, {"rental_uris": {"ios": "https://dc.lft.to/lastmile_qr_scan", "android": "https://dc.lft.to/lastmile_qr_scan"}, "lon": -77.029632, "type": "electric_scooter", "fusion_lat": 0.0, "lat": 38.9256855, "name": "e8b43914cb639d2e6d519c02f9a31a46", "fusion_lon": 0.0, "bike_id": "e8b43914cb639d2e6d519c02f9a31a46", "is_disabled": 0, "is_reserved": 0}, {"rental_uris": {"ios": "https://dc.lft.to/lastmile_qr_scan", "android": "https://dc.lft.to/lastmile_qr_scan"}, "lon": -77.01203916666667, "type": "electric_scooter", "fusion_lat": 0.0, "lat": 38.9149755, "name": "629f530c272d007bcafb251cee0a69fa", "fusion_lon": 0.0, "bike_id": "629f530c272d007bcafb251cee0a69fa", "is_disabled": 0, "is_reserved": 0}, {"rental_uris": {"ios": "https://dc.lft.to/lastmile_qr_scan", "android": "https://dc.lft.to/lastmile_qr_scan"}, "lon": -76.95466383333333, "type": "electric_bike", "fusion_lat": 0.0, "lat": 38.886402, "name": "4c4b37a87d2fe4f71006ae30cdae641f", "fusion_lon": 0.0, "bike_id": "4c4b37a87d2fe4f71006ae30cdae641f", "is_disabled": 0, "is_reserved": 0}, {"rental_uris": {"ios": "https://dc.lft.to/lastmile_qr_scan", "android": "https://dc.lft.to/lastmile_qr_scan"}, "lon": -77.00940616666666, "type": "electric_scooter", "fusion_lat": 0.0, "lat": 38.871930666666664, "name": "b23fb472d6d30a55dd963279b281cb67", "fusion_lon": 0.0, "bike_id": "b23fb472d6d30a55dd963279b281cb67", "is_disabled": 0, "is_reserved": 0}, {"rental_uris": {"ios": "https://dc.lft.to/lastmile_qr_scan", "android": "https://dc.lft.to/lastmile_qr_scan"}, "lon": -77.02200866666666, "type": "electric_scooter", "fusion_lat": 0.0, "lat": 38.90831266666667, "name": "27540c12d3db3b029baeef79323e60a3", "fusion_lon": 0.0, "bike_id": "27540c12d3db3b029baeef79323e60a3", "is_disabled": 0, "is_reserved": 0}, {"rental_uris": {"ios": "https://dc.lft.to/lastmile_qr_scan", "android": "https://dc.lft.to/lastmile_qr_scan"}, "lon": -76.98791483333333, "type": "electric_bike", "fusion_lat": 0.0, "lat": 38.904184666666666, "name": "d1329a1907d8cdbb7b31ce12f9549341", "fusion_lon": 0.0, "bike_id": "d1329a1907d8cdbb7b31ce12f9549341", "is_disabled": 0, "is_reserved": 0}, {"rental_uris": {"ios": "https://dc.lft.to/lastmile_qr_scan", "android": "https://dc.lft.to/lastmile_qr_scan"}, "lon": -77.0520245, "type": "electric_scooter", "fusion_lat": 0.0, "lat": 38.898078166666664, "name": "4849a7d8d57394bbb5970f559c1af50a", "fusion_lon": 0.0, "bike_id": "4849a7d8d57394bbb5970f559c1af50a", "is_disabled": 0, "is_reserved": 0}, {"rental_uris": {"ios": "https://dc.lft.to/lastmile_qr_scan", "android": "https://dc.lft.to/lastmile_qr_scan"}, "lon": -76.99064966666667, "type": "electric_scooter", "fusion_lat": 0.0, "lat": 38.86359683333333, "name": "1541dc79080cd996e3925b447193ab3e", "fusion_lon": 0.0, "bike_id": "1541dc79080cd996e3925b447193ab3e", "is_disabled": 0, "is_reserved": 0}, {"rental_uris": {"ios": "https://dc.lft.to/lastmile_qr_scan", "android": "https://dc.lft.to/lastmile_qr_scan"}, "lon": -77.024356, "type": "electric_scooter", "fusion_lat": 0.0, "lat": 38.922568166666665, "name": "5ea2b9a6a2f21c04539bda4152b2a8b4", "fusion_lon": 0.0, "bike_id": "5ea2b9a6a2f21c04539bda4152b2a8b4", "is_disabled": 0, "is_reserved": 0}, {"rental_uris": {"ios": "https://dc.lft.to/lastmile_qr_scan", "android": "https://dc.lft.to/lastmile_qr_scan"}, "lon": -77.01512833333334, "type": "electric_scooter", "fusion_lat": 0.0, "lat": 38.88740083333333, "name": "37cc844a25038d181d943cbf306c3084", "fusion_lon": 0.0, "bike_id": "37cc844a25038d181d943cbf306c3084", "is_disabled": 0, "is_reserved": 0}, {"rental_uris": {"ios": "https://dc.lft.to/lastmile_qr_scan", "android": "https://dc.lft.to/lastmile_qr_scan"}, "lon": -76.9837115, "type": "electric_scooter", "fusion_lat": 0.0, "lat": 38.915236666666665, "name": "4f1f38b705d58b22b545260c225ba023", "fusion_lon": 0.0, "bike_id": "4f1f38b705d58b22b545260c225ba023", "is_disabled": 0, "is_reserved": 0}, {"rental_uris": {"ios": "https://dc.lft.to/lastmile_qr_scan", "android": "https://dc.lft.to/lastmile_qr_scan"}, "lon": -77.04083933333334, "type": "electric_scooter", "fusion_lat": 0.0, "lat": 38.91980233333334, "name": "e14366e4f669409f1a2a79a04891c9f8", "fusion_lon": 0.0, "bike_id": "e14366e4f669409f1a2a79a04891c9f8", "is_disabled": 0, "is_reserved": 0}, {"rental_uris": {"ios": "https://dc.lft.to/lastmile_qr_scan", "android": "https://dc.lft.to/lastmile_qr_scan"}, "lon": -77.02225333333334, "type": "electric_scooter", "fusion_lat": 0.0, "lat": 38.912688833333334, "name": "3835a9a1f056dd24c571463bbb4ed994", "fusion_lon": 0.0, "bike_id": "3835a9a1f056dd24c571463bbb4ed994", "is_disabled": 0, "is_reserved": 0}, {"rental_uris": {"ios": "https://dc.lft.to/lastmile_qr_scan", "android": "https://dc.lft.to/lastmile_qr_scan"}, "lon": -76.98709116666667, "type": "electric_scooter", "fusion_lat": 0.0, "lat": 38.86698666666667, "name": "bdf169a6072f4c4c319ca3376ade632e", "fusion_lon": 0.0, "bike_id": "bdf169a6072f4c4c319ca3376ade632e", "is_disabled": 0, "is_reserved": 0}, {"rental_uris": {"ios": "https://dc.lft.to/lastmile_qr_scan", "android": "https://dc.lft.to/lastmile_qr_scan"}, "lon": -77.04127966666667, "type": "electric_scooter", "fusion_lat": 0.0, "lat": 38.92349933333333, "name": "79f591d9f2c08bcd9dd8e60aff88e7e4", "fusion_lon": 0.0, "bike_id": "79f591d9f2c08bcd9dd8e60aff88e7e4", "is_disabled": 0, "is_reserved": 0}, {"rental_uris": {"ios": "https://dc.lft.to/lastmile_qr_scan", "android": "https://dc.lft.to/lastmile_qr_scan"}, "lon": -77.001268, "type": "electric_scooter", "fusion_lat": 0.0, "lat": 38.87800816666667, "name": "bc6af32a1560d69f2c391987eb335794", "fusion_lon": 0.0, "bike_id": "bc6af32a1560d69f2c391987eb335794", "is_disabled": 0, "is_reserved": 0}, {"rental_uris": {"ios": "https://dc.lft.to/lastmile_qr_scan", "android": "https://dc.lft.to/lastmile_qr_scan"}, "lon": -77.04302666666666, "type": "electric_bike", "fusion_lat": 0.0, "lat": 39.054491166666665, "name": "c8b19415d396ba8f2909d1d9c5f6b516", "fusion_lon": 0.0, "bike_id": "c8b19415d396ba8f2909d1d9c5f6b516", "is_disabled": 0, "is_reserved": 0}, {"rental_uris": {"ios": "https://dc.lft.to/lastmile_qr_scan", "android": "https://dc.lft.to/lastmile_qr_scan"}, "lon": -76.98903583333333, "type": "electric_scooter", "fusion_lat": 0.0, "lat": 38.8668805, "name": "88458496deb4f2f9bef5ecfc821a0eba", "fusion_lon": 0.0, "bike_id": "88458496deb4f2f9bef5ecfc821a0eba", "is_disabled": 0, "is_reserved": 0}, {"rental_uris": {"ios": "https://dc.lft.to/lastmile_qr_scan", "android": "https://dc.lft.to/lastmile_qr_scan"}, "lon": -77.03324233333333, "type": "electric_scooter", "fusion_lat": 0.0, "lat": 38.902876666666664, "name": "97d8ac2d2ac4fc67079151c94b9a41ea", "fusion_lon": 0.0, "bike_id": "97d8ac2d2ac4fc67079151c94b9a41ea", "is_disabled": 0, "is_reserved": 0}, {"rental_uris": {"ios": "https://dc.lft.to/lastmile_qr_scan", "android": "https://dc.lft.to/lastmile_qr_scan"}, "lon": -77.0570035, "type": "electric_scooter", "fusion_lat": 0.0, "lat": 38.90552866666667, "name": "903f2b41a61ef19dba56f5ebb0d2fd3e", "fusion_lon": 0.0, "bike_id": "903f2b41a61ef19dba56f5ebb0d2fd3e", "is_disabled": 0, "is_reserved": 0}, {"rental_uris": {"ios": "https://dc.lft.to/lastmile_qr_scan", "android": "https://dc.lft.to/lastmile_qr_scan"}, "lon": -76.95357116666666, "type": "electric_bike", "fusion_lat": 0.0, "lat": 38.9395055, "name": "4e86e89dfb6e76e56b68cc9b0d0cca67", "fusion_lon": 0.0, "bike_id": "4e86e89dfb6e76e56b68cc9b0d0cca67", "is_disabled": 0, "is_reserved": 0}, {"rental_uris": {"ios": "https://dc.lft.to/lastmile_qr_scan", "android": "https://dc.lft.to/lastmile_qr_scan"}, "lon": -77.17841683333333, "type": "electric_bike", "fusion_lat": 0.0, "lat": 39.08861433333333, "name": "67116e492cb3c1d0d13981c5ac50b5f7", "fusion_lon": 0.0, "bike_id": "67116e492cb3c1d0d13981c5ac50b5f7", "is_disabled": 0, "is_reserved": 0}, {"rental_uris": {"ios": "https://dc.lft.to/lastmile_qr_scan", "android": "https://dc.lft.to/lastmile_qr_scan"}, "lon": -77.0568125, "type": "electric_scooter", "fusion_lat": 0.0, "lat": 38.9370485, "name": "fa836352d531dd5f2498b8dc5b0a0ca5", "fusion_lon": 0.0, "bike_id": "fa836352d531dd5f2498b8dc5b0a0ca5", "is_disabled": 0, "is_reserved": 0}, {"rental_uris": {"ios": "https://dc.lft.to/lastmile_qr_scan", "android": "https://dc.lft.to/lastmile_qr_scan"}, "lon": -76.97322766666667, "type": "electric_scooter", "fusion_lat": 0.0, "lat": 38.90477833333333, "name": "7e33feb73eb8e67d5009230c5767fa59", "fusion_lon": 0.0, "bike_id": "7e33feb73eb8e67d5009230c5767fa59", "is_disabled": 0, "is_reserved": 0}, {"rental_uris": {"ios": "https://dc.lft.to/lastmile_qr_scan", "android": "https://dc.lft.to/lastmile_qr_scan"}, "lon": -77.03367566666667, "type": "electric_scooter", "fusion_lat": 0.0, "lat": 38.914176166666664, "name": "904220e6c4b06ba4ac295522b771e6c9", "fusion_lon": 0.0, "bike_id": "904220e6c4b06ba4ac295522b771e6c9", "is_disabled": 0, "is_reserved": 0}, {"rental_uris": {"ios": "https://dc.lft.to/lastmile_qr_scan", "android": "https://dc.lft.to/lastmile_qr_scan"}, "lon": -77.05801916666667, "type": "electric_scooter", "fusion_lat": 0.0, "lat": 38.902992, "name": "dabf3fb23bf878eff994745a327579b1", "fusion_lon": 0.0, "bike_id": "dabf3fb23bf878eff994745a327579b1", "is_disabled": 0, "is_reserved": 0}, {"rental_uris": {"ios": "https://dc.lft.to/lastmile_qr_scan", "android": "https://dc.lft.to/lastmile_qr_scan"}, "lon": -77.03564816666666, "type": "electric_scooter", "fusion_lat": 0.0, "lat": 38.9181505, "name": "5f0643cdfafe7caef0e372efec512ba1", "fusion_lon": 0.0, "bike_id": "5f0643cdfafe7caef0e372efec512ba1", "is_disabled": 0, "is_reserved": 0}, {"rental_uris": {"ios": "https://dc.lft.to/lastmile_qr_scan", "android": "https://dc.lft.to/lastmile_qr_scan"}, "lon": -77.0307995, "type": "electric_scooter", "fusion_lat": 0.0, "lat": 38.92245583333333, "name": "b01c235b47a201d4dc571ecc71c78b1d", "fusion_lon": 0.0, "bike_id": "b01c235b47a201d4dc571ecc71c78b1d", "is_disabled": 0, "is_reserved": 0}, {"rental_uris": {"ios": "https://dc.lft.to/lastmile_qr_scan", "android": "https://dc.lft.to/lastmile_qr_scan"}, "lon": -76.93547416666667, "type": "electric_bike", "fusion_lat": 0.0, "lat": 38.951841333333334, "name": "924d489d1ca7befa9efa56fb18bb7811", "fusion_lon": 0.0, "bike_id": "924d489d1ca7befa9efa56fb18bb7811", "is_disabled": 0, "is_reserved": 0}, {"rental_uris": {"ios": "https://dc.lft.to/lastmile_qr_scan", "android": "https://dc.lft.to/lastmile_qr_scan"}, "lon": -76.99548383333334, "type": "electric_scooter", "fusion_lat": 0.0, "lat": 38.92312533333333, "name": "43391228820fcb319b48c7bdf53609fe", "fusion_lon": 0.0, "bike_id": "43391228820fcb319b48c7bdf53609fe", "is_disabled": 0, "is_reserved": 0}, {"rental_uris": {"ios": "https://dc.lft.to/lastmile_qr_scan", "android": "https://dc.lft.to/lastmile_qr_scan"}, "lon": -77.00106283333334, "type": "electric_scooter", "fusion_lat": 0.0, "lat": 38.87320916666667, "name": "e8ebec7d1e182c23c8a58f29de58c4f6", "fusion_lon": 0.0, "bike_id": "e8ebec7d1e182c23c8a58f29de58c4f6", "is_disabled": 0, "is_reserved": 0}, {"rental_uris": {"ios": "https://dc.lft.to/lastmile_qr_scan", "android": "https://dc.lft.to/lastmile_qr_scan"}, "lon": -77.05086383333334, "type": "electric_bike", "fusion_lat": 0.0, "lat": 38.813285, "name": "2cc34aa8f43e25df4b4b70d7d71bea79", "fusion_lon": 0.0, "bike_id": "2cc34aa8f43e25df4b4b70d7d71bea79", "is_disabled": 0, "is_reserved": 0}, {"rental_uris": {"ios": "https://dc.lft.to/lastmile_qr_scan", "android": "https://dc.lft.to/lastmile_qr_scan"}, "lon": -77.0481435, "type": "electric_scooter", "fusion_lat": 0.0, "lat": 38.897372, "name": "18f36ccd86d94bec80959424805984b8", "fusion_lon": 0.0, "bike_id": "18f36ccd86d94bec80959424805984b8", "is_disabled": 0, "is_reserved": 0}, {"rental_uris": {"ios": "https://dc.lft.to/lastmile_qr_scan", "android": "https://dc.lft.to/lastmile_qr_scan"}, "lon": -77.0396555, "type": "electric_scooter", "fusion_lat": 0.0, "lat": 38.919795, "name": "e14f84f264e5ce9104d2eb487af21286", "fusion_lon": 0.0, "bike_id": "e14f84f264e5ce9104d2eb487af21286", "is_disabled": 0, "is_reserved": 0}, {"rental_uris": {"ios": "https://dc.lft.to/lastmile_qr_scan", "android": "https://dc.lft.to/lastmile_qr_scan"}, "lon": -76.96626816666667, "type": "electric_bike", "fusion_lat": 0.0, "lat": 38.94198516666667, "name": "36e756b670a54ebf58be90df0cbe8c40", "fusion_lon": 0.0, "bike_id": "36e756b670a54ebf58be90df0cbe8c40", "is_disabled": 0, "is_reserved": 0}, {"rental_uris": {"ios": "https://dc.lft.to/lastmile_qr_scan", "android": "https://dc.lft.to/lastmile_qr_scan"}, "lon": -77.02103133333334, "type": "electric_scooter", "fusion_lat": 0.0, "lat": 38.913134666666664, "name": "8e93ea5279d54c5e2deb8cccdd4fa7f8", "fusion_lon": 0.0, "bike_id": "8e93ea5279d54c5e2deb8cccdd4fa7f8", "is_disabled": 0, "is_reserved": 0}, {"rental_uris": {"ios": "https://dc.lft.to/lastmile_qr_scan", "android": "https://dc.lft.to/lastmile_qr_scan"}, "lon": -77.03219816666666, "type": "electric_scooter", "fusion_lat": 0.0, "lat": 38.9086535, "name": "e5dc2f28162f7358b1354944de0906ab", "fusion_lon": 0.0, "bike_id": "e5dc2f28162f7358b1354944de0906ab", "is_disabled": 0, "is_reserved": 0}, {"rental_uris": {"ios": "https://dc.lft.to/lastmile_qr_scan", "android": "https://dc.lft.to/lastmile_qr_scan"}, "lon": -77.0105095, "type": "electric_scooter", "fusion_lat": 0.0, "lat": 38.879351166666666, "name": "24de987b38d0fb8635bfcc9ecb855ab0", "fusion_lon": 0.0, "bike_id": "24de987b38d0fb8635bfcc9ecb855ab0", "is_disabled": 0, "is_reserved": 0}, {"rental_uris": {"ios": "https://dc.lft.to/lastmile_qr_scan", "android": "https://dc.lft.to/lastmile_qr_scan"}, "lon": -77.00982766666667, "type": "electric_scooter", "fusion_lat": 0.0, "lat": 38.91488666666667, "name": "bfba5d86ce05f87c43524ba41a82ee19", "fusion_lon": 0.0, "bike_id": "bfba5d86ce05f87c43524ba41a82ee19", "is_disabled": 0, "is_reserved": 0}, {"rental_uris": {"ios": "https://dc.lft.to/lastmile_qr_scan", "android": "https://dc.lft.to/lastmile_qr_scan"}, "lon": -76.92892033333334, "type": "electric_scooter", "fusion_lat": 0.0, "lat": 38.893308, "name": "8420ad907e795d3545b025ae97b2a842", "fusion_lon": 0.0, "bike_id": "8420ad907e795d3545b025ae97b2a842", "is_disabled": 0, "is_reserved": 0}, {"rental_uris": {"ios": "https://dc.lft.to/lastmile_qr_scan", "android": "https://dc.lft.to/lastmile_qr_scan"}, "lon": -77.02698483333333, "type": "electric_scooter", "fusion_lat": 0.0, "lat": 38.949767666666666, "name": "07b8b28d9c49183b70a0dab39c4ecffb", "fusion_lon": 0.0, "bike_id": "07b8b28d9c49183b70a0dab39c4ecffb", "is_disabled": 0, "is_reserved": 0}, {"rental_uris": {"ios": "https://dc.lft.to/lastmile_qr_scan", "android": "https://dc.lft.to/lastmile_qr_scan"}, "lon": -77.0235455, "type": "electric_scooter", "fusion_lat": 0.0, "lat": 38.9250645, "name": "8a750c9d643134145d8d511578e1afeb", "fusion_lon": 0.0, "bike_id": "8a750c9d643134145d8d511578e1afeb", "is_disabled": 0, "is_reserved": 0}, {"rental_uris": {"ios": "https://dc.lft.to/lastmile_qr_scan", "android": "https://dc.lft.to/lastmile_qr_scan"}, "lon": -77.02273816666667, "type": "electric_scooter", "fusion_lat": 0.0, "lat": 38.9246185, "name": "fdd8a9d62ffaa6d5072f5fc538cea4f5", "fusion_lon": 0.0, "bike_id": "fdd8a9d62ffaa6d5072f5fc538cea4f5", "is_disabled": 0, "is_reserved": 0}, {"rental_uris": {"ios": "https://dc.lft.to/lastmile_qr_scan", "android": "https://dc.lft.to/lastmile_qr_scan"}, "lon": -77.04240216666666, "type": "electric_scooter", "fusion_lat": 0.0, "lat": 38.9059425, "name": "eab6d68b1d40184ef5b7a4f3c0c5d74c", "fusion_lon": 0.0, "bike_id": "eab6d68b1d40184ef5b7a4f3c0c5d74c", "is_disabled": 0, "is_reserved": 0}, {"rental_uris": {"ios": "https://dc.lft.to/lastmile_qr_scan", "android": "https://dc.lft.to/lastmile_qr_scan"}, "lon": -77.0257345, "type": "electric_scooter", "fusion_lat": 0.0, "lat": 38.918172166666665, "name": "dcf364de0da7b91fe6ffb42d1b95b35e", "fusion_lon": 0.0, "bike_id": "dcf364de0da7b91fe6ffb42d1b95b35e", "is_disabled": 0, "is_reserved": 0}, {"rental_uris": {"ios": "https://dc.lft.to/lastmile_qr_scan", "android": "https://dc.lft.to/lastmile_qr_scan"}, "lon": -77.034128, "type": "electric_scooter", "fusion_lat": 0.0, "lat": 38.935412666666664, "name": "86903e5cc323730ed69ac4de47400565", "fusion_lon": 0.0, "bike_id": "86903e5cc323730ed69ac4de47400565", "is_disabled": 0, "is_reserved": 0}, {"rental_uris": {"ios": "https://dc.lft.to/lastmile_qr_scan", "android": "https://dc.lft.to/lastmile_qr_scan"}, "lon": -77.03351983333333, "type": "electric_scooter", "fusion_lat": 0.0, "lat": 38.934217, "name": "de25e11e30cffe5b07631af839a240b5", "fusion_lon": 0.0, "bike_id": "de25e11e30cffe5b07631af839a240b5", "is_disabled": 0, "is_reserved": 0}, {"rental_uris": {"ios": "https://dc.lft.to/lastmile_qr_scan", "android": "https://dc.lft.to/lastmile_qr_scan"}, "lon": -77.01289116666666, "type": "electric_scooter", "fusion_lat": 0.0, "lat": 38.900543, "name": "028b6032148d82abde55eecf88f47ccb", "fusion_lon": 0.0, "bike_id": "028b6032148d82abde55eecf88f47ccb", "is_disabled": 0, "is_reserved": 0}, {"rental_uris": {"ios": "https://dc.lft.to/lastmile_qr_scan", "android": "https://dc.lft.to/lastmile_qr_scan"}, "lon": -77.02855716666667, "type": "electric_scooter", "fusion_lat": 0.0, "lat": 38.928171666666664, "name": "f506906ad9d0537b3e6422cec1a144fc", "fusion_lon": 0.0, "bike_id": "f506906ad9d0537b3e6422cec1a144fc", "is_disabled": 0, "is_reserved": 0}, {"rental_uris": {"ios": "https://dc.lft.to/lastmile_qr_scan", "android": "https://dc.lft.to/lastmile_qr_scan"}, "lon": -77.017001, "type": "electric_scooter", "fusion_lat": 0.0, "lat": 38.92011133333333, "name": "86eccf1b27eb6bc1d5a4b92521562c8b", "fusion_lon": 0.0, "bike_id": "86eccf1b27eb6bc1d5a4b92521562c8b", "is_disabled": 0, "is_reserved": 0}, {"rental_uris": {"ios": "https://dc.lft.to/lastmile_qr_scan", "android": "https://dc.lft.to/lastmile_qr_scan"}, "lon": -77.006304, "type": "electric_scooter", "fusion_lat": 0.0, "lat": 38.82927866666667, "name": "c40010b51e815153f5646a331e65d661", "fusion_lon": 0.0, "bike_id": "c40010b51e815153f5646a331e65d661", "is_disabled": 0, "is_reserved": 0}, {"rental_uris": {"ios": "https://dc.lft.to/lastmile_qr_scan", "android": "https://dc.lft.to/lastmile_qr_scan"}, "lon": -76.99000983333333, "type": "electric_scooter", "fusion_lat": 0.0, "lat": 38.8650395, "name": "57f05b8f9fd7a6474552749b2ef15468", "fusion_lon": 0.0, "bike_id": "57f05b8f9fd7a6474552749b2ef15468", "is_disabled": 0, "is_reserved": 0}, {"rental_uris": {"ios": "https://dc.lft.to/lastmile_qr_scan", "android": "https://dc.lft.to/lastmile_qr_scan"}, "lon": -77.01928333333333, "type": "electric_scooter", "fusion_lat": 0.0, "lat": 38.956874166666665, "name": "51ff47fcfe1ceee11eb26ceb8f835490", "fusion_lon": 0.0, "bike_id": "51ff47fcfe1ceee11eb26ceb8f835490", "is_disabled": 0, "is_reserved": 0}, {"rental_uris": {"ios": "https://dc.lft.to/lastmile_qr_scan", "android": "https://dc.lft.to/lastmile_qr_scan"}, "lon": -77.03590133333333, "type": "electric_scooter", "fusion_lat": 0.0, "lat": 38.90684133333333, "name": "47a7501ccefe8c26bf9303d4004d828f", "fusion_lon": 0.0, "bike_id": "47a7501ccefe8c26bf9303d4004d828f", "is_disabled": 0, "is_reserved": 0}, {"rental_uris": {"ios": "https://dc.lft.to/lastmile_qr_scan", "android": "https://dc.lft.to/lastmile_qr_scan"}, "lon": -77.0278835, "type": "electric_scooter", "fusion_lat": 0.0, "lat": 38.93085766666667, "name": "4a474bae43d06c3f8eabb42e35add746", "fusion_lon": 0.0, "bike_id": "4a474bae43d06c3f8eabb42e35add746", "is_disabled": 0, "is_reserved": 0}, {"rental_uris": {"ios": "https://dc.lft.to/lastmile_qr_scan", "android": "https://dc.lft.to/lastmile_qr_scan"}, "lon": -77.0307485, "type": "electric_scooter", "fusion_lat": 0.0, "lat": 38.8947405, "name": "b8bc6d6e4270adb019b7c1cfb46ad738", "fusion_lon": 0.0, "bike_id": "b8bc6d6e4270adb019b7c1cfb46ad738", "is_disabled": 0, "is_reserved": 0}, {"rental_uris": {"ios": "https://dc.lft.to/lastmile_qr_scan", "android": "https://dc.lft.to/lastmile_qr_scan"}, "lon": -77.02378683333333, "type": "electric_scooter", "fusion_lat": 0.0, "lat": 38.90302483333333, "name": "a037b60be0eacae8cb1004c644e22e9c", "fusion_lon": 0.0, "bike_id": "a037b60be0eacae8cb1004c644e22e9c", "is_disabled": 0, "is_reserved": 0}, {"rental_uris": {"ios": "https://dc.lft.to/lastmile_qr_scan", "android": "https://dc.lft.to/lastmile_qr_scan"}, "lon": -77.0111275, "type": "electric_scooter", "fusion_lat": 0.0, "lat": 38.907924333333334, "name": "2ac45c633ce913ae55d5a2c31bb0086b", "fusion_lon": 0.0, "bike_id": "2ac45c633ce913ae55d5a2c31bb0086b", "is_disabled": 0, "is_reserved": 0}, {"rental_uris": {"ios": "https://dc.lft.to/lastmile_qr_scan", "android": "https://dc.lft.to/lastmile_qr_scan"}, "lon": -77.02228383333333, "type": "electric_scooter", "fusion_lat": 0.0, "lat": 38.892183333333335, "name": "2459b117e69e3aa06c17c654ee6cf5cf", "fusion_lon": 0.0, "bike_id": "2459b117e69e3aa06c17c654ee6cf5cf", "is_disabled": 0, "is_reserved": 0}, {"rental_uris": {"ios": "https://dc.lft.to/lastmile_qr_scan", "android": "https://dc.lft.to/lastmile_qr_scan"}, "lon": -77.066314, "type": "electric_scooter", "fusion_lat": 0.0, "lat": 38.928048, "name": "ecdbdd210130d14bd0410d1fa70413a9", "fusion_lon": 0.0, "bike_id": "ecdbdd210130d14bd0410d1fa70413a9", "is_disabled": 0, "is_reserved": 0}, {"rental_uris": {"ios": "https://dc.lft.to/lastmile_qr_scan", "android": "https://dc.lft.to/lastmile_qr_scan"}, "lon": -76.9890795, "type": "electric_scooter", "fusion_lat": 0.0, "lat": 38.866906666666665, "name": "9bbd3eebc7c26bbba7cec1f9ea957de3", "fusion_lon": 0.0, "bike_id": "9bbd3eebc7c26bbba7cec1f9ea957de3", "is_disabled": 0, "is_reserved": 0}, {"rental_uris": {"ios": "https://dc.lft.to/lastmile_qr_scan", "android": "https://dc.lft.to/lastmile_qr_scan"}, "lon": -77.06999616666667, "type": "electric_bike", "fusion_lat": 0.0, "lat": 38.95504783333333, "name": "3dce11e7ce132fb4257f4b17509df847", "fusion_lon": 0.0, "bike_id": "3dce11e7ce132fb4257f4b17509df847", "is_disabled": 0, "is_reserved": 0}, {"rental_uris": {"ios": "https://dc.lft.to/lastmile_qr_scan", "android": "https://dc.lft.to/lastmile_qr_scan"}, "lon": -77.107851, "type": "electric_bike", "fusion_lat": 0.0, "lat": 38.8921835, "name": "544f0520b1de8c48cdc1cfaca2fd8481", "fusion_lon": 0.0, "bike_id": "544f0520b1de8c48cdc1cfaca2fd8481", "is_disabled": 0, "is_reserved": 0}, {"rental_uris": {"ios": "https://dc.lft.to/lastmile_qr_scan", "android": "https://dc.lft.to/lastmile_qr_scan"}, "lon": -77.02311133333333, "type": "electric_scooter", "fusion_lat": 0.0, "lat": 38.91667866666667, "name": "50b175ba23a8fedd6e0486e5e47ed28f", "fusion_lon": 0.0, "bike_id": "50b175ba23a8fedd6e0486e5e47ed28f", "is_disabled": 0, "is_reserved": 0}, {"rental_uris": {"ios": "https://dc.lft.to/lastmile_qr_scan", "android": "https://dc.lft.to/lastmile_qr_scan"}, "lon": -76.92707033333333, "type": "electric_scooter", "fusion_lat": 0.0, "lat": 38.88771933333334, "name": "2e623d5e44ad3ee5aa0988fdae639b7a", "fusion_lon": 0.0, "bike_id": "2e623d5e44ad3ee5aa0988fdae639b7a", "is_disabled": 0, "is_reserved": 0}, {"rental_uris": {"ios": "https://dc.lft.to/lastmile_qr_scan", "android": "https://dc.lft.to/lastmile_qr_scan"}, "lon": -77.02646566666667, "type": "electric_bike", "fusion_lat": 0.0, "lat": 38.90415083333333, "name": "be9622a846a2e89e6e6268db3be7a868", "fusion_lon": 0.0, "bike_id": "be9622a846a2e89e6e6268db3be7a868", "is_disabled": 0, "is_reserved": 0}, {"rental_uris": {"ios": "https://dc.lft.to/lastmile_qr_scan", "android": "https://dc.lft.to/lastmile_qr_scan"}, "lon": -77.04171133333334, "type": "electric_scooter", "fusion_lat": 0.0, "lat": 38.91394866666667, "name": "7f2f354de8466d154cfe7a22c6f1a968", "fusion_lon": 0.0, "bike_id": "7f2f354de8466d154cfe7a22c6f1a968", "is_disabled": 0, "is_reserved": 0}, {"rental_uris": {"ios": "https://dc.lft.to/lastmile_qr_scan", "android": "https://dc.lft.to/lastmile_qr_scan"}, "lon": -77.041624, "type": "electric_scooter", "fusion_lat": 0.0, "lat": 38.914657166666665, "name": "fc78712b2b42077d72bff591e45ddaf5", "fusion_lon": 0.0, "bike_id": "fc78712b2b42077d72bff591e45ddaf5", "is_disabled": 0, "is_reserved": 0}, {"rental_uris": {"ios": "https://dc.lft.to/lastmile_qr_scan", "android": "https://dc.lft.to/lastmile_qr_scan"}, "lon": -77.03467933333333, "type": "electric_scooter", "fusion_lat": 0.0, "lat": 38.9215395, "name": "ac3479919c16e0f20c37941874d1bd30", "fusion_lon": 0.0, "bike_id": "ac3479919c16e0f20c37941874d1bd30", "is_disabled": 0, "is_reserved": 0}, {"rental_uris": {"ios": "https://dc.lft.to/lastmile_qr_scan", "android": "https://dc.lft.to/lastmile_qr_scan"}, "lon": -77.01340583333334, "type": "electric_bike", "fusion_lat": 0.0, "lat": 38.99997616666667, "name": "ff53197beb453f104d744d255b1e238d", "fusion_lon": 0.0, "bike_id": "ff53197beb453f104d744d255b1e238d", "is_disabled": 0, "is_reserved": 0}, {"rental_uris": {"ios": "https://dc.lft.to/lastmile_qr_scan", "android": "https://dc.lft.to/lastmile_qr_scan"}, "lon": -77.018973, "type": "electric_scooter", "fusion_lat": 0.0, "lat": 38.876644, "name": "d44f6e057e373374964a6af1c2b67561", "fusion_lon": 0.0, "bike_id": "d44f6e057e373374964a6af1c2b67561", "is_disabled": 0, "is_reserved": 0}, {"rental_uris": {"ios": "https://dc.lft.to/lastmile_qr_scan", "android": "https://dc.lft.to/lastmile_qr_scan"}, "lon": -77.02884216666666, "type": "electric_scooter", "fusion_lat": 0.0, "lat": 38.9043175, "name": "9946b5faac9f9a46056428a7429b4a53", "fusion_lon": 0.0, "bike_id": "9946b5faac9f9a46056428a7429b4a53", "is_disabled": 0, "is_reserved": 0}, {"rental_uris": {"ios": "https://dc.lft.to/lastmile_qr_scan", "android": "https://dc.lft.to/lastmile_qr_scan"}, "lon": -77.01111616666667, "type": "electric_scooter", "fusion_lat": 0.0, "lat": 38.903587, "name": "891656d5a876c372f80cf329ad154e82", "fusion_lon": 0.0, "bike_id": "891656d5a876c372f80cf329ad154e82", "is_disabled": 0, "is_reserved": 0}, {"rental_uris": {"ios": "https://dc.lft.to/lastmile_qr_scan", "android": "https://dc.lft.to/lastmile_qr_scan"},