{"data": {"bikes": [{"bike_id": "1f25c507aa739578dc00b220ce8f1393", "type": "electric_scooter", "is_disabled": 0, "lat": 38.91268816666667, "rental_uris": {"ios": "https://dc.lft.to/lastmile_qr_scan", "android": "https://dc.lft.to/lastmile_qr_scan"}, "is_reserved": 0, "fusion_lon": 0.0, "fusion_lat": 0.0, "lon": -77.03180033333334, "name": "1f25c507aa739578dc00b220ce8f1393"}, {"bike_id": "d8e0ab99d5c26e15705eef1871e0229d", "type": "electric_scooter", "is_disabled": 0, "lat": 38.923752, "rental_uris": {"ios": "https://dc.lft.to/lastmile_qr_scan", "android": "https://dc.lft.to/lastmile_qr_scan"}, "is_reserved": 0, "fusion_lon": 0.0, "fusion_lat": 0.0, "lon": -77.03134266666666, "name": "d8e0ab99d5c26e15705eef1871e0229d"}, {"bike_id": "98ab991c9e05bc4f9cbef8615ab8421d", "type": "electric_scooter", "is_disabled": 0, "lat": 38.90538266666667, "rental_uris": {"ios": "https://dc.lft.to/lastmile_qr_scan", "android": "https://dc.lft.to/lastmile_qr_scan"}, "is_reserved": 0, "fusion_lon": 0.0, "fusion_lat": 0.0, "lon": -77.05932316666667, "name": "98ab991c9e05bc4f9cbef8615ab8421d"}, {"bike_id": "b3e9726cb0e23cfa13986fb3c948df74", "type": "electric_bike", "is_disabled": 0, "lat": 38.952305333333335, "rental_uris": {"ios": "https://dc.lft.to/lastmile_qr_scan", "android": "https://dc.lft.to/lastmile_qr_scan"}, "is_reserved": 0, "fusion_lon": 0.0, "fusion_lat": 0.0, "lon": -76.97007333333333, "name": "b3e9726cb0e23cfa13986fb3c948df74"}, {"bike_id": "8b275dffcb5e3774992256b7aafe8646", "type": "electric_bike", "is_disabled": 0, "lat": 38.9630285, "rental_uris": {"ios": "https://dc.lft.to/lastmile_qr_scan", "android": "https://dc.lft.to/lastmile_qr_scan"}, "is_reserved": 0, "fusion_lon": 0.0, "fusion_lat": 0.0, "lon": -77.011007, "name": "8b275dffcb5e3774992256b7aafe8646"}, {"bike_id": "b6f6fb85ec961611d6ba178a48aa934d", "type": "electric_scooter", "is_disabled": 0, "lat": 38.874266166666665, "rental_uris": {"ios": "https://dc.lft.to/lastmile_qr_scan", "android": "https://dc.lft.to/lastmile_qr_scan"}, "is_reserved": 0, "fusion_lon": 0.0, "fusion_lat": 0.0, "lon": -76.9691115, "name": "b6f6fb85ec961611d6ba178a48aa934d"}, {"bike_id": "08bf2a5fde3a3f054af9bccff1bd5bd7", "type": "electric_scooter", "is_disabled": 0, "lat": 38.8971185, "rental_uris": {"ios": "https://dc.lft.to/lastmile_qr_scan", "android": "https://dc.lft.to/lastmile_qr_scan"}, "is_reserved": 0, "fusion_lon": 0.0, "fusion_lat": 0.0, "lon": -77.0086255, "name": "08bf2a5fde3a3f054af9bccff1bd5bd7"}, {"bike_id": "ae22a9e7adceb69ab1720b5eb0c357cc", "type": "electric_scooter", "is_disabled": 0, "lat": 38.8992425, "rental_uris": {"ios": "https://dc.lft.to/lastmile_qr_scan", "android": "https://dc.lft.to/lastmile_qr_scan"}, "is_reserved": 0, "fusion_lon": 0.0, "fusion_lat": 0.0, "lon": -77.05369033333334, "name": "ae22a9e7adceb69ab1720b5eb0c357cc"}, {"bike_id": "3509d44a506efdc3c2de359e1b9ea909", "type": "electric_scooter", "is_disabled": 0, "lat": 38.92342216666667, "rental_uris": {"ios": "https://dc.lft.to/lastmile_qr_scan", "android": "https://dc.lft.to/lastmile_qr_scan"}, "is_reserved": 0, "fusion_lon": 0.0, "fusion_lat": 0.0, "lon": -77.04170966666666, "name": "3509d44a506efdc3c2de359e1b9ea909"}, {"bike_id": "c438ea072e5e53004650a9e97bd6dfc9", "type": "electric_scooter", "is_disabled": 0, "lat": 38.920502666666664, "rental_uris": {"ios": "https://dc.lft.to/lastmile_qr_scan", "android": "https://dc.lft.to/lastmile_qr_scan"}, "is_reserved": 0, "fusion_lon": 0.0, "fusion_lat": 0.0, "lon": -77.03193316666666, "name": "c438ea072e5e53004650a9e97bd6dfc9"}, {"bike_id": "cc14905cf25015bf88732cabfcbb33a9", "type": "electric_scooter", "is_disabled": 0, "lat": 38.92471233333333, "rental_uris": {"ios": "https://dc.lft.to/lastmile_qr_scan", "android": "https://dc.lft.to/lastmile_qr_scan"}, "is_reserved": 0, "fusion_lon": 0.0, "fusion_lat": 0.0, "lon": -77.02242616666666, "name": "cc14905cf25015bf88732cabfcbb33a9"}, {"bike_id": "5dddd4748c42e831418f3e924964e0d6", "type": "electric_bike", "is_disabled": 0, "lat": 38.96321716666667, "rental_uris": {"ios": "https://dc.lft.to/lastmile_qr_scan", "android": "https://dc.lft.to/lastmile_qr_scan"}, "is_reserved": 0, "fusion_lon": 0.0, "fusion_lat": 0.0, "lon": -76.97360383333333, "name": "5dddd4748c42e831418f3e924964e0d6"}, {"bike_id": "da7ee9063b2efcf4817b53d490c9b96e", "type": "electric_bike", "is_disabled": 0, "lat": 39.06294183333333, "rental_uris": {"ios": "https://dc.lft.to/lastmile_qr_scan", "android": "https://dc.lft.to/lastmile_qr_scan"}, "is_reserved": 0, "fusion_lon": 0.0, "fusion_lat": 0.0, "lon": -77.049806, "name": "da7ee9063b2efcf4817b53d490c9b96e"}, {"bike_id": "218bb3af074c083ddb8a03437a1966b3", "type": "electric_scooter", "is_disabled": 0, "lat": 38.844394333333334, "rental_uris": {"ios": "https://dc.lft.to/lastmile_qr_scan", "android": "https://dc.lft.to/lastmile_qr_scan"}, "is_reserved": 0, "fusion_lon": 0.0, "fusion_lat": 0.0, "lon": -76.99873816666667, "name": "218bb3af074c083ddb8a03437a1966b3"}, {"bike_id": "a6e85c74bfa7395008d0fafe4667e863", "type": "electric_scooter", "is_disabled": 0, "lat": 38.903094833333334, "rental_uris": {"ios": "https://dc.lft.to/lastmile_qr_scan", "android": "https://dc.lft.to/lastmile_qr_scan"}, "is_reserved": 0, "fusion_lon": 0.0, "fusion_lat": 0.0, "lon": -77.03028283333333, "name": "a6e85c74bfa7395008d0fafe4667e863"}, {"bike_id": "1de39adc2ce9f383fc3f31bdf43c801d", "type": "electric_scooter", "is_disabled": 0, "lat": 38.897194999999996, "rental_uris": {"ios": "https://dc.lft.to/lastmile_qr_scan", "android": "https://dc.lft.to/lastmile_qr_scan"}, "is_reserved": 0, "fusion_lon": 0.0, "fusion_lat": 0.0, "lon": -77.0324035, "name": "1de39adc2ce9f383fc3f31bdf43c801d"}, {"bike_id": "65820ec80216c0a8e1c6195ac9fce29e", "type": "electric_scooter", "is_disabled": 0, "lat": 38.902619, "rental_uris": {"ios": "https://dc.lft.to/lastmile_qr_scan", "android": "https://dc.lft.to/lastmile_qr_scan"}, "is_reserved": 0, "fusion_lon": 0.0, "fusion_lat": 0.0, "lon": -77.03835133333334, "name": "65820ec80216c0a8e1c6195ac9fce29e"}, {"bike_id": "e4aea1c5cb7eef50eaf7652f363f96a7", "type": "electric_scooter", "is_disabled": 0, "lat": 38.897343666666664, "rental_uris": {"ios": "https://dc.lft.to/lastmile_qr_scan", "android": "https://dc.lft.to/lastmile_qr_scan"}, "is_reserved": 0, "fusion_lon": 0.0, "fusion_lat": 0.0, "lon": -77.00753716666667, "name": "e4aea1c5cb7eef50eaf7652f363f96a7"}, {"bike_id": "14b1bd473256230f36f4d1102fd18834", "type": "electric_scooter", "is_disabled": 0, "lat": 38.9388555, "rental_uris": {"ios": "https://dc.lft.to/lastmile_qr_scan", "android": "https://dc.lft.to/lastmile_qr_scan"}, "is_reserved": 0, "fusion_lon": 0.0, "fusion_lat": 0.0, "lon": -77.02495183333333, "name": "14b1bd473256230f36f4d1102fd18834"}, {"bike_id": "53e8426683c796ed924bfb508a4a98f7", "type": "electric_scooter", "is_disabled": 0, "lat": 38.9052915, "rental_uris": {"ios": "https://dc.lft.to/lastmile_qr_scan", "android": "https://dc.lft.to/lastmile_qr_scan"}, "is_reserved": 0, "fusion_lon": 0.0, "fusion_lat": 0.0, "lon": -77.0593785, "name": "53e8426683c796ed924bfb508a4a98f7"}, {"bike_id": "872f23a77956e1c6e74e110f709fc012", "type": "electric_scooter", "is_disabled": 0, "lat": 38.87198816666667, "rental_uris": {"ios": "https://dc.lft.to/lastmile_qr_scan", "android": "https://dc.lft.to/lastmile_qr_scan"}, "is_reserved": 0, "fusion_lon": 0.0, "fusion_lat": 0.0, "lon": -77.00933116666667, "name": "872f23a77956e1c6e74e110f709fc012"}, {"bike_id": "573eb31f5816679efefe5d60fcb68f1a", "type": "electric_scooter", "is_disabled": 0, "lat": 38.9384675, "rental_uris": {"ios": "https://dc.lft.to/lastmile_qr_scan", "android": "https://dc.lft.to/lastmile_qr_scan"}, "is_reserved": 0, "fusion_lon": 0.0, "fusion_lat": 0.0, "lon": -77.07237583333334, "name": "573eb31f5816679efefe5d60fcb68f1a"}, {"bike_id": "9b251498228164357d97f10839a5e3e4", "type": "electric_scooter", "is_disabled": 0, "lat": 38.901501, "rental_uris": {"ios": "https://dc.lft.to/lastmile_qr_scan", "android": "https://dc.lft.to/lastmile_qr_scan"}, "is_reserved": 0, "fusion_lon": 0.0, "fusion_lat": 0.0, "lon": -76.93060033333333, "name": "9b251498228164357d97f10839a5e3e4"}, {"bike_id": "623f1de119a8b1a745e0daaa7fb7b960", "type": "electric_scooter", "is_disabled": 0, "lat": 38.9175875, "rental_uris": {"ios": "https://dc.lft.to/lastmile_qr_scan", "android": "https://dc.lft.to/lastmile_qr_scan"}, "is_reserved": 0, "fusion_lon": 0.0, "fusion_lat": 0.0, "lon": -77.034431, "name": "623f1de119a8b1a745e0daaa7fb7b960"}, {"bike_id": "f30a1ede3d9cc90b19f147f2d7d7961c", "type": "electric_scooter", "is_disabled": 0, "lat": 38.907417833333334, "rental_uris": {"ios": "https://dc.lft.to/lastmile_qr_scan", "android": "https://dc.lft.to/lastmile_qr_scan"}, "is_reserved": 0, "fusion_lon": 0.0, "fusion_lat": 0.0, "lon": -76.97971566666666, "name": "f30a1ede3d9cc90b19f147f2d7d7961c"}, {"bike_id": "1450d86df00d5b1c3da94b61cdcfef40", "type": "electric_scooter", "is_disabled": 0, "lat": 38.914451166666666, "rental_uris": {"ios": "https://dc.lft.to/lastmile_qr_scan", "android": "https://dc.lft.to/lastmile_qr_scan"}, "is_reserved": 0, "fusion_lon": 0.0, "fusion_lat": 0.0, "lon": -77.01995133333334, "name": "1450d86df00d5b1c3da94b61cdcfef40"}, {"bike_id": "210c07ab14cfa16bfe99714d3c0b0360", "type": "electric_scooter", "is_disabled": 0, "lat": 38.907409, "rental_uris": {"ios": "https://dc.lft.to/lastmile_qr_scan", "android": "https://dc.lft.to/lastmile_qr_scan"}, "is_reserved": 0, "fusion_lon": 0.0, "fusion_lat": 0.0, "lon": -77.03187966666667, "name": "210c07ab14cfa16bfe99714d3c0b0360"}, {"bike_id": "66b5af7d39bb7bc1882992f07d34cfd5", "type": "electric_scooter", "is_disabled": 0, "lat": 38.91734533333333, "rental_uris": {"ios": "https://dc.lft.to/lastmile_qr_scan", "android": "https://dc.lft.to/lastmile_qr_scan"}, "is_reserved": 0, "fusion_lon": 0.0, "fusion_lat": 0.0, "lon": -77.04073133333333, "name": "66b5af7d39bb7bc1882992f07d34cfd5"}, {"bike_id": "c3525eabbd80c51974674ec689adbd16", "type": "electric_scooter", "is_disabled": 0, "lat": 38.83087883333334, "rental_uris": {"ios": "https://dc.lft.to/lastmile_qr_scan", "android": "https://dc.lft.to/lastmile_qr_scan"}, "is_reserved": 0, "fusion_lon": 0.0, "fusion_lat": 0.0, "lon": -77.05157416666667, "name": "c3525eabbd80c51974674ec689adbd16"}, {"bike_id": "2c8e1182772f15318c622f1232fa9954", "type": "electric_scooter", "is_disabled": 0, "lat": 38.908075833333335, "rental_uris": {"ios": "https://dc.lft.to/lastmile_qr_scan", "android": "https://dc.lft.to/lastmile_qr_scan"}, "is_reserved": 0, "fusion_lon": 0.0, "fusion_lat": 0.0, "lon": -77.04478216666666, "name": "2c8e1182772f15318c622f1232fa9954"}, {"bike_id": "cab68b472b82338e7445ec672420d02b", "type": "electric_scooter", "is_disabled": 0, "lat": 38.867329833333336, "rental_uris": {"ios": "https://dc.lft.to/lastmile_qr_scan", "android": "https://dc.lft.to/lastmile_qr_scan"}, "is_reserved": 0, "fusion_lon": 0.0, "fusion_lat": 0.0, "lon": -76.97863333333333, "name": "cab68b472b82338e7445ec672420d02b"}, {"bike_id": "c05c3266f9138c0053abe22b2e478c78", "type": "electric_scooter", "is_disabled": 0, "lat": 38.913729000000004, "rental_uris": {"ios": "https://dc.lft.to/lastmile_qr_scan", "android": "https://dc.lft.to/lastmile_qr_scan"}, "is_reserved": 0, "fusion_lon": 0.0, "fusion_lat": 0.0, "lon": -77.03015616666667, "name": "c05c3266f9138c0053abe22b2e478c78"}, {"bike_id": "36a2b748e15c93fe5a30182ba9eb2893", "type": "electric_scooter", "is_disabled": 0, "lat": 38.8999285, "rental_uris": {"ios": "https://dc.lft.to/lastmile_qr_scan", "android": "https://dc.lft.to/lastmile_qr_scan"}, "is_reserved": 0, "fusion_lon": 0.0, "fusion_lat": 0.0, "lon": -77.00669316666666, "name": "36a2b748e15c93fe5a30182ba9eb2893"}, {"bike_id": "4667439105b4d915224524a3b14b87d2", "type": "electric_scooter", "is_disabled": 0, "lat": 38.91693433333333, "rental_uris": {"ios": "https://dc.lft.to/lastmile_qr_scan", "android": "https://dc.lft.to/lastmile_qr_scan"}, "is_reserved": 0, "fusion_lon": 0.0, "fusion_lat": 0.0, "lon": -77.03497466666667, "name": "4667439105b4d915224524a3b14b87d2"}, {"bike_id": "1e3bc751e684bb9fbfcf46d8898291f7", "type": "electric_scooter", "is_disabled": 0, "lat": 38.844290666666666, "rental_uris": {"ios": "https://dc.lft.to/lastmile_qr_scan", "android": "https://dc.lft.to/lastmile_qr_scan"}, "is_reserved": 0, "fusion_lon": 0.0, "fusion_lat": 0.0, "lon": -76.9988125, "name": "1e3bc751e684bb9fbfcf46d8898291f7"}, {"bike_id": "1274d73175664dbe3811721ade823f7a", "type": "electric_scooter", "is_disabled": 0, "lat": 38.8952495, "rental_uris": {"ios": "https://dc.lft.to/lastmile_qr_scan", "android": "https://dc.lft.to/lastmile_qr_scan"}, "is_reserved": 0, "fusion_lon": 0.0, "fusion_lat": 0.0, "lon": -77.00211583333333, "name": "1274d73175664dbe3811721ade823f7a"}, {"bike_id": "853415490f23d2b000487af776d486c3", "type": "electric_scooter", "is_disabled": 0, "lat": 38.906721833333336, "rental_uris": {"ios": "https://dc.lft.to/lastmile_qr_scan", "android": "https://dc.lft.to/lastmile_qr_scan"}, "is_reserved": 0, "fusion_lon": 0.0, "fusion_lat": 0.0, "lon": -77.071755, "name": "853415490f23d2b000487af776d486c3"}, {"bike_id": "0af864814a202bf14b827e82b4f76e71", "type": "electric_scooter", "is_disabled": 0, "lat": 38.9233635, "rental_uris": {"ios": "https://dc.lft.to/lastmile_qr_scan", "android": "https://dc.lft.to/lastmile_qr_scan"}, "is_reserved": 0, "fusion_lon": 0.0, "fusion_lat": 0.0, "lon": -77.0380655, "name": "0af864814a202bf14b827e82b4f76e71"}, {"bike_id": "d301c4edcff479a3833b545bb90d35b9", "type": "electric_scooter", "is_disabled": 0, "lat": 38.94212233333333, "rental_uris": {"ios": "https://dc.lft.to/lastmile_qr_scan", "android": "https://dc.lft.to/lastmile_qr_scan"}, "is_reserved": 0, "fusion_lon": 0.0, "fusion_lat": 0.0, "lon": -77.02590583333334, "name": "d301c4edcff479a3833b545bb90d35b9"}, {"bike_id": "1375ebcaaed2cb6055f28bf809920353", "type": "electric_scooter", "is_disabled": 0, "lat": 38.947902666666664, "rental_uris": {"ios": "https://dc.lft.to/lastmile_qr_scan", "android": "https://dc.lft.to/lastmile_qr_scan"}, "is_reserved": 0, "fusion_lon": 0.0, "fusion_lat": 0.0, "lon": -77.0793645, "name": "1375ebcaaed2cb6055f28bf809920353"}, {"bike_id": "cb40ded0ada08bc8ea1122463d74885c", "type": "electric_scooter", "is_disabled": 0, "lat": 38.929882666666664, "rental_uris": {"ios": "https://dc.lft.to/lastmile_qr_scan", "android": "https://dc.lft.to/lastmile_qr_scan"}, "is_reserved": 0, "fusion_lon": 0.0, "fusion_lat": 0.0, "lon": -77.03469, "name": "cb40ded0ada08bc8ea1122463d74885c"}, {"bike_id": "7f997c00dd40249867d3de3b6c11bdb9", "type": "electric_scooter", "is_disabled": 0, "lat": 38.900448, "rental_uris": {"ios": "https://dc.lft.to/lastmile_qr_scan", "android": "https://dc.lft.to/lastmile_qr_scan"}, "is_reserved": 0, "fusion_lon": 0.0, "fusion_lat": 0.0, "lon": -77.02391016666667, "name": "7f997c00dd40249867d3de3b6c11bdb9"}, {"bike_id": "cb413cb6412a0fce4832e6f4df7a14e8", "type": "electric_scooter", "is_disabled": 0, "lat": 38.90733733333333, "rental_uris": {"ios": "https://dc.lft.to/lastmile_qr_scan", "android": "https://dc.lft.to/lastmile_qr_scan"}, "is_reserved": 0, "fusion_lon": 0.0, "fusion_lat": 0.0, "lon": -77.01488683333334, "name": "cb413cb6412a0fce4832e6f4df7a14e8"}, {"bike_id": "bd38a7f7b4949f4d4da6d5c8771632d4", "type": "electric_scooter", "is_disabled": 0, "lat": 38.90683116666666, "rental_uris": {"ios": "https://dc.lft.to/lastmile_qr_scan", "android": "https://dc.lft.to/lastmile_qr_scan"}, "is_reserved": 0, "fusion_lon": 0.0, "fusion_lat": 0.0, "lon": -77.0633955, "name": "bd38a7f7b4949f4d4da6d5c8771632d4"}, {"bike_id": "c60dbf9e45ae13a226f8096b11acf97b", "type": "electric_scooter", "is_disabled": 0, "lat": 38.92973883333333, "rental_uris": {"ios": "https://dc.lft.to/lastmile_qr_scan", "android": "https://dc.lft.to/lastmile_qr_scan"}, "is_reserved": 0, "fusion_lon": 0.0, "fusion_lat": 0.0, "lon": -77.03947416666666, "name": "c60dbf9e45ae13a226f8096b11acf97b"}, {"bike_id": "0eb94b369eebf776987b9d42ac5028da", "type": "electric_bike", "is_disabled": 0, "lat": 39.056368666666664, "rental_uris": {"ios": "https://dc.lft.to/lastmile_qr_scan", "android": "https://dc.lft.to/lastmile_qr_scan"}, "is_reserved": 0, "fusion_lon": 0.0, "fusion_lat": 0.0, "lon": -77.12525066666667, "name": "0eb94b369eebf776987b9d42ac5028da"}, {"bike_id": "9194e67092486b2fa26605d8ca2422dd", "type": "electric_scooter", "is_disabled": 0, "lat": 38.910327, "rental_uris": {"ios": "https://dc.lft.to/lastmile_qr_scan", "android": "https://dc.lft.to/lastmile_qr_scan"}, "is_reserved": 0, "fusion_lon": 0.0, "fusion_lat": 0.0, "lon": -77.0426575, "name": "9194e67092486b2fa26605d8ca2422dd"}, {"bike_id": "7e8d3c7115a9445030cc0b12c8f1ee39", "type": "electric_scooter", "is_disabled": 0, "lat": 38.90263133333333, "rental_uris": {"ios": "https://dc.lft.to/lastmile_qr_scan", "android": "https://dc.lft.to/lastmile_qr_scan"}, "is_reserved": 0, "fusion_lon": 0.0, "fusion_lat": 0.0, "lon": -77.03840966666667, "name": "7e8d3c7115a9445030cc0b12c8f1ee39"}, {"bike_id": "12eeb6f7c6828e931b17d8897a007b79", "type": "electric_scooter", "is_disabled": 0, "lat": 38.91266483333333, "rental_uris": {"ios": "https://dc.lft.to/lastmile_qr_scan", "android": "https://dc.lft.to/lastmile_qr_scan"}, "is_reserved": 0, "fusion_lon": 0.0, "fusion_lat": 0.0, "lon": -77.0222525, "name": "12eeb6f7c6828e931b17d8897a007b79"}, {"bike_id": "ecc4603c369907c81020eac11d4d3821", "type": "electric_scooter", "is_disabled": 0, "lat": 38.92264333333333, "rental_uris": {"ios": "https://dc.lft.to/lastmile_qr_scan", "android": "https://dc.lft.to/lastmile_qr_scan"}, "is_reserved": 0, "fusion_lon": 0.0, "fusion_lat": 0.0, "lon": -77.034009, "name": "ecc4603c369907c81020eac11d4d3821"}, {"bike_id": "1052290881366e1d6fce0ab5a6d46a8d", "type": "electric_scooter", "is_disabled": 0, "lat": 38.901213166666665, "rental_uris": {"ios": "https://dc.lft.to/lastmile_qr_scan", "android": "https://dc.lft.to/lastmile_qr_scan"}, "is_reserved": 0, "fusion_lon": 0.0, "fusion_lat": 0.0, "lon": -77.04052916666667, "name": "1052290881366e1d6fce0ab5a6d46a8d"}, {"bike_id": "495a9051c8812909fc7c64a5f7cf436f", "type": "electric_scooter", "is_disabled": 0, "lat": 38.90020333333333, "rental_uris": {"ios": "https://dc.lft.to/lastmile_qr_scan", "android": "https://dc.lft.to/lastmile_qr_scan"}, "is_reserved": 0, "fusion_lon": 0.0, "fusion_lat": 0.0, "lon": -77.0350915, "name": "495a9051c8812909fc7c64a5f7cf436f"}, {"bike_id": "7fe820e73ca707854125204947245cd8", "type": "electric_scooter", "is_disabled": 0, "lat": 38.905694, "rental_uris": {"ios": "https://dc.lft.to/lastmile_qr_scan", "android": "https://dc.lft.to/lastmile_qr_scan"}, "is_reserved": 0, "fusion_lon": 0.0, "fusion_lat": 0.0, "lon": -77.03009483333334, "name": "7fe820e73ca707854125204947245cd8"}, {"bike_id": "52e03c8487b23a5ae284f8b975074349", "type": "electric_scooter", "is_disabled": 0, "lat": 38.90850583333334, "rental_uris": {"ios": "https://dc.lft.to/lastmile_qr_scan", "android": "https://dc.lft.to/lastmile_qr_scan"}, "is_reserved": 0, "fusion_lon": 0.0, "fusion_lat": 0.0, "lon": -76.9979875, "name": "52e03c8487b23a5ae284f8b975074349"}, {"bike_id": "5e3453dc3671669442563aa73983ae5a", "type": "electric_scooter", "is_disabled": 0, "lat": 38.9202185, "rental_uris": {"ios": "https://dc.lft.to/lastmile_qr_scan", "android": "https://dc.lft.to/lastmile_qr_scan"}, "is_reserved": 0, "fusion_lon": 0.0, "fusion_lat": 0.0, "lon": -77.03128833333334, "name": "5e3453dc3671669442563aa73983ae5a"}, {"bike_id": "333629b750cd36e7b3d29cfd2bc6e6be", "type": "electric_scooter", "is_disabled": 0, "lat": 38.89844733333334, "rental_uris": {"ios": "https://dc.lft.to/lastmile_qr_scan", "android": "https://dc.lft.to/lastmile_qr_scan"}, "is_reserved": 0, "fusion_lon": 0.0, "fusion_lat": 0.0, "lon": -76.94639433333333, "name": "333629b750cd36e7b3d29cfd2bc6e6be"}, {"bike_id": "893ad763a505e1345ddeea646f4ac960", "type": "electric_scooter", "is_disabled": 0, "lat": 38.9034515, "rental_uris": {"ios": "https://dc.lft.to/lastmile_qr_scan", "android": "https://dc.lft.to/lastmile_qr_scan"}, "is_reserved": 0, "fusion_lon": 0.0, "fusion_lat": 0.0, "lon": -77.06032916666666, "name": "893ad763a505e1345ddeea646f4ac960"}, {"bike_id": "2828ff992302e5ebbf6136fd9d8af665", "type": "electric_scooter", "is_disabled": 0, "lat": 38.89082333333333, "rental_uris": {"ios": "https://dc.lft.to/lastmile_qr_scan", "android": "https://dc.lft.to/lastmile_qr_scan"}, "is_reserved": 0, "fusion_lon": 0.0, "fusion_lat": 0.0, "lon": -77.04043183333333, "name": "2828ff992302e5ebbf6136fd9d8af665"}, {"bike_id": "f8d303dc8641b845cad5b22ab6d1ece6", "type": "electric_scooter", "is_disabled": 0, "lat": 38.91418516666667, "rental_uris": {"ios": "https://dc.lft.to/lastmile_qr_scan", "android": "https://dc.lft.to/lastmile_qr_scan"}, "is_reserved": 0, "fusion_lon": 0.0, "fusion_lat": 0.0, "lon": -77.021829, "name": "f8d303dc8641b845cad5b22ab6d1ece6"}, {"bike_id": "51f461a010bc287c0c4dca13e981d8fe", "type": "electric_scooter", "is_disabled": 0, "lat": 38.919204666666666, "rental_uris": {"ios": "https://dc.lft.to/lastmile_qr_scan", "android": "https://dc.lft.to/lastmile_qr_scan"}, "is_reserved": 0, "fusion_lon": 0.0, "fusion_lat": 0.0, "lon": -77.042501, "name": "51f461a010bc287c0c4dca13e981d8fe"}, {"bike_id": "79add80f65933fad16cd610e8d4ad06b", "type": "electric_scooter", "is_disabled": 0, "lat": 38.86374083333333, "rental_uris": {"ios": "https://dc.lft.to/lastmile_qr_scan", "android": "https://dc.lft.to/lastmile_qr_scan"}, "is_reserved": 0, "fusion_lon": 0.0, "fusion_lat": 0.0, "lon": -76.99061883333333, "name": "79add80f65933fad16cd610e8d4ad06b"}, {"bike_id": "38c89ddaf9edafae915e2a94c16c5f04", "type": "electric_scooter", "is_disabled": 0, "lat": 38.866857833333334, "rental_uris": {"ios": "https://dc.lft.to/lastmile_qr_scan", "android": "https://dc.lft.to/lastmile_qr_scan"}, "is_reserved": 0, "fusion_lon": 0.0, "fusion_lat": 0.0, "lon": -76.985563, "name": "38c89ddaf9edafae915e2a94c16c5f04"}, {"bike_id": "cc60c51861d0e103758753c9a8418aa8", "type": "electric_scooter", "is_disabled": 0, "lat": 38.87858116666666, "rental_uris": {"ios": "https://dc.lft.to/lastmile_qr_scan", "android": "https://dc.lft.to/lastmile_qr_scan"}, "is_reserved": 0, "fusion_lon": 0.0, "fusion_lat": 0.0, "lon": -77.00567716666667, "name": "cc60c51861d0e103758753c9a8418aa8"}, {"bike_id": "11fc9efbe84195cabed654857cfc4a44", "type": "electric_scooter", "is_disabled": 0, "lat": 38.91959666666666, "rental_uris": {"ios": "https://dc.lft.to/lastmile_qr_scan", "android": "https://dc.lft.to/lastmile_qr_scan"}, "is_reserved": 0, "fusion_lon": 0.0, "fusion_lat": 0.0, "lon": -77.0423895, "name": "11fc9efbe84195cabed654857cfc4a44"}, {"bike_id": "77dc6760fd54534b6dea3b81436396df", "type": "electric_scooter", "is_disabled": 0, "lat": 38.8825665, "rental_uris": {"ios": "https://dc.lft.to/lastmile_qr_scan", "android": "https://dc.lft.to/lastmile_qr_scan"}, "is_reserved": 0, "fusion_lon": 0.0, "fusion_lat": 0.0, "lon": -76.9951455, "name": "77dc6760fd54534b6dea3b81436396df"}, {"bike_id": "01fdbcfa356fda38b5bed22401633ad0", "type": "electric_scooter", "is_disabled": 0, "lat": 38.92236533333333, "rental_uris": {"ios": "https://dc.lft.to/lastmile_qr_scan", "android": "https://dc.lft.to/lastmile_qr_scan"}, "is_reserved": 0, "fusion_lon": 0.0, "fusion_lat": 0.0, "lon": -76.97534066666667, "name": "01fdbcfa356fda38b5bed22401633ad0"}, {"bike_id": "f619616dc44d70421a263df2156ea56a", "type": "electric_bike", "is_disabled": 0, "lat": 39.051008833333334, "rental_uris": {"ios": "https://dc.lft.to/lastmile_qr_scan", "android": "https://dc.lft.to/lastmile_qr_scan"}, "is_reserved": 0, "fusion_lon": 0.0, "fusion_lat": 0.0, "lon": -77.11729116666666, "name": "f619616dc44d70421a263df2156ea56a"}, {"bike_id": "db8a3ff8a8d9b72209450d908fd4e63b", "type": "electric_scooter", "is_disabled": 0, "lat": 38.87660533333333, "rental_uris": {"ios": "https://dc.lft.to/lastmile_qr_scan", "android": "https://dc.lft.to/lastmile_qr_scan"}, "is_reserved": 0, "fusion_lon": 0.0, "fusion_lat": 0.0, "lon": -76.99643833333333, "name": "db8a3ff8a8d9b72209450d908fd4e63b"}, {"bike_id": "e04faced94e7267745363eb40c8b5b35", "type": "electric_scooter", "is_disabled": 0, "lat": 38.933186, "rental_uris": {"ios": "https://dc.lft.to/lastmile_qr_scan", "android": "https://dc.lft.to/lastmile_qr_scan"}, "is_reserved": 0, "fusion_lon": 0.0, "fusion_lat": 0.0, "lon": -77.0275165, "name": "e04faced94e7267745363eb40c8b5b35"}, {"bike_id": "ad817e2ca33dfe472e71de84cc32459f", "type": "electric_scooter", "is_disabled": 0, "lat": 38.92098216666667, "rental_uris": {"ios": "https://dc.lft.to/lastmile_qr_scan", "android": "https://dc.lft.to/lastmile_qr_scan"}, "is_reserved": 0, "fusion_lon": 0.0, "fusion_lat": 0.0, "lon": -77.01724333333334, "name": "ad817e2ca33dfe472e71de84cc32459f"}, {"bike_id": "469b53852ad60f8c00b7fe68cd512907", "type": "electric_scooter", "is_disabled": 0, "lat": 38.92486266666667, "rental_uris": {"ios": "https://dc.lft.to/lastmile_qr_scan", "android": "https://dc.lft.to/lastmile_qr_scan"}, "is_reserved": 0, "fusion_lon": 0.0, "fusion_lat": 0.0, "lon": -77.05761616666666, "name": "469b53852ad60f8c00b7fe68cd512907"}, {"bike_id": "86e786506c2384ccf98afdd699093983", "type": "electric_scooter", "is_disabled": 0, "lat": 38.90376633333333, "rental_uris": {"ios": "https://dc.lft.to/lastmile_qr_scan", "android": "https://dc.lft.to/lastmile_qr_scan"}, "is_reserved": 0, "fusion_lon": 0.0, "fusion_lat": 0.0, "lon": -77.062897, "name": "86e786506c2384ccf98afdd699093983"}, {"bike_id": "d4e94bdf288e8c58a62ceaf1b76db018", "type": "electric_scooter", "is_disabled": 0, "lat": 38.91273116666667, "rental_uris": {"ios": "https://dc.lft.to/lastmile_qr_scan", "android": "https://dc.lft.to/lastmile_qr_scan"}, "is_reserved": 0, "fusion_lon": 0.0, "fusion_lat": 0.0, "lon": -77.0145685, "name": "d4e94bdf288e8c58a62ceaf1b76db018"}, {"bike_id": "dccad920d790eaf253159401f1d56fc0", "type": "electric_scooter", "is_disabled": 0, "lat": 38.93645133333333, "rental_uris": {"ios": "https://dc.lft.to/lastmile_qr_scan", "android": "https://dc.lft.to/lastmile_qr_scan"}, "is_reserved": 0, "fusion_lon": 0.0, "fusion_lat": 0.0, "lon": -77.05885666666667, "name": "dccad920d790eaf253159401f1d56fc0"}, {"bike_id": "1ebbc06110020ba51c5aa447fdef0fa9", "type": "electric_scooter", "is_disabled": 0, "lat": 38.911722, "rental_uris": {"ios": "https://dc.lft.to/lastmile_qr_scan", "android": "https://dc.lft.to/lastmile_qr_scan"}, "is_reserved": 0, "fusion_lon": 0.0, "fusion_lat": 0.0, "lon": -77.031827, "name": "1ebbc06110020ba51c5aa447fdef0fa9"}, {"bike_id": "1ddf35ea6da641db5c2d5b4eadc26518", "type": "electric_scooter", "is_disabled": 0, "lat": 38.9053085, "rental_uris": {"ios": "https://dc.lft.to/lastmile_qr_scan", "android": "https://dc.lft.to/lastmile_qr_scan"}, "is_reserved": 0, "fusion_lon": 0.0, "fusion_lat": 0.0, "lon": -77.0568265, "name": "1ddf35ea6da641db5c2d5b4eadc26518"}, {"bike_id": "b22ba1cc93b9e1fcf3117b7871b9abef", "type": "electric_scooter", "is_disabled": 0, "lat": 38.9297755, "rental_uris": {"ios": "https://dc.lft.to/lastmile_qr_scan", "android": "https://dc.lft.to/lastmile_qr_scan"}, "is_reserved": 0, "fusion_lon": 0.0, "fusion_lat": 0.0, "lon": -77.03253216666667, "name": "b22ba1cc93b9e1fcf3117b7871b9abef"}, {"bike_id": "4df970104598dbae3d45a8be1ebb8367", "type": "electric_scooter", "is_disabled": 0, "lat": 38.942103, "rental_uris": {"ios": "https://dc.lft.to/lastmile_qr_scan", "android": "https://dc.lft.to/lastmile_qr_scan"}, "is_reserved": 0, "fusion_lon": 0.0, "fusion_lat": 0.0, "lon": -77.02583233333333, "name": "4df970104598dbae3d45a8be1ebb8367"}, {"bike_id": "e312974d0ff4b23c0bd0b2f9129c3818", "type": "electric_scooter", "is_disabled": 0, "lat": 38.91711266666667, "rental_uris": {"ios": "https://dc.lft.to/lastmile_qr_scan", "android": "https://dc.lft.to/lastmile_qr_scan"}, "is_reserved": 0, "fusion_lon": 0.0, "fusion_lat": 0.0, "lon": -77.0238995, "name": "e312974d0ff4b23c0bd0b2f9129c3818"}, {"bike_id": "b89b7347df0ff149c598697827c09fc5", "type": "electric_scooter", "is_disabled": 0, "lat": 38.91626733333333, "rental_uris": {"ios": "https://dc.lft.to/lastmile_qr_scan", "android": "https://dc.lft.to/lastmile_qr_scan"}, "is_reserved": 0, "fusion_lon": 0.0, "fusion_lat": 0.0, "lon": -77.02274116666666, "name": "b89b7347df0ff149c598697827c09fc5"}, {"bike_id": "93b413155dccba3b14aa513276d2e042", "type": "electric_scooter", "is_disabled": 0, "lat": 38.945578, "rental_uris": {"ios": "https://dc.lft.to/lastmile_qr_scan", "android": "https://dc.lft.to/lastmile_qr_scan"}, "is_reserved": 0, "fusion_lon": 0.0, "fusion_lat": 0.0, "lon": -77.07120566666667, "name": "93b413155dccba3b14aa513276d2e042"}, {"bike_id": "d10b5826774c69df870aceec94e5c198", "type": "electric_scooter", "is_disabled": 0, "lat": 38.884522833333335, "rental_uris": {"ios": "https://dc.lft.to/lastmile_qr_scan", "android": "https://dc.lft.to/lastmile_qr_scan"}, "is_reserved": 0, "fusion_lon": 0.0, "fusion_lat": 0.0, "lon": -76.95101716666667, "name": "d10b5826774c69df870aceec94e5c198"}, {"bike_id": "10024bc7f27880d922466d343dab5d37", "type": "electric_bike", "is_disabled": 0, "lat": 38.8709615, "rental_uris": {"ios": "https://dc.lft.to/lastmile_qr_scan", "android": "https://dc.lft.to/lastmile_qr_scan"}, "is_reserved": 0, "fusion_lon": 0.0, "fusion_lat": 0.0, "lon": -77.0120415, "name": "10024bc7f27880d922466d343dab5d37"}, {"bike_id": "252c1124c2fdc35bc57d2302462ab418", "type": "electric_scooter", "is_disabled": 0, "lat": 38.905772666666664, "rental_uris": {"ios": "https://dc.lft.to/lastmile_qr_scan", "android": "https://dc.lft.to/lastmile_qr_scan"}, "is_reserved": 0, "fusion_lon": 0.0, "fusion_lat": 0.0, "lon": -77.00625083333334, "name": "252c1124c2fdc35bc57d2302462ab418"}, {"bike_id": "d7e69009166c938b2159050ccb6a94c4", "type": "electric_scooter", "is_disabled": 0, "lat": 38.90691416666667, "rental_uris": {"ios": "https://dc.lft.to/lastmile_qr_scan", "android": "https://dc.lft.to/lastmile_qr_scan"}, "is_reserved": 0, "fusion_lon": 0.0, "fusion_lat": 0.0, "lon": -77.03807216666667, "name": "d7e69009166c938b2159050ccb6a94c4"}, {"bike_id": "32d2b1a78e05995a11aa760f7808d5d8", "type": "electric_bike", "is_disabled": 0, "lat": 38.858958666666666, "rental_uris": {"ios": "https://dc.lft.to/lastmile_qr_scan", "android": "https://dc.lft.to/lastmile_qr_scan"}, "is_reserved": 0, "fusion_lon": 0.0, "fusion_lat": 0.0, "lon": -77.11868383333334, "name": "32d2b1a78e05995a11aa760f7808d5d8"}, {"bike_id": "d567f03655da5653e43efdecf76f39a9", "type": "electric_scooter", "is_disabled": 0, "lat": 38.9192575, "rental_uris": {"ios": "https://dc.lft.to/lastmile_qr_scan", "android": "https://dc.lft.to/lastmile_qr_scan"}, "is_reserved": 0, "fusion_lon": 0.0, "fusion_lat": 0.0, "lon": -77.04173383333334, "name": "d567f03655da5653e43efdecf76f39a9"}, {"bike_id": "f4f63d32e0b6d70ec02411d863506af4", "type": "electric_scooter", "is_disabled": 0, "lat": 38.91535366666667, "rental_uris": {"ios": "https://dc.lft.to/lastmile_qr_scan", "android": "https://dc.lft.to/lastmile_qr_scan"}, "is_reserved": 0, "fusion_lon": 0.0, "fusion_lat": 0.0, "lon": -77.0320595, "name": "f4f63d32e0b6d70ec02411d863506af4"}, {"bike_id": "dd2f9617af225ee1414d379883bd54ed", "type": "electric_scooter", "is_disabled": 0, "lat": 38.87946916666667, "rental_uris": {"ios": "https://dc.lft.to/lastmile_qr_scan", "android": "https://dc.lft.to/lastmile_qr_scan"}, "is_reserved": 0, "fusion_lon": 0.0, "fusion_lat": 0.0, "lon": -77.00800416666667, "name": "dd2f9617af225ee1414d379883bd54ed"}, {"bike_id": "cb52a6c9c018824f89e8b4904102f069", "type": "electric_scooter", "is_disabled": 0, "lat": 38.904785833333335, "rental_uris": {"ios": "https://dc.lft.to/lastmile_qr_scan", "android": "https://dc.lft.to/lastmile_qr_scan"}, "is_reserved": 0, "fusion_lon": 0.0, "fusion_lat": 0.0, "lon": -76.98980983333334, "name": "cb52a6c9c018824f89e8b4904102f069"}, {"bike_id": "ad2f05bd5d57b276b490b6b974f5199e", "type": "electric_scooter", "is_disabled": 0, "lat": 38.9191305, "rental_uris": {"ios": "https://dc.lft.to/lastmile_qr_scan", "android": "https://dc.lft.to/lastmile_qr_scan"}, "is_reserved": 0, "fusion_lon": 0.0, "fusion_lat": 0.0, "lon": -77.04158783333334, "name": "ad2f05bd5d57b276b490b6b974f5199e"}, {"bike_id": "89efe5b42992ba596a85baa6d2499d02", "type": "electric_bike", "is_disabled": 0, "lat": 38.957868833333336, "rental_uris": {"ios": "https://dc.lft.to/lastmile_qr_scan", "android": "https://dc.lft.to/lastmile_qr_scan"}, "is_reserved": 0, "fusion_lon": 0.0, "fusion_lat": 0.0, "lon": -77.02005933333334, "name": "89efe5b42992ba596a85baa6d2499d02"}, {"bike_id": "f23c536846bea1bda2e123256f906379", "type": "electric_scooter", "is_disabled": 0, "lat": 38.899644333333335, "rental_uris": {"ios": "https://dc.lft.to/lastmile_qr_scan", "android": "https://dc.lft.to/lastmile_qr_scan"}, "is_reserved": 0, "fusion_lon": 0.0, "fusion_lat": 0.0, "lon": -76.98301433333333, "name": "f23c536846bea1bda2e123256f906379"}, {"bike_id": "a66ba7cb8994ec1e4b03be0b3a5bbb91", "type": "electric_scooter", "is_disabled": 0, "lat": 38.90238033333333, "rental_uris": {"ios": "https://dc.lft.to/lastmile_qr_scan", "android": "https://dc.lft.to/lastmile_qr_scan"}, "is_reserved": 0, "fusion_lon": 0.0, "fusion_lat": 0.0, "lon": -77.0020545, "name": "a66ba7cb8994ec1e4b03be0b3a5bbb91"}, {"bike_id": "6860014168ba8fe3d2f668cfaa2c18f6", "type": "electric_scooter", "is_disabled": 0, "lat": 38.9007425, "rental_uris": {"ios": "https://dc.lft.to/lastmile_qr_scan", "android": "https://dc.lft.to/lastmile_qr_scan"}, "is_reserved": 0, "fusion_lon": 0.0, "fusion_lat": 0.0, "lon": -77.03093183333333, "name": "6860014168ba8fe3d2f668cfaa2c18f6"}, {"bike_id": "74e29f4b694bed4b3fbb6dc36c13e5d5", "type": "electric_scooter", "is_disabled": 0, "lat": 38.91402, "rental_uris": {"ios": "https://dc.lft.to/lastmile_qr_scan", "android": "https://dc.lft.to/lastmile_qr_scan"}, "is_reserved": 0, "fusion_lon": 0.0, "fusion_lat": 0.0, "lon": -77.03146116666667, "name": "74e29f4b694bed4b3fbb6dc36c13e5d5"}, {"bike_id": "2f6821a52aed5a130719d321ad4d02ad", "type": "electric_scooter", "is_disabled": 0, "lat": 38.91241016666667, "rental_uris": {"ios": "https://dc.lft.to/lastmile_qr_scan", "android": "https://dc.lft.to/lastmile_qr_scan"}, "is_reserved": 0, "fusion_lon": 0.0, "fusion_lat": 0.0, "lon": -77.038595, "name": "2f6821a52aed5a130719d321ad4d02ad"}, {"bike_id": "9c255dbd4aa695be1f1133fc9d3a6e26", "type": "electric_scooter", "is_disabled": 0, "lat": 38.92744666666667, "rental_uris": {"ios": "https://dc.lft.to/lastmile_qr_scan", "android": "https://dc.lft.to/lastmile_qr_scan"}, "is_reserved": 0, "fusion_lon": 0.0, "fusion_lat": 0.0, "lon": -77.0339825, "name": "9c255dbd4aa695be1f1133fc9d3a6e26"}, {"bike_id": "c9b0f37d884d07f6ce733d760eaae859", "type": "electric_bike", "is_disabled": 0, "lat": 38.836699333333335, "rental_uris": {"ios": "https://dc.lft.to/lastmile_qr_scan", "android": "https://dc.lft.to/lastmile_qr_scan"}, "is_reserved": 0, "fusion_lon": 0.0, "fusion_lat": 0.0, "lon": -76.99358366666667, "name": "c9b0f37d884d07f6ce733d760eaae859"}, {"bike_id": "459c33d50d0255eac60cffca8b3e3681", "type": "electric_scooter", "is_disabled": 0, "lat": 38.904632666666664, "rental_uris": {"ios": "https://dc.lft.to/lastmile_qr_scan", "android": "https://dc.lft.to/lastmile_qr_scan"}, "is_reserved": 0, "fusion_lon": 0.0, "fusion_lat": 0.0, "lon": -77.04867466666667, "name": "459c33d50d0255eac60cffca8b3e3681"}, {"bike_id": "d0047dc8aa29ea8c0d5d6a326f332c77", "type": "electric_scooter", "is_disabled": 0, "lat": 38.9104065, "rental_uris": {"ios": "https://dc.lft.to/lastmile_qr_scan", "android": "https://dc.lft.to/lastmile_qr_scan"}, "is_reserved": 0, "fusion_lon": 0.0, "fusion_lat": 0.0, "lon": -77.0380395, "name": "d0047dc8aa29ea8c0d5d6a326f332c77"}, {"bike_id": "d25ff05bc25439e84c3b16b7d0b115ef", "type": "electric_scooter", "is_disabled": 0, "lat": 38.890784333333336, "rental_uris": {"ios": "https://dc.lft.to/lastmile_qr_scan", "android": "https://dc.lft.to/lastmile_qr_scan"}, "is_reserved": 0, "fusion_lon": 0.0, "fusion_lat": 0.0, "lon": -77.01508383333334, "name": "d25ff05bc25439e84c3b16b7d0b115ef"}, {"bike_id": "46d24a7ee36bc82ae9ea9ac8c8a544fd", "type": "electric_scooter", "is_disabled": 0, "lat": 38.90268016666667, "rental_uris": {"ios": "https://dc.lft.to/lastmile_qr_scan", "android": "https://dc.lft.to/lastmile_qr_scan"}, "is_reserved": 0, "fusion_lon": 0.0, "fusion_lat": 0.0, "lon": -77.01817033333333, "name": "46d24a7ee36bc82ae9ea9ac8c8a544fd"}, {"bike_id": "eead6f0f5ebe8b6459043fe216335afa", "type": "electric_scooter", "is_disabled": 0, "lat": 38.90260283333333, "rental_uris": {"ios": "https://dc.lft.to/lastmile_qr_scan", "android": "https://dc.lft.to/lastmile_qr_scan"}, "is_reserved": 0, "fusion_lon": 0.0, "fusion_lat": 0.0, "lon": -77.034705, "name": "eead6f0f5ebe8b6459043fe216335afa"}, {"bike_id": "b03796ae4d5c362fd526c4fd34b0d00b", "type": "electric_bike", "is_disabled": 0, "lat": 38.893668166666664, "rental_uris": {"ios": "https://dc.lft.to/lastmile_qr_scan", "android": "https://dc.lft.to/lastmile_qr_scan"}, "is_reserved": 0, "fusion_lon": 0.0, "fusion_lat": 0.0, "lon": -77.18672316666667, "name": "b03796ae4d5c362fd526c4fd34b0d00b"}, {"bike_id": "6b73e73a9bdc5036040ed0cf2d9c20fa", "type": "electric_scooter", "is_disabled": 0, "lat": 38.914054666666665, "rental_uris": {"ios": "https://dc.lft.to/lastmile_qr_scan", "android": "https://dc.lft.to/lastmile_qr_scan"}, "is_reserved": 0, "fusion_lon": 0.0, "fusion_lat": 0.0, "lon": -77.03178983333333, "name": "6b73e73a9bdc5036040ed0cf2d9c20fa"}, {"bike_id": "9be872762a40c6ba966439cd0397783c", "type": "electric_scooter", "is_disabled": 0, "lat": 38.91051433333333, "rental_uris": {"ios": "https://dc.lft.to/lastmile_qr_scan", "android": "https://dc.lft.to/lastmile_qr_scan"}, "is_reserved": 0, "fusion_lon": 0.0, "fusion_lat": 0.0, "lon": -77.04333566666666, "name": "9be872762a40c6ba966439cd0397783c"}, {"bike_id": "2ce6fb0cfcc0328d137999d2ff0bb0e4", "type": "electric_scooter", "is_disabled": 0, "lat": 38.906956, "rental_uris": {"ios": "https://dc.lft.to/lastmile_qr_scan", "android": "https://dc.lft.to/lastmile_qr_scan"}, "is_reserved": 0, "fusion_lon": 0.0, "fusion_lat": 0.0, "lon": -77.0367665, "name": "2ce6fb0cfcc0328d137999d2ff0bb0e4"}, {"bike_id": "d3298b38879edda6ca002d86c77e2dce", "type": "electric_scooter", "is_disabled": 0, "lat": 38.9151355, "rental_uris": {"ios": "https://dc.lft.to/lastmile_qr_scan", "android": "https://dc.lft.to/lastmile_qr_scan"}, "is_reserved": 0, "fusion_lon": 0.0, "fusion_lat": 0.0, "lon": -77.01221866666667, "name": "d3298b38879edda6ca002d86c77e2dce"}, {"bike_id": "692b688550ff7b99b3dfaa40f28c07a1", "type": "electric_scooter", "is_disabled": 0, "lat": 38.92383516666666, "rental_uris": {"ios": "https://dc.lft.to/lastmile_qr_scan", "android": "https://dc.lft.to/lastmile_qr_scan"}, "is_reserved": 0, "fusion_lon": 0.0, "fusion_lat": 0.0, "lon": -77.04104383333333, "name": "692b688550ff7b99b3dfaa40f28c07a1"}, {"bike_id": "40b8e016594db805242212d22cc4792e", "type": "electric_bike", "is_disabled": 0, "lat": 38.897431833333336, "rental_uris": {"ios": "https://dc.lft.to/lastmile_qr_scan", "android": "https://dc.lft.to/lastmile_qr_scan"}, "is_reserved": 0, "fusion_lon": 0.0, "fusion_lat": 0.0, "lon": -76.92044733333333, "name": "40b8e016594db805242212d22cc4792e"}, {"bike_id": "970159ad81762dd617411ee78743694b", "type": "electric_scooter", "is_disabled": 0, "lat": 38.91927583333333, "rental_uris": {"ios": "https://dc.lft.to/lastmile_qr_scan", "android": "https://dc.lft.to/lastmile_qr_scan"}, "is_reserved": 0, "fusion_lon": 0.0, "fusion_lat": 0.0, "lon": -77.04634533333333, "name": "970159ad81762dd617411ee78743694b"}, {"bike_id": "4f79fd798108f5c85affe62fd3151ea2", "type": "electric_scooter", "is_disabled": 0, "lat": 38.96411783333333, "rental_uris": {"ios": "https://dc.lft.to/lastmile_qr_scan", "android": "https://dc.lft.to/lastmile_qr_scan"}, "is_reserved": 0, "fusion_lon": 0.0, "fusion_lat": 0.0, "lon": -77.02434483333333, "name": "4f79fd798108f5c85affe62fd3151ea2"}, {"bike_id": "f28f3009ce49c4b46aac856f7fb9c785", "type": "electric_scooter", "is_disabled": 0, "lat": 38.905949666666665, "rental_uris": {"ios": "https://dc.lft.to/lastmile_qr_scan", "android": "https://dc.lft.to/lastmile_qr_scan"}, "is_reserved": 0, "fusion_lon": 0.0, "fusion_lat": 0.0, "lon": -77.07013616666667, "name": "f28f3009ce49c4b46aac856f7fb9c785"}, {"bike_id": "3da818b6ed1151d8b49fa6b8ea57b005", "type": "electric_scooter", "is_disabled": 0, "lat": 38.905713666666664, "rental_uris": {"ios": "https://dc.lft.to/lastmile_qr_scan", "android": "https://dc.lft.to/lastmile_qr_scan"}, "is_reserved": 0, "fusion_lon": 0.0, "fusion_lat": 0.0, "lon": -77.03813916666667, "name": "3da818b6ed1151d8b49fa6b8ea57b005"}, {"bike_id": "d71a5a04c6ec66c4dcde1c912686437b", "type": "electric_scooter", "is_disabled": 0, "lat": 38.922119333333335, "rental_uris": {"ios": "https://dc.lft.to/lastmile_qr_scan", "android": "https://dc.lft.to/lastmile_qr_scan"}, "is_reserved": 0, "fusion_lon": 0.0, "fusion_lat": 0.0, "lon": -77.0330205, "name": "d71a5a04c6ec66c4dcde1c912686437b"}, {"bike_id": "8aaa6b1edeb3251327ada419784901da", "type": "electric_scooter", "is_disabled": 0, "lat": 38.91933433333333, "rental_uris": {"ios": "https://dc.lft.to/lastmile_qr_scan", "android": "https://dc.lft.to/lastmile_qr_scan"}, "is_reserved": 0, "fusion_lon": 0.0, "fusion_lat": 0.0, "lon": -77.03368283333333, "name": "8aaa6b1edeb3251327ada419784901da"}, {"bike_id": "00376b6fb8ebc6f3ecd61524d03568a5", "type": "electric_scooter", "is_disabled": 0, "lat": 38.91813, "rental_uris": {"ios": "https://dc.lft.to/lastmile_qr_scan", "android": "https://dc.lft.to/lastmile_qr_scan"}, "is_reserved": 0, "fusion_lon": 0.0, "fusion_lat": 0.0, "lon": -77.0494645, "name": "00376b6fb8ebc6f3ecd61524d03568a5"}, {"bike_id": "61a0f0a8a994cf3a70ededc4af959c25", "type": "electric_bike", "is_disabled": 0, "lat": 38.910106999999996, "rental_uris": {"ios": "https://dc.lft.to/lastmile_qr_scan", "android": "https://dc.lft.to/lastmile_qr_scan"}, "is_reserved": 0, "fusion_lon": 0.0, "fusion_lat": 0.0, "lon": -77.2280385, "name": "61a0f0a8a994cf3a70ededc4af959c25"}, {"bike_id": "5abb171bcec1de27182e18ee569288c5", "type": "electric_bike", "is_disabled": 0, "lat": 38.88060383333333, "rental_uris": {"ios": "https://dc.lft.to/lastmile_qr_scan", "android": "https://dc.lft.to/lastmile_qr_scan"}, "is_reserved": 0, "fusion_lon": 0.0, "fusion_lat": 0.0, "lon": -76.9624215, "name": "5abb171bcec1de27182e18ee569288c5"}, {"bike_id": "6a5cf91453611b78b8c9314f7cb29310", "type": "electric_scooter", "is_disabled": 0, "lat": 38.869867666666664, "rental_uris": {"ios": "https://dc.lft.to/lastmile_qr_scan", "android": "https://dc.lft.to/lastmile_qr_scan"}, "is_reserved": 0, "fusion_lon": 0.0, "fusion_lat": 0.0, "lon": -76.98176833333333, "name": "6a5cf91453611b78b8c9314f7cb29310"}, {"bike_id": "99c467d8a710900f098312abe95a8f0c", "type": "electric_scooter", "is_disabled": 0, "lat": 38.920020666666666, "rental_uris": {"ios": "https://dc.lft.to/lastmile_qr_scan", "android": "https://dc.lft.to/lastmile_qr_scan"}, "is_reserved": 0, "fusion_lon": 0.0, "fusion_lat": 0.0, "lon": -77.0419865, "name": "99c467d8a710900f098312abe95a8f0c"}, {"bike_id": "995e4e5ee1bdc42d182314d251794659", "type": "electric_scooter", "is_disabled": 0, "lat": 38.947047, "rental_uris": {"ios": "https://dc.lft.to/lastmile_qr_scan", "android": "https://dc.lft.to/lastmile_qr_scan"}, "is_reserved": 0, "fusion_lon": 0.0, "fusion_lat": 0.0, "lon": -77.019444, "name": "995e4e5ee1bdc42d182314d251794659"}, {"bike_id": "6b74117afeec0c0a1fb80ccd25b6c9b8", "type": "electric_scooter", "is_disabled": 0, "lat": 38.92829483333333, "rental_uris": {"ios": "https://dc.lft.to/lastmile_qr_scan", "android": "https://dc.lft.to/lastmile_qr_scan"}, "is_reserved": 0, "fusion_lon": 0.0, "fusion_lat": 0.0, "lon": -77.0060265, "name": "6b74117afeec0c0a1fb80ccd25b6c9b8"}, {"bike_id": "ca701ca13da489aaf18a67d9651f38ef", "type": "electric_scooter", "is_disabled": 0, "lat": 38.88238066666667, "rental_uris": {"ios": "https://dc.lft.to/lastmile_qr_scan", "android": "https://dc.lft.to/lastmile_qr_scan"}, "is_reserved": 0, "fusion_lon": 0.0, "fusion_lat": 0.0, "lon": -76.9266735, "name": "ca701ca13da489aaf18a67d9651f38ef"}, {"bike_id": "7358cd006ff98e2f5b9c354c10141b12", "type": "electric_scooter", "is_disabled": 0, "lat": 38.935372666666666, "rental_uris": {"ios": "https://dc.lft.to/lastmile_qr_scan", "android": "https://dc.lft.to/lastmile_qr_scan"}, "is_reserved": 0, "fusion_lon": 0.0, "fusion_lat": 0.0, "lon": -77.023562, "name": "7358cd006ff98e2f5b9c354c10141b12"}, {"bike_id": "09933a8ad1827ab7288ad328ae9e2ab8", "type": "electric_scooter", "is_disabled": 0, "lat": 38.905575666666664, "rental_uris": {"ios": "https://dc.lft.to/lastmile_qr_scan", "android": "https://dc.lft.to/lastmile_qr_scan"}, "is_reserved": 0, "fusion_lon": 0.0, "fusion_lat": 0.0, "lon": -77.0382105, "name": "09933a8ad1827ab7288ad328ae9e2ab8"}, {"bike_id": "57cbbfe664ee77e25caeccbeb0e1efef", "type": "electric_scooter", "is_disabled": 0, "lat": 38.90498216666667, "rental_uris": {"ios": "https://dc.lft.to/lastmile_qr_scan", "android": "https://dc.lft.to/lastmile_qr_scan"}, "is_reserved": 0, "fusion_lon": 0.0, "fusion_lat": 0.0, "lon": -77.04198916666667, "name": "57cbbfe664ee77e25caeccbeb0e1efef"}, {"bike_id": "4a006caf8b555162e4cb1a8adaacd33d", "type": "electric_scooter", "is_disabled": 0, "lat": 38.9100635, "rental_uris": {"ios": "https://dc.lft.to/lastmile_qr_scan", "android": "https://dc.lft.to/lastmile_qr_scan"}, "is_reserved": 0, "fusion_lon": 0.0, "fusion_lat": 0.0, "lon": -77.044278, "name": "4a006caf8b555162e4cb1a8adaacd33d"}, {"bike_id": "d4e30f3df4d165af564194931a30d218", "type": "electric_bike", "is_disabled": 0, "lat": 38.913561333333334, "rental_uris": {"ios": "https://dc.lft.to/lastmile_qr_scan", "android": "https://dc.lft.to/lastmile_qr_scan"}, "is_reserved": 0, "fusion_lon": 0.0, "fusion_lat": 0.0, "lon": -76.985452, "name": "d4e30f3df4d165af564194931a30d218"}, {"bike_id": "81b408fd5348bca317a8d5a670925966", "type": "electric_scooter", "is_disabled": 0, "lat": 38.914219833333334, "rental_uris": {"ios": "https://dc.lft.to/lastmile_qr_scan", "android": "https://dc.lft.to/lastmile_qr_scan"}, "is_reserved": 0, "fusion_lon": 0.0, "fusion_lat": 0.0, "lon": -77.04814916666666, "name": "81b408fd5348bca317a8d5a670925966"}, {"bike_id": "618e0f5f66be01ecb6afd6d7a5e4e330", "type": "electric_scooter", "is_disabled": 0, "lat": 38.92863883333333, "rental_uris": {"ios": "https://dc.lft.to/lastmile_qr_scan", "android": "https://dc.lft.to/lastmile_qr_scan"}, "is_reserved": 0, "fusion_lon": 0.0, "fusion_lat": 0.0, "lon": -77.01949733333333, "name": "618e0f5f66be01ecb6afd6d7a5e4e330"}, {"bike_id": "49b676d954fb43ee5e31c0c09d4fa658", "type": "electric_scooter", "is_disabled": 0, "lat": 38.947934833333335, "rental_uris": {"ios": "https://dc.lft.to/lastmile_qr_scan", "android": "https://dc.lft.to/lastmile_qr_scan"}, "is_reserved": 0, "fusion_lon": 0.0, "fusion_lat": 0.0, "lon": -77.02139483333333, "name": "49b676d954fb43ee5e31c0c09d4fa658"}, {"bike_id": "a56835d02b348197e73c8e58932fde27", "type": "electric_scooter", "is_disabled": 0, "lat": 38.913683666666664, "rental_uris": {"ios": "https://dc.lft.to/lastmile_qr_scan", "android": "https://dc.lft.to/lastmile_qr_scan"}, "is_reserved": 0, "fusion_lon": 0.0, "fusion_lat": 0.0, "lon": -77.07272766666667, "name": "a56835d02b348197e73c8e58932fde27"}, {"bike_id": "765bd6788df14fdb3be696d50cc0297f", "type": "electric_scooter", "is_disabled": 0, "lat": 38.9215545, "rental_uris": {"ios": "https://dc.lft.to/lastmile_qr_scan", "android": "https://dc.lft.to/lastmile_qr_scan"}, "is_reserved": 0, "fusion_lon": 0.0, "fusion_lat": 0.0, "lon": -77.035349, "name": "765bd6788df14fdb3be696d50cc0297f"}, {"bike_id": "f08a8d010734aefec0301010e6eba8ce", "type": "electric_scooter", "is_disabled": 0, "lat": 38.91055516666667, "rental_uris": {"ios": "https://dc.lft.to/lastmile_qr_scan", "android": "https://dc.lft.to/lastmile_qr_scan"}, "is_reserved": 0, "fusion_lon": 0.0, "fusion_lat": 0.0, "lon": -77.0416755, "name": "f08a8d010734aefec0301010e6eba8ce"}, {"bike_id": "6626c6b71c647bf496bf3b16c726c83c", "type": "electric_scooter", "is_disabled": 0, "lat": 38.871613333333336, "rental_uris": {"ios": "https://dc.lft.to/lastmile_qr_scan", "android": "https://dc.lft.to/lastmile_qr_scan"}, "is_reserved": 0, "fusion_lon": 0.0, "fusion_lat": 0.0, "lon": -77.01352783333333, "name": "6626c6b71c647bf496bf3b16c726c83c"}, {"bike_id": "fa6750ec54c907af89129f043c96b4cc", "type": "electric_scooter", "is_disabled": 0, "lat": 38.914038833333336, "rental_uris": {"ios": "https://dc.lft.to/lastmile_qr_scan", "android": "https://dc.lft.to/lastmile_qr_scan"}, "is_reserved": 0, "fusion_lon": 0.0, "fusion_lat": 0.0, "lon": -77.03175433333334, "name": "fa6750ec54c907af89129f043c96b4cc"}, {"bike_id": "3bc67f06e3c70a4e76a360594d383dee", "type": "electric_scooter", "is_disabled": 0, "lat": 38.88858483333333, "rental_uris": {"ios": "https://dc.lft.to/lastmile_qr_scan", "android": "https://dc.lft.to/lastmile_qr_scan"}, "is_reserved": 0, "fusion_lon": 0.0, "fusion_lat": 0.0, "lon": -77.00049933333334, "name": "3bc67f06e3c70a4e76a360594d383dee"}, {"bike_id": "40a6a489b7a741acc1a7434e685f3790", "type": "electric_scooter", "is_disabled": 0, "lat": 38.88934616666667, "rental_uris": {"ios": "https://dc.lft.to/lastmile_qr_scan", "android": "https://dc.lft.to/lastmile_qr_scan"}, "is_reserved": 0, "fusion_lon": 0.0, "fusion_lat": 0.0, "lon": -76.93576316666666, "name": "40a6a489b7a741acc1a7434e685f3790"}, {"bike_id": "1a6eae3e7caec3a6ed03485766fabe27", "type": "electric_scooter", "is_disabled": 0, "lat": 38.902055833333335, "rental_uris": {"ios": "https://dc.lft.to/lastmile_qr_scan", "android": "https://dc.lft.to/lastmile_qr_scan"}, "is_reserved": 0, "fusion_lon": 0.0, "fusion_lat": 0.0, "lon": -77.06120616666666, "name": "1a6eae3e7caec3a6ed03485766fabe27"}, {"bike_id": "d3d3696bcac75c064f5ed6a02946dada", "type": "electric_scooter", "is_disabled": 0, "lat": 38.905902, "rental_uris": {"ios": "https://dc.lft.to/lastmile_qr_scan", "android": "https://dc.lft.to/lastmile_qr_scan"}, "is_reserved": 0, "fusion_lon": 0.0, "fusion_lat": 0.0, "lon": -77.03444183333333, "name": "d3d3696bcac75c064f5ed6a02946dada"}, {"bike_id": "c079f39aab5d2838b2f31a924bd9f156", "type": "electric_scooter", "is_disabled": 0, "lat": 38.90374333333333, "rental_uris": {"ios": "https://dc.lft.to/lastmile_qr_scan", "android": "https://dc.lft.to/lastmile_qr_scan"}, "is_reserved": 0, "fusion_lon": 0.0, "fusion_lat": 0.0, "lon": -77.04316116666666, "name": "c079f39aab5d2838b2f31a924bd9f156"}, {"bike_id": "01b7fdbf96232df0c2e32877d5f689ba", "type": "electric_scooter", "is_disabled": 0, "lat": 38.9329675, "rental_uris": {"ios": "https://dc.lft.to/lastmile_qr_scan", "android": "https://dc.lft.to/lastmile_qr_scan"}, "is_reserved": 0, "fusion_lon": 0.0, "fusion_lat": 0.0, "lon": -77.0353925, "name": "01b7fdbf96232df0c2e32877d5f689ba"}, {"bike_id": "444c95f7a3ae8beeaa0dc0b12501dd94", "type": "electric_bike", "is_disabled": 0, "lat": 39.0430925, "rental_uris": {"ios": "https://dc.lft.to/lastmile_qr_scan", "android": "https://dc.lft.to/lastmile_qr_scan"}, "is_reserved": 0, "fusion_lon": 0.0, "fusion_lat": 0.0, "lon": -77.0516165, "name": "444c95f7a3ae8beeaa0dc0b12501dd94"}, {"bike_id": "42d25984d92f53e129a0b1eb2fc9782e", "type": "electric_scooter", "is_disabled": 0, "lat": 38.89360816666667, "rental_uris": {"ios": "https://dc.lft.to/lastmile_qr_scan", "android": "https://dc.lft.to/lastmile_qr_scan"}, "is_reserved": 0, "fusion_lon": 0.0, "fusion_lat": 0.0, "lon": -76.94936833333334, "name": "42d25984d92f53e129a0b1eb2fc9782e"}, {"bike_id": "a671b43689f638fcf200afe1130dc23d", "type": "electric_scooter", "is_disabled": 0, "lat": 38.9226345, "rental_uris": {"ios": "https://dc.lft.to/lastmile_qr_scan", "android": "https://dc.lft.to/lastmile_qr_scan"}, "is_reserved": 0, "fusion_lon": 0.0, "fusion_lat": 0.0, "lon": -77.04236666666667, "name": "a671b43689f638fcf200afe1130dc23d"}, {"bike_id": "3f6f5b8642d478949f97ec3a947decdb", "type": "electric_scooter", "is_disabled": 0, "lat": 38.92797066666667, "rental_uris": {"ios": "https://dc.lft.to/lastmile_qr_scan", "android": "https://dc.lft.to/lastmile_qr_scan"}, "is_reserved": 0, "fusion_lon": 0.0, "fusion_lat": 0.0, "lon": -77.0321085, "name": "3f6f5b8642d478949f97ec3a947decdb"}, {"bike_id": "9410e3935d539a3ab67754b40f170c3e", "type": "electric_scooter", "is_disabled": 0, "lat": 38.92004133333333, "rental_uris": {"ios": "https://dc.lft.to/lastmile_qr_scan", "android": "https://dc.lft.to/lastmile_qr_scan"}, "is_reserved": 0, "fusion_lon": 0.0, "fusion_lat": 0.0, "lon": -77.0418105, "name": "9410e3935d539a3ab67754b40f170c3e"}, {"bike_id": "ffbd5f265b47af9c9d032e24cb1d4798", "type": "electric_scooter", "is_disabled": 0, "lat": 38.90362616666667, "rental_uris": {"ios": "https://dc.lft.to/lastmile_qr_scan", "android": "https://dc.lft.to/lastmile_qr_scan"}, "is_reserved": 0, "fusion_lon": 0.0, "fusion_lat": 0.0, "lon": -76.99950183333333, "name": "ffbd5f265b47af9c9d032e24cb1d4798"}, {"bike_id": "d935eec2441bc6a6a1905645d9503f9c", "type": "electric_scooter", "is_disabled": 0, "lat": 38.9181355, "rental_uris": {"ios": "https://dc.lft.to/lastmile_qr_scan", "android": "https://dc.lft.to/lastmile_qr_scan"}, "is_reserved": 0, "fusion_lon": 0.0, "fusion_lat": 0.0, "lon": -77.02478416666666, "name": "d935eec2441bc6a6a1905645d9503f9c"}, {"bike_id": "d7a0f7bf17f7c6971761f246336a9ff2", "type": "electric_scooter", "is_disabled": 0, "lat": 38.915764833333334, "rental_uris": {"ios": "https://dc.lft.to/lastmile_qr_scan", "android": "https://dc.lft.to/lastmile_qr_scan"}, "is_reserved": 0, "fusion_lon": 0.0, "fusion_lat": 0.0, "lon": -77.05011083333333, "name": "d7a0f7bf17f7c6971761f246336a9ff2"}, {"bike_id": "ed6abfef9de0ac47f0e908d53e94bfc2", "type": "electric_bike", "is_disabled": 0, "lat": 38.82378466666667, "rental_uris": {"ios": "https://dc.lft.to/lastmile_qr_scan", "android": "https://dc.lft.to/lastmile_qr_scan"}, "is_reserved": 0, "fusion_lon": 0.0, "fusion_lat": 0.0, "lon": -77.002281, "name": "ed6abfef9de0ac47f0e908d53e94bfc2"}, {"bike_id": "1b1bfb04f4e32fe843017a8cb4f7c04c", "type": "electric_scooter", "is_disabled": 0, "lat": 38.9354775, "rental_uris": {"ios": "https://dc.lft.to/lastmile_qr_scan", "android": "https://dc.lft.to/lastmile_qr_scan"}, "is_reserved": 0, "fusion_lon": 0.0, "fusion_lat": 0.0, "lon": -77.058589, "name": "1b1bfb04f4e32fe843017a8cb4f7c04c"}, {"bike_id": "4e9d8f8731983bf5c42682a0e471e839", "type": "electric_bike", "is_disabled": 0, "lat": 38.96959783333333, "rental_uris": {"ios": "https://dc.lft.to/lastmile_qr_scan", "android": "https://dc.lft.to/lastmile_qr_scan"}, "is_reserved": 0, "fusion_lon": 0.0, "fusion_lat": 0.0, "lon": -76.95748933333333, "name": "4e9d8f8731983bf5c42682a0e471e839"}, {"bike_id": "3f4eddbf885119df5f7f72687acc2922", "type": "electric_scooter", "is_disabled": 0, "lat": 38.882923, "rental_uris": {"ios": "https://dc.lft.to/lastmile_qr_scan", "android": "https://dc.lft.to/lastmile_qr_scan"}, "is_reserved": 0, "fusion_lon": 0.0, "fusion_lat": 0.0, "lon": -76.9485635, "name": "3f4eddbf885119df5f7f72687acc2922"}, {"bike_id": "6d3a1c59b216e20d1711334eed54290d", "type": "electric_scooter", "is_disabled": 0, "lat": 38.924794, "rental_uris": {"ios": "https://dc.lft.to/lastmile_qr_scan", "android": "https://dc.lft.to/lastmile_qr_scan"}, "is_reserved": 0, "fusion_lon": 0.0, "fusion_lat": 0.0, "lon": -77.02840066666667, "name": "6d3a1c59b216e20d1711334eed54290d"}, {"bike_id": "2ae95c4b4761bfb3fc6e411a28c4280e", "type": "electric_scooter", "is_disabled": 0, "lat": 38.923454166666666, "rental_uris": {"ios": "https://dc.lft.to/lastmile_qr_scan", "android": "https://dc.lft.to/lastmile_qr_scan"}, "is_reserved": 0, "fusion_lon": 0.0, "fusion_lat": 0.0, "lon": -77.05620166666667, "name": "2ae95c4b4761bfb3fc6e411a28c4280e"}, {"bike_id": "4d0c604c6b089423e3b24e06f7dceb41", "type": "electric_scooter", "is_disabled": 0, "lat": 38.900302833333335, "rental_uris": {"ios": "https://dc.lft.to/lastmile_qr_scan", "android": "https://dc.lft.to/lastmile_qr_scan"}, "is_reserved": 0, "fusion_lon": 0.0, "fusion_lat": 0.0, "lon": -76.99903, "name": "4d0c604c6b089423e3b24e06f7dceb41"}, {"bike_id": "1d4182908c17eaaa2969b32a45e53d44", "type": "electric_scooter", "is_disabled": 0, "lat": 38.92471466666667, "rental_uris": {"ios": "https://dc.lft.to/lastmile_qr_scan", "android": "https://dc.lft.to/lastmile_qr_scan"}, "is_reserved": 0, "fusion_lon": 0.0, "fusion_lat": 0.0, "lon": -77.02244616666667, "name": "1d4182908c17eaaa2969b32a45e53d44"}, {"bike_id": "932e2c582e94747f9ebe500c9f01e874", "type": "electric_scooter", "is_disabled": 0, "lat": 38.9155995, "rental_uris": {"ios": "https://dc.lft.to/lastmile_qr_scan", "android": "https://dc.lft.to/lastmile_qr_scan"}, "is_reserved": 0, "fusion_lon": 0.0, "fusion_lat": 0.0, "lon": -77.044996, "name": "932e2c582e94747f9ebe500c9f01e874"}, {"bike_id": "6bd7c9adc4c93e1ce76a4b8546a8021e", "type": "electric_scooter", "is_disabled": 0, "lat": 38.86478733333333, "rental_uris": {"ios": "https://dc.lft.to/lastmile_qr_scan", "android": "https://dc.lft.to/lastmile_qr_scan"}, "is_reserved": 0, "fusion_lon": 0.0, "fusion_lat": 0.0, "lon": -76.97752183333333, "name": "6bd7c9adc4c93e1ce76a4b8546a8021e"}, {"bike_id": "8700423d64bf5da06ac73d1273e9d376", "type": "electric_scooter", "is_disabled": 0, "lat": 38.927444, "rental_uris": {"ios": "https://dc.lft.to/lastmile_qr_scan", "android": "https://dc.lft.to/lastmile_qr_scan"}, "is_reserved": 0, "fusion_lon": 0.0, "fusion_lat": 0.0, "lon": -77.006023, "name": "8700423d64bf5da06ac73d1273e9d376"}, {"bike_id": "db50e9d505279dedb9b2ccb76771ecde", "type": "electric_scooter", "is_disabled": 0, "lat": 38.900571166666666, "rental_uris": {"ios": "https://dc.lft.to/lastmile_qr_scan", "android": "https://dc.lft.to/lastmile_qr_scan"}, "is_reserved": 0, "fusion_lon": 0.0, "fusion_lat": 0.0, "lon": -77.03504733333334, "name": "db50e9d505279dedb9b2ccb76771ecde"}, {"bike_id": "57b33629397c3a5c42b9402bfb9e27b6", "type": "electric_scooter", "is_disabled": 0, "lat": 38.92594183333333, "rental_uris": {"ios": "https://dc.lft.to/lastmile_qr_scan", "android": "https://dc.lft.to/lastmile_qr_scan"}, "is_reserved": 0, "fusion_lon": 0.0, "fusion_lat": 0.0, "lon": -77.0374815, "name": "57b33629397c3a5c42b9402bfb9e27b6"}, {"bike_id": "4f62863641e815da0d6c4cfbc6576959", "type": "electric_scooter", "is_disabled": 0, "lat": 38.906496, "rental_uris": {"ios": "https://dc.lft.to/lastmile_qr_scan", "android": "https://dc.lft.to/lastmile_qr_scan"}, "is_reserved": 0, "fusion_lon": 0.0, "fusion_lat": 0.0, "lon": -77.01459066666666, "name": "4f62863641e815da0d6c4cfbc6576959"}, {"bike_id": "4ef348ff76eeb6d1a30160e76dcf1c8e", "type": "electric_scooter", "is_disabled": 0, "lat": 38.906796666666665, "rental_uris": {"ios": "https://dc.lft.to/lastmile_qr_scan", "android": "https://dc.lft.to/lastmile_qr_scan"}, "is_reserved": 0, "fusion_lon": 0.0, "fusion_lat": 0.0, "lon": -77.07166816666667, "name": "4ef348ff76eeb6d1a30160e76dcf1c8e"}, {"bike_id": "898cd8bca39d5ba98488429b2bf9167f", "type": "electric_scooter", "is_disabled": 0, "lat": 38.907357, "rental_uris": {"ios": "https://dc.lft.to/lastmile_qr_scan", "android": "https://dc.lft.to/lastmile_qr_scan"}, "is_reserved": 0, "fusion_lon": 0.0, "fusion_lat": 0.0, "lon": -77.02951016666667, "name": "898cd8bca39d5ba98488429b2bf9167f"}, {"bike_id": "28ec4d4dbf0b8202d0ec9cbc095a9251", "type": "electric_scooter", "is_disabled": 0, "lat": 38.965656, "rental_uris": {"ios": "https://dc.lft.to/lastmile_qr_scan", "android": "https://dc.lft.to/lastmile_qr_scan"}, "is_reserved": 0, "fusion_lon": 0.0, "fusion_lat": 0.0, "lon": -77.027737, "name": "28ec4d4dbf0b8202d0ec9cbc095a9251"}, {"bike_id": "89a34f5509769c6e43a29b873e071ca2", "type": "electric_scooter", "is_disabled": 0, "lat": 38.87649016666667, "rental_uris": {"ios": "https://dc.lft.to/lastmile_qr_scan", "android": "https://dc.lft.to/lastmile_qr_scan"}, "is_reserved": 0, "fusion_lon": 0.0, "fusion_lat": 0.0, "lon": -76.96508666666666, "name": "89a34f5509769c6e43a29b873e071ca2"}, {"bike_id": "910acdc63834b70764aaac30105454a0", "type": "electric_scooter", "is_disabled": 0, "lat": 38.90337, "rental_uris": {"ios": "https://dc.lft.to/lastmile_qr_scan", "android": "https://dc.lft.to/lastmile_qr_scan"}, "is_reserved": 0, "fusion_lon": 0.0, "fusion_lat": 0.0, "lon": -77.06931583333333, "name": "910acdc63834b70764aaac30105454a0"}, {"bike_id": "bc32eb15ad9652632502e0b710b92812", "type": "electric_scooter", "is_disabled": 0, "lat": 38.86250533333333, "rental_uris": {"ios": "https://dc.lft.to/lastmile_qr_scan", "android": "https://dc.lft.to/lastmile_qr_scan"}, "is_reserved": 0, "fusion_lon": 0.0, "fusion_lat": 0.0, "lon": -76.9950275, "name": "bc32eb15ad9652632502e0b710b92812"}, {"bike_id": "c6312cce6d269a3b7b4abe82a1e9db25", "type": "electric_scooter", "is_disabled": 0, "lat": 38.984343833333334, "rental_uris": {"ios": "https://dc.lft.to/lastmile_qr_scan", "android": "https://dc.lft.to/lastmile_qr_scan"}, "is_reserved": 0, "fusion_lon": 0.0, "fusion_lat": 0.0, "lon": -77.026737, "name": "c6312cce6d269a3b7b4abe82a1e9db25"}, {"bike_id": "ffe0b031caa7a415a0ad258a929b843d", "type": "electric_scooter", "is_disabled": 0, "lat": 38.8825995, "rental_uris": {"ios": "https://dc.lft.to/lastmile_qr_scan", "android": "https://dc.lft.to/lastmile_qr_scan"}, "is_reserved": 0, "fusion_lon": 0.0, "fusion_lat": 0.0, "lon": -76.99512683333333, "name": "ffe0b031caa7a415a0ad258a929b843d"}, {"bike_id": "c8b31385204999e5f3b38b5d576411b1", "type": "electric_scooter", "is_disabled": 0, "lat": 38.8666005, "rental_uris": {"ios": "https://dc.lft.to/lastmile_qr_scan", "android": "https://dc.lft.to/lastmile_qr_scan"}, "is_reserved": 0, "fusion_lon": 0.0, "fusion_lat": 0.0, "lon": -76.988827, "name": "c8b31385204999e5f3b38b5d576411b1"}, {"bike_id": "6b97049af54d94a301ae5e84e15ab93e", "type": "electric_scooter", "is_disabled": 0, "lat": 38.907425333333336, "rental_uris": {"ios": "https://dc.lft.to/lastmile_qr_scan", "android": "https://dc.lft.to/lastmile_qr_scan"}, "is_reserved": 0, "fusion_lon": 0.0, "fusion_lat": 0.0, "lon": -77.00095033333334, "name": "6b97049af54d94a301ae5e84e15ab93e"}, {"bike_id": "7655d017025882cae2e9267e8644f4d2", "type": "electric_scooter", "is_disabled": 0, "lat": 38.8932305, "rental_uris": {"ios": "https://dc.lft.to/lastmile_qr_scan", "android": "https://dc.lft.to/lastmile_qr_scan"}, "is_reserved": 0, "fusion_lon": 0.0, "fusion_lat": 0.0, "lon": -77.04878416666666, "name": "7655d017025882cae2e9267e8644f4d2"}, {"bike_id": "f775d120e45ed1d8354d4886647e4b99", "type": "electric_scooter", "is_disabled": 0, "lat": 38.951532, "rental_uris": {"ios": "https://dc.lft.to/lastmile_qr_scan", "android": "https://dc.lft.to/lastmile_qr_scan"}, "is_reserved": 0, "fusion_lon": 0.0, "fusion_lat": 0.0, "lon": -77.0186805, "name": "f775d120e45ed1d8354d4886647e4b99"}, {"bike_id": "d5a3c1224d4c29da315e58e953eb03f0", "type": "electric_scooter", "is_disabled": 0, "lat": 38.895377, "rental_uris": {"ios": "https://dc.lft.to/lastmile_qr_scan", "android": "https://dc.lft.to/lastmile_qr_scan"}, "is_reserved": 0, "fusion_lon": 0.0, "fusion_lat": 0.0, "lon": -76.94893866666666, "name": "d5a3c1224d4c29da315e58e953eb03f0"}, {"bike_id": "c3a79b70c7015e1e5e464b6124be52f6", "type": "electric_scooter", "is_disabled": 0, "lat": 38.89362216666667, "rental_uris": {"ios": "https://dc.lft.to/lastmile_qr_scan", "android": "https://dc.lft.to/lastmile_qr_scan"}, "is_reserved": 0, "fusion_lon": 0.0, "fusion_lat": 0.0, "lon": -76.99788633333333, "name": "c3a79b70c7015e1e5e464b6124be52f6"}, {"bike_id": "a10d97720f9d4d2f1ddb9ca1642c408d", "type": "electric_scooter", "is_disabled": 0, "lat": 38.89901733333333, "rental_uris": {"ios": "https://dc.lft.to/lastmile_qr_scan", "android": "https://dc.lft.to/lastmile_qr_scan"}, "is_reserved": 0, "fusion_lon": 0.0, "fusion_lat": 0.0, "lon": -77.01503866666667, "name": "a10d97720f9d4d2f1ddb9ca1642c408d"}, {"bike_id": "d6230a561941b6bff5dbaf12ca9567fd", "type": "electric_scooter", "is_disabled": 0, "lat": 38.8901275, "rental_uris": {"ios": "https://dc.lft.to/lastmile_qr_scan", "android": "https://dc.lft.to/lastmile_qr_scan"}, "is_reserved": 0, "fusion_lon": 0.0, "fusion_lat": 0.0, "lon": -76.93750616666667, "name": "d6230a561941b6bff5dbaf12ca9567fd"}, {"bike_id": "c2b45eb63e6c490510d12c0f82d73dc4", "type": "electric_scooter", "is_disabled": 0, "lat": 38.88044083333333, "rental_uris": {"ios": "https://dc.lft.to/lastmile_qr_scan", "android": "https://dc.lft.to/lastmile_qr_scan"}, "is_reserved": 0, "fusion_lon": 0.0, "fusion_lat": 0.0, "lon": -77.02494233333333, "name": "c2b45eb63e6c490510d12c0f82d73dc4"}, {"bike_id": "68ab2d829d0c0a6477153586b0642cf8", "type": "electric_scooter", "is_disabled": 0, "lat": 38.88677933333334, "rental_uris": {"ios": "https://dc.lft.to/lastmile_qr_scan", "android": "https://dc.lft.to/lastmile_qr_scan"}, "is_reserved": 0, "fusion_lon": 0.0, "fusion_lat": 0.0, "lon": -76.99143016666666, "name": "68ab2d829d0c0a6477153586b0642cf8"}, {"bike_id": "ce4b16eb025b28fbc250b6707fd2c2b1", "type": "electric_bike", "is_disabled": 0, "lat": 38.796063333333336, "rental_uris": {"ios": "https://dc.lft.to/lastmile_qr_scan", "android": "https://dc.lft.to/lastmile_qr_scan"}, "is_reserved": 0, "fusion_lon": 0.0, "fusion_lat": 0.0, "lon": -76.99742183333333, "name": "ce4b16eb025b28fbc250b6707fd2c2b1"}, {"bike_id": "65579a57d79d22c845628481aaa90252", "type": "electric_scooter", "is_disabled": 0, "lat": 38.908521, "rental_uris": {"ios": "https://dc.lft.to/lastmile_qr_scan", "android": "https://dc.lft.to/lastmile_qr_scan"}, "is_reserved": 0, "fusion_lon": 0.0, "fusion_lat": 0.0, "lon": -77.00174333333334, "name": "65579a57d79d22c845628481aaa90252"}, {"bike_id": "4c64ee13ecb6325fb4da0f37e0fcd220", "type": "electric_scooter", "is_disabled": 0, "lat": 38.865494166666664, "rental_uris": {"ios": "https://dc.lft.to/lastmile_qr_scan", "android": "https://dc.lft.to/lastmile_qr_scan"}, "is_reserved": 0, "fusion_lon": 0.0, "fusion_lat": 0.0, "lon": -76.970427, "name": "4c64ee13ecb6325fb4da0f37e0fcd220"}, {"bike_id": "730da3ec0d5d7d546bc563016326e8fe", "type": "electric_scooter", "is_disabled": 0, "lat": 38.89235016666667, "rental_uris": {"ios": "https://dc.lft.to/lastmile_qr_scan", "android": "https://dc.lft.to/lastmile_qr_scan"}, "is_reserved": 0, "fusion_lon": 0.0, "fusion_lat": 0.0, "lon": -77.02919833333333, "name": "730da3ec0d5d7d546bc563016326e8fe"}, {"bike_id": "d045c19f3dc9260a283fd3c557ae86b9", "type": "electric_scooter", "is_disabled": 0, "lat": 38.905281333333335, "rental_uris": {"ios": "https://dc.lft.to/lastmile_qr_scan", "android": "https://dc.lft.to/lastmile_qr_scan"}, "is_reserved": 0, "fusion_lon": 0.0, "fusion_lat": 0.0, "lon": -77.05691133333333, "name": "d045c19f3dc9260a283fd3c557ae86b9"}, {"bike_id": "bfee8a5ccf3f4ac21a3f68a1b0b5b1dc", "type": "electric_scooter", "is_disabled": 0, "lat": 38.918735, "rental_uris": {"ios": "https://dc.lft.to/lastmile_qr_scan", "android": "https://dc.lft.to/lastmile_qr_scan"}, "is_reserved": 0, "fusion_lon": 0.0, "fusion_lat": 0.0, "lon": -77.044547, "name": "bfee8a5ccf3f4ac21a3f68a1b0b5b1dc"}, {"bike_id": "8bc7969ebce0e40aafb183fe24344031", "type": "electric_scooter", "is_disabled": 0, "lat": 38.9012265, "rental_uris": {"ios": "https://dc.lft.to/lastmile_qr_scan", "android": "https://dc.lft.to/lastmile_qr_scan"}, "is_reserved": 0, "fusion_lon": 0.0, "fusion_lat": 0.0, "lon": -77.024848, "name": "8bc7969ebce0e40aafb183fe24344031"}, {"bike_id": "43c338bef5ee232c91d38666f6db4087", "type": "electric_scooter", "is_disabled": 0, "lat": 38.89841583333333, "rental_uris": {"ios": "https://dc.lft.to/lastmile_qr_scan", "android": "https://dc.lft.to/lastmile_qr_scan"}, "is_reserved": 0, "fusion_lon": 0.0, "fusion_lat": 0.0, "lon": -76.94631433333333, "name": "43c338bef5ee232c91d38666f6db4087"}, {"bike_id": "8657b9a31c22e7b436984f9d604e6040", "type": "electric_scooter", "is_disabled": 0, "lat": 38.92455366666667, "rental_uris": {"ios": "https://dc.lft.to/lastmile_qr_scan", "android": "https://dc.lft.to/lastmile_qr_scan"}, "is_reserved": 0, "fusion_lon": 0.0, "fusion_lat": 0.0, "lon": -77.033414, "name": "8657b9a31c22e7b436984f9d604e6040"}, {"bike_id": "e8227ef3d7db0d1a9d82aa17a700957d", "type": "electric_scooter", "is_disabled": 0, "lat": 38.9265965, "rental_uris": {"ios": "https://dc.lft.to/lastmile_qr_scan", "android": "https://dc.lft.to/lastmile_qr_scan"}, "is_reserved": 0, "fusion_lon": 0.0, "fusion_lat": 0.0, "lon": -77.03728333333333, "name": "e8227ef3d7db0d1a9d82aa17a700957d"}, {"bike_id": "573e4e35873cdf01e26f533da2736763", "type": "electric_scooter", "is_disabled": 0, "lat": 38.915544833333335, "rental_uris": {"ios": "https://dc.lft.to/lastmile_qr_scan", "android": "https://dc.lft.to/lastmile_qr_scan"}, "is_reserved": 0, "fusion_lon": 0.0, "fusion_lat": 0.0, "lon": -77.04514, "name": "573e4e35873cdf01e26f533da2736763"}, {"bike_id": "660eb731cdb2bb589b960b3924fd5bd8", "type": "electric_scooter", "is_disabled": 0, "lat": 38.90506333333333, "rental_uris": {"ios": "https://dc.lft.to/lastmile_qr_scan", "android": "https://dc.lft.to/lastmile_qr_scan"}, "is_reserved": 0, "fusion_lon": 0.0, "fusion_lat": 0.0, "lon": -77.04160766666666, "name": "660eb731cdb2bb589b960b3924fd5bd8"}, {"bike_id": "5813a042143a73b62f973e3b17ac0cc2", "type": "electric_scooter", "is_disabled": 0, "lat": 38.9141285, "rental_uris": {"ios": "https://dc.lft.to/lastmile_qr_scan", "android": "https://dc.lft.to/lastmile_qr_scan"}, "is_reserved": 0, "fusion_lon": 0.0, "fusion_lat": 0.0, "lon": -77.039069, "name": "5813a042143a73b62f973e3b17ac0cc2"}, {"bike_id": "90230215d7c79d55d5fa4680e8de767b", "type": "electric_scooter", "is_disabled": 0, "lat": 38.8663125, "rental_uris": {"ios": "https://dc.lft.to/lastmile_qr_scan", "android": "https://dc.lft.to/lastmile_qr_scan"}, "is_reserved": 0, "fusion_lon": 0.0, "fusion_lat": 0.0, "lon": -76.98725083333333, "name": "90230215d7c79d55d5fa4680e8de767b"}, {"bike_id": "e7aeba0567e8775f00c72ae72afe0dcf", "type": "electric_scooter", "is_disabled": 0, "lat": 38.933614666666664, "rental_uris": {"ios": "https://dc.lft.to/lastmile_qr_scan", "android": "https://dc.lft.to/lastmile_qr_scan"}, "is_reserved": 0, "fusion_lon": 0.0, "fusion_lat": 0.0, "lon": -77.08858183333334, "name": "e7aeba0567e8775f00c72ae72afe0dcf"}, {"bike_id": "25b5ec2b5295867c4f2ce7b1e556934d", "type": "electric_scooter", "is_disabled": 0, "lat": 38.905639666666666, "rental_uris": {"ios": "https://dc.lft.to/lastmile_qr_scan", "android": "https://dc.lft.to/lastmile_qr_scan"}, "is_reserved": 0, "fusion_lon": 0.0, "fusion_lat": 0.0, "lon": -77.0164025, "name": "25b5ec2b5295867c4f2ce7b1e556934d"}, {"bike_id": "46601fcd7f318f34a2f017937cc0fe3b", "type": "electric_scooter", "is_disabled": 0, "lat": 38.9340185, "rental_uris": {"ios": "https://dc.lft.to/lastmile_qr_scan", "android": "https://dc.lft.to/lastmile_qr_scan"}, "is_reserved": 0, "fusion_lon": 0.0, "fusion_lat": 0.0, "lon": -77.0387725, "name": "46601fcd7f318f34a2f017937cc0fe3b"}, {"bike_id": "5f7b65043f3d23f144c5b060a264ae41", "type": "electric_scooter", "is_disabled": 0, "lat": 38.92086583333333, "rental_uris": {"ios": "https://dc.lft.to/lastmile_qr_scan", "android": "https://dc.lft.to/lastmile_qr_scan"}, "is_reserved": 0, "fusion_lon": 0.0, "fusion_lat": 0.0, "lon": -77.0236765, "name": "5f7b65043f3d23f144c5b060a264ae41"}, {"bike_id": "2afa62e1f8a7549f329509ff2b6696ea", "type": "electric_scooter", "is_disabled": 0, "lat": 38.91755883333333, "rental_uris": {"ios": "https://dc.lft.to/lastmile_qr_scan", "android": "https://dc.lft.to/lastmile_qr_scan"}, "is_reserved": 0, "fusion_lon": 0.0, "fusion_lat": 0.0, "lon": -77.0455255, "name": "2afa62e1f8a7549f329509ff2b6696ea"}, {"bike_id": "09a2211cd5ded56cd07d5cc931cacc73", "type": "electric_scooter", "is_disabled": 0, "lat": 38.91418766666666, "rental_uris": {"ios": "https://dc.lft.to/lastmile_qr_scan", "android": "https://dc.lft.to/lastmile_qr_scan"}, "is_reserved": 0, "fusion_lon": 0.0, "fusion_lat": 0.0, "lon": -77.01371783333333, "name": "09a2211cd5ded56cd07d5cc931cacc73"}, {"bike_id": "dda648e998d2be11136283584a20d5fe", "type": "electric_scooter", "is_disabled": 0, "lat": 38.917772666666664, "rental_uris": {"ios": "https://dc.lft.to/lastmile_qr_scan", "android": "https://dc.lft.to/lastmile_qr_scan"}, "is_reserved": 0, "fusion_lon": 0.0, "fusion_lat": 0.0, "lon": -77.02312066666667, "name": "dda648e998d2be11136283584a20d5fe"}, {"bike_id": "57b456ed20db11ab0930f748e43a2abb", "type": "electric_scooter", "is_disabled": 0, "lat": 38.917977, "rental_uris": {"ios": "https://dc.lft.to/lastmile_qr_scan", "android": "https://dc.lft.to/lastmile_qr_scan"}, "is_reserved": 0, "fusion_lon": 0.0, "fusion_lat": 0.0, "lon": -77.0400895, "name": "57b456ed20db11ab0930f748e43a2abb"}, {"bike_id": "60b0b3e31d39a7f4443f28408d7bfa10", "type": "electric_scooter", "is_disabled": 0, "lat": 38.86691183333333, "rental_uris": {"ios": "https://dc.lft.to/lastmile_qr_scan", "android": "https://dc.lft.to/lastmile_qr_scan"}, "is_reserved": 0, "fusion_lon": 0.0, "fusion_lat": 0.0, "lon": -76.98572216666666, "name": "60b0b3e31d39a7f4443f28408d7bfa10"}, {"bike_id": "890084e19c8fc066d2e5da01cba59477", "type": "electric_scooter", "is_disabled": 0, "lat": 38.9083765, "rental_uris": {"ios": "https://dc.lft.to/lastmile_qr_scan", "android": "https://dc.lft.to/lastmile_qr_scan"}, "is_reserved": 0, "fusion_lon": 0.0, "fusion_lat": 0.0, "lon": -77.01283066666667, "name": "890084e19c8fc066d2e5da01cba59477"}, {"bike_id": "2bce69458a03aaa3aed0abf7e76a44eb", "type": "electric_scooter", "is_disabled": 0, "lat": 38.866888833333334, "rental_uris": {"ios": "https://dc.lft.to/lastmile_qr_scan", "android": "https://dc.lft.to/lastmile_qr_scan"}, "is_reserved": 0, "fusion_lon": 0.0, "fusion_lat": 0.0, "lon": -76.98577716666667, "name": "2bce69458a03aaa3aed0abf7e76a44eb"}, {"bike_id": "5c4d798e2ed35cb9aa7724b95c52cf0f", "type": "electric_scooter", "is_disabled": 0, "lat": 38.918161166666664, "rental_uris": {"ios": "https://dc.lft.to/lastmile_qr_scan", "android": "https://dc.lft.to/lastmile_qr_scan"}, "is_reserved": 0, "fusion_lon": 0.0, "fusion_lat": 0.0, "lon": -77.02481, "name": "5c4d798e2ed35cb9aa7724b95c52cf0f"}, {"bike_id": "304bdb63bf5211f4774732df93f217fd", "type": "electric_scooter", "is_disabled": 0, "lat": 38.922720166666664, "rental_uris": {"ios": "https://dc.lft.to/lastmile_qr_scan", "android": "https://dc.lft.to/lastmile_qr_scan"}, "is_reserved": 0, "fusion_lon": 0.0, "fusion_lat": 0.0, "lon": -76.99440983333334, "name": "304bdb63bf5211f4774732df93f217fd"}, {"bike_id": "6166da9879bfa565e590972e197b9642", "type": "electric_scooter", "is_disabled": 0, "lat": 38.92839133333333, "rental_uris": {"ios": "https://dc.lft.to/lastmile_qr_scan", "android": "https://dc.lft.to/lastmile_qr_scan"}, "is_reserved": 0, "fusion_lon": 0.0, "fusion_lat": 0.0, "lon": -77.02757483333333, "name": "6166da9879bfa565e590972e197b9642"}, {"bike_id": "8e0dd81d9fb62f18457e76e7efa848c9", "type": "electric_bike", "is_disabled": 0, "lat": 38.9489645, "rental_uris": {"ios": "https://dc.lft.to/lastmile_qr_scan", "android": "https://dc.lft.to/lastmile_qr_scan"}, "is_reserved": 0, "fusion_lon": 0.0, "fusion_lat": 0.0, "lon": -76.96381066666666, "name": "8e0dd81d9fb62f18457e76e7efa848c9"}, {"bike_id": "82e8b80819d78f4adf42f1bab459c2a2", "type": "electric_bike", "is_disabled": 0, "lat": 38.83609666666667, "rental_uris": {"ios": "https://dc.lft.to/lastmile_qr_scan", "android": "https://dc.lft.to/lastmile_qr_scan"}, "is_reserved": 0, "fusion_lon": 0.0, "fusion_lat": 0.0, "lon": -77.00384716666667, "name": "82e8b80819d78f4adf42f1bab459c2a2"}, {"bike_id": "4be830995106b30251b2694e0e0a56e0", "type": "electric_scooter", "is_disabled": 0, "lat": 38.908406166666666, "rental_uris": {"ios": "https://dc.lft.to/lastmile_qr_scan", "android": "https://dc.lft.to/lastmile_qr_scan"}, "is_reserved": 0, "fusion_lon": 0.0, "fusion_lat": 0.0, "lon": -77.0017075, "name": "4be830995106b30251b2694e0e0a56e0"}, {"bike_id": "fedd1f678e5e3a81faa944051d5545fb", "type": "electric_scooter", "is_disabled": 0, "lat": 38.919725, "rental_uris": {"ios": "https://dc.lft.to/lastmile_qr_scan", "android": "https://dc.lft.to/lastmile_qr_scan"}, "is_reserved": 0, "fusion_lon": 0.0, "fusion_lat": 0.0, "lon": -77.04224166666667, "name": "fedd1f678e5e3a81faa944051d5545fb"}, {"bike_id": "bfd2f3caec897e5bff8032bece736114", "type": "electric_bike", "is_disabled": 0, "lat": 38.89964483333333, "rental_uris": {"ios": "https://dc.lft.to/lastmile_qr_scan", "android": "https://dc.lft.to/lastmile_qr_scan"}, "is_reserved": 0, "fusion_lon": 0.0, "fusion_lat": 0.0, "lon": -76.98676016666667, "name": "bfd2f3caec897e5bff8032bece736114"}, {"bike_id": "0bb4758c3b00b9b4bea81abd2ad4bb15", "type": "electric_scooter", "is_disabled": 0, "lat": 38.88427633333333, "rental_uris": {"ios": "https://dc.lft.to/lastmile_qr_scan", "android": "https://dc.lft.to/lastmile_qr_scan"}, "is_reserved": 0, "fusion_lon": 0.0, "fusion_lat": 0.0, "lon": -76.957577, "name": "0bb4758c3b00b9b4bea81abd2ad4bb15"}, {"bike_id": "0075db753a9752db2b1b169d01f48665", "type": "electric_scooter", "is_disabled": 0, "lat": 38.88930583333333, "rental_uris": {"ios": "https://dc.lft.to/lastmile_qr_scan", "android": "https://dc.lft.to/lastmile_qr_scan"}, "is_reserved": 0, "fusion_lon": 0.0, "fusion_lat": 0.0, "lon": -77.01497783333333, "name": "0075db753a9752db2b1b169d01f48665"}, {"bike_id": "c0ab663960f9d9450a2725036f0d5335", "type": "electric_scooter", "is_disabled": 0, "lat": 38.916865, "rental_uris": {"ios": "https://dc.lft.to/lastmile_qr_scan", "android": "https://dc.lft.to/lastmile_qr_scan"}, "is_reserved": 0, "fusion_lon": 0.0, "fusion_lat": 0.0, "lon": -77.02342316666666, "name": "c0ab663960f9d9450a2725036f0d5335"}, {"bike_id": "584f408903c643059dd00809d484f6c3", "type": "electric_scooter", "is_disabled": 0, "lat": 38.90554383333333, "rental_uris": {"ios": "https://dc.lft.to/lastmile_qr_scan", "android": "https://dc.lft.to/lastmile_qr_scan"}, "is_reserved": 0, "fusion_lon": 0.0, "fusion_lat": 0.0, "lon": -76.99621033333334, "name": "584f408903c643059dd00809d484f6c3"}, {"bike_id": "6f3167af9d39072e616ac69355a7d852", "type": "electric_scooter", "is_disabled": 0, "lat": 38.9049235, "rental_uris": {"ios": "https://dc.lft.to/lastmile_qr_scan", "android": "https://dc.lft.to/lastmile_qr_scan"}, "is_reserved": 0, "fusion_lon": 0.0, "fusion_lat": 0.0, "lon": -77.01991766666667, "name": "6f3167af9d39072e616ac69355a7d852"}, {"bike_id": "a9270b5816d45447673afb03919980d0", "type": "electric_bike", "is_disabled": 0, "lat": 38.804147666666665, "rental_uris": {"ios": "https://dc.lft.to/lastmile_qr_scan", "android": "https://dc.lft.to/lastmile_qr_scan"}, "is_reserved": 0, "fusion_lon": 0.0, "fusion_lat": 0.0, "lon": -77.0555645, "name": "a9270b5816d45447673afb03919980d0"}, {"bike_id": "11f4632d2edf13a9a7ecdc006e6b37c1", "type": "electric_scooter", "is_disabled": 0, "lat": 38.89524216666667, "rental_uris": {"ios": "https://dc.lft.to/lastmile_qr_scan", "android": "https://dc.lft.to/lastmile_qr_scan"}, "is_reserved": 0, "fusion_lon": 0.0, "fusion_lat": 0.0, "lon": -77.0109395, "name": "11f4632d2edf13a9a7ecdc006e6b37c1"}, {"bike_id": "aa1e95799fc080aa7ab488e5e52f776c", "type": "electric_bike", "is_disabled": 0, "lat": 38.807042333333335, "rental_uris": {"ios": "https://dc.lft.to/lastmile_qr_scan", "android": "https://dc.lft.to/lastmile_qr_scan"}, "is_reserved": 0, "fusion_lon": 0.0, "fusion_lat": 0.0, "lon": -77.06174166666666, "name": "aa1e95799fc080aa7ab488e5e52f776c"}, {"bike_id": "478ebe53e7e2b33f7c578fe7aab72288", "type": "electric_scooter", "is_disabled": 0, "lat": 38.922406, "rental_uris": {"ios": "https://dc.lft.to/lastmile_qr_scan", "android": "https://dc.lft.to/lastmile_qr_scan"}, "is_reserved": 0, "fusion_lon": 0.0, "fusion_lat": 0.0, "lon": -77.039096, "name": "478ebe53e7e2b33f7c578fe7aab72288"}, {"bike_id": "e474731578cb9146336a818d43204067", "type": "electric_bike", "is_disabled": 0, "lat": 38.8576585, "rental_uris": {"ios": "https://dc.lft.to/lastmile_qr_scan", "android": "https://dc.lft.to/lastmile_qr_scan"}, "is_reserved": 0, "fusion_lon": 0.0, "fusion_lat": 0.0, "lon": -76.98760166666666, "name": "e474731578cb9146336a818d43204067"}, {"bike_id": "459707b3dc49c90833abfd131a69b2e3", "type": "electric_scooter", "is_disabled": 0, "lat": 38.90064016666667, "rental_uris": {"ios": "https://dc.lft.to/lastmile_qr_scan", "android": "https://dc.lft.to/lastmile_qr_scan"}, "is_reserved": 0, "fusion_lon": 0.0, "fusion_lat": 0.0, "lon": -77.0365745, "name": "459707b3dc49c90833abfd131a69b2e3"}, {"bike_id": "8e65c7bdc318290aa043ea3cb189d4bb", "type": "electric_scooter", "is_disabled": 0, "lat": 38.936513833333336, "rental_uris": {"ios": "https://dc.lft.to/lastmile_qr_scan", "android": "https://dc.lft.to/lastmile_qr_scan"}, "is_reserved": 0, "fusion_lon": 0.0, "fusion_lat": 0.0, "lon": -77.05501716666667, "name": "8e65c7bdc318290aa043ea3cb189d4bb"}, {"bike_id": "f1c043b721bdff8a6ed0b47fb8341182", "type": "electric_scooter", "is_disabled": 0, "lat": 38.9202125, "rental_uris": {"ios": "https://dc.lft.to/lastmile_qr_scan", "android": "https://dc.lft.to/lastmile_qr_scan"}, "is_reserved": 0, "fusion_lon": 0.0, "fusion_lat": 0.0, "lon": -77.031494, "name": "f1c043b721bdff8a6ed0b47fb8341182"}, {"bike_id": "c03961d6e5f07ba4efe012d8a52ef4f4", "type": "electric_scooter", "is_disabled": 0, "lat": 38.928192833333334, "rental_uris": {"ios": "https://dc.lft.to/lastmile_qr_scan", "android": "https://dc.lft.to/lastmile_qr_scan"}, "is_reserved": 0, "fusion_lon": 0.0, "fusion_lat": 0.0, "lon": -77.02255333333333, "name": "c03961d6e5f07ba4efe012d8a52ef4f4"}, {"bike_id": "686392ffdca9df34adc32a6ec308fa9e", "type": "electric_scooter", "is_disabled": 0, "lat": 38.9287615, "rental_uris": {"ios": "https://dc.lft.to/lastmile_qr_scan", "android": "https://dc.lft.to/lastmile_qr_scan"}, "is_reserved": 0, "fusion_lon": 0.0, "fusion_lat": 0.0, "lon": -77.03443083333333, "name": "686392ffdca9df34adc32a6ec308fa9e"}, {"bike_id": "c260af74db707c4bc0cdb341e7e0833b", "type": "electric_scooter", "is_disabled": 0, "lat": 38.91419066666667, "rental_uris": {"ios": "https://dc.lft.to/lastmile_qr_scan", "android": "https://dc.lft.to/lastmile_qr_scan"}, "is_reserved": 0, "fusion_lon": 0.0, "fusion_lat": 0.0, "lon": -77.03600466666667, "name": "c260af74db707c4bc0cdb341e7e0833b"}, {"bike_id": "7dcb65184c3d2f3e210b5706ec449c09", "type": "electric_scooter", "is_disabled": 0, "lat": 38.92962933333333, "rental_uris": {"ios": "https://dc.lft.to/lastmile_qr_scan", "android": "https://dc.lft.to/lastmile_qr_scan"}, "is_reserved": 0, "fusion_lon": 0.0, "fusion_lat": 0.0, "lon": -77.03265833333333, "name": "7dcb65184c3d2f3e210b5706ec449c09"}, {"bike_id": "f4e2364f81e2d28b7633af996480665f", "type": "electric_scooter", "is_disabled": 0, "lat": 38.905228666666666, "rental_uris": {"ios": "https://dc.lft.to/lastmile_qr_scan", "android": "https://dc.lft.to/lastmile_qr_scan"}, "is_reserved": 0, "fusion_lon": 0.0, "fusion_lat": 0.0, "lon": -77.062347, "name": "f4e2364f81e2d28b7633af996480665f"}, {"bike_id": "27a0650d96fb18eacd47cff159002497", "type": "electric_scooter", "is_disabled": 0, "lat": 38.900947, "rental_uris": {"ios": "https://dc.lft.to/lastmile_qr_scan", "android": "https://dc.lft.to/lastmile_qr_scan"}, "is_reserved": 0, "fusion_lon": 0.0, "fusion_lat": 0.0, "lon": -77.05139583333333, "name": "27a0650d96fb18eacd47cff159002497"}, {"bike_id": "03f110b305086a3c872e99d5e8e0bef2", "type": "electric_scooter", "is_disabled": 0, "lat": 38.92671633333333, "rental_uris": {"ios": "https://dc.lft.to/lastmile_qr_scan", "android": "https://dc.lft.to/lastmile_qr_scan"}, "is_reserved": 0, "fusion_lon": 0.0, "fusion_lat": 0.0, "lon": -77.01472233333334, "name": "03f110b305086a3c872e99d5e8e0bef2"}, {"bike_id": "b7495b8994ec2f0e275f3802d7a23c11", "type": "electric_scooter", "is_disabled": 0, "lat": 38.9068315, "rental_uris": {"ios": "https://dc.lft.to/lastmile_qr_scan", "android": "https://dc.lft.to/lastmile_qr_scan"}, "is_reserved": 0, "fusion_lon": 0.0, "fusion_lat": 0.0, "lon": -77.02689383333333, "name": "b7495b8994ec2f0e275f3802d7a23c11"}, {"bike_id": "5a299b890ff1ef7ac219cd569580c5bf", "type": "electric_scooter", "is_disabled": 0, "lat": 38.884320833333334, "rental_uris": {"ios": "https://dc.lft.to/lastmile_qr_scan", "android": "https://dc.lft.to/lastmile_qr_scan"}, "is_reserved": 0, "fusion_lon": 0.0, "fusion_lat": 0.0, "lon": -76.95748033333334, "name": "5a299b890ff1ef7ac219cd569580c5bf"}, {"bike_id": "ecdd9d1f4017abfb518d34f13827bd77", "type": "electric_scooter", "is_disabled": 0, "lat": 38.92276616666667, "rental_uris": {"ios": "https://dc.lft.to/lastmile_qr_scan", "android": "https://dc.lft.to/lastmile_qr_scan"}, "is_reserved": 0, "fusion_lon": 0.0, "fusion_lat": 0.0, "lon": -77.0367125, "name": "ecdd9d1f4017abfb518d34f13827bd77"}, {"bike_id": "75ff62a21237ba17ed575ab23da2e568", "type": "electric_scooter", "is_disabled": 0, "lat": 38.888525, "rental_uris": {"ios": "https://dc.lft.to/lastmile_qr_scan", "android": "https://dc.lft.to/lastmile_qr_scan"}, "is_reserved": 0, "fusion_lon": 0.0, "fusion_lat": 0.0, "lon": -76.9268255, "name": "75ff62a21237ba17ed575ab23da2e568"}, {"bike_id": "0cc245467338ed06f41213509dd14db4", "type": "electric_scooter", "is_disabled": 0, "lat": 38.91824716666667, "rental_uris": {"ios": "https://dc.lft.to/lastmile_qr_scan", "android": "https://dc.lft.to/lastmile_qr_scan"}, "is_reserved": 0, "fusion_lon": 0.0, "fusion_lat": 0.0, "lon": -77.02421483333333, "name": "0cc245467338ed06f41213509dd14db4"}, {"bike_id": "6aae9c9ee664bc835eeda5421f6b7e57", "type": "electric_scooter", "is_disabled": 0, "lat": 38.95734433333333, "rental_uris": {"ios": "https://dc.lft.to/lastmile_qr_scan", "android": "https://dc.lft.to/lastmile_qr_scan"}, "is_reserved": 0, "fusion_lon": 0.0, "fusion_lat": 0.0, "lon": -77.0242515, "name": "6aae9c9ee664bc835eeda5421f6b7e57"}, {"bike_id": "efe5794cb335d6c1836d92b0a2da5d60", "type": "electric_scooter", "is_disabled": 0, "lat": 38.92938, "rental_uris": {"ios": "https://dc.lft.to/lastmile_qr_scan", "android": "https://dc.lft.to/lastmile_qr_scan"}, "is_reserved": 0, "fusion_lon": 0.0, "fusion_lat": 0.0, "lon": -77.023186, "name": "efe5794cb335d6c1836d92b0a2da5d60"}, {"bike_id": "03e6bbba47c3f6302b047eae942a3685", "type": "electric_scooter", "is_disabled": 0, "lat": 38.887419333333334, "rental_uris": {"ios": "https://dc.lft.to/lastmile_qr_scan", "android": "https://dc.lft.to/lastmile_qr_scan"}, "is_reserved": 0, "fusion_lon": 0.0, "fusion_lat": 0.0, "lon": -77.01509916666667, "name": "03e6bbba47c3f6302b047eae942a3685"}, {"bike_id": "95139dd03fda58605f90a7eadcf43e40", "type": "electric_scooter", "is_disabled": 0, "lat": 38.9364185, "rental_uris": {"ios": "https://dc.lft.to/lastmile_qr_scan", "android": "https://dc.lft.to/lastmile_qr_scan"}, "is_reserved": 0, "fusion_lon": 0.0, "fusion_lat": 0.0, "lon": -77.03285216666667, "name": "95139dd03fda58605f90a7eadcf43e40"}, {"bike_id": "1421724af890dd3dc22832934ddb9852", "type": "electric_scooter", "is_disabled": 0, "lat": 38.909913, "rental_uris": {"ios": "https://dc.lft.to/lastmile_qr_scan", "android": "https://dc.lft.to/lastmile_qr_scan"}, "is_reserved": 0, "fusion_lon": 0.0, "fusion_lat": 0.0, "lon": -77.0280745, "name": "1421724af890dd3dc22832934ddb9852"}, {"bike_id": "ea0415301451d59d0629bfeceb9c102c", "type": "electric_scooter", "is_disabled": 0, "lat": 38.926890666666665, "rental_uris": {"ios": "https://dc.lft.to/lastmile_qr_scan", "android": "https://dc.lft.to/lastmile_qr_scan"}, "is_reserved": 0, "fusion_lon": 0.0, "fusion_lat": 0.0, "lon": -77.027837, "name": "ea0415301451d59d0629bfeceb9c102c"}, {"bike_id": "3d57ff1b36bfa71a7d91dd11e1695490", "type": "electric_scooter", "is_disabled": 0, "lat": 38.874818833333336, "rental_uris": {"ios": "https://dc.lft.to/lastmile_qr_scan", "android": "https://dc.lft.to/lastmile_qr_scan"}, "is_reserved": 0, "fusion_lon": 0.0, "fusion_lat": 0.0, "lon": -77.01072183333333, "name": "3d57ff1b36bfa71a7d91dd11e1695490"}, {"bike_id": "077c825cd5d28100005db8aee8dab0a2", "type": "electric_scooter", "is_disabled": 0, "lat": 38.931875, "rental_uris": {"ios": "https://dc.lft.to/lastmile_qr_scan", "android": "https://dc.lft.to/lastmile_qr_scan"}, "is_reserved": 0, "fusion_lon": 0.0, "fusion_lat": 0.0, "lon": -77.0235335, "name": "077c825cd5d28100005db8aee8dab0a2"}, {"bike_id": "e83e1d59ef7c6500b944c94159810663", "type": "electric_scooter", "is_disabled": 0, "lat": 38.93655166666667, "rental_uris": {"ios": "https://dc.lft.to/lastmile_qr_scan", "android": "https://dc.lft.to/lastmile_qr_scan"}, "is_reserved": 0, "fusion_lon": 0.0, "fusion_lat": 0.0, "lon": -77.02640216666667, "name": "e83e1d59ef7c6500b944c94159810663"}, {"bike_id": "7fe80c6477ee601034e7e8b54b8af1c3", "type": "electric_scooter", "is_disabled": 0, "lat": 38.903861666666664, "rental_uris": {"ios": "https://dc.lft.to/lastmile_qr_scan", "android": "https://dc.lft.to/lastmile_qr_scan"}, "is_reserved": 0, "fusion_lon": 0.0, "fusion_lat": 0.0, "lon": -76.98193783333333, "name": "7fe80c6477ee601034e7e8b54b8af1c3"}, {"bike_id": "a838a08b8b3cd3b19a32b1a8b6509a7a", "type": "electric_scooter", "is_disabled": 0, "lat": 38.918172166666665, "rental_uris": {"ios": "https://dc.lft.to/lastmile_qr_scan", "android": "https://dc.lft.to/lastmile_qr_scan"}, "is_reserved": 0, "fusion_lon": 0.0, "fusion_lat": 0.0, "lon": -77.02424683333334, "name": "a838a08b8b3cd3b19a32b1a8b6509a7a"}, {"bike_id": "d55497fc73aa914853a4c4349dbf025d", "type": "electric_scooter", "is_disabled": 0, "lat": 38.88210216666667, "rental_uris": {"ios": "https://dc.lft.to/lastmile_qr_scan", "android": "https://dc.lft.to/lastmile_qr_scan"}, "is_reserved": 0, "fusion_lon": 0.0, "fusion_lat": 0.0, "lon": -76.98929066666666, "name": "d55497fc73aa914853a4c4349dbf025d"}, {"bike_id": "3fe50e32e9ccc0332dced8bb8ba5dbd5", "type": "electric_scooter", "is_disabled": 0, "lat": 38.920255166666664, "rental_uris": {"ios": "https://dc.lft.to/lastmile_qr_scan", "android": "https://dc.lft.to/lastmile_qr_scan"}, "is_reserved": 0, "fusion_lon": 0.0, "fusion_lat": 0.0, "lon": -77.031222, "name": "3fe50e32e9ccc0332dced8bb8ba5dbd5"}, {"bike_id": "4e6bd9fb9797b9ba9e1c42b5f378837a", "type": "electric_bike", "is_disabled": 0, "lat": 38.93968816666667, "rental_uris": {"ios": "https://dc.lft.to/lastmile_qr_scan", "android": "https://dc.lft.to/lastmile_qr_scan"}, "is_reserved": 0, "fusion_lon": 0.0, "fusion_lat": 0.0, "lon": -77.05261516666667, "name": "4e6bd9fb9797b9ba9e1c42b5f378837a"}, {"bike_id": "f76430c86f3ea872504e490085c1224a", "type": "electric_scooter", "is_disabled": 0, "lat": 38.9372835, "rental_uris": {"ios": "https://dc.lft.to/lastmile_qr_scan", "android": "https://dc.lft.to/lastmile_qr_scan"}, "is_reserved": 0, "fusion_lon": 0.0, "fusion_lat": 0.0, "lon": -77.03292916666666, "name": "f76430c86f3ea872504e490085c1224a"}, {"bike_id": "65768e8dcf64455b47d4826f90cf50b8", "type": "electric_scooter", "is_disabled": 0, "lat": 38.905109833333334, "rental_uris": {"ios": "https://dc.lft.to/lastmile_qr_scan", "android": "https://dc.lft.to/lastmile_qr_scan"}, "is_reserved": 0, "fusion_lon": 0.0, "fusion_lat": 0.0, "lon": -77.06202566666667, "name": "65768e8dcf64455b47d4826f90cf50b8"}, {"bike_id": "1f2dfd625a42f63f5f5421f25b5dc621", "type": "electric_scooter", "is_disabled": 0, "lat": 38.937915833333335, "rental_uris": {"ios": "https://dc.lft.to/lastmile_qr_scan", "android": "https://dc.lft.to/lastmile_qr_scan"}, "is_reserved": 0, "fusion_lon": 0.0, "fusion_lat": 0.0, "lon": -77.0329695, "name": "1f2dfd625a42f63f5f5421f25b5dc621"}, {"bike_id": "137300e805fa02309ac652de13335226", "type": "electric_scooter", "is_disabled": 0, "lat": 38.93849566666667, "rental_uris": {"ios": "https://dc.lft.to/lastmile_qr_scan", "android": "https://dc.lft.to/lastmile_qr_scan"}, "is_reserved": 0, "fusion_lon": 0.0, "fusion_lat": 0.0, "lon": -77.0325875, "name": "137300e805fa02309ac652de13335226"}, {"bike_id": "ce67762786eae2eb39621bd875072cb5", "type": "electric_scooter", "is_disabled": 0, "lat": 38.898796833333336, "rental_uris": {"ios": "https://dc.lft.to/lastmile_qr_scan", "android": "https://dc.lft.to/lastmile_qr_scan"}, "is_reserved": 0, "fusion_lon": 0.0, "fusion_lat": 0.0, "lon": -76.93187433333334, "name": "ce67762786eae2eb39621bd875072cb5"}, {"bike_id": "e4940dda81afb0412695aee0cc25c196", "type": "electric_scooter", "is_disabled": 0, "lat": 38.9068285, "rental_uris": {"ios": "https://dc.lft.to/lastmile_qr_scan", "android": "https://dc.lft.to/lastmile_qr_scan"}, "is_reserved": 0, "fusion_lon": 0.0, "fusion_lat": 0.0, "lon": -77.026977, "name": "e4940dda81afb0412695aee0cc25c196"}, {"bike_id": "20e1e4e44c245bb2d75f6e5381cfc241", "type": "electric_scooter", "is_disabled": 0, "lat": 38.92262, "rental_uris": {"ios": "https://dc.lft.to/lastmile_qr_scan", "android": "https://dc.lft.to/lastmile_qr_scan"}, "is_reserved": 0, "fusion_lon": 0.0, "fusion_lat": 0.0, "lon": -77.0004595, "name": "20e1e4e44c245bb2d75f6e5381cfc241"}, {"bike_id": "4b4f84faa10380f345a685816a2d2e4a", "type": "electric_scooter", "is_disabled": 0, "lat": 38.90214566666667, "rental_uris": {"ios": "https://dc.lft.to/lastmile_qr_scan", "android": "https://dc.lft.to/lastmile_qr_scan"}, "is_reserved": 0, "fusion_lon": 0.0, "fusion_lat": 0.0, "lon": -77.02306716666666, "name": "4b4f84faa10380f345a685816a2d2e4a"}, {"bike_id": "83ef143cf898b2f5020d6ea32eaf89ab", "type": "electric_scooter", "is_disabled": 0, "lat": 38.89987716666667, "rental_uris": {"ios": "https://dc.lft.to/lastmile_qr_scan", "android": "https://dc.lft.to/lastmile_qr_scan"}, "is_reserved": 0, "fusion_lon": 0.0, "fusion_lat": 0.0, "lon": -77.04514983333334, "name": "83ef143cf898b2f5020d6ea32eaf89ab"}, {"bike_id": "54b79f428b5bfb9ee40047ad5cc3a235", "type": "electric_scooter", "is_disabled": 0, "lat": 38.941825333333334, "rental_uris": {"ios": "https://dc.lft.to/lastmile_qr_scan", "android": "https://dc.lft.to/lastmile_qr_scan"}, "is_reserved": 0, "fusion_lon": 0.0, "fusion_lat": 0.0, "lon": -77.0288765, "name": "54b79f428b5bfb9ee40047ad5cc3a235"}, {"bike_id": "c861687aac207520828214a5f76b1d71", "type": "electric_bike", "is_disabled": 0, "lat": 38.8619655, "rental_uris": {"ios": "https://dc.lft.to/lastmile_qr_scan", "android": "https://dc.lft.to/lastmile_qr_scan"}, "is_reserved": 0, "fusion_lon": 0.0, "fusion_lat": 0.0, "lon": -76.9481375, "name": "c861687aac207520828214a5f76b1d71"}, {"bike_id": "673bc70db0b50864e2c30c1e9d40a4f5", "type": "electric_scooter", "is_disabled": 0, "lat": 38.902965, "rental_uris": {"ios": "https://dc.lft.to/lastmile_qr_scan", "android": "https://dc.lft.to/lastmile_qr_scan"}, "is_reserved": 0, "fusion_lon": 0.0, "fusion_lat": 0.0, "lon": -77.04475, "name": "673bc70db0b50864e2c30c1e9d40a4f5"}, {"bike_id": "e0bc67ed057723df0e475a5a3378caff", "type": "electric_scooter", "is_disabled": 0, "lat": 38.918997833333336, "rental_uris": {"ios": "https://dc.lft.to/lastmile_qr_scan", "android": "https://dc.lft.to/lastmile_qr_scan"}, "is_reserved": 0, "fusion_lon": 0.0, "fusion_lat": 0.0, "lon": -77.04624066666666, "name": "e0bc67ed057723df0e475a5a3378caff"}, {"bike_id": "e6990d0053cc868ba3b378ab0a1f62c9", "type": "electric_scooter", "is_disabled": 0, "lat": 38.89113783333333, "rental_uris": {"ios": "https://dc.lft.to/lastmile_qr_scan", "android": "https://dc.lft.to/lastmile_qr_scan"}, "is_reserved": 0, "fusion_lon": 0.0, "fusion_lat": 0.0, "lon": -76.99159016666667, "name": "e6990d0053cc868ba3b378ab0a1f62c9"}, {"bike_id": "68d94e14932b08aab5a1175b1fef966a", "type": "electric_scooter", "is_disabled": 0, "lat": 38.912674833333334, "rental_uris": {"ios": "https://dc.lft.to/lastmile_qr_scan", "android": "https://dc.lft.to/lastmile_qr_scan"}, "is_reserved": 0, "fusion_lon": 0.0, "fusion_lat": 0.0, "lon": -77.06791666666666, "name": "68d94e14932b08aab5a1175b1fef966a"}, {"bike_id": "3c449c1a6dbdf431b37b14b02b6d92d1", "type": "electric_scooter", "is_disabled": 0, "lat": 38.88837866666667, "rental_uris": {"ios": "https://dc.lft.to/lastmile_qr_scan", "android": "https://dc.lft.to/lastmile_qr_scan"}, "is_reserved": 0, "fusion_lon": 0.0, "fusion_lat": 0.0, "lon": -77.04847833333334, "name": "3c449c1a6dbdf431b37b14b02b6d92d1"}, {"bike_id": "c5f43a9a0c92118977c1f9e888ef7686", "type": "electric_scooter", "is_disabled": 0, "lat": 38.9084815, "rental_uris": {"ios": "https://dc.lft.to/lastmile_qr_scan", "android": "https://dc.lft.to/lastmile_qr_scan"}, "is_reserved": 0, "fusion_lon": 0.0, "fusion_lat": 0.0, "lon": -76.99964666666666, "name": "c5f43a9a0c92118977c1f9e888ef7686"}, {"bike_id": "793f06daf3b24762f8b838b35d5e4e56", "type": "electric_scooter", "is_disabled": 0, "lat": 38.862177, "rental_uris": {"ios": "https://dc.lft.to/lastmile_qr_scan", "android": "https://dc.lft.to/lastmile_qr_scan"}, "is_reserved": 0, "fusion_lon": 0.0, "fusion_lat": 0.0, "lon": -76.9948595, "name": "793f06daf3b24762f8b838b35d5e4e56"}, {"bike_id": "9aa53fd1daa7c34929091da7505c7c6d", "type": "electric_scooter", "is_disabled": 0, "lat": 38.91484583333333, "rental_uris": {"ios": "https://dc.lft.to/lastmile_qr_scan", "android": "https://dc.lft.to/lastmile_qr_scan"}, "is_reserved": 0, "fusion_lon": 0.0, "fusion_lat": 0.0, "lon": -77.00287183333333, "name": "9aa53fd1daa7c34929091da7505c7c6d"}, {"bike_id": "bd6144c4b865786e0f78c55e17a5d945", "type": "electric_scooter", "is_disabled": 0, "lat": 38.939545833333334, "rental_uris": {"ios": "https://dc.lft.to/lastmile_qr_scan", "android": "https://dc.lft.to/lastmile_qr_scan"}, "is_reserved": 0, "fusion_lon": 0.0, "fusion_lat": 0.0, "lon": -77.07250516666667, "name": "bd6144c4b865786e0f78c55e17a5d945"}, {"bike_id": "1f677c0911cbd7da031c0a2acdb6f6d5", "type": "electric_scooter", "is_disabled": 0, "lat": 38.932483, "rental_uris": {"ios": "https://dc.lft.to/lastmile_qr_scan", "android": "https://dc.lft.to/lastmile_qr_scan"}, "is_reserved": 0, "fusion_lon": 0.0, "fusion_lat": 0.0, "lon": -77.03850833333334, "name": "1f677c0911cbd7da031c0a2acdb6f6d5"}, {"bike_id": "ed0ff843a37bd325542c96db8b95e487", "type": "electric_scooter", "is_disabled": 0, "lat": 38.92262683333333, "rental_uris": {"ios": "https://dc.lft.to/lastmile_qr_scan", "android": "https://dc.lft.to/lastmile_qr_scan"}, "is_reserved": 0, "fusion_lon": 0.0, "fusion_lat": 0.0, "lon": -77.0187385, "name": "ed0ff843a37bd325542c96db8b95e487"}, {"bike_id": "056a50f545b2ea513249d219899ca180", "type": "electric_scooter", "is_disabled": 0, "lat": 38.90103416666667, "rental_uris": {"ios": "https://dc.lft.to/lastmile_qr_scan", "android": "https://dc.lft.to/lastmile_qr_scan"}, "is_reserved": 0, "fusion_lon": 0.0, "fusion_lat": 0.0, "lon": -77.038332, "name": "056a50f545b2ea513249d219899ca180"}, {"bike_id": "1c77947523c56e1b0f7d225bea6f82ed", "type": "electric_scooter", "is_disabled": 0, "lat": 38.923401166666665, "rental_uris": {"ios": "https://dc.lft.to/lastmile_qr_scan", "android": "https://dc.lft.to/lastmile_qr_scan"}, "is_reserved": 0, "fusion_lon": 0.0, "fusion_lat": 0.0, "lon": -77.03543066666667, "name": "1c77947523c56e1b0f7d225bea6f82ed"}, {"bike_id": "92b0ce249e8e87f3f09fbca0f2b656ff", "type": "electric_bike", "is_disabled": 0, "lat": 38.9934665, "rental_uris": {"ios": "https://dc.lft.to/lastmile_qr_scan", "android": "https://dc.lft.to/lastmile_qr_scan"}, "is_reserved": 0, "fusion_lon": 0.0, "fusion_lat": 0.0, "lon": -77.115837, "name": "92b0ce249e8e87f3f09fbca0f2b656ff"}, {"bike_id": "6af49be7fabc31dc726836221e83e263", "type": "electric_bike", "is_disabled": 0, "lat": 38.80762883333333, "rental_uris": {"ios": "https://dc.lft.to/lastmile_qr_scan", "android": "https://dc.lft.to/lastmile_qr_scan"}, "is_reserved": 0, "fusion_lon": 0.0, "fusion_lat": 0.0, "lon": -77.09468783333334, "name": "6af49be7fabc31dc726836221e83e263"},