{"data": {"bikes": [{"fusion_lat": 0.0, "type": "electric_scooter", "name": "9a730d7a543e0e79feea5c80bd8fc334", "fusion_lon": 0.0, "bike_id": "9a730d7a543e0e79feea5c80bd8fc334", "is_reserved": 0, "rental_uris": {"android": "https://dc.lft.to/lastmile_qr_scan", "ios": "https://dc.lft.to/lastmile_qr_scan"}, "lat": 38.91456316666667, "is_disabled": 0, "lon": -77.01887733333334}, {"fusion_lat": 0.0, "type": "electric_scooter", "name": "c1282050361f3381b5ef8671e42853b6", "fusion_lon": 0.0, "bike_id": "c1282050361f3381b5ef8671e42853b6", "is_reserved": 0, "rental_uris": {"android": "https://dc.lft.to/lastmile_qr_scan", "ios": "https://dc.lft.to/lastmile_qr_scan"}, "lat": 38.909426333333336, "is_disabled": 0, "lon": -77.04674233333333}, {"fusion_lat": 0.0, "type": "electric_scooter", "name": "a981ddff803853746f4a46213e08241e", "fusion_lon": 0.0, "bike_id": "a981ddff803853746f4a46213e08241e", "is_reserved": 0, "rental_uris": {"android": "https://dc.lft.to/lastmile_qr_scan", "ios": "https://dc.lft.to/lastmile_qr_scan"}, "lat": 38.89958033333333, "is_disabled": 0, "lon": -77.01512633333333}, {"fusion_lat": 0.0, "type": "electric_scooter", "name": "7ed50202267e1b9f4c714f41e0ac37e5", "fusion_lon": 0.0, "bike_id": "7ed50202267e1b9f4c714f41e0ac37e5", "is_reserved": 0, "rental_uris": {"android": "https://dc.lft.to/lastmile_qr_scan", "ios": "https://dc.lft.to/lastmile_qr_scan"}, "lat": 38.90309333333333, "is_disabled": 0, "lon": -77.02366266666667}, {"fusion_lat": 0.0, "type": "electric_scooter", "name": "16e48f450ed2414fb0c0782ae1467e69", "fusion_lon": 0.0, "bike_id": "16e48f450ed2414fb0c0782ae1467e69", "is_reserved": 0, "rental_uris": {"android": "https://dc.lft.to/lastmile_qr_scan", "ios": "https://dc.lft.to/lastmile_qr_scan"}, "lat": 38.90435883333333, "is_disabled": 0, "lon": -76.98487866666666}, {"fusion_lat": 0.0, "type": "electric_scooter", "name": "1241b7d1886de667bc0d14e4775999be", "fusion_lon": 0.0, "bike_id": "1241b7d1886de667bc0d14e4775999be", "is_reserved": 0, "rental_uris": {"android": "https://dc.lft.to/lastmile_qr_scan", "ios": "https://dc.lft.to/lastmile_qr_scan"}, "lat": 38.922493333333335, "is_disabled": 0, "lon": -77.03524883333333}, {"fusion_lat": 0.0, "type": "electric_bike", "name": "090969db6a0280437171131f938357ac", "fusion_lon": 0.0, "bike_id": "090969db6a0280437171131f938357ac", "is_reserved": 0, "rental_uris": {"android": "https://dc.lft.to/lastmile_qr_scan", "ios": "https://dc.lft.to/lastmile_qr_scan"}, "lat": 38.918481166666666, "is_disabled": 0, "lon": -76.96091833333334}, {"fusion_lat": 0.0, "type": "electric_scooter", "name": "373a81131009f7d4a60183de194d0051", "fusion_lon": 0.0, "bike_id": "373a81131009f7d4a60183de194d0051", "is_reserved": 0, "rental_uris": {"android": "https://dc.lft.to/lastmile_qr_scan", "ios": "https://dc.lft.to/lastmile_qr_scan"}, "lat": 38.90785, "is_disabled": 0, "lon": -77.03856833333333}, {"fusion_lat": 0.0, "type": "electric_scooter", "name": "944aa9557ecbfcbb64cc0f1073920540", "fusion_lon": 0.0, "bike_id": "944aa9557ecbfcbb64cc0f1073920540", "is_reserved": 0, "rental_uris": {"android": "https://dc.lft.to/lastmile_qr_scan", "ios": "https://dc.lft.to/lastmile_qr_scan"}, "lat": 38.906852666666666, "is_disabled": 0, "lon": -77.035881}, {"fusion_lat": 0.0, "type": "electric_scooter", "name": "e58886b230677ea4e9ee6e8e3c2cab98", "fusion_lon": 0.0, "bike_id": "e58886b230677ea4e9ee6e8e3c2cab98", "is_reserved": 0, "rental_uris": {"android": "https://dc.lft.to/lastmile_qr_scan", "ios": "https://dc.lft.to/lastmile_qr_scan"}, "lat": 38.89605683333333, "is_disabled": 0, "lon": -77.050373}, {"fusion_lat": 0.0, "type": "electric_scooter", "name": "0673e2ac0dd16e970b1d349c5c65e542", "fusion_lon": 0.0, "bike_id": "0673e2ac0dd16e970b1d349c5c65e542", "is_reserved": 0, "rental_uris": {"android": "https://dc.lft.to/lastmile_qr_scan", "ios": "https://dc.lft.to/lastmile_qr_scan"}, "lat": 38.92222816666666, "is_disabled": 0, "lon": -77.04239383333334}, {"fusion_lat": 0.0, "type": "electric_bike", "name": "0d33fe31983085006b3864865d8b90ed", "fusion_lon": 0.0, "bike_id": "0d33fe31983085006b3864865d8b90ed", "is_reserved": 0, "rental_uris": {"android": "https://dc.lft.to/lastmile_qr_scan", "ios": "https://dc.lft.to/lastmile_qr_scan"}, "lat": 38.9681135, "is_disabled": 0, "lon": -77.07224216666667}, {"fusion_lat": 0.0, "type": "electric_scooter", "name": "a359d429524ab46240922f21e5bd272d", "fusion_lon": 0.0, "bike_id": "a359d429524ab46240922f21e5bd272d", "is_reserved": 0, "rental_uris": {"android": "https://dc.lft.to/lastmile_qr_scan", "ios": "https://dc.lft.to/lastmile_qr_scan"}, "lat": 38.917137833333335, "is_disabled": 0, "lon": -77.04156883333333}, {"fusion_lat": 0.0, "type": "electric_bike", "name": "96371a68c8f4c70416862a23c077e8fc", "fusion_lon": 0.0, "bike_id": "96371a68c8f4c70416862a23c077e8fc", "is_reserved": 0, "rental_uris": {"android": "https://dc.lft.to/lastmile_qr_scan", "ios": "https://dc.lft.to/lastmile_qr_scan"}, "lat": 38.949185666666665, "is_disabled": 0, "lon": -77.0079995}, {"fusion_lat": 0.0, "type": "electric_scooter", "name": "6964e42fc106f3b6735fa6eaa0e57aa6", "fusion_lon": 0.0, "bike_id": "6964e42fc106f3b6735fa6eaa0e57aa6", "is_reserved": 0, "rental_uris": {"android": "https://dc.lft.to/lastmile_qr_scan", "ios": "https://dc.lft.to/lastmile_qr_scan"}, "lat": 38.8828495, "is_disabled": 0, "lon": -77.00640366666667}, {"fusion_lat": 0.0, "type": "electric_scooter", "name": "2ac149ed5e0dd3c19459b53014128682", "fusion_lon": 0.0, "bike_id": "2ac149ed5e0dd3c19459b53014128682", "is_reserved": 0, "rental_uris": {"android": "https://dc.lft.to/lastmile_qr_scan", "ios": "https://dc.lft.to/lastmile_qr_scan"}, "lat": 38.89219416666667, "is_disabled": 0, "lon": -77.03219033333333}, {"fusion_lat": 0.0, "type": "electric_scooter", "name": "bb86e44a8c6d0322312703e55de94f39", "fusion_lon": 0.0, "bike_id": "bb86e44a8c6d0322312703e55de94f39", "is_reserved": 0, "rental_uris": {"android": "https://dc.lft.to/lastmile_qr_scan", "ios": "https://dc.lft.to/lastmile_qr_scan"}, "lat": 38.8836175, "is_disabled": 0, "lon": -76.99505983333333}, {"fusion_lat": 0.0, "type": "electric_bike", "name": "1582f29103eb122115000e2263d629be", "fusion_lon": 0.0, "bike_id": "1582f29103eb122115000e2263d629be", "is_reserved": 0, "rental_uris": {"android": "https://dc.lft.to/lastmile_qr_scan", "ios": "https://dc.lft.to/lastmile_qr_scan"}, "lat": 38.819087833333334, "is_disabled": 0, "lon": -76.99909316666667}, {"fusion_lat": 0.0, "type": "electric_scooter", "name": "a9f8816a138cb90b952abf8cad45bee3", "fusion_lon": 0.0, "bike_id": "a9f8816a138cb90b952abf8cad45bee3", "is_reserved": 0, "rental_uris": {"android": "https://dc.lft.to/lastmile_qr_scan", "ios": "https://dc.lft.to/lastmile_qr_scan"}, "lat": 38.89829616666667, "is_disabled": 0, "lon": -77.0285055}, {"fusion_lat": 0.0, "type": "electric_scooter", "name": "2979d08bec537c7e3f24e98b0bad2421", "fusion_lon": 0.0, "bike_id": "2979d08bec537c7e3f24e98b0bad2421", "is_reserved": 0, "rental_uris": {"android": "https://dc.lft.to/lastmile_qr_scan", "ios": "https://dc.lft.to/lastmile_qr_scan"}, "lat": 38.88732233333333, "is_disabled": 0, "lon": -77.02828683333334}, {"fusion_lat": 0.0, "type": "electric_scooter", "name": "0837247662d785af6a74beb3da3ebda0", "fusion_lon": 0.0, "bike_id": "0837247662d785af6a74beb3da3ebda0", "is_reserved": 0, "rental_uris": {"android": "https://dc.lft.to/lastmile_qr_scan", "ios": "https://dc.lft.to/lastmile_qr_scan"}, "lat": 38.892314166666665, "is_disabled": 0, "lon": -77.03213533333333}, {"fusion_lat": 0.0, "type": "electric_scooter", "name": "8d10a21a895b97209978095632d1ccd6", "fusion_lon": 0.0, "bike_id": "8d10a21a895b97209978095632d1ccd6", "is_reserved": 0, "rental_uris": {"android": "https://dc.lft.to/lastmile_qr_scan", "ios": "https://dc.lft.to/lastmile_qr_scan"}, "lat": 38.923497, "is_disabled": 0, "lon": -77.03502083333333}, {"fusion_lat": 0.0, "type": "electric_scooter", "name": "fac15f716faf6623fccd4ee0860f1d18", "fusion_lon": 0.0, "bike_id": "fac15f716faf6623fccd4ee0860f1d18", "is_reserved": 0, "rental_uris": {"android": "https://dc.lft.to/lastmile_qr_scan", "ios": "https://dc.lft.to/lastmile_qr_scan"}, "lat": 38.984568, "is_disabled": 0, "lon": -77.0268315}, {"fusion_lat": 0.0, "type": "electric_scooter", "name": "3bf7398796bb55c0d44f47fdccc1b0d1", "fusion_lon": 0.0, "bike_id": "3bf7398796bb55c0d44f47fdccc1b0d1", "is_reserved": 0, "rental_uris": {"android": "https://dc.lft.to/lastmile_qr_scan", "ios": "https://dc.lft.to/lastmile_qr_scan"}, "lat": 38.907639, "is_disabled": 0, "lon": -77.03745433333333}, {"fusion_lat": 0.0, "type": "electric_scooter", "name": "e654bb828e36ae3f96f72daf09195d37", "fusion_lon": 0.0, "bike_id": "e654bb828e36ae3f96f72daf09195d37", "is_reserved": 0, "rental_uris": {"android": "https://dc.lft.to/lastmile_qr_scan", "ios": "https://dc.lft.to/lastmile_qr_scan"}, "lat": 38.918129, "is_disabled": 0, "lon": -77.03146183333334}, {"fusion_lat": 0.0, "type": "electric_scooter", "name": "f640c4e13453954146b5657f5bcf31b5", "fusion_lon": 0.0, "bike_id": "f640c4e13453954146b5657f5bcf31b5", "is_reserved": 0, "rental_uris": {"android": "https://dc.lft.to/lastmile_qr_scan", "ios": "https://dc.lft.to/lastmile_qr_scan"}, "lat": 38.897221, "is_disabled": 0, "lon": -77.04357583333334}, {"fusion_lat": 0.0, "type": "electric_scooter", "name": "3130e3a151b8838a6d439622460a123a", "fusion_lon": 0.0, "bike_id": "3130e3a151b8838a6d439622460a123a", "is_reserved": 0, "rental_uris": {"android": "https://dc.lft.to/lastmile_qr_scan", "ios": "https://dc.lft.to/lastmile_qr_scan"}, "lat": 38.870043, "is_disabled": 0, "lon": -76.980846}, {"fusion_lat": 0.0, "type": "electric_scooter", "name": "62b4329f0cc98826a3b9dc5c33e2878a", "fusion_lon": 0.0, "bike_id": "62b4329f0cc98826a3b9dc5c33e2878a", "is_reserved": 0, "rental_uris": {"android": "https://dc.lft.to/lastmile_qr_scan", "ios": "https://dc.lft.to/lastmile_qr_scan"}, "lat": 38.9035035, "is_disabled": 0, "lon": -77.02937983333334}, {"fusion_lat": 0.0, "type": "electric_scooter", "name": "f698b8ed860ca21582279ce3233b8c0f", "fusion_lon": 0.0, "bike_id": "f698b8ed860ca21582279ce3233b8c0f", "is_reserved": 0, "rental_uris": {"android": "https://dc.lft.to/lastmile_qr_scan", "ios": "https://dc.lft.to/lastmile_qr_scan"}, "lat": 38.924195, "is_disabled": 0, "lon": -77.01945616666667}, {"fusion_lat": 0.0, "type": "electric_scooter", "name": "a6b49916cee5dee340eeabb2775aa571", "fusion_lon": 0.0, "bike_id": "a6b49916cee5dee340eeabb2775aa571", "is_reserved": 0, "rental_uris": {"android": "https://dc.lft.to/lastmile_qr_scan", "ios": "https://dc.lft.to/lastmile_qr_scan"}, "lat": 38.9047385, "is_disabled": 0, "lon": -77.03797316666666}, {"fusion_lat": 0.0, "type": "electric_bike", "name": "74c751a47e452fd7dc88770ed0935dbd", "fusion_lon": 0.0, "bike_id": "74c751a47e452fd7dc88770ed0935dbd", "is_reserved": 0, "rental_uris": {"android": "https://dc.lft.to/lastmile_qr_scan", "ios": "https://dc.lft.to/lastmile_qr_scan"}, "lat": 38.855777333333336, "is_disabled": 0, "lon": -77.11742983333333}, {"fusion_lat": 0.0, "type": "electric_bike", "name": "6158608b7bc698f92b5c9a61c3f63ae1", "fusion_lon": 0.0, "bike_id": "6158608b7bc698f92b5c9a61c3f63ae1", "is_reserved": 0, "rental_uris": {"android": "https://dc.lft.to/lastmile_qr_scan", "ios": "https://dc.lft.to/lastmile_qr_scan"}, "lat": 38.845038, "is_disabled": 0, "lon": -76.99353533333333}, {"fusion_lat": 0.0, "type": "electric_scooter", "name": "cec019677520f13f17b3bfcf9a49a238", "fusion_lon": 0.0, "bike_id": "cec019677520f13f17b3bfcf9a49a238", "is_reserved": 0, "rental_uris": {"android": "https://dc.lft.to/lastmile_qr_scan", "ios": "https://dc.lft.to/lastmile_qr_scan"}, "lat": 38.93860033333333, "is_disabled": 0, "lon": -77.02645916666667}, {"fusion_lat": 0.0, "type": "electric_bike", "name": "831562f8e9c3d16699a46cee26935176", "fusion_lon": 0.0, "bike_id": "831562f8e9c3d16699a46cee26935176", "is_reserved": 0, "rental_uris": {"android": "https://dc.lft.to/lastmile_qr_scan", "ios": "https://dc.lft.to/lastmile_qr_scan"}, "lat": 38.936886666666666, "is_disabled": 0, "lon": -76.99057033333334}, {"fusion_lat": 0.0, "type": "electric_scooter", "name": "7f13ce771415107bd857c24ce68d1aac", "fusion_lon": 0.0, "bike_id": "7f13ce771415107bd857c24ce68d1aac", "is_reserved": 0, "rental_uris": {"android": "https://dc.lft.to/lastmile_qr_scan", "ios": "https://dc.lft.to/lastmile_qr_scan"}, "lat": 38.886760833333334, "is_disabled": 0, "lon": -76.99012016666667}, {"fusion_lat": 0.0, "type": "electric_scooter", "name": "c8c1c38a78ffc9c8ad9f63036e83723b", "fusion_lon": 0.0, "bike_id": "c8c1c38a78ffc9c8ad9f63036e83723b", "is_reserved": 0, "rental_uris": {"android": "https://dc.lft.to/lastmile_qr_scan", "ios": "https://dc.lft.to/lastmile_qr_scan"}, "lat": 38.914958166666665, "is_disabled": 0, "lon": -76.983624}, {"fusion_lat": 0.0, "type": "electric_scooter", "name": "e0a350c776c82f4848808f8cc0f70951", "fusion_lon": 0.0, "bike_id": "e0a350c776c82f4848808f8cc0f70951", "is_reserved": 0, "rental_uris": {"android": "https://dc.lft.to/lastmile_qr_scan", "ios": "https://dc.lft.to/lastmile_qr_scan"}, "lat": 38.86656466666667, "is_disabled": 0, "lon": -76.98881533333333}, {"fusion_lat": 0.0, "type": "electric_scooter", "name": "da8ee779bab2d7a35daf80dca8622a8d", "fusion_lon": 0.0, "bike_id": "da8ee779bab2d7a35daf80dca8622a8d", "is_reserved": 0, "rental_uris": {"android": "https://dc.lft.to/lastmile_qr_scan", "ios": "https://dc.lft.to/lastmile_qr_scan"}, "lat": 38.897442833333336, "is_disabled": 0, "lon": -77.01355566666666}, {"fusion_lat": 0.0, "type": "electric_scooter", "name": "3c99feae897e5571830ac037e13cc0bb", "fusion_lon": 0.0, "bike_id": "3c99feae897e5571830ac037e13cc0bb", "is_reserved": 0, "rental_uris": {"android": "https://dc.lft.to/lastmile_qr_scan", "ios": "https://dc.lft.to/lastmile_qr_scan"}, "lat": 38.93079, "is_disabled": 0, "lon": -77.02791383333333}, {"fusion_lat": 0.0, "type": "electric_scooter", "name": "7b19fc889432d6273cd2a8c65110d011", "fusion_lon": 0.0, "bike_id": "7b19fc889432d6273cd2a8c65110d011", "is_reserved": 0, "rental_uris": {"android": "https://dc.lft.to/lastmile_qr_scan", "ios": "https://dc.lft.to/lastmile_qr_scan"}, "lat": 38.920511833333336, "is_disabled": 0, "lon": -77.02573016666666}, {"fusion_lat": 0.0, "type": "electric_scooter", "name": "c94f71e57d6218809cd16d9f1433903c", "fusion_lon": 0.0, "bike_id": "c94f71e57d6218809cd16d9f1433903c", "is_reserved": 0, "rental_uris": {"android": "https://dc.lft.to/lastmile_qr_scan", "ios": "https://dc.lft.to/lastmile_qr_scan"}, "lat": 38.91109183333333, "is_disabled": 0, "lon": -77.03323133333333}, {"fusion_lat": 0.0, "type": "electric_scooter", "name": "f2a5d5f5eba620d88a612272229cad2b", "fusion_lon": 0.0, "bike_id": "f2a5d5f5eba620d88a612272229cad2b", "is_reserved": 0, "rental_uris": {"android": "https://dc.lft.to/lastmile_qr_scan", "ios": "https://dc.lft.to/lastmile_qr_scan"}, "lat": 38.892195, "is_disabled": 0, "lon": -77.04308316666666}, {"fusion_lat": 0.0, "type": "electric_scooter", "name": "cca2ba5b6366df4558520e1b67fa7aec", "fusion_lon": 0.0, "bike_id": "cca2ba5b6366df4558520e1b67fa7aec", "is_reserved": 0, "rental_uris": {"android": "https://dc.lft.to/lastmile_qr_scan", "ios": "https://dc.lft.to/lastmile_qr_scan"}, "lat": 38.90063033333333, "is_disabled": 0, "lon": -77.04533566666667}, {"fusion_lat": 0.0, "type": "electric_scooter", "name": "2e619c36b049634d881f4b3089562cff", "fusion_lon": 0.0, "bike_id": "2e619c36b049634d881f4b3089562cff", "is_reserved": 0, "rental_uris": {"android": "https://dc.lft.to/lastmile_qr_scan", "ios": "https://dc.lft.to/lastmile_qr_scan"}, "lat": 38.878073, "is_disabled": 0, "lon": -77.01769333333333}, {"fusion_lat": 0.0, "type": "electric_scooter", "name": "b25774818c2f1691e47dd32161d7e466", "fusion_lon": 0.0, "bike_id": "b25774818c2f1691e47dd32161d7e466", "is_reserved": 0, "rental_uris": {"android": "https://dc.lft.to/lastmile_qr_scan", "ios": "https://dc.lft.to/lastmile_qr_scan"}, "lat": 38.892216833333336, "is_disabled": 0, "lon": -77.02218333333333}, {"fusion_lat": 0.0, "type": "electric_scooter", "name": "e13f02832930e4e386769f9c2b0a2d65", "fusion_lon": 0.0, "bike_id": "e13f02832930e4e386769f9c2b0a2d65", "is_reserved": 0, "rental_uris": {"android": "https://dc.lft.to/lastmile_qr_scan", "ios": "https://dc.lft.to/lastmile_qr_scan"}, "lat": 38.909716833333334, "is_disabled": 0, "lon": -77.0207895}, {"fusion_lat": 0.0, "type": "electric_bike", "name": "2248b5f11efaaf16b36cf61a844591cd", "fusion_lon": 0.0, "bike_id": "2248b5f11efaaf16b36cf61a844591cd", "is_reserved": 0, "rental_uris": {"android": "https://dc.lft.to/lastmile_qr_scan", "ios": "https://dc.lft.to/lastmile_qr_scan"}, "lat": 38.954972166666664, "is_disabled": 0, "lon": -76.9938045}, {"fusion_lat": 0.0, "type": "electric_scooter", "name": "019b371cc79cfb0bd9a236f7a2d2909e", "fusion_lon": 0.0, "bike_id": "019b371cc79cfb0bd9a236f7a2d2909e", "is_reserved": 0, "rental_uris": {"android": "https://dc.lft.to/lastmile_qr_scan", "ios": "https://dc.lft.to/lastmile_qr_scan"}, "lat": 38.958287, "is_disabled": 0, "lon": -77.015118}, {"fusion_lat": 0.0, "type": "electric_bike", "name": "24f4d66f029bc7ba3a788fc195003cac", "fusion_lon": 0.0, "bike_id": "24f4d66f029bc7ba3a788fc195003cac", "is_reserved": 0, "rental_uris": {"android": "https://dc.lft.to/lastmile_qr_scan", "ios": "https://dc.lft.to/lastmile_qr_scan"}, "lat": 39.0423385, "is_disabled": 0, "lon": -77.03079366666667}, {"fusion_lat": 0.0, "type": "electric_scooter", "name": "8bb07068a3103838c6deec636a5efe1f", "fusion_lon": 0.0, "bike_id": "8bb07068a3103838c6deec636a5efe1f", "is_reserved": 0, "rental_uris": {"android": "https://dc.lft.to/lastmile_qr_scan", "ios": "https://dc.lft.to/lastmile_qr_scan"}, "lat": 38.923454166666666, "is_disabled": 0, "lon": -77.04345}, {"fusion_lat": 0.0, "type": "electric_scooter", "name": "5b21dd431ab648a105cd28eacf5bd56e", "fusion_lon": 0.0, "bike_id": "5b21dd431ab648a105cd28eacf5bd56e", "is_reserved": 0, "rental_uris": {"android": "https://dc.lft.to/lastmile_qr_scan", "ios": "https://dc.lft.to/lastmile_qr_scan"}, "lat": 38.942027333333336, "is_disabled": 0, "lon": -77.02511566666666}, {"fusion_lat": 0.0, "type": "electric_scooter", "name": "7f15466d67bb02d1d869ae97ab356eeb", "fusion_lon": 0.0, "bike_id": "7f15466d67bb02d1d869ae97ab356eeb", "is_reserved": 0, "rental_uris": {"android": "https://dc.lft.to/lastmile_qr_scan", "ios": "https://dc.lft.to/lastmile_qr_scan"}, "lat": 38.8764365, "is_disabled": 0, "lon": -76.96504266666666}, {"fusion_lat": 0.0, "type": "electric_scooter", "name": "1db01e6d02aaa9efa5afcd95d30af95c", "fusion_lon": 0.0, "bike_id": "1db01e6d02aaa9efa5afcd95d30af95c", "is_reserved": 0, "rental_uris": {"android": "https://dc.lft.to/lastmile_qr_scan", "ios": "https://dc.lft.to/lastmile_qr_scan"}, "lat": 38.92843233333333, "is_disabled": 0, "lon": -77.03259266666667}, {"fusion_lat": 0.0, "type": "electric_bike", "name": "0bc9b770ea6ff5c3149f8ba054910233", "fusion_lon": 0.0, "bike_id": "0bc9b770ea6ff5c3149f8ba054910233", "is_reserved": 0, "rental_uris": {"android": "https://dc.lft.to/lastmile_qr_scan", "ios": "https://dc.lft.to/lastmile_qr_scan"}, "lat": 38.85440166666667, "is_disabled": 0, "lon": -77.083282}, {"fusion_lat": 0.0, "type": "electric_scooter", "name": "c1d14150b5a13ccc1d66601b52260441", "fusion_lon": 0.0, "bike_id": "c1d14150b5a13ccc1d66601b52260441", "is_reserved": 0, "rental_uris": {"android": "https://dc.lft.to/lastmile_qr_scan", "ios": "https://dc.lft.to/lastmile_qr_scan"}, "lat": 38.91793533333333, "is_disabled": 0, "lon": -77.03194966666666}, {"fusion_lat": 0.0, "type": "electric_scooter", "name": "005c6f544691a555cc83120a217912ce", "fusion_lon": 0.0, "bike_id": "005c6f544691a555cc83120a217912ce", "is_reserved": 0, "rental_uris": {"android": "https://dc.lft.to/lastmile_qr_scan", "ios": "https://dc.lft.to/lastmile_qr_scan"}, "lat": 38.941251, "is_disabled": 0, "lon": -77.015417}, {"fusion_lat": 0.0, "type": "electric_scooter", "name": "42a9b6a354b844020308e7e5642320f4", "fusion_lon": 0.0, "bike_id": "42a9b6a354b844020308e7e5642320f4", "is_reserved": 0, "rental_uris": {"android": "https://dc.lft.to/lastmile_qr_scan", "ios": "https://dc.lft.to/lastmile_qr_scan"}, "lat": 38.89243483333333, "is_disabled": 0, "lon": -77.04656266666667}, {"fusion_lat": 0.0, "type": "electric_scooter", "name": "13f65bb9e6e1a4325a451f903ef85b72", "fusion_lon": 0.0, "bike_id": "13f65bb9e6e1a4325a451f903ef85b72", "is_reserved": 0, "rental_uris": {"android": "https://dc.lft.to/lastmile_qr_scan", "ios": "https://dc.lft.to/lastmile_qr_scan"}, "lat": 38.96626583333333, "is_disabled": 0, "lon": -77.035056}, {"fusion_lat": 0.0, "type": "electric_scooter", "name": "0329488b3d96a5de7526df53f675b5d7", "fusion_lon": 0.0, "bike_id": "0329488b3d96a5de7526df53f675b5d7", "is_reserved": 0, "rental_uris": {"android": "https://dc.lft.to/lastmile_qr_scan", "ios": "https://dc.lft.to/lastmile_qr_scan"}, "lat": 38.92154566666667, "is_disabled": 0, "lon": -77.03381633333333}, {"fusion_lat": 0.0, "type": "electric_scooter", "name": "1a0dd1c4b3a70bccc18ad314c9530de5", "fusion_lon": 0.0, "bike_id": "1a0dd1c4b3a70bccc18ad314c9530de5", "is_reserved": 0, "rental_uris": {"android": "https://dc.lft.to/lastmile_qr_scan", "ios": "https://dc.lft.to/lastmile_qr_scan"}, "lat": 38.91882966666667, "is_disabled": 0, "lon": -77.04819933333333}, {"fusion_lat": 0.0, "type": "electric_scooter", "name": "483ecf330a2288e021456584bc4cafd7", "fusion_lon": 0.0, "bike_id": "483ecf330a2288e021456584bc4cafd7", "is_reserved": 0, "rental_uris": {"android": "https://dc.lft.to/lastmile_qr_scan", "ios": "https://dc.lft.to/lastmile_qr_scan"}, "lat": 38.90575966666667, "is_disabled": 0, "lon": -77.02597516666667}, {"fusion_lat": 0.0, "type": "electric_scooter", "name": "8576143988735141645f1b8b2e8a4da3", "fusion_lon": 0.0, "bike_id": "8576143988735141645f1b8b2e8a4da3", "is_reserved": 0, "rental_uris": {"android": "https://dc.lft.to/lastmile_qr_scan", "ios": "https://dc.lft.to/lastmile_qr_scan"}, "lat": 38.927908, "is_disabled": 0, "lon": -77.02120433333333}, {"fusion_lat": 0.0, "type": "electric_scooter", "name": "fe710d720124653a9eeeee07dbdad789", "fusion_lon": 0.0, "bike_id": "fe710d720124653a9eeeee07dbdad789", "is_reserved": 0, "rental_uris": {"android": "https://dc.lft.to/lastmile_qr_scan", "ios": "https://dc.lft.to/lastmile_qr_scan"}, "lat": 38.875341666666664, "is_disabled": 0, "lon": -77.00597483333334}, {"fusion_lat": 0.0, "type": "electric_scooter", "name": "c05a4719f805b301659bbc0d8d963a64", "fusion_lon": 0.0, "bike_id": "c05a4719f805b301659bbc0d8d963a64", "is_reserved": 0, "rental_uris": {"android": "https://dc.lft.to/lastmile_qr_scan", "ios": "https://dc.lft.to/lastmile_qr_scan"}, "lat": 38.92636616666667, "is_disabled": 0, "lon": -77.03469566666666}, {"fusion_lat": 0.0, "type": "electric_bike", "name": "5ada5874ad74371a2c7734be86c1ec5c", "fusion_lon": 0.0, "bike_id": "5ada5874ad74371a2c7734be86c1ec5c", "is_reserved": 0, "rental_uris": {"android": "https://dc.lft.to/lastmile_qr_scan", "ios": "https://dc.lft.to/lastmile_qr_scan"}, "lat": 38.857664, "is_disabled": 0, "lon": -76.9876725}, {"fusion_lat": 0.0, "type": "electric_scooter", "name": "279815ea2d2722f54e1cda21bd39d168", "fusion_lon": 0.0, "bike_id": "279815ea2d2722f54e1cda21bd39d168", "is_reserved": 0, "rental_uris": {"android": "https://dc.lft.to/lastmile_qr_scan", "ios": "https://dc.lft.to/lastmile_qr_scan"}, "lat": 38.93876933333333, "is_disabled": 0, "lon": -77.02371466666666}, {"fusion_lat": 0.0, "type": "electric_scooter", "name": "58c437c1bb2a06d140dc4186bf87d2aa", "fusion_lon": 0.0, "bike_id": "58c437c1bb2a06d140dc4186bf87d2aa", "is_reserved": 0, "rental_uris": {"android": "https://dc.lft.to/lastmile_qr_scan", "ios": "https://dc.lft.to/lastmile_qr_scan"}, "lat": 38.87469016666667, "is_disabled": 0, "lon": -77.01129983333334}, {"fusion_lat": 0.0, "type": "electric_scooter", "name": "66a31a18adf14a5bb4b7695dc51a7cf6", "fusion_lon": 0.0, "bike_id": "66a31a18adf14a5bb4b7695dc51a7cf6", "is_reserved": 0, "rental_uris": {"android": "https://dc.lft.to/lastmile_qr_scan", "ios": "https://dc.lft.to/lastmile_qr_scan"}, "lat": 38.922833833333335, "is_disabled": 0, "lon": -77.03906033333334}, {"fusion_lat": 0.0, "type": "electric_scooter", "name": "8ae5ede048047ff537c1c842083b8732", "fusion_lon": 0.0, "bike_id": "8ae5ede048047ff537c1c842083b8732", "is_reserved": 0, "rental_uris": {"android": "https://dc.lft.to/lastmile_qr_scan", "ios": "https://dc.lft.to/lastmile_qr_scan"}, "lat": 38.900199, "is_disabled": 0, "lon": -77.018522}, {"fusion_lat": 0.0, "type": "electric_scooter", "name": "c8126dfa79874433b563cd66bc11834f", "fusion_lon": 0.0, "bike_id": "c8126dfa79874433b563cd66bc11834f", "is_reserved": 0, "rental_uris": {"android": "https://dc.lft.to/lastmile_qr_scan", "ios": "https://dc.lft.to/lastmile_qr_scan"}, "lat": 38.957073666666666, "is_disabled": 0, "lon": -77.00284133333334}, {"fusion_lat": 0.0, "type": "electric_scooter", "name": "b6d7c9107bf72b3c8d954d8e1bac01d8", "fusion_lon": 0.0, "bike_id": "b6d7c9107bf72b3c8d954d8e1bac01d8", "is_reserved": 0, "rental_uris": {"android": "https://dc.lft.to/lastmile_qr_scan", "ios": "https://dc.lft.to/lastmile_qr_scan"}, "lat": 38.918927833333335, "is_disabled": 0, "lon": -77.0207575}, {"fusion_lat": 0.0, "type": "electric_scooter", "name": "ae8168fec8ea4316ee8e380fb5b16117", "fusion_lon": 0.0, "bike_id": "ae8168fec8ea4316ee8e380fb5b16117", "is_reserved": 0, "rental_uris": {"android": "https://dc.lft.to/lastmile_qr_scan", "ios": "https://dc.lft.to/lastmile_qr_scan"}, "lat": 38.898186333333335, "is_disabled": 0, "lon": -77.033083}, {"fusion_lat": 0.0, "type": "electric_scooter", "name": "6cce7d277630069e97c1afe02d3d6146", "fusion_lon": 0.0, "bike_id": "6cce7d277630069e97c1afe02d3d6146", "is_reserved": 0, "rental_uris": {"android": "https://dc.lft.to/lastmile_qr_scan", "ios": "https://dc.lft.to/lastmile_qr_scan"}, "lat": 38.89837416666667, "is_disabled": 0, "lon": -77.02276266666667}, {"fusion_lat": 0.0, "type": "electric_scooter", "name": "c2834abf62578e25ec25802e14547b10", "fusion_lon": 0.0, "bike_id": "c2834abf62578e25ec25802e14547b10", "is_reserved": 0, "rental_uris": {"android": "https://dc.lft.to/lastmile_qr_scan", "ios": "https://dc.lft.to/lastmile_qr_scan"}, "lat": 38.911177333333335, "is_disabled": 0, "lon": -77.04370166666666}, {"fusion_lat": 0.0, "type": "electric_scooter", "name": "dea5f097dcd41749a14bcf9d95948ddc", "fusion_lon": 0.0, "bike_id": "dea5f097dcd41749a14bcf9d95948ddc", "is_reserved": 0, "rental_uris": {"android": "https://dc.lft.to/lastmile_qr_scan", "ios": "https://dc.lft.to/lastmile_qr_scan"}, "lat": 38.91873566666666, "is_disabled": 0, "lon": -77.03754533333333}, {"fusion_lat": 0.0, "type": "electric_scooter", "name": "0542a39d359c09ac39c9e65268be2045", "fusion_lon": 0.0, "bike_id": "0542a39d359c09ac39c9e65268be2045", "is_reserved": 0, "rental_uris": {"android": "https://dc.lft.to/lastmile_qr_scan", "ios": "https://dc.lft.to/lastmile_qr_scan"}, "lat": 38.8874205, "is_disabled": 0, "lon": -77.02732466666667}, {"fusion_lat": 0.0, "type": "electric_scooter", "name": "790725541933019f13c1f59dd5506c0d", "fusion_lon": 0.0, "bike_id": "790725541933019f13c1f59dd5506c0d", "is_reserved": 0, "rental_uris": {"android": "https://dc.lft.to/lastmile_qr_scan", "ios": "https://dc.lft.to/lastmile_qr_scan"}, "lat": 38.924744, "is_disabled": 0, "lon": -77.02254983333333}, {"fusion_lat": 0.0, "type": "electric_scooter", "name": "da9adb1362be491a35cb7bc5b639d403", "fusion_lon": 0.0, "bike_id": "da9adb1362be491a35cb7bc5b639d403", "is_reserved": 0, "rental_uris": {"android": "https://dc.lft.to/lastmile_qr_scan", "ios": "https://dc.lft.to/lastmile_qr_scan"}, "lat": 38.892211833333334, "is_disabled": 0, "lon": -77.02347533333334}, {"fusion_lat": 0.0, "type": "electric_scooter", "name": "1510a17c421837760c8a758cf7be03ea", "fusion_lon": 0.0, "bike_id": "1510a17c421837760c8a758cf7be03ea", "is_reserved": 0, "rental_uris": {"android": "https://dc.lft.to/lastmile_qr_scan", "ios": "https://dc.lft.to/lastmile_qr_scan"}, "lat": 38.877816833333334, "is_disabled": 0, "lon": -76.99357266666667}, {"fusion_lat": 0.0, "type": "electric_scooter", "name": "74fcb497d46ea03ff9b3a89976d9a112", "fusion_lon": 0.0, "bike_id": "74fcb497d46ea03ff9b3a89976d9a112", "is_reserved": 0, "rental_uris": {"android": "https://dc.lft.to/lastmile_qr_scan", "ios": "https://dc.lft.to/lastmile_qr_scan"}, "lat": 38.903594166666664, "is_disabled": 0, "lon": -77.043328}, {"fusion_lat": 0.0, "type": "electric_scooter", "name": "ac54b93245b57e9986243090680c4ee7", "fusion_lon": 0.0, "bike_id": "ac54b93245b57e9986243090680c4ee7", "is_reserved": 0, "rental_uris": {"android": "https://dc.lft.to/lastmile_qr_scan", "ios": "https://dc.lft.to/lastmile_qr_scan"}, "lat": 38.893681, "is_disabled": 0, "lon": -77.0478565}, {"fusion_lat": 0.0, "type": "electric_scooter", "name": "5c33e4b064ed3917b01339e1ea9e1ae9", "fusion_lon": 0.0, "bike_id": "5c33e4b064ed3917b01339e1ea9e1ae9", "is_reserved": 0, "rental_uris": {"android": "https://dc.lft.to/lastmile_qr_scan", "ios": "https://dc.lft.to/lastmile_qr_scan"}, "lat": 38.865829833333336, "is_disabled": 0, "lon": -76.99036183333334}, {"fusion_lat": 0.0, "type": "electric_scooter", "name": "ba5b49e58000c31d11f8e7d154d0b518", "fusion_lon": 0.0, "bike_id": "ba5b49e58000c31d11f8e7d154d0b518", "is_reserved": 0, "rental_uris": {"android": "https://dc.lft.to/lastmile_qr_scan", "ios": "https://dc.lft.to/lastmile_qr_scan"}, "lat": 38.903906666666664, "is_disabled": 0, "lon": -77.0383735}, {"fusion_lat": 0.0, "type": "electric_scooter", "name": "e58fcc7044fe06c39fe7c3a284f927c1", "fusion_lon": 0.0, "bike_id": "e58fcc7044fe06c39fe7c3a284f927c1", "is_reserved": 0, "rental_uris": {"android": "https://dc.lft.to/lastmile_qr_scan", "ios": "https://dc.lft.to/lastmile_qr_scan"}, "lat": 38.9303555, "is_disabled": 0, "lon": -77.0129955}, {"fusion_lat": 0.0, "type": "electric_scooter", "name": "3be48e515466ccf2c08d0f029cf92b85", "fusion_lon": 0.0, "bike_id": "3be48e515466ccf2c08d0f029cf92b85", "is_reserved": 0, "rental_uris": {"android": "https://dc.lft.to/lastmile_qr_scan", "ios": "https://dc.lft.to/lastmile_qr_scan"}, "lat": 38.928166166666664, "is_disabled": 0, "lon": -77.05527983333333}, {"fusion_lat": 0.0, "type": "electric_scooter", "name": "24375f73a4fdc8e630d7934b62cb3176", "fusion_lon": 0.0, "bike_id": "24375f73a4fdc8e630d7934b62cb3176", "is_reserved": 0, "rental_uris": {"android": "https://dc.lft.to/lastmile_qr_scan", "ios": "https://dc.lft.to/lastmile_qr_scan"}, "lat": 38.88716066666667, "is_disabled": 0, "lon": -77.0217515}, {"fusion_lat": 0.0, "type": "electric_scooter", "name": "303d17c0733451947b564ffb748ea952", "fusion_lon": 0.0, "bike_id": "303d17c0733451947b564ffb748ea952", "is_reserved": 0, "rental_uris": {"android": "https://dc.lft.to/lastmile_qr_scan", "ios": "https://dc.lft.to/lastmile_qr_scan"}, "lat": 38.89217383333333, "is_disabled": 0, "lon": -77.02218466666666}, {"fusion_lat": 0.0, "type": "electric_scooter", "name": "bc8784ef5e82ac04bd5249a3712f0394", "fusion_lon": 0.0, "bike_id": "bc8784ef5e82ac04bd5249a3712f0394", "is_reserved": 0, "rental_uris": {"android": "https://dc.lft.to/lastmile_qr_scan", "ios": "https://dc.lft.to/lastmile_qr_scan"}, "lat": 38.9132585, "is_disabled": 0, "lon": -77.04536033333333}, {"fusion_lat": 0.0, "type": "electric_scooter", "name": "3659e283fdacd08ff593bb5a6ac4a9d5", "fusion_lon": 0.0, "bike_id": "3659e283fdacd08ff593bb5a6ac4a9d5", "is_reserved": 0, "rental_uris": {"android": "https://dc.lft.to/lastmile_qr_scan", "ios": "https://dc.lft.to/lastmile_qr_scan"}, "lat": 38.919992666666666, "is_disabled": 0, "lon": -77.021249}, {"fusion_lat": 0.0, "type": "electric_scooter", "name": "a73360446d0e89e076145f8f084fb291", "fusion_lon": 0.0, "bike_id": "a73360446d0e89e076145f8f084fb291", "is_reserved": 0, "rental_uris": {"android": "https://dc.lft.to/lastmile_qr_scan", "ios": "https://dc.lft.to/lastmile_qr_scan"}, "lat": 38.8898765, "is_disabled": 0, "lon": -76.9833445}, {"fusion_lat": 0.0, "type": "electric_scooter", "name": "594ffdb027826b7120bf065df943232e", "fusion_lon": 0.0, "bike_id": "594ffdb027826b7120bf065df943232e", "is_reserved": 0, "rental_uris": {"android": "https://dc.lft.to/lastmile_qr_scan", "ios": "https://dc.lft.to/lastmile_qr_scan"}, "lat": 38.89930283333333, "is_disabled": 0, "lon": -77.04013366666666}, {"fusion_lat": 0.0, "type": "electric_scooter", "name": "1b87a27e7c3148267a4a4f3f3c50c10c", "fusion_lon": 0.0, "bike_id": "1b87a27e7c3148267a4a4f3f3c50c10c", "is_reserved": 0, "rental_uris": {"android": "https://dc.lft.to/lastmile_qr_scan", "ios": "https://dc.lft.to/lastmile_qr_scan"}, "lat": 38.9298605, "is_disabled": 0, "lon": -77.03474366666667}, {"fusion_lat": 0.0, "type": "electric_scooter", "name": "85f13fe7b506ba031d78d881c9acff96", "fusion_lon": 0.0, "bike_id": "85f13fe7b506ba031d78d881c9acff96", "is_reserved": 0, "rental_uris": {"android": "https://dc.lft.to/lastmile_qr_scan", "ios": "https://dc.lft.to/lastmile_qr_scan"}, "lat": 38.92116466666667, "is_disabled": 0, "lon": -77.04682533333333}, {"fusion_lat": 0.0, "type": "electric_scooter", "name": "7651465bbd4dea82b69ff1cd3278812d", "fusion_lon": 0.0, "bike_id": "7651465bbd4dea82b69ff1cd3278812d", "is_reserved": 0, "rental_uris": {"android": "https://dc.lft.to/lastmile_qr_scan", "ios": "https://dc.lft.to/lastmile_qr_scan"}, "lat": 38.90005016666667, "is_disabled": 0, "lon": -77.04497266666667}, {"fusion_lat": 0.0, "type": "electric_scooter", "name": "d9ecb6b69f038e45c2401f1481b9dd92", "fusion_lon": 0.0, "bike_id": "d9ecb6b69f038e45c2401f1481b9dd92", "is_reserved": 0, "rental_uris": {"android": "https://dc.lft.to/lastmile_qr_scan", "ios": "https://dc.lft.to/lastmile_qr_scan"}, "lat": 38.9522855, "is_disabled": 0, "lon": -77.01425816666666}, {"fusion_lat": 0.0, "type": "electric_scooter", "name": "b32ea85a783b853bc69f71f2bd14c6e3", "fusion_lon": 0.0, "bike_id": "b32ea85a783b853bc69f71f2bd14c6e3", "is_reserved": 0, "rental_uris": {"android": "https://dc.lft.to/lastmile_qr_scan", "ios": "https://dc.lft.to/lastmile_qr_scan"}, "lat": 38.9019755, "is_disabled": 0, "lon": -77.02162866666667}, {"fusion_lat": 0.0, "type": "electric_scooter", "name": "58b4c728a3126e33410f4de57ba73196", "fusion_lon": 0.0, "bike_id": "58b4c728a3126e33410f4de57ba73196", "is_reserved": 0, "rental_uris": {"android": "https://dc.lft.to/lastmile_qr_scan", "ios": "https://dc.lft.to/lastmile_qr_scan"}, "lat": 38.887199333333335, "is_disabled": 0, "lon": -77.02193366666667}, {"fusion_lat": 0.0, "type": "electric_scooter", "name": "b7516893ae20259197c0e3571ac7721b", "fusion_lon": 0.0, "bike_id": "b7516893ae20259197c0e3571ac7721b", "is_reserved": 0, "rental_uris": {"android": "https://dc.lft.to/lastmile_qr_scan", "ios": "https://dc.lft.to/lastmile_qr_scan"}, "lat": 38.905486833333335, "is_disabled": 0, "lon": -77.03383633333333}, {"fusion_lat": 0.0, "type": "electric_bike", "name": "1951c3bd6367b49cf564871ef0a1663a", "fusion_lon": 0.0, "bike_id": "1951c3bd6367b49cf564871ef0a1663a", "is_reserved": 0, "rental_uris": {"android": "https://dc.lft.to/lastmile_qr_scan", "ios": "https://dc.lft.to/lastmile_qr_scan"}, "lat": 38.8981095, "is_disabled": 0, "lon": -77.00601483333334}, {"fusion_lat": 0.0, "type": "electric_scooter", "name": "f9aba1c2a18bc737778e03427bd55034", "fusion_lon": 0.0, "bike_id": "f9aba1c2a18bc737778e03427bd55034", "is_reserved": 0, "rental_uris": {"android": "https://dc.lft.to/lastmile_qr_scan", "ios": "https://dc.lft.to/lastmile_qr_scan"}, "lat": 38.950640666666665, "is_disabled": 0, "lon": -77.08012783333334}, {"fusion_lat": 0.0, "type": "electric_scooter", "name": "2b3d0dfdf9be8f0e97d8226118e38231", "fusion_lon": 0.0, "bike_id": "2b3d0dfdf9be8f0e97d8226118e38231", "is_reserved": 0, "rental_uris": {"android": "https://dc.lft.to/lastmile_qr_scan", "ios": "https://dc.lft.to/lastmile_qr_scan"}, "lat": 38.89226266666667, "is_disabled": 0, "lon": -77.0318605}, {"fusion_lat": 0.0, "type": "electric_scooter", "name": "28d804808ebd7c66e77707753f86f1d2", "fusion_lon": 0.0, "bike_id": "28d804808ebd7c66e77707753f86f1d2", "is_reserved": 0, "rental_uris": {"android": "https://dc.lft.to/lastmile_qr_scan", "ios": "https://dc.lft.to/lastmile_qr_scan"}, "lat": 38.892700166666664, "is_disabled": 0, "lon": -77.04869483333333}, {"fusion_lat": 0.0, "type": "electric_bike", "name": "920aa2422bbc296523a66e217df0c2fc", "fusion_lon": 0.0, "bike_id": "920aa2422bbc296523a66e217df0c2fc", "is_reserved": 0, "rental_uris": {"android": "https://dc.lft.to/lastmile_qr_scan", "ios": "https://dc.lft.to/lastmile_qr_scan"}, "lat": 38.92043916666667, "is_disabled": 0, "lon": -76.99902016666667}, {"fusion_lat": 0.0, "type": "electric_scooter", "name": "95f7c402213c13c547191937791ec0bb", "fusion_lon": 0.0, "bike_id": "95f7c402213c13c547191937791ec0bb", "is_reserved": 0, "rental_uris": {"android": "https://dc.lft.to/lastmile_qr_scan", "ios": "https://dc.lft.to/lastmile_qr_scan"}, "lat": 38.931712833333336, "is_disabled": 0, "lon": -77.07100183333333}, {"fusion_lat": 0.0, "type": "electric_scooter", "name": "8ee9540f239ba0077cd7b6a2abcd3305", "fusion_lon": 0.0, "bike_id": "8ee9540f239ba0077cd7b6a2abcd3305", "is_reserved": 0, "rental_uris": {"android": "https://dc.lft.to/lastmile_qr_scan", "ios": "https://dc.lft.to/lastmile_qr_scan"}, "lat": 38.90082, "is_disabled": 0, "lon": -76.930205}, {"fusion_lat": 0.0, "type": "electric_scooter", "name": "87a1c9d255a88e71ec2f843f5c9e0fbe", "fusion_lon": 0.0, "bike_id": "87a1c9d255a88e71ec2f843f5c9e0fbe", "is_reserved": 0, "rental_uris": {"android": "https://dc.lft.to/lastmile_qr_scan", "ios": "https://dc.lft.to/lastmile_qr_scan"}, "lat": 38.94429366666667, "is_disabled": 0, "lon": -77.02602766666666}, {"fusion_lat": 0.0, "type": "electric_scooter", "name": "788f6f7320f1bb5fdd03710282f0ebe1", "fusion_lon": 0.0, "bike_id": "788f6f7320f1bb5fdd03710282f0ebe1", "is_reserved": 0, "rental_uris": {"android": "https://dc.lft.to/lastmile_qr_scan", "ios": "https://dc.lft.to/lastmile_qr_scan"}, "lat": 38.9164595, "is_disabled": 0, "lon": -77.02178316666667}, {"fusion_lat": 0.0, "type": "electric_scooter", "name": "6d80cbd5c702c488d5bd1efac747c5f0", "fusion_lon": 0.0, "bike_id": "6d80cbd5c702c488d5bd1efac747c5f0", "is_reserved": 0, "rental_uris": {"android": "https://dc.lft.to/lastmile_qr_scan", "ios": "https://dc.lft.to/lastmile_qr_scan"}, "lat": 38.891952833333335, "is_disabled": 0, "lon": -77.02623583333333}, {"fusion_lat": 0.0, "type": "electric_scooter", "name": "166b4542af172ef3bdb0a07909b1940f", "fusion_lon": 0.0, "bike_id": "166b4542af172ef3bdb0a07909b1940f", "is_reserved": 0, "rental_uris": {"android": "https://dc.lft.to/lastmile_qr_scan", "ios": "https://dc.lft.to/lastmile_qr_scan"}, "lat": 38.872036, "is_disabled": 0, "lon": -76.97837916666667}, {"fusion_lat": 0.0, "type": "electric_scooter", "name": "069c7d5af6bd91f1a69f0d23874847eb", "fusion_lon": 0.0, "bike_id": "069c7d5af6bd91f1a69f0d23874847eb", "is_reserved": 0, "rental_uris": {"android": "https://dc.lft.to/lastmile_qr_scan", "ios": "https://dc.lft.to/lastmile_qr_scan"}, "lat": 38.855365666666664, "is_disabled": 0, "lon": -76.984197}, {"fusion_lat": 0.0, "type": "electric_scooter", "name": "d254fd29aaae0768b50559cad9e2175c", "fusion_lon": 0.0, "bike_id": "d254fd29aaae0768b50559cad9e2175c", "is_reserved": 0, "rental_uris": {"android": "https://dc.lft.to/lastmile_qr_scan", "ios": "https://dc.lft.to/lastmile_qr_scan"}, "lat": 38.884819, "is_disabled": 0, "lon": -76.92618233333333}, {"fusion_lat": 0.0, "type": "electric_bike", "name": "c400f3c560069b94f8e60806d6d359ca", "fusion_lon": 0.0, "bike_id": "c400f3c560069b94f8e60806d6d359ca", "is_reserved": 0, "rental_uris": {"android": "https://dc.lft.to/lastmile_qr_scan", "ios": "https://dc.lft.to/lastmile_qr_scan"}, "lat": 38.90949533333333, "is_disabled": 0, "lon": -77.05474133333334}, {"fusion_lat": 0.0, "type": "electric_scooter", "name": "a2b4b3e63ae3c0e4bd4de397b1dd6ff3", "fusion_lon": 0.0, "bike_id": "a2b4b3e63ae3c0e4bd4de397b1dd6ff3", "is_reserved": 0, "rental_uris": {"android": "https://dc.lft.to/lastmile_qr_scan", "ios": "https://dc.lft.to/lastmile_qr_scan"}, "lat": 38.93573933333333, "is_disabled": 0, "lon": -77.08105783333333}, {"fusion_lat": 0.0, "type": "electric_scooter", "name": "f1c6eefe38aecd356ccdad7f95215c9d", "fusion_lon": 0.0, "bike_id": "f1c6eefe38aecd356ccdad7f95215c9d", "is_reserved": 0, "rental_uris": {"android": "https://dc.lft.to/lastmile_qr_scan", "ios": "https://dc.lft.to/lastmile_qr_scan"}, "lat": 38.8972085, "is_disabled": 0, "lon": -77.02724516666666}, {"fusion_lat": 0.0, "type": "electric_scooter", "name": "e5000d809fb457cfbf27b9d94f097c2f", "fusion_lon": 0.0, "bike_id": "e5000d809fb457cfbf27b9d94f097c2f", "is_reserved": 0, "rental_uris": {"android": "https://dc.lft.to/lastmile_qr_scan", "ios": "https://dc.lft.to/lastmile_qr_scan"}, "lat": 38.9118785, "is_disabled": 0, "lon": -77.00090333333333}, {"fusion_lat": 0.0, "type": "electric_scooter", "name": "606a72a9ade6f38167ae3c6fe0bbb9ca", "fusion_lon": 0.0, "bike_id": "606a72a9ade6f38167ae3c6fe0bbb9ca", "is_reserved": 0, "rental_uris": {"android": "https://dc.lft.to/lastmile_qr_scan", "ios": "https://dc.lft.to/lastmile_qr_scan"}, "lat": 38.90727116666667, "is_disabled": 0, "lon": -77.04231616666667}, {"fusion_lat": 0.0, "type": "electric_scooter", "name": "9a681dc67348196e179997c27d2f0f78", "fusion_lon": 0.0, "bike_id": "9a681dc67348196e179997c27d2f0f78", "is_reserved": 0, "rental_uris": {"android": "https://dc.lft.to/lastmile_qr_scan", "ios": "https://dc.lft.to/lastmile_qr_scan"}, "lat": 38.95125016666667, "is_disabled": 0, "lon": -76.9867235}, {"fusion_lat": 0.0, "type": "electric_scooter", "name": "fdbef43e61cd4eb65b10a80906ed38b9", "fusion_lon": 0.0, "bike_id": "fdbef43e61cd4eb65b10a80906ed38b9", "is_reserved": 0, "rental_uris": {"android": "https://dc.lft.to/lastmile_qr_scan", "ios": "https://dc.lft.to/lastmile_qr_scan"}, "lat": 38.925143, "is_disabled": 0, "lon": -77.05041216666666}, {"fusion_lat": 0.0, "type": "electric_scooter", "name": "9d7d8b20a71e758a0a416f39049d7067", "fusion_lon": 0.0, "bike_id": "9d7d8b20a71e758a0a416f39049d7067", "is_reserved": 0, "rental_uris": {"android": "https://dc.lft.to/lastmile_qr_scan", "ios": "https://dc.lft.to/lastmile_qr_scan"}, "lat": 38.90974633333333, "is_disabled": 0, "lon": -77.034019}, {"fusion_lat": 0.0, "type": "electric_scooter", "name": "38ffec6f2a763d812f4b4bc16ee79da6", "fusion_lon": 0.0, "bike_id": "38ffec6f2a763d812f4b4bc16ee79da6", "is_reserved": 0, "rental_uris": {"android": "https://dc.lft.to/lastmile_qr_scan", "ios": "https://dc.lft.to/lastmile_qr_scan"}, "lat": 38.89236066666667, "is_disabled": 0, "lon": -77.02798083333333}, {"fusion_lat": 0.0, "type": "electric_scooter", "name": "3352c51607805ae7e3c1ca7d0d28108d", "fusion_lon": 0.0, "bike_id": "3352c51607805ae7e3c1ca7d0d28108d", "is_reserved": 0, "rental_uris": {"android": "https://dc.lft.to/lastmile_qr_scan", "ios": "https://dc.lft.to/lastmile_qr_scan"}, "lat": 38.89751433333333, "is_disabled": 0, "lon": -77.033019}, {"fusion_lat": 0.0, "type": "electric_scooter", "name": "0f742fc12ddcdc91224ef6357b32a478", "fusion_lon": 0.0, "bike_id": "0f742fc12ddcdc91224ef6357b32a478", "is_reserved": 0, "rental_uris": {"android": "https://dc.lft.to/lastmile_qr_scan", "ios": "https://dc.lft.to/lastmile_qr_scan"}, "lat": 38.89726066666667, "is_disabled": 0, "lon": -77.02449833333333}, {"fusion_lat": 0.0, "type": "electric_scooter", "name": "0863acecc8a6e52a44ed538a29a00072", "fusion_lon": 0.0, "bike_id": "0863acecc8a6e52a44ed538a29a00072", "is_reserved": 0, "rental_uris": {"android": "https://dc.lft.to/lastmile_qr_scan", "ios": "https://dc.lft.to/lastmile_qr_scan"}, "lat": 38.892354166666664, "is_disabled": 0, "lon": -77.04159316666667}, {"fusion_lat": 0.0, "type": "electric_scooter", "name": "26e36953dabd1358ef90f8ffb0590e22", "fusion_lon": 0.0, "bike_id": "26e36953dabd1358ef90f8ffb0590e22", "is_reserved": 0, "rental_uris": {"android": "https://dc.lft.to/lastmile_qr_scan", "ios": "https://dc.lft.to/lastmile_qr_scan"}, "lat": 38.90268833333333, "is_disabled": 0, "lon": -77.034412}, {"fusion_lat": 0.0, "type": "electric_scooter", "name": "e76f5557b7fe68d93961496e2dea1d66", "fusion_lon": 0.0, "bike_id": "e76f5557b7fe68d93961496e2dea1d66", "is_reserved": 0, "rental_uris": {"android": "https://dc.lft.to/lastmile_qr_scan", "ios": "https://dc.lft.to/lastmile_qr_scan"}, "lat": 38.85173266666666, "is_disabled": 0, "lon": -76.99581033333334}, {"fusion_lat": 0.0, "type": "electric_scooter", "name": "3a539ba2e719b82168c076789cac27dd", "fusion_lon": 0.0, "bike_id": "3a539ba2e719b82168c076789cac27dd", "is_reserved": 0, "rental_uris": {"android": "https://dc.lft.to/lastmile_qr_scan", "ios": "https://dc.lft.to/lastmile_qr_scan"}, "lat": 38.911221833333336, "is_disabled": 0, "lon": -77.02077433333334}, {"fusion_lat": 0.0, "type": "electric_scooter", "name": "d077cf744cc55f75f5a8702ac2866497", "fusion_lon": 0.0, "bike_id": "d077cf744cc55f75f5a8702ac2866497", "is_reserved": 0, "rental_uris": {"android": "https://dc.lft.to/lastmile_qr_scan", "ios": "https://dc.lft.to/lastmile_qr_scan"}, "lat": 38.9058365, "is_disabled": 0, "lon": -77.00271883333333}, {"fusion_lat": 0.0, "type": "electric_scooter", "name": "0308c0c7c41710926707611c8b02ee23", "fusion_lon": 0.0, "bike_id": "0308c0c7c41710926707611c8b02ee23", "is_reserved": 0, "rental_uris": {"android": "https://dc.lft.to/lastmile_qr_scan", "ios": "https://dc.lft.to/lastmile_qr_scan"}, "lat": 38.8995255, "is_disabled": 0, "lon": -77.04517116666666}, {"fusion_lat": 0.0, "type": "electric_scooter", "name": "e5d4a331fad2760b40f2088222f13370", "fusion_lon": 0.0, "bike_id": "e5d4a331fad2760b40f2088222f13370", "is_reserved": 0, "rental_uris": {"android": "https://dc.lft.to/lastmile_qr_scan", "ios": "https://dc.lft.to/lastmile_qr_scan"}, "lat": 38.9261435, "is_disabled": 0, "lon": -77.0431675}, {"fusion_lat": 0.0, "type": "electric_scooter", "name": "553c6507cf6590bc68003efe794167ab", "fusion_lon": 0.0, "bike_id": "553c6507cf6590bc68003efe794167ab", "is_reserved": 0, "rental_uris": {"android": "https://dc.lft.to/lastmile_qr_scan", "ios": "https://dc.lft.to/lastmile_qr_scan"}, "lat": 38.90201533333333, "is_disabled": 0, "lon": -77.031843}, {"fusion_lat": 0.0, "type": "electric_scooter", "name": "47eebcfda20563db1a7ac9e00ae5f3b2", "fusion_lon": 0.0, "bike_id": "47eebcfda20563db1a7ac9e00ae5f3b2", "is_reserved": 0, "rental_uris": {"android": "https://dc.lft.to/lastmile_qr_scan", "ios": "https://dc.lft.to/lastmile_qr_scan"}, "lat": 38.9155055, "is_disabled": 0, "lon": -77.02425733333334}, {"fusion_lat": 0.0, "type": "electric_scooter", "name": "5fa7df3d38efabcf89ae6a356dd2291e", "fusion_lon": 0.0, "bike_id": "5fa7df3d38efabcf89ae6a356dd2291e", "is_reserved": 0, "rental_uris": {"android": "https://dc.lft.to/lastmile_qr_scan", "ios": "https://dc.lft.to/lastmile_qr_scan"}, "lat": 38.903374166666666, "is_disabled": 0, "lon": -76.9827665}, {"fusion_lat": 0.0, "type": "electric_scooter", "name": "08312ab0cca12e1dde0653d5e9bd0f2e", "fusion_lon": 0.0, "bike_id": "08312ab0cca12e1dde0653d5e9bd0f2e", "is_reserved": 0, "rental_uris": {"android": "https://dc.lft.to/lastmile_qr_scan", "ios": "https://dc.lft.to/lastmile_qr_scan"}, "lat": 38.900519333333335, "is_disabled": 0, "lon": -77.04807416666667}, {"fusion_lat": 0.0, "type": "electric_scooter", "name": "46d8218dfa217756a6ce716fae1e8757", "fusion_lon": 0.0, "bike_id": "46d8218dfa217756a6ce716fae1e8757", "is_reserved": 0, "rental_uris": {"android": "https://dc.lft.to/lastmile_qr_scan", "ios": "https://dc.lft.to/lastmile_qr_scan"}, "lat": 38.892240666666666, "is_disabled": 0, "lon": -77.03188533333334}, {"fusion_lat": 0.0, "type": "electric_scooter", "name": "e2126150723b603c93a5d8d0b7b716cd", "fusion_lon": 0.0, "bike_id": "e2126150723b603c93a5d8d0b7b716cd", "is_reserved": 0, "rental_uris": {"android": "https://dc.lft.to/lastmile_qr_scan", "ios": "https://dc.lft.to/lastmile_qr_scan"}, "lat": 38.907145666666665, "is_disabled": 0, "lon": -77.0742505}, {"fusion_lat": 0.0, "type": "electric_scooter", "name": "dbad0110da91ecee17b76861f8030116", "fusion_lon": 0.0, "bike_id": "dbad0110da91ecee17b76861f8030116", "is_reserved": 0, "rental_uris": {"android": "https://dc.lft.to/lastmile_qr_scan", "ios": "https://dc.lft.to/lastmile_qr_scan"}, "lat": 38.95730066666667, "is_disabled": 0, "lon": -77.02404916666667}, {"fusion_lat": 0.0, "type": "electric_scooter", "name": "093d88b97741fe497e988a735704dcbd", "fusion_lon": 0.0, "bike_id": "093d88b97741fe497e988a735704dcbd", "is_reserved": 0, "rental_uris": {"android": "https://dc.lft.to/lastmile_qr_scan", "ios": "https://dc.lft.to/lastmile_qr_scan"}, "lat": 38.88526566666667, "is_disabled": 0, "lon": -77.0057715}, {"fusion_lat": 0.0, "type": "electric_scooter", "name": "45e914299eda1bd2fc67a6235a111d45", "fusion_lon": 0.0, "bike_id": "45e914299eda1bd2fc67a6235a111d45", "is_reserved": 0, "rental_uris": {"android": "https://dc.lft.to/lastmile_qr_scan", "ios": "https://dc.lft.to/lastmile_qr_scan"}, "lat": 38.89835566666667, "is_disabled": 0, "lon": -77.02968266666667}, {"fusion_lat": 0.0, "type": "electric_scooter", "name": "ee19a907f1b8ad4bc4b9037fb4caccb9", "fusion_lon": 0.0, "bike_id": "ee19a907f1b8ad4bc4b9037fb4caccb9", "is_reserved": 0, "rental_uris": {"android": "https://dc.lft.to/lastmile_qr_scan", "ios": "https://dc.lft.to/lastmile_qr_scan"}, "lat": 38.89220733333333, "is_disabled": 0, "lon": -77.0322025}, {"fusion_lat": 0.0, "type": "electric_scooter", "name": "90f5f76f6c3662d0b43958ed3a9e3e46", "fusion_lon": 0.0, "bike_id": "90f5f76f6c3662d0b43958ed3a9e3e46", "is_reserved": 0, "rental_uris": {"android": "https://dc.lft.to/lastmile_qr_scan", "ios": "https://dc.lft.to/lastmile_qr_scan"}, "lat": 38.909799166666666, "is_disabled": 0, "lon": -77.02171066666666}, {"fusion_lat": 0.0, "type": "electric_scooter", "name": "3aae5b4b7b70826e445a3ac4e13d05e7", "fusion_lon": 0.0, "bike_id": "3aae5b4b7b70826e445a3ac4e13d05e7", "is_reserved": 0, "rental_uris": {"android": "https://dc.lft.to/lastmile_qr_scan", "ios": "https://dc.lft.to/lastmile_qr_scan"}, "lat": 38.909666333333334, "is_disabled": 0, "lon": -77.03470533333333}, {"fusion_lat": 0.0, "type": "electric_scooter", "name": "b2545c7e7159e1b7ec369235e6871e17", "fusion_lon": 0.0, "bike_id": "b2545c7e7159e1b7ec369235e6871e17", "is_reserved": 0, "rental_uris": {"android": "https://dc.lft.to/lastmile_qr_scan", "ios": "https://dc.lft.to/lastmile_qr_scan"}, "lat": 38.92441483333333, "is_disabled": 0, "lon": -77.03405883333333}, {"fusion_lat": 0.0, "type": "electric_scooter", "name": "df276b38f2700c9f1c3a8a4866c5ce52", "fusion_lon": 0.0, "bike_id": "df276b38f2700c9f1c3a8a4866c5ce52", "is_reserved": 0, "rental_uris": {"android": "https://dc.lft.to/lastmile_qr_scan", "ios": "https://dc.lft.to/lastmile_qr_scan"}, "lat": 38.86697083333333, "is_disabled": 0, "lon": -76.98594966666667}, {"fusion_lat": 0.0, "type": "electric_scooter", "name": "425c90540706d20587c8b5bc1c970891", "fusion_lon": 0.0, "bike_id": "425c90540706d20587c8b5bc1c970891", "is_reserved": 0, "rental_uris": {"android": "https://dc.lft.to/lastmile_qr_scan", "ios": "https://dc.lft.to/lastmile_qr_scan"}, "lat": 38.900091, "is_disabled": 0, "lon": -76.93028266666667}, {"fusion_lat": 0.0, "type": "electric_scooter", "name": "9cae46ac5e650eb8d079fe1f9e0ecf0a", "fusion_lon": 0.0, "bike_id": "9cae46ac5e650eb8d079fe1f9e0ecf0a", "is_reserved": 0, "rental_uris": {"android": "https://dc.lft.to/lastmile_qr_scan", "ios": "https://dc.lft.to/lastmile_qr_scan"}, "lat": 38.90735333333333, "is_disabled": 0, "lon": -77.04518116666667}, {"fusion_lat": 0.0, "type": "electric_scooter", "name": "976ce66652c8707474ca5112625d6e59", "fusion_lon": 0.0, "bike_id": "976ce66652c8707474ca5112625d6e59", "is_reserved": 0, "rental_uris": {"android": "https://dc.lft.to/lastmile_qr_scan", "ios": "https://dc.lft.to/lastmile_qr_scan"}, "lat": 38.919113, "is_disabled": 0, "lon": -77.0314225}, {"fusion_lat": 0.0, "type": "electric_scooter", "name": "54da0f784370f8d8e0a0d53a4fe50511", "fusion_lon": 0.0, "bike_id": "54da0f784370f8d8e0a0d53a4fe50511", "is_reserved": 0, "rental_uris": {"android": "https://dc.lft.to/lastmile_qr_scan", "ios": "https://dc.lft.to/lastmile_qr_scan"}, "lat": 38.925354666666664, "is_disabled": 0, "lon": -76.97217766666667}, {"fusion_lat": 0.0, "type": "electric_scooter", "name": "9e390cf7f29c025f51e623bf5a2b0f09", "fusion_lon": 0.0, "bike_id": "9e390cf7f29c025f51e623bf5a2b0f09", "is_reserved": 0, "rental_uris": {"android": "https://dc.lft.to/lastmile_qr_scan", "ios": "https://dc.lft.to/lastmile_qr_scan"}, "lat": 38.897320666666666, "is_disabled": 0, "lon": -77.02722333333334}, {"fusion_lat": 0.0, "type": "electric_scooter", "name": "b3d149d408c12dba1471276002e0647b", "fusion_lon": 0.0, "bike_id": "b3d149d408c12dba1471276002e0647b", "is_reserved": 0, "rental_uris": {"android": "https://dc.lft.to/lastmile_qr_scan", "ios": "https://dc.lft.to/lastmile_qr_scan"}, "lat": 38.92874883333333, "is_disabled": 0, "lon": -77.03647566666666}, {"fusion_lat": 0.0, "type": "electric_scooter", "name": "66f0448ddbace6bc9611db2e2e6dbf9b", "fusion_lon": 0.0, "bike_id": "66f0448ddbace6bc9611db2e2e6dbf9b", "is_reserved": 0, "rental_uris": {"android": "https://dc.lft.to/lastmile_qr_scan", "ios": "https://dc.lft.to/lastmile_qr_scan"}, "lat": 38.92422366666667, "is_disabled": 0, "lon": -77.0518865}, {"fusion_lat": 0.0, "type": "electric_scooter", "name": "7641ff3eef3fe41bff29d34f1fdb235d", "fusion_lon": 0.0, "bike_id": "7641ff3eef3fe41bff29d34f1fdb235d", "is_reserved": 0, "rental_uris": {"android": "https://dc.lft.to/lastmile_qr_scan", "ios": "https://dc.lft.to/lastmile_qr_scan"}, "lat": 38.900341166666664, "is_disabled": 0, "lon": -77.01192633333334}, {"fusion_lat": 0.0, "type": "electric_bike", "name": "d3b0f8fc46919afb419779d833b3ecd7", "fusion_lon": 0.0, "bike_id": "d3b0f8fc46919afb419779d833b3ecd7", "is_reserved": 0, "rental_uris": {"android": "https://dc.lft.to/lastmile_qr_scan", "ios": "https://dc.lft.to/lastmile_qr_scan"}, "lat": 38.969021, "is_disabled": 0, "lon": -76.9949425}, {"fusion_lat": 0.0, "type": "electric_scooter", "name": "1a2c768d3ef734bf5ef408eb6f980235", "fusion_lon": 0.0, "bike_id": "1a2c768d3ef734bf5ef408eb6f980235", "is_reserved": 0, "rental_uris": {"android": "https://dc.lft.to/lastmile_qr_scan", "ios": "https://dc.lft.to/lastmile_qr_scan"}, "lat": 38.88739733333333, "is_disabled": 0, "lon": -77.03157}, {"fusion_lat": 0.0, "type": "electric_scooter", "name": "06de1a44af523a6a17bd93214da66d2e", "fusion_lon": 0.0, "bike_id": "06de1a44af523a6a17bd93214da66d2e", "is_reserved": 0, "rental_uris": {"android": "https://dc.lft.to/lastmile_qr_scan", "ios": "https://dc.lft.to/lastmile_qr_scan"}, "lat": 38.90860816666667, "is_disabled": 0, "lon": -77.01358516666667}, {"fusion_lat": 0.0, "type": "electric_scooter", "name": "e5c4d0331aab5c880f901988c27426e0", "fusion_lon": 0.0, "bike_id": "e5c4d0331aab5c880f901988c27426e0", "is_reserved": 0, "rental_uris": {"android": "https://dc.lft.to/lastmile_qr_scan", "ios": "https://dc.lft.to/lastmile_qr_scan"}, "lat": 38.902728333333336, "is_disabled": 0, "lon": -77.03004}, {"fusion_lat": 0.0, "type": "electric_scooter", "name": "8c57d1e87e63628673fb4a21f2f5cc5f", "fusion_lon": 0.0, "bike_id": "8c57d1e87e63628673fb4a21f2f5cc5f", "is_reserved": 0, "rental_uris": {"android": "https://dc.lft.to/lastmile_qr_scan", "ios": "https://dc.lft.to/lastmile_qr_scan"}, "lat": 38.90765833333333, "is_disabled": 0, "lon": -77.03577766666666}, {"fusion_lat": 0.0, "type": "electric_scooter", "name": "bca7df19ce4959d40628885fd8772850", "fusion_lon": 0.0, "bike_id": "bca7df19ce4959d40628885fd8772850", "is_reserved": 0, "rental_uris": {"android": "https://dc.lft.to/lastmile_qr_scan", "ios": "https://dc.lft.to/lastmile_qr_scan"}, "lat": 38.917034, "is_disabled": 0, "lon": -77.034275}, {"fusion_lat": 0.0, "type": "electric_bike", "name": "76fff4e5604548773a4f901fc45e7de6", "fusion_lon": 0.0, "bike_id": "76fff4e5604548773a4f901fc45e7de6", "is_reserved": 0, "rental_uris": {"android": "https://dc.lft.to/lastmile_qr_scan", "ios": "https://dc.lft.to/lastmile_qr_scan"}, "lat": 38.963181666666664, "is_disabled": 0, "lon": -76.973597}, {"fusion_lat": 0.0, "type": "electric_scooter", "name": "0131039108117eeb282d7aa64eaab387", "fusion_lon": 0.0, "bike_id": "0131039108117eeb282d7aa64eaab387", "is_reserved": 0, "rental_uris": {"android": "https://dc.lft.to/lastmile_qr_scan", "ios": "https://dc.lft.to/lastmile_qr_scan"}, "lat": 38.9075325, "is_disabled": 0, "lon": -77.041469}, {"fusion_lat": 0.0, "type": "electric_scooter", "name": "3ebd0349bddb33dc8b8a3ee195a4fd96", "fusion_lon": 0.0, "bike_id": "3ebd0349bddb33dc8b8a3ee195a4fd96", "is_reserved": 0, "rental_uris": {"android": "https://dc.lft.to/lastmile_qr_scan", "ios": "https://dc.lft.to/lastmile_qr_scan"}, "lat": 38.933756333333335, "is_disabled": 0, "lon": -77.02960716666666}, {"fusion_lat": 0.0, "type": "electric_scooter", "name": "ff1b0965aaffbb5ffa0ce456c89ea9f2", "fusion_lon": 0.0, "bike_id": "ff1b0965aaffbb5ffa0ce456c89ea9f2", "is_reserved": 0, "rental_uris": {"android": "https://dc.lft.to/lastmile_qr_scan", "ios": "https://dc.lft.to/lastmile_qr_scan"}, "lat": 38.908673, "is_disabled": 0, "lon": -77.085902}, {"fusion_lat": 0.0, "type": "electric_scooter", "name": "5d5edef1e7d7ada6f792802c95d4e4ed", "fusion_lon": 0.0, "bike_id": "5d5edef1e7d7ada6f792802c95d4e4ed", "is_reserved": 0, "rental_uris": {"android": "https://dc.lft.to/lastmile_qr_scan", "ios": "https://dc.lft.to/lastmile_qr_scan"}, "lat": 38.9403295, "is_disabled": 0, "lon": -77.02978883333333}, {"fusion_lat": 0.0, "type": "electric_scooter", "name": "04f4c438cdf85f22e9389362a9254638", "fusion_lon": 0.0, "bike_id": "04f4c438cdf85f22e9389362a9254638", "is_reserved": 0, "rental_uris": {"android": "https://dc.lft.to/lastmile_qr_scan", "ios": "https://dc.lft.to/lastmile_qr_scan"}, "lat": 38.883633833333334, "is_disabled": 0, "lon": -76.9950135}, {"fusion_lat": 0.0, "type": "electric_scooter", "name": "a742d2621c49bf4dbb8448012b6b4105", "fusion_lon": 0.0, "bike_id": "a742d2621c49bf4dbb8448012b6b4105", "is_reserved": 0, "rental_uris": {"android": "https://dc.lft.to/lastmile_qr_scan", "ios": "https://dc.lft.to/lastmile_qr_scan"}, "lat": 38.86409666666667, "is_disabled": 0, "lon": -77.01224416666666}, {"fusion_lat": 0.0, "type": "electric_scooter", "name": "4f33ea582baddec41208bd47c4afa1be", "fusion_lon": 0.0, "bike_id": "4f33ea582baddec41208bd47c4afa1be", "is_reserved": 0, "rental_uris": {"android": "https://dc.lft.to/lastmile_qr_scan", "ios": "https://dc.lft.to/lastmile_qr_scan"}, "lat": 38.922467833333336, "is_disabled": 0, "lon": -77.0091705}, {"fusion_lat": 0.0, "type": "electric_scooter", "name": "ac9c426eec9b122a4ea687c837fcfcc9", "fusion_lon": 0.0, "bike_id": "ac9c426eec9b122a4ea687c837fcfcc9", "is_reserved": 0, "rental_uris": {"android": "https://dc.lft.to/lastmile_qr_scan", "ios": "https://dc.lft.to/lastmile_qr_scan"}, "lat": 38.873641666666664, "is_disabled": 0, "lon": -77.00602166666667}, {"fusion_lat": 0.0, "type": "electric_scooter", "name": "e9c94e30fcebf7ffb80416e77d54b09c", "fusion_lon": 0.0, "bike_id": "e9c94e30fcebf7ffb80416e77d54b09c", "is_reserved": 0, "rental_uris": {"android": "https://dc.lft.to/lastmile_qr_scan", "ios": "https://dc.lft.to/lastmile_qr_scan"}, "lat": 38.91562966666667, "is_disabled": 0, "lon": -77.02582983333333}, {"fusion_lat": 0.0, "type": "electric_scooter", "name": "e20113b7af7ed742f5f10b718de963b6", "fusion_lon": 0.0, "bike_id": "e20113b7af7ed742f5f10b718de963b6", "is_reserved": 0, "rental_uris": {"android": "https://dc.lft.to/lastmile_qr_scan", "ios": "https://dc.lft.to/lastmile_qr_scan"}, "lat": 38.89605616666667, "is_disabled": 0, "lon": -77.04986316666667}, {"fusion_lat": 0.0, "type": "electric_scooter", "name": "99940b23f5aaec7eac5e090cf325b617", "fusion_lon": 0.0, "bike_id": "99940b23f5aaec7eac5e090cf325b617", "is_reserved": 0, "rental_uris": {"android": "https://dc.lft.to/lastmile_qr_scan", "ios": "https://dc.lft.to/lastmile_qr_scan"}, "lat": 38.896324166666666, "is_disabled": 0, "lon": -77.0320565}, {"fusion_lat": 0.0, "type": "electric_scooter", "name": "654aea2568b0d66cc89b7034373324bd", "fusion_lon": 0.0, "bike_id": "654aea2568b0d66cc89b7034373324bd", "is_reserved": 0, "rental_uris": {"android": "https://dc.lft.to/lastmile_qr_scan", "ios": "https://dc.lft.to/lastmile_qr_scan"}, "lat": 38.892293, "is_disabled": 0, "lon": -77.05000016666666}, {"fusion_lat": 0.0, "type": "electric_scooter", "name": "7971317e50b5039d987ef7fd0d5c9473", "fusion_lon": 0.0, "bike_id": "7971317e50b5039d987ef7fd0d5c9473", "is_reserved": 0, "rental_uris": {"android": "https://dc.lft.to/lastmile_qr_scan", "ios": "https://dc.lft.to/lastmile_qr_scan"}, "lat": 38.9527335, "is_disabled": 0, "lon": -77.068447}, {"fusion_lat": 0.0, "type": "electric_scooter", "name": "dff8a9d14b7fb6f301bc1fecea0350e9", "fusion_lon": 0.0, "bike_id": "dff8a9d14b7fb6f301bc1fecea0350e9", "is_reserved": 0, "rental_uris": {"android": "https://dc.lft.to/lastmile_qr_scan", "ios": "https://dc.lft.to/lastmile_qr_scan"}, "lat": 38.926157833333335, "is_disabled": 0, "lon": -77.04321283333333}, {"fusion_lat": 0.0, "type": "electric_scooter", "name": "bd194ca67d17ddcef5439d45c95b9681", "fusion_lon": 0.0, "bike_id": "bd194ca67d17ddcef5439d45c95b9681", "is_reserved": 0, "rental_uris": {"android": "https://dc.lft.to/lastmile_qr_scan", "ios": "https://dc.lft.to/lastmile_qr_scan"}, "lat": 38.924745, "is_disabled": 0, "lon": -77.02669033333333}, {"fusion_lat": 0.0, "type": "electric_scooter", "name": "d2b545c161afb2c9ef369a37ac13215d", "fusion_lon": 0.0, "bike_id": "d2b545c161afb2c9ef369a37ac13215d", "is_reserved": 0, "rental_uris": {"android": "https://dc.lft.to/lastmile_qr_scan", "ios": "https://dc.lft.to/lastmile_qr_scan"}, "lat": 38.951826, "is_disabled": 0, "lon": -77.026142}, {"fusion_lat": 0.0, "type": "electric_scooter", "name": "102bcf09df12e6692052561a1779c3a2", "fusion_lon": 0.0, "bike_id": "102bcf09df12e6692052561a1779c3a2", "is_reserved": 0, "rental_uris": {"android": "https://dc.lft.to/lastmile_qr_scan", "ios": "https://dc.lft.to/lastmile_qr_scan"}, "lat": 38.92159683333333, "is_disabled": 0, "lon": -77.03379333333334}, {"fusion_lat": 0.0, "type": "electric_bike", "name": "901eb3fa38b40a6a02d3f839b62803a3", "fusion_lon": 0.0, "bike_id": "901eb3fa38b40a6a02d3f839b62803a3", "is_reserved": 0, "rental_uris": {"android": "https://dc.lft.to/lastmile_qr_scan", "ios": "https://dc.lft.to/lastmile_qr_scan"}, "lat": 38.9532675, "is_disabled": 0, "lon": -76.954353}, {"fusion_lat": 0.0, "type": "electric_scooter", "name": "c4671901c07cd1ebbfc962eff65d8470", "fusion_lon": 0.0, "bike_id": "c4671901c07cd1ebbfc962eff65d8470", "is_reserved": 0, "rental_uris": {"android": "https://dc.lft.to/lastmile_qr_scan", "ios": "https://dc.lft.to/lastmile_qr_scan"}, "lat": 38.9183755, "is_disabled": 0, "lon": -77.0595055}, {"fusion_lat": 0.0, "type": "electric_scooter", "name": "707eceaba39059f39809ef38b8796b0e", "fusion_lon": 0.0, "bike_id": "707eceaba39059f39809ef38b8796b0e", "is_reserved": 0, "rental_uris": {"android": "https://dc.lft.to/lastmile_qr_scan", "ios": "https://dc.lft.to/lastmile_qr_scan"}, "lat": 38.91376183333333, "is_disabled": 0, "lon": -77.03139916666667}, {"fusion_lat": 0.0, "type": "electric_scooter", "name": "d6a5e03b3d0f501121687e4e3705d7ee", "fusion_lon": 0.0, "bike_id": "d6a5e03b3d0f501121687e4e3705d7ee", "is_reserved": 0, "rental_uris": {"android": "https://dc.lft.to/lastmile_qr_scan", "ios": "https://dc.lft.to/lastmile_qr_scan"}, "lat": 38.88903666666667, "is_disabled": 0, "lon": -77.0492045}, {"fusion_lat": 0.0, "type": "electric_scooter", "name": "51c63bb5f53b2358b114b378030f3c55", "fusion_lon": 0.0, "bike_id": "51c63bb5f53b2358b114b378030f3c55", "is_reserved": 0, "rental_uris": {"android": "https://dc.lft.to/lastmile_qr_scan", "ios": "https://dc.lft.to/lastmile_qr_scan"}, "lat": 38.905789666666664, "is_disabled": 0, "lon": -77.046066}, {"fusion_lat": 0.0, "type": "electric_bike", "name": "a136dbdd20d674a85a3827089f2e3540", "fusion_lon": 0.0, "bike_id": "a136dbdd20d674a85a3827089f2e3540", "is_reserved": 0, "rental_uris": {"android": "https://dc.lft.to/lastmile_qr_scan", "ios": "https://dc.lft.to/lastmile_qr_scan"}, "lat": 38.9322515, "is_disabled": 0, "lon": -77.18121933333333}, {"fusion_lat": 0.0, "type": "electric_scooter", "name": "f20d7fb7e26dab6ebcd3a7c3a313235c", "fusion_lon": 0.0, "bike_id": "f20d7fb7e26dab6ebcd3a7c3a313235c", "is_reserved": 0, "rental_uris": {"android": "https://dc.lft.to/lastmile_qr_scan", "ios": "https://dc.lft.to/lastmile_qr_scan"}, "lat": 38.91638016666667, "is_disabled": 0, "lon": -77.047865}, {"fusion_lat": 0.0, "type": "electric_scooter", "name": "e62e34052e537d0c74b8c91743a9f01e", "fusion_lon": 0.0, "bike_id": "e62e34052e537d0c74b8c91743a9f01e", "is_reserved": 0, "rental_uris": {"android": "https://dc.lft.to/lastmile_qr_scan", "ios": "https://dc.lft.to/lastmile_qr_scan"}, "lat": 38.8989705, "is_disabled": 0, "lon": -76.99382933333334}, {"fusion_lat": 0.0, "type": "electric_scooter", "name": "f9392fe48441e855a3b183ee44ea06fa", "fusion_lon": 0.0, "bike_id": "f9392fe48441e855a3b183ee44ea06fa", "is_reserved": 0, "rental_uris": {"android": "https://dc.lft.to/lastmile_qr_scan", "ios": "https://dc.lft.to/lastmile_qr_scan"}, "lat": 38.92458116666667, "is_disabled": 0, "lon": -77.02972483333333}, {"fusion_lat": 0.0, "type": "electric_scooter", "name": "6b378932addabf269c4764ccdcb08e47", "fusion_lon": 0.0, "bike_id": "6b378932addabf269c4764ccdcb08e47", "is_reserved": 0, "rental_uris": {"android": "https://dc.lft.to/lastmile_qr_scan", "ios": "https://dc.lft.to/lastmile_qr_scan"}, "lat": 38.91127083333333, "is_disabled": 0, "lon": -77.02198866666667}, {"fusion_lat": 0.0, "type": "electric_scooter", "name": "7d66f1c6908bad9a5e35b1c659693631", "fusion_lon": 0.0, "bike_id": "7d66f1c6908bad9a5e35b1c659693631", "is_reserved": 0, "rental_uris": {"android": "https://dc.lft.to/lastmile_qr_scan", "ios": "https://dc.lft.to/lastmile_qr_scan"}, "lat": 38.9130495, "is_disabled": 0, "lon": -77.0384075}, {"fusion_lat": 0.0, "type": "electric_scooter", "name": "84e1ddfd3c0a209874f89c0d5a265757", "fusion_lon": 0.0, "bike_id": "84e1ddfd3c0a209874f89c0d5a265757", "is_reserved": 0, "rental_uris": {"android": "https://dc.lft.to/lastmile_qr_scan", "ios": "https://dc.lft.to/lastmile_qr_scan"}, "lat": 38.919028833333336, "is_disabled": 0, "lon": -77.02962983333333}, {"fusion_lat": 0.0, "type": "electric_scooter", "name": "1b561735fd58c89e6916ab5b87b911d0", "fusion_lon": 0.0, "bike_id": "1b561735fd58c89e6916ab5b87b911d0", "is_reserved": 0, "rental_uris": {"android": "https://dc.lft.to/lastmile_qr_scan", "ios": "https://dc.lft.to/lastmile_qr_scan"}, "lat": 38.908784833333335, "is_disabled": 0, "lon": -76.99857783333333}, {"fusion_lat": 0.0, "type": "electric_scooter", "name": "408d636a6c478d956e6c0aeeb3145695", "fusion_lon": 0.0, "bike_id": "408d636a6c478d956e6c0aeeb3145695", "is_reserved": 0, "rental_uris": {"android": "https://dc.lft.to/lastmile_qr_scan", "ios": "https://dc.lft.to/lastmile_qr_scan"}, "lat": 38.901776166666664, "is_disabled": 0, "lon": -76.9286695}, {"fusion_lat": 0.0, "type": "electric_scooter", "name": "672a49c056a58282bd374dfe5d91ccb9", "fusion_lon": 0.0, "bike_id": "672a49c056a58282bd374dfe5d91ccb9", "is_reserved": 0, "rental_uris": {"android": "https://dc.lft.to/lastmile_qr_scan", "ios": "https://dc.lft.to/lastmile_qr_scan"}, "lat": 38.909630666666665, "is_disabled": 0, "lon": -77.04700466666667}, {"fusion_lat": 0.0, "type": "electric_scooter", "name": "b5f1fba529d90529d6f505584da4c058", "fusion_lon": 0.0, "bike_id": "b5f1fba529d90529d6f505584da4c058", "is_reserved": 0, "rental_uris": {"android": "https://dc.lft.to/lastmile_qr_scan", "ios": "https://dc.lft.to/lastmile_qr_scan"}, "lat": 38.877154, "is_disabled": 0, "lon": -77.0175505}, {"fusion_lat": 0.0, "type": "electric_scooter", "name": "274f29251a755886eca867299cd437a1", "fusion_lon": 0.0, "bike_id": "274f29251a755886eca867299cd437a1", "is_reserved": 0, "rental_uris": {"android": "https://dc.lft.to/lastmile_qr_scan", "ios": "https://dc.lft.to/lastmile_qr_scan"}, "lat": 38.86682416666667, "is_disabled": 0, "lon": -76.9859615}, {"fusion_lat": 0.0, "type": "electric_scooter", "name": "26c925897760f71f8e615c5c7d75d79a", "fusion_lon": 0.0, "bike_id": "26c925897760f71f8e615c5c7d75d79a", "is_reserved": 0, "rental_uris": {"android": "https://dc.lft.to/lastmile_qr_scan", "ios": "https://dc.lft.to/lastmile_qr_scan"}, "lat": 38.902719833333336, "is_disabled": 0, "lon": -77.03962783333333}, {"fusion_lat": 0.0, "type": "electric_scooter", "name": "8ea243eb25e7fe1388b74c92a45acf02", "fusion_lon": 0.0, "bike_id": "8ea243eb25e7fe1388b74c92a45acf02", "is_reserved": 0, "rental_uris": {"android": "https://dc.lft.to/lastmile_qr_scan", "ios": "https://dc.lft.to/lastmile_qr_scan"}, "lat": 38.907283666666665, "is_disabled": 0, "lon": -77.03450666666667}, {"fusion_lat": 0.0, "type": "electric_scooter", "name": "0bb6982b57b1ae9b46e02a0b720e5d33", "fusion_lon": 0.0, "bike_id": "0bb6982b57b1ae9b46e02a0b720e5d33", "is_reserved": 0, "rental_uris": {"android": "https://dc.lft.to/lastmile_qr_scan", "ios": "https://dc.lft.to/lastmile_qr_scan"}, "lat": 38.90555366666667, "is_disabled": 0, "lon": -77.04697216666666}, {"fusion_lat": 0.0, "type": "electric_scooter", "name": "51808a1ed4d04f0963e562b9820478a6", "fusion_lon": 0.0, "bike_id": "51808a1ed4d04f0963e562b9820478a6", "is_reserved": 0, "rental_uris": {"android": "https://dc.lft.to/lastmile_qr_scan", "ios": "https://dc.lft.to/lastmile_qr_scan"}, "lat": 38.9118155, "is_disabled": 0, "lon": -77.035252}, {"fusion_lat": 0.0, "type": "electric_scooter", "name": "1ff6f1e6b28f573b3e000b5d4979e329", "fusion_lon": 0.0, "bike_id": "1ff6f1e6b28f573b3e000b5d4979e329", "is_reserved": 0, "rental_uris": {"android": "https://dc.lft.to/lastmile_qr_scan", "ios": "https://dc.lft.to/lastmile_qr_scan"}, "lat": 38.9164195, "is_disabled": 0, "lon": -77.02171816666667}, {"fusion_lat": 0.0, "type": "electric_scooter", "name": "68cb2e616d2baf6ab12de18665d601c4", "fusion_lon": 0.0, "bike_id": "68cb2e616d2baf6ab12de18665d601c4", "is_reserved": 0, "rental_uris": {"android": "https://dc.lft.to/lastmile_qr_scan", "ios": "https://dc.lft.to/lastmile_qr_scan"}, "lat": 38.91002616666667, "is_disabled": 0, "lon": -77.02096566666667}, {"fusion_lat": 0.0, "type": "electric_scooter", "name": "7505446d49083d42ce7f025022516378", "fusion_lon": 0.0, "bike_id": "7505446d49083d42ce7f025022516378", "is_reserved": 0, "rental_uris": {"android": "https://dc.lft.to/lastmile_qr_scan", "ios": "https://dc.lft.to/lastmile_qr_scan"}, "lat": 38.924842166666664, "is_disabled": 0, "lon": -77.0213905}, {"fusion_lat": 0.0, "type": "electric_scooter", "name": "b9d85cef2f0ec0e15891a8ecad3e7088", "fusion_lon": 0.0, "bike_id": "b9d85cef2f0ec0e15891a8ecad3e7088", "is_reserved": 0, "rental_uris": {"android": "https://dc.lft.to/lastmile_qr_scan", "ios": "https://dc.lft.to/lastmile_qr_scan"}, "lat": 38.8499325, "is_disabled": 0, "lon": -76.983477}, {"fusion_lat": 0.0, "type": "electric_scooter", "name": "a435fa5e86726bfc60307f06882e9397", "fusion_lon": 0.0, "bike_id": "a435fa5e86726bfc60307f06882e9397", "is_reserved": 0, "rental_uris": {"android": "https://dc.lft.to/lastmile_qr_scan", "ios": "https://dc.lft.to/lastmile_qr_scan"}, "lat": 38.892255666666664, "is_disabled": 0, "lon": -77.0489595}, {"fusion_lat": 0.0, "type": "electric_scooter", "name": "145fb88d0893480d29285372f0785eb9", "fusion_lon": 0.0, "bike_id": "145fb88d0893480d29285372f0785eb9", "is_reserved": 0, "rental_uris": {"android": "https://dc.lft.to/lastmile_qr_scan", "ios": "https://dc.lft.to/lastmile_qr_scan"}, "lat": 38.908106833333335, "is_disabled": 0, "lon": -77.04360066666666}, {"fusion_lat": 0.0, "type": "electric_scooter", "name": "485a23523723efec7690ba674246235f", "fusion_lon": 0.0, "bike_id": "485a23523723efec7690ba674246235f", "is_reserved": 0, "rental_uris": {"android": "https://dc.lft.to/lastmile_qr_scan", "ios": "https://dc.lft.to/lastmile_qr_scan"}, "lat": 38.92416816666667, "is_disabled": 0, "lon": -77.02273583333333}, {"fusion_lat": 0.0, "type": "electric_scooter", "name": "d7ceaa830573625f952b8719788366af", "fusion_lon": 0.0, "bike_id": "d7ceaa830573625f952b8719788366af", "is_reserved": 0, "rental_uris": {"android": "https://dc.lft.to/lastmile_qr_scan", "ios": "https://dc.lft.to/lastmile_qr_scan"}, "lat": 38.89169233333333, "is_disabled": 0, "lon": -76.91191533333334}, {"fusion_lat": 0.0, "type": "electric_scooter", "name": "ee915a685ec1b90abf6e9a55e9c1b741", "fusion_lon": 0.0, "bike_id": "ee915a685ec1b90abf6e9a55e9c1b741", "is_reserved": 0, "rental_uris": {"android": "https://dc.lft.to/lastmile_qr_scan", "ios": "https://dc.lft.to/lastmile_qr_scan"}, "lat": 38.923306, "is_disabled": 0, "lon": -77.04455866666666}, {"fusion_lat": 0.0, "type": "electric_scooter", "name": "e06ca5102e51113b909de83ea1d1da49", "fusion_lon": 0.0, "bike_id": "e06ca5102e51113b909de83ea1d1da49", "is_reserved": 0, "rental_uris": {"android": "https://dc.lft.to/lastmile_qr_scan", "ios": "https://dc.lft.to/lastmile_qr_scan"}, "lat": 38.8640235, "is_disabled": 0, "lon": -76.97439566666667}, {"fusion_lat": 0.0, "type": "electric_scooter", "name": "ac839d659d12d7a83fb6eb44b75293a6", "fusion_lon": 0.0, "bike_id": "ac839d659d12d7a83fb6eb44b75293a6", "is_reserved": 0, "rental_uris": {"android": "https://dc.lft.to/lastmile_qr_scan", "ios": "https://dc.lft.to/lastmile_qr_scan"}, "lat": 38.900020833333336, "is_disabled": 0, "lon": -77.0068395}, {"fusion_lat": 0.0, "type": "electric_scooter", "name": "29b8384fa31db1d7318923f83b76378c", "fusion_lon": 0.0, "bike_id": "29b8384fa31db1d7318923f83b76378c", "is_reserved": 0, "rental_uris": {"android": "https://dc.lft.to/lastmile_qr_scan", "ios": "https://dc.lft.to/lastmile_qr_scan"}, "lat": 38.8921845, "is_disabled": 0, "lon": -77.0322685}, {"fusion_lat": 0.0, "type": "electric_scooter", "name": "cb0ac5765a2268de7ff6a98a631b7a7c", "fusion_lon": 0.0, "bike_id": "cb0ac5765a2268de7ff6a98a631b7a7c", "is_reserved": 0, "rental_uris": {"android": "https://dc.lft.to/lastmile_qr_scan", "ios": "https://dc.lft.to/lastmile_qr_scan"}, "lat": 38.891431833333336, "is_disabled": 0, "lon": -76.98382316666667}, {"fusion_lat": 0.0, "type": "electric_scooter", "name": "516881de2dd324ef87cfdef393e9c7a8", "fusion_lon": 0.0, "bike_id": "516881de2dd324ef87cfdef393e9c7a8", "is_reserved": 0, "rental_uris": {"android": "https://dc.lft.to/lastmile_qr_scan", "ios": "https://dc.lft.to/lastmile_qr_scan"}, "lat": 38.923516, "is_disabled": 0, "lon": -77.035351}, {"fusion_lat": 0.0, "type": "electric_scooter", "name": "cacd1b036062c4203afbe80429d8f644", "fusion_lon": 0.0, "bike_id": "cacd1b036062c4203afbe80429d8f644", "is_reserved": 0, "rental_uris": {"android": "https://dc.lft.to/lastmile_qr_scan", "ios": "https://dc.lft.to/lastmile_qr_scan"}, "lat": 38.90767433333333, "is_disabled": 0, "lon": -77.03495166666667}, {"fusion_lat": 0.0, "type": "electric_scooter", "name": "eac6b950afd1e262ad2e42a285f6d15f", "fusion_lon": 0.0, "bike_id": "eac6b950afd1e262ad2e42a285f6d15f", "is_reserved": 0, "rental_uris": {"android": "https://dc.lft.to/lastmile_qr_scan", "ios": "https://dc.lft.to/lastmile_qr_scan"}, "lat": 38.907259833333335, "is_disabled": 0, "lon": -76.98694166666667}, {"fusion_lat": 0.0, "type": "electric_scooter", "name": "5cc3600c95599eb2a56cd2da347aabb8", "fusion_lon": 0.0, "bike_id": "5cc3600c95599eb2a56cd2da347aabb8", "is_reserved": 0, "rental_uris": {"android": "https://dc.lft.to/lastmile_qr_scan", "ios": "https://dc.lft.to/lastmile_qr_scan"}, "lat": 38.89238566666667, "is_disabled": 0, "lon": -77.0220315}, {"fusion_lat": 0.0, "type": "electric_bike", "name": "6cf64b40a803aeb1b2631cdf5e7a6e91", "fusion_lon": 0.0, "bike_id": "6cf64b40a803aeb1b2631cdf5e7a6e91", "is_reserved": 0, "rental_uris": {"android": "https://dc.lft.to/lastmile_qr_scan", "ios": "https://dc.lft.to/lastmile_qr_scan"}, "lat": 39.043023833333336, "is_disabled": 0, "lon": -77.05158183333333}, {"fusion_lat": 0.0, "type": "electric_scooter", "name": "fb1e52c95806baa289a184ee95edad64", "fusion_lon": 0.0, "bike_id": "fb1e52c95806baa289a184ee95edad64", "is_reserved": 0, "rental_uris": {"android": "https://dc.lft.to/lastmile_qr_scan", "ios": "https://dc.lft.to/lastmile_qr_scan"}, "lat": 38.92365983333333, "is_disabled": 0, "lon": -77.01916966666667}, {"fusion_lat": 0.0, "type": "electric_scooter", "name": "1cd4676f64a6218ec6c852cff6f483f8", "fusion_lon": 0.0, "bike_id": "1cd4676f64a6218ec6c852cff6f483f8", "is_reserved": 0, "rental_uris": {"android": "https://dc.lft.to/lastmile_qr_scan", "ios": "https://dc.lft.to/lastmile_qr_scan"}, "lat": 38.898691666666664, "is_disabled": 0, "lon": -77.039329}, {"fusion_lat": 0.0, "type": "electric_scooter", "name": "fe90ecc25936f1b0affd24044ea6620d", "fusion_lon": 0.0, "bike_id": "fe90ecc25936f1b0affd24044ea6620d", "is_reserved": 0, "rental_uris": {"android": "https://dc.lft.to/lastmile_qr_scan", "ios": "https://dc.lft.to/lastmile_qr_scan"}, "lat": 38.930975833333335, "is_disabled": 0, "lon": -77.0253845}, {"fusion_lat": 0.0, "type": "electric_scooter", "name": "78b48972e6c7faa750dba12759ceb9cd", "fusion_lon": 0.0, "bike_id": "78b48972e6c7faa750dba12759ceb9cd", "is_reserved": 0, "rental_uris": {"android": "https://dc.lft.to/lastmile_qr_scan", "ios": "https://dc.lft.to/lastmile_qr_scan"}, "lat": 38.89876733333333, "is_disabled": 0, "lon": -77.03268183333333}, {"fusion_lat": 0.0, "type": "electric_scooter", "name": "52b52b5cd441bc081f5e18b8318c09c4", "fusion_lon": 0.0, "bike_id": "52b52b5cd441bc081f5e18b8318c09c4", "is_reserved": 0, "rental_uris": {"android": "https://dc.lft.to/lastmile_qr_scan", "ios": "https://dc.lft.to/lastmile_qr_scan"}, "lat": 38.905073333333334, "is_disabled": 0, "lon": -76.99607366666666}, {"fusion_lat": 0.0, "type": "electric_scooter", "name": "f2161415f16c1443790e5d932ad64e5b", "fusion_lon": 0.0, "bike_id": "f2161415f16c1443790e5d932ad64e5b", "is_reserved": 0, "rental_uris": {"android": "https://dc.lft.to/lastmile_qr_scan", "ios": "https://dc.lft.to/lastmile_qr_scan"}, "lat": 38.9023085, "is_disabled": 0, "lon": -77.02681083333333}, {"fusion_lat": 0.0, "type": "electric_scooter", "name": "d1edf4f5d1c3202c9fe80a1006769858", "fusion_lon": 0.0, "bike_id": "d1edf4f5d1c3202c9fe80a1006769858", "is_reserved": 0, "rental_uris": {"android": "https://dc.lft.to/lastmile_qr_scan", "ios": "https://dc.lft.to/lastmile_qr_scan"}, "lat": 38.897892166666665, "is_disabled": 0, "lon": -77.05001683333333}, {"fusion_lat": 0.0, "type": "electric_scooter", "name": "cf83a14f5f495bbcca865fe217e5d231", "fusion_lon": 0.0, "bike_id": "cf83a14f5f495bbcca865fe217e5d231", "is_reserved": 0, "rental_uris": {"android": "https://dc.lft.to/lastmile_qr_scan", "ios": "https://dc.lft.to/lastmile_qr_scan"}, "lat": 38.86233583333333, "is_disabled": 0, "lon": -76.994893}, {"fusion_lat": 0.0, "type": "electric_scooter", "name": "95498ca572bc33d0b596ed397c37d75a", "fusion_lon": 0.0, "bike_id": "95498ca572bc33d0b596ed397c37d75a", "is_reserved": 0, "rental_uris": {"android": "https://dc.lft.to/lastmile_qr_scan", "ios": "https://dc.lft.to/lastmile_qr_scan"}, "lat": 38.91180766666667, "is_disabled": 0, "lon": -77.03489}, {"fusion_lat": 0.0, "type": "electric_scooter", "name": "8383181b2eb8403859e6702d8d126551", "fusion_lon": 0.0, "bike_id": "8383181b2eb8403859e6702d8d126551", "is_reserved": 0, "rental_uris": {"android": "https://dc.lft.to/lastmile_qr_scan", "ios": "https://dc.lft.to/lastmile_qr_scan"}, "lat": 38.9357295, "is_disabled": 0, "lon": -77.02124533333334}, {"fusion_lat": 0.0, "type": "electric_scooter", "name": "bfae5720fd0b12d44fb6ef3746f47ef8", "fusion_lon": 0.0, "bike_id": "bfae5720fd0b12d44fb6ef3746f47ef8", "is_reserved": 0, "rental_uris": {"android": "https://dc.lft.to/lastmile_qr_scan", "ios": "https://dc.lft.to/lastmile_qr_scan"}, "lat": 38.92470016666667, "is_disabled": 0, "lon": -77.03911266666667}, {"fusion_lat": 0.0, "type": "electric_scooter", "name": "7bed5fa13d747678ab4c13bc5bb5543d", "fusion_lon": 0.0, "bike_id": "7bed5fa13d747678ab4c13bc5bb5543d", "is_reserved": 0, "rental_uris": {"android": "https://dc.lft.to/lastmile_qr_scan", "ios": "https://dc.lft.to/lastmile_qr_scan"}, "lat": 38.920364166666666, "is_disabled": 0, "lon": -76.9973835}, {"fusion_lat": 0.0, "type": "electric_scooter", "name": "e3dca9179448b53b782c47e39f16bef1", "fusion_lon": 0.0, "bike_id": "e3dca9179448b53b782c47e39f16bef1", "is_reserved": 0, "rental_uris": {"android": "https://dc.lft.to/lastmile_qr_scan", "ios": "https://dc.lft.to/lastmile_qr_scan"}, "lat": 38.896052166666664, "is_disabled": 0, "lon": -76.99970433333333}, {"fusion_lat": 0.0, "type": "electric_scooter", "name": "04505f3c99aab97f585600faeacb885d", "fusion_lon": 0.0, "bike_id": "04505f3c99aab97f585600faeacb885d", "is_reserved": 0, "rental_uris": {"android": "https://dc.lft.to/lastmile_qr_scan", "ios": "https://dc.lft.to/lastmile_qr_scan"}, "lat": 38.900345, "is_disabled": 0, "lon": -77.03203283333333}, {"fusion_lat": 0.0, "type": "electric_scooter", "name": "6107771796f9973cad2319a3edf2533d", "fusion_lon": 0.0, "bike_id": "6107771796f9973cad2319a3edf2533d", "is_reserved": 0, "rental_uris": {"android": "https://dc.lft.to/lastmile_qr_scan", "ios": "https://dc.lft.to/lastmile_qr_scan"}, "lat": 38.90189, "is_disabled": 0, "lon": -77.02352683333334}, {"fusion_lat": 0.0, "type": "electric_scooter", "name": "a4dd510b7e1d0e038e0e295a9704570b", "fusion_lon": 0.0, "bike_id": "a4dd510b7e1d0e038e0e295a9704570b", "is_reserved": 0, "rental_uris": {"android": "https://dc.lft.to/lastmile_qr_scan", "ios": "https://dc.lft.to/lastmile_qr_scan"}, "lat": 38.92246816666667, "is_disabled": 0, "lon": -77.02974983333333}, {"fusion_lat": 0.0, "type": "electric_scooter", "name": "328fb7ff379d90a40bca3e18d6b29d26", "fusion_lon": 0.0, "bike_id": "328fb7ff379d90a40bca3e18d6b29d26", "is_reserved": 0, "rental_uris": {"android": "https://dc.lft.to/lastmile_qr_scan", "ios": "https://dc.lft.to/lastmile_qr_scan"}, "lat": 38.908365, "is_disabled": 0, "lon": -77.035584}, {"fusion_lat": 0.0, "type": "electric_bike", "name": "a55ff5202a062fb5ea4095f6c3f0ee0e", "fusion_lon": 0.0, "bike_id": "a55ff5202a062fb5ea4095f6c3f0ee0e", "is_reserved": 0, "rental_uris": {"android": "https://dc.lft.to/lastmile_qr_scan", "ios": "https://dc.lft.to/lastmile_qr_scan"}, "lat": 39.057877, "is_disabled": 0, "lon": -77.15018333333333}, {"fusion_lat": 0.0, "type": "electric_scooter", "name": "f4090cf0d41b6326a98f535f4e5c54ea", "fusion_lon": 0.0, "bike_id": "f4090cf0d41b6326a98f535f4e5c54ea", "is_reserved": 0, "rental_uris": {"android": "https://dc.lft.to/lastmile_qr_scan", "ios": "https://dc.lft.to/lastmile_qr_scan"}, "lat": 38.902817166666665, "is_disabled": 0, "lon": -77.0459225}, {"fusion_lat": 0.0, "type": "electric_scooter", "name": "7a0ae41d3fe1647fe4b5b9da30c38d63", "fusion_lon": 0.0, "bike_id": "7a0ae41d3fe1647fe4b5b9da30c38d63", "is_reserved": 0, "rental_uris": {"android": "https://dc.lft.to/lastmile_qr_scan", "ios": "https://dc.lft.to/lastmile_qr_scan"}, "lat": 38.912522333333335, "is_disabled": 0, "lon": -77.04415766666666}, {"fusion_lat": 0.0, "type": "electric_scooter", "name": "0a367b963f2cf87673524b76ea74f742", "fusion_lon": 0.0, "bike_id": "0a367b963f2cf87673524b76ea74f742", "is_reserved": 0, "rental_uris": {"android": "https://dc.lft.to/lastmile_qr_scan", "ios": "https://dc.lft.to/lastmile_qr_scan"}, "lat": 38.8922315, "is_disabled": 0, "lon": -77.04865966666667}, {"fusion_lat": 0.0, "type": "electric_scooter", "name": "eaab6eb5bbb474481e79e7bdf41f87b6", "fusion_lon": 0.0, "bike_id": "eaab6eb5bbb474481e79e7bdf41f87b6", "is_reserved": 0, "rental_uris": {"android": "https://dc.lft.to/lastmile_qr_scan", "ios": "https://dc.lft.to/lastmile_qr_scan"}, "lat": 38.912723666666665, "is_disabled": 0, "lon": -77.04742416666667}, {"fusion_lat": 0.0, "type": "electric_scooter", "name": "40fdadfbe5b481fd1bf896ec72d9858f", "fusion_lon": 0.0, "bike_id": "40fdadfbe5b481fd1bf896ec72d9858f", "is_reserved": 0, "rental_uris": {"android": "https://dc.lft.to/lastmile_qr_scan", "ios": "https://dc.lft.to/lastmile_qr_scan"}, "lat": 38.9085935, "is_disabled": 0, "lon": -77.04259566666667}, {"fusion_lat": 0.0, "type": "electric_bike", "name": "66b607f2bc50a2450a0841861fc95d33", "fusion_lon": 0.0, "bike_id": "66b607f2bc50a2450a0841861fc95d33", "is_reserved": 0, "rental_uris": {"android": "https://dc.lft.to/lastmile_qr_scan", "ios": "https://dc.lft.to/lastmile_qr_scan"}, "lat": 38.9497045, "is_disabled": 0, "lon": -77.08221416666666}, {"fusion_lat": 0.0, "type": "electric_scooter", "name": "4fd6cf4666e8491ad608a0f0b3662a5b", "fusion_lon": 0.0, "bike_id": "4fd6cf4666e8491ad608a0f0b3662a5b", "is_reserved": 0, "rental_uris": {"android": "https://dc.lft.to/lastmile_qr_scan", "ios": "https://dc.lft.to/lastmile_qr_scan"}, "lat": 38.92155416666667, "is_disabled": 0, "lon": -77.0338325}, {"fusion_lat": 0.0, "type": "electric_scooter", "name": "3417409c579a123e8aa7bb045edf867b", "fusion_lon": 0.0, "bike_id": "3417409c579a123e8aa7bb045edf867b", "is_reserved": 0, "rental_uris": {"android": "https://dc.lft.to/lastmile_qr_scan", "ios": "https://dc.lft.to/lastmile_qr_scan"}, "lat": 38.92448733333333, "is_disabled": 0, "lon": -77.0575775}, {"fusion_lat": 0.0, "type": "electric_scooter", "name": "520f364e700929a67527c612b1047ab5", "fusion_lon": 0.0, "bike_id": "520f364e700929a67527c612b1047ab5", "is_reserved": 0, "rental_uris": {"android": "https://dc.lft.to/lastmile_qr_scan", "ios": "https://dc.lft.to/lastmile_qr_scan"}, "lat": 38.925493333333335, "is_disabled": 0, "lon": -77.02960866666666}, {"fusion_lat": 0.0, "type": "electric_scooter", "name": "3dbc2d76a133b5c35f73263a56763db6", "fusion_lon": 0.0, "bike_id": "3dbc2d76a133b5c35f73263a56763db6", "is_reserved": 0, "rental_uris": {"android": "https://dc.lft.to/lastmile_qr_scan", "ios": "https://dc.lft.to/lastmile_qr_scan"}, "lat": 38.914413333333336, "is_disabled": 0, "lon": -77.06700183333334}, {"fusion_lat": 0.0, "type": "electric_bike", "name": "babdb2f1e62a6c51b69282ca216e8a0d", "fusion_lon": 0.0, "bike_id": "babdb2f1e62a6c51b69282ca216e8a0d", "is_reserved": 0, "rental_uris": {"android": "https://dc.lft.to/lastmile_qr_scan", "ios": "https://dc.lft.to/lastmile_qr_scan"}, "lat": 38.9079355, "is_disabled": 0, "lon": -77.07163333333334}, {"fusion_lat": 0.0, "type": "electric_scooter", "name": "1f9307f3c3d5d58d28d5e2447fd551b7", "fusion_lon": 0.0, "bike_id": "1f9307f3c3d5d58d28d5e2447fd551b7", "is_reserved": 0, "rental_uris": {"android": "https://dc.lft.to/lastmile_qr_scan", "ios": "https://dc.lft.to/lastmile_qr_scan"}, "lat": 38.911131833333336, "is_disabled": 0, "lon": -77.0436035}, {"fusion_lat": 0.0, "type": "electric_scooter", "name": "16d8d34f77a8948abc8acd928694c17a", "fusion_lon": 0.0, "bike_id": "16d8d34f77a8948abc8acd928694c17a", "is_reserved": 0, "rental_uris": {"android": "https://dc.lft.to/lastmile_qr_scan", "ios": "https://dc.lft.to/lastmile_qr_scan"}, "lat": 38.90362533333333, "is_disabled": 0, "lon": -77.04327916666666}, {"fusion_lat": 0.0, "type": "electric_scooter", "name": "d7abe6332c8f6dc4f86e50679bd5a870", "fusion_lon": 0.0, "bike_id": "d7abe6332c8f6dc4f86e50679bd5a870", "is_reserved": 0, "rental_uris": {"android": "https://dc.lft.to/lastmile_qr_scan", "ios": "https://dc.lft.to/lastmile_qr_scan"}, "lat": 38.9035255, "is_disabled": 0, "lon": -77.04327366666666}, {"fusion_lat": 0.0, "type": "electric_scooter", "name": "87a3862922cb9a8355ad69b0503a8aed", "fusion_lon": 0.0, "bike_id": "87a3862922cb9a8355ad69b0503a8aed", "is_reserved": 0, "rental_uris": {"android": "https://dc.lft.to/lastmile_qr_scan", "ios": "https://dc.lft.to/lastmile_qr_scan"}, "lat": 38.9105505, "is_disabled": 0, "lon": -77.041015}, {"fusion_lat": 0.0, "type": "electric_scooter", "name": "6a353a0a53d116cbe1581b7cab53e025", "fusion_lon": 0.0, "bike_id": "6a353a0a53d116cbe1581b7cab53e025", "is_reserved": 0, "rental_uris": {"android": "https://dc.lft.to/lastmile_qr_scan", "ios": "https://dc.lft.to/lastmile_qr_scan"}, "lat": 38.91635616666667, "is_disabled": 0, "lon": -77.04254283333333}, {"fusion_lat": 0.0, "type": "electric_scooter", "name": "4cdc7aa8f29582444b0baf89ff188b0b", "fusion_lon": 0.0, "bike_id": "4cdc7aa8f29582444b0baf89ff188b0b", "is_reserved": 0, "rental_uris": {"android": "https://dc.lft.to/lastmile_qr_scan", "ios": "https://dc.lft.to/lastmile_qr_scan"}, "lat": 38.940844, "is_disabled": 0, "lon": -77.02754816666666}, {"fusion_lat": 0.0, "type": "electric_scooter", "name": "e90a8eb3d2227d54ed92d035eb888c17", "fusion_lon": 0.0, "bike_id": "e90a8eb3d2227d54ed92d035eb888c17", "is_reserved": 0, "rental_uris": {"android": "https://dc.lft.to/lastmile_qr_scan", "ios": "https://dc.lft.to/lastmile_qr_scan"}, "lat": 38.87628316666667, "is_disabled": 0, "lon": -77.012589}, {"fusion_lat": 0.0, "type": "electric_scooter", "name": "825929889e8e3c06910eba629dfd71b9", "fusion_lon": 0.0, "bike_id": "825929889e8e3c06910eba629dfd71b9", "is_reserved": 0, "rental_uris": {"android": "https://dc.lft.to/lastmile_qr_scan", "ios": "https://dc.lft.to/lastmile_qr_scan"}, "lat": 38.880824833333335, "is_disabled": 0, "lon": -76.99839516666667}, {"fusion_lat": 0.0, "type": "electric_scooter", "name": "f6608ed6cd355cd4d9cc702fed347526", "fusion_lon": 0.0, "bike_id": "f6608ed6cd355cd4d9cc702fed347526", "is_reserved": 0, "rental_uris": {"android": "https://dc.lft.to/lastmile_qr_scan", "ios": "https://dc.lft.to/lastmile_qr_scan"}, "lat": 38.8728735, "is_disabled": 0, "lon": -77.0098205}, {"fusion_lat": 0.0, "type": "electric_scooter", "name": "26915f995b82025144a510cd90de7a53", "fusion_lon": 0.0, "bike_id": "26915f995b82025144a510cd90de7a53", "is_reserved": 0, "rental_uris": {"android": "https://dc.lft.to/lastmile_qr_scan", "ios": "https://dc.lft.to/lastmile_qr_scan"}, "lat": 38.903209, "is_disabled": 0, "lon": -76.99115783333333}, {"fusion_lat": 0.0, "type": "electric_scooter", "name": "ea934e3fdac41828e716b660700b560e", "fusion_lon": 0.0, "bike_id": "ea934e3fdac41828e716b660700b560e", "is_reserved": 0, "rental_uris": {"android": "https://dc.lft.to/lastmile_qr_scan", "ios": "https://dc.lft.to/lastmile_qr_scan"}, "lat": 38.86006483333333, "is_disabled": 0, "lon": -76.98518766666666}, {"fusion_lat": 0.0, "type": "electric_scooter", "name": "4eff43e4b1c528d903c7797de4dcb99b", "fusion_lon": 0.0, "bike_id": "4eff43e4b1c528d903c7797de4dcb99b", "is_reserved": 0, "rental_uris": {"android": "https://dc.lft.to/lastmile_qr_scan", "ios": "https://dc.lft.to/lastmile_qr_scan"}, "lat": 38.92403566666667, "is_disabled": 0, "lon": -77.029736}, {"fusion_lat": 0.0, "type": "electric_scooter", "name": "a755c6d3d0cdbb0b8b2e8cbdcd7c8753", "fusion_lon": 0.0, "bike_id": "a755c6d3d0cdbb0b8b2e8cbdcd7c8753", "is_reserved": 0, "rental_uris": {"android": "https://dc.lft.to/lastmile_qr_scan", "ios": "https://dc.lft.to/lastmile_qr_scan"}, "lat": 38.90949633333334, "is_disabled": 0, "lon": -76.9853825}, {"fusion_lat": 0.0, "type": "electric_scooter", "name": "2673b9ec053562a8ada938049d2c1e12", "fusion_lon": 0.0, "bike_id": "2673b9ec053562a8ada938049d2c1e12", "is_reserved": 0, "rental_uris": {"android": "https://dc.lft.to/lastmile_qr_scan", "ios": "https://dc.lft.to/lastmile_qr_scan"}, "lat": 38.885254333333336, "is_disabled": 0, "lon": -77.00581383333333}, {"fusion_lat": 0.0, "type": "electric_scooter", "name": "de4d27b5d22b07b008318303842b0414", "fusion_lon": 0.0, "bike_id": "de4d27b5d22b07b008318303842b0414", "is_reserved": 0, "rental_uris": {"android": "https://dc.lft.to/lastmile_qr_scan", "ios": "https://dc.lft.to/lastmile_qr_scan"}, "lat": 38.9247125, "is_disabled": 0, "lon": -77.04157283333333}, {"fusion_lat": 0.0, "type": "electric_scooter", "name": "e3ac49f6c73293894093eac65dea6643", "fusion_lon": 0.0, "bike_id": "e3ac49f6c73293894093eac65dea6643", "is_reserved": 0, "rental_uris": {"android": "https://dc.lft.to/lastmile_qr_scan", "ios": "https://dc.lft.to/lastmile_qr_scan"}, "lat": 38.943247, "is_disabled": 0, "lon": -77.02680866666667}, {"fusion_lat": 0.0, "type": "electric_bike", "name": "d0538f7a0373bfdbdef082fe8f31e0c2", "fusion_lon": 0.0, "bike_id": "d0538f7a0373bfdbdef082fe8f31e0c2", "is_reserved": 0, "rental_uris": {"android": "https://dc.lft.to/lastmile_qr_scan", "ios": "https://dc.lft.to/lastmile_qr_scan"}, "lat": 38.9003165, "is_disabled": 0, "lon": -76.97220633333333}, {"fusion_lat": 0.0, "type": "electric_scooter", "name": "ef42796ac2e079b6c36d272fb24f23a5", "fusion_lon": 0.0, "bike_id": "ef42796ac2e079b6c36d272fb24f23a5", "is_reserved": 0, "rental_uris": {"android": "https://dc.lft.to/lastmile_qr_scan", "ios": "https://dc.lft.to/lastmile_qr_scan"}, "lat": 38.899004833333336, "is_disabled": 0, "lon": -77.0395065}, {"fusion_lat": 0.0, "type": "electric_scooter", "name": "f3601fe031e65ca4757266447e0d48bd", "fusion_lon": 0.0, "bike_id": "f3601fe031e65ca4757266447e0d48bd", "is_reserved": 0, "rental_uris": {"android": "https://dc.lft.to/lastmile_qr_scan", "ios": "https://dc.lft.to/lastmile_qr_scan"}, "lat": 38.95268383333333, "is_disabled": 0, "lon": -77.06972133333333}, {"fusion_lat": 0.0, "type": "electric_scooter", "name": "fd4a12f074b3c2043a30db26ef506b42", "fusion_lon": 0.0, "bike_id": "fd4a12f074b3c2043a30db26ef506b42", "is_reserved": 0, "rental_uris": {"android": "https://dc.lft.to/lastmile_qr_scan", "ios": "https://dc.lft.to/lastmile_qr_scan"}, "lat": 38.8746655, "is_disabled": 0, "lon": -77.01893683333333}, {"fusion_lat": 0.0, "type": "electric_scooter", "name": "1027062eff3c07c686109a3f3a3d525c", "fusion_lon": 0.0, "bike_id": "1027062eff3c07c686109a3f3a3d525c", "is_reserved": 0, "rental_uris": {"android": "https://dc.lft.to/lastmile_qr_scan", "ios": "https://dc.lft.to/lastmile_qr_scan"}, "lat": 38.893690666666664, "is_disabled": 0, "lon": -76.949975}, {"fusion_lat": 0.0, "type": "electric_scooter", "name": "88046ff239e7af4a5240dfc296eaf66c", "fusion_lon": 0.0, "bike_id": "88046ff239e7af4a5240dfc296eaf66c", "is_reserved": 0, "rental_uris": {"android": "https://dc.lft.to/lastmile_qr_scan", "ios": "https://dc.lft.to/lastmile_qr_scan"}, "lat": 38.9006865, "is_disabled": 0, "lon": -77.04678483333333}, {"fusion_lat": 0.0, "type": "electric_scooter", "name": "dd53e4c2c3097581cf80c38fc078707f", "fusion_lon": 0.0, "bike_id": "dd53e4c2c3097581cf80c38fc078707f", "is_reserved": 0, "rental_uris": {"android": "https://dc.lft.to/lastmile_qr_scan", "ios": "https://dc.lft.to/lastmile_qr_scan"}, "lat": 38.921058333333335, "is_disabled": 0, "lon": -77.020523}, {"fusion_lat": 0.0, "type": "electric_scooter", "name": "98887e4e888a0296bfd923244cad5472", "fusion_lon": 0.0, "bike_id": "98887e4e888a0296bfd923244cad5472", "is_reserved": 0, "rental_uris": {"android": "https://dc.lft.to/lastmile_qr_scan", "ios": "https://dc.lft.to/lastmile_qr_scan"}, "lat": 38.902461333333335, "is_disabled": 0, "lon": -77.03442433333333}, {"fusion_lat": 0.0, "type": "electric_scooter", "name": "f74cb8b89a5b708e3486a0113a4454df", "fusion_lon": 0.0, "bike_id": "f74cb8b89a5b708e3486a0113a4454df", "is_reserved": 0, "rental_uris": {"android": "https://dc.lft.to/lastmile_qr_scan", "ios": "https://dc.lft.to/lastmile_qr_scan"}, "lat": 38.900210666666666, "is_disabled": 0, "lon": -77.011957}, {"fusion_lat": 0.0, "type": "electric_scooter", "name": "f137ef6d09f1d6ed011072e1f25587e1", "fusion_lon": 0.0, "bike_id": "f137ef6d09f1d6ed011072e1f25587e1", "is_reserved": 0, "rental_uris": {"android": "https://dc.lft.to/lastmile_qr_scan", "ios": "https://dc.lft.to/lastmile_qr_scan"}, "lat": 38.89869733333333, "is_disabled": 0, "lon": -77.03936066666667}, {"fusion_lat": 0.0, "type": "electric_bike", "name": "3549ebfa9cfc10428effc7eef83b93ea", "fusion_lon": 0.0, "bike_id": "3549ebfa9cfc10428effc7eef83b93ea", "is_reserved": 0, "rental_uris": {"android": "https://dc.lft.to/lastmile_qr_scan", "ios": "https://dc.lft.to/lastmile_qr_scan"}, "lat": 38.8290625, "is_disabled": 0, "lon": -76.99775966666667}, {"fusion_lat": 0.0, "type": "electric_scooter", "name": "26ea80b10f2f6e9a2c0e6cd0bf102791", "fusion_lon": 0.0, "bike_id": "26ea80b10f2f6e9a2c0e6cd0bf102791", "is_reserved": 0, "rental_uris": {"android": "https://dc.lft.to/lastmile_qr_scan", "ios": "https://dc.lft.to/lastmile_qr_scan"}, "lat": 38.9210315, "is_disabled": 0, "lon": -77.0719015}, {"fusion_lat": 0.0, "type": "electric_scooter", "name": "3b53d612ff2822f06e9fa633c72ea349", "fusion_lon": 0.0, "bike_id": "3b53d612ff2822f06e9fa633c72ea349", "is_reserved": 0, "rental_uris": {"android": "https://dc.lft.to/lastmile_qr_scan", "ios": "https://dc.lft.to/lastmile_qr_scan"}, "lat": 38.93876316666667, "is_disabled": 0, "lon": -77.0248205}, {"fusion_lat": 0.0, "type": "electric_scooter", "name": "4d226dd45049cb018521dd2cd78482be", "fusion_lon": 0.0, "bike_id": "4d226dd45049cb018521dd2cd78482be", "is_reserved": 0, "rental_uris": {"android": "https://dc.lft.to/lastmile_qr_scan", "ios": "https://dc.lft.to/lastmile_qr_scan"}, "lat": 38.907835166666665, "is_disabled": 0, "lon": -77.0380715}, {"fusion_lat": 0.0, "type": "electric_scooter", "name": "401c8a7f0535c412e378fe121a628024", "fusion_lon": 0.0, "bike_id": "401c8a7f0535c412e378fe121a628024", "is_reserved": 0, "rental_uris": {"android": "https://dc.lft.to/lastmile_qr_scan", "ios": "https://dc.lft.to/lastmile_qr_scan"}, "lat": 38.903227, "is_disabled": 0, "lon": -77.03188133333333}, {"fusion_lat": 0.0, "type": "electric_scooter", "name": "188f4c6a610baa676cb934e7bafe2119", "fusion_lon": 0.0, "bike_id": "188f4c6a610baa676cb934e7bafe2119", "is_reserved": 0, "rental_uris": {"android": "https://dc.lft.to/lastmile_qr_scan", "ios": "https://dc.lft.to/lastmile_qr_scan"}, "lat": 38.901984666666664, "is_disabled": 0, "lon": -76.97856483333334}, {"fusion_lat": 0.0, "type": "electric_scooter", "name": "c92d6bd223ade43bcb04e47aaa0e471c", "fusion_lon": 0.0, "bike_id": "c92d6bd223ade43bcb04e47aaa0e471c", "is_reserved": 0, "rental_uris": {"android": "https://dc.lft.to/lastmile_qr_scan", "ios": "https://dc.lft.to/lastmile_qr_scan"}, "lat": 38.9342025, "is_disabled": 0, "lon": -77.04407533333334}, {"fusion_lat": 0.0, "type": "electric_scooter", "name": "cb7e80089d5c88d0df4418a53a07958a", "fusion_lon": 0.0, "bike_id": "cb7e80089d5c88d0df4418a53a07958a", "is_reserved": 0, "rental_uris": {"android": "https://dc.lft.to/lastmile_qr_scan", "ios": "https://dc.lft.to/lastmile_qr_scan"}, "lat": 38.911201166666665, "is_disabled": 0, "lon": -77.04368516666666}, {"fusion_lat": 0.0, "type": "electric_scooter", "name": "ce8d51d077e0a88fbd3caf3c59b50e58", "fusion_lon": 0.0, "bike_id": "ce8d51d077e0a88fbd3caf3c59b50e58", "is_reserved": 0, "rental_uris": {"android": "https://dc.lft.to/lastmile_qr_scan", "ios": "https://dc.lft.to/lastmile_qr_scan"}, "lat": 38.91689366666667, "is_disabled": 0, "lon": -77.03215883333333}, {"fusion_lat": 0.0, "type": "electric_scooter", "name": "3d3809d39c8cd2bccff58983d75620f0", "fusion_lon": 0.0, "bike_id": "3d3809d39c8cd2bccff58983d75620f0", "is_reserved": 0, "rental_uris": {"android": "https://dc.lft.to/lastmile_qr_scan", "ios": "https://dc.lft.to/lastmile_qr_scan"}, "lat": 38.8770565, "is_disabled": 0, "lon": -77.01769566666667}, {"fusion_lat": 0.0, "type": "electric_bike", "name": "30a5284de5777f103b7aaf6c53d1f5ed", "fusion_lon": 0.0, "bike_id": "30a5284de5777f103b7aaf6c53d1f5ed", "is_reserved": 0, "rental_uris": {"android": "https://dc.lft.to/lastmile_qr_scan", "ios": "https://dc.lft.to/lastmile_qr_scan"}, "lat": 38.90377466666666, "is_disabled": 0, "lon": -77.06267166666666}, {"fusion_lat": 0.0, "type": "electric_scooter", "name": "c49fa42fde7374fc5ea0d44fddc11aed", "fusion_lon": 0.0, "bike_id": "c49fa42fde7374fc5ea0d44fddc11aed", "is_reserved": 0, "rental_uris": {"android": "https://dc.lft.to/lastmile_qr_scan", "ios": "https://dc.lft.to/lastmile_qr_scan"}, "lat": 38.898239833333335, "is_disabled": 0, "lon": -77.02964316666667}, {"fusion_lat": 0.0, "type": "electric_scooter", "name": "963f68d65dea3a007e5d8633272b8dcc", "fusion_lon": 0.0, "bike_id": "963f68d65dea3a007e5d8633272b8dcc", "is_reserved": 0, "rental_uris": {"android": "https://dc.lft.to/lastmile_qr_scan", "ios": "https://dc.lft.to/lastmile_qr_scan"}, "lat": 38.89297233333333, "is_disabled": 0, "lon": -77.01233},