{"data": {"bikes": [{"rental_uris": {"ios": "https://dc.lft.to/lastmile_qr_scan", "android": "https://dc.lft.to/lastmile_qr_scan"}, "type": "electric_scooter", "name": "4d2bfb6aecc44b7b9f84aea7ba9832dd", "is_reserved": 0, "lon": -77.036404, "is_disabled": 0, "fusion_lat": 0.0, "lat": 38.90372166666667, "bike_id": "4d2bfb6aecc44b7b9f84aea7ba9832dd", "fusion_lon": 0.0}, {"rental_uris": {"ios": "https://dc.lft.to/lastmile_qr_scan", "android": "https://dc.lft.to/lastmile_qr_scan"}, "type": "electric_scooter", "name": "f9ad9bc4c6dee08d6706e9e62e4d197a", "is_reserved": 0, "lon": -77.01992583333333, "is_disabled": 0, "fusion_lat": 0.0, "lat": 38.8999265, "bike_id": "f9ad9bc4c6dee08d6706e9e62e4d197a", "fusion_lon": 0.0}, {"rental_uris": {"ios": "https://dc.lft.to/lastmile_qr_scan", "android": "https://dc.lft.to/lastmile_qr_scan"}, "type": "electric_bike", "name": "b432a30eef3df2f787e680002a3c570c", "is_reserved": 0, "lon": -77.01095466666666, "is_disabled": 0, "fusion_lat": 0.0, "lat": 38.872982666666665, "bike_id": "b432a30eef3df2f787e680002a3c570c", "fusion_lon": 0.0}, {"rental_uris": {"ios": "https://dc.lft.to/lastmile_qr_scan", "android": "https://dc.lft.to/lastmile_qr_scan"}, "type": "electric_scooter", "name": "1b32c30a702c8bed9d4f221f5f4236be", "is_reserved": 0, "lon": -77.034452, "is_disabled": 0, "fusion_lat": 0.0, "lat": 38.908347666666664, "bike_id": "1b32c30a702c8bed9d4f221f5f4236be", "fusion_lon": 0.0}, {"rental_uris": {"ios": "https://dc.lft.to/lastmile_qr_scan", "android": "https://dc.lft.to/lastmile_qr_scan"}, "type": "electric_scooter", "name": "a59ba2f93fd59e291aae9a50a1c30150", "is_reserved": 0, "lon": -77.02593233333333, "is_disabled": 0, "fusion_lat": 0.0, "lat": 38.908111166666664, "bike_id": "a59ba2f93fd59e291aae9a50a1c30150", "fusion_lon": 0.0}, {"rental_uris": {"ios": "https://dc.lft.to/lastmile_qr_scan", "android": "https://dc.lft.to/lastmile_qr_scan"}, "type": "electric_scooter", "name": "c0d3ea6ba31aa160331d7fe8f687ead9", "is_reserved": 0, "lon": -76.99878716666667, "is_disabled": 0, "fusion_lat": 0.0, "lat": 38.900258666666666, "bike_id": "c0d3ea6ba31aa160331d7fe8f687ead9", "fusion_lon": 0.0}, {"rental_uris": {"ios": "https://dc.lft.to/lastmile_qr_scan", "android": "https://dc.lft.to/lastmile_qr_scan"}, "type": "electric_scooter", "name": "e2225b834de9c37adf33cd5447cab8bb", "is_reserved": 0, "lon": -77.07449266666667, "is_disabled": 0, "fusion_lat": 0.0, "lat": 38.937842333333336, "bike_id": "e2225b834de9c37adf33cd5447cab8bb", "fusion_lon": 0.0}, {"rental_uris": {"ios": "https://dc.lft.to/lastmile_qr_scan", "android": "https://dc.lft.to/lastmile_qr_scan"}, "type": "electric_scooter", "name": "645942082927f5139e50485dd429f054", "is_reserved": 0, "lon": -77.0290825, "is_disabled": 0, "fusion_lat": 0.0, "lat": 38.95297083333333, "bike_id": "645942082927f5139e50485dd429f054", "fusion_lon": 0.0}, {"rental_uris": {"ios": "https://dc.lft.to/lastmile_qr_scan", "android": "https://dc.lft.to/lastmile_qr_scan"}, "type": "electric_scooter", "name": "f802e54c37a4704c95a3984f10ad5b20", "is_reserved": 0, "lon": -77.02093216666667, "is_disabled": 0, "fusion_lat": 0.0, "lat": 38.91409, "bike_id": "f802e54c37a4704c95a3984f10ad5b20", "fusion_lon": 0.0}, {"rental_uris": {"ios": "https://dc.lft.to/lastmile_qr_scan", "android": "https://dc.lft.to/lastmile_qr_scan"}, "type": "electric_scooter", "name": "323ae32f8d692aa08bcc8ce36baa4004", "is_reserved": 0, "lon": -77.033392, "is_disabled": 0, "fusion_lat": 0.0, "lat": 38.9171145, "bike_id": "323ae32f8d692aa08bcc8ce36baa4004", "fusion_lon": 0.0}, {"rental_uris": {"ios": "https://dc.lft.to/lastmile_qr_scan", "android": "https://dc.lft.to/lastmile_qr_scan"}, "type": "electric_scooter", "name": "dab154c6f0bcd61dd1662b4125f90d46", "is_reserved": 0, "lon": -76.99712533333333, "is_disabled": 0, "fusion_lat": 0.0, "lat": 38.887648166666665, "bike_id": "dab154c6f0bcd61dd1662b4125f90d46", "fusion_lon": 0.0}, {"rental_uris": {"ios": "https://dc.lft.to/lastmile_qr_scan", "android": "https://dc.lft.to/lastmile_qr_scan"}, "type": "electric_bike", "name": "1256eb7148e46cd3249a80d670a246c3", "is_reserved": 0, "lon": -77.0407845, "is_disabled": 0, "fusion_lat": 0.0, "lat": 38.83066733333333, "bike_id": "1256eb7148e46cd3249a80d670a246c3", "fusion_lon": 0.0}, {"rental_uris": {"ios": "https://dc.lft.to/lastmile_qr_scan", "android": "https://dc.lft.to/lastmile_qr_scan"}, "type": "electric_scooter", "name": "0d21e04d28920655368c7b30e03899d1", "is_reserved": 0, "lon": -77.04650866666667, "is_disabled": 0, "fusion_lat": 0.0, "lat": 38.917856, "bike_id": "0d21e04d28920655368c7b30e03899d1", "fusion_lon": 0.0}, {"rental_uris": {"ios": "https://dc.lft.to/lastmile_qr_scan", "android": "https://dc.lft.to/lastmile_qr_scan"}, "type": "electric_bike", "name": "e97a0806ec685c82c8984c8927b51107", "is_reserved": 0, "lon": -76.99627066666666, "is_disabled": 0, "fusion_lat": 0.0, "lat": 38.92851783333333, "bike_id": "e97a0806ec685c82c8984c8927b51107", "fusion_lon": 0.0}, {"rental_uris": {"ios": "https://dc.lft.to/lastmile_qr_scan", "android": "https://dc.lft.to/lastmile_qr_scan"}, "type": "electric_scooter", "name": "129f62255a6c07f7aa629c24218991cc", "is_reserved": 0, "lon": -77.01837816666666, "is_disabled": 0, "fusion_lat": 0.0, "lat": 38.92144366666667, "bike_id": "129f62255a6c07f7aa629c24218991cc", "fusion_lon": 0.0}, {"rental_uris": {"ios": "https://dc.lft.to/lastmile_qr_scan", "android": "https://dc.lft.to/lastmile_qr_scan"}, "type": "electric_scooter", "name": "a20547c553bdbd6338c4c71a3648674c", "is_reserved": 0, "lon": -77.07152966666666, "is_disabled": 0, "fusion_lat": 0.0, "lat": 38.8951845, "bike_id": "a20547c553bdbd6338c4c71a3648674c", "fusion_lon": 0.0}, {"rental_uris": {"ios": "https://dc.lft.to/lastmile_qr_scan", "android": "https://dc.lft.to/lastmile_qr_scan"}, "type": "electric_scooter", "name": "c52ab0a79f0533263160f2920c2db28a", "is_reserved": 0, "lon": -77.01759366666667, "is_disabled": 0, "fusion_lat": 0.0, "lat": 38.900276, "bike_id": "c52ab0a79f0533263160f2920c2db28a", "fusion_lon": 0.0}, {"rental_uris": {"ios": "https://dc.lft.to/lastmile_qr_scan", "android": "https://dc.lft.to/lastmile_qr_scan"}, "type": "electric_scooter", "name": "e6dbcb31fdf81dba2dc6851c367ce079", "is_reserved": 0, "lon": -77.0033065, "is_disabled": 0, "fusion_lat": 0.0, "lat": 38.87720083333333, "bike_id": "e6dbcb31fdf81dba2dc6851c367ce079", "fusion_lon": 0.0}, {"rental_uris": {"ios": "https://dc.lft.to/lastmile_qr_scan", "android": "https://dc.lft.to/lastmile_qr_scan"}, "type": "electric_scooter", "name": "b008ff607cbfba2ca498de8c02c4cb7c", "is_reserved": 0, "lon": -76.99289366666666, "is_disabled": 0, "fusion_lat": 0.0, "lat": 38.90259316666667, "bike_id": "b008ff607cbfba2ca498de8c02c4cb7c", "fusion_lon": 0.0}, {"rental_uris": {"ios": "https://dc.lft.to/lastmile_qr_scan", "android": "https://dc.lft.to/lastmile_qr_scan"}, "type": "electric_scooter", "name": "0d8454fe14d4fb647034d05c4e2ba550", "is_reserved": 0, "lon": -77.0401685, "is_disabled": 0, "fusion_lat": 0.0, "lat": 38.90236683333333, "bike_id": "0d8454fe14d4fb647034d05c4e2ba550", "fusion_lon": 0.0}, {"rental_uris": {"ios": "https://dc.lft.to/lastmile_qr_scan", "android": "https://dc.lft.to/lastmile_qr_scan"}, "type": "electric_scooter", "name": "87b9101d0cca1e71407de6f2f5ec2a27", "is_reserved": 0, "lon": -77.04606283333334, "is_disabled": 0, "fusion_lat": 0.0, "lat": 38.90572, "bike_id": "87b9101d0cca1e71407de6f2f5ec2a27", "fusion_lon": 0.0}, {"rental_uris": {"ios": "https://dc.lft.to/lastmile_qr_scan", "android": "https://dc.lft.to/lastmile_qr_scan"}, "type": "electric_scooter", "name": "9b60255a5847c32cfa4188736b8ce806", "is_reserved": 0, "lon": -77.07833433333333, "is_disabled": 0, "fusion_lat": 0.0, "lat": 38.94569766666667, "bike_id": "9b60255a5847c32cfa4188736b8ce806", "fusion_lon": 0.0}, {"rental_uris": {"ios": "https://dc.lft.to/lastmile_qr_scan", "android": "https://dc.lft.to/lastmile_qr_scan"}, "type": "electric_scooter", "name": "eacddbcc40c2ea6a5ea81e89f8ce86ca", "is_reserved": 0, "lon": -77.01895533333334, "is_disabled": 0, "fusion_lat": 0.0, "lat": 38.897518833333336, "bike_id": "eacddbcc40c2ea6a5ea81e89f8ce86ca", "fusion_lon": 0.0}, {"rental_uris": {"ios": "https://dc.lft.to/lastmile_qr_scan", "android": "https://dc.lft.to/lastmile_qr_scan"}, "type": "electric_scooter", "name": "973f22f24d567c6d6edce1c2ded82dd0", "is_reserved": 0, "lon": -77.02145016666667, "is_disabled": 0, "fusion_lat": 0.0, "lat": 38.925515, "bike_id": "973f22f24d567c6d6edce1c2ded82dd0", "fusion_lon": 0.0}, {"rental_uris": {"ios": "https://dc.lft.to/lastmile_qr_scan", "android": "https://dc.lft.to/lastmile_qr_scan"}, "type": "electric_scooter", "name": "23248302e65be5a6a982974f29daf9bb", "is_reserved": 0, "lon": -77.07927766666667, "is_disabled": 0, "fusion_lat": 0.0, "lat": 38.945636, "bike_id": "23248302e65be5a6a982974f29daf9bb", "fusion_lon": 0.0}, {"rental_uris": {"ios": "https://dc.lft.to/lastmile_qr_scan", "android": "https://dc.lft.to/lastmile_qr_scan"}, "type": "electric_scooter", "name": "ad9f233eb0e8f540e7ac5bd153d70269", "is_reserved": 0, "lon": -77.03220583333334, "is_disabled": 0, "fusion_lat": 0.0, "lat": 38.93876916666667, "bike_id": "ad9f233eb0e8f540e7ac5bd153d70269", "fusion_lon": 0.0}, {"rental_uris": {"ios": "https://dc.lft.to/lastmile_qr_scan", "android": "https://dc.lft.to/lastmile_qr_scan"}, "type": "electric_scooter", "name": "20a0069b5d712a89bf20e5c2607f0006", "is_reserved": 0, "lon": -77.00284483333333, "is_disabled": 0, "fusion_lat": 0.0, "lat": 38.846146, "bike_id": "20a0069b5d712a89bf20e5c2607f0006", "fusion_lon": 0.0}, {"rental_uris": {"ios": "https://dc.lft.to/lastmile_qr_scan", "android": "https://dc.lft.to/lastmile_qr_scan"}, "type": "electric_scooter", "name": "7e0d8279c4b11bef8b8caf9bda3e2975", "is_reserved": 0, "lon": -77.01200633333333, "is_disabled": 0, "fusion_lat": 0.0, "lat": 38.90002916666667, "bike_id": "7e0d8279c4b11bef8b8caf9bda3e2975", "fusion_lon": 0.0}, {"rental_uris": {"ios": "https://dc.lft.to/lastmile_qr_scan", "android": "https://dc.lft.to/lastmile_qr_scan"}, "type": "electric_bike", "name": "9789a17b942ebedc18496d94df02bbb4", "is_reserved": 0, "lon": -77.01230116666666, "is_disabled": 0, "fusion_lat": 0.0, "lat": 38.950819, "bike_id": "9789a17b942ebedc18496d94df02bbb4", "fusion_lon": 0.0}, {"rental_uris": {"ios": "https://dc.lft.to/lastmile_qr_scan", "android": "https://dc.lft.to/lastmile_qr_scan"}, "type": "electric_scooter", "name": "d56538480f3e26b97f54e0b236b9962f", "is_reserved": 0, "lon": -77.02417566666666, "is_disabled": 0, "fusion_lat": 0.0, "lat": 38.93714283333333, "bike_id": "d56538480f3e26b97f54e0b236b9962f", "fusion_lon": 0.0}, {"rental_uris": {"ios": "https://dc.lft.to/lastmile_qr_scan", "android": "https://dc.lft.to/lastmile_qr_scan"}, "type": "electric_scooter", "name": "6988e6acc29b58b25373a3d323415247", "is_reserved": 0, "lon": -77.0283225, "is_disabled": 0, "fusion_lat": 0.0, "lat": 38.910222166666664, "bike_id": "6988e6acc29b58b25373a3d323415247", "fusion_lon": 0.0}, {"rental_uris": {"ios": "https://dc.lft.to/lastmile_qr_scan", "android": "https://dc.lft.to/lastmile_qr_scan"}, "type": "electric_scooter", "name": "cb0c7ea625e2c0113ee2b0500bf6fac4", "is_reserved": 0, "lon": -77.01753133333334, "is_disabled": 0, "fusion_lat": 0.0, "lat": 38.887356, "bike_id": "cb0c7ea625e2c0113ee2b0500bf6fac4", "fusion_lon": 0.0}, {"rental_uris": {"ios": "https://dc.lft.to/lastmile_qr_scan", "android": "https://dc.lft.to/lastmile_qr_scan"}, "type": "electric_scooter", "name": "232cf31061dfd671ab3a5e7e9fa6bba3", "is_reserved": 0, "lon": -77.068571, "is_disabled": 0, "fusion_lat": 0.0, "lat": 38.90403, "bike_id": "232cf31061dfd671ab3a5e7e9fa6bba3", "fusion_lon": 0.0}, {"rental_uris": {"ios": "https://dc.lft.to/lastmile_qr_scan", "android": "https://dc.lft.to/lastmile_qr_scan"}, "type": "electric_scooter", "name": "d1510e1882e8fd6a553907db8062500e", "is_reserved": 0, "lon": -77.02126533333333, "is_disabled": 0, "fusion_lat": 0.0, "lat": 38.92795983333333, "bike_id": "d1510e1882e8fd6a553907db8062500e", "fusion_lon": 0.0}, {"rental_uris": {"ios": "https://dc.lft.to/lastmile_qr_scan", "android": "https://dc.lft.to/lastmile_qr_scan"}, "type": "electric_scooter", "name": "50715ad5deceed74d769e11d61797444", "is_reserved": 0, "lon": -77.02213316666666, "is_disabled": 0, "fusion_lat": 0.0, "lat": 38.87848916666667, "bike_id": "50715ad5deceed74d769e11d61797444", "fusion_lon": 0.0}, {"rental_uris": {"ios": "https://dc.lft.to/lastmile_qr_scan", "android": "https://dc.lft.to/lastmile_qr_scan"}, "type": "electric_scooter", "name": "862d0b58bfb63074a5739fbce74f9697", "is_reserved": 0, "lon": -77.0347345, "is_disabled": 0, "fusion_lat": 0.0, "lat": 38.92158116666667, "bike_id": "862d0b58bfb63074a5739fbce74f9697", "fusion_lon": 0.0}, {"rental_uris": {"ios": "https://dc.lft.to/lastmile_qr_scan", "android": "https://dc.lft.to/lastmile_qr_scan"}, "type": "electric_scooter", "name": "5cd194c64dd81e35cb87894a37c63ab8", "is_reserved": 0, "lon": -77.03363533333334, "is_disabled": 0, "fusion_lat": 0.0, "lat": 38.899194666666666, "bike_id": "5cd194c64dd81e35cb87894a37c63ab8", "fusion_lon": 0.0}, {"rental_uris": {"ios": "https://dc.lft.to/lastmile_qr_scan", "android": "https://dc.lft.to/lastmile_qr_scan"}, "type": "electric_scooter", "name": "7bc1ec5948b8ec47d8bb49e45d8ea1c2", "is_reserved": 0, "lon": -77.01971383333333, "is_disabled": 0, "fusion_lat": 0.0, "lat": 38.9024745, "bike_id": "7bc1ec5948b8ec47d8bb49e45d8ea1c2", "fusion_lon": 0.0}, {"rental_uris": {"ios": "https://dc.lft.to/lastmile_qr_scan", "android": "https://dc.lft.to/lastmile_qr_scan"}, "type": "electric_scooter", "name": "0628a3ba28dcfbc239f7d0ff8135c538", "is_reserved": 0, "lon": -77.02506083333333, "is_disabled": 0, "fusion_lat": 0.0, "lat": 38.919919, "bike_id": "0628a3ba28dcfbc239f7d0ff8135c538", "fusion_lon": 0.0}, {"rental_uris": {"ios": "https://dc.lft.to/lastmile_qr_scan", "android": "https://dc.lft.to/lastmile_qr_scan"}, "type": "electric_scooter", "name": "7f5811986fc6ce5927b70a464321c129", "is_reserved": 0, "lon": -77.03512133333334, "is_disabled": 0, "fusion_lat": 0.0, "lat": 38.918784333333335, "bike_id": "7f5811986fc6ce5927b70a464321c129", "fusion_lon": 0.0}, {"rental_uris": {"ios": "https://dc.lft.to/lastmile_qr_scan", "android": "https://dc.lft.to/lastmile_qr_scan"}, "type": "electric_bike", "name": "afa6445f1c01e2d5e7fffe187ee58848", "is_reserved": 0, "lon": -76.9813775, "is_disabled": 0, "fusion_lat": 0.0, "lat": 38.934950666666666, "bike_id": "afa6445f1c01e2d5e7fffe187ee58848", "fusion_lon": 0.0}, {"rental_uris": {"ios": "https://dc.lft.to/lastmile_qr_scan", "android": "https://dc.lft.to/lastmile_qr_scan"}, "type": "electric_scooter", "name": "c1998ecec463c65544a9072fb9d574ef", "is_reserved": 0, "lon": -77.01101633333333, "is_disabled": 0, "fusion_lat": 0.0, "lat": 38.885397833333336, "bike_id": "c1998ecec463c65544a9072fb9d574ef", "fusion_lon": 0.0}, {"rental_uris": {"ios": "https://dc.lft.to/lastmile_qr_scan", "android": "https://dc.lft.to/lastmile_qr_scan"}, "type": "electric_scooter", "name": "faa9eb275462d0731eefdfdaa723823e", "is_reserved": 0, "lon": -77.03156966666667, "is_disabled": 0, "fusion_lat": 0.0, "lat": 38.904883166666664, "bike_id": "faa9eb275462d0731eefdfdaa723823e", "fusion_lon": 0.0}, {"rental_uris": {"ios": "https://dc.lft.to/lastmile_qr_scan", "android": "https://dc.lft.to/lastmile_qr_scan"}, "type": "electric_scooter", "name": "0243ebe60c07d811bd9d647b37a0dded", "is_reserved": 0, "lon": -77.016129, "is_disabled": 0, "fusion_lat": 0.0, "lat": 38.91074033333334, "bike_id": "0243ebe60c07d811bd9d647b37a0dded", "fusion_lon": 0.0}, {"rental_uris": {"ios": "https://dc.lft.to/lastmile_qr_scan", "android": "https://dc.lft.to/lastmile_qr_scan"}, "type": "electric_scooter", "name": "676213abc889bca0d039d991e7426f69", "is_reserved": 0, "lon": -77.0409125, "is_disabled": 0, "fusion_lat": 0.0, "lat": 38.930640333333336, "bike_id": "676213abc889bca0d039d991e7426f69", "fusion_lon": 0.0}, {"rental_uris": {"ios": "https://dc.lft.to/lastmile_qr_scan", "android": "https://dc.lft.to/lastmile_qr_scan"}, "type": "electric_scooter", "name": "8c60b791ebb8f1772d183261a3697377", "is_reserved": 0, "lon": -77.0407115, "is_disabled": 0, "fusion_lat": 0.0, "lat": 38.905598166666664, "bike_id": "8c60b791ebb8f1772d183261a3697377", "fusion_lon": 0.0}, {"rental_uris": {"ios": "https://dc.lft.to/lastmile_qr_scan", "android": "https://dc.lft.to/lastmile_qr_scan"}, "type": "electric_scooter", "name": "2e98d17068b51a0a045f731bcdac3dcd", "is_reserved": 0, "lon": -77.03544416666666, "is_disabled": 0, "fusion_lat": 0.0, "lat": 38.923343, "bike_id": "2e98d17068b51a0a045f731bcdac3dcd", "fusion_lon": 0.0}, {"rental_uris": {"ios": "https://dc.lft.to/lastmile_qr_scan", "android": "https://dc.lft.to/lastmile_qr_scan"}, "type": "electric_scooter", "name": "68b2e23523cbc29a37e871587e054188", "is_reserved": 0, "lon": -77.03148616666667, "is_disabled": 0, "fusion_lat": 0.0, "lat": 38.887519833333336, "bike_id": "68b2e23523cbc29a37e871587e054188", "fusion_lon": 0.0}, {"rental_uris": {"ios": "https://dc.lft.to/lastmile_qr_scan", "android": "https://dc.lft.to/lastmile_qr_scan"}, "type": "electric_scooter", "name": "1f2aa7a2d7da9b9e0ea0b468131c5e94", "is_reserved": 0, "lon": -77.03188533333334, "is_disabled": 0, "fusion_lat": 0.0, "lat": 38.919222166666664, "bike_id": "1f2aa7a2d7da9b9e0ea0b468131c5e94", "fusion_lon": 0.0}, {"rental_uris": {"ios": "https://dc.lft.to/lastmile_qr_scan", "android": "https://dc.lft.to/lastmile_qr_scan"}, "type": "electric_bike", "name": "23bfaf2fb30d86736bf70d30947341e5", "is_reserved": 0, "lon": -76.96099916666667, "is_disabled": 0, "fusion_lat": 0.0, "lat": 38.949669166666666, "bike_id": "23bfaf2fb30d86736bf70d30947341e5", "fusion_lon": 0.0}, {"rental_uris": {"ios": "https://dc.lft.to/lastmile_qr_scan", "android": "https://dc.lft.to/lastmile_qr_scan"}, "type": "electric_scooter", "name": "b4958e13683a0ab44887f08aa89ff44b", "is_reserved": 0, "lon": -77.07001066666666, "is_disabled": 0, "fusion_lat": 0.0, "lat": 38.952298666666664, "bike_id": "b4958e13683a0ab44887f08aa89ff44b", "fusion_lon": 0.0}, {"rental_uris": {"ios": "https://dc.lft.to/lastmile_qr_scan", "android": "https://dc.lft.to/lastmile_qr_scan"}, "type": "electric_scooter", "name": "67075e39a6c6b03d77b190864ef5446d", "is_reserved": 0, "lon": -77.0020655, "is_disabled": 0, "fusion_lat": 0.0, "lat": 38.90162883333333, "bike_id": "67075e39a6c6b03d77b190864ef5446d", "fusion_lon": 0.0}, {"rental_uris": {"ios": "https://dc.lft.to/lastmile_qr_scan", "android": "https://dc.lft.to/lastmile_qr_scan"}, "type": "electric_scooter", "name": "8fdacab5dbc6fe242a36a81e7969a460", "is_reserved": 0, "lon": -76.95739216666666, "is_disabled": 0, "fusion_lat": 0.0, "lat": 38.88391766666667, "bike_id": "8fdacab5dbc6fe242a36a81e7969a460", "fusion_lon": 0.0}, {"rental_uris": {"ios": "https://dc.lft.to/lastmile_qr_scan", "android": "https://dc.lft.to/lastmile_qr_scan"}, "type": "electric_scooter", "name": "1cccfb8c5cd232eabc6a5205ddeec262", "is_reserved": 0, "lon": -77.025165, "is_disabled": 0, "fusion_lat": 0.0, "lat": 38.919246, "bike_id": "1cccfb8c5cd232eabc6a5205ddeec262", "fusion_lon": 0.0}, {"rental_uris": {"ios": "https://dc.lft.to/lastmile_qr_scan", "android": "https://dc.lft.to/lastmile_qr_scan"}, "type": "electric_scooter", "name": "b2d6ad723990a386bfd384a53b0959bb", "is_reserved": 0, "lon": -77.034432, "is_disabled": 0, "fusion_lat": 0.0, "lat": 38.918013333333334, "bike_id": "b2d6ad723990a386bfd384a53b0959bb", "fusion_lon": 0.0}, {"rental_uris": {"ios": "https://dc.lft.to/lastmile_qr_scan", "android": "https://dc.lft.to/lastmile_qr_scan"}, "type": "electric_scooter", "name": "45c4bd405a39193ec05cb5aaf2bccfe1", "is_reserved": 0, "lon": -77.06287216666666, "is_disabled": 0, "fusion_lat": 0.0, "lat": 38.91242166666667, "bike_id": "45c4bd405a39193ec05cb5aaf2bccfe1", "fusion_lon": 0.0}, {"rental_uris": {"ios": "https://dc.lft.to/lastmile_qr_scan", "android": "https://dc.lft.to/lastmile_qr_scan"}, "type": "electric_scooter", "name": "840518bdcbc4a0c8daad4a6252a4d7a4", "is_reserved": 0, "lon": -77.02965766666667, "is_disabled": 0, "fusion_lat": 0.0, "lat": 38.90425283333333, "bike_id": "840518bdcbc4a0c8daad4a6252a4d7a4", "fusion_lon": 0.0}, {"rental_uris": {"ios": "https://dc.lft.to/lastmile_qr_scan", "android": "https://dc.lft.to/lastmile_qr_scan"}, "type": "electric_scooter", "name": "a9e5f33af3d42fa6b9240c5d7a1cc5b1", "is_reserved": 0, "lon": -77.02111266666667, "is_disabled": 0, "fusion_lat": 0.0, "lat": 38.926903, "bike_id": "a9e5f33af3d42fa6b9240c5d7a1cc5b1", "fusion_lon": 0.0}, {"rental_uris": {"ios": "https://dc.lft.to/lastmile_qr_scan", "android": "https://dc.lft.to/lastmile_qr_scan"}, "type": "electric_scooter", "name": "338b0f7857ed7c3b3081222cdf518c48", "is_reserved": 0, "lon": -77.02818983333333, "is_disabled": 0, "fusion_lat": 0.0, "lat": 38.89926033333333, "bike_id": "338b0f7857ed7c3b3081222cdf518c48", "fusion_lon": 0.0}, {"rental_uris": {"ios": "https://dc.lft.to/lastmile_qr_scan", "android": "https://dc.lft.to/lastmile_qr_scan"}, "type": "electric_scooter", "name": "afd8c598c73bc63ac0477c16bfc6839d", "is_reserved": 0, "lon": -77.02815233333334, "is_disabled": 0, "fusion_lat": 0.0, "lat": 38.9013385, "bike_id": "afd8c598c73bc63ac0477c16bfc6839d", "fusion_lon": 0.0}, {"rental_uris": {"ios": "https://dc.lft.to/lastmile_qr_scan", "android": "https://dc.lft.to/lastmile_qr_scan"}, "type": "electric_scooter", "name": "3c226a4a9c48f31b0bde65e71f1fa226", "is_reserved": 0, "lon": -77.047102, "is_disabled": 0, "fusion_lat": 0.0, "lat": 38.905679666666664, "bike_id": "3c226a4a9c48f31b0bde65e71f1fa226", "fusion_lon": 0.0}, {"rental_uris": {"ios": "https://dc.lft.to/lastmile_qr_scan", "android": "https://dc.lft.to/lastmile_qr_scan"}, "type": "electric_scooter", "name": "eefeff677decfe3fce4d7f3badb9f7f2", "is_reserved": 0, "lon": -77.04346116666666, "is_disabled": 0, "fusion_lat": 0.0, "lat": 38.9131215, "bike_id": "eefeff677decfe3fce4d7f3badb9f7f2", "fusion_lon": 0.0}, {"rental_uris": {"ios": "https://dc.lft.to/lastmile_qr_scan", "android": "https://dc.lft.to/lastmile_qr_scan"}, "type": "electric_scooter", "name": "30fe8983f179b2bcbd132e928d98b15e", "is_reserved": 0, "lon": -76.98534183333334, "is_disabled": 0, "fusion_lat": 0.0, "lat": 38.9128265, "bike_id": "30fe8983f179b2bcbd132e928d98b15e", "fusion_lon": 0.0}, {"rental_uris": {"ios": "https://dc.lft.to/lastmile_qr_scan", "android": "https://dc.lft.to/lastmile_qr_scan"}, "type": "electric_scooter", "name": "96f06e3703d5b06585a1b6826a837cb0", "is_reserved": 0, "lon": -77.02677783333333, "is_disabled": 0, "fusion_lat": 0.0, "lat": 38.917076333333334, "bike_id": "96f06e3703d5b06585a1b6826a837cb0", "fusion_lon": 0.0}, {"rental_uris": {"ios": "https://dc.lft.to/lastmile_qr_scan", "android": "https://dc.lft.to/lastmile_qr_scan"}, "type": "electric_scooter", "name": "f4d30b1558f4b944ea29e5225882cb40", "is_reserved": 0, "lon": -77.0260715, "is_disabled": 0, "fusion_lat": 0.0, "lat": 38.924124666666664, "bike_id": "f4d30b1558f4b944ea29e5225882cb40", "fusion_lon": 0.0}, {"rental_uris": {"ios": "https://dc.lft.to/lastmile_qr_scan", "android": "https://dc.lft.to/lastmile_qr_scan"}, "type": "electric_scooter", "name": "dd3601542834cdbf129b2fcfaf7528a7", "is_reserved": 0, "lon": -77.03810433333334, "is_disabled": 0, "fusion_lat": 0.0, "lat": 38.931150833333334, "bike_id": "dd3601542834cdbf129b2fcfaf7528a7", "fusion_lon": 0.0}, {"rental_uris": {"ios": "https://dc.lft.to/lastmile_qr_scan", "android": "https://dc.lft.to/lastmile_qr_scan"}, "type": "electric_scooter", "name": "479e3250a9dc62e13c4818f8ba8213d1", "is_reserved": 0, "lon": -77.071667, "is_disabled": 0, "fusion_lat": 0.0, "lat": 38.90763716666667, "bike_id": "479e3250a9dc62e13c4818f8ba8213d1", "fusion_lon": 0.0}, {"rental_uris": {"ios": "https://dc.lft.to/lastmile_qr_scan", "android": "https://dc.lft.to/lastmile_qr_scan"}, "type": "electric_scooter", "name": "4d05d0ff8a545c154db03548f9c03dcd", "is_reserved": 0, "lon": -76.92938683333334, "is_disabled": 0, "fusion_lat": 0.0, "lat": 38.90329883333333, "bike_id": "4d05d0ff8a545c154db03548f9c03dcd", "fusion_lon": 0.0}, {"rental_uris": {"ios": "https://dc.lft.to/lastmile_qr_scan", "android": "https://dc.lft.to/lastmile_qr_scan"}, "type": "electric_scooter", "name": "0f2d733011211486aacff0b14191f4fa", "is_reserved": 0, "lon": -77.06315483333333, "is_disabled": 0, "fusion_lat": 0.0, "lat": 38.94365033333333, "bike_id": "0f2d733011211486aacff0b14191f4fa", "fusion_lon": 0.0}, {"rental_uris": {"ios": "https://dc.lft.to/lastmile_qr_scan", "android": "https://dc.lft.to/lastmile_qr_scan"}, "type": "electric_scooter", "name": "2008ce53225dc28bb44c801cdd1285be", "is_reserved": 0, "lon": -77.02363583333333, "is_disabled": 0, "fusion_lat": 0.0, "lat": 38.9062225, "bike_id": "2008ce53225dc28bb44c801cdd1285be", "fusion_lon": 0.0}, {"rental_uris": {"ios": "https://dc.lft.to/lastmile_qr_scan", "android": "https://dc.lft.to/lastmile_qr_scan"}, "type": "electric_bike", "name": "8b26bd6ec2681ada490c691297b17031", "is_reserved": 0, "lon": -76.9630495, "is_disabled": 0, "fusion_lat": 0.0, "lat": 38.897007, "bike_id": "8b26bd6ec2681ada490c691297b17031", "fusion_lon": 0.0}, {"rental_uris": {"ios": "https://dc.lft.to/lastmile_qr_scan", "android": "https://dc.lft.to/lastmile_qr_scan"}, "type": "electric_scooter", "name": "fa98efae58339efb08ee8cb6311f2bca", "is_reserved": 0, "lon": -77.04009383333333, "is_disabled": 0, "fusion_lat": 0.0, "lat": 38.92258183333333, "bike_id": "fa98efae58339efb08ee8cb6311f2bca", "fusion_lon": 0.0}, {"rental_uris": {"ios": "https://dc.lft.to/lastmile_qr_scan", "android": "https://dc.lft.to/lastmile_qr_scan"}, "type": "electric_scooter", "name": "0255e1f75138ce7d76bb2aa8ddfd9d03", "is_reserved": 0, "lon": -77.05091916666667, "is_disabled": 0, "fusion_lat": 0.0, "lat": 38.903830666666664, "bike_id": "0255e1f75138ce7d76bb2aa8ddfd9d03", "fusion_lon": 0.0}, {"rental_uris": {"ios": "https://dc.lft.to/lastmile_qr_scan", "android": "https://dc.lft.to/lastmile_qr_scan"}, "type": "electric_scooter", "name": "15d1e2f2aa7a4ebe720e66aec9676a3a", "is_reserved": 0, "lon": -77.04046116666666, "is_disabled": 0, "fusion_lat": 0.0, "lat": 38.8992485, "bike_id": "15d1e2f2aa7a4ebe720e66aec9676a3a", "fusion_lon": 0.0}, {"rental_uris": {"ios": "https://dc.lft.to/lastmile_qr_scan", "android": "https://dc.lft.to/lastmile_qr_scan"}, "type": "electric_scooter", "name": "b111fb7c9735573f59e05d7e51ff6878", "is_reserved": 0, "lon": -77.00643333333333, "is_disabled": 0, "fusion_lat": 0.0, "lat": 38.878392166666664, "bike_id": "b111fb7c9735573f59e05d7e51ff6878", "fusion_lon": 0.0}, {"rental_uris": {"ios": "https://dc.lft.to/lastmile_qr_scan", "android": "https://dc.lft.to/lastmile_qr_scan"}, "type": "electric_scooter", "name": "ad500d666f94fd0c13481344d00eb825", "is_reserved": 0, "lon": -77.0296205, "is_disabled": 0, "fusion_lat": 0.0, "lat": 38.916693, "bike_id": "ad500d666f94fd0c13481344d00eb825", "fusion_lon": 0.0}, {"rental_uris": {"ios": "https://dc.lft.to/lastmile_qr_scan", "android": "https://dc.lft.to/lastmile_qr_scan"}, "type": "electric_scooter", "name": "9d0a6953e6f44d347ec6ad787a12a119", "is_reserved": 0, "lon": -77.0455725, "is_disabled": 0, "fusion_lat": 0.0, "lat": 38.90075083333333, "bike_id": "9d0a6953e6f44d347ec6ad787a12a119", "fusion_lon": 0.0}, {"rental_uris": {"ios": "https://dc.lft.to/lastmile_qr_scan", "android": "https://dc.lft.to/lastmile_qr_scan"}, "type": "electric_scooter", "name": "65be303a8e3029bcd62a807d31565147", "is_reserved": 0, "lon": -77.02813866666666, "is_disabled": 0, "fusion_lat": 0.0, "lat": 38.892209666666666, "bike_id": "65be303a8e3029bcd62a807d31565147", "fusion_lon": 0.0}, {"rental_uris": {"ios": "https://dc.lft.to/lastmile_qr_scan", "android": "https://dc.lft.to/lastmile_qr_scan"}, "type": "electric_scooter", "name": "ffdbe1c9957cef388da85f2bf66a384c", "is_reserved": 0, "lon": -77.02209666666667, "is_disabled": 0, "fusion_lat": 0.0, "lat": 38.898573999999996, "bike_id": "ffdbe1c9957cef388da85f2bf66a384c", "fusion_lon": 0.0}, {"rental_uris": {"ios": "https://dc.lft.to/lastmile_qr_scan", "android": "https://dc.lft.to/lastmile_qr_scan"}, "type": "electric_scooter", "name": "be8986814bb2a955af67738f2883fed6", "is_reserved": 0, "lon": -77.01747816666666, "is_disabled": 0, "fusion_lat": 0.0, "lat": 38.91416866666667, "bike_id": "be8986814bb2a955af67738f2883fed6", "fusion_lon": 0.0}, {"rental_uris": {"ios": "https://dc.lft.to/lastmile_qr_scan", "android": "https://dc.lft.to/lastmile_qr_scan"}, "type": "electric_bike", "name": "f698d913dc501806eaf2757d103fdfc4", "is_reserved": 0, "lon": -76.9992065, "is_disabled": 0, "fusion_lat": 0.0, "lat": 38.994666333333335, "bike_id": "f698d913dc501806eaf2757d103fdfc4", "fusion_lon": 0.0}, {"rental_uris": {"ios": "https://dc.lft.to/lastmile_qr_scan", "android": "https://dc.lft.to/lastmile_qr_scan"}, "type": "electric_scooter", "name": "796cc412a0a7d0a26d4e8952cc9920da", "is_reserved": 0, "lon": -77.04607416666667, "is_disabled": 0, "fusion_lat": 0.0, "lat": 38.9233755, "bike_id": "796cc412a0a7d0a26d4e8952cc9920da", "fusion_lon": 0.0}, {"rental_uris": {"ios": "https://dc.lft.to/lastmile_qr_scan", "android": "https://dc.lft.to/lastmile_qr_scan"}, "type": "electric_scooter", "name": "d536fc09476c2483e91963c1fe9ea275", "is_reserved": 0, "lon": -77.032602, "is_disabled": 0, "fusion_lat": 0.0, "lat": 38.9044765, "bike_id": "d536fc09476c2483e91963c1fe9ea275", "fusion_lon": 0.0}, {"rental_uris": {"ios": "https://dc.lft.to/lastmile_qr_scan", "android": "https://dc.lft.to/lastmile_qr_scan"}, "type": "electric_scooter", "name": "4cf64fb36e815808955db85ff87c691b", "is_reserved": 0, "lon": -77.04751833333333, "is_disabled": 0, "fusion_lat": 0.0, "lat": 38.895961666666665, "bike_id": "4cf64fb36e815808955db85ff87c691b", "fusion_lon": 0.0}, {"rental_uris": {"ios": "https://dc.lft.to/lastmile_qr_scan", "android": "https://dc.lft.to/lastmile_qr_scan"}, "type": "electric_scooter", "name": "8154a0722ccde79d0cf43a993c6cad78", "is_reserved": 0, "lon": -77.06860816666666, "is_disabled": 0, "fusion_lat": 0.0, "lat": 38.95298583333334, "bike_id": "8154a0722ccde79d0cf43a993c6cad78", "fusion_lon": 0.0}, {"rental_uris": {"ios": "https://dc.lft.to/lastmile_qr_scan", "android": "https://dc.lft.to/lastmile_qr_scan"}, "type": "electric_scooter", "name": "9f8031a57320ffaf6b777fcb83db2626", "is_reserved": 0, "lon": -77.03662966666667, "is_disabled": 0, "fusion_lat": 0.0, "lat": 38.920957666666666, "bike_id": "9f8031a57320ffaf6b777fcb83db2626", "fusion_lon": 0.0}, {"rental_uris": {"ios": "https://dc.lft.to/lastmile_qr_scan", "android": "https://dc.lft.to/lastmile_qr_scan"}, "type": "electric_scooter", "name": "c5249b73f45e97cbf3da71b96d9a0abf", "is_reserved": 0, "lon": -77.06612566666666, "is_disabled": 0, "fusion_lat": 0.0, "lat": 38.91116566666667, "bike_id": "c5249b73f45e97cbf3da71b96d9a0abf", "fusion_lon": 0.0}, {"rental_uris": {"ios": "https://dc.lft.to/lastmile_qr_scan", "android": "https://dc.lft.to/lastmile_qr_scan"}, "type": "electric_scooter", "name": "e20d0f3044018ec09ceffcb726fc1b9b", "is_reserved": 0, "lon": -77.0175905, "is_disabled": 0, "fusion_lat": 0.0, "lat": 38.8769045, "bike_id": "e20d0f3044018ec09ceffcb726fc1b9b", "fusion_lon": 0.0}, {"rental_uris": {"ios": "https://dc.lft.to/lastmile_qr_scan", "android": "https://dc.lft.to/lastmile_qr_scan"}, "type": "electric_scooter", "name": "586fb3611bc239b1c7e8aa6d464c1340", "is_reserved": 0, "lon": -77.07213033333333, "is_disabled": 0, "fusion_lat": 0.0, "lat": 38.899030333333336, "bike_id": "586fb3611bc239b1c7e8aa6d464c1340", "fusion_lon": 0.0}, {"rental_uris": {"ios": "https://dc.lft.to/lastmile_qr_scan", "android": "https://dc.lft.to/lastmile_qr_scan"}, "type": "electric_scooter", "name": "ba8152ad48634cb3bfe6e86978169a86", "is_reserved": 0, "lon": -77.02790066666667, "is_disabled": 0, "fusion_lat": 0.0, "lat": 38.956081, "bike_id": "ba8152ad48634cb3bfe6e86978169a86", "fusion_lon": 0.0}, {"rental_uris": {"ios": "https://dc.lft.to/lastmile_qr_scan", "android": "https://dc.lft.to/lastmile_qr_scan"}, "type": "electric_scooter", "name": "cc503e17711ec45ecf7485aa15d8f34a", "is_reserved": 0, "lon": -77.05128716666667, "is_disabled": 0, "fusion_lat": 0.0, "lat": 38.92360866666667, "bike_id": "cc503e17711ec45ecf7485aa15d8f34a", "fusion_lon": 0.0}, {"rental_uris": {"ios": "https://dc.lft.to/lastmile_qr_scan", "android": "https://dc.lft.to/lastmile_qr_scan"}, "type": "electric_scooter", "name": "f29ca2209d9afd373a798fb49fdaf8a4", "is_reserved": 0, "lon": -77.044936, "is_disabled": 0, "fusion_lat": 0.0, "lat": 38.890527666666664, "bike_id": "f29ca2209d9afd373a798fb49fdaf8a4", "fusion_lon": 0.0}, {"rental_uris": {"ios": "https://dc.lft.to/lastmile_qr_scan", "android": "https://dc.lft.to/lastmile_qr_scan"}, "type": "electric_scooter", "name": "7596670a60332a098619e19affffd18a", "is_reserved": 0, "lon": -77.01877216666666, "is_disabled": 0, "fusion_lat": 0.0, "lat": 38.93054566666667, "bike_id": "7596670a60332a098619e19affffd18a", "fusion_lon": 0.0}, {"rental_uris": {"ios": "https://dc.lft.to/lastmile_qr_scan", "android": "https://dc.lft.to/lastmile_qr_scan"}, "type": "electric_scooter", "name": "dfc6c8c49b6da8f05fae9b4e4caeb43d", "is_reserved": 0, "lon": -77.03844166666667, "is_disabled": 0, "fusion_lat": 0.0, "lat": 38.90992133333334, "bike_id": "dfc6c8c49b6da8f05fae9b4e4caeb43d", "fusion_lon": 0.0}, {"rental_uris": {"ios": "https://dc.lft.to/lastmile_qr_scan", "android": "https://dc.lft.to/lastmile_qr_scan"}, "type": "electric_scooter", "name": "9a9853900a0d3b3928df7b6e3ebcf1ff", "is_reserved": 0, "lon": -76.97033316666666, "is_disabled": 0, "fusion_lat": 0.0, "lat": 38.87318416666667, "bike_id": "9a9853900a0d3b3928df7b6e3ebcf1ff", "fusion_lon": 0.0}, {"rental_uris": {"ios": "https://dc.lft.to/lastmile_qr_scan", "android": "https://dc.lft.to/lastmile_qr_scan"}, "type": "electric_scooter", "name": "86fc7d80bc24c73c5c7ed130f3653dba", "is_reserved": 0, "lon": -77.033315, "is_disabled": 0, "fusion_lat": 0.0, "lat": 38.91973133333333, "bike_id": "86fc7d80bc24c73c5c7ed130f3653dba", "fusion_lon": 0.0}, {"rental_uris": {"ios": "https://dc.lft.to/lastmile_qr_scan", "android": "https://dc.lft.to/lastmile_qr_scan"}, "type": "electric_scooter", "name": "f827948fa982e41bb577d71668919e32", "is_reserved": 0, "lon": -77.0076185, "is_disabled": 0, "fusion_lat": 0.0, "lat": 38.91024933333333, "bike_id": "f827948fa982e41bb577d71668919e32", "fusion_lon": 0.0}, {"rental_uris": {"ios": "https://dc.lft.to/lastmile_qr_scan", "android": "https://dc.lft.to/lastmile_qr_scan"}, "type": "electric_scooter", "name": "55869002f134311a23f0376da6dd8ec9", "is_reserved": 0, "lon": -77.02201383333333, "is_disabled": 0, "fusion_lat": 0.0, "lat": 38.9112475, "bike_id": "55869002f134311a23f0376da6dd8ec9", "fusion_lon": 0.0}, {"rental_uris": {"ios": "https://dc.lft.to/lastmile_qr_scan", "android": "https://dc.lft.to/lastmile_qr_scan"}, "type": "electric_scooter", "name": "31d9e2c36ffc88555fa2a4ca1d02f3aa", "is_reserved": 0, "lon": -77.00810233333333, "is_disabled": 0, "fusion_lat": 0.0, "lat": 38.87838416666666, "bike_id": "31d9e2c36ffc88555fa2a4ca1d02f3aa", "fusion_lon": 0.0}, {"rental_uris": {"ios": "https://dc.lft.to/lastmile_qr_scan", "android": "https://dc.lft.to/lastmile_qr_scan"}, "type": "electric_scooter", "name": "fa1b72cdf0203aac08f1c264641d6ffd", "is_reserved": 0, "lon": -77.0239035, "is_disabled": 0, "fusion_lat": 0.0, "lat": 38.92600366666667, "bike_id": "fa1b72cdf0203aac08f1c264641d6ffd", "fusion_lon": 0.0}, {"rental_uris": {"ios": "https://dc.lft.to/lastmile_qr_scan", "android": "https://dc.lft.to/lastmile_qr_scan"}, "type": "electric_scooter", "name": "0f16b2430277231326975583b0f4683b", "is_reserved": 0, "lon": -77.02811333333334, "is_disabled": 0, "fusion_lat": 0.0, "lat": 38.93089616666666, "bike_id": "0f16b2430277231326975583b0f4683b", "fusion_lon": 0.0}, {"rental_uris": {"ios": "https://dc.lft.to/lastmile_qr_scan", "android": "https://dc.lft.to/lastmile_qr_scan"}, "type": "electric_scooter", "name": "11cdd4c7eb200f44fb9c4dca2c360f27", "is_reserved": 0, "lon": -76.9374265, "is_disabled": 0, "fusion_lat": 0.0, "lat": 38.89011333333333, "bike_id": "11cdd4c7eb200f44fb9c4dca2c360f27", "fusion_lon": 0.0}, {"rental_uris": {"ios": "https://dc.lft.to/lastmile_qr_scan", "android": "https://dc.lft.to/lastmile_qr_scan"}, "type": "electric_scooter", "name": "d3ed4d22baef02116f602551b6ab67a3", "is_reserved": 0, "lon": -77.0420225, "is_disabled": 0, "fusion_lat": 0.0, "lat": 38.920502666666664, "bike_id": "d3ed4d22baef02116f602551b6ab67a3", "fusion_lon": 0.0}, {"rental_uris": {"ios": "https://dc.lft.to/lastmile_qr_scan", "android": "https://dc.lft.to/lastmile_qr_scan"}, "type": "electric_scooter", "name": "9a2673ee05a1b2fbed74b2c75bcd55cd", "is_reserved": 0, "lon": -77.041285, "is_disabled": 0, "fusion_lat": 0.0, "lat": 38.910496333333334, "bike_id": "9a2673ee05a1b2fbed74b2c75bcd55cd", "fusion_lon": 0.0}, {"rental_uris": {"ios": "https://dc.lft.to/lastmile_qr_scan", "android": "https://dc.lft.to/lastmile_qr_scan"}, "type": "electric_bike", "name": "9cfdcf68883fdae8a8e026efd41aea18", "is_reserved": 0, "lon": -77.0670035, "is_disabled": 0, "fusion_lat": 0.0, "lat": 38.8317265, "bike_id": "9cfdcf68883fdae8a8e026efd41aea18", "fusion_lon": 0.0}, {"rental_uris": {"ios": "https://dc.lft.to/lastmile_qr_scan", "android": "https://dc.lft.to/lastmile_qr_scan"}, "type": "electric_scooter", "name": "a27c03955e70efc8411236f5ddc564de", "is_reserved": 0, "lon": -77.038645, "is_disabled": 0, "fusion_lat": 0.0, "lat": 38.92149533333333, "bike_id": "a27c03955e70efc8411236f5ddc564de", "fusion_lon": 0.0}, {"rental_uris": {"ios": "https://dc.lft.to/lastmile_qr_scan", "android": "https://dc.lft.to/lastmile_qr_scan"}, "type": "electric_scooter", "name": "df254bd924486da17c7568dfa5a2b1c0", "is_reserved": 0, "lon": -76.98037566666666, "is_disabled": 0, "fusion_lat": 0.0, "lat": 38.91681116666667, "bike_id": "df254bd924486da17c7568dfa5a2b1c0", "fusion_lon": 0.0}, {"rental_uris": {"ios": "https://dc.lft.to/lastmile_qr_scan", "android": "https://dc.lft.to/lastmile_qr_scan"}, "type": "electric_scooter", "name": "796ca91877b9b433165324f582e10489", "is_reserved": 0, "lon": -77.01739516666666, "is_disabled": 0, "fusion_lat": 0.0, "lat": 38.91247833333333, "bike_id": "796ca91877b9b433165324f582e10489", "fusion_lon": 0.0}, {"rental_uris": {"ios": "https://dc.lft.to/lastmile_qr_scan", "android": "https://dc.lft.to/lastmile_qr_scan"}, "type": "electric_scooter", "name": "b2b32a6799ee3b39ba87383aada86ee9", "is_reserved": 0, "lon": -77.04397, "is_disabled": 0, "fusion_lat": 0.0, "lat": 38.92366483333333, "bike_id": "b2b32a6799ee3b39ba87383aada86ee9", "fusion_lon": 0.0}, {"rental_uris": {"ios": "https://dc.lft.to/lastmile_qr_scan", "android": "https://dc.lft.to/lastmile_qr_scan"}, "type": "electric_scooter", "name": "c4ea1e7b5f0fa8653e70fc07e041dafc", "is_reserved": 0, "lon": -77.00986283333333, "is_disabled": 0, "fusion_lat": 0.0, "lat": 38.872946166666665, "bike_id": "c4ea1e7b5f0fa8653e70fc07e041dafc", "fusion_lon": 0.0}, {"rental_uris": {"ios": "https://dc.lft.to/lastmile_qr_scan", "android": "https://dc.lft.to/lastmile_qr_scan"}, "type": "electric_scooter", "name": "993b4eece625dd184c87a4052831639f", "is_reserved": 0, "lon": -77.04909533333333, "is_disabled": 0, "fusion_lat": 0.0, "lat": 38.919363833333335, "bike_id": "993b4eece625dd184c87a4052831639f", "fusion_lon": 0.0}, {"rental_uris": {"ios": "https://dc.lft.to/lastmile_qr_scan", "android": "https://dc.lft.to/lastmile_qr_scan"}, "type": "electric_bike", "name": "91fd1747e3a52067562ed727a0095545", "is_reserved": 0, "lon": -76.99994416666667, "is_disabled": 0, "fusion_lat": 0.0, "lat": 38.923912666666666, "bike_id": "91fd1747e3a52067562ed727a0095545", "fusion_lon": 0.0}, {"rental_uris": {"ios": "https://dc.lft.to/lastmile_qr_scan", "android": "https://dc.lft.to/lastmile_qr_scan"}, "type": "electric_scooter", "name": "e4a4fdca28827ba25ff0babd863f286e", "is_reserved": 0, "lon": -77.04053166666667, "is_disabled": 0, "fusion_lat": 0.0, "lat": 38.89932833333334, "bike_id": "e4a4fdca28827ba25ff0babd863f286e", "fusion_lon": 0.0}, {"rental_uris": {"ios": "https://dc.lft.to/lastmile_qr_scan", "android": "https://dc.lft.to/lastmile_qr_scan"}, "type": "electric_bike", "name": "412a394ce2ea8834aa9c2c2b0c031743", "is_reserved": 0, "lon": -76.94164533333333, "is_disabled": 0, "fusion_lat": 0.0, "lat": 38.865567666666664, "bike_id": "412a394ce2ea8834aa9c2c2b0c031743", "fusion_lon": 0.0}, {"rental_uris": {"ios": "https://dc.lft.to/lastmile_qr_scan", "android": "https://dc.lft.to/lastmile_qr_scan"}, "type": "electric_scooter", "name": "1486d0f4d29b85a6ddafe6ea0962d941", "is_reserved": 0, "lon": -77.03470416666667, "is_disabled": 0, "fusion_lat": 0.0, "lat": 38.907255, "bike_id": "1486d0f4d29b85a6ddafe6ea0962d941", "fusion_lon": 0.0}, {"rental_uris": {"ios": "https://dc.lft.to/lastmile_qr_scan", "android": "https://dc.lft.to/lastmile_qr_scan"}, "type": "electric_scooter", "name": "fda3f79c5da27600e1ea4fd5dac9a7f6", "is_reserved": 0, "lon": -77.018395, "is_disabled": 0, "fusion_lat": 0.0, "lat": 38.90956366666666, "bike_id": "fda3f79c5da27600e1ea4fd5dac9a7f6", "fusion_lon": 0.0}, {"rental_uris": {"ios": "https://dc.lft.to/lastmile_qr_scan", "android": "https://dc.lft.to/lastmile_qr_scan"}, "type": "electric_scooter", "name": "ba99fc576d5f020d71bf86083d915a87", "is_reserved": 0, "lon": -77.0396715, "is_disabled": 0, "fusion_lat": 0.0, "lat": 38.90732033333333, "bike_id": "ba99fc576d5f020d71bf86083d915a87", "fusion_lon": 0.0}, {"rental_uris": {"ios": "https://dc.lft.to/lastmile_qr_scan", "android": "https://dc.lft.to/lastmile_qr_scan"}, "type": "electric_scooter", "name": "e37f960b339341a349a8b1e0f28f54ff", "is_reserved": 0, "lon": -77.04059533333333, "is_disabled": 0, "fusion_lat": 0.0, "lat": 38.923761666666664, "bike_id": "e37f960b339341a349a8b1e0f28f54ff", "fusion_lon": 0.0}, {"rental_uris": {"ios": "https://dc.lft.to/lastmile_qr_scan", "android": "https://dc.lft.to/lastmile_qr_scan"}, "type": "electric_scooter", "name": "263fee583fd0baae8090484ed381fdc3", "is_reserved": 0, "lon": -77.03362433333334, "is_disabled": 0, "fusion_lat": 0.0, "lat": 38.910691166666666, "bike_id": "263fee583fd0baae8090484ed381fdc3", "fusion_lon": 0.0}, {"rental_uris": {"ios": "https://dc.lft.to/lastmile_qr_scan", "android": "https://dc.lft.to/lastmile_qr_scan"}, "type": "electric_scooter", "name": "9327a9cba7f291a3b4c76f91057e2a58", "is_reserved": 0, "lon": -77.02135483333333, "is_disabled": 0, "fusion_lat": 0.0, "lat": 38.89726016666667, "bike_id": "9327a9cba7f291a3b4c76f91057e2a58", "fusion_lon": 0.0}, {"rental_uris": {"ios": "https://dc.lft.to/lastmile_qr_scan", "android": "https://dc.lft.to/lastmile_qr_scan"}, "type": "electric_scooter", "name": "1a0d059579afc45c85e869deae4a412c", "is_reserved": 0, "lon": -77.0434215, "is_disabled": 0, "fusion_lat": 0.0, "lat": 38.923544166666666, "bike_id": "1a0d059579afc45c85e869deae4a412c", "fusion_lon": 0.0}, {"rental_uris": {"ios": "https://dc.lft.to/lastmile_qr_scan", "android": "https://dc.lft.to/lastmile_qr_scan"}, "type": "electric_scooter", "name": "38e6ab151ae0a0aeeab0a64be1eed2be", "is_reserved": 0, "lon": -77.021277, "is_disabled": 0, "fusion_lat": 0.0, "lat": 38.92698016666667, "bike_id": "38e6ab151ae0a0aeeab0a64be1eed2be", "fusion_lon": 0.0}, {"rental_uris": {"ios": "https://dc.lft.to/lastmile_qr_scan", "android": "https://dc.lft.to/lastmile_qr_scan"}, "type": "electric_bike", "name": "93da3681d01bc661e5a64c319dd7a4e1", "is_reserved": 0, "lon": -77.02010266666667, "is_disabled": 0, "fusion_lat": 0.0, "lat": 38.96443983333333, "bike_id": "93da3681d01bc661e5a64c319dd7a4e1", "fusion_lon": 0.0}, {"rental_uris": {"ios": "https://dc.lft.to/lastmile_qr_scan", "android": "https://dc.lft.to/lastmile_qr_scan"}, "type": "electric_scooter", "name": "21f631a3e82b7c497ced1a2e69debed8", "is_reserved": 0, "lon": -77.02328783333333, "is_disabled": 0, "fusion_lat": 0.0, "lat": 38.9230255, "bike_id": "21f631a3e82b7c497ced1a2e69debed8", "fusion_lon": 0.0}, {"rental_uris": {"ios": "https://dc.lft.to/lastmile_qr_scan", "android": "https://dc.lft.to/lastmile_qr_scan"}, "type": "electric_scooter", "name": "d0c196db59086b209dfb2d31209ff568", "is_reserved": 0, "lon": -77.02611783333333, "is_disabled": 0, "fusion_lat": 0.0, "lat": 38.916946833333334, "bike_id": "d0c196db59086b209dfb2d31209ff568", "fusion_lon": 0.0}, {"rental_uris": {"ios": "https://dc.lft.to/lastmile_qr_scan", "android": "https://dc.lft.to/lastmile_qr_scan"}, "type": "electric_scooter", "name": "ff7f7970743a960bca868bd6742c71b6", "is_reserved": 0, "lon": -76.98547866666667, "is_disabled": 0, "fusion_lat": 0.0, "lat": 38.883865166666666, "bike_id": "ff7f7970743a960bca868bd6742c71b6", "fusion_lon": 0.0}, {"rental_uris": {"ios": "https://dc.lft.to/lastmile_qr_scan", "android": "https://dc.lft.to/lastmile_qr_scan"}, "type": "electric_scooter", "name": "9976f0db3da520a7f876c787bba20a79", "is_reserved": 0, "lon": -76.98260733333333, "is_disabled": 0, "fusion_lat": 0.0, "lat": 38.8662845, "bike_id": "9976f0db3da520a7f876c787bba20a79", "fusion_lon": 0.0}, {"rental_uris": {"ios": "https://dc.lft.to/lastmile_qr_scan", "android": "https://dc.lft.to/lastmile_qr_scan"}, "type": "electric_scooter", "name": "ca7ae9e5cce6bbbb6987978795810886", "is_reserved": 0, "lon": -77.02662816666667, "is_disabled": 0, "fusion_lat": 0.0, "lat": 38.9221675, "bike_id": "ca7ae9e5cce6bbbb6987978795810886", "fusion_lon": 0.0}, {"rental_uris": {"ios": "https://dc.lft.to/lastmile_qr_scan", "android": "https://dc.lft.to/lastmile_qr_scan"}, "type": "electric_scooter", "name": "395e9ce5e1bcfd2ba8d780aa1f2c1525", "is_reserved": 0, "lon": -77.047237, "is_disabled": 0, "fusion_lat": 0.0, "lat": 38.9178755, "bike_id": "395e9ce5e1bcfd2ba8d780aa1f2c1525", "fusion_lon": 0.0}, {"rental_uris": {"ios": "https://dc.lft.to/lastmile_qr_scan", "android": "https://dc.lft.to/lastmile_qr_scan"}, "type": "electric_scooter", "name": "eb2dd483b5a7c1aea7704eb79e115f1b", "is_reserved": 0, "lon": -77.0655745, "is_disabled": 0, "fusion_lat": 0.0, "lat": 38.91167883333333, "bike_id": "eb2dd483b5a7c1aea7704eb79e115f1b", "fusion_lon": 0.0}, {"rental_uris": {"ios": "https://dc.lft.to/lastmile_qr_scan", "android": "https://dc.lft.to/lastmile_qr_scan"}, "type": "electric_scooter", "name": "f1d104745466bce800a80aa42a43c778", "is_reserved": 0, "lon": -77.02906983333334, "is_disabled": 0, "fusion_lat": 0.0, "lat": 38.933266333333336, "bike_id": "f1d104745466bce800a80aa42a43c778", "fusion_lon": 0.0}, {"rental_uris": {"ios": "https://dc.lft.to/lastmile_qr_scan", "android": "https://dc.lft.to/lastmile_qr_scan"}, "type": "electric_scooter", "name": "5806dd8d1a46d78eac14a481230cc87a", "is_reserved": 0, "lon": -77.03199666666667, "is_disabled": 0, "fusion_lat": 0.0, "lat": 38.9115865, "bike_id": "5806dd8d1a46d78eac14a481230cc87a", "fusion_lon": 0.0}, {"rental_uris": {"ios": "https://dc.lft.to/lastmile_qr_scan", "android": "https://dc.lft.to/lastmile_qr_scan"}, "type": "electric_scooter", "name": "afdb40258faf33bbed15860cbc957ba1", "is_reserved": 0, "lon": -77.01515166666667, "is_disabled": 0, "fusion_lat": 0.0, "lat": 38.91054666666667, "bike_id": "afdb40258faf33bbed15860cbc957ba1", "fusion_lon": 0.0}, {"rental_uris": {"ios": "https://dc.lft.to/lastmile_qr_scan", "android": "https://dc.lft.to/lastmile_qr_scan"}, "type": "electric_scooter", "name": "1136abbacc7ddc9a2e35f68743d56574", "is_reserved": 0, "lon": -76.98698766666666, "is_disabled": 0, "fusion_lat": 0.0, "lat": 38.913039833333336, "bike_id": "1136abbacc7ddc9a2e35f68743d56574", "fusion_lon": 0.0}, {"rental_uris": {"ios": "https://dc.lft.to/lastmile_qr_scan", "android": "https://dc.lft.to/lastmile_qr_scan"}, "type": "electric_scooter", "name": "5933c5bd00bb8c69d45c3a91b2c65e2e", "is_reserved": 0, "lon": -77.01650316666667, "is_disabled": 0, "fusion_lat": 0.0, "lat": 38.929438, "bike_id": "5933c5bd00bb8c69d45c3a91b2c65e2e", "fusion_lon": 0.0}, {"rental_uris": {"ios": "https://dc.lft.to/lastmile_qr_scan", "android": "https://dc.lft.to/lastmile_qr_scan"}, "type": "electric_scooter", "name": "8d450daaa7a27aa0120980b853e30e4c", "is_reserved": 0, "lon": -77.06696466666666, "is_disabled": 0, "fusion_lat": 0.0, "lat": 38.90982533333333, "bike_id": "8d450daaa7a27aa0120980b853e30e4c", "fusion_lon": 0.0}, {"rental_uris": {"ios": "https://dc.lft.to/lastmile_qr_scan", "android": "https://dc.lft.to/lastmile_qr_scan"}, "type": "electric_scooter", "name": "d7fc963c98aa10e9c201bc728791a462", "is_reserved": 0, "lon": -77.0363505, "is_disabled": 0, "fusion_lat": 0.0, "lat": 38.90622583333333, "bike_id": "d7fc963c98aa10e9c201bc728791a462", "fusion_lon": 0.0}, {"rental_uris": {"ios": "https://dc.lft.to/lastmile_qr_scan", "android": "https://dc.lft.to/lastmile_qr_scan"}, "type": "electric_scooter", "name": "522d34bf567564c8138101669d243884", "is_reserved": 0, "lon": -77.01919033333333, "is_disabled": 0, "fusion_lat": 0.0, "lat": 38.877034, "bike_id": "522d34bf567564c8138101669d243884", "fusion_lon": 0.0}, {"rental_uris": {"ios": "https://dc.lft.to/lastmile_qr_scan", "android": "https://dc.lft.to/lastmile_qr_scan"}, "type": "electric_bike", "name": "261b6edc9d1e202e9d508f7b3a510041", "is_reserved": 0, "lon": -76.97311983333333, "is_disabled": 0, "fusion_lat": 0.0, "lat": 38.917629, "bike_id": "261b6edc9d1e202e9d508f7b3a510041", "fusion_lon": 0.0}, {"rental_uris": {"ios": "https://dc.lft.to/lastmile_qr_scan", "android": "https://dc.lft.to/lastmile_qr_scan"}, "type": "electric_scooter", "name": "dafaa8b637678c7f3d8f0b439bdc75f1", "is_reserved": 0, "lon": -77.0344645, "is_disabled": 0, "fusion_lat": 0.0, "lat": 38.90787433333333, "bike_id": "dafaa8b637678c7f3d8f0b439bdc75f1", "fusion_lon": 0.0}, {"rental_uris": {"ios": "https://dc.lft.to/lastmile_qr_scan", "android": "https://dc.lft.to/lastmile_qr_scan"}, "type": "electric_bike", "name": "c7a69e60ecb1848c3532c0dd35ddb9b1", "is_reserved": 0, "lon": -77.0775105, "is_disabled": 0, "fusion_lat": 0.0, "lat": 38.841911833333334, "bike_id": "c7a69e60ecb1848c3532c0dd35ddb9b1", "fusion_lon": 0.0}, {"rental_uris": {"ios": "https://dc.lft.to/lastmile_qr_scan", "android": "https://dc.lft.to/lastmile_qr_scan"}, "type": "electric_scooter", "name": "f18c491eb6ce6dddebe5e32681d07cd5", "is_reserved": 0, "lon": -77.0356985, "is_disabled": 0, "fusion_lat": 0.0, "lat": 38.909683666666666, "bike_id": "f18c491eb6ce6dddebe5e32681d07cd5", "fusion_lon": 0.0}, {"rental_uris": {"ios": "https://dc.lft.to/lastmile_qr_scan", "android": "https://dc.lft.to/lastmile_qr_scan"}, "type": "electric_scooter", "name": "4f80e402d31712f65f9d3fc6a5a9ad89", "is_reserved": 0, "lon": -76.9924865, "is_disabled": 0, "fusion_lat": 0.0, "lat": 38.940637833333334, "bike_id": "4f80e402d31712f65f9d3fc6a5a9ad89", "fusion_lon": 0.0}, {"rental_uris": {"ios": "https://dc.lft.to/lastmile_qr_scan", "android": "https://dc.lft.to/lastmile_qr_scan"}, "type": "electric_scooter", "name": "a9e7c6fb32667584b863bdf63c0ca12a", "is_reserved": 0, "lon": -77.03239383333333, "is_disabled": 0, "fusion_lat": 0.0, "lat": 38.9156255, "bike_id": "a9e7c6fb32667584b863bdf63c0ca12a", "fusion_lon": 0.0}, {"rental_uris": {"ios": "https://dc.lft.to/lastmile_qr_scan", "android": "https://dc.lft.to/lastmile_qr_scan"}, "type": "electric_scooter", "name": "6e65becb3780486cf308b653021167dc", "is_reserved": 0, "lon": -77.04884483333333, "is_disabled": 0, "fusion_lat": 0.0, "lat": 38.9071765, "bike_id": "6e65becb3780486cf308b653021167dc", "fusion_lon": 0.0}, {"rental_uris": {"ios": "https://dc.lft.to/lastmile_qr_scan", "android": "https://dc.lft.to/lastmile_qr_scan"}, "type": "electric_scooter", "name": "b299159d839652949bd847fb073e5fb9", "is_reserved": 0, "lon": -76.96525316666667, "is_disabled": 0, "fusion_lat": 0.0, "lat": 38.876336, "bike_id": "b299159d839652949bd847fb073e5fb9", "fusion_lon": 0.0}, {"rental_uris": {"ios": "https://dc.lft.to/lastmile_qr_scan", "android": "https://dc.lft.to/lastmile_qr_scan"}, "type": "electric_bike", "name": "80dd12227ce50c198d78d23686b0a6d8", "is_reserved": 0, "lon": -76.960872, "is_disabled": 0, "fusion_lat": 0.0, "lat": 38.918581, "bike_id": "80dd12227ce50c198d78d23686b0a6d8", "fusion_lon": 0.0}, {"rental_uris": {"ios": "https://dc.lft.to/lastmile_qr_scan", "android": "https://dc.lft.to/lastmile_qr_scan"}, "type": "electric_scooter", "name": "157972a09ee49a303b2ae9b93d3c3774", "is_reserved": 0, "lon": -77.02558233333333, "is_disabled": 0, "fusion_lat": 0.0, "lat": 38.953950666666664, "bike_id": "157972a09ee49a303b2ae9b93d3c3774", "fusion_lon": 0.0}, {"rental_uris": {"ios": "https://dc.lft.to/lastmile_qr_scan", "android": "https://dc.lft.to/lastmile_qr_scan"}, "type": "electric_scooter", "name": "c26e1cc4803f6ea549098323a4a8e4f8", "is_reserved": 0, "lon": -76.93744433333333, "is_disabled": 0, "fusion_lat": 0.0, "lat": 38.8900445, "bike_id": "c26e1cc4803f6ea549098323a4a8e4f8", "fusion_lon": 0.0}, {"rental_uris": {"ios": "https://dc.lft.to/lastmile_qr_scan", "android": "https://dc.lft.to/lastmile_qr_scan"}, "type": "electric_scooter", "name": "82bdce78c70919a2e246764db7a4da17", "is_reserved": 0, "lon": -77.03893366666667, "is_disabled": 0, "fusion_lat": 0.0, "lat": 38.92318183333333, "bike_id": "82bdce78c70919a2e246764db7a4da17", "fusion_lon": 0.0}, {"rental_uris": {"ios": "https://dc.lft.to/lastmile_qr_scan", "android": "https://dc.lft.to/lastmile_qr_scan"}, "type": "electric_scooter", "name": "121fd875b9aa105ecf0ee8ceb78d3fee", "is_reserved": 0, "lon": -77.04101883333334, "is_disabled": 0, "fusion_lat": 0.0, "lat": 38.917303, "bike_id": "121fd875b9aa105ecf0ee8ceb78d3fee", "fusion_lon": 0.0}, {"rental_uris": {"ios": "https://dc.lft.to/lastmile_qr_scan", "android": "https://dc.lft.to/lastmile_qr_scan"}, "type": "electric_scooter", "name": "6ee3c825a0041423d172029d32a5c4d0", "is_reserved": 0, "lon": -77.02710516666667, "is_disabled": 0, "fusion_lat": 0.0, "lat": 38.922838666666664, "bike_id": "6ee3c825a0041423d172029d32a5c4d0", "fusion_lon": 0.0}, {"rental_uris": {"ios": "https://dc.lft.to/lastmile_qr_scan", "android": "https://dc.lft.to/lastmile_qr_scan"}, "type": "electric_scooter", "name": "2919faf18a39728fa8b067fe661a9c99", "is_reserved": 0, "lon": -77.0348235, "is_disabled": 0, "fusion_lat": 0.0, "lat": 38.90560633333333, "bike_id": "2919faf18a39728fa8b067fe661a9c99", "fusion_lon": 0.0}, {"rental_uris": {"ios": "https://dc.lft.to/lastmile_qr_scan", "android": "https://dc.lft.to/lastmile_qr_scan"}, "type": "electric_scooter", "name": "ea175895afdda3cb01dae492c1b8fb1f", "is_reserved": 0, "lon": -77.04359216666667, "is_disabled": 0, "fusion_lat": 0.0, "lat": 38.907256833333335, "bike_id": "ea175895afdda3cb01dae492c1b8fb1f", "fusion_lon": 0.0}, {"rental_uris": {"ios": "https://dc.lft.to/lastmile_qr_scan", "android": "https://dc.lft.to/lastmile_qr_scan"}, "type": "electric_scooter", "name": "8f950b22053066e0534441be983a92b1", "is_reserved": 0, "lon": -77.04056733333333, "is_disabled": 0, "fusion_lat": 0.0, "lat": 38.917704, "bike_id": "8f950b22053066e0534441be983a92b1", "fusion_lon": 0.0}, {"rental_uris": {"ios": "https://dc.lft.to/lastmile_qr_scan", "android": "https://dc.lft.to/lastmile_qr_scan"}, "type": "electric_bike", "name": "7c001d7ea2fef38043ee5d5a4daad430", "is_reserved": 0, "lon": -76.96154133333333, "is_disabled": 0, "fusion_lat": 0.0, "lat": 38.856193833333336, "bike_id": "7c001d7ea2fef38043ee5d5a4daad430", "fusion_lon": 0.0}, {"rental_uris": {"ios": "https://dc.lft.to/lastmile_qr_scan", "android": "https://dc.lft.to/lastmile_qr_scan"}, "type": "electric_scooter", "name": "71ba932dc582122d127d2a8c480e0f28", "is_reserved": 0, "lon": -77.04507266666667, "is_disabled": 0, "fusion_lat": 0.0, "lat": 38.907612666666665, "bike_id": "71ba932dc582122d127d2a8c480e0f28", "fusion_lon": 0.0}, {"rental_uris": {"ios": "https://dc.lft.to/lastmile_qr_scan", "android": "https://dc.lft.to/lastmile_qr_scan"}, "type": "electric_scooter", "name": "43dba351ecebe40dcdf6cf64374d1f91", "is_reserved": 0, "lon": -77.0613025, "is_disabled": 0, "fusion_lat": 0.0, "lat": 38.902513666666664, "bike_id": "43dba351ecebe40dcdf6cf64374d1f91", "fusion_lon": 0.0}, {"rental_uris": {"ios": "https://dc.lft.to/lastmile_qr_scan", "android": "https://dc.lft.to/lastmile_qr_scan"}, "type": "electric_scooter", "name": "db1b27d3b5b1a650a1d824c4d9e276be", "is_reserved": 0, "lon": -77.02814883333333, "is_disabled": 0, "fusion_lat": 0.0, "lat": 38.909176, "bike_id": "db1b27d3b5b1a650a1d824c4d9e276be", "fusion_lon": 0.0}, {"rental_uris": {"ios": "https://dc.lft.to/lastmile_qr_scan", "android": "https://dc.lft.to/lastmile_qr_scan"}, "type": "electric_scooter", "name": "26d4c5c8779eaf697cd8b383a1d42ece", "is_reserved": 0, "lon": -76.99748583333333, "is_disabled": 0, "fusion_lat": 0.0, "lat": 38.885311333333334, "bike_id": "26d4c5c8779eaf697cd8b383a1d42ece", "fusion_lon": 0.0}, {"rental_uris": {"ios": "https://dc.lft.to/lastmile_qr_scan", "android": "https://dc.lft.to/lastmile_qr_scan"}, "type": "electric_scooter", "name": "8052a52a16d5967d4ea3c199bcd29f7c", "is_reserved": 0, "lon": -76.9841475, "is_disabled": 0, "fusion_lat": 0.0, "lat": 38.87995516666667, "bike_id": "8052a52a16d5967d4ea3c199bcd29f7c", "fusion_lon": 0.0}, {"rental_uris": {"ios": "https://dc.lft.to/lastmile_qr_scan", "android": "https://dc.lft.to/lastmile_qr_scan"}, "type": "electric_scooter", "name": "104368cedd83f984db9ab686a63dd9b7", "is_reserved": 0, "lon": -77.02807833333334, "is_disabled": 0, "fusion_lat": 0.0, "lat": 38.9308035, "bike_id": "104368cedd83f984db9ab686a63dd9b7", "fusion_lon": 0.0}, {"rental_uris": {"ios": "https://dc.lft.to/lastmile_qr_scan", "android": "https://dc.lft.to/lastmile_qr_scan"}, "type": "electric_bike", "name": "c13276f65a1c4548180355543556e82e", "is_reserved": 0, "lon": -76.97317033333333, "is_disabled": 0, "fusion_lat": 0.0, "lat": 38.8578365, "bike_id": "c13276f65a1c4548180355543556e82e", "fusion_lon": 0.0}, {"rental_uris": {"ios": "https://dc.lft.to/lastmile_qr_scan", "android": "https://dc.lft.to/lastmile_qr_scan"}, "type": "electric_scooter", "name": "8254b53e96d7417c7a06b2809207e22e", "is_reserved": 0, "lon": -77.0430605, "is_disabled": 0, "fusion_lat": 0.0, "lat": 38.92335516666667, "bike_id": "8254b53e96d7417c7a06b2809207e22e", "fusion_lon": 0.0}, {"rental_uris": {"ios": "https://dc.lft.to/lastmile_qr_scan", "android": "https://dc.lft.to/lastmile_qr_scan"}, "type": "electric_scooter", "name": "744d583e27a8cda46a5dc1caa1139676", "is_reserved": 0, "lon": -77.05996383333333, "is_disabled": 0, "fusion_lat": 0.0, "lat": 38.90236066666667, "bike_id": "744d583e27a8cda46a5dc1caa1139676", "fusion_lon": 0.0}, {"rental_uris": {"ios": "https://dc.lft.to/lastmile_qr_scan", "android": "https://dc.lft.to/lastmile_qr_scan"}, "type": "electric_scooter", "name": "76c713397f4ea590310b35a0f8faaa56", "is_reserved": 0, "lon": -77.01701233333333, "is_disabled": 0, "fusion_lat": 0.0, "lat": 38.90473716666666, "bike_id": "76c713397f4ea590310b35a0f8faaa56", "fusion_lon": 0.0}, {"rental_uris": {"ios": "https://dc.lft.to/lastmile_qr_scan", "android": "https://dc.lft.to/lastmile_qr_scan"}, "type": "electric_scooter", "name": "028bde473573a39f7c66ff044fbcb620", "is_reserved": 0, "lon": -76.99334533333334, "is_disabled": 0, "fusion_lat": 0.0, "lat": 38.92033283333333, "bike_id": "028bde473573a39f7c66ff044fbcb620", "fusion_lon": 0.0}, {"rental_uris": {"ios": "https://dc.lft.to/lastmile_qr_scan", "android": "https://dc.lft.to/lastmile_qr_scan"}, "type": "electric_scooter", "name": "bba56a8762e83569ab7bf0fe94f5ca21", "is_reserved": 0, "lon": -77.06401516666666, "is_disabled": 0, "fusion_lat": 0.0, "lat": 38.908729, "bike_id": "bba56a8762e83569ab7bf0fe94f5ca21", "fusion_lon": 0.0}, {"rental_uris": {"ios": "https://dc.lft.to/lastmile_qr_scan", "android": "https://dc.lft.to/lastmile_qr_scan"}, "type": "electric_scooter", "name": "f0fc0c008d4be3a9d30d0f9c474c9a0f", "is_reserved": 0, "lon": -77.05233133333333, "is_disabled": 0, "fusion_lat": 0.0, "lat": 38.9040195, "bike_id": "f0fc0c008d4be3a9d30d0f9c474c9a0f", "fusion_lon": 0.0}, {"rental_uris": {"ios": "https://dc.lft.to/lastmile_qr_scan", "android": "https://dc.lft.to/lastmile_qr_scan"}, "type": "electric_scooter", "name": "2b472d0270f09f3d63095cf619e6f015", "is_reserved": 0, "lon": -77.04461616666667, "is_disabled": 0, "fusion_lat": 0.0, "lat": 38.91119583333333, "bike_id": "2b472d0270f09f3d63095cf619e6f015", "fusion_lon": 0.0}, {"rental_uris": {"ios": "https://dc.lft.to/lastmile_qr_scan", "android": "https://dc.lft.to/lastmile_qr_scan"}, "type": "electric_scooter", "name": "6a2221ee708be552f345857fa4619524", "is_reserved": 0, "lon": -77.07279816666667, "is_disabled": 0, "fusion_lat": 0.0, "lat": 38.915932, "bike_id": "6a2221ee708be552f345857fa4619524", "fusion_lon": 0.0}, {"rental_uris": {"ios": "https://dc.lft.to/lastmile_qr_scan", "android": "https://dc.lft.to/lastmile_qr_scan"}, "type": "electric_scooter", "name": "40563e414f855c5bf8bdf0d06d54b9b4", "is_reserved": 0, "lon": -77.02717216666667, "is_disabled": 0, "fusion_lat": 0.0, "lat": 38.89989, "bike_id": "40563e414f855c5bf8bdf0d06d54b9b4", "fusion_lon": 0.0}, {"rental_uris": {"ios": "https://dc.lft.to/lastmile_qr_scan", "android": "https://dc.lft.to/lastmile_qr_scan"}, "type": "electric_scooter", "name": "d6b3252a02b7d8907f914538c1bf3057", "is_reserved": 0, "lon": -77.03190116666667, "is_disabled": 0, "fusion_lat": 0.0, "lat": 38.91123533333333, "bike_id": "d6b3252a02b7d8907f914538c1bf3057", "fusion_lon": 0.0}, {"rental_uris": {"ios": "https://dc.lft.to/lastmile_qr_scan", "android": "https://dc.lft.to/lastmile_qr_scan"}, "type": "electric_scooter", "name": "d8a0a6168701b3265eb5ea7d2db47528", "is_reserved": 0, "lon": -77.01258633333333, "is_disabled": 0, "fusion_lat": 0.0, "lat": 38.89719266666667, "bike_id": "d8a0a6168701b3265eb5ea7d2db47528", "fusion_lon": 0.0}, {"rental_uris": {"ios": "https://dc.lft.to/lastmile_qr_scan", "android": "https://dc.lft.to/lastmile_qr_scan"}, "type": "electric_scooter", "name": "927a8e2e9f20be44cb6733039b958371", "is_reserved": 0, "lon": -77.00753383333333, "is_disabled": 0, "fusion_lat": 0.0, "lat": 38.9073845, "bike_id": "927a8e2e9f20be44cb6733039b958371", "fusion_lon": 0.0}, {"rental_uris": {"ios": "https://dc.lft.to/lastmile_qr_scan", "android": "https://dc.lft.to/lastmile_qr_scan"}, "type": "electric_scooter", "name": "a8337444c3446df21d53cad5bb1927df", "is_reserved": 0, "lon": -77.032151, "is_disabled": 0, "fusion_lat": 0.0, "lat": 38.91672666666667, "bike_id": "a8337444c3446df21d53cad5bb1927df", "fusion_lon": 0.0}, {"rental_uris": {"ios": "https://dc.lft.to/lastmile_qr_scan", "android": "https://dc.lft.to/lastmile_qr_scan"}, "type": "electric_bike", "name": "6bcd847d84d885d1d18b20155d24c647", "is_reserved": 0, "lon": -76.99499566666667, "is_disabled": 0, "fusion_lat": 0.0, "lat": 38.882427, "bike_id": "6bcd847d84d885d1d18b20155d24c647", "fusion_lon": 0.0}, {"rental_uris": {"ios": "https://dc.lft.to/lastmile_qr_scan", "android": "https://dc.lft.to/lastmile_qr_scan"}, "type": "electric_scooter", "name": "04cdf78ec1c25cac463dbb8cfd880830", "is_reserved": 0, "lon": -77.02128783333333, "is_disabled": 0, "fusion_lat": 0.0, "lat": 38.91415083333333, "bike_id": "04cdf78ec1c25cac463dbb8cfd880830", "fusion_lon": 0.0}, {"rental_uris": {"ios": "https://dc.lft.to/lastmile_qr_scan", "android": "https://dc.lft.to/lastmile_qr_scan"}, "type": "electric_scooter", "name": "cc7317ad8da43a5c1407ab047ba44837", "is_reserved": 0, "lon": -77.02100116666666, "is_disabled": 0, "fusion_lat": 0.0, "lat": 38.91637766666667, "bike_id": "cc7317ad8da43a5c1407ab047ba44837", "fusion_lon": 0.0}, {"rental_uris": {"ios": "https://dc.lft.to/lastmile_qr_scan", "android": "https://dc.lft.to/lastmile_qr_scan"}, "type": "electric_scooter", "name": "7b535c3adfdc96fdd5eebffc082037e8", "is_reserved": 0, "lon": -77.01869883333333, "is_disabled": 0, "fusion_lat": 0.0, "lat": 38.951533166666664, "bike_id": "7b535c3adfdc96fdd5eebffc082037e8", "fusion_lon": 0.0}, {"rental_uris": {"ios": "https://dc.lft.to/lastmile_qr_scan", "android": "https://dc.lft.to/lastmile_qr_scan"}, "type": "electric_scooter", "name": "2ac98ce1a239e9ace513f1eaeb7da40d", "is_reserved": 0, "lon": -77.02863133333334, "is_disabled": 0, "fusion_lat": 0.0, "lat": 38.9326305, "bike_id": "2ac98ce1a239e9ace513f1eaeb7da40d", "fusion_lon": 0.0}, {"rental_uris": {"ios": "https://dc.lft.to/lastmile_qr_scan", "android": "https://dc.lft.to/lastmile_qr_scan"}, "type": "electric_bike", "name": "55351188807573f0ca9aba178abf5418", "is_reserved": 0, "lon": -77.0242175, "is_disabled": 0, "fusion_lat": 0.0, "lat": 38.923332, "bike_id": "55351188807573f0ca9aba178abf5418", "fusion_lon": 0.0}, {"rental_uris": {"ios": "https://dc.lft.to/lastmile_qr_scan", "android": "https://dc.lft.to/lastmile_qr_scan"}, "type": "electric_scooter", "name": "3ae8bca10a9213b1aab4ca75fce20e63", "is_reserved": 0, "lon": -77.03856383333333, "is_disabled": 0, "fusion_lat": 0.0, "lat": 38.91007533333333, "bike_id": "3ae8bca10a9213b1aab4ca75fce20e63", "fusion_lon": 0.0}, {"rental_uris": {"ios": "https://dc.lft.to/lastmile_qr_scan", "android": "https://dc.lft.to/lastmile_qr_scan"}, "type": "electric_scooter", "name": "15b951b1fd01c2198b5a22566a82d773", "is_reserved": 0, "lon": -76.94720233333334, "is_disabled": 0, "fusion_lat": 0.0, "lat": 38.890865166666664, "bike_id": "15b951b1fd01c2198b5a22566a82d773", "fusion_lon": 0.0}, {"rental_uris": {"ios": "https://dc.lft.to/lastmile_qr_scan", "android": "https://dc.lft.to/lastmile_qr_scan"}, "type": "electric_scooter", "name": "22465911ace8cf4d14c7919abd368979", "is_reserved": 0, "lon": -77.00244683333334, "is_disabled": 0, "fusion_lat": 0.0, "lat": 38.9079155, "bike_id": "22465911ace8cf4d14c7919abd368979", "fusion_lon": 0.0}, {"rental_uris": {"ios": "https://dc.lft.to/lastmile_qr_scan", "android": "https://dc.lft.to/lastmile_qr_scan"}, "type": "electric_scooter", "name": "7dc8c4f25d598b1dbc348e92fbb395de", "is_reserved": 0, "lon": -77.00517083333334, "is_disabled": 0, "fusion_lat": 0.0, "lat": 38.8967765, "bike_id": "7dc8c4f25d598b1dbc348e92fbb395de", "fusion_lon": 0.0}, {"rental_uris": {"ios": "https://dc.lft.to/lastmile_qr_scan", "android": "https://dc.lft.to/lastmile_qr_scan"}, "type": "electric_scooter", "name": "bfa0e6a5304a7e1353479361c962a10f", "is_reserved": 0, "lon": -77.02968583333333, "is_disabled": 0, "fusion_lat": 0.0, "lat": 38.916834, "bike_id": "bfa0e6a5304a7e1353479361c962a10f", "fusion_lon": 0.0}, {"rental_uris": {"ios": "https://dc.lft.to/lastmile_qr_scan", "android": "https://dc.lft.to/lastmile_qr_scan"}, "type": "electric_scooter", "name": "e68ebc6cd0c39c42971e863267767d61", "is_reserved": 0, "lon": -77.0284585, "is_disabled": 0, "fusion_lat": 0.0, "lat": 38.904489166666664, "bike_id": "e68ebc6cd0c39c42971e863267767d61", "fusion_lon": 0.0}, {"rental_uris": {"ios": "https://dc.lft.to/lastmile_qr_scan", "android": "https://dc.lft.to/lastmile_qr_scan"}, "type": "electric_bike", "name": "820da25c4dc0cbf2c49f9c391dddd3e8", "is_reserved": 0, "lon": -77.089607, "is_disabled": 0, "fusion_lat": 0.0, "lat": 38.84133, "bike_id": "820da25c4dc0cbf2c49f9c391dddd3e8", "fusion_lon": 0.0}, {"rental_uris": {"ios": "https://dc.lft.to/lastmile_qr_scan", "android": "https://dc.lft.to/lastmile_qr_scan"}, "type": "electric_scooter", "name": "65547ce946ae5cf8eeea61947a7d4b95", "is_reserved": 0, "lon": -77.03074033333333, "is_disabled": 0, "fusion_lat": 0.0, "lat": 38.8973895, "bike_id": "65547ce946ae5cf8eeea61947a7d4b95", "fusion_lon": 0.0}, {"rental_uris": {"ios": "https://dc.lft.to/lastmile_qr_scan", "android": "https://dc.lft.to/lastmile_qr_scan"}, "type": "electric_scooter", "name": "23b6eaec982b570e66fbe85ce1d5ec4e", "is_reserved": 0, "lon": -77.03135583333334, "is_disabled": 0, "fusion_lat": 0.0, "lat": 38.906267666666665, "bike_id": "23b6eaec982b570e66fbe85ce1d5ec4e", "fusion_lon": 0.0}, {"rental_uris": {"ios": "https://dc.lft.to/lastmile_qr_scan", "android": "https://dc.lft.to/lastmile_qr_scan"}, "type": "electric_bike", "name": "96d34d6ff9a430d8dc0b690746e3d1e3", "is_reserved": 0, "lon": -76.95746683333333, "is_disabled": 0, "fusion_lat": 0.0, "lat": 38.88858483333333, "bike_id": "96d34d6ff9a430d8dc0b690746e3d1e3", "fusion_lon": 0.0}, {"rental_uris": {"ios": "https://dc.lft.to/lastmile_qr_scan", "android": "https://dc.lft.to/lastmile_qr_scan"}, "type": "electric_scooter", "name": "9757e15513ddab85428d2539a698b9e2", "is_reserved": 0, "lon": -77.019545, "is_disabled": 0, "fusion_lat": 0.0, "lat": 38.931300666666665, "bike_id": "9757e15513ddab85428d2539a698b9e2", "fusion_lon": 0.0}, {"rental_uris": {"ios": "https://dc.lft.to/lastmile_qr_scan", "android": "https://dc.lft.to/lastmile_qr_scan"}, "type": "electric_scooter", "name": "311a937cc943d656d49eaf048d51357b", "is_reserved": 0, "lon": -77.03834616666667, "is_disabled": 0, "fusion_lat": 0.0, "lat": 38.90652383333333, "bike_id": "311a937cc943d656d49eaf048d51357b", "fusion_lon": 0.0}, {"rental_uris": {"ios": "https://dc.lft.to/lastmile_qr_scan", "android": "https://dc.lft.to/lastmile_qr_scan"}, "type": "electric_scooter", "name": "91c2392a24fb6ab3aca4e79212790613", "is_reserved": 0, "lon": -77.02716966666667, "is_disabled": 0, "fusion_lat": 0.0, "lat": 38.9167905, "bike_id": "91c2392a24fb6ab3aca4e79212790613", "fusion_lon": 0.0}, {"rental_uris": {"ios": "https://dc.lft.to/lastmile_qr_scan", "android": "https://dc.lft.to/lastmile_qr_scan"}, "type": "electric_scooter", "name": "5981d7b8ad6c2a037efb58afefa8edd5", "is_reserved": 0, "lon": -77.03820683333333, "is_disabled": 0, "fusion_lat": 0.0, "lat": 38.90977383333333, "bike_id": "5981d7b8ad6c2a037efb58afefa8edd5", "fusion_lon": 0.0}, {"rental_uris": {"ios": "https://dc.lft.to/lastmile_qr_scan", "android": "https://dc.lft.to/lastmile_qr_scan"}, "type": "electric_scooter", "name": "0cc9da8466783d1aa5271038150ba1cc", "is_reserved": 0, "lon": -77.039939, "is_disabled": 0, "fusion_lat": 0.0, "lat": 38.89224383333333, "bike_id": "0cc9da8466783d1aa5271038150ba1cc", "fusion_lon": 0.0}, {"rental_uris": {"ios": "https://dc.lft.to/lastmile_qr_scan", "android": "https://dc.lft.to/lastmile_qr_scan"}, "type": "electric_scooter", "name": "580301581d35b50951b6656b218ea5ed", "is_reserved": 0, "lon": -77.02015066666667, "is_disabled": 0, "fusion_lat": 0.0, "lat": 38.89221416666667, "bike_id": "580301581d35b50951b6656b218ea5ed", "fusion_lon": 0.0}, {"rental_uris": {"ios": "https://dc.lft.to/lastmile_qr_scan", "android": "https://dc.lft.to/lastmile_qr_scan"}, "type": "electric_scooter", "name": "9b084e2a2838b24602b4b24b9fc06914", "is_reserved": 0, "lon": -77.03740766666667, "is_disabled": 0, "fusion_lat": 0.0, "lat": 38.916231333333336, "bike_id": "9b084e2a2838b24602b4b24b9fc06914", "fusion_lon": 0.0}, {"rental_uris": {"ios": "https://dc.lft.to/lastmile_qr_scan", "android": "https://dc.lft.to/lastmile_qr_scan"}, "type": "electric_scooter", "name": "10985a866c4ed50357bd0369222aa4ed", "is_reserved": 0, "lon": -77.02488566666666, "is_disabled": 0, "fusion_lat": 0.0, "lat": 38.939116166666665, "bike_id": "10985a866c4ed50357bd0369222aa4ed", "fusion_lon": 0.0}, {"rental_uris": {"ios": "https://dc.lft.to/lastmile_qr_scan", "android": "https://dc.lft.to/lastmile_qr_scan"}, "type": "electric_scooter", "name": "d9cc64d45dbe83c1e59fe40ab1e32280", "is_reserved": 0, "lon": -77.03852933333333, "is_disabled": 0, "fusion_lat": 0.0, "lat": 38.904005166666664, "bike_id": "d9cc64d45dbe83c1e59fe40ab1e32280", "fusion_lon": 0.0}, {"rental_uris": {"ios": "https://dc.lft.to/lastmile_qr_scan", "android": "https://dc.lft.to/lastmile_qr_scan"}, "type": "electric_scooter", "name": "10498d91f637bccfc27a7e80eec10385", "is_reserved": 0, "lon": -77.01212566666666, "is_disabled": 0, "fusion_lat": 0.0, "lat": 38.911993833333334, "bike_id": "10498d91f637bccfc27a7e80eec10385", "fusion_lon": 0.0}, {"rental_uris": {"ios": "https://dc.lft.to/lastmile_qr_scan", "android": "https://dc.lft.to/lastmile_qr_scan"}, "type": "electric_scooter", "name": "7969656d88cb07839a9cef2466462fa3", "is_reserved": 0, "lon": -76.9937165, "is_disabled": 0, "fusion_lat": 0.0, "lat": 38.90040783333333, "bike_id": "7969656d88cb07839a9cef2466462fa3", "fusion_lon": 0.0}, {"rental_uris": {"ios": "https://dc.lft.to/lastmile_qr_scan", "android": "https://dc.lft.to/lastmile_qr_scan"}, "type": "electric_scooter", "name": "beb21a839c0d4094720312d2cab98658", "is_reserved": 0, "lon": -77.05695633333333, "is_disabled": 0, "fusion_lat": 0.0, "lat": 38.937181833333334, "bike_id": "beb21a839c0d4094720312d2cab98658", "fusion_lon": 0.0}, {"rental_uris": {"ios": "https://dc.lft.to/lastmile_qr_scan", "android": "https://dc.lft.to/lastmile_qr_scan"}, "type": "electric_scooter", "name": "0d957feb6a68499ee9fc1893e547f9bd", "is_reserved": 0, "lon": -77.03058466666667, "is_disabled": 0, "fusion_lat": 0.0, "lat": 38.99026383333333, "bike_id": "0d957feb6a68499ee9fc1893e547f9bd", "fusion_lon": 0.0}, {"rental_uris": {"ios": "https://dc.lft.to/lastmile_qr_scan", "android": "https://dc.lft.to/lastmile_qr_scan"}, "type": "electric_scooter", "name": "a6553d3d2eddb692e8c147774fc63d32", "is_reserved": 0, "lon": -77.0469705, "is_disabled": 0, "fusion_lat": 0.0, "lat": 38.897438666666666, "bike_id": "a6553d3d2eddb692e8c147774fc63d32", "fusion_lon": 0.0}, {"rental_uris": {"ios": "https://dc.lft.to/lastmile_qr_scan", "android": "https://dc.lft.to/lastmile_qr_scan"}, "type": "electric_bike", "name": "9efede50bde477007744230cf4217fb5", "is_reserved": 0, "lon": -76.91722483333334, "is_disabled": 0, "fusion_lat": 0.0, "lat": 38.88029816666667, "bike_id": "9efede50bde477007744230cf4217fb5", "fusion_lon": 0.0}, {"rental_uris": {"ios": "https://dc.lft.to/lastmile_qr_scan", "android": "https://dc.lft.to/lastmile_qr_scan"}, "type": "electric_scooter", "name": "66f6435a4f3251cb68fb51cb782d578d", "is_reserved": 0, "lon": -76.9902805, "is_disabled": 0, "fusion_lat": 0.0, "lat": 38.888790666666665, "bike_id": "66f6435a4f3251cb68fb51cb782d578d", "fusion_lon": 0.0}, {"rental_uris": {"ios": "https://dc.lft.to/lastmile_qr_scan", "android": "https://dc.lft.to/lastmile_qr_scan"}, "type": "electric_scooter", "name": "3e9f8604aa7c7b4938a38844faeea070", "is_reserved": 0, "lon": -77.01708516666666, "is_disabled": 0, "fusion_lat": 0.0, "lat": 38.91386283333333, "bike_id": "3e9f8604aa7c7b4938a38844faeea070", "fusion_lon": 0.0}, {"rental_uris": {"ios": "https://dc.lft.to/lastmile_qr_scan", "android": "https://dc.lft.to/lastmile_qr_scan"}, "type": "electric_scooter", "name": "add70bc295d206db9bd935727b5198e6", "is_reserved": 0, "lon": -77.0355405, "is_disabled": 0, "fusion_lat": 0.0, "lat": 38.92638316666667, "bike_id": "add70bc295d206db9bd935727b5198e6", "fusion_lon": 0.0}, {"rental_uris": {"ios": "https://dc.lft.to/lastmile_qr_scan", "android": "https://dc.lft.to/lastmile_qr_scan"}, "type": "electric_scooter", "name": "4541c3d2a0650fe362184a1b80bd1a33", "is_reserved": 0, "lon": -77.03492566666667, "is_disabled": 0, "fusion_lat": 0.0, "lat": 38.90059883333333, "bike_id": "4541c3d2a0650fe362184a1b80bd1a33", "fusion_lon": 0.0}, {"rental_uris": {"ios": "https://dc.lft.to/lastmile_qr_scan", "android": "https://dc.lft.to/lastmile_qr_scan"}, "type": "electric_scooter", "name": "a360dbb4895109dba39594c9e8c653ea", "is_reserved": 0, "lon": -77.03069416666666, "is_disabled": 0, "fusion_lat": 0.0, "lat": 38.9225, "bike_id": "a360dbb4895109dba39594c9e8c653ea", "fusion_lon": 0.0}, {"rental_uris": {"ios": "https://dc.lft.to/lastmile_qr_scan", "android": "https://dc.lft.to/lastmile_qr_scan"}, "type": "electric_scooter", "name": "f714abb764f2f7f82b3987d42456b046", "is_reserved": 0, "lon": -77.05516033333333, "is_disabled": 0, "fusion_lat": 0.0, "lat": 38.92832666666666, "bike_id": "f714abb764f2f7f82b3987d42456b046", "fusion_lon": 0.0}, {"rental_uris": {"ios": "https://dc.lft.to/lastmile_qr_scan", "android": "https://dc.lft.to/lastmile_qr_scan"}, "type": "electric_bike", "name": "792f91cd0fe4f12b2ebc4ada2f892515", "is_reserved": 0, "lon": -77.001385, "is_disabled": 0, "fusion_lat": 0.0, "lat": 38.99500716666667, "bike_id": "792f91cd0fe4f12b2ebc4ada2f892515", "fusion_lon": 0.0}, {"rental_uris": {"ios": "https://dc.lft.to/lastmile_qr_scan", "android": "https://dc.lft.to/lastmile_qr_scan"}, "type": "electric_scooter", "name": "c946d0c781161703cb3562d5bb282376", "is_reserved": 0, "lon": -77.060913, "is_disabled": 0, "fusion_lat": 0.0, "lat": 38.939909, "bike_id": "c946d0c781161703cb3562d5bb282376", "fusion_lon": 0.0}, {"rental_uris": {"ios": "https://dc.lft.to/lastmile_qr_scan", "android": "https://dc.lft.to/lastmile_qr_scan"}, "type": "electric_scooter", "name": "a6a736ee48bdc403bee218521ddc7862", "is_reserved": 0, "lon": -77.031918, "is_disabled": 0, "fusion_lat": 0.0, "lat": 38.91096983333333, "bike_id": "a6a736ee48bdc403bee218521ddc7862", "fusion_lon": 0.0}, {"rental_uris": {"ios": "https://dc.lft.to/lastmile_qr_scan", "android": "https://dc.lft.to/lastmile_qr_scan"}, "type": "electric_scooter", "name": "7e0327c65696184edfd6e1d7f1247295", "is_reserved": 0, "lon": -77.073387, "is_disabled": 0, "fusion_lat": 0.0, "lat": 38.960957666666665, "bike_id": "7e0327c65696184edfd6e1d7f1247295", "fusion_lon": 0.0}, {"rental_uris": {"ios": "https://dc.lft.to/lastmile_qr_scan", "android": "https://dc.lft.to/lastmile_qr_scan"}, "type": "electric_bike", "name": "6ace11bb4cd65253949662ef8d2bfbe5", "is_reserved": 0, "lon": -76.99248916666667, "is_disabled": 0, "fusion_lat": 0.0, "lat": 38.960724, "bike_id": "6ace11bb4cd65253949662ef8d2bfbe5", "fusion_lon": 0.0}, {"rental_uris": {"ios": "https://dc.lft.to/lastmile_qr_scan", "android": "https://dc.lft.to/lastmile_qr_scan"}, "type": "electric_scooter", "name": "d5de29ead0b9d9038fe1a5853149ca79", "is_reserved": 0, "lon": -77.071686, "is_disabled": 0, "fusion_lat": 0.0, "lat": 38.90765716666667, "bike_id": "d5de29ead0b9d9038fe1a5853149ca79", "fusion_lon": 0.0}, {"rental_uris": {"ios": "https://dc.lft.to/lastmile_qr_scan", "android": "https://dc.lft.to/lastmile_qr_scan"}, "type": "electric_scooter", "name": "9c7e5c7af17abbbbd8923130c8c01898", "is_reserved": 0, "lon": -77.02454733333333, "is_disabled": 0, "fusion_lat": 0.0, "lat": 38.93733066666667, "bike_id": "9c7e5c7af17abbbbd8923130c8c01898", "fusion_lon": 0.0}, {"rental_uris": {"ios": "https://dc.lft.to/lastmile_qr_scan", "android": "https://dc.lft.to/lastmile_qr_scan"}, "type": "electric_scooter", "name": "6845e4e2b29669b20a919fa464d0ce08", "is_reserved": 0, "lon": -76.997942, "is_disabled": 0, "fusion_lat": 0.0, "lat": 38.87633866666667, "bike_id": "6845e4e2b29669b20a919fa464d0ce08", "fusion_lon": 0.0}, {"rental_uris": {"ios": "https://dc.lft.to/lastmile_qr_scan", "android": "https://dc.lft.to/lastmile_qr_scan"}, "type": "electric_scooter", "name": "b6a9f61d1257fe1f677905fdecee3b85", "is_reserved": 0, "lon": -76.975674, "is_disabled": 0, "fusion_lat": 0.0, "lat": 38.944187, "bike_id": "b6a9f61d1257fe1f677905fdecee3b85", "fusion_lon": 0.0}, {"rental_uris": {"ios": "https://dc.lft.to/lastmile_qr_scan", "android": "https://dc.lft.to/lastmile_qr_scan"}, "type": "electric_bike", "name": "6e24fe8bf1d2586d1ea67a9940fe3749", "is_reserved": 0, "lon": -76.95792283333333, "is_disabled": 0, "fusion_lat": 0.0, "lat": 38.980467833333336, "bike_id": "6e24fe8bf1d2586d1ea67a9940fe3749", "fusion_lon": 0.0}, {"rental_uris": {"ios": "https://dc.lft.to/lastmile_qr_scan", "android": "https://dc.lft.to/lastmile_qr_scan"}, "type": "electric_scooter", "name": "cab5e215f188d02762a7901ee4997459", "is_reserved": 0, "lon": -77.03389, "is_disabled": 0, "fusion_lat": 0.0, "lat": 38.937377, "bike_id": "cab5e215f188d02762a7901ee4997459", "fusion_lon": 0.0}, {"rental_uris": {"ios": "https://dc.lft.to/lastmile_qr_scan", "android": "https://dc.lft.to/lastmile_qr_scan"}, "type": "electric_scooter", "name": "01c3c30aa1a123e1f9e765b539b712ad", "is_reserved": 0, "lon": -76.93745466666667, "is_disabled": 0, "fusion_lat": 0.0, "lat": 38.89007566666667, "bike_id": "01c3c30aa1a123e1f9e765b539b712ad", "fusion_lon": 0.0}, {"rental_uris": {"ios": "https://dc.lft.to/lastmile_qr_scan", "android": "https://dc.lft.to/lastmile_qr_scan"}, "type": "electric_scooter", "name": "972fcc81268b5736c62c2476b004c7d5", "is_reserved": 0, "lon": -77.03272383333334, "is_disabled": 0, "fusion_lat": 0.0, "lat": 38.938865166666666, "bike_id": "972fcc81268b5736c62c2476b004c7d5", "fusion_lon": 0.0}, {"rental_uris": {"ios": "https://dc.lft.to/lastmile_qr_scan", "android": "https://dc.lft.to/lastmile_qr_scan"}, "type": "electric_scooter", "name": "a51f40e03a7947f8bebf7d4a580f63ec", "is_reserved": 0, "lon": -77.0740855, "is_disabled": 0, "fusion_lat": 0.0, "lat": 38.93746183333333, "bike_id": "a51f40e03a7947f8bebf7d4a580f63ec", "fusion_lon": 0.0}, {"rental_uris": {"ios": "https://dc.lft.to/lastmile_qr_scan", "android": "https://dc.lft.to/lastmile_qr_scan"}, "type": "electric_scooter", "name": "b076a8838495e35fea9c38efce5caff0", "is_reserved": 0, "lon": -76.98183016666667, "is_disabled": 0, "fusion_lat": 0.0, "lat": 38.905815833333335, "bike_id": "b076a8838495e35fea9c38efce5caff0", "fusion_lon": 0.0}, {"rental_uris": {"ios": "https://dc.lft.to/lastmile_qr_scan", "android": "https://dc.lft.to/lastmile_qr_scan"}, "type": "electric_scooter", "name": "e81194a12ffe0563f55912a13ecf7039", "is_reserved": 0, "lon": -77.03805766666666, "is_disabled": 0, "fusion_lat": 0.0, "lat": 38.93070216666667, "bike_id": "e81194a12ffe0563f55912a13ecf7039", "fusion_lon": 0.0}, {"rental_uris": {"ios": "https://dc.lft.to/lastmile_qr_scan", "android": "https://dc.lft.to/lastmile_qr_scan"}, "type": "electric_scooter", "name": "217d7fe0f51b48fa31bae57250298d1c", "is_reserved": 0, "lon": -77.0239065, "is_disabled": 0, "fusion_lat": 0.0, "lat": 38.9171595, "bike_id": "217d7fe0f51b48fa31bae57250298d1c", "fusion_lon": 0.0}, {"rental_uris": {"ios": "https://dc.lft.to/lastmile_qr_scan", "android": "https://dc.lft.to/lastmile_qr_scan"}, "type": "electric_scooter", "name": "4809bc1109ab5c85112de48ba86fad4f", "is_reserved": 0, "lon": -77.03128133333334, "is_disabled": 0, "fusion_lat": 0.0, "lat": 38.923698333333334, "bike_id": "4809bc1109ab5c85112de48ba86fad4f", "fusion_lon": 0.0}, {"rental_uris": {"ios": "https://dc.lft.to/lastmile_qr_scan", "android": "https://dc.lft.to/lastmile_qr_scan"}, "type": "electric_scooter", "name": "f398d21ca1b851bd5e5bb017cf83663f", "is_reserved": 0, "lon": -77.04465666666667, "is_disabled": 0, "fusion_lat": 0.0, "lat": 38.90935416666667, "bike_id": "f398d21ca1b851bd5e5bb017cf83663f", "fusion_lon": 0.0}, {"rental_uris": {"ios": "https://dc.lft.to/lastmile_qr_scan", "android": "https://dc.lft.to/lastmile_qr_scan"}, "type": "electric_scooter", "name": "c4c8a6582e7633474232b78d65f49c61", "is_reserved": 0, "lon": -77.02357516666666, "is_disabled": 0, "fusion_lat": 0.0, "lat": 38.94522283333333, "bike_id": "c4c8a6582e7633474232b78d65f49c61", "fusion_lon": 0.0}, {"rental_uris": {"ios": "https://dc.lft.to/lastmile_qr_scan", "android": "https://dc.lft.to/lastmile_qr_scan"}, "type": "electric_scooter", "name": "daabce74d82439f14603968b80f9963c", "is_reserved": 0, "lon": -76.99979933333333, "is_disabled": 0, "fusion_lat": 0.0, "lat": 38.90812666666667, "bike_id": "daabce74d82439f14603968b80f9963c", "fusion_lon": 0.0}, {"rental_uris": {"ios": "https://dc.lft.to/lastmile_qr_scan", "android": "https://dc.lft.to/lastmile_qr_scan"}, "type": "electric_bike", "name": "0ce464b0f06435edca150cb3f6395673", "is_reserved": 0, "lon": -76.95065133333334, "is_disabled": 0, "fusion_lat": 0.0, "lat": 39.08513, "bike_id": "0ce464b0f06435edca150cb3f6395673", "fusion_lon": 0.0}, {"rental_uris": {"ios": "https://dc.lft.to/lastmile_qr_scan", "android": "https://dc.lft.to/lastmile_qr_scan"}, "type": "electric_scooter", "name": "acc5cd30cb63f90e5fcb8063da8c5ed8", "is_reserved": 0, "lon": -77.0232215, "is_disabled": 0, "fusion_lat": 0.0, "lat": 38.900808, "bike_id": "acc5cd30cb63f90e5fcb8063da8c5ed8", "fusion_lon": 0.0}, {"rental_uris": {"ios": "https://dc.lft.to/lastmile_qr_scan", "android": "https://dc.lft.to/lastmile_qr_scan"}, "type": "electric_scooter", "name": "71eef24c18598f74e03ca546b064ffeb", "is_reserved": 0, "lon": -77.0400585, "is_disabled": 0, "fusion_lat": 0.0, "lat": 38.91416433333333, "bike_id": "71eef24c18598f74e03ca546b064ffeb", "fusion_lon": 0.0}, {"rental_uris": {"ios": "https://dc.lft.to/lastmile_qr_scan", "android": "https://dc.lft.to/lastmile_qr_scan"}, "type": "electric_scooter", "name": "068e9ca773093bdb9f86ece842a556d2", "is_reserved": 0, "lon": -77.019955, "is_disabled": 0, "fusion_lat": 0.0, "lat": 38.9305395, "bike_id": "068e9ca773093bdb9f86ece842a556d2", "fusion_lon": 0.0}, {"rental_uris": {"ios": "https://dc.lft.to/lastmile_qr_scan", "android": "https://dc.lft.to/lastmile_qr_scan"}, "type": "electric_scooter", "name": "66886a7542a67de5c7689cd305c53904", "is_reserved": 0, "lon": -77.03505216666667, "is_disabled": 0, "fusion_lat": 0.0, "lat": 38.917047833333335, "bike_id": "66886a7542a67de5c7689cd305c53904", "fusion_lon": 0.0}, {"rental_uris": {"ios": "https://dc.lft.to/lastmile_qr_scan", "android": "https://dc.lft.to/lastmile_qr_scan"}, "type": "electric_scooter", "name": "60a882bbfe44e373f3efa27f8001a1d4", "is_reserved": 0, "lon": -77.02774533333333, "is_disabled": 0, "fusion_lat": 0.0, "lat": 38.965838, "bike_id": "60a882bbfe44e373f3efa27f8001a1d4", "fusion_lon": 0.0}, {"rental_uris": {"ios": "https://dc.lft.to/lastmile_qr_scan", "android": "https://dc.lft.to/lastmile_qr_scan"}, "type": "electric_scooter", "name": "b9b6b4749a508b3bb1c8594cf643f502", "is_reserved": 0, "lon": -76.97654466666667, "is_disabled": 0, "fusion_lat": 0.0, "lat": 38.90365583333333, "bike_id": "b9b6b4749a508b3bb1c8594cf643f502", "fusion_lon": 0.0}, {"rental_uris": {"ios": "https://dc.lft.to/lastmile_qr_scan", "android": "https://dc.lft.to/lastmile_qr_scan"}, "type": "electric_scooter", "name": "55219be1991f1ecfcbfa687fcdc97dca", "is_reserved": 0, "lon": -77.03849783333334, "is_disabled": 0, "fusion_lat": 0.0, "lat": 38.90377933333333, "bike_id": "55219be1991f1ecfcbfa687fcdc97dca", "fusion_lon": 0.0}, {"rental_uris": {"ios": "https://dc.lft.to/lastmile_qr_scan", "android": "https://dc.lft.to/lastmile_qr_scan"}, "type": "electric_scooter", "name": "aa5b8d13dbbb8fde8ce9f605b3da701b", "is_reserved": 0, "lon": -77.01338466666667, "is_disabled": 0, "fusion_lat": 0.0, "lat": 38.881251166666665, "bike_id": "aa5b8d13dbbb8fde8ce9f605b3da701b", "fusion_lon": 0.0}, {"rental_uris": {"ios": "https://dc.lft.to/lastmile_qr_scan", "android": "https://dc.lft.to/lastmile_qr_scan"}, "type": "electric_scooter", "name": "9aaec0612e3ce85d0f63214c8c70a592", "is_reserved": 0, "lon": -77.00760966666667, "is_disabled": 0, "fusion_lat": 0.0, "lat": 38.87120933333333, "bike_id": "9aaec0612e3ce85d0f63214c8c70a592", "fusion_lon": 0.0}, {"rental_uris": {"ios": "https://dc.lft.to/lastmile_qr_scan", "android": "https://dc.lft.to/lastmile_qr_scan"}, "type": "electric_bike", "name": "40ea5e84ba542911363973129d2172f2", "is_reserved": 0, "lon": -77.08949666666666, "is_disabled": 0, "fusion_lat": 0.0, "lat": 38.8410635, "bike_id": "40ea5e84ba542911363973129d2172f2", "fusion_lon": 0.0}, {"rental_uris": {"ios": "https://dc.lft.to/lastmile_qr_scan", "android": "https://dc.lft.to/lastmile_qr_scan"}, "type": "electric_scooter", "name": "fed2254f81b008e0d82e68214f827ae9", "is_reserved": 0, "lon": -76.98542883333333, "is_disabled": 0, "fusion_lat": 0.0, "lat": 38.9129465, "bike_id": "fed2254f81b008e0d82e68214f827ae9", "fusion_lon": 0.0}, {"rental_uris": {"ios": "https://dc.lft.to/lastmile_qr_scan", "android": "https://dc.lft.to/lastmile_qr_scan"}, "type": "electric_scooter", "name": "abe83d8950287cabc58986cc1e0e2ad7", "is_reserved": 0, "lon": -76.92628016666667, "is_disabled": 0, "fusion_lat": 0.0, "lat": 38.883775166666666, "bike_id": "abe83d8950287cabc58986cc1e0e2ad7", "fusion_lon": 0.0}, {"rental_uris": {"ios": "https://dc.lft.to/lastmile_qr_scan", "android": "https://dc.lft.to/lastmile_qr_scan"}, "type": "electric_scooter", "name": "7779ef1347f2123542edcdc1e9113b9b", "is_reserved": 0, "lon": -77.04784833333333, "is_disabled": 0, "fusion_lat": 0.0, "lat": 38.908639666666666, "bike_id": "7779ef1347f2123542edcdc1e9113b9b", "fusion_lon": 0.0}, {"rental_uris": {"ios": "https://dc.lft.to/lastmile_qr_scan", "android": "https://dc.lft.to/lastmile_qr_scan"}, "type": "electric_scooter", "name": "067122342e3ea2570c264f4e00a9e699", "is_reserved": 0, "lon": -77.03648516666667, "is_disabled": 0, "fusion_lat": 0.0, "lat": 38.903772333333336, "bike_id": "067122342e3ea2570c264f4e00a9e699", "fusion_lon": 0.0}, {"rental_uris": {"ios": "https://dc.lft.to/lastmile_qr_scan", "android": "https://dc.lft.to/lastmile_qr_scan"}, "type": "electric_scooter", "name": "c0bf55db90fa2e0dc67f0c71d531ffff", "is_reserved": 0, "lon": -77.04057066666667, "is_disabled": 0, "fusion_lat": 0.0, "lat": 38.91775283333333, "bike_id": "c0bf55db90fa2e0dc67f0c71d531ffff", "fusion_lon": 0.0}, {"rental_uris": {"ios": "https://dc.lft.to/lastmile_qr_scan", "android": "https://dc.lft.to/lastmile_qr_scan"}, "type": "electric_scooter", "name": "e7c4945bbf7cd0c9a4b840acdb78c832", "is_reserved": 0, "lon": -77.0058885, "is_disabled": 0, "fusion_lat": 0.0, "lat": 38.875684, "bike_id": "e7c4945bbf7cd0c9a4b840acdb78c832", "fusion_lon": 0.0}, {"rental_uris": {"ios": "https://dc.lft.to/lastmile_qr_scan", "android": "https://dc.lft.to/lastmile_qr_scan"}, "type": "electric_scooter", "name": "deec171d543790a3e2ab79f8817bcc53", "is_reserved": 0, "lon": -77.02757033333333, "is_disabled": 0, "fusion_lat": 0.0, "lat": 38.957769666666664, "bike_id": "deec171d543790a3e2ab79f8817bcc53", "fusion_lon": 0.0}, {"rental_uris": {"ios": "https://dc.lft.to/lastmile_qr_scan", "android": "https://dc.lft.to/lastmile_qr_scan"}, "type": "electric_scooter", "name": "ad3a47ecf7861a6b7f90a5190e4900e5", "is_reserved": 0, "lon": -77.01762116666667, "is_disabled": 0, "fusion_lat": 0.0, "lat": 38.876792333333334, "bike_id": "ad3a47ecf7861a6b7f90a5190e4900e5", "fusion_lon": 0.0}, {"rental_uris": {"ios": "https://dc.lft.to/lastmile_qr_scan", "android": "https://dc.lft.to/lastmile_qr_scan"}, "type": "electric_scooter", "name": "f59a4e97ff00bb1446aeeea3ce09920b", "is_reserved": 0, "lon": -77.03040283333333, "is_disabled": 0, "fusion_lat": 0.0, "lat": 38.89726683333333, "bike_id": "f59a4e97ff00bb1446aeeea3ce09920b", "fusion_lon": 0.0}, {"rental_uris": {"ios": "https://dc.lft.to/lastmile_qr_scan", "android": "https://dc.lft.to/lastmile_qr_scan"}, "type": "electric_scooter", "name": "31a42049a90c6c8ea4c1363b7be509a2", "is_reserved": 0, "lon": -77.00732816666667, "is_disabled": 0, "fusion_lat": 0.0, "lat": 38.91193083333334, "bike_id": "31a42049a90c6c8ea4c1363b7be509a2", "fusion_lon": 0.0}, {"rental_uris": {"ios": "https://dc.lft.to/lastmile_qr_scan", "android": "https://dc.lft.to/lastmile_qr_scan"}, "type": "electric_scooter", "name": "b99671eb5220763245feaca334a8e35d", "is_reserved": 0, "lon": -77.02181383333334, "is_disabled": 0, "fusion_lat": 0.0, "lat": 38.90973316666667, "bike_id": "b99671eb5220763245feaca334a8e35d", "fusion_lon": 0.0}, {"rental_uris": {"ios": "https://dc.lft.to/lastmile_qr_scan", "android": "https://dc.lft.to/lastmile_qr_scan"}, "type": "electric_scooter", "name": "97cdf19c4a690c7f7d89d20ab4396896", "is_reserved": 0, "lon": -77.073886, "is_disabled": 0, "fusion_lat": 0.0, "lat": 38.93761583333333, "bike_id": "97cdf19c4a690c7f7d89d20ab4396896", "fusion_lon": 0.0}, {"rental_uris": {"ios": "https://dc.lft.to/lastmile_qr_scan", "android": "https://dc.lft.to/lastmile_qr_scan"}, "type": "electric_scooter", "name": "93b169b7ab87897be1eb560032b3f24d", "is_reserved": 0, "lon": -77.03263566666666, "is_disabled": 0, "fusion_lat": 0.0, "lat": 38.92912333333334, "bike_id": "93b169b7ab87897be1eb560032b3f24d", "fusion_lon": 0.0}, {"rental_uris": {"ios": "https://dc.lft.to/lastmile_qr_scan", "android": "https://dc.lft.to/lastmile_qr_scan"}, "type": "electric_scooter", "name": "659774e0ae70be6c4a6da5cc36acc145", "is_reserved": 0, "lon": -77.029825, "is_disabled": 0, "fusion_lat": 0.0, "lat": 38.89758833333333, "bike_id": "659774e0ae70be6c4a6da5cc36acc145", "fusion_lon": 0.0}, {"rental_uris": {"ios": "https://dc.lft.to/lastmile_qr_scan", "android": "https://dc.lft.to/lastmile_qr_scan"}, "type": "electric_scooter", "name": "5c6bb366b8a239448dd45fd28162134d", "is_reserved": 0, "lon": -77.04442766666666, "is_disabled": 0, "fusion_lat": 0.0, "lat": 38.91262283333333, "bike_id": "5c6bb366b8a239448dd45fd28162134d", "fusion_lon": 0.0}, {"rental_uris": {"ios": "https://dc.lft.to/lastmile_qr_scan", "android": "https://dc.lft.to/lastmile_qr_scan"}, "type": "electric_scooter", "name": "b76085e2b639b3dc92bd21de5d7a4ac3", "is_reserved": 0, "lon": -77.03845983333333, "is_disabled": 0, "fusion_lat": 0.0, "lat": 38.909899, "bike_id": "b76085e2b639b3dc92bd21de5d7a4ac3", "fusion_lon": 0.0}, {"rental_uris": {"ios": "https://dc.lft.to/lastmile_qr_scan", "android": "https://dc.lft.to/lastmile_qr_scan"}, "type": "electric_scooter", "name": "5287857a1763875ca01278aa052b7ee9", "is_reserved": 0, "lon": -77.023925, "is_disabled": 0, "fusion_lat": 0.0, "lat": 38.89854733333333, "bike_id": "5287857a1763875ca01278aa052b7ee9", "fusion_lon": 0.0}, {"rental_uris": {"ios": "https://dc.lft.to/lastmile_qr_scan", "android": "https://dc.lft.to/lastmile_qr_scan"}, "type": "electric_scooter", "name": "6018b0152a2144c799e4d5311bfd0f35", "is_reserved": 0, "lon": -76.98281166666666, "is_disabled": 0, "fusion_lat": 0.0, "lat": 38.903573, "bike_id": "6018b0152a2144c799e4d5311bfd0f35", "fusion_lon": 0.0}, {"rental_uris": {"ios": "https://dc.lft.to/lastmile_qr_scan", "android": "https://dc.lft.to/lastmile_qr_scan"}, "type": "electric_scooter", "name": "2f867bdca76d6dc57f1fcc9e280d040f", "is_reserved": 0, "lon": -77.04206733333334, "is_disabled": 0, "fusion_lat": 0.0, "lat": 38.90378583333333, "bike_id": "2f867bdca76d6dc57f1fcc9e280d040f", "fusion_lon": 0.0}, {"rental_uris": {"ios": "https://dc.lft.to/lastmile_qr_scan", "android": "https://dc.lft.to/lastmile_qr_scan"}, "type": "electric_scooter", "name": "2f8ca84c13362d281055699e0047ba31", "is_reserved": 0, "lon": -77.0146815, "is_disabled": 0, "fusion_lat": 0.0, "lat": 38.92668366666667, "bike_id": "2f8ca84c13362d281055699e0047ba31", "fusion_lon": 0.0}, {"rental_uris": {"ios": "https://dc.lft.to/lastmile_qr_scan", "android": "https://dc.lft.to/lastmile_qr_scan"}, "type": "electric_scooter", "name": "57a36dc459c6e5ba25a4b23910d85dfb", "is_reserved": 0, "lon": -77.00345283333333, "is_disabled": 0, "fusion_lat": 0.0, "lat": 38.9133845, "bike_id": "57a36dc459c6e5ba25a4b23910d85dfb", "fusion_lon": 0.0}, {"rental_uris": {"ios": "https://dc.lft.to/lastmile_qr_scan", "android": "https://dc.lft.to/lastmile_qr_scan"}, "type": "electric_scooter", "name": "7df2ffd8f6ef3de890b52952a6d1f301", "is_reserved": 0, "lon": -77.03868733333333, "is_disabled": 0, "fusion_lat": 0.0, "lat": 38.91116133333333, "bike_id": "7df2ffd8f6ef3de890b52952a6d1f301", "fusion_lon": 0.0}, {"rental_uris": {"ios": "https://dc.lft.to/lastmile_qr_scan", "android": "https://dc.lft.to/lastmile_qr_scan"}, "type": "electric_scooter", "name": "e5920125b02047a9cb2a1e0c0975c663", "is_reserved": 0, "lon": -77.0326255, "is_disabled": 0, "fusion_lat": 0.0, "lat": 38.910484, "bike_id": "e5920125b02047a9cb2a1e0c0975c663", "fusion_lon": 0.0}, {"rental_uris": {"ios": "https://dc.lft.to/lastmile_qr_scan", "android": "https://dc.lft.to/lastmile_qr_scan"}, "type": "electric_scooter", "name": "d0ae159e19251cb0d48e667f1c3b53f9", "is_reserved": 0, "lon": -77.0579025, "is_disabled": 0, "fusion_lat": 0.0, "lat": 38.901011, "bike_id": "d0ae159e19251cb0d48e667f1c3b53f9", "fusion_lon": 0.0}, {"rental_uris": {"ios": "https://dc.lft.to/lastmile_qr_scan", "android": "https://dc.lft.to/lastmile_qr_scan"}, "type": "electric_scooter", "name": "0c0faeeca751344eb7e340202be7db81", "is_reserved": 0, "lon": -76.99150233333333, "is_disabled": 0, "fusion_lat": 0.0, "lat": 38.900341, "bike_id": "0c0faeeca751344eb7e340202be7db81", "fusion_lon": 0.0}, {"rental_uris": {"ios": "https://dc.lft.to/lastmile_qr_scan", "android": "https://dc.lft.to/lastmile_qr_scan"}, "type": "electric_scooter", "name": "8b82555ab3f6238475446210f0d1d2ea", "is_reserved": 0, "lon": -77.01374766666666, "is_disabled": 0, "fusion_lat": 0.0, "lat": 38.86967533333333, "bike_id": "8b82555ab3f6238475446210f0d1d2ea", "fusion_lon": 0.0}, {"rental_uris": {"ios": "https://dc.lft.to/lastmile_qr_scan", "android": "https://dc.lft.to/lastmile_qr_scan"}, "type": "electric_scooter", "name": "0b5ac9f28b48a4103220a9d6c8dde5b4", "is_reserved": 0, "lon": -77.03574016666667, "is_disabled": 0, "fusion_lat": 0.0, "lat": 38.9177185, "bike_id": "0b5ac9f28b48a4103220a9d6c8dde5b4", "fusion_lon": 0.0}, {"rental_uris": {"ios": "https://dc.lft.to/lastmile_qr_scan", "android": "https://dc.lft.to/lastmile_qr_scan"}, "type": "electric_scooter", "name": "91490c0d58224ab70766d190dd98aa31", "is_reserved": 0, "lon": -77.00538116666667, "is_disabled": 0, "fusion_lat": 0.0, "lat": 38.87470616666667, "bike_id": "91490c0d58224ab70766d190dd98aa31", "fusion_lon": 0.0}, {"rental_uris": {"ios": "https://dc.lft.to/lastmile_qr_scan", "android": "https://dc.lft.to/lastmile_qr_scan"}, "type": "electric_scooter", "name": "34149d5425cc044e558a4b55db423b7a", "is_reserved": 0, "lon": -76.9807215, "is_disabled": 0, "fusion_lat": 0.0, "lat": 38.901756, "bike_id": "34149d5425cc044e558a4b55db423b7a", "fusion_lon": 0.0}, {"rental_uris": {"ios": "https://dc.lft.to/lastmile_qr_scan", "android": "https://dc.lft.to/lastmile_qr_scan"}, "type": "electric_scooter", "name": "e61693c48790d379f34a859f7aec0696", "is_reserved": 0, "lon": -77.05222716666667, "is_disabled": 0, "fusion_lat": 0.0, "lat": 38.924997833333336, "bike_id": "e61693c48790d379f34a859f7aec0696", "fusion_lon": 0.0}, {"rental_uris": {"ios": "https://dc.lft.to/lastmile_qr_scan", "android": "https://dc.lft.to/lastmile_qr_scan"}, "type": "electric_scooter", "name": "3049152bd558d8525690440218cc1dc6", "is_reserved": 0, "lon": -77.02404766666666, "is_disabled": 0, "fusion_lat": 0.0, "lat": 38.93811633333333, "bike_id": "3049152bd558d8525690440218cc1dc6", "fusion_lon": 0.0}, {"rental_uris": {"ios": "https://dc.lft.to/lastmile_qr_scan", "android": "https://dc.lft.to/lastmile_qr_scan"}, "type": "electric_scooter", "name": "894eb320053acce0b2b6fa12b3179864", "is_reserved": 0, "lon": -77.04032016666666, "is_disabled": 0, "fusion_lat": 0.0, "lat": 38.91186166666667, "bike_id": "894eb320053acce0b2b6fa12b3179864", "fusion_lon": 0.0}, {"rental_uris": {"ios": "https://dc.lft.to/lastmile_qr_scan", "android": "https://dc.lft.to/lastmile_qr_scan"}, "type": "electric_bike", "name": "2c3bb8947fb0843e23dfea8f7fdfe181", "is_reserved": 0, "lon": -76.99275, "is_disabled": 0, "fusion_lat": 0.0, "lat": 38.97261983333333, "bike_id": "2c3bb8947fb0843e23dfea8f7fdfe181", "fusion_lon": 0.0}, {"rental_uris": {"ios": "https://dc.lft.to/lastmile_qr_scan", "android": "https://dc.lft.to/lastmile_qr_scan"}, "type": "electric_bike", "name": "6532960e2a943167456c4d0295d97109", "is_reserved": 0, "lon": -76.99700533333333, "is_disabled": 0, "fusion_lat": 0.0, "lat": 38.83865, "bike_id": "6532960e2a943167456c4d0295d97109", "fusion_lon": 0.0}, {"rental_uris": {"ios": "https://dc.lft.to/lastmile_qr_scan", "android": "https://dc.lft.to/lastmile_qr_scan"}, "type": "electric_scooter", "name": "e1af21d8b1bcf9c40b1ad5d5fe90043d", "is_reserved": 0, "lon": -77.01090466666666, "is_disabled": 0, "fusion_lat": 0.0, "lat": 38.895442, "bike_id": "e1af21d8b1bcf9c40b1ad5d5fe90043d", "fusion_lon": 0.0}, {"rental_uris": {"ios": "https://dc.lft.to/lastmile_qr_scan", "android": "https://dc.lft.to/lastmile_qr_scan"}, "type": "electric_scooter", "name": "79147f0889d153969bc673da2353bfe2", "is_reserved": 0, "lon": -77.041678, "is_disabled": 0, "fusion_lat": 0.0, "lat": 38.91411266666667, "bike_id": "79147f0889d153969bc673da2353bfe2", "fusion_lon": 0.0}, {"rental_uris": {"ios": "https://dc.lft.to/lastmile_qr_scan", "android": "https://dc.lft.to/lastmile_qr_scan"}, "type": "electric_scooter", "name": "a769aadf017b816a71d68f5d7c47ee16", "is_reserved": 0, "lon": -77.03719333333333, "is_disabled": 0, "fusion_lat": 0.0, "lat": 38.92664583333333, "bike_id": "a769aadf017b816a71d68f5d7c47ee16", "fusion_lon": 0.0},