{"data": {"bikes": [{"rental_uris": {"android": "https://dc.lft.to/lastmile_qr_scan", "ios": "https://dc.lft.to/lastmile_qr_scan"}, "is_reserved": 0, "is_disabled": 0, "bike_id": "e3cda65bfce7b8031b3e864b8ccd9dd5", "lat": 38.90947633333333, "name": "e3cda65bfce7b8031b3e864b8ccd9dd5", "fusion_lon": 0.0, "fusion_lat": 0.0, "type": "electric_scooter", "lon": -77.03228866666667}, {"rental_uris": {"android": "https://dc.lft.to/lastmile_qr_scan", "ios": "https://dc.lft.to/lastmile_qr_scan"}, "is_reserved": 0, "is_disabled": 0, "bike_id": "604693c06e28d87fdec78b51ade2180c", "lat": 38.9112855, "name": "604693c06e28d87fdec78b51ade2180c", "fusion_lon": 0.0, "fusion_lat": 0.0, "type": "electric_scooter", "lon": -77.021868}, {"rental_uris": {"android": "https://dc.lft.to/lastmile_qr_scan", "ios": "https://dc.lft.to/lastmile_qr_scan"}, "is_reserved": 0, "is_disabled": 0, "bike_id": "071e9a53ca472507e1742cbeaa1b8758", "lat": 38.88296166666667, "name": "071e9a53ca472507e1742cbeaa1b8758", "fusion_lon": 0.0, "fusion_lat": 0.0, "type": "electric_scooter", "lon": -77.025702}, {"rental_uris": {"android": "https://dc.lft.to/lastmile_qr_scan", "ios": "https://dc.lft.to/lastmile_qr_scan"}, "is_reserved": 0, "is_disabled": 0, "bike_id": "6cf45ae745f53ca8349e78aa1a117198", "lat": 38.92872083333334, "name": "6cf45ae745f53ca8349e78aa1a117198", "fusion_lon": 0.0, "fusion_lat": 0.0, "type": "electric_scooter", "lon": -77.03436266666667}, {"rental_uris": {"android": "https://dc.lft.to/lastmile_qr_scan", "ios": "https://dc.lft.to/lastmile_qr_scan"}, "is_reserved": 0, "is_disabled": 0, "bike_id": "48c10bf34ddf586f2fc1ab22dd54a4d7", "lat": 38.928270499999996, "name": "48c10bf34ddf586f2fc1ab22dd54a4d7", "fusion_lon": 0.0, "fusion_lat": 0.0, "type": "electric_scooter", "lon": -77.0226085}, {"rental_uris": {"android": "https://dc.lft.to/lastmile_qr_scan", "ios": "https://dc.lft.to/lastmile_qr_scan"}, "is_reserved": 0, "is_disabled": 0, "bike_id": "c3f99b5587a9d55b30d31657948826a9", "lat": 38.90474733333333, "name": "c3f99b5587a9d55b30d31657948826a9", "fusion_lon": 0.0, "fusion_lat": 0.0, "type": "electric_bike", "lon": -76.97328416666667}, {"rental_uris": {"android": "https://dc.lft.to/lastmile_qr_scan", "ios": "https://dc.lft.to/lastmile_qr_scan"}, "is_reserved": 0, "is_disabled": 0, "bike_id": "d8fadd884d8e772fc6ff5f0a992ef77e", "lat": 38.88135583333333, "name": "d8fadd884d8e772fc6ff5f0a992ef77e", "fusion_lon": 0.0, "fusion_lat": 0.0, "type": "electric_scooter", "lon": -77.023935}, {"rental_uris": {"android": "https://dc.lft.to/lastmile_qr_scan", "ios": "https://dc.lft.to/lastmile_qr_scan"}, "is_reserved": 0, "is_disabled": 0, "bike_id": "b4d3accff2987ce64090a4443d5d0282", "lat": 38.90455083333333, "name": "b4d3accff2987ce64090a4443d5d0282", "fusion_lon": 0.0, "fusion_lat": 0.0, "type": "electric_scooter", "lon": -77.0479325}, {"rental_uris": {"android": "https://dc.lft.to/lastmile_qr_scan", "ios": "https://dc.lft.to/lastmile_qr_scan"}, "is_reserved": 0, "is_disabled": 0, "bike_id": "00fdefa7bb2048a40c6e73f221f141e7", "lat": 38.881852, "name": "00fdefa7bb2048a40c6e73f221f141e7", "fusion_lon": 0.0, "fusion_lat": 0.0, "type": "electric_scooter", "lon": -77.02809533333334}, {"rental_uris": {"android": "https://dc.lft.to/lastmile_qr_scan", "ios": "https://dc.lft.to/lastmile_qr_scan"}, "is_reserved": 0, "is_disabled": 0, "bike_id": "c0d52423b40d3a843e45a00536dcdcd0", "lat": 38.907278166666664, "name": "c0d52423b40d3a843e45a00536dcdcd0", "fusion_lon": 0.0, "fusion_lat": 0.0, "type": "electric_scooter", "lon": -77.045446}, {"rental_uris": {"android": "https://dc.lft.to/lastmile_qr_scan", "ios": "https://dc.lft.to/lastmile_qr_scan"}, "is_reserved": 0, "is_disabled": 0, "bike_id": "a1850720dc79a888274013ee264b4e2b", "lat": 38.926143, "name": "a1850720dc79a888274013ee264b4e2b", "fusion_lon": 0.0, "fusion_lat": 0.0, "type": "electric_scooter", "lon": -77.0395755}, {"rental_uris": {"android": "https://dc.lft.to/lastmile_qr_scan", "ios": "https://dc.lft.to/lastmile_qr_scan"}, "is_reserved": 0, "is_disabled": 0, "bike_id": "cb87312de904a6dd48bdfed4324a4eab", "lat": 38.956445, "name": "cb87312de904a6dd48bdfed4324a4eab", "fusion_lon": 0.0, "fusion_lat": 0.0, "type": "electric_bike", "lon": -76.99796083333334}, {"rental_uris": {"android": "https://dc.lft.to/lastmile_qr_scan", "ios": "https://dc.lft.to/lastmile_qr_scan"}, "is_reserved": 0, "is_disabled": 0, "bike_id": "c1078a4b6ab730ebc36a851ce522fdf7", "lat": 38.92258433333333, "name": "c1078a4b6ab730ebc36a851ce522fdf7", "fusion_lon": 0.0, "fusion_lat": 0.0, "type": "electric_scooter", "lon": -77.0703375}, {"rental_uris": {"android": "https://dc.lft.to/lastmile_qr_scan", "ios": "https://dc.lft.to/lastmile_qr_scan"}, "is_reserved": 0, "is_disabled": 0, "bike_id": "9b5d38733be05f538e5ca75fb90db23c", "lat": 38.9321695, "name": "9b5d38733be05f538e5ca75fb90db23c", "fusion_lon": 0.0, "fusion_lat": 0.0, "type": "electric_scooter", "lon": -77.035321}, {"rental_uris": {"android": "https://dc.lft.to/lastmile_qr_scan", "ios": "https://dc.lft.to/lastmile_qr_scan"}, "is_reserved": 0, "is_disabled": 0, "bike_id": "e0847e33153488b0079c31081a47e808", "lat": 38.93770466666667, "name": "e0847e33153488b0079c31081a47e808", "fusion_lon": 0.0, "fusion_lat": 0.0, "type": "electric_scooter", "lon": -77.02390216666667}, {"rental_uris": {"android": "https://dc.lft.to/lastmile_qr_scan", "ios": "https://dc.lft.to/lastmile_qr_scan"}, "is_reserved": 0, "is_disabled": 0, "bike_id": "154e231ff0a3661a253ec4412350d5f5", "lat": 38.88716633333333, "name": "154e231ff0a3661a253ec4412350d5f5", "fusion_lon": 0.0, "fusion_lat": 0.0, "type": "electric_scooter", "lon": -77.0318705}, {"rental_uris": {"android": "https://dc.lft.to/lastmile_qr_scan", "ios": "https://dc.lft.to/lastmile_qr_scan"}, "is_reserved": 0, "is_disabled": 0, "bike_id": "07e4a7258069959d317b99cf4643a7e4", "lat": 38.90244216666667, "name": "07e4a7258069959d317b99cf4643a7e4", "fusion_lon": 0.0, "fusion_lat": 0.0, "type": "electric_scooter", "lon": -77.02271933333333}, {"rental_uris": {"android": "https://dc.lft.to/lastmile_qr_scan", "ios": "https://dc.lft.to/lastmile_qr_scan"}, "is_reserved": 0, "is_disabled": 0, "bike_id": "5739165eff6e7e2a6826b03daf884b00", "lat": 38.860123, "name": "5739165eff6e7e2a6826b03daf884b00", "fusion_lon": 0.0, "fusion_lat": 0.0, "type": "electric_scooter", "lon": -76.98513066666666}, {"rental_uris": {"android": "https://dc.lft.to/lastmile_qr_scan", "ios": "https://dc.lft.to/lastmile_qr_scan"}, "is_reserved": 0, "is_disabled": 0, "bike_id": "3feedd44a0296eabc8d8b461326e2ca1", "lat": 38.91714533333333, "name": "3feedd44a0296eabc8d8b461326e2ca1", "fusion_lon": 0.0, "fusion_lat": 0.0, "type": "electric_scooter", "lon": -77.01219583333334}, {"rental_uris": {"android": "https://dc.lft.to/lastmile_qr_scan", "ios": "https://dc.lft.to/lastmile_qr_scan"}, "is_reserved": 0, "is_disabled": 0, "bike_id": "ce62052f0ada936bf72fb687174e2164", "lat": 38.882478166666665, "name": "ce62052f0ada936bf72fb687174e2164", "fusion_lon": 0.0, "fusion_lat": 0.0, "type": "electric_bike", "lon": -76.96257383333334}, {"rental_uris": {"android": "https://dc.lft.to/lastmile_qr_scan", "ios": "https://dc.lft.to/lastmile_qr_scan"}, "is_reserved": 0, "is_disabled": 0, "bike_id": "d1c17590834a79ef41049c00d669fa1e", "lat": 38.921449833333334, "name": "d1c17590834a79ef41049c00d669fa1e", "fusion_lon": 0.0, "fusion_lat": 0.0, "type": "electric_scooter", "lon": -77.0476795}, {"rental_uris": {"android": "https://dc.lft.to/lastmile_qr_scan", "ios": "https://dc.lft.to/lastmile_qr_scan"}, "is_reserved": 0, "is_disabled": 0, "bike_id": "141d3d56b671afb7bac3e05fd20a317f", "lat": 38.903298666666664, "name": "141d3d56b671afb7bac3e05fd20a317f", "fusion_lon": 0.0, "fusion_lat": 0.0, "type": "electric_bike", "lon": -76.9752945}, {"rental_uris": {"android": "https://dc.lft.to/lastmile_qr_scan", "ios": "https://dc.lft.to/lastmile_qr_scan"}, "is_reserved": 0, "is_disabled": 0, "bike_id": "924253e635a214fe163f8e5972df6dc3", "lat": 38.8967445, "name": "924253e635a214fe163f8e5972df6dc3", "fusion_lon": 0.0, "fusion_lat": 0.0, "type": "electric_scooter", "lon": -76.99652083333334}, {"rental_uris": {"android": "https://dc.lft.to/lastmile_qr_scan", "ios": "https://dc.lft.to/lastmile_qr_scan"}, "is_reserved": 0, "is_disabled": 0, "bike_id": "11e859e79853d973b62f7604f697f5ca", "lat": 38.904113, "name": "11e859e79853d973b62f7604f697f5ca", "fusion_lon": 0.0, "fusion_lat": 0.0, "type": "electric_scooter", "lon": -76.97331983333333}, {"rental_uris": {"android": "https://dc.lft.to/lastmile_qr_scan", "ios": "https://dc.lft.to/lastmile_qr_scan"}, "is_reserved": 0, "is_disabled": 0, "bike_id": "da52f34a392cdf5893db8a7a5fe4fe42", "lat": 38.938483, "name": "da52f34a392cdf5893db8a7a5fe4fe42", "fusion_lon": 0.0, "fusion_lat": 0.0, "type": "electric_bike", "lon": -76.976175}, {"rental_uris": {"android": "https://dc.lft.to/lastmile_qr_scan", "ios": "https://dc.lft.to/lastmile_qr_scan"}, "is_reserved": 0, "is_disabled": 0, "bike_id": "94e623b396ff2216522bb3e1e71cf314", "lat": 38.901583333333335, "name": "94e623b396ff2216522bb3e1e71cf314", "fusion_lon": 0.0, "fusion_lat": 0.0, "type": "electric_scooter", "lon": -76.93057216666666}, {"rental_uris": {"android": "https://dc.lft.to/lastmile_qr_scan", "ios": "https://dc.lft.to/lastmile_qr_scan"}, "is_reserved": 0, "is_disabled": 0, "bike_id": "913cea3d14aed2056ad48007cfc38325", "lat": 38.938811, "name": "913cea3d14aed2056ad48007cfc38325", "fusion_lon": 0.0, "fusion_lat": 0.0, "type": "electric_scooter", "lon": -77.02463133333333}, {"rental_uris": {"android": "https://dc.lft.to/lastmile_qr_scan", "ios": "https://dc.lft.to/lastmile_qr_scan"}, "is_reserved": 0, "is_disabled": 0, "bike_id": "a5076984f63d08dea801f7cb40cdcd6f", "lat": 38.94197, "name": "a5076984f63d08dea801f7cb40cdcd6f", "fusion_lon": 0.0, "fusion_lat": 0.0, "type": "electric_scooter", "lon": -77.02468466666667}, {"rental_uris": {"android": "https://dc.lft.to/lastmile_qr_scan", "ios": "https://dc.lft.to/lastmile_qr_scan"}, "is_reserved": 0, "is_disabled": 0, "bike_id": "5a35496140d9feebd4d508c1864caaa7", "lat": 38.90124933333333, "name": "5a35496140d9feebd4d508c1864caaa7", "fusion_lon": 0.0, "fusion_lat": 0.0, "type": "electric_scooter", "lon": -77.0417105}, {"rental_uris": {"android": "https://dc.lft.to/lastmile_qr_scan", "ios": "https://dc.lft.to/lastmile_qr_scan"}, "is_reserved": 0, "is_disabled": 0, "bike_id": "9adecb947676afde0eaddfd52bbe9066", "lat": 38.94382733333333, "name": "9adecb947676afde0eaddfd52bbe9066", "fusion_lon": 0.0, "fusion_lat": 0.0, "type": "electric_scooter", "lon": -77.02732883333333}, {"rental_uris": {"android": "https://dc.lft.to/lastmile_qr_scan", "ios": "https://dc.lft.to/lastmile_qr_scan"}, "is_reserved": 0, "is_disabled": 0, "bike_id": "e3f99c9124c80aefa84004f4bd87300a", "lat": 38.894716333333335, "name": "e3f99c9124c80aefa84004f4bd87300a", "fusion_lon": 0.0, "fusion_lat": 0.0, "type": "electric_scooter", "lon": -77.00135116666667}, {"rental_uris": {"android": "https://dc.lft.to/lastmile_qr_scan", "ios": "https://dc.lft.to/lastmile_qr_scan"}, "is_reserved": 0, "is_disabled": 0, "bike_id": "02c6408c9f8dfd11d1df04199e25e640", "lat": 38.918383, "name": "02c6408c9f8dfd11d1df04199e25e640", "fusion_lon": 0.0, "fusion_lat": 0.0, "type": "electric_scooter", "lon": -77.03917016666666}, {"rental_uris": {"android": "https://dc.lft.to/lastmile_qr_scan", "ios": "https://dc.lft.to/lastmile_qr_scan"}, "is_reserved": 0, "is_disabled": 0, "bike_id": "6a13e402d6197bb3792177457a576177", "lat": 38.900217166666664, "name": "6a13e402d6197bb3792177457a576177", "fusion_lon": 0.0, "fusion_lat": 0.0, "type": "electric_scooter", "lon": -77.00695316666666}, {"rental_uris": {"android": "https://dc.lft.to/lastmile_qr_scan", "ios": "https://dc.lft.to/lastmile_qr_scan"}, "is_reserved": 0, "is_disabled": 0, "bike_id": "8b85ef99f83fe8f72e87552b5e8fb23f", "lat": 38.91924616666667, "name": "8b85ef99f83fe8f72e87552b5e8fb23f", "fusion_lon": 0.0, "fusion_lat": 0.0, "type": "electric_scooter", "lon": -77.03420383333334}, {"rental_uris": {"android": "https://dc.lft.to/lastmile_qr_scan", "ios": "https://dc.lft.to/lastmile_qr_scan"}, "is_reserved": 0, "is_disabled": 0, "bike_id": "0566cf0b6c7d648babaeec838d4e3071", "lat": 38.91600733333333, "name": "0566cf0b6c7d648babaeec838d4e3071", "fusion_lon": 0.0, "fusion_lat": 0.0, "type": "electric_scooter", "lon": -77.0351655}, {"rental_uris": {"android": "https://dc.lft.to/lastmile_qr_scan", "ios": "https://dc.lft.to/lastmile_qr_scan"}, "is_reserved": 0, "is_disabled": 0, "bike_id": "74efb8b6ead15f3f4c3a61eb3b4e0611", "lat": 38.91990883333333, "name": "74efb8b6ead15f3f4c3a61eb3b4e0611", "fusion_lon": 0.0, "fusion_lat": 0.0, "type": "electric_scooter", "lon": -77.032432}, {"rental_uris": {"android": "https://dc.lft.to/lastmile_qr_scan", "ios": "https://dc.lft.to/lastmile_qr_scan"}, "is_reserved": 0, "is_disabled": 0, "bike_id": "8de8df9170b6cf93f8c8049cfa0ea320", "lat": 38.914128833333336, "name": "8de8df9170b6cf93f8c8049cfa0ea320", "fusion_lon": 0.0, "fusion_lat": 0.0, "type": "electric_scooter", "lon": -77.01484683333334}, {"rental_uris": {"android": "https://dc.lft.to/lastmile_qr_scan", "ios": "https://dc.lft.to/lastmile_qr_scan"}, "is_reserved": 0, "is_disabled": 0, "bike_id": "c50cadf0db3c9a74e10ddb9672b2a940", "lat": 38.925486, "name": "c50cadf0db3c9a74e10ddb9672b2a940", "fusion_lon": 0.0, "fusion_lat": 0.0, "type": "electric_scooter", "lon": -77.03258233333334}, {"rental_uris": {"android": "https://dc.lft.to/lastmile_qr_scan", "ios": "https://dc.lft.to/lastmile_qr_scan"}, "is_reserved": 0, "is_disabled": 0, "bike_id": "57e298ac541d5c89a9af8ab560e52479", "lat": 38.8718595, "name": "57e298ac541d5c89a9af8ab560e52479", "fusion_lon": 0.0, "fusion_lat": 0.0, "type": "electric_scooter", "lon": -77.00603816666667}, {"rental_uris": {"android": "https://dc.lft.to/lastmile_qr_scan", "ios": "https://dc.lft.to/lastmile_qr_scan"}, "is_reserved": 0, "is_disabled": 0, "bike_id": "e7af6c8a17479a153d56ed347a062b5a", "lat": 38.8431685, "name": "e7af6c8a17479a153d56ed347a062b5a", "fusion_lon": 0.0, "fusion_lat": 0.0, "type": "electric_scooter", "lon": -76.99928433333334}, {"rental_uris": {"android": "https://dc.lft.to/lastmile_qr_scan", "ios": "https://dc.lft.to/lastmile_qr_scan"}, "is_reserved": 0, "is_disabled": 0, "bike_id": "0f0fa1dcb2b34ca42ccd63b942bff152", "lat": 38.912168666666666, "name": "0f0fa1dcb2b34ca42ccd63b942bff152", "fusion_lon": 0.0, "fusion_lat": 0.0, "type": "electric_scooter", "lon": -77.02800816666667}, {"rental_uris": {"android": "https://dc.lft.to/lastmile_qr_scan", "ios": "https://dc.lft.to/lastmile_qr_scan"}, "is_reserved": 0, "is_disabled": 0, "bike_id": "2ff7c1321e85f21a7cfdaf0afa3384ca", "lat": 38.922727, "name": "2ff7c1321e85f21a7cfdaf0afa3384ca", "fusion_lon": 0.0, "fusion_lat": 0.0, "type": "electric_scooter", "lon": -77.036394}, {"rental_uris": {"android": "https://dc.lft.to/lastmile_qr_scan", "ios": "https://dc.lft.to/lastmile_qr_scan"}, "is_reserved": 0, "is_disabled": 0, "bike_id": "130243c881c370f7bd3f4c6a493f2adc", "lat": 38.9013275, "name": "130243c881c370f7bd3f4c6a493f2adc", "fusion_lon": 0.0, "fusion_lat": 0.0, "type": "electric_scooter", "lon": -77.05105166666667}, {"rental_uris": {"android": "https://dc.lft.to/lastmile_qr_scan", "ios": "https://dc.lft.to/lastmile_qr_scan"}, "is_reserved": 0, "is_disabled": 0, "bike_id": "4068a9d612127c2695504984ec82bbba", "lat": 38.99526216666667, "name": "4068a9d612127c2695504984ec82bbba", "fusion_lon": 0.0, "fusion_lat": 0.0, "type": "electric_bike", "lon": -77.03125716666666}, {"rental_uris": {"android": "https://dc.lft.to/lastmile_qr_scan", "ios": "https://dc.lft.to/lastmile_qr_scan"}, "is_reserved": 0, "is_disabled": 0, "bike_id": "b694d9e02168acc2909f3c51e90ba825", "lat": 38.92326883333333, "name": "b694d9e02168acc2909f3c51e90ba825", "fusion_lon": 0.0, "fusion_lat": 0.0, "type": "electric_scooter", "lon": -77.03571483333333}, {"rental_uris": {"android": "https://dc.lft.to/lastmile_qr_scan", "ios": "https://dc.lft.to/lastmile_qr_scan"}, "is_reserved": 0, "is_disabled": 0, "bike_id": "194ea529b7189944b9732b7195d25c29", "lat": 38.9242975, "name": "194ea529b7189944b9732b7195d25c29", "fusion_lon": 0.0, "fusion_lat": 0.0, "type": "electric_scooter", "lon": -77.040474}, {"rental_uris": {"android": "https://dc.lft.to/lastmile_qr_scan", "ios": "https://dc.lft.to/lastmile_qr_scan"}, "is_reserved": 0, "is_disabled": 0, "bike_id": "9d4455805fb64e4bb21bf39fcbdc8fd7", "lat": 38.915497, "name": "9d4455805fb64e4bb21bf39fcbdc8fd7", "fusion_lon": 0.0, "fusion_lat": 0.0, "type": "electric_scooter", "lon": -77.03942333333333}, {"rental_uris": {"android": "https://dc.lft.to/lastmile_qr_scan", "ios": "https://dc.lft.to/lastmile_qr_scan"}, "is_reserved": 0, "is_disabled": 0, "bike_id": "c1294040f0125924de8c4b4ab5d4f6fb", "lat": 38.8771065, "name": "c1294040f0125924de8c4b4ab5d4f6fb", "fusion_lon": 0.0, "fusion_lat": 0.0, "type": "electric_scooter", "lon": -77.01848483333333}, {"rental_uris": {"android": "https://dc.lft.to/lastmile_qr_scan", "ios": "https://dc.lft.to/lastmile_qr_scan"}, "is_reserved": 0, "is_disabled": 0, "bike_id": "015dd0ab47825f90f91f7fcd4763fed7", "lat": 38.886066, "name": "015dd0ab47825f90f91f7fcd4763fed7", "fusion_lon": 0.0, "fusion_lat": 0.0, "type": "electric_scooter", "lon": -76.994838}, {"rental_uris": {"android": "https://dc.lft.to/lastmile_qr_scan", "ios": "https://dc.lft.to/lastmile_qr_scan"}, "is_reserved": 0, "is_disabled": 0, "bike_id": "20c1b4f6fd52e1c10cac4617f7fbe7e7", "lat": 38.90721533333333, "name": "20c1b4f6fd52e1c10cac4617f7fbe7e7", "fusion_lon": 0.0, "fusion_lat": 0.0, "type": "electric_scooter", "lon": -77.04480333333333}, {"rental_uris": {"android": "https://dc.lft.to/lastmile_qr_scan", "ios": "https://dc.lft.to/lastmile_qr_scan"}, "is_reserved": 0, "is_disabled": 0, "bike_id": "734abb5ff412630e659b579f38542a2f", "lat": 38.89549016666667, "name": "734abb5ff412630e659b579f38542a2f", "fusion_lon": 0.0, "fusion_lat": 0.0, "type": "electric_scooter", "lon": -77.05663983333334}, {"rental_uris": {"android": "https://dc.lft.to/lastmile_qr_scan", "ios": "https://dc.lft.to/lastmile_qr_scan"}, "is_reserved": 0, "is_disabled": 0, "bike_id": "c333a27bc9982875802e1476ad2c498c", "lat": 38.9444565, "name": "c333a27bc9982875802e1476ad2c498c", "fusion_lon": 0.0, "fusion_lat": 0.0, "type": "electric_scooter", "lon": -77.06202366666666}, {"rental_uris": {"android": "https://dc.lft.to/lastmile_qr_scan", "ios": "https://dc.lft.to/lastmile_qr_scan"}, "is_reserved": 0, "is_disabled": 0, "bike_id": "f8933d70d2e0efb535a9a409eb2ae1fa", "lat": 38.906623833333335, "name": "f8933d70d2e0efb535a9a409eb2ae1fa", "fusion_lon": 0.0, "fusion_lat": 0.0, "type": "electric_scooter", "lon": -77.01087566666666}, {"rental_uris": {"android": "https://dc.lft.to/lastmile_qr_scan", "ios": "https://dc.lft.to/lastmile_qr_scan"}, "is_reserved": 0, "is_disabled": 0, "bike_id": "ee3161b98687969f0b40d89b4a096d5f", "lat": 38.91559066666667, "name": "ee3161b98687969f0b40d89b4a096d5f", "fusion_lon": 0.0, "fusion_lat": 0.0, "type": "electric_scooter", "lon": -77.03529883333333}, {"rental_uris": {"android": "https://dc.lft.to/lastmile_qr_scan", "ios": "https://dc.lft.to/lastmile_qr_scan"}, "is_reserved": 0, "is_disabled": 0, "bike_id": "54f7b0fedfc8aae225f951c60158dcb1", "lat": 38.88368166666667, "name": "54f7b0fedfc8aae225f951c60158dcb1", "fusion_lon": 0.0, "fusion_lat": 0.0, "type": "electric_scooter", "lon": -77.0243565}, {"rental_uris": {"android": "https://dc.lft.to/lastmile_qr_scan", "ios": "https://dc.lft.to/lastmile_qr_scan"}, "is_reserved": 0, "is_disabled": 0, "bike_id": "b26392b409dd2bd84c1936d998e738d1", "lat": 38.892242333333336, "name": "b26392b409dd2bd84c1936d998e738d1", "fusion_lon": 0.0, "fusion_lat": 0.0, "type": "electric_scooter", "lon": -77.04694316666667}, {"rental_uris": {"android": "https://dc.lft.to/lastmile_qr_scan", "ios": "https://dc.lft.to/lastmile_qr_scan"}, "is_reserved": 0, "is_disabled": 0, "bike_id": "a489ce1cc59c6abffce2366010744b68", "lat": 38.83230783333333, "name": "a489ce1cc59c6abffce2366010744b68", "fusion_lon": 0.0, "fusion_lat": 0.0, "type": "electric_bike", "lon": -76.94623883333334}, {"rental_uris": {"android": "https://dc.lft.to/lastmile_qr_scan", "ios": "https://dc.lft.to/lastmile_qr_scan"}, "is_reserved": 0, "is_disabled": 0, "bike_id": "d2141127d1bf3146987f77e8d2ca75a2", "lat": 38.8782295, "name": "d2141127d1bf3146987f77e8d2ca75a2", "fusion_lon": 0.0, "fusion_lat": 0.0, "type": "electric_scooter", "lon": -77.00126333333333}, {"rental_uris": {"android": "https://dc.lft.to/lastmile_qr_scan", "ios": "https://dc.lft.to/lastmile_qr_scan"}, "is_reserved": 0, "is_disabled": 0, "bike_id": "f9dc6356e67df224ce77e0fbb0c90224", "lat": 38.954229833333336, "name": "f9dc6356e67df224ce77e0fbb0c90224", "fusion_lon": 0.0, "fusion_lat": 0.0, "type": "electric_bike", "lon": -76.93278816666667}, {"rental_uris": {"android": "https://dc.lft.to/lastmile_qr_scan", "ios": "https://dc.lft.to/lastmile_qr_scan"}, "is_reserved": 0, "is_disabled": 0, "bike_id": "99c480feb7942704a52a9a44b2999b90", "lat": 38.939726666666665, "name": "99c480feb7942704a52a9a44b2999b90", "fusion_lon": 0.0, "fusion_lat": 0.0, "type": "electric_scooter", "lon": -77.03253833333333}, {"rental_uris": {"android": "https://dc.lft.to/lastmile_qr_scan", "ios": "https://dc.lft.to/lastmile_qr_scan"}, "is_reserved": 0, "is_disabled": 0, "bike_id": "63b363bbc4e9a359020a7f95e72ba888", "lat": 38.907241, "name": "63b363bbc4e9a359020a7f95e72ba888", "fusion_lon": 0.0, "fusion_lat": 0.0, "type": "electric_scooter", "lon": -77.03451716666666}, {"rental_uris": {"android": "https://dc.lft.to/lastmile_qr_scan", "ios": "https://dc.lft.to/lastmile_qr_scan"}, "is_reserved": 0, "is_disabled": 0, "bike_id": "01f117955b983ea0d7c09145558cce36", "lat": 38.92105383333333, "name": "01f117955b983ea0d7c09145558cce36", "fusion_lon": 0.0, "fusion_lat": 0.0, "type": "electric_scooter", "lon": -77.04109383333333}, {"rental_uris": {"android": "https://dc.lft.to/lastmile_qr_scan", "ios": "https://dc.lft.to/lastmile_qr_scan"}, "is_reserved": 0, "is_disabled": 0, "bike_id": "aff6c6c9fd93749ba2071a7672c0f235", "lat": 38.902298, "name": "aff6c6c9fd93749ba2071a7672c0f235", "fusion_lon": 0.0, "fusion_lat": 0.0, "type": "electric_scooter", "lon": -77.05137666666667}, {"rental_uris": {"android": "https://dc.lft.to/lastmile_qr_scan", "ios": "https://dc.lft.to/lastmile_qr_scan"}, "is_reserved": 0, "is_disabled": 0, "bike_id": "926922d99c8f608fa1ce7ba1d514fe6f", "lat": 38.964746833333336, "name": "926922d99c8f608fa1ce7ba1d514fe6f", "fusion_lon": 0.0, "fusion_lat": 0.0, "type": "electric_bike", "lon": -77.03562683333334}, {"rental_uris": {"android": "https://dc.lft.to/lastmile_qr_scan", "ios": "https://dc.lft.to/lastmile_qr_scan"}, "is_reserved": 0, "is_disabled": 0, "bike_id": "5d235fb01db6115bf055cfdbdcca9777", "lat": 38.90031333333334, "name": "5d235fb01db6115bf055cfdbdcca9777", "fusion_lon": 0.0, "fusion_lat": 0.0, "type": "electric_scooter", "lon": -76.99858816666666}, {"rental_uris": {"android": "https://dc.lft.to/lastmile_qr_scan", "ios": "https://dc.lft.to/lastmile_qr_scan"}, "is_reserved": 0, "is_disabled": 0, "bike_id": "42e30884fc263fe23e55d4b172fb4056", "lat": 38.891723, "name": "42e30884fc263fe23e55d4b172fb4056", "fusion_lon": 0.0, "fusion_lat": 0.0, "type": "electric_scooter", "lon": -76.99032666666666}, {"rental_uris": {"android": "https://dc.lft.to/lastmile_qr_scan", "ios": "https://dc.lft.to/lastmile_qr_scan"}, "is_reserved": 0, "is_disabled": 0, "bike_id": "c167af80b93e24938c20721ecfeb6c4e", "lat": 38.89664633333334, "name": "c167af80b93e24938c20721ecfeb6c4e", "fusion_lon": 0.0, "fusion_lat": 0.0, "type": "electric_scooter", "lon": -77.04640116666667}, {"rental_uris": {"android": "https://dc.lft.to/lastmile_qr_scan", "ios": "https://dc.lft.to/lastmile_qr_scan"}, "is_reserved": 0, "is_disabled": 0, "bike_id": "9cf78e3c21326a51ea9460b06af8deab", "lat": 38.92208883333333, "name": "9cf78e3c21326a51ea9460b06af8deab", "fusion_lon": 0.0, "fusion_lat": 0.0, "type": "electric_scooter", "lon": -77.03779816666666}, {"rental_uris": {"android": "https://dc.lft.to/lastmile_qr_scan", "ios": "https://dc.lft.to/lastmile_qr_scan"}, "is_reserved": 0, "is_disabled": 0, "bike_id": "735e0c0217cf3aa43ca933039c899a64", "lat": 38.92364666666667, "name": "735e0c0217cf3aa43ca933039c899a64", "fusion_lon": 0.0, "fusion_lat": 0.0, "type": "electric_scooter", "lon": -77.05049233333334}, {"rental_uris": {"android": "https://dc.lft.to/lastmile_qr_scan", "ios": "https://dc.lft.to/lastmile_qr_scan"}, "is_reserved": 0, "is_disabled": 0, "bike_id": "e14c3a485194028283f00c0a47f6c9c7", "lat": 38.9561465, "name": "e14c3a485194028283f00c0a47f6c9c7", "fusion_lon": 0.0, "fusion_lat": 0.0, "type": "electric_scooter", "lon": -77.013471}, {"rental_uris": {"android": "https://dc.lft.to/lastmile_qr_scan", "ios": "https://dc.lft.to/lastmile_qr_scan"}, "is_reserved": 0, "is_disabled": 0, "bike_id": "682169ce7f71128ff3fd82dd47b0a2ea", "lat": 38.90214183333333, "name": "682169ce7f71128ff3fd82dd47b0a2ea", "fusion_lon": 0.0, "fusion_lat": 0.0, "type": "electric_scooter", "lon": -77.02374566666667}, {"rental_uris": {"android": "https://dc.lft.to/lastmile_qr_scan", "ios": "https://dc.lft.to/lastmile_qr_scan"}, "is_reserved": 0, "is_disabled": 0, "bike_id": "7033aea98016612cf12a1ff4b20f92a9", "lat": 38.887201833333336, "name": "7033aea98016612cf12a1ff4b20f92a9", "fusion_lon": 0.0, "fusion_lat": 0.0, "type": "electric_scooter", "lon": -77.02163033333333}, {"rental_uris": {"android": "https://dc.lft.to/lastmile_qr_scan", "ios": "https://dc.lft.to/lastmile_qr_scan"}, "is_reserved": 0, "is_disabled": 0, "bike_id": "c51b7302ab337037c01b42704f5ce65e", "lat": 38.92864216666667, "name": "c51b7302ab337037c01b42704f5ce65e", "fusion_lon": 0.0, "fusion_lat": 0.0, "type": "electric_scooter", "lon": -77.03290866666667}, {"rental_uris": {"android": "https://dc.lft.to/lastmile_qr_scan", "ios": "https://dc.lft.to/lastmile_qr_scan"}, "is_reserved": 0, "is_disabled": 0, "bike_id": "9fd8e6a0b90bea398485eb71ab83c6c5", "lat": 38.8316155, "name": "9fd8e6a0b90bea398485eb71ab83c6c5", "fusion_lon": 0.0, "fusion_lat": 0.0, "type": "electric_bike", "lon": -76.99546516666666}, {"rental_uris": {"android": "https://dc.lft.to/lastmile_qr_scan", "ios": "https://dc.lft.to/lastmile_qr_scan"}, "is_reserved": 0, "is_disabled": 0, "bike_id": "cf345a6cf70f847e2dfe109a52423c1f", "lat": 38.81204366666667, "name": "cf345a6cf70f847e2dfe109a52423c1f", "fusion_lon": 0.0, "fusion_lat": 0.0, "type": "electric_bike", "lon": -77.108336}, {"rental_uris": {"android": "https://dc.lft.to/lastmile_qr_scan", "ios": "https://dc.lft.to/lastmile_qr_scan"}, "is_reserved": 0, "is_disabled": 0, "bike_id": "0b5405ee4ea5dc23d4b26bc79256bc18", "lat": 38.86565816666667, "name": "0b5405ee4ea5dc23d4b26bc79256bc18", "fusion_lon": 0.0, "fusion_lat": 0.0, "type": "electric_scooter", "lon": -76.989186}, {"rental_uris": {"android": "https://dc.lft.to/lastmile_qr_scan", "ios": "https://dc.lft.to/lastmile_qr_scan"}, "is_reserved": 0, "is_disabled": 0, "bike_id": "608be41a2d24db013667503869b6c388", "lat": 38.915225, "name": "608be41a2d24db013667503869b6c388", "fusion_lon": 0.0, "fusion_lat": 0.0, "type": "electric_scooter", "lon": -77.00337466666667}, {"rental_uris": {"android": "https://dc.lft.to/lastmile_qr_scan", "ios": "https://dc.lft.to/lastmile_qr_scan"}, "is_reserved": 0, "is_disabled": 0, "bike_id": "3e0fc5a9420477563cde1d010ab14729", "lat": 38.931290833333335, "name": "3e0fc5a9420477563cde1d010ab14729", "fusion_lon": 0.0, "fusion_lat": 0.0, "type": "electric_scooter", "lon": -77.030353}, {"rental_uris": {"android": "https://dc.lft.to/lastmile_qr_scan", "ios": "https://dc.lft.to/lastmile_qr_scan"}, "is_reserved": 0, "is_disabled": 0, "bike_id": "e67bc5fa160bb08bc4c1d78ff4fb2ebd", "lat": 38.95957816666667, "name": "e67bc5fa160bb08bc4c1d78ff4fb2ebd", "fusion_lon": 0.0, "fusion_lat": 0.0, "type": "electric_bike", "lon": -77.10090833333334}, {"rental_uris": {"android": "https://dc.lft.to/lastmile_qr_scan", "ios": "https://dc.lft.to/lastmile_qr_scan"}, "is_reserved": 0, "is_disabled": 0, "bike_id": "e3bc2c019b7f19251e62fd424fead41c", "lat": 38.909598833333334, "name": "e3bc2c019b7f19251e62fd424fead41c", "fusion_lon": 0.0, "fusion_lat": 0.0, "type": "electric_scooter", "lon": -77.04579016666666}, {"rental_uris": {"android": "https://dc.lft.to/lastmile_qr_scan", "ios": "https://dc.lft.to/lastmile_qr_scan"}, "is_reserved": 0, "is_disabled": 0, "bike_id": "cd9e2a6b4c6638e99db80af9999b5116", "lat": 38.938689333333336, "name": "cd9e2a6b4c6638e99db80af9999b5116", "fusion_lon": 0.0, "fusion_lat": 0.0, "type": "electric_bike", "lon": -76.942951}, {"rental_uris": {"android": "https://dc.lft.to/lastmile_qr_scan", "ios": "https://dc.lft.to/lastmile_qr_scan"}, "is_reserved": 0, "is_disabled": 0, "bike_id": "39c3c4e7c2c09d45bd0cb6165632b9fa", "lat": 38.96220183333333, "name": "39c3c4e7c2c09d45bd0cb6165632b9fa", "fusion_lon": 0.0, "fusion_lat": 0.0, "type": "electric_bike", "lon": -77.02627666666666}, {"rental_uris": {"android": "https://dc.lft.to/lastmile_qr_scan", "ios": "https://dc.lft.to/lastmile_qr_scan"}, "is_reserved": 0, "is_disabled": 0, "bike_id": "868b6db37a27513d050a27e7e9770361", "lat": 38.90268783333333, "name": "868b6db37a27513d050a27e7e9770361", "fusion_lon": 0.0, "fusion_lat": 0.0, "type": "electric_scooter", "lon": -77.03341383333333}, {"rental_uris": {"android": "https://dc.lft.to/lastmile_qr_scan", "ios": "https://dc.lft.to/lastmile_qr_scan"}, "is_reserved": 0, "is_disabled": 0, "bike_id": "aadf41ef66e7ffc766728e0a209a7fe6", "lat": 38.91915066666667, "name": "aadf41ef66e7ffc766728e0a209a7fe6", "fusion_lon": 0.0, "fusion_lat": 0.0, "type": "electric_scooter", "lon": -77.024193}, {"rental_uris": {"android": "https://dc.lft.to/lastmile_qr_scan", "ios": "https://dc.lft.to/lastmile_qr_scan"}, "is_reserved": 0, "is_disabled": 0, "bike_id": "c60ca34f95ca66363dc3469d3496b9da", "lat": 38.90681466666667, "name": "c60ca34f95ca66363dc3469d3496b9da", "fusion_lon": 0.0, "fusion_lat": 0.0, "type": "electric_scooter", "lon": -77.02704866666667}, {"rental_uris": {"android": "https://dc.lft.to/lastmile_qr_scan", "ios": "https://dc.lft.to/lastmile_qr_scan"}, "is_reserved": 0, "is_disabled": 0, "bike_id": "ccaf37333debccac60a3a7eb8f5d6afc", "lat": 38.866891, "name": "ccaf37333debccac60a3a7eb8f5d6afc", "fusion_lon": 0.0, "fusion_lat": 0.0, "type": "electric_scooter", "lon": -76.985263}, {"rental_uris": {"android": "https://dc.lft.to/lastmile_qr_scan", "ios": "https://dc.lft.to/lastmile_qr_scan"}, "is_reserved": 0, "is_disabled": 0, "bike_id": "bca23e92d9b7a74d8b12be55f3c8fb05", "lat": 38.897402666666665, "name": "bca23e92d9b7a74d8b12be55f3c8fb05", "fusion_lon": 0.0, "fusion_lat": 0.0, "type": "electric_scooter", "lon": -77.007569}, {"rental_uris": {"android": "https://dc.lft.to/lastmile_qr_scan", "ios": "https://dc.lft.to/lastmile_qr_scan"}, "is_reserved": 0, "is_disabled": 0, "bike_id": "33810b2880de9d7ea5baf5ab0831a7ef", "lat": 38.903687166666664, "name": "33810b2880de9d7ea5baf5ab0831a7ef", "fusion_lon": 0.0, "fusion_lat": 0.0, "type": "electric_scooter", "lon": -76.99459816666666}, {"rental_uris": {"android": "https://dc.lft.to/lastmile_qr_scan", "ios": "https://dc.lft.to/lastmile_qr_scan"}, "is_reserved": 0, "is_disabled": 0, "bike_id": "eba43b74b4b5af45024aea118b3024e9", "lat": 38.93377866666667, "name": "eba43b74b4b5af45024aea118b3024e9", "fusion_lon": 0.0, "fusion_lat": 0.0, "type": "electric_scooter", "lon": -77.057225}, {"rental_uris": {"android": "https://dc.lft.to/lastmile_qr_scan", "ios": "https://dc.lft.to/lastmile_qr_scan"}, "is_reserved": 0, "is_disabled": 0, "bike_id": "ba8f62dc5649b1f9edd38e982c5bf097", "lat": 38.87184633333333, "name": "ba8f62dc5649b1f9edd38e982c5bf097", "fusion_lon": 0.0, "fusion_lat": 0.0, "type": "electric_scooter", "lon": -77.00603233333334}, {"rental_uris": {"android": "https://dc.lft.to/lastmile_qr_scan", "ios": "https://dc.lft.to/lastmile_qr_scan"}, "is_reserved": 0, "is_disabled": 0, "bike_id": "5419c6a11d628364628f2102918ee485", "lat": 38.917001166666665, "name": "5419c6a11d628364628f2102918ee485", "fusion_lon": 0.0, "fusion_lat": 0.0, "type": "electric_scooter", "lon": -77.030372}, {"rental_uris": {"android": "https://dc.lft.to/lastmile_qr_scan", "ios": "https://dc.lft.to/lastmile_qr_scan"}, "is_reserved": 0, "is_disabled": 0, "bike_id": "2324c551670590646cf4891ea1619ec3", "lat": 38.89979183333333, "name": "2324c551670590646cf4891ea1619ec3", "fusion_lon": 0.0, "fusion_lat": 0.0, "type": "electric_scooter", "lon": -77.0162725}, {"rental_uris": {"android": "https://dc.lft.to/lastmile_qr_scan", "ios": "https://dc.lft.to/lastmile_qr_scan"}, "is_reserved": 0, "is_disabled": 0, "bike_id": "bc6778013a7cb66d1206044e4cbd2fc2", "lat": 38.9353185, "name": "bc6778013a7cb66d1206044e4cbd2fc2", "fusion_lon": 0.0, "fusion_lat": 0.0, "type": "electric_scooter", "lon": -77.02355216666666}, {"rental_uris": {"android": "https://dc.lft.to/lastmile_qr_scan", "ios": "https://dc.lft.to/lastmile_qr_scan"}, "is_reserved": 0, "is_disabled": 0, "bike_id": "da82c1a436a4d42ac3998960d64095ba", "lat": 38.838274, "name": "da82c1a436a4d42ac3998960d64095ba", "fusion_lon": 0.0, "fusion_lat": 0.0, "type": "electric_bike", "lon": -76.996854}, {"rental_uris": {"android": "https://dc.lft.to/lastmile_qr_scan", "ios": "https://dc.lft.to/lastmile_qr_scan"}, "is_reserved": 0, "is_disabled": 0, "bike_id": "778de5597e3cd3ca401111ac76a33c78", "lat": 38.903876833333335, "name": "778de5597e3cd3ca401111ac76a33c78", "fusion_lon": 0.0, "fusion_lat": 0.0, "type": "electric_scooter", "lon": -76.9761755}, {"rental_uris": {"android": "https://dc.lft.to/lastmile_qr_scan", "ios": "https://dc.lft.to/lastmile_qr_scan"}, "is_reserved": 0, "is_disabled": 0, "bike_id": "5790eb7f24084763e168b41d0ead84c6", "lat": 38.9217365, "name": "5790eb7f24084763e168b41d0ead84c6", "fusion_lon": 0.0, "fusion_lat": 0.0, "type": "electric_scooter", "lon": -77.03265583333334}, {"rental_uris": {"android": "https://dc.lft.to/lastmile_qr_scan", "ios": "https://dc.lft.to/lastmile_qr_scan"}, "is_reserved": 0, "is_disabled": 0, "bike_id": "f565b1a9588a540617d97fb95731d8cd", "lat": 38.922719, "name": "f565b1a9588a540617d97fb95731d8cd", "fusion_lon": 0.0, "fusion_lat": 0.0, "type": "electric_scooter", "lon": -77.03403966666667}, {"rental_uris": {"android": "https://dc.lft.to/lastmile_qr_scan", "ios": "https://dc.lft.to/lastmile_qr_scan"}, "is_reserved": 0, "is_disabled": 0, "bike_id": "0bd2534a6ce9f7fbd297e19b7f62a211", "lat": 38.887619, "name": "0bd2534a6ce9f7fbd297e19b7f62a211", "fusion_lon": 0.0, "fusion_lat": 0.0, "type": "electric_bike", "lon": -76.900791}, {"rental_uris": {"android": "https://dc.lft.to/lastmile_qr_scan", "ios": "https://dc.lft.to/lastmile_qr_scan"}, "is_reserved": 0, "is_disabled": 0, "bike_id": "1ef9a7b29cf73d401ed43d6def17d623", "lat": 38.892330666666666, "name": "1ef9a7b29cf73d401ed43d6def17d623", "fusion_lon": 0.0, "fusion_lat": 0.0, "type": "electric_scooter", "lon": -77.01273283333333}, {"rental_uris": {"android": "https://dc.lft.to/lastmile_qr_scan", "ios": "https://dc.lft.to/lastmile_qr_scan"}, "is_reserved": 0, "is_disabled": 0, "bike_id": "7f2332c2c4b3261f63f5379cfa538b4c", "lat": 38.864195333333335, "name": "7f2332c2c4b3261f63f5379cfa538b4c", "fusion_lon": 0.0, "fusion_lat": 0.0, "type": "electric_scooter", "lon": -76.97429383333333}, {"rental_uris": {"android": "https://dc.lft.to/lastmile_qr_scan", "ios": "https://dc.lft.to/lastmile_qr_scan"}, "is_reserved": 0, "is_disabled": 0, "bike_id": "78de661b2a017614355de38a3b4e6fde", "lat": 38.90059566666667, "name": "78de661b2a017614355de38a3b4e6fde", "fusion_lon": 0.0, "fusion_lat": 0.0, "type": "electric_scooter", "lon": -77.05061733333334}, {"rental_uris": {"android": "https://dc.lft.to/lastmile_qr_scan", "ios": "https://dc.lft.to/lastmile_qr_scan"}, "is_reserved": 0, "is_disabled": 0, "bike_id": "f82896fb167c3b7c39d81922a1490e77", "lat": 38.91933066666667, "name": "f82896fb167c3b7c39d81922a1490e77", "fusion_lon": 0.0, "fusion_lat": 0.0, "type": "electric_scooter", "lon": -76.999366}, {"rental_uris": {"android": "https://dc.lft.to/lastmile_qr_scan", "ios": "https://dc.lft.to/lastmile_qr_scan"}, "is_reserved": 0, "is_disabled": 0, "bike_id": "5bfbad55a4c2c5592ff43dcd472a9404", "lat": 38.93554816666666, "name": "5bfbad55a4c2c5592ff43dcd472a9404", "fusion_lon": 0.0, "fusion_lat": 0.0, "type": "electric_scooter", "lon": -77.02218683333334}, {"rental_uris": {"android": "https://dc.lft.to/lastmile_qr_scan", "ios": "https://dc.lft.to/lastmile_qr_scan"}, "is_reserved": 0, "is_disabled": 0, "bike_id": "839900671060ea9717271229be9a8f6d", "lat": 38.91571583333333, "name": "839900671060ea9717271229be9a8f6d", "fusion_lon": 0.0, "fusion_lat": 0.0, "type": "electric_scooter", "lon": -77.0120045}, {"rental_uris": {"android": "https://dc.lft.to/lastmile_qr_scan", "ios": "https://dc.lft.to/lastmile_qr_scan"}, "is_reserved": 0, "is_disabled": 0, "bike_id": "b02961003634b6f66616be3b68cbb35f", "lat": 38.903676833333336, "name": "b02961003634b6f66616be3b68cbb35f", "fusion_lon": 0.0, "fusion_lat": 0.0, "type": "electric_scooter", "lon": -77.00735}, {"rental_uris": {"android": "https://dc.lft.to/lastmile_qr_scan", "ios": "https://dc.lft.to/lastmile_qr_scan"}, "is_reserved": 0, "is_disabled": 0, "bike_id": "6c82bccb944359c774c4d7ba90f276e4", "lat": 38.896215, "name": "6c82bccb944359c774c4d7ba90f276e4", "fusion_lon": 0.0, "fusion_lat": 0.0, "type": "electric_scooter", "lon": -77.031778}, {"rental_uris": {"android": "https://dc.lft.to/lastmile_qr_scan", "ios": "https://dc.lft.to/lastmile_qr_scan"}, "is_reserved": 0, "is_disabled": 0, "bike_id": "03071a78d0c33263bf4dd19d6b12aa44", "lat": 38.892232166666666, "name": "03071a78d0c33263bf4dd19d6b12aa44", "fusion_lon": 0.0, "fusion_lat": 0.0, "type": "electric_scooter", "lon": -77.04376766666667}, {"rental_uris": {"android": "https://dc.lft.to/lastmile_qr_scan", "ios": "https://dc.lft.to/lastmile_qr_scan"}, "is_reserved": 0, "is_disabled": 0, "bike_id": "35a74934f7a06ec4dd945c146e36a41b", "lat": 38.885292666666665, "name": "35a74934f7a06ec4dd945c146e36a41b", "fusion_lon": 0.0, "fusion_lat": 0.0, "type": "electric_scooter", "lon": -77.02032533333333}, {"rental_uris": {"android": "https://dc.lft.to/lastmile_qr_scan", "ios": "https://dc.lft.to/lastmile_qr_scan"}, "is_reserved": 0, "is_disabled": 0, "bike_id": "13137093671fd043d1a718247da0a137", "lat": 38.948965666666666, "name": "13137093671fd043d1a718247da0a137", "fusion_lon": 0.0, "fusion_lat": 0.0, "type": "electric_bike", "lon": -77.03212816666667}, {"rental_uris": {"android": "https://dc.lft.to/lastmile_qr_scan", "ios": "https://dc.lft.to/lastmile_qr_scan"}, "is_reserved": 0, "is_disabled": 0, "bike_id": "a65d0b0392975d63a0b4dd52e2f3cda4", "lat": 38.93637283333333, "name": "a65d0b0392975d63a0b4dd52e2f3cda4", "fusion_lon": 0.0, "fusion_lat": 0.0, "type": "electric_bike", "lon": -76.95454916666667}, {"rental_uris": {"android": "https://dc.lft.to/lastmile_qr_scan", "ios": "https://dc.lft.to/lastmile_qr_scan"}, "is_reserved": 0, "is_disabled": 0, "bike_id": "65e11c0d371de8b930c2e6bb3e4b26a9", "lat": 38.932263166666665, "name": "65e11c0d371de8b930c2e6bb3e4b26a9", "fusion_lon": 0.0, "fusion_lat": 0.0, "type": "electric_scooter", "lon": -77.02849366666666}, {"rental_uris": {"android": "https://dc.lft.to/lastmile_qr_scan", "ios": "https://dc.lft.to/lastmile_qr_scan"}, "is_reserved": 0, "is_disabled": 0, "bike_id": "0e917396813a01faea57bb582a19f7c0", "lat": 38.89210933333333, "name": "0e917396813a01faea57bb582a19f7c0", "fusion_lon": 0.0, "fusion_lat": 0.0, "type": "electric_scooter", "lon": -76.99032616666666}, {"rental_uris": {"android": "https://dc.lft.to/lastmile_qr_scan", "ios": "https://dc.lft.to/lastmile_qr_scan"}, "is_reserved": 0, "is_disabled": 0, "bike_id": "40d9f0ae71627cbe0b2a50fe0963c3f8", "lat": 38.88734633333333, "name": "40d9f0ae71627cbe0b2a50fe0963c3f8", "fusion_lon": 0.0, "fusion_lat": 0.0, "type": "electric_scooter", "lon": -77.02583283333334}, {"rental_uris": {"android": "https://dc.lft.to/lastmile_qr_scan", "ios": "https://dc.lft.to/lastmile_qr_scan"}, "is_reserved": 0, "is_disabled": 0, "bike_id": "51e7adf8c2bb3b35729764bda5e4d68c", "lat": 38.92549616666667, "name": "51e7adf8c2bb3b35729764bda5e4d68c", "fusion_lon": 0.0, "fusion_lat": 0.0, "type": "electric_bike", "lon": -77.01985633333334}, {"rental_uris": {"android": "https://dc.lft.to/lastmile_qr_scan", "ios": "https://dc.lft.to/lastmile_qr_scan"}, "is_reserved": 0, "is_disabled": 0, "bike_id": "2b49808e70e52a59db50913645716b82", "lat": 38.9210095, "name": "2b49808e70e52a59db50913645716b82", "fusion_lon": 0.0, "fusion_lat": 0.0, "type": "electric_scooter", "lon": -77.04365}, {"rental_uris": {"android": "https://dc.lft.to/lastmile_qr_scan", "ios": "https://dc.lft.to/lastmile_qr_scan"}, "is_reserved": 0, "is_disabled": 0, "bike_id": "e12f620327be0c1b4b4f04f6a50842f2", "lat": 38.895604, "name": "e12f620327be0c1b4b4f04f6a50842f2", "fusion_lon": 0.0, "fusion_lat": 0.0, "type": "electric_bike", "lon": -77.12732816666667}, {"rental_uris": {"android": "https://dc.lft.to/lastmile_qr_scan", "ios": "https://dc.lft.to/lastmile_qr_scan"}, "is_reserved": 0, "is_disabled": 0, "bike_id": "f6245fb9619ac77fcd839cef6877149c", "lat": 38.92363733333333, "name": "f6245fb9619ac77fcd839cef6877149c", "fusion_lon": 0.0, "fusion_lat": 0.0, "type": "electric_scooter", "lon": -77.05123466666667}, {"rental_uris": {"android": "https://dc.lft.to/lastmile_qr_scan", "ios": "https://dc.lft.to/lastmile_qr_scan"}, "is_reserved": 0, "is_disabled": 0, "bike_id": "face09d02dc77431568f09f5dc206d2e", "lat": 38.92494833333333, "name": "face09d02dc77431568f09f5dc206d2e", "fusion_lon": 0.0, "fusion_lat": 0.0, "type": "electric_scooter", "lon": -77.05214766666667}, {"rental_uris": {"android": "https://dc.lft.to/lastmile_qr_scan", "ios": "https://dc.lft.to/lastmile_qr_scan"}, "is_reserved": 0, "is_disabled": 0, "bike_id": "b4737122996e9128c4140872e4e47098", "lat": 38.92685733333333, "name": "b4737122996e9128c4140872e4e47098", "fusion_lon": 0.0, "fusion_lat": 0.0, "type": "electric_scooter", "lon": -77.02301566666667}, {"rental_uris": {"android": "https://dc.lft.to/lastmile_qr_scan", "ios": "https://dc.lft.to/lastmile_qr_scan"}, "is_reserved": 0, "is_disabled": 0, "bike_id": "1d7cbe49ae00462f7ff4f29b84979691", "lat": 38.900791166666664, "name": "1d7cbe49ae00462f7ff4f29b84979691", "fusion_lon": 0.0, "fusion_lat": 0.0, "type": "electric_scooter", "lon": -77.030872}, {"rental_uris": {"android": "https://dc.lft.to/lastmile_qr_scan", "ios": "https://dc.lft.to/lastmile_qr_scan"}, "is_reserved": 0, "is_disabled": 0, "bike_id": "69ef8ec2721f76ab3462ddc4ed89b60d", "lat": 38.894305, "name": "69ef8ec2721f76ab3462ddc4ed89b60d", "fusion_lon": 0.0, "fusion_lat": 0.0, "type": "electric_scooter", "lon": -76.94880016666667}, {"rental_uris": {"android": "https://dc.lft.to/lastmile_qr_scan", "ios": "https://dc.lft.to/lastmile_qr_scan"}, "is_reserved": 0, "is_disabled": 0, "bike_id": "d416713d3cfca12f1958dcf7b9f77f9f", "lat": 38.90198016666667, "name": "d416713d3cfca12f1958dcf7b9f77f9f", "fusion_lon": 0.0, "fusion_lat": 0.0, "type": "electric_scooter", "lon": -76.98207616666667}, {"rental_uris": {"android": "https://dc.lft.to/lastmile_qr_scan", "ios": "https://dc.lft.to/lastmile_qr_scan"}, "is_reserved": 0, "is_disabled": 0, "bike_id": "fb6a09dcfff4f25387d1811cc84073e3", "lat": 38.9142625, "name": "fb6a09dcfff4f25387d1811cc84073e3", "fusion_lon": 0.0, "fusion_lat": 0.0, "type": "electric_scooter", "lon": -77.04654016666667}, {"rental_uris": {"android": "https://dc.lft.to/lastmile_qr_scan", "ios": "https://dc.lft.to/lastmile_qr_scan"}, "is_reserved": 0, "is_disabled": 0, "bike_id": "c66ad18c73f14a1c9f4babb84f11e51b", "lat": 38.92686616666667, "name": "c66ad18c73f14a1c9f4babb84f11e51b", "fusion_lon": 0.0, "fusion_lat": 0.0, "type": "electric_scooter", "lon": -77.02301683333333}, {"rental_uris": {"android": "https://dc.lft.to/lastmile_qr_scan", "ios": "https://dc.lft.to/lastmile_qr_scan"}, "is_reserved": 0, "is_disabled": 0, "bike_id": "d61b0bdea9d65ddd45e08133f3ced4f8", "lat": 38.91555233333333, "name": "d61b0bdea9d65ddd45e08133f3ced4f8", "fusion_lon": 0.0, "fusion_lat": 0.0, "type": "electric_scooter", "lon": -77.046241}, {"rental_uris": {"android": "https://dc.lft.to/lastmile_qr_scan", "ios": "https://dc.lft.to/lastmile_qr_scan"}, "is_reserved": 0, "is_disabled": 0, "bike_id": "9c28cc4adf354bf0b672e6e320ddcf17", "lat": 38.919221, "name": "9c28cc4adf354bf0b672e6e320ddcf17", "fusion_lon": 0.0, "fusion_lat": 0.0, "type": "electric_scooter", "lon": -77.031672}, {"rental_uris": {"android": "https://dc.lft.to/lastmile_qr_scan", "ios": "https://dc.lft.to/lastmile_qr_scan"}, "is_reserved": 0, "is_disabled": 0, "bike_id": "98863b79696fe5bd7668e45e9ab34713", "lat": 38.9217175, "name": "98863b79696fe5bd7668e45e9ab34713", "fusion_lon": 0.0, "fusion_lat": 0.0, "type": "electric_scooter", "lon": -77.0326085}, {"rental_uris": {"android": "https://dc.lft.to/lastmile_qr_scan", "ios": "https://dc.lft.to/lastmile_qr_scan"}, "is_reserved": 0, "is_disabled": 0, "bike_id": "d766098aade6c7cd5354128032cccf9a", "lat": 38.91887716666667, "name": "d766098aade6c7cd5354128032cccf9a", "fusion_lon": 0.0, "fusion_lat": 0.0, "type": "electric_scooter", "lon": -77.03485216666667}, {"rental_uris": {"android": "https://dc.lft.to/lastmile_qr_scan", "ios": "https://dc.lft.to/lastmile_qr_scan"}, "is_reserved": 0, "is_disabled": 0, "bike_id": "7fd270ca353f7ad2f75a2180b116f1db", "lat": 38.863801333333335, "name": "7fd270ca353f7ad2f75a2180b116f1db", "fusion_lon": 0.0, "fusion_lat": 0.0, "type": "electric_scooter", "lon": -76.99051816666666}, {"rental_uris": {"android": "https://dc.lft.to/lastmile_qr_scan", "ios": "https://dc.lft.to/lastmile_qr_scan"}, "is_reserved": 0, "is_disabled": 0, "bike_id": "870f29edc418b70056dbb5e88c5adeca", "lat": 38.887438333333336, "name": "870f29edc418b70056dbb5e88c5adeca", "fusion_lon": 0.0, "fusion_lat": 0.0, "type": "electric_scooter", "lon": -77.0154095}, {"rental_uris": {"android": "https://dc.lft.to/lastmile_qr_scan", "ios": "https://dc.lft.to/lastmile_qr_scan"}, "is_reserved": 0, "is_disabled": 0, "bike_id": "64a3f5a62a4339cdd3f733cf36e9abc9", "lat": 38.91321216666667, "name": "64a3f5a62a4339cdd3f733cf36e9abc9", "fusion_lon": 0.0, "fusion_lat": 0.0, "type": "electric_scooter", "lon": -77.04559166666667}, {"rental_uris": {"android": "https://dc.lft.to/lastmile_qr_scan", "ios": "https://dc.lft.to/lastmile_qr_scan"}, "is_reserved": 0, "is_disabled": 0, "bike_id": "3c730384012447e70cd0b89fef6cbde3", "lat": 38.89371083333333, "name": "3c730384012447e70cd0b89fef6cbde3", "fusion_lon": 0.0, "fusion_lat": 0.0, "type": "electric_scooter", "lon": -77.02279683333333}, {"rental_uris": {"android": "https://dc.lft.to/lastmile_qr_scan", "ios": "https://dc.lft.to/lastmile_qr_scan"}, "is_reserved": 0, "is_disabled": 0, "bike_id": "bdc3eb576723c932c260e9bb3a8f4c04", "lat": 38.928561333333334, "name": "bdc3eb576723c932c260e9bb3a8f4c04", "fusion_lon": 0.0, "fusion_lat": 0.0, "type": "electric_scooter", "lon": -77.0141115}, {"rental_uris": {"android": "https://dc.lft.to/lastmile_qr_scan", "ios": "https://dc.lft.to/lastmile_qr_scan"}, "is_reserved": 0, "is_disabled": 0, "bike_id": "bc4d64168f09ceebae35c2acc0885de6", "lat": 38.939799, "name": "bc4d64168f09ceebae35c2acc0885de6", "fusion_lon": 0.0, "fusion_lat": 0.0, "type": "electric_scooter", "lon": -77.03006}, {"rental_uris": {"android": "https://dc.lft.to/lastmile_qr_scan", "ios": "https://dc.lft.to/lastmile_qr_scan"}, "is_reserved": 0, "is_disabled": 0, "bike_id": "dbdfd037422efba1bd3f8f4f8fa1b4bf", "lat": 38.91381716666667, "name": "dbdfd037422efba1bd3f8f4f8fa1b4bf", "fusion_lon": 0.0, "fusion_lat": 0.0, "type": "electric_scooter", "lon": -77.032136}, {"rental_uris": {"android": "https://dc.lft.to/lastmile_qr_scan", "ios": "https://dc.lft.to/lastmile_qr_scan"}, "is_reserved": 0, "is_disabled": 0, "bike_id": "bb7787461c8fa2a6c2e6c5853e8ca083", "lat": 38.858025833333336, "name": "bb7787461c8fa2a6c2e6c5853e8ca083", "fusion_lon": 0.0, "fusion_lat": 0.0, "type": "electric_scooter", "lon": -76.99145416666667}, {"rental_uris": {"android": "https://dc.lft.to/lastmile_qr_scan", "ios": "https://dc.lft.to/lastmile_qr_scan"}, "is_reserved": 0, "is_disabled": 0, "bike_id": "309b245eb5fe3e412485ea6b74e55524", "lat": 38.90986916666667, "name": "309b245eb5fe3e412485ea6b74e55524", "fusion_lon": 0.0, "fusion_lat": 0.0, "type": "electric_scooter", "lon": -77.00894316666667}, {"rental_uris": {"android": "https://dc.lft.to/lastmile_qr_scan", "ios": "https://dc.lft.to/lastmile_qr_scan"}, "is_reserved": 0, "is_disabled": 0, "bike_id": "7b0ad60e1ba106aca98061b005293b59", "lat": 38.8922795, "name": "7b0ad60e1ba106aca98061b005293b59", "fusion_lon": 0.0, "fusion_lat": 0.0, "type": "electric_scooter", "lon": -77.0433615}, {"rental_uris": {"android": "https://dc.lft.to/lastmile_qr_scan", "ios": "https://dc.lft.to/lastmile_qr_scan"}, "is_reserved": 0, "is_disabled": 0, "bike_id": "caa486fdc334cfe31f2de0c109732736", "lat": 38.9205905, "name": "caa486fdc334cfe31f2de0c109732736", "fusion_lon": 0.0, "fusion_lat": 0.0, "type": "electric_scooter", "lon": -77.02368433333334}, {"rental_uris": {"android": "https://dc.lft.to/lastmile_qr_scan", "ios": "https://dc.lft.to/lastmile_qr_scan"}, "is_reserved": 0, "is_disabled": 0, "bike_id": "3c11ea3b5cc1873597b43a4637dcb989", "lat": 38.91478733333334, "name": "3c11ea3b5cc1873597b43a4637dcb989", "fusion_lon": 0.0, "fusion_lat": 0.0, "type": "electric_scooter", "lon": -77.02577933333333}, {"rental_uris": {"android": "https://dc.lft.to/lastmile_qr_scan", "ios": "https://dc.lft.to/lastmile_qr_scan"}, "is_reserved": 0, "is_disabled": 0, "bike_id": "7ae7d37dfc2fc00fbbbf3069af83d23d", "lat": 38.936135166666666, "name": "7ae7d37dfc2fc00fbbbf3069af83d23d", "fusion_lon": 0.0, "fusion_lat": 0.0, "type": "electric_scooter", "lon": -77.05887716666666}, {"rental_uris": {"android": "https://dc.lft.to/lastmile_qr_scan", "ios": "https://dc.lft.to/lastmile_qr_scan"}, "is_reserved": 0, "is_disabled": 0, "bike_id": "61a01e8069ed99669e46f0d788ed4c7a", "lat": 38.898198, "name": "61a01e8069ed99669e46f0d788ed4c7a", "fusion_lon": 0.0, "fusion_lat": 0.0, "type": "electric_bike", "lon": -76.9907635}, {"rental_uris": {"android": "https://dc.lft.to/lastmile_qr_scan", "ios": "https://dc.lft.to/lastmile_qr_scan"}, "is_reserved": 0, "is_disabled": 0, "bike_id": "903e24c188f02aa203c2172bcfe74512", "lat": 38.906252, "name": "903e24c188f02aa203c2172bcfe74512", "fusion_lon": 0.0, "fusion_lat": 0.0, "type": "electric_scooter", "lon": -77.00723883333333}, {"rental_uris": {"android": "https://dc.lft.to/lastmile_qr_scan", "ios": "https://dc.lft.to/lastmile_qr_scan"}, "is_reserved": 0, "is_disabled": 0, "bike_id": "0277b2142606c6833a4dd31acb8e137c", "lat": 38.860934666666665, "name": "0277b2142606c6833a4dd31acb8e137c", "fusion_lon": 0.0, "fusion_lat": 0.0, "type": "electric_bike", "lon": -77.095857}, {"rental_uris": {"android": "https://dc.lft.to/lastmile_qr_scan", "ios": "https://dc.lft.to/lastmile_qr_scan"}, "is_reserved": 0, "is_disabled": 0, "bike_id": "e5192de0ff6c2cd6357e5befe2a1b0d3", "lat": 38.918648, "name": "e5192de0ff6c2cd6357e5befe2a1b0d3", "fusion_lon": 0.0, "fusion_lat": 0.0, "type": "electric_scooter", "lon": -77.04590183333333}, {"rental_uris": {"android": "https://dc.lft.to/lastmile_qr_scan", "ios": "https://dc.lft.to/lastmile_qr_scan"}, "is_reserved": 0, "is_disabled": 0, "bike_id": "4663a30988a0e9f1443df3c94c8c4b4a", "lat": 38.92262133333333, "name": "4663a30988a0e9f1443df3c94c8c4b4a", "fusion_lon": 0.0, "fusion_lat": 0.0, "type": "electric_scooter", "lon": -77.04293466666667}, {"rental_uris": {"android": "https://dc.lft.to/lastmile_qr_scan", "ios": "https://dc.lft.to/lastmile_qr_scan"}, "is_reserved": 0, "is_disabled": 0, "bike_id": "17d2bd0e367791fa1a7c756f956654bb", "lat": 38.873809666666666, "name": "17d2bd0e367791fa1a7c756f956654bb", "fusion_lon": 0.0, "fusion_lat": 0.0, "type": "electric_scooter", "lon": -77.00130816666666}, {"rental_uris": {"android": "https://dc.lft.to/lastmile_qr_scan", "ios": "https://dc.lft.to/lastmile_qr_scan"}, "is_reserved": 0, "is_disabled": 0, "bike_id": "b3884dd7e460cf1ee69b08e440d9ad02", "lat": 38.925642833333335, "name": "b3884dd7e460cf1ee69b08e440d9ad02", "fusion_lon": 0.0, "fusion_lat": 0.0, "type": "electric_scooter", "lon": -77.07785266666667}, {"rental_uris": {"android": "https://dc.lft.to/lastmile_qr_scan", "ios": "https://dc.lft.to/lastmile_qr_scan"}, "is_reserved": 0, "is_disabled": 0, "bike_id": "80d428119a5beff1a920a95cd953936c", "lat": 38.931, "name": "80d428119a5beff1a920a95cd953936c", "fusion_lon": 0.0, "fusion_lat": 0.0, "type": "electric_scooter", "lon": -77.0327845}, {"rental_uris": {"android": "https://dc.lft.to/lastmile_qr_scan", "ios": "https://dc.lft.to/lastmile_qr_scan"}, "is_reserved": 0, "is_disabled": 0, "bike_id": "06c2bf363d0625f52ef43f7377f5f939", "lat": 38.916994, "name": "06c2bf363d0625f52ef43f7377f5f939", "fusion_lon": 0.0, "fusion_lat": 0.0, "type": "electric_scooter", "lon": -77.03115533333333}, {"rental_uris": {"android": "https://dc.lft.to/lastmile_qr_scan", "ios": "https://dc.lft.to/lastmile_qr_scan"}, "is_reserved": 0, "is_disabled": 0, "bike_id": "010f30c88b68c8fd22cabf1ae5992f51", "lat": 38.89221966666667, "name": "010f30c88b68c8fd22cabf1ae5992f51", "fusion_lon": 0.0, "fusion_lat": 0.0, "type": "electric_scooter", "lon": -77.04373983333333}, {"rental_uris": {"android": "https://dc.lft.to/lastmile_qr_scan", "ios": "https://dc.lft.to/lastmile_qr_scan"}, "is_reserved": 0, "is_disabled": 0, "bike_id": "297bfe6a659510e1c014b310c2570145", "lat": 38.92170933333333, "name": "297bfe6a659510e1c014b310c2570145", "fusion_lon": 0.0, "fusion_lat": 0.0, "type": "electric_scooter", "lon": -77.03262566666666}, {"rental_uris": {"android": "https://dc.lft.to/lastmile_qr_scan", "ios": "https://dc.lft.to/lastmile_qr_scan"}, "is_reserved": 0, "is_disabled": 0, "bike_id": "cf537d803f22a0bf9a5cca564c60c6ac", "lat": 38.892259333333335, "name": "cf537d803f22a0bf9a5cca564c60c6ac", "fusion_lon": 0.0, "fusion_lat": 0.0, "type": "electric_scooter", "lon": -77.04507316666667}, {"rental_uris": {"android": "https://dc.lft.to/lastmile_qr_scan", "ios": "https://dc.lft.to/lastmile_qr_scan"}, "is_reserved": 0, "is_disabled": 0, "bike_id": "b0e045e10d4d0e136e789f72a0791462", "lat": 38.9127695, "name": "b0e045e10d4d0e136e789f72a0791462", "fusion_lon": 0.0, "fusion_lat": 0.0, "type": "electric_scooter", "lon": -77.01976433333333}, {"rental_uris": {"android": "https://dc.lft.to/lastmile_qr_scan", "ios": "https://dc.lft.to/lastmile_qr_scan"}, "is_reserved": 0, "is_disabled": 0, "bike_id": "eb038d24462f55e0cd37e3d37a776606", "lat": 38.86472116666667, "name": "eb038d24462f55e0cd37e3d37a776606", "fusion_lon": 0.0, "fusion_lat": 0.0, "type": "electric_scooter", "lon": -76.982305}, {"rental_uris": {"android": "https://dc.lft.to/lastmile_qr_scan", "ios": "https://dc.lft.to/lastmile_qr_scan"}, "is_reserved": 0, "is_disabled": 0, "bike_id": "68d690dbde09298cc14b07da089bd120", "lat": 38.946715833333336, "name": "68d690dbde09298cc14b07da089bd120", "fusion_lon": 0.0, "fusion_lat": 0.0, "type": "electric_bike", "lon": -76.98309449999999}, {"rental_uris": {"android": "https://dc.lft.to/lastmile_qr_scan", "ios": "https://dc.lft.to/lastmile_qr_scan"}, "is_reserved": 0, "is_disabled": 0, "bike_id": "1c65a5ccba4ceedcdb2d99201e4e220a", "lat": 38.9141075, "name": "1c65a5ccba4ceedcdb2d99201e4e220a", "fusion_lon": 0.0, "fusion_lat": 0.0, "type": "electric_scooter", "lon": -77.02455516666667}, {"rental_uris": {"android": "https://dc.lft.to/lastmile_qr_scan", "ios": "https://dc.lft.to/lastmile_qr_scan"}, "is_reserved": 0, "is_disabled": 0, "bike_id": "96c9a51e6e753ed1c05c3fc7d699e62b", "lat": 38.852083, "name": "96c9a51e6e753ed1c05c3fc7d699e62b", "fusion_lon": 0.0, "fusion_lat": 0.0, "type": "electric_bike", "lon": -77.10129916666666}, {"rental_uris": {"android": "https://dc.lft.to/lastmile_qr_scan", "ios": "https://dc.lft.to/lastmile_qr_scan"}, "is_reserved": 0, "is_disabled": 0, "bike_id": "f2daab4d27f0f9709405af9c945d2915", "lat": 38.9257155, "name": "f2daab4d27f0f9709405af9c945d2915", "fusion_lon": 0.0, "fusion_lat": 0.0, "type": "electric_scooter", "lon": -77.0391475}, {"rental_uris": {"android": "https://dc.lft.to/lastmile_qr_scan", "ios": "https://dc.lft.to/lastmile_qr_scan"}, "is_reserved": 0, "is_disabled": 0, "bike_id": "368fab89124e5ca8734453e69a8d5c20", "lat": 38.906699, "name": "368fab89124e5ca8734453e69a8d5c20", "fusion_lon": 0.0, "fusion_lat": 0.0, "type": "electric_scooter", "lon": -77.03597566666667}, {"rental_uris": {"android": "https://dc.lft.to/lastmile_qr_scan", "ios": "https://dc.lft.to/lastmile_qr_scan"}, "is_reserved": 0, "is_disabled": 0, "bike_id": "4912e2809a83a3a9efec673bd479b79d", "lat": 38.934715, "name": "4912e2809a83a3a9efec673bd479b79d", "fusion_lon": 0.0, "fusion_lat": 0.0, "type": "electric_scooter", "lon": -77.02765033333333}, {"rental_uris": {"android": "https://dc.lft.to/lastmile_qr_scan", "ios": "https://dc.lft.to/lastmile_qr_scan"}, "is_reserved": 0, "is_disabled": 0, "bike_id": "e9ce8e6470d7dab541913cb6d970d279", "lat": 38.9185685, "name": "e9ce8e6470d7dab541913cb6d970d279", "fusion_lon": 0.0, "fusion_lat": 0.0, "type": "electric_scooter", "lon": -77.03237766666666}, {"rental_uris": {"android": "https://dc.lft.to/lastmile_qr_scan", "ios": "https://dc.lft.to/lastmile_qr_scan"}, "is_reserved": 0, "is_disabled": 0, "bike_id": "dbdace2b3d6861f978141092802bafae", "lat": 38.866929, "name": "dbdace2b3d6861f978141092802bafae", "fusion_lon": 0.0, "fusion_lat": 0.0, "type": "electric_scooter", "lon": -76.98533716666667}, {"rental_uris": {"android": "https://dc.lft.to/lastmile_qr_scan", "ios": "https://dc.lft.to/lastmile_qr_scan"}, "is_reserved": 0, "is_disabled": 0, "bike_id": "25454691ae0500b817dc7d1db4e9592b", "lat": 38.929227, "name": "25454691ae0500b817dc7d1db4e9592b", "fusion_lon": 0.0, "fusion_lat": 0.0, "type": "electric_scooter", "lon": -77.0263825}, {"rental_uris": {"android": "https://dc.lft.to/lastmile_qr_scan", "ios": "https://dc.lft.to/lastmile_qr_scan"}, "is_reserved": 0, "is_disabled": 0, "bike_id": "16564e2166af937dc1d93a49c3859853", "lat": 38.9044305, "name": "16564e2166af937dc1d93a49c3859853", "fusion_lon": 0.0, "fusion_lat": 0.0, "type": "electric_scooter", "lon": -77.03213483333333}, {"rental_uris": {"android": "https://dc.lft.to/lastmile_qr_scan", "ios": "https://dc.lft.to/lastmile_qr_scan"}, "is_reserved": 0, "is_disabled": 0, "bike_id": "e2a85452f6311329e7fe2d54d98addd4", "lat": 38.92198916666667, "name": "e2a85452f6311329e7fe2d54d98addd4", "fusion_lon": 0.0, "fusion_lat": 0.0, "type": "electric_scooter", "lon": -77.03513166666667}, {"rental_uris": {"android": "https://dc.lft.to/lastmile_qr_scan", "ios": "https://dc.lft.to/lastmile_qr_scan"}, "is_reserved": 0, "is_disabled": 0, "bike_id": "2bd20b91d0a5e67319c3124b01b68c25", "lat": 38.90657733333333, "name": "2bd20b91d0a5e67319c3124b01b68c25", "fusion_lon": 0.0, "fusion_lat": 0.0, "type": "electric_scooter", "lon": -77.03847983333333}, {"rental_uris": {"android": "https://dc.lft.to/lastmile_qr_scan", "ios": "https://dc.lft.to/lastmile_qr_scan"}, "is_reserved": 0, "is_disabled": 0, "bike_id": "74124d75fa7239472b6a02da04dd2b54", "lat": 38.89219, "name": "74124d75fa7239472b6a02da04dd2b54", "fusion_lon": 0.0, "fusion_lat": 0.0, "type": "electric_scooter", "lon": -77.03158266666667}, {"rental_uris": {"android": "https://dc.lft.to/lastmile_qr_scan", "ios": "https://dc.lft.to/lastmile_qr_scan"}, "is_reserved": 0, "is_disabled": 0, "bike_id": "1daadb0a3c2c3c4645eec64b4add4a9c", "lat": 38.9246995, "name": "1daadb0a3c2c3c4645eec64b4add4a9c", "fusion_lon": 0.0, "fusion_lat": 0.0, "type": "electric_scooter", "lon": -77.029637}, {"rental_uris": {"android": "https://dc.lft.to/lastmile_qr_scan", "ios": "https://dc.lft.to/lastmile_qr_scan"}, "is_reserved": 0, "is_disabled": 0, "bike_id": "826eabb78ae05193956395f5f967b25e", "lat": 38.91547633333333, "name": "826eabb78ae05193956395f5f967b25e", "fusion_lon": 0.0, "fusion_lat": 0.0, "type": "electric_scooter", "lon": -77.03852183333333}, {"rental_uris": {"android": "https://dc.lft.to/lastmile_qr_scan", "ios": "https://dc.lft.to/lastmile_qr_scan"}, "is_reserved": 0, "is_disabled": 0, "bike_id": "5e7dac2048405decf1375315ab51a2b2", "lat": 38.9210825, "name": "5e7dac2048405decf1375315ab51a2b2", "fusion_lon": 0.0, "fusion_lat": 0.0, "type": "electric_scooter", "lon": -77.03942216666667}, {"rental_uris": {"android": "https://dc.lft.to/lastmile_qr_scan", "ios": "https://dc.lft.to/lastmile_qr_scan"}, "is_reserved": 0, "is_disabled": 0, "bike_id": "b7ede0beacf394df1cd836e9005cc9ff", "lat": 38.91839866666667, "name": "b7ede0beacf394df1cd836e9005cc9ff", "fusion_lon": 0.0, "fusion_lat": 0.0, "type": "electric_scooter", "lon": -77.02294933333333}, {"rental_uris": {"android": "https://dc.lft.to/lastmile_qr_scan", "ios": "https://dc.lft.to/lastmile_qr_scan"}, "is_reserved": 0, "is_disabled": 0, "bike_id": "3ca8ea21b4b2a148c1185308ba048f6c", "lat": 38.9041695, "name": "3ca8ea21b4b2a148c1185308ba048f6c", "fusion_lon": 0.0, "fusion_lat": 0.0, "type": "electric_bike", "lon": -77.068902}, {"rental_uris": {"android": "https://dc.lft.to/lastmile_qr_scan", "ios": "https://dc.lft.to/lastmile_qr_scan"}, "is_reserved": 0, "is_disabled": 0, "bike_id": "e149f80ca9b451a248fcc8e9d877d0da", "lat": 38.9050885, "name": "e149f80ca9b451a248fcc8e9d877d0da", "fusion_lon": 0.0, "fusion_lat": 0.0, "type": "electric_scooter", "lon": -77.05784133333333}, {"rental_uris": {"android": "https://dc.lft.to/lastmile_qr_scan", "ios": "https://dc.lft.to/lastmile_qr_scan"}, "is_reserved": 0, "is_disabled": 0, "bike_id": "21d573b2cc8d9ed935d7d2194d561c43", "lat": 38.8842355, "name": "21d573b2cc8d9ed935d7d2194d561c43", "fusion_lon": 0.0, "fusion_lat": 0.0, "type": "electric_scooter", "lon": -77.03055016666667}, {"rental_uris": {"android": "https://dc.lft.to/lastmile_qr_scan", "ios": "https://dc.lft.to/lastmile_qr_scan"}, "is_reserved": 0, "is_disabled": 0, "bike_id": "0b09fb1a4c76cc488b57e300f4f327a8", "lat": 38.89326366666667, "name": "0b09fb1a4c76cc488b57e300f4f327a8", "fusion_lon": 0.0, "fusion_lat": 0.0, "type": "electric_scooter", "lon": -76.95138216666666}, {"rental_uris": {"android": "https://dc.lft.to/lastmile_qr_scan", "ios": "https://dc.lft.to/lastmile_qr_scan"}, "is_reserved": 0, "is_disabled": 0, "bike_id": "28a85b3cdfcfbd873641c4077b63f9da", "lat": 38.85252283333333, "name": "28a85b3cdfcfbd873641c4077b63f9da", "fusion_lon": 0.0, "fusion_lat": 0.0, "type": "electric_scooter", "lon": -76.970143}, {"rental_uris": {"android": "https://dc.lft.to/lastmile_qr_scan", "ios": "https://dc.lft.to/lastmile_qr_scan"}, "is_reserved": 0, "is_disabled": 0, "bike_id": "d82e4f609ab3cb6b10757cbdfc7dc8d0", "lat": 38.91823683333333, "name": "d82e4f609ab3cb6b10757cbdfc7dc8d0", "fusion_lon": 0.0, "fusion_lat": 0.0, "type": "electric_scooter", "lon": -77.04523683333333}, {"rental_uris": {"android": "https://dc.lft.to/lastmile_qr_scan", "ios": "https://dc.lft.to/lastmile_qr_scan"}, "is_reserved": 0, "is_disabled": 0, "bike_id": "a352d5a552686db29e8dea5e015a67e4", "lat": 38.90971116666667, "name": "a352d5a552686db29e8dea5e015a67e4", "fusion_lon": 0.0, "fusion_lat": 0.0, "type": "electric_scooter", "lon": -77.04060483333333}, {"rental_uris": {"android": "https://dc.lft.to/lastmile_qr_scan", "ios": "https://dc.lft.to/lastmile_qr_scan"}, "is_reserved": 0, "is_disabled": 0, "bike_id": "1dfb3e7079d08aa035773705be72d0bd", "lat": 38.9073395, "name": "1dfb3e7079d08aa035773705be72d0bd", "fusion_lon": 0.0, "fusion_lat": 0.0, "type": "electric_scooter", "lon": -77.034554}, {"rental_uris": {"android": "https://dc.lft.to/lastmile_qr_scan", "ios": "https://dc.lft.to/lastmile_qr_scan"}, "is_reserved": 0, "is_disabled": 0, "bike_id": "582f185974c067edbcadd2e46bf828a3", "lat": 38.889917, "name": "582f185974c067edbcadd2e46bf828a3", "fusion_lon": 0.0, "fusion_lat": 0.0, "type": "electric_scooter", "lon": -76.93072566666666}, {"rental_uris": {"android": "https://dc.lft.to/lastmile_qr_scan", "ios": "https://dc.lft.to/lastmile_qr_scan"}, "is_reserved": 0, "is_disabled": 0, "bike_id": "0245358c8362577e9eb9186af1a6ca42", "lat": 38.89625683333333, "name": "0245358c8362577e9eb9186af1a6ca42", "fusion_lon": 0.0, "fusion_lat": 0.0, "type": "electric_scooter", "lon": -77.01986033333333}, {"rental_uris": {"android": "https://dc.lft.to/lastmile_qr_scan", "ios": "https://dc.lft.to/lastmile_qr_scan"}, "is_reserved": 0, "is_disabled": 0, "bike_id": "2933cb0984fe37c64ea0a56c6d724838", "lat": 38.909721833333336, "name": "2933cb0984fe37c64ea0a56c6d724838", "fusion_lon": 0.0, "fusion_lat": 0.0, "type": "electric_scooter", "lon": -77.021673}, {"rental_uris": {"android": "https://dc.lft.to/lastmile_qr_scan", "ios": "https://dc.lft.to/lastmile_qr_scan"}, "is_reserved": 0, "is_disabled": 0, "bike_id": "6d5058374288a5f729f32df9745eff58", "lat": 38.9940845, "name": "6d5058374288a5f729f32df9745eff58", "fusion_lon": 0.0, "fusion_lat": 0.0, "type": "electric_bike", "lon": -77.0012335}, {"rental_uris": {"android": "https://dc.lft.to/lastmile_qr_scan", "ios": "https://dc.lft.to/lastmile_qr_scan"}, "is_reserved": 0, "is_disabled": 0, "bike_id": "395ad9f563c7e9f82c7ce3c7c9f31596", "lat": 38.89878616666667, "name": "395ad9f563c7e9f82c7ce3c7c9f31596", "fusion_lon": 0.0, "fusion_lat": 0.0, "type": "electric_scooter", "lon": -76.93195866666667}, {"rental_uris": {"android": "https://dc.lft.to/lastmile_qr_scan", "ios": "https://dc.lft.to/lastmile_qr_scan"}, "is_reserved": 0, "is_disabled": 0, "bike_id": "35a6f36c34cb1a178c62437e708629a7", "lat": 38.915727, "name": "35a6f36c34cb1a178c62437e708629a7", "fusion_lon": 0.0, "fusion_lat": 0.0, "type": "electric_scooter", "lon": -77.0205615}, {"rental_uris": {"android": "https://dc.lft.to/lastmile_qr_scan", "ios": "https://dc.lft.to/lastmile_qr_scan"}, "is_reserved": 0, "is_disabled": 0, "bike_id": "a74f979081837ad38ddfd9a9c5ebbade", "lat": 38.936087666666666, "name": "a74f979081837ad38ddfd9a9c5ebbade", "fusion_lon": 0.0, "fusion_lat": 0.0, "type": "electric_scooter", "lon": -77.05893016666667}, {"rental_uris": {"android": "https://dc.lft.to/lastmile_qr_scan", "ios": "https://dc.lft.to/lastmile_qr_scan"}, "is_reserved": 0, "is_disabled": 0, "bike_id": "368e43d524eb80ab54734188ecff8997", "lat": 38.918053, "name": "368e43d524eb80ab54734188ecff8997", "fusion_lon": 0.0, "fusion_lat": 0.0, "type": "electric_scooter", "lon": -77.03432666666667}, {"rental_uris": {"android": "https://dc.lft.to/lastmile_qr_scan", "ios": "https://dc.lft.to/lastmile_qr_scan"}, "is_reserved": 0, "is_disabled": 0, "bike_id": "9bd9e0b689f4f2fd841fb56b50de78c8", "lat": 38.8951245, "name": "9bd9e0b689f4f2fd841fb56b50de78c8", "fusion_lon": 0.0, "fusion_lat": 0.0, "type": "electric_scooter", "lon": -76.948849}, {"rental_uris": {"android": "https://dc.lft.to/lastmile_qr_scan", "ios": "https://dc.lft.to/lastmile_qr_scan"}, "is_reserved": 0, "is_disabled": 0, "bike_id": "9345b23085ca2327695109570c461f46", "lat": 38.855164, "name": "9345b23085ca2327695109570c461f46", "fusion_lon": 0.0, "fusion_lat": 0.0, "type": "electric_bike", "lon": -77.11156533333333}, {"rental_uris": {"android": "https://dc.lft.to/lastmile_qr_scan", "ios": "https://dc.lft.to/lastmile_qr_scan"}, "is_reserved": 0, "is_disabled": 0, "bike_id": "3b06d488fd99bcbd3a46fe9e7141bbec", "lat": 38.912483333333334, "name": "3b06d488fd99bcbd3a46fe9e7141bbec", "fusion_lon": 0.0, "fusion_lat": 0.0, "type": "electric_scooter", "lon": -77.00123516666666}, {"rental_uris": {"android": "https://dc.lft.to/lastmile_qr_scan", "ios": "https://dc.lft.to/lastmile_qr_scan"}, "is_reserved": 0, "is_disabled": 0, "bike_id": "054f73c226db2c308f5979544df6e566", "lat": 38.8923135, "name": "054f73c226db2c308f5979544df6e566", "fusion_lon": 0.0, "fusion_lat": 0.0, "type": "electric_scooter", "lon": -77.04879666666666}, {"rental_uris": {"android": "https://dc.lft.to/lastmile_qr_scan", "ios": "https://dc.lft.to/lastmile_qr_scan"}, "is_reserved": 0, "is_disabled": 0, "bike_id": "633e01da27095104414615767ee85d12", "lat": 38.903620833333335, "name": "633e01da27095104414615767ee85d12", "fusion_lon": 0.0, "fusion_lat": 0.0, "type": "electric_scooter", "lon": -77.0676925}, {"rental_uris": {"android": "https://dc.lft.to/lastmile_qr_scan", "ios": "https://dc.lft.to/lastmile_qr_scan"}, "is_reserved": 0, "is_disabled": 0, "bike_id": "cf470272b33d9a26a6708c027f25281c", "lat": 38.883597333333334, "name": "cf470272b33d9a26a6708c027f25281c", "fusion_lon": 0.0, "fusion_lat": 0.0, "type": "electric_scooter", "lon": -76.96152083333334}, {"rental_uris": {"android": "https://dc.lft.to/lastmile_qr_scan", "ios": "https://dc.lft.to/lastmile_qr_scan"}, "is_reserved": 0, "is_disabled": 0, "bike_id": "f6cfc0af5a67d400188e43324515a9ac", "lat": 38.90225916666667, "name": "f6cfc0af5a67d400188e43324515a9ac", "fusion_lon": 0.0, "fusion_lat": 0.0, "type": "electric_scooter", "lon": -77.05061883333333}, {"rental_uris": {"android": "https://dc.lft.to/lastmile_qr_scan", "ios": "https://dc.lft.to/lastmile_qr_scan"}, "is_reserved": 0, "is_disabled": 0, "bike_id": "477beb9361fe02eadd5842b48ac9fe99", "lat": 38.897697666666666, "name": "477beb9361fe02eadd5842b48ac9fe99", "fusion_lon": 0.0, "fusion_lat": 0.0, "type": "electric_scooter", "lon": -77.05155366666666}, {"rental_uris": {"android": "https://dc.lft.to/lastmile_qr_scan", "ios": "https://dc.lft.to/lastmile_qr_scan"}, "is_reserved": 0, "is_disabled": 0, "bike_id": "6bdb021f94bb8795c475ffe2cb655013", "lat": 38.8460925, "name": "6bdb021f94bb8795c475ffe2cb655013", "fusion_lon": 0.0, "fusion_lat": 0.0, "type": "electric_bike", "lon": -76.96914233333334}, {"rental_uris": {"android": "https://dc.lft.to/lastmile_qr_scan", "ios": "https://dc.lft.to/lastmile_qr_scan"}, "is_reserved": 0, "is_disabled": 0, "bike_id": "4b9dae712a883038851d8af4aee7eee3", "lat": 38.91345033333333, "name": "4b9dae712a883038851d8af4aee7eee3", "fusion_lon": 0.0, "fusion_lat": 0.0, "type": "electric_scooter", "lon": -77.03642616666667}, {"rental_uris": {"android": "https://dc.lft.to/lastmile_qr_scan", "ios": "https://dc.lft.to/lastmile_qr_scan"}, "is_reserved": 0, "is_disabled": 0, "bike_id": "ae88f6bb1bc7488ff1bf1080e3a1f580", "lat": 38.9270855, "name": "ae88f6bb1bc7488ff1bf1080e3a1f580", "fusion_lon": 0.0, "fusion_lat": 0.0, "type": "electric_scooter", "lon": -77.024067}, {"rental_uris": {"android": "https://dc.lft.to/lastmile_qr_scan", "ios": "https://dc.lft.to/lastmile_qr_scan"}, "is_reserved": 0, "is_disabled": 0, "bike_id": "dcd91b842c7f042d6bb16b21499ad83e", "lat": 38.90620116666667, "name": "dcd91b842c7f042d6bb16b21499ad83e", "fusion_lon": 0.0, "fusion_lat": 0.0, "type": "electric_scooter", "lon": -77.02587983333333}, {"rental_uris": {"android": "https://dc.lft.to/lastmile_qr_scan", "ios": "https://dc.lft.to/lastmile_qr_scan"}, "is_reserved": 0, "is_disabled": 0, "bike_id": "f5cc74d2423a49c37b333b3febeaaeec", "lat": 38.93168216666667, "name": "f5cc74d2423a49c37b333b3febeaaeec", "fusion_lon": 0.0, "fusion_lat": 0.0, "type": "electric_scooter", "lon": -77.02855983333333}, {"rental_uris": {"android": "https://dc.lft.to/lastmile_qr_scan", "ios": "https://dc.lft.to/lastmile_qr_scan"}, "is_reserved": 0, "is_disabled": 0, "bike_id": "1397e411969a993a014478f910c8f904", "lat": 38.94557483333333, "name": "1397e411969a993a014478f910c8f904", "fusion_lon": 0.0, "fusion_lat": 0.0, "type": "electric_bike", "lon": -76.96691616666666}, {"rental_uris": {"android": "https://dc.lft.to/lastmile_qr_scan", "ios": "https://dc.lft.to/lastmile_qr_scan"}, "is_reserved": 0, "is_disabled": 0, "bike_id": "5cf5b6d6b485e3b59116b9c5b5113628", "lat": 38.906992333333335, "name": "5cf5b6d6b485e3b59116b9c5b5113628", "fusion_lon": 0.0, "fusion_lat": 0.0, "type": "electric_scooter", "lon": -77.0376765}, {"rental_uris": {"android": "https://dc.lft.to/lastmile_qr_scan", "ios": "https://dc.lft.to/lastmile_qr_scan"}, "is_reserved": 0, "is_disabled": 0, "bike_id": "77eb67eaae7a261aa533965c94a87166", "lat": 38.89904083333333, "name": "77eb67eaae7a261aa533965c94a87166", "fusion_lon": 0.0, "fusion_lat": 0.0, "type": "electric_scooter", "lon": -77.00890316666667}, {"rental_uris": {"android": "https://dc.lft.to/lastmile_qr_scan", "ios": "https://dc.lft.to/lastmile_qr_scan"}, "is_reserved": 0, "is_disabled": 0, "bike_id": "e0a6a329e95234d8044144dffccc6398", "lat": 38.876621666666665, "name": "e0a6a329e95234d8044144dffccc6398", "fusion_lon": 0.0, "fusion_lat": 0.0, "type": "electric_scooter", "lon": -77.0045225}, {"rental_uris": {"android": "https://dc.lft.to/lastmile_qr_scan", "ios": "https://dc.lft.to/lastmile_qr_scan"}, "is_reserved": 0, "is_disabled": 0, "bike_id": "7106b204e97d361d5caf3f6368fa4627", "lat": 38.89194766666667, "name": "7106b204e97d361d5caf3f6368fa4627", "fusion_lon": 0.0, "fusion_lat": 0.0, "type": "electric_scooter", "lon": -76.993866}, {"rental_uris": {"android": "https://dc.lft.to/lastmile_qr_scan", "ios": "https://dc.lft.to/lastmile_qr_scan"}, "is_reserved": 0, "is_disabled": 0, "bike_id": "d4e28c01c6d620a9f323ab227026f5fd", "lat": 38.92804116666667, "name": "d4e28c01c6d620a9f323ab227026f5fd", "fusion_lon": 0.0, "fusion_lat": 0.0, "type": "electric_scooter", "lon": -77.03593566666666}, {"rental_uris": {"android": "https://dc.lft.to/lastmile_qr_scan", "ios": "https://dc.lft.to/lastmile_qr_scan"}, "is_reserved": 0, "is_disabled": 0, "bike_id": "e1080e374ddd2651adb35dba7d1a1efd", "lat": 38.89218966666667, "name": "e1080e374ddd2651adb35dba7d1a1efd", "fusion_lon": 0.0, "fusion_lat": 0.0, "type": "electric_scooter", "lon": -77.02237633333333}, {"rental_uris": {"android": "https://dc.lft.to/lastmile_qr_scan", "ios": "https://dc.lft.to/lastmile_qr_scan"}, "is_reserved": 0, "is_disabled": 0, "bike_id": "b0c4407179d42b6ebb1057a4e8cf6ed0", "lat": 38.904378, "name": "b0c4407179d42b6ebb1057a4e8cf6ed0", "fusion_lon": 0.0, "fusion_lat": 0.0, "type": "electric_scooter", "lon": -77.0343585}, {"rental_uris": {"android": "https://dc.lft.to/lastmile_qr_scan", "ios": "https://dc.lft.to/lastmile_qr_scan"}, "is_reserved": 0, "is_disabled": 0, "bike_id": "661c39b68d2443167cc36d933b715505", "lat": 38.8951375, "name": "661c39b68d2443167cc36d933b715505", "fusion_lon": 0.0, "fusion_lat": 0.0, "type": "electric_scooter", "lon": -76.94887416666667}, {"rental_uris": {"android": "https://dc.lft.to/lastmile_qr_scan", "ios": "https://dc.lft.to/lastmile_qr_scan"}, "is_reserved": 0, "is_disabled": 0, "bike_id": "568c497d99203213161b9e9bc0f5a12e", "lat": 38.876402166666665, "name": "568c497d99203213161b9e9bc0f5a12e", "fusion_lon": 0.0, "fusion_lat": 0.0, "type": "electric_scooter", "lon": -77.00889766666667}, {"rental_uris": {"android": "https://dc.lft.to/lastmile_qr_scan", "ios": "https://dc.lft.to/lastmile_qr_scan"}, "is_reserved": 0, "is_disabled": 0, "bike_id": "12e77aa52bcc2793f73c5bd2d0c5abe9", "lat": 38.90625983333334, "name": "12e77aa52bcc2793f73c5bd2d0c5abe9", "fusion_lon": 0.0, "fusion_lat": 0.0, "type": "electric_scooter", "lon": -76.99859333333333}, {"rental_uris": {"android": "https://dc.lft.to/lastmile_qr_scan", "ios": "https://dc.lft.to/lastmile_qr_scan"}, "is_reserved": 0, "is_disabled": 0, "bike_id": "274ecccc9d2f823b1dfe7fc8508d77df", "lat": 38.91711316666667, "name": "274ecccc9d2f823b1dfe7fc8508d77df", "fusion_lon": 0.0, "fusion_lat": 0.0, "type": "electric_scooter", "lon": -77.04591566666667}, {"rental_uris": {"android": "https://dc.lft.to/lastmile_qr_scan", "ios": "https://dc.lft.to/lastmile_qr_scan"}, "is_reserved": 0, "is_disabled": 0, "bike_id": "a861efeaca40c7611e88142255f0df13", "lat": 38.926243, "name": "a861efeaca40c7611e88142255f0df13", "fusion_lon": 0.0, "fusion_lat": 0.0, "type": "electric_scooter", "lon": -77.04325166666666}, {"rental_uris": {"android": "https://dc.lft.to/lastmile_qr_scan", "ios": "https://dc.lft.to/lastmile_qr_scan"}, "is_reserved": 0, "is_disabled": 0, "bike_id": "ae5a9f0419746c3ee6e32ba881b0d652", "lat": 38.924816, "name": "ae5a9f0419746c3ee6e32ba881b0d652", "fusion_lon": 0.0, "fusion_lat": 0.0, "type": "electric_scooter", "lon": -77.03070633333333}, {"rental_uris": {"android": "https://dc.lft.to/lastmile_qr_scan", "ios": "https://dc.lft.to/lastmile_qr_scan"}, "is_reserved": 0, "is_disabled": 0, "bike_id": "eb6092185f88c3af50dfae4856d625c3", "lat": 38.90351833333333, "name": "eb6092185f88c3af50dfae4856d625c3", "fusion_lon": 0.0, "fusion_lat": 0.0, "type": "electric_scooter", "lon": -76.98285416666667}, {"rental_uris": {"android": "https://dc.lft.to/lastmile_qr_scan", "ios": "https://dc.lft.to/lastmile_qr_scan"}, "is_reserved": 0, "is_disabled": 0, "bike_id": "c9f7a6c1097a405107ccef8e7d355b1b", "lat": 38.917675, "name": "c9f7a6c1097a405107ccef8e7d355b1b", "fusion_lon": 0.0, "fusion_lat": 0.0, "type": "electric_scooter", "lon": -77.0405745}, {"rental_uris": {"android": "https://dc.lft.to/lastmile_qr_scan", "ios": "https://dc.lft.to/lastmile_qr_scan"}, "is_reserved": 0, "is_disabled": 0, "bike_id": "68e431bd5a9f48af78d25833885cf430", "lat": 38.90972133333333, "name": "68e431bd5a9f48af78d25833885cf430", "fusion_lon": 0.0, "fusion_lat": 0.0, "type": "electric_scooter", "lon": -77.02165466666666}, {"rental_uris": {"android": "https://dc.lft.to/lastmile_qr_scan", "ios": "https://dc.lft.to/lastmile_qr_scan"}, "is_reserved": 0, "is_disabled": 0, "bike_id": "88410b2c051be8c99b675cd689a7223f", "lat": 38.92300383333333, "name": "88410b2c051be8c99b675cd689a7223f", "fusion_lon": 0.0, "fusion_lat": 0.0, "type": "electric_scooter", "lon": -77.0414445}, {"rental_uris": {"android": "https://dc.lft.to/lastmile_qr_scan", "ios": "https://dc.lft.to/lastmile_qr_scan"}, "is_reserved": 0, "is_disabled": 0, "bike_id": "2e4ca7e2e17b7164b7aa4b2bec8fae93", "lat": 38.903605666666664, "name": "2e4ca7e2e17b7164b7aa4b2bec8fae93", "fusion_lon": 0.0, "fusion_lat": 0.0, "type": "electric_scooter", "lon": -77.01630666666667}, {"rental_uris": {"android": "https://dc.lft.to/lastmile_qr_scan", "ios": "https://dc.lft.to/lastmile_qr_scan"}, "is_reserved": 0, "is_disabled": 0, "bike_id": "d27da847d42528ce8f1d7488121da88c", "lat": 38.900387333333335, "name": "d27da847d42528ce8f1d7488121da88c", "fusion_lon": 0.0, "fusion_lat": 0.0, "type": "electric_scooter", "lon": -76.98825616666667}, {"rental_uris": {"android": "https://dc.lft.to/lastmile_qr_scan", "ios": "https://dc.lft.to/lastmile_qr_scan"}, "is_reserved": 0, "is_disabled": 0, "bike_id": "6a61822ff181797e70eacbd1fd813236", "lat": 38.911698, "name": "6a61822ff181797e70eacbd1fd813236", "fusion_lon": 0.0, "fusion_lat": 0.0, "type": "electric_scooter", "lon": -77.0318385}, {"rental_uris": {"android": "https://dc.lft.to/lastmile_qr_scan", "ios": "https://dc.lft.to/lastmile_qr_scan"}, "is_reserved": 0, "is_disabled": 0, "bike_id": "5fdb3960a8bd724f0b33d87685e1b218", "lat": 38.8964125, "name": "5fdb3960a8bd724f0b33d87685e1b218", "fusion_lon": 0.0, "fusion_lat": 0.0, "type": "electric_scooter", "lon": -76.99940683333334}, {"rental_uris": {"android": "https://dc.lft.to/lastmile_qr_scan", "ios": "https://dc.lft.to/lastmile_qr_scan"}, "is_reserved": 0, "is_disabled": 0, "bike_id": "07081802ea7a4d41cf835ffaeaaab053", "lat": 38.912718166666664, "name": "07081802ea7a4d41cf835ffaeaaab053", "fusion_lon": 0.0, "fusion_lat": 0.0, "type": "electric_scooter", "lon": -77.02209583333334}, {"rental_uris": {"android": "https://dc.lft.to/lastmile_qr_scan", "ios": "https://dc.lft.to/lastmile_qr_scan"}, "is_reserved": 0, "is_disabled": 0, "bike_id": "0ad301aa52a95688c802ad478cd956a4", "lat": 39.0423765, "name": "0ad301aa52a95688c802ad478cd956a4", "fusion_lon": 0.0, "fusion_lat": 0.0, "type": "electric_bike", "lon": -77.03078333333333}, {"rental_uris": {"android": "https://dc.lft.to/lastmile_qr_scan", "ios": "https://dc.lft.to/lastmile_qr_scan"}, "is_reserved": 0, "is_disabled": 0, "bike_id": "059add36aebfac6a2aa781c2877bbb44", "lat": 38.91568316666667, "name": "059add36aebfac6a2aa781c2877bbb44", "fusion_lon": 0.0, "fusion_lat": 0.0, "type": "electric_scooter", "lon": -77.01199716666666}, {"rental_uris": {"android": "https://dc.lft.to/lastmile_qr_scan", "ios": "https://dc.lft.to/lastmile_qr_scan"}, "is_reserved": 0, "is_disabled": 0, "bike_id": "0c2026f83f276b5e6c439cdbc555538b", "lat": 38.92253783333334, "name": "0c2026f83f276b5e6c439cdbc555538b", "fusion_lon": 0.0, "fusion_lat": 0.0, "type": "electric_scooter", "lon": -77.0295975}, {"rental_uris": {"android": "https://dc.lft.to/lastmile_qr_scan", "ios": "https://dc.lft.to/lastmile_qr_scan"}, "is_reserved": 0, "is_disabled": 0, "bike_id": "4f465d90ff6dfb110bc70e743a204ce5", "lat": 38.918646, "name": "4f465d90ff6dfb110bc70e743a204ce5", "fusion_lon": 0.0, "fusion_lat": 0.0, "type": "electric_scooter", "lon": -77.0269085}, {"rental_uris": {"android": "https://dc.lft.to/lastmile_qr_scan", "ios": "https://dc.lft.to/lastmile_qr_scan"}, "is_reserved": 0, "is_disabled": 0, "bike_id": "3306b3dfef408e36c06d5d7967406291", "lat": 38.934882333333334, "name": "3306b3dfef408e36c06d5d7967406291", "fusion_lon": 0.0, "fusion_lat": 0.0, "type": "electric_bike", "lon": -77.03013483333334}, {"rental_uris": {"android": "https://dc.lft.to/lastmile_qr_scan", "ios": "https://dc.lft.to/lastmile_qr_scan"}, "is_reserved": 0, "is_disabled": 0, "bike_id": "a2e3e641b086dd35d5972127b2890978", "lat": 38.908808666666665, "name": "a2e3e641b086dd35d5972127b2890978", "fusion_lon": 0.0, "fusion_lat": 0.0, "type": "electric_scooter", "lon": -77.04666216666666}, {"rental_uris": {"android": "https://dc.lft.to/lastmile_qr_scan", "ios": "https://dc.lft.to/lastmile_qr_scan"}, "is_reserved": 0, "is_disabled": 0, "bike_id": "32f1f164fda76eed227ba42390f95e9f", "lat": 38.9960615, "name": "32f1f164fda76eed227ba42390f95e9f", "fusion_lon": 0.0, "fusion_lat": 0.0, "type": "electric_bike", "lon": -77.07792316666666}, {"rental_uris": {"android": "https://dc.lft.to/lastmile_qr_scan", "ios": "https://dc.lft.to/lastmile_qr_scan"}, "is_reserved": 0, "is_disabled": 0, "bike_id": "a8c1713f3f72e186c26311d2d7561da6", "lat": 38.876451333333335, "name": "a8c1713f3f72e186c26311d2d7561da6", "fusion_lon": 0.0, "fusion_lat": 0.0, "type": "electric_scooter", "lon": -76.96506683333334}, {"rental_uris": {"android": "https://dc.lft.to/lastmile_qr_scan", "ios": "https://dc.lft.to/lastmile_qr_scan"}, "is_reserved": 0, "is_disabled": 0, "bike_id": "dca155172c1638b83b1414401f4ad511", "lat": 38.92127033333333, "name": "dca155172c1638b83b1414401f4ad511", "fusion_lon": 0.0, "fusion_lat": 0.0, "type": "electric_scooter", "lon": -77.04217233333334}, {"rental_uris": {"android": "https://dc.lft.to/lastmile_qr_scan", "ios": "https://dc.lft.to/lastmile_qr_scan"}, "is_reserved": 0, "is_disabled": 0, "bike_id": "1765a75e11fc6ebfe4cb5e7b9b15c081", "lat": 38.915710833333335, "name": "1765a75e11fc6ebfe4cb5e7b9b15c081", "fusion_lon": 0.0, "fusion_lat": 0.0, "type": "electric_scooter", "lon": -77.01198933333333}, {"rental_uris": {"android": "https://dc.lft.to/lastmile_qr_scan", "ios": "https://dc.lft.to/lastmile_qr_scan"}, "is_reserved": 0, "is_disabled": 0, "bike_id": "bec3cdd8d8c272a11fabe9be8c8e4b93", "lat": 38.92064216666667, "name": "bec3cdd8d8c272a11fabe9be8c8e4b93", "fusion_lon": 0.0, "fusion_lat": 0.0, "type": "electric_scooter", "lon": -77.04188733333334}, {"rental_uris": {"android": "https://dc.lft.to/lastmile_qr_scan", "ios": "https://dc.lft.to/lastmile_qr_scan"}, "is_reserved": 0, "is_disabled": 0, "bike_id": "5f1d9908b0360519633b3cc7fb7865e3", "lat": 38.895562166666664, "name": "5f1d9908b0360519633b3cc7fb7865e3", "fusion_lon": 0.0, "fusion_lat": 0.0, "type": "electric_scooter", "lon": -77.04665483333333}, {"rental_uris": {"android": "https://dc.lft.to/lastmile_qr_scan", "ios": "https://dc.lft.to/lastmile_qr_scan"}, "is_reserved": 0, "is_disabled": 0, "bike_id": "8a2d76487e4ca6315940c4da27952878", "lat": 38.920553166666664, "name": "8a2d76487e4ca6315940c4da27952878", "fusion_lon": 0.0, "fusion_lat": 0.0, "type": "electric_scooter", "lon": -77.042138}, {"rental_uris": {"android": "https://dc.lft.to/lastmile_qr_scan", "ios": "https://dc.lft.to/lastmile_qr_scan"}, "is_reserved": 0, "is_disabled": 0, "bike_id": "8075b0c2a2003857029e8dc59ba7d961", "lat": 38.87308316666667, "name": "8075b0c2a2003857029e8dc59ba7d961", "fusion_lon": 0.0, "fusion_lat": 0.0, "type": "electric_scooter", "lon": -77.00575566666667}, {"rental_uris": {"android": "https://dc.lft.to/lastmile_qr_scan", "ios": "https://dc.lft.to/lastmile_qr_scan"}, "is_reserved": 0, "is_disabled": 0, "bike_id": "1edf2d97698bc03a2a6390bc4a873274", "lat": 38.92243283333333, "name": "1edf2d97698bc03a2a6390bc4a873274", "fusion_lon": 0.0, "fusion_lat": 0.0, "type": "electric_scooter", "lon": -77.00929683333334}, {"rental_uris": {"android": "https://dc.lft.to/lastmile_qr_scan", "ios": "https://dc.lft.to/lastmile_qr_scan"}, "is_reserved": 0, "is_disabled": 0, "bike_id": "ba6f8725196cf249b6d76bc26c22f450", "lat": 38.91818083333333, "name": "ba6f8725196cf249b6d76bc26c22f450", "fusion_lon": 0.0, "fusion_lat": 0.0, "type": "electric_scooter", "lon": -77.03191833333334}, {"rental_uris": {"android": "https://dc.lft.to/lastmile_qr_scan", "ios": "https://dc.lft.to/lastmile_qr_scan"}, "is_reserved": 0, "is_disabled": 0, "bike_id": "3330107f462ebe413e6de38cf0d1f794", "lat": 38.80765016666667, "name": "3330107f462ebe413e6de38cf0d1f794", "fusion_lon": 0.0, "fusion_lat": 0.0, "type": "electric_bike", "lon": -77.09494416666666}, {"rental_uris": {"android": "https://dc.lft.to/lastmile_qr_scan", "ios": "https://dc.lft.to/lastmile_qr_scan"}, "is_reserved": 0, "is_disabled": 0, "bike_id": "e0f0ccc86a8a9f60bd30838d149a2970", "lat": 38.906006, "name": "e0f0ccc86a8a9f60bd30838d149a2970", "fusion_lon": 0.0, "fusion_lat": 0.0, "type": "electric_scooter", "lon": -77.01617116666667}, {"rental_uris": {"android": "https://dc.lft.to/lastmile_qr_scan", "ios": "https://dc.lft.to/lastmile_qr_scan"}, "is_reserved": 0, "is_disabled": 0, "bike_id": "a2761fbc93a329abbb9edcf52e4df91a", "lat": 38.90579416666667, "name": "a2761fbc93a329abbb9edcf52e4df91a", "fusion_lon": 0.0, "fusion_lat": 0.0, "type": "electric_scooter", "lon": -77.05156916666667}, {"rental_uris": {"android": "https://dc.lft.to/lastmile_qr_scan", "ios": "https://dc.lft.to/lastmile_qr_scan"}, "is_reserved": 0, "is_disabled": 0, "bike_id": "268bd36a3778500aba77b45849e82c65", "lat": 38.87934716666667, "name": "268bd36a3778500aba77b45849e82c65", "fusion_lon": 0.0, "fusion_lat": 0.0, "type": "electric_scooter", "lon": -76.988135}, {"rental_uris": {"android": "https://dc.lft.to/lastmile_qr_scan", "ios": "https://dc.lft.to/lastmile_qr_scan"}, "is_reserved": 0, "is_disabled": 0, "bike_id": "93ef0d8b6e9af62361152096de83e9c2", "lat": 38.927139833333335, "name": "93ef0d8b6e9af62361152096de83e9c2", "fusion_lon": 0.0, "fusion_lat": 0.0, "type": "electric_scooter", "lon": -77.0209375}, {"rental_uris": {"android": "https://dc.lft.to/lastmile_qr_scan", "ios": "https://dc.lft.to/lastmile_qr_scan"}, "is_reserved": 0, "is_disabled": 0, "bike_id": "22ec9fb3b4b4e45c32e792d0986bea20", "lat": 38.90683, "name": "22ec9fb3b4b4e45c32e792d0986bea20", "fusion_lon": 0.0, "fusion_lat": 0.0, "type": "electric_scooter", "lon": -77.067721}, {"rental_uris": {"android": "https://dc.lft.to/lastmile_qr_scan", "ios": "https://dc.lft.to/lastmile_qr_scan"}, "is_reserved": 0, "is_disabled": 0, "bike_id": "54a3f1f4e8bb8fe5c1403e4ab1ef6efb", "lat": 38.91530916666667, "name": "54a3f1f4e8bb8fe5c1403e4ab1ef6efb", "fusion_lon": 0.0, "fusion_lat": 0.0, "type": "electric_scooter", "lon": -77.031921}, {"rental_uris": {"android": "https://dc.lft.to/lastmile_qr_scan", "ios": "https://dc.lft.to/lastmile_qr_scan"}, "is_reserved": 0, "is_disabled": 0, "bike_id": "aa8ca2fbf712495131185a8125ac595e", "lat": 38.92846866666667, "name": "aa8ca2fbf712495131185a8125ac595e", "fusion_lon": 0.0, "fusion_lat": 0.0, "type": "electric_scooter", "lon": -77.0325285}, {"rental_uris": {"android": "https://dc.lft.to/lastmile_qr_scan", "ios": "https://dc.lft.to/lastmile_qr_scan"}, "is_reserved": 0, "is_disabled": 0, "bike_id": "b8f114d49e956fe53acabe371d2c7981", "lat": 38.90830783333333, "name": "b8f114d49e956fe53acabe371d2c7981", "fusion_lon": 0.0, "fusion_lat": 0.0, "type": "electric_scooter", "lon": -77.03204283333334}, {"rental_uris": {"android": "https://dc.lft.to/lastmile_qr_scan", "ios": "https://dc.lft.to/lastmile_qr_scan"}, "is_reserved": 0, "is_disabled": 0, "bike_id": "10dc87b9cb99a0450eb365d42e042c81", "lat": 38.911836, "name": "10dc87b9cb99a0450eb365d42e042c81", "fusion_lon": 0.0, "fusion_lat": 0.0, "type": "electric_scooter", "lon": -77.0416855}, {"rental_uris": {"android": "https://dc.lft.to/lastmile_qr_scan", "ios": "https://dc.lft.to/lastmile_qr_scan"}, "is_reserved": 0, "is_disabled": 0, "bike_id": "4f1be3acd16dfd4f0fe50c8c83b30e5a", "lat": 38.91707066666667, "name": "4f1be3acd16dfd4f0fe50c8c83b30e5a", "fusion_lon": 0.0, "fusion_lat": 0.0, "type": "electric_scooter", "lon": -77.00969566666667}, {"rental_uris": {"android": "https://dc.lft.to/lastmile_qr_scan", "ios": "https://dc.lft.to/lastmile_qr_scan"}, "is_reserved": 0, "is_disabled": 0, "bike_id": "daf9f6524c77818b5979ce85300c1800", "lat": 38.895614333333334, "name": "daf9f6524c77818b5979ce85300c1800", "fusion_lon": 0.0, "fusion_lat": 0.0, "type": "electric_scooter", "lon": -77.0467155}, {"rental_uris": {"android": "https://dc.lft.to/lastmile_qr_scan", "ios": "https://dc.lft.to/lastmile_qr_scan"}, "is_reserved": 0, "is_disabled": 0, "bike_id": "789ab4e26c09b741d995cbedf9b36ae0", "lat": 38.8960865, "name": "789ab4e26c09b741d995cbedf9b36ae0", "fusion_lon": 0.0, "fusion_lat": 0.0, "type": "electric_scooter", "lon": -76.99270666666666}, {"rental_uris": {"android": "https://dc.lft.to/lastmile_qr_scan", "ios": "https://dc.lft.to/lastmile_qr_scan"}, "is_reserved": 0, "is_disabled": 0, "bike_id": "6c08aeabb4a85e7eebe916b9370216c3", "lat": 38.91555866666667, "name": "6c08aeabb4a85e7eebe916b9370216c3", "fusion_lon": 0.0, "fusion_lat": 0.0, "type": "electric_scooter", "lon": -77.038716}, {"rental_uris": {"android": "https://dc.lft.to/lastmile_qr_scan", "ios": "https://dc.lft.to/lastmile_qr_scan"}, "is_reserved": 0, "is_disabled": 0, "bike_id": "3ff0ea0e9d360cc8cb55689194543b07", "lat": 38.928162, "name": "3ff0ea0e9d360cc8cb55689194543b07", "fusion_lon": 0.0, "fusion_lat": 0.0, "type": "electric_scooter", "lon": -77.02670983333333}, {"rental_uris": {"android": "https://dc.lft.to/lastmile_qr_scan", "ios": "https://dc.lft.to/lastmile_qr_scan"}, "is_reserved": 0, "is_disabled": 0, "bike_id": "12ce0bd02de38bd67bbcf85b13524a39", "lat": 38.924663, "name": "12ce0bd02de38bd67bbcf85b13524a39", "fusion_lon": 0.0, "fusion_lat": 0.0, "type": "electric_scooter", "lon": -77.02205316666667}, {"rental_uris": {"android": "https://dc.lft.to/lastmile_qr_scan", "ios": "https://dc.lft.to/lastmile_qr_scan"}, "is_reserved": 0, "is_disabled": 0, "bike_id": "4b557acb62c971c504255ea15d8b544b", "lat": 38.90981433333333, "name": "4b557acb62c971c504255ea15d8b544b", "fusion_lon": 0.0, "fusion_lat": 0.0, "type": "electric_scooter", "lon": -77.005306}, {"rental_uris": {"android": "https://dc.lft.to/lastmile_qr_scan", "ios": "https://dc.lft.to/lastmile_qr_scan"}, "is_reserved": 0, "is_disabled": 0, "bike_id": "743e1f90a273b869618dda23765eb132", "lat": 38.897798333333334, "name": "743e1f90a273b869618dda23765eb132", "fusion_lon": 0.0, "fusion_lat": 0.0, "type": "electric_scooter", "lon": -77.05480966666667}, {"rental_uris": {"android": "https://dc.lft.to/lastmile_qr_scan", "ios": "https://dc.lft.to/lastmile_qr_scan"}, "is_reserved": 0, "is_disabled": 0, "bike_id": "7bfdb4f62252d771c69ca867e18eb0e3", "lat": 38.897545, "name": "7bfdb4f62252d771c69ca867e18eb0e3", "fusion_lon": 0.0, "fusion_lat": 0.0, "type": "electric_scooter", "lon": -77.02680066666667}, {"rental_uris": {"android": "https://dc.lft.to/lastmile_qr_scan", "ios": "https://dc.lft.to/lastmile_qr_scan"}, "is_reserved": 0, "is_disabled": 0, "bike_id": "52c932b283edbf102c275db7e7cadc48", "lat": 38.885245, "name": "52c932b283edbf102c275db7e7cadc48", "fusion_lon": 0.0, "fusion_lat": 0.0, "type": "electric_scooter", "lon": -76.977112}, {"rental_uris": {"android": "https://dc.lft.to/lastmile_qr_scan", "ios": "https://dc.lft.to/lastmile_qr_scan"}, "is_reserved": 0, "is_disabled": 0, "bike_id": "401acb42a7d06e7f6a8f03432281db9d", "lat": 38.8961865, "name": "401acb42a7d06e7f6a8f03432281db9d", "fusion_lon": 0.0, "fusion_lat": 0.0, "type": "electric_bike", "lon": -76.907451}, {"rental_uris": {"android": "https://dc.lft.to/lastmile_qr_scan", "ios": "https://dc.lft.to/lastmile_qr_scan"}, "is_reserved": 0, "is_disabled": 0, "bike_id": "a65302090025d71a4fd0ac1255160bce", "lat": 38.86689166666667, "name": "a65302090025d71a4fd0ac1255160bce", "fusion_lon": 0.0, "fusion_lat": 0.0, "type": "electric_scooter", "lon": -76.9853005}, {"rental_uris": {"android": "https://dc.lft.to/lastmile_qr_scan", "ios": "https://dc.lft.to/lastmile_qr_scan"}, "is_reserved": 0, "is_disabled": 0, "bike_id": "814c04b51b0392ea50ec30c729222ac8", "lat": 38.874719999999996, "name": "814c04b51b0392ea50ec30c729222ac8", "fusion_lon": 0.0, "fusion_lat": 0.0, "type": "electric_scooter", "lon": -77.01587566666667}, {"rental_uris": {"android": "https://dc.lft.to/lastmile_qr_scan", "ios": "https://dc.lft.to/lastmile_qr_scan"}, "is_reserved": 0, "is_disabled": 0, "bike_id": "8ddadac882f055bcb80f9b6dea50c9ef", "lat": 38.89218666666667, "name": "8ddadac882f055bcb80f9b6dea50c9ef", "fusion_lon": 0.0, "fusion_lat": 0.0, "type": "electric_scooter", "lon": -77.04468516666667}, {"rental_uris": {"android": "https://dc.lft.to/lastmile_qr_scan", "ios": "https://dc.lft.to/lastmile_qr_scan"}, "is_reserved": 0, "is_disabled": 0, "bike_id": "bcdc72eae12f6f2b2cc34c5164427051", "lat": 38.9568575, "name": "bcdc72eae12f6f2b2cc34c5164427051", "fusion_lon": 0.0, "fusion_lat": 0.0, "type": "electric_scooter", "lon": -77.0240115}, {"rental_uris": {"android": "https://dc.lft.to/lastmile_qr_scan", "ios": "https://dc.lft.to/lastmile_qr_scan"}, "is_reserved": 0, "is_disabled": 0, "bike_id": "d1ed7b947ab19b3a896e55b157234039", "lat": 38.89959533333333, "name": "d1ed7b947ab19b3a896e55b157234039", "fusion_lon": 0.0, "fusion_lat": 0.0, "type": "electric_scooter", "lon": -77.04499766666666}, {"rental_uris": {"android": "https://dc.lft.to/lastmile_qr_scan", "ios": "https://dc.lft.to/lastmile_qr_scan"}, "is_reserved": 0, "is_disabled": 0, "bike_id": "cc9df1282306d3babdf913cd3d8bcca4", "lat": 38.91440716666666, "name": "cc9df1282306d3babdf913cd3d8bcca4", "fusion_lon": 0.0, "fusion_lat": 0.0, "type": "electric_scooter", "lon": -77.01221833333334}, {"rental_uris": {"android": "https://dc.lft.to/lastmile_qr_scan", "ios": "https://dc.lft.to/lastmile_qr_scan"}, "is_reserved": 0, "is_disabled": 0, "bike_id": "7138610ba4813f870fd44bd55ed639aa", "lat": 38.89360666666666, "name": "7138610ba4813f870fd44bd55ed639aa", "fusion_lon": 0.0, "fusion_lat": 0.0, "type": "electric_scooter", "lon": -76.94793066666666}, {"rental_uris": {"android": "https://dc.lft.to/lastmile_qr_scan", "ios": "https://dc.lft.to/lastmile_qr_scan"}, "is_reserved": 0, "is_disabled": 0, "bike_id": "65c18ffdee2b7529dd8da58ae3c0b9a8", "lat": 38.90512, "name": "65c18ffdee2b7529dd8da58ae3c0b9a8", "fusion_lon": 0.0, "fusion_lat": 0.0, "type": "electric_scooter", "lon": -77.069015}, {"rental_uris": {"android": "https://dc.lft.to/lastmile_qr_scan", "ios": "https://dc.lft.to/lastmile_qr_scan"}, "is_reserved": 0, "is_disabled": 0, "bike_id": "126468905bb2eb9901c841552818856d", "lat": 38.89733716666667, "name": "126468905bb2eb9901c841552818856d", "fusion_lon": 0.0, "fusion_lat": 0.0, "type": "electric_scooter", "lon": -77.02157283333334}, {"rental_uris": {"android": "https://dc.lft.to/lastmile_qr_scan", "ios": "https://dc.lft.to/lastmile_qr_scan"}, "is_reserved": 0, "is_disabled": 0, "bike_id": "e0dc66499408f1db29d2e5722b3d2c31", "lat": 38.9211345, "name": "e0dc66499408f1db29d2e5722b3d2c31", "fusion_lon": 0.0, "fusion_lat": 0.0, "type": "electric_scooter", "lon": -77.0318185}, {"rental_uris": {"android": "https://dc.lft.to/lastmile_qr_scan", "ios": "https://dc.lft.to/lastmile_qr_scan"}, "is_reserved": 0, "is_disabled": 0, "bike_id": "72e1946911f3e03e840dba270da2fae5", "lat": 38.9280035, "name": "72e1946911f3e03e840dba270da2fae5", "fusion_lon": 0.0, "fusion_lat": 0.0, "type": "electric_scooter", "lon": -77.03979783333334}, {"rental_uris": {"android": "https://dc.lft.to/lastmile_qr_scan", "ios": "https://dc.lft.to/lastmile_qr_scan"}, "is_reserved": 0, "is_disabled": 0, "bike_id": "7ae5e4336baf558ee38c3ee4e2dab16b", "lat": 38.875331833333334, "name": "7ae5e4336baf558ee38c3ee4e2dab16b", "fusion_lon": 0.0, "fusion_lat": 0.0, "type": "electric_scooter", "lon": -77.00509233333334}, {"rental_uris": {"android": "https://dc.lft.to/lastmile_qr_scan", "ios": "https://dc.lft.to/lastmile_qr_scan"}, "is_reserved": 0, "is_disabled": 0, "bike_id": "59723bf0f91577d234c0474d1e84ff99", "lat": 38.87276383333333, "name": "59723bf0f91577d234c0474d1e84ff99", "fusion_lon": 0.0, "fusion_lat": 0.0, "type": "electric_bike", "lon": -77.23328733333334}, {"rental_uris": {"android": "https://dc.lft.to/lastmile_qr_scan", "ios": "https://dc.lft.to/lastmile_qr_scan"}, "is_reserved": 0, "is_disabled": 0, "bike_id": "fee334c09f9943c435a48fb3582f1a92", "lat": 38.91390166666667, "name": "fee334c09f9943c435a48fb3582f1a92", "fusion_lon": 0.0, "fusion_lat": 0.0, "type": "electric_scooter", "lon": -77.04333}, {"rental_uris": {"android": "https://dc.lft.to/lastmile_qr_scan", "ios": "https://dc.lft.to/lastmile_qr_scan"}, "is_reserved": 0, "is_disabled": 0, "bike_id": "bded1909840bcef8f45f267d56ef6931", "lat": 38.892317166666665, "name": "bded1909840bcef8f45f267d56ef6931", "fusion_lon": 0.0, "fusion_lat": 0.0, "type": "electric_scooter", "lon": -77.05005883333334}, {"rental_uris": {"android": "https://dc.lft.to/lastmile_qr_scan", "ios": "https://dc.lft.to/lastmile_qr_scan"}, "is_reserved": 0, "is_disabled": 0, "bike_id": "bbc9520d01e5a6c8605530101443a683", "lat": 38.86664116666667, "name": "bbc9520d01e5a6c8605530101443a683", "fusion_lon": 0.0, "fusion_lat": 0.0, "type": "electric_scooter", "lon": -76.98879233333334}, {"rental_uris": {"android": "https://dc.lft.to/lastmile_qr_scan", "ios": "https://dc.lft.to/lastmile_qr_scan"}, "is_reserved": 0, "is_disabled": 0, "bike_id": "2e923ffa436542b2910a6f7f02bc30b8", "lat": 38.911083166666664, "name": "2e923ffa436542b2910a6f7f02bc30b8", "fusion_lon": 0.0, "fusion_lat": 0.0, "type": "electric_scooter", "lon": -77.046643}, {"rental_uris": {"android": "https://dc.lft.to/lastmile_qr_scan", "ios": "https://dc.lft.to/lastmile_qr_scan"}, "is_reserved": 0, "is_disabled": 0, "bike_id": "49958ea3fcfc01184461b4515ca6100f", "lat": 38.93267266666667, "name": "49958ea3fcfc01184461b4515ca6100f", "fusion_lon": 0.0, "fusion_lat": 0.0, "type": "electric_scooter", "lon": -77.02097216666667}, {"rental_uris": {"android": "https://dc.lft.to/lastmile_qr_scan", "ios": "https://dc.lft.to/lastmile_qr_scan"}, "is_reserved": 0, "is_disabled": 0, "bike_id": "940d2c4dcd275357f0f0f542aa142ffb", "lat": 38.9215455, "name": "940d2c4dcd275357f0f0f542aa142ffb", "fusion_lon": 0.0, "fusion_lat": 0.0, "type": "electric_scooter", "lon": -77.0350665}, {"rental_uris": {"android": "https://dc.lft.to/lastmile_qr_scan", "ios": "https://dc.lft.to/lastmile_qr_scan"}, "is_reserved": 0, "is_disabled": 0, "bike_id": "a56fb9a79bc1a1db11ec5a39a6e0849f", "lat": 38.879395, "name": "a56fb9a79bc1a1db11ec5a39a6e0849f", "fusion_lon": 0.0, "fusion_lat": 0.0, "type": "electric_scooter", "lon": -77.01465633333333}, {"rental_uris": {"android": "https://dc.lft.to/lastmile_qr_scan", "ios": "https://dc.lft.to/lastmile_qr_scan"}, "is_reserved": 0, "is_disabled": 0, "bike_id": "6ef61b57bff80418fa18e908025b520e", "lat": 38.942990333333334, "name": "6ef61b57bff80418fa18e908025b520e", "fusion_lon": 0.0, "fusion_lat": 0.0, "type": "electric_scooter", "lon": -77.021698}, {"rental_uris": {"android": "https://dc.lft.to/lastmile_qr_scan", "ios": "https://dc.lft.to/lastmile_qr_scan"},