{"data": {"bikes": [{"bike_id": "72118edb15de074d382da7f018e7c6b0", "fusion_lon": 0.0, "lon": -77.0317105, "name": "72118edb15de074d382da7f018e7c6b0", "is_disabled": 0, "rental_uris": {"android": "https://dc.lft.to/lastmile_qr_scan", "ios": "https://dc.lft.to/lastmile_qr_scan"}, "type": "electric_scooter", "lat": 38.892363833333334, "is_reserved": 0, "fusion_lat": 0.0}, {"bike_id": "10f9d2337ac17d532d19632f360128b5", "fusion_lon": 0.0, "lon": -77.0310765, "name": "10f9d2337ac17d532d19632f360128b5", "is_disabled": 0, "rental_uris": {"android": "https://dc.lft.to/lastmile_qr_scan", "ios": "https://dc.lft.to/lastmile_qr_scan"}, "type": "electric_scooter", "lat": 38.946515833333336, "is_reserved": 0, "fusion_lat": 0.0}, {"bike_id": "cac29cb4ca58b99071d6255e185aa8c9", "fusion_lon": 0.0, "lon": -77.00373183333333, "name": "cac29cb4ca58b99071d6255e185aa8c9", "is_disabled": 0, "rental_uris": {"android": "https://dc.lft.to/lastmile_qr_scan", "ios": "https://dc.lft.to/lastmile_qr_scan"}, "type": "electric_scooter", "lat": 38.88271866666667, "is_reserved": 0, "fusion_lat": 0.0}, {"bike_id": "103386a4b0198727fc976636359ef1d6", "fusion_lon": 0.0, "lon": -77.00657083333333, "name": "103386a4b0198727fc976636359ef1d6", "is_disabled": 0, "rental_uris": {"android": "https://dc.lft.to/lastmile_qr_scan", "ios": "https://dc.lft.to/lastmile_qr_scan"}, "type": "electric_scooter", "lat": 38.94471983333333, "is_reserved": 0, "fusion_lat": 0.0}, {"bike_id": "8e4463ebed0a2a49c32cf587465c2f91", "fusion_lon": 0.0, "lon": -76.9951885, "name": "8e4463ebed0a2a49c32cf587465c2f91", "is_disabled": 0, "rental_uris": {"android": "https://dc.lft.to/lastmile_qr_scan", "ios": "https://dc.lft.to/lastmile_qr_scan"}, "type": "electric_scooter", "lat": 38.90983133333334, "is_reserved": 0, "fusion_lat": 0.0}, {"bike_id": "69638b9ae09540121e56d04a78e31414", "fusion_lon": 0.0, "lon": -77.03175, "name": "69638b9ae09540121e56d04a78e31414", "is_disabled": 0, "rental_uris": {"android": "https://dc.lft.to/lastmile_qr_scan", "ios": "https://dc.lft.to/lastmile_qr_scan"}, "type": "electric_scooter", "lat": 38.91936616666667, "is_reserved": 0, "fusion_lat": 0.0}, {"bike_id": "22bf3517ff5e162dd3f2695e94ca01ff", "fusion_lon": 0.0, "lon": -77.0459975, "name": "22bf3517ff5e162dd3f2695e94ca01ff", "is_disabled": 0, "rental_uris": {"android": "https://dc.lft.to/lastmile_qr_scan", "ios": "https://dc.lft.to/lastmile_qr_scan"}, "type": "electric_scooter", "lat": 38.902783666666664, "is_reserved": 0, "fusion_lat": 0.0}, {"bike_id": "af99ebed8654d86b8dbcf7d602bab82d", "fusion_lon": 0.0, "lon": -77.03822866666667, "name": "af99ebed8654d86b8dbcf7d602bab82d", "is_disabled": 0, "rental_uris": {"android": "https://dc.lft.to/lastmile_qr_scan", "ios": "https://dc.lft.to/lastmile_qr_scan"}, "type": "electric_scooter", "lat": 38.908241, "is_reserved": 0, "fusion_lat": 0.0}, {"bike_id": "7e8349bfea5e1c7ce84d4c00d1833427", "fusion_lon": 0.0, "lon": -77.027236, "name": "7e8349bfea5e1c7ce84d4c00d1833427", "is_disabled": 0, "rental_uris": {"android": "https://dc.lft.to/lastmile_qr_scan", "ios": "https://dc.lft.to/lastmile_qr_scan"}, "type": "electric_scooter", "lat": 38.94964133333333, "is_reserved": 0, "fusion_lat": 0.0}, {"bike_id": "250c42104cdcaa7fccf433fabf0b002b", "fusion_lon": 0.0, "lon": -77.03094016666667, "name": "250c42104cdcaa7fccf433fabf0b002b", "is_disabled": 0, "rental_uris": {"android": "https://dc.lft.to/lastmile_qr_scan", "ios": "https://dc.lft.to/lastmile_qr_scan"}, "type": "electric_scooter", "lat": 38.9111535, "is_reserved": 0, "fusion_lat": 0.0}, {"bike_id": "dd020658fba470849dc80b01dfb50100", "fusion_lon": 0.0, "lon": -77.11709783333333, "name": "dd020658fba470849dc80b01dfb50100", "is_disabled": 0, "rental_uris": {"android": "https://dc.lft.to/lastmile_qr_scan", "ios": "https://dc.lft.to/lastmile_qr_scan"}, "type": "electric_bike", "lat": 38.867503166666665, "is_reserved": 0, "fusion_lat": 0.0}, {"bike_id": "8d09a32c97275be72a1261ac8815c17d", "fusion_lon": 0.0, "lon": -77.01338783333334, "name": "8d09a32c97275be72a1261ac8815c17d", "is_disabled": 0, "rental_uris": {"android": "https://dc.lft.to/lastmile_qr_scan", "ios": "https://dc.lft.to/lastmile_qr_scan"}, "type": "electric_scooter", "lat": 38.90062416666667, "is_reserved": 0, "fusion_lat": 0.0}, {"bike_id": "2d07d941afe623d182b0ecfd7d7ad79f", "fusion_lon": 0.0, "lon": -77.05004283333334, "name": "2d07d941afe623d182b0ecfd7d7ad79f", "is_disabled": 0, "rental_uris": {"android": "https://dc.lft.to/lastmile_qr_scan", "ios": "https://dc.lft.to/lastmile_qr_scan"}, "type": "electric_scooter", "lat": 38.906321, "is_reserved": 0, "fusion_lat": 0.0}, {"bike_id": "c6852e60c6f5c0e8d26727c8e6977835", "fusion_lon": 0.0, "lon": -77.02631383333333, "name": "c6852e60c6f5c0e8d26727c8e6977835", "is_disabled": 0, "rental_uris": {"android": "https://dc.lft.to/lastmile_qr_scan", "ios": "https://dc.lft.to/lastmile_qr_scan"}, "type": "electric_scooter", "lat": 38.928162, "is_reserved": 0, "fusion_lat": 0.0}, {"bike_id": "2e54b07882bf5a3b5366e1f0b0b7b491", "fusion_lon": 0.0, "lon": -77.03626933333334, "name": "2e54b07882bf5a3b5366e1f0b0b7b491", "is_disabled": 0, "rental_uris": {"android": "https://dc.lft.to/lastmile_qr_scan", "ios": "https://dc.lft.to/lastmile_qr_scan"}, "type": "electric_scooter", "lat": 38.903892666666664, "is_reserved": 0, "fusion_lat": 0.0}, {"bike_id": "8f57e4f1edeb0a4130e62469e38296b6", "fusion_lon": 0.0, "lon": -77.03726166666667, "name": "8f57e4f1edeb0a4130e62469e38296b6", "is_disabled": 0, "rental_uris": {"android": "https://dc.lft.to/lastmile_qr_scan", "ios": "https://dc.lft.to/lastmile_qr_scan"}, "type": "electric_scooter", "lat": 38.903722333333334, "is_reserved": 0, "fusion_lat": 0.0}, {"bike_id": "4e5aac271b97ce273c97d60d7f91add2", "fusion_lon": 0.0, "lon": -77.00406566666666, "name": "4e5aac271b97ce273c97d60d7f91add2", "is_disabled": 0, "rental_uris": {"android": "https://dc.lft.to/lastmile_qr_scan", "ios": "https://dc.lft.to/lastmile_qr_scan"}, "type": "electric_scooter", "lat": 38.9213455, "is_reserved": 0, "fusion_lat": 0.0}, {"bike_id": "5fa7abdc36f9ef51217bd064c858fae0", "fusion_lon": 0.0, "lon": -77.0323635, "name": "5fa7abdc36f9ef51217bd064c858fae0", "is_disabled": 0, "rental_uris": {"android": "https://dc.lft.to/lastmile_qr_scan", "ios": "https://dc.lft.to/lastmile_qr_scan"}, "type": "electric_scooter", "lat": 38.9171645, "is_reserved": 0, "fusion_lat": 0.0}, {"bike_id": "88b350a77c9b3a2b1a6dada80c61ab1e", "fusion_lon": 0.0, "lon": -77.03731483333334, "name": "88b350a77c9b3a2b1a6dada80c61ab1e", "is_disabled": 0, "rental_uris": {"android": "https://dc.lft.to/lastmile_qr_scan", "ios": "https://dc.lft.to/lastmile_qr_scan"}, "type": "electric_scooter", "lat": 38.93576816666667, "is_reserved": 0, "fusion_lat": 0.0}, {"bike_id": "a9c1ddebcc410f765d65d7f812c4dece", "fusion_lon": 0.0, "lon": -77.2083595, "name": "a9c1ddebcc410f765d65d7f812c4dece", "is_disabled": 0, "rental_uris": {"android": "https://dc.lft.to/lastmile_qr_scan", "ios": "https://dc.lft.to/lastmile_qr_scan"}, "type": "electric_bike", "lat": 38.9247705, "is_reserved": 0, "fusion_lat": 0.0}, {"bike_id": "0288679455714822e5d1ab4029ffc47c", "fusion_lon": 0.0, "lon": -77.0218345, "name": "0288679455714822e5d1ab4029ffc47c", "is_disabled": 0, "rental_uris": {"android": "https://dc.lft.to/lastmile_qr_scan", "ios": "https://dc.lft.to/lastmile_qr_scan"}, "type": "electric_scooter", "lat": 38.9106225, "is_reserved": 0, "fusion_lat": 0.0}, {"bike_id": "058c3241bcf74c63cf929bcc5fbda402", "fusion_lon": 0.0, "lon": -77.11307916666667, "name": "058c3241bcf74c63cf929bcc5fbda402", "is_disabled": 0, "rental_uris": {"android": "https://dc.lft.to/lastmile_qr_scan", "ios": "https://dc.lft.to/lastmile_qr_scan"}, "type": "electric_bike", "lat": 38.831493333333334, "is_reserved": 0, "fusion_lat": 0.0}, {"bike_id": "51cea83bde857c4fbdc6c0754f09abbc", "fusion_lon": 0.0, "lon": -77.02186866666666, "name": "51cea83bde857c4fbdc6c0754f09abbc", "is_disabled": 0, "rental_uris": {"android": "https://dc.lft.to/lastmile_qr_scan", "ios": "https://dc.lft.to/lastmile_qr_scan"}, "type": "electric_scooter", "lat": 38.89626883333333, "is_reserved": 0, "fusion_lat": 0.0}, {"bike_id": "7d97f829745ecae929044f3b8b00a178", "fusion_lon": 0.0, "lon": -77.00608683333333, "name": "7d97f829745ecae929044f3b8b00a178", "is_disabled": 0, "rental_uris": {"android": "https://dc.lft.to/lastmile_qr_scan", "ios": "https://dc.lft.to/lastmile_qr_scan"}, "type": "electric_scooter", "lat": 38.9056785, "is_reserved": 0, "fusion_lat": 0.0}, {"bike_id": "d1d5f77712e37bcbf6696b9f31a36410", "fusion_lon": 0.0, "lon": -77.05841716666667, "name": "d1d5f77712e37bcbf6696b9f31a36410", "is_disabled": 0, "rental_uris": {"android": "https://dc.lft.to/lastmile_qr_scan", "ios": "https://dc.lft.to/lastmile_qr_scan"}, "type": "electric_scooter", "lat": 38.910546, "is_reserved": 0, "fusion_lat": 0.0}, {"bike_id": "77e964ac402a7590f03b0d07d62c1866", "fusion_lon": 0.0, "lon": -77.0283485, "name": "77e964ac402a7590f03b0d07d62c1866", "is_disabled": 0, "rental_uris": {"android": "https://dc.lft.to/lastmile_qr_scan", "ios": "https://dc.lft.to/lastmile_qr_scan"}, "type": "electric_scooter", "lat": 38.9248515, "is_reserved": 0, "fusion_lat": 0.0}, {"bike_id": "7f765a85a148e41538f18465d92fe364", "fusion_lon": 0.0, "lon": -77.01883383333333, "name": "7f765a85a148e41538f18465d92fe364", "is_disabled": 0, "rental_uris": {"android": "https://dc.lft.to/lastmile_qr_scan", "ios": "https://dc.lft.to/lastmile_qr_scan"}, "type": "electric_scooter", "lat": 38.922719, "is_reserved": 0, "fusion_lat": 0.0}, {"bike_id": "520975920d36d1eacfd229baa8de24fe", "fusion_lon": 0.0, "lon": -77.04859633333334, "name": "520975920d36d1eacfd229baa8de24fe", "is_disabled": 0, "rental_uris": {"android": "https://dc.lft.to/lastmile_qr_scan", "ios": "https://dc.lft.to/lastmile_qr_scan"}, "type": "electric_scooter", "lat": 38.892274, "is_reserved": 0, "fusion_lat": 0.0}, {"bike_id": "3a0ca7269fa45856bc395807c8713b98", "fusion_lon": 0.0, "lon": -77.05909266666667, "name": "3a0ca7269fa45856bc395807c8713b98", "is_disabled": 0, "rental_uris": {"android": "https://dc.lft.to/lastmile_qr_scan", "ios": "https://dc.lft.to/lastmile_qr_scan"}, "type": "electric_scooter", "lat": 38.9031535, "is_reserved": 0, "fusion_lat": 0.0}, {"bike_id": "88449058725656aa8fb67b61996b1232", "fusion_lon": 0.0, "lon": -77.057691, "name": "88449058725656aa8fb67b61996b1232", "is_disabled": 0, "rental_uris": {"android": "https://dc.lft.to/lastmile_qr_scan", "ios": "https://dc.lft.to/lastmile_qr_scan"}, "type": "electric_scooter", "lat": 38.90538866666667, "is_reserved": 0, "fusion_lat": 0.0}, {"bike_id": "1d64dae13f8bf93813cd67d836b2be8c", "fusion_lon": 0.0, "lon": -77.038085, "name": "1d64dae13f8bf93813cd67d836b2be8c", "is_disabled": 0, "rental_uris": {"android": "https://dc.lft.to/lastmile_qr_scan", "ios": "https://dc.lft.to/lastmile_qr_scan"}, "type": "electric_scooter", "lat": 38.90579483333333, "is_reserved": 0, "fusion_lat": 0.0}, {"bike_id": "40a1c750cbfc59bcca272044bd135e83", "fusion_lon": 0.0, "lon": -77.07587233333334, "name": "40a1c750cbfc59bcca272044bd135e83", "is_disabled": 0, "rental_uris": {"android": "https://dc.lft.to/lastmile_qr_scan", "ios": "https://dc.lft.to/lastmile_qr_scan"}, "type": "electric_scooter", "lat": 38.912183166666665, "is_reserved": 0, "fusion_lat": 0.0}, {"bike_id": "ca75ad17a7f5233972beff6354ecfb22", "fusion_lon": 0.0, "lon": -77.04387033333333, "name": "ca75ad17a7f5233972beff6354ecfb22", "is_disabled": 0, "rental_uris": {"android": "https://dc.lft.to/lastmile_qr_scan", "ios": "https://dc.lft.to/lastmile_qr_scan"}, "type": "electric_scooter", "lat": 38.910874, "is_reserved": 0, "fusion_lat": 0.0}, {"bike_id": "603f3819b42f0df1f2179a28c4710641", "fusion_lon": 0.0, "lon": -77.04192066666667, "name": "603f3819b42f0df1f2179a28c4710641", "is_disabled": 0, "rental_uris": {"android": "https://dc.lft.to/lastmile_qr_scan", "ios": "https://dc.lft.to/lastmile_qr_scan"}, "type": "electric_scooter", "lat": 38.90492366666667, "is_reserved": 0, "fusion_lat": 0.0}, {"bike_id": "40470f0d55450ceab40f912dc8e85a3e", "fusion_lon": 0.0, "lon": -76.9322935, "name": "40470f0d55450ceab40f912dc8e85a3e", "is_disabled": 0, "rental_uris": {"android": "https://dc.lft.to/lastmile_qr_scan", "ios": "https://dc.lft.to/lastmile_qr_scan"}, "type": "electric_scooter", "lat": 38.898916166666666, "is_reserved": 0, "fusion_lat": 0.0}, {"bike_id": "8fa57874389fa4b2c0d38bcd04201220", "fusion_lon": 0.0, "lon": -77.04596283333333, "name": "8fa57874389fa4b2c0d38bcd04201220", "is_disabled": 0, "rental_uris": {"android": "https://dc.lft.to/lastmile_qr_scan", "ios": "https://dc.lft.to/lastmile_qr_scan"}, "type": "electric_scooter", "lat": 38.90277183333333, "is_reserved": 0, "fusion_lat": 0.0}, {"bike_id": "b44f0bbbab61ed60585231cde17bfe58", "fusion_lon": 0.0, "lon": -77.0573355, "name": "b44f0bbbab61ed60585231cde17bfe58", "is_disabled": 0, "rental_uris": {"android": "https://dc.lft.to/lastmile_qr_scan", "ios": "https://dc.lft.to/lastmile_qr_scan"}, "type": "electric_scooter", "lat": 38.924408, "is_reserved": 0, "fusion_lat": 0.0}, {"bike_id": "345f630de30dced092c50598c03ca52e", "fusion_lon": 0.0, "lon": -77.03441133333334, "name": "345f630de30dced092c50598c03ca52e", "is_disabled": 0, "rental_uris": {"android": "https://dc.lft.to/lastmile_qr_scan", "ios": "https://dc.lft.to/lastmile_qr_scan"}, "type": "electric_scooter", "lat": 38.908951, "is_reserved": 0, "fusion_lat": 0.0}, {"bike_id": "f305e02d30147494dfde54b69b1ebc18", "fusion_lon": 0.0, "lon": -77.03209833333334, "name": "f305e02d30147494dfde54b69b1ebc18", "is_disabled": 0, "rental_uris": {"android": "https://dc.lft.to/lastmile_qr_scan", "ios": "https://dc.lft.to/lastmile_qr_scan"}, "type": "electric_scooter", "lat": 38.895982333333336, "is_reserved": 0, "fusion_lat": 0.0}, {"bike_id": "e864e6aa2df6dc627c30b90f512897c0", "fusion_lon": 0.0, "lon": -77.02388516666667, "name": "e864e6aa2df6dc627c30b90f512897c0", "is_disabled": 0, "rental_uris": {"android": "https://dc.lft.to/lastmile_qr_scan", "ios": "https://dc.lft.to/lastmile_qr_scan"}, "type": "electric_scooter", "lat": 38.9196785, "is_reserved": 0, "fusion_lat": 0.0}, {"bike_id": "79c90fbe4e77f45dcf2b0dd0e43f8abf", "fusion_lon": 0.0, "lon": -76.99540033333334, "name": "79c90fbe4e77f45dcf2b0dd0e43f8abf", "is_disabled": 0, "rental_uris": {"android": "https://dc.lft.to/lastmile_qr_scan", "ios": "https://dc.lft.to/lastmile_qr_scan"}, "type": "electric_scooter", "lat": 38.9207565, "is_reserved": 0, "fusion_lat": 0.0}, {"bike_id": "4b96d63e885251d2333b3cab454741f2", "fusion_lon": 0.0, "lon": -77.014302, "name": "4b96d63e885251d2333b3cab454741f2", "is_disabled": 0, "rental_uris": {"android": "https://dc.lft.to/lastmile_qr_scan", "ios": "https://dc.lft.to/lastmile_qr_scan"}, "type": "electric_scooter", "lat": 38.899465, "is_reserved": 0, "fusion_lat": 0.0}, {"bike_id": "2094ad522ad5be6a69adf15548f331f2", "fusion_lon": 0.0, "lon": -77.02238316666667, "name": "2094ad522ad5be6a69adf15548f331f2", "is_disabled": 0, "rental_uris": {"android": "https://dc.lft.to/lastmile_qr_scan", "ios": "https://dc.lft.to/lastmile_qr_scan"}, "type": "electric_scooter", "lat": 38.92253383333333, "is_reserved": 0, "fusion_lat": 0.0}, {"bike_id": "8a5a4168a4c6e214a59ccf59d8645f70", "fusion_lon": 0.0, "lon": -77.07918183333334, "name": "8a5a4168a4c6e214a59ccf59d8645f70", "is_disabled": 0, "rental_uris": {"android": "https://dc.lft.to/lastmile_qr_scan", "ios": "https://dc.lft.to/lastmile_qr_scan"}, "type": "electric_bike", "lat": 38.802352, "is_reserved": 0, "fusion_lat": 0.0}, {"bike_id": "3a557a0768a37d3fa93d4ac04618a882", "fusion_lon": 0.0, "lon": -77.1608855, "name": "3a557a0768a37d3fa93d4ac04618a882", "is_disabled": 0, "rental_uris": {"android": "https://dc.lft.to/lastmile_qr_scan", "ios": "https://dc.lft.to/lastmile_qr_scan"}, "type": "electric_bike", "lat": 38.88686283333333, "is_reserved": 0, "fusion_lat": 0.0}, {"bike_id": "ab281b533f1bf02839b4b5551cf68726", "fusion_lon": 0.0, "lon": -77.02976283333334, "name": "ab281b533f1bf02839b4b5551cf68726", "is_disabled": 0, "rental_uris": {"android": "https://dc.lft.to/lastmile_qr_scan", "ios": "https://dc.lft.to/lastmile_qr_scan"}, "type": "electric_scooter", "lat": 38.92262216666666, "is_reserved": 0, "fusion_lat": 0.0}, {"bike_id": "c3e848c78dde7b120508cea32e40ba3e", "fusion_lon": 0.0, "lon": -76.98842266666666, "name": "c3e848c78dde7b120508cea32e40ba3e", "is_disabled": 0, "rental_uris": {"android": "https://dc.lft.to/lastmile_qr_scan", "ios": "https://dc.lft.to/lastmile_qr_scan"}, "type": "electric_bike", "lat": 38.842764333333335, "is_reserved": 0, "fusion_lat": 0.0}, {"bike_id": "1b7a3568d2bb3f9adc4a1086f5b40b55", "fusion_lon": 0.0, "lon": -77.04119333333334, "name": "1b7a3568d2bb3f9adc4a1086f5b40b55", "is_disabled": 0, "rental_uris": {"android": "https://dc.lft.to/lastmile_qr_scan", "ios": "https://dc.lft.to/lastmile_qr_scan"}, "type": "electric_scooter", "lat": 38.924620166666664, "is_reserved": 0, "fusion_lat": 0.0}, {"bike_id": "c3e56bae330ae9d4824301fde5d6ded9", "fusion_lon": 0.0, "lon": -76.98884116666666, "name": "c3e56bae330ae9d4824301fde5d6ded9", "is_disabled": 0, "rental_uris": {"android": "https://dc.lft.to/lastmile_qr_scan", "ios": "https://dc.lft.to/lastmile_qr_scan"}, "type": "electric_scooter", "lat": 38.86661816666667, "is_reserved": 0, "fusion_lat": 0.0}, {"bike_id": "eebbd03164ace08eedb01c6148a0a102", "fusion_lon": 0.0, "lon": -76.98254916666667, "name": "eebbd03164ace08eedb01c6148a0a102", "is_disabled": 0, "rental_uris": {"android": "https://dc.lft.to/lastmile_qr_scan", "ios": "https://dc.lft.to/lastmile_qr_scan"}, "type": "electric_bike", "lat": 38.95338066666667, "is_reserved": 0, "fusion_lat": 0.0}, {"bike_id": "67e81d132d8d7528e1b9061b53131ecc", "fusion_lon": 0.0, "lon": -77.0447975, "name": "67e81d132d8d7528e1b9061b53131ecc", "is_disabled": 0, "rental_uris": {"android": "https://dc.lft.to/lastmile_qr_scan", "ios": "https://dc.lft.to/lastmile_qr_scan"}, "type": "electric_scooter", "lat": 38.901157166666664, "is_reserved": 0, "fusion_lat": 0.0}, {"bike_id": "7e51720737b939787a93fd815d572fcc", "fusion_lon": 0.0, "lon": -77.04672633333334, "name": "7e51720737b939787a93fd815d572fcc", "is_disabled": 0, "rental_uris": {"android": "https://dc.lft.to/lastmile_qr_scan", "ios": "https://dc.lft.to/lastmile_qr_scan"}, "type": "electric_scooter", "lat": 38.89952433333333, "is_reserved": 0, "fusion_lat": 0.0}, {"bike_id": "ffc87b800dba1405049a6c929cf02b25", "fusion_lon": 0.0, "lon": -77.11595166666666, "name": "ffc87b800dba1405049a6c929cf02b25", "is_disabled": 0, "rental_uris": {"android": "https://dc.lft.to/lastmile_qr_scan", "ios": "https://dc.lft.to/lastmile_qr_scan"}, "type": "electric_bike", "lat": 39.074997333333336, "is_reserved": 0, "fusion_lat": 0.0}, {"bike_id": "06fc0cc3f4d4ef9ff0809c5e9d853769", "fusion_lon": 0.0, "lon": -77.0344655, "name": "06fc0cc3f4d4ef9ff0809c5e9d853769", "is_disabled": 0, "rental_uris": {"android": "https://dc.lft.to/lastmile_qr_scan", "ios": "https://dc.lft.to/lastmile_qr_scan"}, "type": "electric_scooter", "lat": 38.90955833333334, "is_reserved": 0, "fusion_lat": 0.0}, {"bike_id": "28296c34e4234fe88a2a1da48fb605b5", "fusion_lon": 0.0, "lon": -77.04512566666666, "name": "28296c34e4234fe88a2a1da48fb605b5", "is_disabled": 0, "rental_uris": {"android": "https://dc.lft.to/lastmile_qr_scan", "ios": "https://dc.lft.to/lastmile_qr_scan"}, "type": "electric_scooter", "lat": 38.90370583333333, "is_reserved": 0, "fusion_lat": 0.0}, {"bike_id": "38f94f8a6a0f958156ec402e461451f6", "fusion_lon": 0.0, "lon": -77.0509065, "name": "38f94f8a6a0f958156ec402e461451f6", "is_disabled": 0, "rental_uris": {"android": "https://dc.lft.to/lastmile_qr_scan", "ios": "https://dc.lft.to/lastmile_qr_scan"}, "type": "electric_bike", "lat": 38.8133725, "is_reserved": 0, "fusion_lat": 0.0}, {"bike_id": "885000ff3a374de8d926bda2ce3960e3", "fusion_lon": 0.0, "lon": -77.01672783333333, "name": "885000ff3a374de8d926bda2ce3960e3", "is_disabled": 0, "rental_uris": {"android": "https://dc.lft.to/lastmile_qr_scan", "ios": "https://dc.lft.to/lastmile_qr_scan"}, "type": "electric_scooter", "lat": 38.88108116666667, "is_reserved": 0, "fusion_lat": 0.0}, {"bike_id": "a57f54306457e93e53e4d13eec546b1c", "fusion_lon": 0.0, "lon": -77.02704133333333, "name": "a57f54306457e93e53e4d13eec546b1c", "is_disabled": 0, "rental_uris": {"android": "https://dc.lft.to/lastmile_qr_scan", "ios": "https://dc.lft.to/lastmile_qr_scan"}, "type": "electric_scooter", "lat": 38.881504166666666, "is_reserved": 0, "fusion_lat": 0.0}, {"bike_id": "3f17b4aac97f5476b261f54b70f9fefe", "fusion_lon": 0.0, "lon": -77.089531, "name": "3f17b4aac97f5476b261f54b70f9fefe", "is_disabled": 0, "rental_uris": {"android": "https://dc.lft.to/lastmile_qr_scan", "ios": "https://dc.lft.to/lastmile_qr_scan"}, "type": "electric_bike", "lat": 38.841210333333336, "is_reserved": 0, "fusion_lat": 0.0}, {"bike_id": "2aaae3d0997b34f286e1a9591209d770", "fusion_lon": 0.0, "lon": -76.98636283333333, "name": "2aaae3d0997b34f286e1a9591209d770", "is_disabled": 0, "rental_uris": {"android": "https://dc.lft.to/lastmile_qr_scan", "ios": "https://dc.lft.to/lastmile_qr_scan"}, "type": "electric_scooter", "lat": 38.88049183333333, "is_reserved": 0, "fusion_lat": 0.0}, {"bike_id": "e4a398792ee84392e9ec3962d01c5907", "fusion_lon": 0.0, "lon": -76.997779, "name": "e4a398792ee84392e9ec3962d01c5907", "is_disabled": 0, "rental_uris": {"android": "https://dc.lft.to/lastmile_qr_scan", "ios": "https://dc.lft.to/lastmile_qr_scan"}, "type": "electric_scooter", "lat": 38.909109666666666, "is_reserved": 0, "fusion_lat": 0.0}, {"bike_id": "7d5d0c854c7e3c506a12357941027f3d", "fusion_lon": 0.0, "lon": -77.023133, "name": "7d5d0c854c7e3c506a12357941027f3d", "is_disabled": 0, "rental_uris": {"android": "https://dc.lft.to/lastmile_qr_scan", "ios": "https://dc.lft.to/lastmile_qr_scan"}, "type": "electric_scooter", "lat": 38.917912333333334, "is_reserved": 0, "fusion_lat": 0.0}, {"bike_id": "d5eeeb8ab3b14f0005cd565fb040f36f", "fusion_lon": 0.0, "lon": -77.09958333333333, "name": "d5eeeb8ab3b14f0005cd565fb040f36f", "is_disabled": 0, "rental_uris": {"android": "https://dc.lft.to/lastmile_qr_scan", "ios": "https://dc.lft.to/lastmile_qr_scan"}, "type": "electric_bike", "lat": 38.8579935, "is_reserved": 0, "fusion_lat": 0.0}, {"bike_id": "0e5ed788d5e7382d811bfa43ee744e49", "fusion_lon": 0.0, "lon": -77.03181833333333, "name": "0e5ed788d5e7382d811bfa43ee744e49", "is_disabled": 0, "rental_uris": {"android": "https://dc.lft.to/lastmile_qr_scan", "ios": "https://dc.lft.to/lastmile_qr_scan"}, "type": "electric_scooter", "lat": 38.895779833333336, "is_reserved": 0, "fusion_lat": 0.0}, {"bike_id": "bbbfaae8e575b7aa489446ab0a1d85dc", "fusion_lon": 0.0, "lon": -77.04614433333333, "name": "bbbfaae8e575b7aa489446ab0a1d85dc", "is_disabled": 0, "rental_uris": {"android": "https://dc.lft.to/lastmile_qr_scan", "ios": "https://dc.lft.to/lastmile_qr_scan"}, "type": "electric_scooter", "lat": 38.896133166666665, "is_reserved": 0, "fusion_lat": 0.0}, {"bike_id": "eaf3b87b4117de22f05edc349a3df837", "fusion_lon": 0.0, "lon": -76.92871133333334, "name": "eaf3b87b4117de22f05edc349a3df837", "is_disabled": 0, "rental_uris": {"android": "https://dc.lft.to/lastmile_qr_scan", "ios": "https://dc.lft.to/lastmile_qr_scan"}, "type": "electric_scooter", "lat": 38.88528433333333, "is_reserved": 0, "fusion_lat": 0.0}, {"bike_id": "3a32b86fa59c58ddeebda5641faece01", "fusion_lon": 0.0, "lon": -77.04812466666667, "name": "3a32b86fa59c58ddeebda5641faece01", "is_disabled": 0, "rental_uris": {"android": "https://dc.lft.to/lastmile_qr_scan", "ios": "https://dc.lft.to/lastmile_qr_scan"}, "type": "electric_scooter", "lat": 38.901934833333335, "is_reserved": 0, "fusion_lat": 0.0}, {"bike_id": "3fcaa53bb9a4cc58c7d276462502bdbc", "fusion_lon": 0.0, "lon": -77.0465745, "name": "3fcaa53bb9a4cc58c7d276462502bdbc", "is_disabled": 0, "rental_uris": {"android": "https://dc.lft.to/lastmile_qr_scan", "ios": "https://dc.lft.to/lastmile_qr_scan"}, "type": "electric_scooter", "lat": 38.90555716666667, "is_reserved": 0, "fusion_lat": 0.0}, {"bike_id": "64a95210642f94f4feb4c92ef63224a1", "fusion_lon": 0.0, "lon": -77.02479466666666, "name": "64a95210642f94f4feb4c92ef63224a1", "is_disabled": 0, "rental_uris": {"android": "https://dc.lft.to/lastmile_qr_scan", "ios": "https://dc.lft.to/lastmile_qr_scan"}, "type": "electric_scooter", "lat": 38.9098425, "is_reserved": 0, "fusion_lat": 0.0}, {"bike_id": "cf760a90b237df785ba2a2021d75c32a", "fusion_lon": 0.0, "lon": -77.02526833333333, "name": "cf760a90b237df785ba2a2021d75c32a", "is_disabled": 0, "rental_uris": {"android": "https://dc.lft.to/lastmile_qr_scan", "ios": "https://dc.lft.to/lastmile_qr_scan"}, "type": "electric_scooter", "lat": 38.92275433333333, "is_reserved": 0, "fusion_lat": 0.0}, {"bike_id": "a0f5c443b959fecf4bf21a0d8c40d182", "fusion_lon": 0.0, "lon": -76.995458, "name": "a0f5c443b959fecf4bf21a0d8c40d182", "is_disabled": 0, "rental_uris": {"android": "https://dc.lft.to/lastmile_qr_scan", "ios": "https://dc.lft.to/lastmile_qr_scan"}, "type": "electric_scooter", "lat": 38.92679316666667, "is_reserved": 0, "fusion_lat": 0.0}, {"bike_id": "f87527b5f30bce90ae1a74dacef96035", "fusion_lon": 0.0, "lon": -76.969333, "name": "f87527b5f30bce90ae1a74dacef96035", "is_disabled": 0, "rental_uris": {"android": "https://dc.lft.to/lastmile_qr_scan", "ios": "https://dc.lft.to/lastmile_qr_scan"}, "type": "electric_bike", "lat": 38.951987, "is_reserved": 0, "fusion_lat": 0.0}, {"bike_id": "12d1502a81f77a6e150a292b3ac67d73", "fusion_lon": 0.0, "lon": -77.00963283333333, "name": "12d1502a81f77a6e150a292b3ac67d73", "is_disabled": 0, "rental_uris": {"android": "https://dc.lft.to/lastmile_qr_scan", "ios": "https://dc.lft.to/lastmile_qr_scan"}, "type": "electric_scooter", "lat": 38.907958666666666, "is_reserved": 0, "fusion_lat": 0.0}, {"bike_id": "cfc5b2b2000a583c599667798dd7509f", "fusion_lon": 0.0, "lon": -76.9794605, "name": "cfc5b2b2000a583c599667798dd7509f", "is_disabled": 0, "rental_uris": {"android": "https://dc.lft.to/lastmile_qr_scan", "ios": "https://dc.lft.to/lastmile_qr_scan"}, "type": "electric_scooter", "lat": 38.9453095, "is_reserved": 0, "fusion_lat": 0.0}, {"bike_id": "074a44d515f49511fd8ac00a5074cd34", "fusion_lon": 0.0, "lon": -77.02925883333333, "name": "074a44d515f49511fd8ac00a5074cd34", "is_disabled": 0, "rental_uris": {"android": "https://dc.lft.to/lastmile_qr_scan", "ios": "https://dc.lft.to/lastmile_qr_scan"}, "type": "electric_scooter", "lat": 38.90742316666667, "is_reserved": 0, "fusion_lat": 0.0}, {"bike_id": "8667aebb5f8cd82102684d95a6c9f316", "fusion_lon": 0.0, "lon": -77.0980585, "name": "8667aebb5f8cd82102684d95a6c9f316", "is_disabled": 0, "rental_uris": {"android": "https://dc.lft.to/lastmile_qr_scan", "ios": "https://dc.lft.to/lastmile_qr_scan"}, "type": "electric_bike", "lat": 38.850345, "is_reserved": 0, "fusion_lat": 0.0}, {"bike_id": "3321cf1db208229f9d038b6becdc7f45", "fusion_lon": 0.0, "lon": -77.0013495, "name": "3321cf1db208229f9d038b6becdc7f45", "is_disabled": 0, "rental_uris": {"android": "https://dc.lft.to/lastmile_qr_scan", "ios": "https://dc.lft.to/lastmile_qr_scan"}, "type": "electric_scooter", "lat": 38.90721116666667, "is_reserved": 0, "fusion_lat": 0.0}, {"bike_id": "aafcee16d6d74ebfcb898495e7584566", "fusion_lon": 0.0, "lon": -76.9909095, "name": "aafcee16d6d74ebfcb898495e7584566", "is_disabled": 0, "rental_uris": {"android": "https://dc.lft.to/lastmile_qr_scan", "ios": "https://dc.lft.to/lastmile_qr_scan"}, "type": "electric_scooter", "lat": 38.88242533333333, "is_reserved": 0, "fusion_lat": 0.0}, {"bike_id": "d5a748ce8bc7a4a87791d117a1bd18ca", "fusion_lon": 0.0, "lon": -77.01289616666666, "name": "d5a748ce8bc7a4a87791d117a1bd18ca", "is_disabled": 0, "rental_uris": {"android": "https://dc.lft.to/lastmile_qr_scan", "ios": "https://dc.lft.to/lastmile_qr_scan"}, "type": "electric_bike", "lat": 38.87185933333333, "is_reserved": 0, "fusion_lat": 0.0}, {"bike_id": "ec886ca601da92cda464217a3138d69a", "fusion_lon": 0.0, "lon": -77.05587966666667, "name": "ec886ca601da92cda464217a3138d69a", "is_disabled": 0, "rental_uris": {"android": "https://dc.lft.to/lastmile_qr_scan", "ios": "https://dc.lft.to/lastmile_qr_scan"}, "type": "electric_scooter", "lat": 38.89332733333333, "is_reserved": 0, "fusion_lat": 0.0}, {"bike_id": "00346bc2f9ef241532e0be61e76617a6", "fusion_lon": 0.0, "lon": -77.02164816666667, "name": "00346bc2f9ef241532e0be61e76617a6", "is_disabled": 0, "rental_uris": {"android": "https://dc.lft.to/lastmile_qr_scan", "ios": "https://dc.lft.to/lastmile_qr_scan"}, "type": "electric_scooter", "lat": 38.92618433333333, "is_reserved": 0, "fusion_lat": 0.0}, {"bike_id": "30c745d739479a3eb1d8af0f24d7f50d", "fusion_lon": 0.0, "lon": -77.0510815, "name": "30c745d739479a3eb1d8af0f24d7f50d", "is_disabled": 0, "rental_uris": {"android": "https://dc.lft.to/lastmile_qr_scan", "ios": "https://dc.lft.to/lastmile_qr_scan"}, "type": "electric_scooter", "lat": 38.905371, "is_reserved": 0, "fusion_lat": 0.0}, {"bike_id": "935f6d27c3a631c2ca7998a0c4f9af7b", "fusion_lon": 0.0, "lon": -77.04151666666667, "name": "935f6d27c3a631c2ca7998a0c4f9af7b", "is_disabled": 0, "rental_uris": {"android": "https://dc.lft.to/lastmile_qr_scan", "ios": "https://dc.lft.to/lastmile_qr_scan"}, "type": "electric_scooter", "lat": 38.91591416666667, "is_reserved": 0, "fusion_lat": 0.0}, {"bike_id": "0f767c7066015b6730ec1df95feb20c3", "fusion_lon": 0.0, "lon": -76.98544833333334, "name": "0f767c7066015b6730ec1df95feb20c3", "is_disabled": 0, "rental_uris": {"android": "https://dc.lft.to/lastmile_qr_scan", "ios": "https://dc.lft.to/lastmile_qr_scan"}, "type": "electric_scooter", "lat": 38.880063166666666, "is_reserved": 0, "fusion_lat": 0.0}, {"bike_id": "130ead8d561d4f810595a6f004fb9539", "fusion_lon": 0.0, "lon": -76.97218216666667, "name": "130ead8d561d4f810595a6f004fb9539", "is_disabled": 0, "rental_uris": {"android": "https://dc.lft.to/lastmile_qr_scan", "ios": "https://dc.lft.to/lastmile_qr_scan"}, "type": "electric_scooter", "lat": 38.898025833333335, "is_reserved": 0, "fusion_lat": 0.0}, {"bike_id": "3b2b93296847e26f1d758b10ef4337ae", "fusion_lon": 0.0, "lon": -77.05227633333334, "name": "3b2b93296847e26f1d758b10ef4337ae", "is_disabled": 0, "rental_uris": {"android": "https://dc.lft.to/lastmile_qr_scan", "ios": "https://dc.lft.to/lastmile_qr_scan"}, "type": "electric_scooter", "lat": 38.924409833333335, "is_reserved": 0, "fusion_lat": 0.0}, {"bike_id": "5192a63c1259c089e064c07e7a17df3b", "fusion_lon": 0.0, "lon": -77.04488416666666, "name": "5192a63c1259c089e064c07e7a17df3b", "is_disabled": 0, "rental_uris": {"android": "https://dc.lft.to/lastmile_qr_scan", "ios": "https://dc.lft.to/lastmile_qr_scan"}, "type": "electric_scooter", "lat": 38.91376133333333, "is_reserved": 0, "fusion_lat": 0.0}, {"bike_id": "b014e365971cf6ce5bb3551c18cc9464", "fusion_lon": 0.0, "lon": -77.00616516666666, "name": "b014e365971cf6ce5bb3551c18cc9464", "is_disabled": 0, "rental_uris": {"android": "https://dc.lft.to/lastmile_qr_scan", "ios": "https://dc.lft.to/lastmile_qr_scan"}, "type": "electric_scooter", "lat": 38.877814666666666, "is_reserved": 0, "fusion_lat": 0.0}, {"bike_id": "a8fbbd7b8f1338fe5077eabab7a13cbb", "fusion_lon": 0.0, "lon": -76.98642466666666, "name": "a8fbbd7b8f1338fe5077eabab7a13cbb", "is_disabled": 0, "rental_uris": {"android": "https://dc.lft.to/lastmile_qr_scan", "ios": "https://dc.lft.to/lastmile_qr_scan"}, "type": "electric_scooter", "lat": 38.90142183333333, "is_reserved": 0, "fusion_lat": 0.0}, {"bike_id": "b524a840d782af749186ec6de58bc079", "fusion_lon": 0.0, "lon": -76.9888855, "name": "b524a840d782af749186ec6de58bc079", "is_disabled": 0, "rental_uris": {"android": "https://dc.lft.to/lastmile_qr_scan", "ios": "https://dc.lft.to/lastmile_qr_scan"}, "type": "electric_scooter", "lat": 38.866681666666665, "is_reserved": 0, "fusion_lat": 0.0}, {"bike_id": "58e169708e3bf9b696f0349fcea29af6", "fusion_lon": 0.0, "lon": -77.028099, "name": "58e169708e3bf9b696f0349fcea29af6", "is_disabled": 0, "rental_uris": {"android": "https://dc.lft.to/lastmile_qr_scan", "ios": "https://dc.lft.to/lastmile_qr_scan"}, "type": "electric_scooter", "lat": 38.93088766666666, "is_reserved": 0, "fusion_lat": 0.0}, {"bike_id": "61a5e58a1c999a35176e4280c1f702ac", "fusion_lon": 0.0, "lon": -77.04618766666667, "name": "61a5e58a1c999a35176e4280c1f702ac", "is_disabled": 0, "rental_uris": {"android": "https://dc.lft.to/lastmile_qr_scan", "ios": "https://dc.lft.to/lastmile_qr_scan"}, "type": "electric_scooter", "lat": 38.90970566666667, "is_reserved": 0, "fusion_lat": 0.0}, {"bike_id": "e4a4b8712effa41cf6dd122e080dabc8", "fusion_lon": 0.0, "lon": -77.00306866666666, "name": "e4a4b8712effa41cf6dd122e080dabc8", "is_disabled": 0, "rental_uris": {"android": "https://dc.lft.to/lastmile_qr_scan", "ios": "https://dc.lft.to/lastmile_qr_scan"}, "type": "electric_scooter", "lat": 38.89230883333333, "is_reserved": 0, "fusion_lat": 0.0}, {"bike_id": "92c98f8dfd20e011eec9f341a2844395", "fusion_lon": 0.0, "lon": -77.0276195, "name": "92c98f8dfd20e011eec9f341a2844395", "is_disabled": 0, "rental_uris": {"android": "https://dc.lft.to/lastmile_qr_scan", "ios": "https://dc.lft.to/lastmile_qr_scan"}, "type": "electric_scooter", "lat": 38.954322, "is_reserved": 0, "fusion_lat": 0.0}, {"bike_id": "6b84dc70e348704caa0bf88494163d77", "fusion_lon": 0.0, "lon": -77.05438783333334, "name": "6b84dc70e348704caa0bf88494163d77", "is_disabled": 0, "rental_uris": {"android": "https://dc.lft.to/lastmile_qr_scan", "ios": "https://dc.lft.to/lastmile_qr_scan"}, "type": "electric_scooter", "lat": 38.896088666666664, "is_reserved": 0, "fusion_lat": 0.0}, {"bike_id": "af51f6510a7acfe2e90c3abf793e59a6", "fusion_lon": 0.0, "lon": -76.96526916666667, "name": "af51f6510a7acfe2e90c3abf793e59a6", "is_disabled": 0, "rental_uris": {"android": "https://dc.lft.to/lastmile_qr_scan", "ios": "https://dc.lft.to/lastmile_qr_scan"}, "type": "electric_scooter", "lat": 38.8763375, "is_reserved": 0, "fusion_lat": 0.0}, {"bike_id": "516c214f4e724ad0b33b40d1dc31c063", "fusion_lon": 0.0, "lon": -76.90971333333333, "name": "516c214f4e724ad0b33b40d1dc31c063", "is_disabled": 0, "rental_uris": {"android": "https://dc.lft.to/lastmile_qr_scan", "ios": "https://dc.lft.to/lastmile_qr_scan"}, "type": "electric_bike", "lat": 38.85429933333333, "is_reserved": 0, "fusion_lat": 0.0}, {"bike_id": "6d2b2ac46642362d26fcf83f306fdb56", "fusion_lon": 0.0, "lon": -77.02313233333334, "name": "6d2b2ac46642362d26fcf83f306fdb56", "is_disabled": 0, "rental_uris": {"android": "https://dc.lft.to/lastmile_qr_scan", "ios": "https://dc.lft.to/lastmile_qr_scan"}, "type": "electric_scooter", "lat": 38.91788016666667, "is_reserved": 0, "fusion_lat": 0.0}, {"bike_id": "aa808a1cee63a3a6c286db6944a585f6", "fusion_lon": 0.0, "lon": -77.05016733333333, "name": "aa808a1cee63a3a6c286db6944a585f6", "is_disabled": 0, "rental_uris": {"android": "https://dc.lft.to/lastmile_qr_scan", "ios": "https://dc.lft.to/lastmile_qr_scan"}, "type": "electric_scooter", "lat": 38.896571, "is_reserved": 0, "fusion_lat": 0.0}, {"bike_id": "b796659cce56dd4e4e9fe1e0fe459756", "fusion_lon": 0.0, "lon": -77.03331266666666, "name": "b796659cce56dd4e4e9fe1e0fe459756", "is_disabled": 0, "rental_uris": {"android": "https://dc.lft.to/lastmile_qr_scan", "ios": "https://dc.lft.to/lastmile_qr_scan"}, "type": "electric_scooter", "lat": 38.92883, "is_reserved": 0, "fusion_lat": 0.0}, {"bike_id": "81c300ec15c38e0290e3e77424c6b586", "fusion_lon": 0.0, "lon": -77.02687016666667, "name": "81c300ec15c38e0290e3e77424c6b586", "is_disabled": 0, "rental_uris": {"android": "https://dc.lft.to/lastmile_qr_scan", "ios": "https://dc.lft.to/lastmile_qr_scan"}, "type": "electric_scooter", "lat": 38.88132266666667, "is_reserved": 0, "fusion_lat": 0.0}, {"bike_id": "3982f0a5be9b245979a4403caac85c50", "fusion_lon": 0.0, "lon": -77.04183033333334, "name": "3982f0a5be9b245979a4403caac85c50", "is_disabled": 0, "rental_uris": {"android": "https://dc.lft.to/lastmile_qr_scan", "ios": "https://dc.lft.to/lastmile_qr_scan"}, "type": "electric_scooter", "lat": 38.901465, "is_reserved": 0, "fusion_lat": 0.0}, {"bike_id": "43e5706512df7b34d5bd47b4dc7570e6", "fusion_lon": 0.0, "lon": -77.02817766666666, "name": "43e5706512df7b34d5bd47b4dc7570e6", "is_disabled": 0, "rental_uris": {"android": "https://dc.lft.to/lastmile_qr_scan", "ios": "https://dc.lft.to/lastmile_qr_scan"}, "type": "electric_scooter", "lat": 38.916907333333334, "is_reserved": 0, "fusion_lat": 0.0}, {"bike_id": "757e138253d4f63fbc8df2d8724bb471", "fusion_lon": 0.0, "lon": -77.0433135, "name": "757e138253d4f63fbc8df2d8724bb471", "is_disabled": 0, "rental_uris": {"android": "https://dc.lft.to/lastmile_qr_scan", "ios": "https://dc.lft.to/lastmile_qr_scan"}, "type": "electric_scooter", "lat": 38.89227966666667, "is_reserved": 0, "fusion_lat": 0.0}, {"bike_id": "e4a0569881ada154c43fb206348fed07", "fusion_lon": 0.0, "lon": -76.99775916666667, "name": "e4a0569881ada154c43fb206348fed07", "is_disabled": 0, "rental_uris": {"android": "https://dc.lft.to/lastmile_qr_scan", "ios": "https://dc.lft.to/lastmile_qr_scan"}, "type": "electric_scooter", "lat": 38.926544666666665, "is_reserved": 0, "fusion_lat": 0.0}, {"bike_id": "1d536b2303c50e980798aae777b3ff02", "fusion_lon": 0.0, "lon": -77.04098333333333, "name": "1d536b2303c50e980798aae777b3ff02", "is_disabled": 0, "rental_uris": {"android": "https://dc.lft.to/lastmile_qr_scan", "ios": "https://dc.lft.to/lastmile_qr_scan"}, "type": "electric_scooter", "lat": 38.91784166666667, "is_reserved": 0, "fusion_lat": 0.0}, {"bike_id": "59ad69c6277140a959eff85dcd94d00b", "fusion_lon": 0.0, "lon": -77.05030083333334, "name": "59ad69c6277140a959eff85dcd94d00b", "is_disabled": 0, "rental_uris": {"android": "https://dc.lft.to/lastmile_qr_scan", "ios": "https://dc.lft.to/lastmile_qr_scan"}, "type": "electric_scooter", "lat": 38.90543016666667, "is_reserved": 0, "fusion_lat": 0.0}, {"bike_id": "2017fded3b4e298859624fc5c9a8e187", "fusion_lon": 0.0, "lon": -77.0415745, "name": "2017fded3b4e298859624fc5c9a8e187", "is_disabled": 0, "rental_uris": {"android": "https://dc.lft.to/lastmile_qr_scan", "ios": "https://dc.lft.to/lastmile_qr_scan"}, "type": "electric_scooter", "lat": 38.906088833333335, "is_reserved": 0, "fusion_lat": 0.0}, {"bike_id": "74c1df02626943a7661677410ab5783b", "fusion_lon": 0.0, "lon": -77.04393383333333, "name": "74c1df02626943a7661677410ab5783b", "is_disabled": 0, "rental_uris": {"android": "https://dc.lft.to/lastmile_qr_scan", "ios": "https://dc.lft.to/lastmile_qr_scan"}, "type": "electric_scooter", "lat": 38.89842433333333, "is_reserved": 0, "fusion_lat": 0.0}, {"bike_id": "bf8378b4172c8169c0fbe8be97305148", "fusion_lon": 0.0, "lon": -77.02257183333333, "name": "bf8378b4172c8169c0fbe8be97305148", "is_disabled": 0, "rental_uris": {"android": "https://dc.lft.to/lastmile_qr_scan", "ios": "https://dc.lft.to/lastmile_qr_scan"}, "type": "electric_scooter", "lat": 38.923105, "is_reserved": 0, "fusion_lat": 0.0}, {"bike_id": "954e3167f9eeeb73e5f1d2bcd51c8f40", "fusion_lon": 0.0, "lon": -76.9977695, "name": "954e3167f9eeeb73e5f1d2bcd51c8f40", "is_disabled": 0, "rental_uris": {"android": "https://dc.lft.to/lastmile_qr_scan", "ios": "https://dc.lft.to/lastmile_qr_scan"}, "type": "electric_scooter", "lat": 38.84437583333333, "is_reserved": 0, "fusion_lat": 0.0}, {"bike_id": "af1834a5df999efb51052f35994d22d1", "fusion_lon": 0.0, "lon": -76.995552, "name": "af1834a5df999efb51052f35994d22d1", "is_disabled": 0, "rental_uris": {"android": "https://dc.lft.to/lastmile_qr_scan", "ios": "https://dc.lft.to/lastmile_qr_scan"}, "type": "electric_scooter", "lat": 38.8827775, "is_reserved": 0, "fusion_lat": 0.0}, {"bike_id": "a68a30d32a4c3adb21fcbb83c5a0a714", "fusion_lon": 0.0, "lon": -76.983147, "name": "a68a30d32a4c3adb21fcbb83c5a0a714", "is_disabled": 0, "rental_uris": {"android": "https://dc.lft.to/lastmile_qr_scan", "ios": "https://dc.lft.to/lastmile_qr_scan"}, "type": "electric_scooter", "lat": 38.86895233333333, "is_reserved": 0, "fusion_lat": 0.0}, {"bike_id": "f966bd665b419aa96c31ba6f4b4fa27b", "fusion_lon": 0.0, "lon": -77.02419316666666, "name": "f966bd665b419aa96c31ba6f4b4fa27b", "is_disabled": 0, "rental_uris": {"android": "https://dc.lft.to/lastmile_qr_scan", "ios": "https://dc.lft.to/lastmile_qr_scan"}, "type": "electric_scooter", "lat": 38.896399, "is_reserved": 0, "fusion_lat": 0.0}, {"bike_id": "4733d6648a8adb88fb77e705ebae2eaf", "fusion_lon": 0.0, "lon": -77.026927, "name": "4733d6648a8adb88fb77e705ebae2eaf", "is_disabled": 0, "rental_uris": {"android": "https://dc.lft.to/lastmile_qr_scan", "ios": "https://dc.lft.to/lastmile_qr_scan"}, "type": "electric_scooter", "lat": 38.8960525, "is_reserved": 0, "fusion_lat": 0.0}, {"bike_id": "e424b55d30e5233b9e79e62686c5a3c2", "fusion_lon": 0.0, "lon": -77.03051016666667, "name": "e424b55d30e5233b9e79e62686c5a3c2", "is_disabled": 0, "rental_uris": {"android": "https://dc.lft.to/lastmile_qr_scan", "ios": "https://dc.lft.to/lastmile_qr_scan"}, "type": "electric_scooter", "lat": 38.884131833333335, "is_reserved": 0, "fusion_lat": 0.0}, {"bike_id": "6de1aa57b68af396ab1f08c948b6a44d", "fusion_lon": 0.0, "lon": -77.0415865, "name": "6de1aa57b68af396ab1f08c948b6a44d", "is_disabled": 0, "rental_uris": {"android": "https://dc.lft.to/lastmile_qr_scan", "ios": "https://dc.lft.to/lastmile_qr_scan"}, "type": "electric_scooter", "lat": 38.9165755, "is_reserved": 0, "fusion_lat": 0.0}, {"bike_id": "fdbabd0582a56366969cbe51ad00a1f9", "fusion_lon": 0.0, "lon": -77.0288825, "name": "fdbabd0582a56366969cbe51ad00a1f9", "is_disabled": 0, "rental_uris": {"android": "https://dc.lft.to/lastmile_qr_scan", "ios": "https://dc.lft.to/lastmile_qr_scan"}, "type": "electric_scooter", "lat": 38.917018166666665, "is_reserved": 0, "fusion_lat": 0.0}, {"bike_id": "67ad0425aea07ee2f9a3d0d2b713c44d", "fusion_lon": 0.0, "lon": -76.99559283333333, "name": "67ad0425aea07ee2f9a3d0d2b713c44d", "is_disabled": 0, "rental_uris": {"android": "https://dc.lft.to/lastmile_qr_scan", "ios": "https://dc.lft.to/lastmile_qr_scan"}, "type": "electric_scooter", "lat": 38.86262816666667, "is_reserved": 0, "fusion_lat": 0.0}, {"bike_id": "e71e8249b99289ac0e6cf480198edba8", "fusion_lon": 0.0, "lon": -77.03180183333333, "name": "e71e8249b99289ac0e6cf480198edba8", "is_disabled": 0, "rental_uris": {"android": "https://dc.lft.to/lastmile_qr_scan", "ios": "https://dc.lft.to/lastmile_qr_scan"}, "type": "electric_scooter", "lat": 38.91101483333333, "is_reserved": 0, "fusion_lat": 0.0}, {"bike_id": "35b7a7a0cf3a1f36195f3708f8fe105a", "fusion_lon": 0.0, "lon": -77.0215775, "name": "35b7a7a0cf3a1f36195f3708f8fe105a", "is_disabled": 0, "rental_uris": {"android": "https://dc.lft.to/lastmile_qr_scan", "ios": "https://dc.lft.to/lastmile_qr_scan"}, "type": "electric_scooter", "lat": 38.92504816666667, "is_reserved": 0, "fusion_lat": 0.0}, {"bike_id": "7c2926dab1712e3bfeb5a655484ccfdb", "fusion_lon": 0.0, "lon": -77.04862383333334, "name": "7c2926dab1712e3bfeb5a655484ccfdb", "is_disabled": 0, "rental_uris": {"android": "https://dc.lft.to/lastmile_qr_scan", "ios": "https://dc.lft.to/lastmile_qr_scan"}, "type": "electric_scooter", "lat": 38.90481533333333, "is_reserved": 0, "fusion_lat": 0.0}, {"bike_id": "46fdfb404889d70a083367bd229886f8", "fusion_lon": 0.0, "lon": -77.21647316666666, "name": "46fdfb404889d70a083367bd229886f8", "is_disabled": 0, "rental_uris": {"android": "https://dc.lft.to/lastmile_qr_scan", "ios": "https://dc.lft.to/lastmile_qr_scan"}, "type": "electric_bike", "lat": 38.930166166666666, "is_reserved": 0, "fusion_lat": 0.0}, {"bike_id": "b0efcf397ba8ab36107e9571943898e4", "fusion_lon": 0.0, "lon": -77.05874116666666, "name": "b0efcf397ba8ab36107e9571943898e4", "is_disabled": 0, "rental_uris": {"android": "https://dc.lft.to/lastmile_qr_scan", "ios": "https://dc.lft.to/lastmile_qr_scan"}, "type": "electric_bike", "lat": 38.95904316666667, "is_reserved": 0, "fusion_lat": 0.0}, {"bike_id": "aac8b3dab0edcf8885240c11d8a7d076", "fusion_lon": 0.0, "lon": -76.937374, "name": "aac8b3dab0edcf8885240c11d8a7d076", "is_disabled": 0, "rental_uris": {"android": "https://dc.lft.to/lastmile_qr_scan", "ios": "https://dc.lft.to/lastmile_qr_scan"}, "type": "electric_scooter", "lat": 38.890244, "is_reserved": 0, "fusion_lat": 0.0}, {"bike_id": "1d71ef810ece047610e66ddc1793bcfc", "fusion_lon": 0.0, "lon": -77.03399866666666, "name": "1d71ef810ece047610e66ddc1793bcfc", "is_disabled": 0, "rental_uris": {"android": "https://dc.lft.to/lastmile_qr_scan", "ios": "https://dc.lft.to/lastmile_qr_scan"}, "type": "electric_scooter", "lat": 38.90717, "is_reserved": 0, "fusion_lat": 0.0}, {"bike_id": "5b7b0b0273392310a1a3487107f723d2", "fusion_lon": 0.0, "lon": -77.0129195, "name": "5b7b0b0273392310a1a3487107f723d2", "is_disabled": 0, "rental_uris": {"android": "https://dc.lft.to/lastmile_qr_scan", "ios": "https://dc.lft.to/lastmile_qr_scan"}, "type": "electric_bike", "lat": 39.00392333333333, "is_reserved": 0, "fusion_lat": 0.0}, {"bike_id": "05a373f8d27e6e244c7a320b53d677a3", "fusion_lon": 0.0, "lon": -77.046542, "name": "05a373f8d27e6e244c7a320b53d677a3", "is_disabled": 0, "rental_uris": {"android": "https://dc.lft.to/lastmile_qr_scan", "ios": "https://dc.lft.to/lastmile_qr_scan"}, "type": "electric_bike", "lat": 39.05509033333333, "is_reserved": 0, "fusion_lat": 0.0}, {"bike_id": "47e5fb0dc83897aa7ce043529e8dc8da", "fusion_lon": 0.0, "lon": -76.98885716666666, "name": "47e5fb0dc83897aa7ce043529e8dc8da", "is_disabled": 0, "rental_uris": {"android": "https://dc.lft.to/lastmile_qr_scan", "ios": "https://dc.lft.to/lastmile_qr_scan"}, "type": "electric_scooter", "lat": 38.866673666666664, "is_reserved": 0, "fusion_lat": 0.0}, {"bike_id": "df2b5916c50d61d5d62345ac0463c9e0", "fusion_lon": 0.0, "lon": -77.03417233333333, "name": "df2b5916c50d61d5d62345ac0463c9e0", "is_disabled": 0, "rental_uris": {"android": "https://dc.lft.to/lastmile_qr_scan", "ios": "https://dc.lft.to/lastmile_qr_scan"}, "type": "electric_scooter", "lat": 38.90578766666667, "is_reserved": 0, "fusion_lat": 0.0}, {"bike_id": "7af9511e1520248bfc64ae6a9c54b5ae", "fusion_lon": 0.0, "lon": -77.028715, "name": "7af9511e1520248bfc64ae6a9c54b5ae", "is_disabled": 0, "rental_uris": {"android": "https://dc.lft.to/lastmile_qr_scan", "ios": "https://dc.lft.to/lastmile_qr_scan"}, "type": "electric_bike", "lat": 38.998748666666664, "is_reserved": 0, "fusion_lat": 0.0}, {"bike_id": "0476d8279f4423b8a224c32b401ab3b6", "fusion_lon": 0.0, "lon": -77.024036, "name": "0476d8279f4423b8a224c32b401ab3b6", "is_disabled": 0, "rental_uris": {"android": "https://dc.lft.to/lastmile_qr_scan", "ios": "https://dc.lft.to/lastmile_qr_scan"}, "type": "electric_scooter", "lat": 38.905768333333334, "is_reserved": 0, "fusion_lat": 0.0}, {"bike_id": "927c27700df31e82d854c8678e8e6b3e", "fusion_lon": 0.0, "lon": -77.00073033333334, "name": "927c27700df31e82d854c8678e8e6b3e", "is_disabled": 0, "rental_uris": {"android": "https://dc.lft.to/lastmile_qr_scan", "ios": "https://dc.lft.to/lastmile_qr_scan"}, "type": "electric_scooter", "lat": 38.925545, "is_reserved": 0, "fusion_lat": 0.0}, {"bike_id": "92045300a2b28c6e6c7f7af6766765f3", "fusion_lon": 0.0, "lon": -77.00753283333333, "name": "92045300a2b28c6e6c7f7af6766765f3", "is_disabled": 0, "rental_uris": {"android": "https://dc.lft.to/lastmile_qr_scan", "ios": "https://dc.lft.to/lastmile_qr_scan"}, "type": "electric_scooter", "lat": 38.898431, "is_reserved": 0, "fusion_lat": 0.0}, {"bike_id": "cbffd7d6c0ef2f88577d640f48b895f6", "fusion_lon": 0.0, "lon": -76.99968333333334, "name": "cbffd7d6c0ef2f88577d640f48b895f6", "is_disabled": 0, "rental_uris": {"android": "https://dc.lft.to/lastmile_qr_scan", "ios": "https://dc.lft.to/lastmile_qr_scan"}, "type": "electric_scooter", "lat": 38.908575666666664, "is_reserved": 0, "fusion_lat": 0.0}, {"bike_id": "53a6686a7b08db75e3cf717b9e1f136f", "fusion_lon": 0.0, "lon": -77.03466583333334, "name": "53a6686a7b08db75e3cf717b9e1f136f", "is_disabled": 0, "rental_uris": {"android": "https://dc.lft.to/lastmile_qr_scan", "ios": "https://dc.lft.to/lastmile_qr_scan"}, "type": "electric_scooter", "lat": 38.908823166666664, "is_reserved": 0, "fusion_lat": 0.0}, {"bike_id": "a86b1a8604e7bf1c1f6cc36701addfc6", "fusion_lon": 0.0, "lon": -76.96540616666667, "name": "a86b1a8604e7bf1c1f6cc36701addfc6", "is_disabled": 0, "rental_uris": {"android": "https://dc.lft.to/lastmile_qr_scan", "ios": "https://dc.lft.to/lastmile_qr_scan"}, "type": "electric_scooter", "lat": 38.91848316666667, "is_reserved": 0, "fusion_lat": 0.0}, {"bike_id": "13bd7a5cc77039f4d56d7f259c1d4c44", "fusion_lon": 0.0, "lon": -77.02364283333333, "name": "13bd7a5cc77039f4d56d7f259c1d4c44", "is_disabled": 0, "rental_uris": {"android": "https://dc.lft.to/lastmile_qr_scan", "ios": "https://dc.lft.to/lastmile_qr_scan"}, "type": "electric_scooter", "lat": 38.892246, "is_reserved": 0, "fusion_lat": 0.0}, {"bike_id": "64df693d9ebcb4b7d32aaf1680a02f09", "fusion_lon": 0.0, "lon": -77.040727, "name": "64df693d9ebcb4b7d32aaf1680a02f09", "is_disabled": 0, "rental_uris": {"android": "https://dc.lft.to/lastmile_qr_scan", "ios": "https://dc.lft.to/lastmile_qr_scan"}, "type": "electric_scooter", "lat": 38.90505316666667, "is_reserved": 0, "fusion_lat": 0.0}, {"bike_id": "a47f9f6cedf4553576c112dcd8938b9a", "fusion_lon": 0.0, "lon": -77.02907066666667, "name": "a47f9f6cedf4553576c112dcd8938b9a", "is_disabled": 0, "rental_uris": {"android": "https://dc.lft.to/lastmile_qr_scan", "ios": "https://dc.lft.to/lastmile_qr_scan"}, "type": "electric_scooter", "lat": 38.9257975, "is_reserved": 0, "fusion_lat": 0.0}, {"bike_id": "dce47365d3657ba8c187fb66caed3546", "fusion_lon": 0.0, "lon": -77.01604533333334, "name": "dce47365d3657ba8c187fb66caed3546", "is_disabled": 0, "rental_uris": {"android": "https://dc.lft.to/lastmile_qr_scan", "ios": "https://dc.lft.to/lastmile_qr_scan"}, "type": "electric_scooter", "lat": 38.92058466666667, "is_reserved": 0, "fusion_lat": 0.0}, {"bike_id": "85e207d276af00998194144df4f03582", "fusion_lon": 0.0, "lon": -77.101269, "name": "85e207d276af00998194144df4f03582", "is_disabled": 0, "rental_uris": {"android": "https://dc.lft.to/lastmile_qr_scan", "ios": "https://dc.lft.to/lastmile_qr_scan"}, "type": "electric_bike", "lat": 38.852123666666664, "is_reserved": 0, "fusion_lat": 0.0}, {"bike_id": "704556073f1a5ab836e4faf90817b4ef", "fusion_lon": 0.0, "lon": -76.991385, "name": "704556073f1a5ab836e4faf90817b4ef", "is_disabled": 0, "rental_uris": {"android": "https://dc.lft.to/lastmile_qr_scan", "ios": "https://dc.lft.to/lastmile_qr_scan"}, "type": "electric_bike", "lat": 38.8973695, "is_reserved": 0, "fusion_lat": 0.0}, {"bike_id": "4e235a5059f870bd486b24b8282977ee", "fusion_lon": 0.0, "lon": -76.93185466666667, "name": "4e235a5059f870bd486b24b8282977ee", "is_disabled": 0, "rental_uris": {"android": "https://dc.lft.to/lastmile_qr_scan", "ios": "https://dc.lft.to/lastmile_qr_scan"}, "type": "electric_scooter", "lat": 38.898801666666664, "is_reserved": 0, "fusion_lat": 0.0}, {"bike_id": "42b39b69a2fc0faf3e4f26c3a40d6c96", "fusion_lon": 0.0, "lon": -77.03996816666667, "name": "42b39b69a2fc0faf3e4f26c3a40d6c96", "is_disabled": 0, "rental_uris": {"android": "https://dc.lft.to/lastmile_qr_scan", "ios": "https://dc.lft.to/lastmile_qr_scan"}, "type": "electric_scooter", "lat": 38.905607333333336, "is_reserved": 0, "fusion_lat": 0.0}, {"bike_id": "2bddf1ec41d5110bf1bc0c900cce1339", "fusion_lon": 0.0, "lon": -77.03701666666667, "name": "2bddf1ec41d5110bf1bc0c900cce1339", "is_disabled": 0, "rental_uris": {"android": "https://dc.lft.to/lastmile_qr_scan", "ios": "https://dc.lft.to/lastmile_qr_scan"}, "type": "electric_scooter", "lat": 38.926545, "is_reserved": 0, "fusion_lat": 0.0}, {"bike_id": "22719f3afc9ea2bba0eb4f9252efbd0a", "fusion_lon": 0.0, "lon": -76.99092733333333, "name": "22719f3afc9ea2bba0eb4f9252efbd0a", "is_disabled": 0, "rental_uris": {"android": "https://dc.lft.to/lastmile_qr_scan", "ios": "https://dc.lft.to/lastmile_qr_scan"}, "type": "electric_scooter", "lat": 38.92955516666667, "is_reserved": 0, "fusion_lat": 0.0}, {"bike_id": "15de348fe3f19d317eedeb60d7812dca", "fusion_lon": 0.0, "lon": -77.02592966666667, "name": "15de348fe3f19d317eedeb60d7812dca", "is_disabled": 0, "rental_uris": {"android": "https://dc.lft.to/lastmile_qr_scan", "ios": "https://dc.lft.to/lastmile_qr_scan"}, "type": "electric_scooter", "lat": 38.88363233333333, "is_reserved": 0, "fusion_lat": 0.0}, {"bike_id": "d96ec5b1a7c7f618e03fb8f2f7198b30", "fusion_lon": 0.0, "lon": -77.02325783333333, "name": "d96ec5b1a7c7f618e03fb8f2f7198b30", "is_disabled": 0, "rental_uris": {"android": "https://dc.lft.to/lastmile_qr_scan", "ios": "https://dc.lft.to/lastmile_qr_scan"}, "type": "electric_scooter", "lat": 38.927082, "is_reserved": 0, "fusion_lat": 0.0}, {"bike_id": "2d3e01b7d979c3cc48ca4f81a7d09a3d", "fusion_lon": 0.0, "lon": -77.03436116666667, "name": "2d3e01b7d979c3cc48ca4f81a7d09a3d", "is_disabled": 0, "rental_uris": {"android": "https://dc.lft.to/lastmile_qr_scan", "ios": "https://dc.lft.to/lastmile_qr_scan"}, "type": "electric_scooter", "lat": 38.90765016666667, "is_reserved": 0, "fusion_lat": 0.0}, {"bike_id": "7769b7b71c89d51fcaa22d9412627bb7", "fusion_lon": 0.0, "lon": -77.03970066666666, "name": "7769b7b71c89d51fcaa22d9412627bb7", "is_disabled": 0, "rental_uris": {"android": "https://dc.lft.to/lastmile_qr_scan", "ios": "https://dc.lft.to/lastmile_qr_scan"}, "type": "electric_scooter", "lat": 38.906313833333336, "is_reserved": 0, "fusion_lat": 0.0}, {"bike_id": "fe8a9ea76d6e69f226c18519cda073de", "fusion_lon": 0.0, "lon": -77.03505116666666, "name": "fe8a9ea76d6e69f226c18519cda073de", "is_disabled": 0, "rental_uris": {"android": "https://dc.lft.to/lastmile_qr_scan", "ios": "https://dc.lft.to/lastmile_qr_scan"}, "type": "electric_scooter", "lat": 38.92642933333333, "is_reserved": 0, "fusion_lat": 0.0}, {"bike_id": "566fea18ef58a3036310b7597a6c5e1c", "fusion_lon": 0.0, "lon": -77.01796733333333, "name": "566fea18ef58a3036310b7597a6c5e1c", "is_disabled": 0, "rental_uris": {"android": "https://dc.lft.to/lastmile_qr_scan", "ios": "https://dc.lft.to/lastmile_qr_scan"}, "type": "electric_scooter", "lat": 38.908281333333335, "is_reserved": 0, "fusion_lat": 0.0}, {"bike_id": "735f68be117a778670c818081357842a", "fusion_lon": 0.0, "lon": -77.016519, "name": "735f68be117a778670c818081357842a", "is_disabled": 0, "rental_uris": {"android": "https://dc.lft.to/lastmile_qr_scan", "ios": "https://dc.lft.to/lastmile_qr_scan"}, "type": "electric_scooter", "lat": 38.915976666666666, "is_reserved": 0, "fusion_lat": 0.0}, {"bike_id": "54a354d08e823080b72d937061360ea9", "fusion_lon": 0.0, "lon": -76.99782116666667, "name": "54a354d08e823080b72d937061360ea9", "is_disabled": 0, "rental_uris": {"android": "https://dc.lft.to/lastmile_qr_scan", "ios": "https://dc.lft.to/lastmile_qr_scan"}, "type": "electric_scooter", "lat": 38.90908833333334, "is_reserved": 0, "fusion_lat": 0.0}, {"bike_id": "110d4af7c6089751d28437292a2af93e", "fusion_lon": 0.0, "lon": -76.93609116666667, "name": "110d4af7c6089751d28437292a2af93e", "is_disabled": 0, "rental_uris": {"android": "https://dc.lft.to/lastmile_qr_scan", "ios": "https://dc.lft.to/lastmile_qr_scan"}, "type": "electric_scooter", "lat": 38.886748833333336, "is_reserved": 0, "fusion_lat": 0.0}, {"bike_id": "0ab2fcc8ea5856084b6274f446f40e02", "fusion_lon": 0.0, "lon": -77.0250655, "name": "0ab2fcc8ea5856084b6274f446f40e02", "is_disabled": 0, "rental_uris": {"android": "https://dc.lft.to/lastmile_qr_scan", "ios": "https://dc.lft.to/lastmile_qr_scan"}, "type": "electric_scooter", "lat": 38.915664666666665, "is_reserved": 0, "fusion_lat": 0.0}, {"bike_id": "28f4f2324d0b0a7b34cce4a4e8014aaa", "fusion_lon": 0.0, "lon": -77.04803416666667, "name": "28f4f2324d0b0a7b34cce4a4e8014aaa", "is_disabled": 0, "rental_uris": {"android": "https://dc.lft.to/lastmile_qr_scan", "ios": "https://dc.lft.to/lastmile_qr_scan"}, "type": "electric_scooter", "lat": 38.8922765, "is_reserved": 0, "fusion_lat": 0.0}, {"bike_id": "392811fb378780caef7a05f1332e460b", "fusion_lon": 0.0, "lon": -77.02638316666666, "name": "392811fb378780caef7a05f1332e460b", "is_disabled": 0, "rental_uris": {"android": "https://dc.lft.to/lastmile_qr_scan", "ios": "https://dc.lft.to/lastmile_qr_scan"}, "type": "electric_scooter", "lat": 38.89721133333333, "is_reserved": 0, "fusion_lat": 0.0}, {"bike_id": "8fee31562bda63fd67adfb5980d43da5", "fusion_lon": 0.0, "lon": -77.02014666666666, "name": "8fee31562bda63fd67adfb5980d43da5", "is_disabled": 0, "rental_uris": {"android": "https://dc.lft.to/lastmile_qr_scan", "ios": "https://dc.lft.to/lastmile_qr_scan"}, "type": "electric_scooter", "lat": 38.93024183333333, "is_reserved": 0, "fusion_lat": 0.0}, {"bike_id": "0c5daaa146dca568eea1e073977d49a3", "fusion_lon": 0.0, "lon": -77.042816, "name": "0c5daaa146dca568eea1e073977d49a3", "is_disabled": 0, "rental_uris": {"android": "https://dc.lft.to/lastmile_qr_scan", "ios": "https://dc.lft.to/lastmile_qr_scan"}, "type": "electric_scooter", "lat": 38.90563433333333, "is_reserved": 0, "fusion_lat": 0.0}, {"bike_id": "34e6d10e3eb71764b5c619595fac0423", "fusion_lon": 0.0, "lon": -77.038022, "name": "34e6d10e3eb71764b5c619595fac0423", "is_disabled": 0, "rental_uris": {"android": "https://dc.lft.to/lastmile_qr_scan", "ios": "https://dc.lft.to/lastmile_qr_scan"}, "type": "electric_scooter", "lat": 38.92519383333333, "is_reserved": 0, "fusion_lat": 0.0}, {"bike_id": "7bb17ba4ae651f59980cd68b792d021f", "fusion_lon": 0.0, "lon": -76.98616, "name": "7bb17ba4ae651f59980cd68b792d021f", "is_disabled": 0, "rental_uris": {"android": "https://dc.lft.to/lastmile_qr_scan", "ios": "https://dc.lft.to/lastmile_qr_scan"}, "type": "electric_scooter", "lat": 38.938362833333336, "is_reserved": 0, "fusion_lat": 0.0}, {"bike_id": "2f9242f02e77a1033aeb839a35f3801d", "fusion_lon": 0.0, "lon": -77.02717416666667, "name": "2f9242f02e77a1033aeb839a35f3801d", "is_disabled": 0, "rental_uris": {"android": "https://dc.lft.to/lastmile_qr_scan", "ios": "https://dc.lft.to/lastmile_qr_scan"}, "type": "electric_scooter", "lat": 38.906774666666664, "is_reserved": 0, "fusion_lat": 0.0}, {"bike_id": "0cf8b886c357df335a537ec0b654b30f", "fusion_lon": 0.0, "lon": -76.99608783333333, "name": "0cf8b886c357df335a537ec0b654b30f", "is_disabled": 0, "rental_uris": {"android": "https://dc.lft.to/lastmile_qr_scan", "ios": "https://dc.lft.to/lastmile_qr_scan"}, "type": "electric_scooter", "lat": 38.90374516666667, "is_reserved": 0, "fusion_lat": 0.0}, {"bike_id": "f0fbb9f1ef84a4df23704b6181765d6f", "fusion_lon": 0.0, "lon": -77.02708783333334, "name": "f0fbb9f1ef84a4df23704b6181765d6f", "is_disabled": 0, "rental_uris": {"android": "https://dc.lft.to/lastmile_qr_scan", "ios": "https://dc.lft.to/lastmile_qr_scan"}, "type": "electric_scooter", "lat": 38.928897, "is_reserved": 0, "fusion_lat": 0.0}, {"bike_id": "744ce3c1f8f06953dd87cf9064b8bc35", "fusion_lon": 0.0, "lon": -77.03668683333333, "name": "744ce3c1f8f06953dd87cf9064b8bc35", "is_disabled": 0, "rental_uris": {"android": "https://dc.lft.to/lastmile_qr_scan", "ios": "https://dc.lft.to/lastmile_qr_scan"}, "type": "electric_scooter", "lat": 38.9272945, "is_reserved": 0, "fusion_lat": 0.0}, {"bike_id": "ae4903bd5aaef440acc1aa695970f435", "fusion_lon": 0.0, "lon": -77.025632, "name": "ae4903bd5aaef440acc1aa695970f435", "is_disabled": 0, "rental_uris": {"android": "https://dc.lft.to/lastmile_qr_scan", "ios": "https://dc.lft.to/lastmile_qr_scan"}, "type": "electric_scooter", "lat": 38.92543216666667, "is_reserved": 0, "fusion_lat": 0.0}, {"bike_id": "82f84626af752b68a3a72e2c591f6576", "fusion_lon": 0.0, "lon": -77.0185365, "name": "82f84626af752b68a3a72e2c591f6576", "is_disabled": 0, "rental_uris": {"android": "https://dc.lft.to/lastmile_qr_scan", "ios": "https://dc.lft.to/lastmile_qr_scan"}, "type": "electric_scooter", "lat": 38.91531666666667, "is_reserved": 0, "fusion_lat": 0.0}, {"bike_id": "d449ad679a34469f762ad05802a9007f", "fusion_lon": 0.0, "lon": -77.03171316666666, "name": "d449ad679a34469f762ad05802a9007f", "is_disabled": 0, "rental_uris": {"android": "https://dc.lft.to/lastmile_qr_scan", "ios": "https://dc.lft.to/lastmile_qr_scan"}, "type": "electric_scooter", "lat": 38.92879283333333, "is_reserved": 0, "fusion_lat": 0.0}, {"bike_id": "dd561f191f6a9cee6f9c09d4f729538b", "fusion_lon": 0.0, "lon": -77.027193, "name": "dd561f191f6a9cee6f9c09d4f729538b", "is_disabled": 0, "rental_uris": {"android": "https://dc.lft.to/lastmile_qr_scan", "ios": "https://dc.lft.to/lastmile_qr_scan"}, "type": "electric_scooter", "lat": 38.94964566666667, "is_reserved": 0, "fusion_lat": 0.0}, {"bike_id": "a600d92b649c64e163d35aee73b7dcd8", "fusion_lon": 0.0, "lon": -77.0177245, "name": "a600d92b649c64e163d35aee73b7dcd8", "is_disabled": 0, "rental_uris": {"android": "https://dc.lft.to/lastmile_qr_scan", "ios": "https://dc.lft.to/lastmile_qr_scan"}, "type": "electric_bike", "lat": 38.9828035, "is_reserved": 0, "fusion_lat": 0.0}, {"bike_id": "ae333dd672e635cc14c905e4d4c00dde", "fusion_lon": 0.0, "lon": -77.040994, "name": "ae333dd672e635cc14c905e4d4c00dde", "is_disabled": 0, "rental_uris": {"android": "https://dc.lft.to/lastmile_qr_scan", "ios": "https://dc.lft.to/lastmile_qr_scan"}, "type": "electric_scooter", "lat": 38.91780466666667, "is_reserved": 0, "fusion_lat": 0.0}, {"bike_id": "528996cea9120157d2a5893185624350", "fusion_lon": 0.0, "lon": -77.02402183333334, "name": "528996cea9120157d2a5893185624350", "is_disabled": 0, "rental_uris": {"android": "https://dc.lft.to/lastmile_qr_scan", "ios": "https://dc.lft.to/lastmile_qr_scan"}, "type": "electric_scooter", "lat": 38.93713916666667, "is_reserved": 0, "fusion_lat": 0.0}, {"bike_id": "b47ae4cc2fdb3986bb43f9de6f680d7b", "fusion_lon": 0.0, "lon": -76.9976025, "name": "b47ae4cc2fdb3986bb43f9de6f680d7b", "is_disabled": 0, "rental_uris": {"android": "https://dc.lft.to/lastmile_qr_scan", "ios": "https://dc.lft.to/lastmile_qr_scan"}, "type": "electric_scooter", "lat": 38.887723333333334, "is_reserved": 0, "fusion_lat": 0.0}, {"bike_id": "10fb99a3c7e25838994117769936aeed", "fusion_lon": 0.0, "lon": -76.9819455, "name": "10fb99a3c7e25838994117769936aeed", "is_disabled": 0, "rental_uris": {"android": "https://dc.lft.to/lastmile_qr_scan", "ios": "https://dc.lft.to/lastmile_qr_scan"}, "type": "electric_bike", "lat": 38.98510983333333, "is_reserved": 0, "fusion_lat": 0.0}, {"bike_id": "3afbcb11b7cbcf27295b06f04765de67", "fusion_lon": 0.0, "lon": -76.97806583333333, "name": "3afbcb11b7cbcf27295b06f04765de67", "is_disabled": 0, "rental_uris": {"android": "https://dc.lft.to/lastmile_qr_scan", "ios": "https://dc.lft.to/lastmile_qr_scan"}, "type": "electric_scooter", "lat": 38.894558833333335, "is_reserved": 0, "fusion_lat": 0.0}, {"bike_id": "47a5a50ae5948a5f2b03f4a4df59e7f8", "fusion_lon": 0.0, "lon": -77.01835533333333, "name": "47a5a50ae5948a5f2b03f4a4df59e7f8", "is_disabled": 0, "rental_uris": {"android": "https://dc.lft.to/lastmile_qr_scan", "ios": "https://dc.lft.to/lastmile_qr_scan"}, "type": "electric_scooter", "lat": 38.90409983333333, "is_reserved": 0, "fusion_lat": 0.0}, {"bike_id": "a114385d36a950783f745d61202317c3", "fusion_lon": 0.0, "lon": -77.01906383333333, "name": "a114385d36a950783f745d61202317c3", "is_disabled": 0, "rental_uris": {"android": "https://dc.lft.to/lastmile_qr_scan", "ios": "https://dc.lft.to/lastmile_qr_scan"}, "type": "electric_scooter", "lat": 38.923516666666664, "is_reserved": 0, "fusion_lat": 0.0}, {"bike_id": "0642380daf4d4774a84b6b156f0eea14", "fusion_lon": 0.0, "lon": -77.020873, "name": "0642380daf4d4774a84b6b156f0eea14", "is_disabled": 0, "rental_uris": {"android": "https://dc.lft.to/lastmile_qr_scan", "ios": "https://dc.lft.to/lastmile_qr_scan"}, "type": "electric_scooter", "lat": 38.94115016666667, "is_reserved": 0, "fusion_lat": 0.0}, {"bike_id": "a6bf049cdec3590bbf87ba258c53f588", "fusion_lon": 0.0, "lon": -76.942813, "name": "a6bf049cdec3590bbf87ba258c53f588", "is_disabled": 0, "rental_uris": {"android": "https://dc.lft.to/lastmile_qr_scan", "ios": "https://dc.lft.to/lastmile_qr_scan"}, "type": "electric_bike", "lat": 38.879757, "is_reserved": 0, "fusion_lat": 0.0}, {"bike_id": "7884e61fb16db31847198f75c5f369cb", "fusion_lon": 0.0, "lon": -77.00702583333333, "name": "7884e61fb16db31847198f75c5f369cb", "is_disabled": 0, "rental_uris": {"android": "https://dc.lft.to/lastmile_qr_scan", "ios": "https://dc.lft.to/lastmile_qr_scan"}, "type": "electric_scooter", "lat": 38.91121966666667, "is_reserved": 0, "fusion_lat": 0.0}, {"bike_id": "329147318fa759ab0bcabf066fc2f7ad", "fusion_lon": 0.0, "lon": -77.04997783333333, "name": "329147318fa759ab0bcabf066fc2f7ad", "is_disabled": 0, "rental_uris": {"android": "https://dc.lft.to/lastmile_qr_scan", "ios": "https://dc.lft.to/lastmile_qr_scan"}, "type": "electric_scooter", "lat": 38.892372, "is_reserved": 0, "fusion_lat": 0.0}, {"bike_id": "3ae498f53fd97fadeb43aba50680a902", "fusion_lon": 0.0, "lon": -77.02322183333334, "name": "3ae498f53fd97fadeb43aba50680a902", "is_disabled": 0, "rental_uris": {"android": "https://dc.lft.to/lastmile_qr_scan", "ios": "https://dc.lft.to/lastmile_qr_scan"}, "type": "electric_scooter", "lat": 38.89729966666667, "is_reserved": 0, "fusion_lat": 0.0}, {"bike_id": "2bff2cba8905c8e4bf1c3f6e9fe6f7d0", "fusion_lon": 0.0, "lon": -76.949388, "name": "2bff2cba8905c8e4bf1c3f6e9fe6f7d0", "is_disabled": 0, "rental_uris": {"android": "https://dc.lft.to/lastmile_qr_scan", "ios": "https://dc.lft.to/lastmile_qr_scan"}, "type": "electric_scooter", "lat": 38.895005166666664, "is_reserved": 0, "fusion_lat": 0.0}, {"bike_id": "6b10b03ea9ef97399893bbd02b634a92", "fusion_lon": 0.0, "lon": -77.01693683333333, "name": "6b10b03ea9ef97399893bbd02b634a92", "is_disabled": 0, "rental_uris": {"android": "https://dc.lft.to/lastmile_qr_scan", "ios": "https://dc.lft.to/lastmile_qr_scan"}, "type": "electric_scooter", "lat": 38.90656033333333, "is_reserved": 0, "fusion_lat": 0.0}, {"bike_id": "399cf1d906ea342e3c058d3fc6ee59cf", "fusion_lon": 0.0, "lon": -76.946835, "name": "399cf1d906ea342e3c058d3fc6ee59cf", "is_disabled": 0, "rental_uris": {"android": "https://dc.lft.to/lastmile_qr_scan", "ios": "https://dc.lft.to/lastmile_qr_scan"}, "type": "electric_scooter", "lat": 38.886342666666664, "is_reserved": 0, "fusion_lat": 0.0}, {"bike_id": "5dcdc2b8d4064eb583d0792e5bc4fa64", "fusion_lon": 0.0, "lon": -77.034997, "name": "5dcdc2b8d4064eb583d0792e5bc4fa64", "is_disabled": 0, "rental_uris": {"android": "https://dc.lft.to/lastmile_qr_scan", "ios": "https://dc.lft.to/lastmile_qr_scan"}, "type": "electric_scooter", "lat": 38.9638445, "is_reserved": 0, "fusion_lat": 0.0}, {"bike_id": "5144c8c6e4698dca18c104b3413a2e72", "fusion_lon": 0.0, "lon": -77.01170933333333, "name": "5144c8c6e4698dca18c104b3413a2e72", "is_disabled": 0, "rental_uris": {"android": "https://dc.lft.to/lastmile_qr_scan", "ios": "https://dc.lft.to/lastmile_qr_scan"}, "type": "electric_bike", "lat": 38.87719033333333, "is_reserved": 0, "fusion_lat": 0.0}, {"bike_id": "62559f1606ff77b0c005f2eff5bd1896", "fusion_lon": 0.0, "lon": -77.03293, "name": "62559f1606ff77b0c005f2eff5bd1896", "is_disabled": 0, "rental_uris": {"android": "https://dc.lft.to/lastmile_qr_scan", "ios": "https://dc.lft.to/lastmile_qr_scan"}, "type": "electric_scooter", "lat": 38.902791, "is_reserved": 0, "fusion_lat": 0.0}, {"bike_id": "19e28dfd574082f015c6c505de67d313", "fusion_lon": 0.0, "lon": -77.0634945, "name": "19e28dfd574082f015c6c505de67d313", "is_disabled": 0, "rental_uris": {"android": "https://dc.lft.to/lastmile_qr_scan", "ios": "https://dc.lft.to/lastmile_qr_scan"}, "type": "electric_scooter", "lat": 38.90699583333333, "is_reserved": 0, "fusion_lat": 0.0}, {"bike_id": "7db59242eb2c8e09d1d0a23dc7d783bd", "fusion_lon": 0.0, "lon": -76.93199266666667, "name": "7db59242eb2c8e09d1d0a23dc7d783bd", "is_disabled": 0, "rental_uris": {"android": "https://dc.lft.to/lastmile_qr_scan", "ios": "https://dc.lft.to/lastmile_qr_scan"}, "type": "electric_scooter", "lat": 38.898852166666664, "is_reserved": 0, "fusion_lat": 0.0}, {"bike_id": "bf47709c4c0a838d16627bb10e242c57", "fusion_lon": 0.0, "lon": -77.045154, "name": "bf47709c4c0a838d16627bb10e242c57", "is_disabled": 0, "rental_uris": {"android": "https://dc.lft.to/lastmile_qr_scan", "ios": "https://dc.lft.to/lastmile_qr_scan"}, "type": "electric_scooter", "lat": 38.886094, "is_reserved": 0, "fusion_lat": 0.0}, {"bike_id": "7f38ee3dc327e099b42d62e7e6fabe0a", "fusion_lon": 0.0, "lon": -76.99899683333334, "name": "7f38ee3dc327e099b42d62e7e6fabe0a", "is_disabled": 0, "rental_uris": {"android": "https://dc.lft.to/lastmile_qr_scan", "ios": "https://dc.lft.to/lastmile_qr_scan"}, "type": "electric_scooter", "lat": 38.94819866666667, "is_reserved": 0, "fusion_lat": 0.0}, {"bike_id": "d7e77fd0919203e1006abc7fff93dc85", "fusion_lon": 0.0, "lon": -77.13893583333333, "name": "d7e77fd0919203e1006abc7fff93dc85", "is_disabled": 0, "rental_uris": {"android": "https://dc.lft.to/lastmile_qr_scan", "ios": "https://dc.lft.to/lastmile_qr_scan"}, "type": "electric_bike", "lat": 38.89688816666666, "is_reserved": 0, "fusion_lat": 0.0}, {"bike_id": "9030bdb3b1934854984e3c9ad3d2a8e0", "fusion_lon": 0.0, "lon": -77.070371, "name": "9030bdb3b1934854984e3c9ad3d2a8e0", "is_disabled": 0, "rental_uris": {"android": "https://dc.lft.to/lastmile_qr_scan", "ios": "https://dc.lft.to/lastmile_qr_scan"}, "type": "electric_scooter", "lat": 38.906454, "is_reserved": 0, "fusion_lat": 0.0}, {"bike_id": "a033fc35c4af42553c5a2ad8d9e10260", "fusion_lon": 0.0, "lon": -77.02985033333333, "name": "a033fc35c4af42553c5a2ad8d9e10260", "is_disabled": 0, "rental_uris": {"android": "https://dc.lft.to/lastmile_qr_scan", "ios": "https://dc.lft.to/lastmile_qr_scan"}, "type": "electric_scooter", "lat": 38.89949933333333, "is_reserved": 0, "fusion_lat": 0.0}, {"bike_id": "846782b9d26da7a43011a50576e64db5", "fusion_lon": 0.0, "lon": -77.03230166666667, "name": "846782b9d26da7a43011a50576e64db5", "is_disabled": 0, "rental_uris": {"android": "https://dc.lft.to/lastmile_qr_scan", "ios": "https://dc.lft.to/lastmile_qr_scan"}, "type": "electric_scooter", "lat": 38.92166733333333, "is_reserved": 0, "fusion_lat": 0.0}, {"bike_id": "22e09f3f4ce2616d7ff008c224d14ee8", "fusion_lon": 0.0, "lon": -77.02491233333333, "name": "22e09f3f4ce2616d7ff008c224d14ee8", "is_disabled": 0, "rental_uris": {"android": "https://dc.lft.to/lastmile_qr_scan", "ios": "https://dc.lft.to/lastmile_qr_scan"}, "type": "electric_scooter", "lat": 38.90407366666667, "is_reserved": 0, "fusion_lat": 0.0}, {"bike_id": "3b55d775f6cace6b54d57813e87140bc", "fusion_lon": 0.0, "lon": -77.0221395, "name": "3b55d775f6cace6b54d57813e87140bc", "is_disabled": 0, "rental_uris": {"android": "https://dc.lft.to/lastmile_qr_scan", "ios": "https://dc.lft.to/lastmile_qr_scan"}, "type": "electric_scooter", "lat": 38.9156245, "is_reserved": 0, "fusion_lat": 0.0}, {"bike_id": "8bb4c170c8b39a72ce518643b57908a1", "fusion_lon": 0.0, "lon": -76.9987505, "name": "8bb4c170c8b39a72ce518643b57908a1", "is_disabled": 0, "rental_uris": {"android": "https://dc.lft.to/lastmile_qr_scan", "ios": "https://dc.lft.to/lastmile_qr_scan"}, "type": "electric_scooter", "lat": 38.90026783333333, "is_reserved": 0, "fusion_lat": 0.0}, {"bike_id": "1231ae63c670805b3281ddea8ea9d74e", "fusion_lon": 0.0, "lon": -77.02292216666666, "name": "1231ae63c670805b3281ddea8ea9d74e", "is_disabled": 0, "rental_uris": {"android": "https://dc.lft.to/lastmile_qr_scan", "ios": "https://dc.lft.to/lastmile_qr_scan"}, "type": "electric_scooter", "lat": 38.9161185, "is_reserved": 0, "fusion_lat": 0.0}, {"bike_id": "492c363d877e852a9780ea56e1143aa3", "fusion_lon": 0.0, "lon": -77.02337916666667, "name": "492c363d877e852a9780ea56e1143aa3", "is_disabled": 0, "rental_uris": {"android": "https://dc.lft.to/lastmile_qr_scan", "ios": "https://dc.lft.to/lastmile_qr_scan"}, "type": "electric_scooter", "lat": 38.901753666666664, "is_reserved": 0, "fusion_lat": 0.0}, {"bike_id": "52113043bf1af60c0c0a7ef0c26b5fe3", "fusion_lon": 0.0, "lon": -77.11053816666667, "name": "52113043bf1af60c0c0a7ef0c26b5fe3", "is_disabled": 0, "rental_uris": {"android": "https://dc.lft.to/lastmile_qr_scan", "ios": "https://dc.lft.to/lastmile_qr_scan"}, "type": "electric_bike", "lat": 38.870779, "is_reserved": 0, "fusion_lat": 0.0}, {"bike_id": "61ff4b113a7aac5497f5e4644b6db0b5", "fusion_lon": 0.0, "lon": -77.0335605, "name": "61ff4b113a7aac5497f5e4644b6db0b5", "is_disabled": 0, "rental_uris": {"android": "https://dc.lft.to/lastmile_qr_scan", "ios": "https://dc.lft.to/lastmile_qr_scan"}, "type": "electric_scooter", "lat": 38.88506116666667, "is_reserved": 0, "fusion_lat": 0.0}, {"bike_id": "e3c55362c875f5a5ff43ac1807f74078", "fusion_lon": 0.0, "lon": -77.02299933333333, "name": "e3c55362c875f5a5ff43ac1807f74078", "is_disabled": 0, "rental_uris": {"android": "https://dc.lft.to/lastmile_qr_scan", "ios": "https://dc.lft.to/lastmile_qr_scan"}, "type": "electric_scooter", "lat": 38.916244, "is_reserved": 0, "fusion_lat": 0.0}, {"bike_id": "26e65fa38248f25223239c6e2a3aade6", "fusion_lon": 0.0, "lon": -76.9795615, "name": "26e65fa38248f25223239c6e2a3aade6", "is_disabled": 0, "rental_uris": {"android": "https://dc.lft.to/lastmile_qr_scan", "ios": "https://dc.lft.to/lastmile_qr_scan"}, "type": "electric_scooter", "lat": 38.91692033333333, "is_reserved": 0, "fusion_lat": 0.0}, {"bike_id": "ddeb43c80e730ac71eeab7bd5992a31d", "fusion_lon": 0.0, "lon": -77.03328016666667, "name": "ddeb43c80e730ac71eeab7bd5992a31d", "is_disabled": 0, "rental_uris": {"android": "https://dc.lft.to/lastmile_qr_scan", "ios": "https://dc.lft.to/lastmile_qr_scan"}, "type": "electric_bike", "lat": 38.960329, "is_reserved": 0, "fusion_lat": 0.0}, {"bike_id": "5e32e1699e3e9c07de35b7a2ceb891fb", "fusion_lon": 0.0, "lon": -77.06660716666667, "name": "5e32e1699e3e9c07de35b7a2ceb891fb", "is_disabled": 0, "rental_uris": {"android": "https://dc.lft.to/lastmile_qr_scan", "ios": "https://dc.lft.to/lastmile_qr_scan"}, "type": "electric_scooter", "lat": 38.951969166666665, "is_reserved": 0, "fusion_lat": 0.0}, {"bike_id": "876a062773b41a5cd194ed780e99581f", "fusion_lon": 0.0, "lon": -77.03150383333333, "name": "876a062773b41a5cd194ed780e99581f", "is_disabled": 0, "rental_uris": {"android": "https://dc.lft.to/lastmile_qr_scan", "ios": "https://dc.lft.to/lastmile_qr_scan"}, "type": "electric_scooter", "lat": 38.90365216666667, "is_reserved": 0, "fusion_lat": 0.0}, {"bike_id": "fa0caa5842d59e09ad85a8bf73953bb5", "fusion_lon": 0.0, "lon": -77.03474816666666, "name": "fa0caa5842d59e09ad85a8bf73953bb5", "is_disabled": 0, "rental_uris": {"android": "https://dc.lft.to/lastmile_qr_scan", "ios": "https://dc.lft.to/lastmile_qr_scan"}, "type": "electric_scooter", "lat": 38.92263366666667, "is_reserved": 0, "fusion_lat": 0.0}, {"bike_id": "be1aca3427dcbd850a062f9866ebd302", "fusion_lon": 0.0, "lon": -77.05291383333333, "name": "be1aca3427dcbd850a062f9866ebd302", "is_disabled": 0, "rental_uris": {"android": "https://dc.lft.to/lastmile_qr_scan", "ios": "https://dc.lft.to/lastmile_qr_scan"}, "type": "electric_scooter", "lat": 38.9279325, "is_reserved": 0, "fusion_lat": 0.0}, {"bike_id": "be37c9b238b577bb35edf13ffbed8d17", "fusion_lon": 0.0, "lon": -77.00189816666666, "name": "be37c9b238b577bb35edf13ffbed8d17", "is_disabled": 0, "rental_uris": {"android": "https://dc.lft.to/lastmile_qr_scan", "ios": "https://dc.lft.to/lastmile_qr_scan"}, "type": "electric_scooter", "lat": 38.9004, "is_reserved": 0, "fusion_lat": 0.0}, {"bike_id": "b05f21caa8e7259b88d266bd184df6f0", "fusion_lon": 0.0, "lon": -76.99854116666667, "name": "b05f21caa8e7259b88d266bd184df6f0", "is_disabled": 0, "rental_uris": {"android": "https://dc.lft.to/lastmile_qr_scan", "ios": "https://dc.lft.to/lastmile_qr_scan"}, "type": "electric_scooter", "lat": 38.8876035, "is_reserved": 0, "fusion_lat": 0.0}, {"bike_id": "c7989632b8a367c4c8367b871a241638", "fusion_lon": 0.0, "lon": -77.05514, "name": "c7989632b8a367c4c8367b871a241638", "is_disabled": 0, "rental_uris": {"android": "https://dc.lft.to/lastmile_qr_scan", "ios": "https://dc.lft.to/lastmile_qr_scan"}, "type": "electric_scooter", "lat": 38.909481166666666, "is_reserved": 0, "fusion_lat": 0.0}, {"bike_id": "e8297ffe39154cd7ec7bd1dd5ac7a983", "fusion_lon": 0.0, "lon": -77.09954266666666, "name": "e8297ffe39154cd7ec7bd1dd5ac7a983", "is_disabled": 0, "rental_uris": {"android": "https://dc.lft.to/lastmile_qr_scan", "ios": "https://dc.lft.to/lastmile_qr_scan"}, "type": "electric_bike", "lat": 38.85798416666667, "is_reserved": 0, "fusion_lat": 0.0}, {"bike_id": "8eb304e1afdfb6fb373c3d441d394df8", "fusion_lon": 0.0, "lon": -76.93750233333333, "name": "8eb304e1afdfb6fb373c3d441d394df8", "is_disabled": 0, "rental_uris": {"android": "https://dc.lft.to/lastmile_qr_scan", "ios": "https://dc.lft.to/lastmile_qr_scan"}, "type": "electric_scooter", "lat": 38.89052383333333, "is_reserved": 0, "fusion_lat": 0.0}, {"bike_id": "5dd33bff7a053cbaa4885b87ef64d1ca", "fusion_lon": 0.0, "lon": -77.0446495, "name": "5dd33bff7a053cbaa4885b87ef64d1ca", "is_disabled": 0, "rental_uris": {"android": "https://dc.lft.to/lastmile_qr_scan", "ios": "https://dc.lft.to/lastmile_qr_scan"}, "type": "electric_scooter", "lat": 38.91269033333333, "is_reserved": 0, "fusion_lat": 0.0}, {"bike_id": "336c50c78d25dfb4caca24f73cee8726", "fusion_lon": 0.0, "lon": -77.11850916666667, "name": "336c50c78d25dfb4caca24f73cee8726", "is_disabled": 0, "rental_uris": {"android": "https://dc.lft.to/lastmile_qr_scan", "ios": "https://dc.lft.to/lastmile_qr_scan"}, "type": "electric_bike", "lat": 38.87740133333333, "is_reserved": 0, "fusion_lat": 0.0}, {"bike_id": "a23afcd2523447c28d1fb6207eef767e", "fusion_lon": 0.0, "lon": -77.0396965, "name": "a23afcd2523447c28d1fb6207eef767e", "is_disabled": 0, "rental_uris": {"android": "https://dc.lft.to/lastmile_qr_scan", "ios": "https://dc.lft.to/lastmile_qr_scan"}, "type": "electric_scooter", "lat": 38.906229333333336, "is_reserved": 0, "fusion_lat": 0.0}, {"bike_id": "a4eac59f706115a9d4c55aed68582df5", "fusion_lon": 0.0, "lon": -76.99759866666666, "name": "a4eac59f706115a9d4c55aed68582df5", "is_disabled": 0, "rental_uris": {"android": "https://dc.lft.to/lastmile_qr_scan", "ios": "https://dc.lft.to/lastmile_qr_scan"}, "type": "electric_scooter", "lat": 38.88772916666667, "is_reserved": 0, "fusion_lat": 0.0}, {"bike_id": "3a4e0803514ebe3e3171f5f45a48a0da", "fusion_lon": 0.0, "lon": -77.02099666666666, "name": "3a4e0803514ebe3e3171f5f45a48a0da", "is_disabled": 0, "rental_uris": {"android": "https://dc.lft.to/lastmile_qr_scan", "ios": "https://dc.lft.to/lastmile_qr_scan"}, "type": "electric_scooter", "lat": 38.88516633333333, "is_reserved": 0, "fusion_lat": 0.0}, {"bike_id": "74cf3c57eb419e21f07404ac6bd02f6a", "fusion_lon": 0.0, "lon": -76.935448, "name": "74cf3c57eb419e21f07404ac6bd02f6a", "is_disabled": 0, "rental_uris": {"android": "https://dc.lft.to/lastmile_qr_scan", "ios": "https://dc.lft.to/lastmile_qr_scan"}, "type": "electric_bike", "lat": 38.951905833333335, "is_reserved": 0, "fusion_lat": 0.0}, {"bike_id": "60c40faf6c84ce4edf818fed48a1b6d4", "fusion_lon": 0.0, "lon": -76.998651, "name": "60c40faf6c84ce4edf818fed48a1b6d4", "is_disabled": 0, "rental_uris": {"android": "https://dc.lft.to/lastmile_qr_scan", "ios": "https://dc.lft.to/lastmile_qr_scan"}, "type": "electric_scooter", "lat": 38.900248166666664, "is_reserved": 0, "fusion_lat": 0.0}, {"bike_id": "53e2bcfd0feabe3d3fe26e02a60ce0c7", "fusion_lon": 0.0, "lon": -77.032566, "name": "53e2bcfd0feabe3d3fe26e02a60ce0c7", "is_disabled": 0, "rental_uris": {"android": "https://dc.lft.to/lastmile_qr_scan", "ios": "https://dc.lft.to/lastmile_qr_scan"}, "type": "electric_scooter", "lat": 38.92362033333333, "is_reserved": 0, "fusion_lat": 0.0}, {"bike_id": "25ade4bca6456ccf3ffffa8810db5487", "fusion_lon": 0.0, "lon": -77.02767666666666, "name": "25ade4bca6456ccf3ffffa8810db5487", "is_disabled": 0, "rental_uris": {"android": "https://dc.lft.to/lastmile_qr_scan", "ios": "https://dc.lft.to/lastmile_qr_scan"}, "type": "electric_scooter", "lat": 38.907390666666664, "is_reserved": 0, "fusion_lat": 0.0}, {"bike_id": "1d0a8b570b1f38b02470a4a16932ee31", "fusion_lon": 0.0, "lon": -77.00625083333334, "name": "1d0a8b570b1f38b02470a4a16932ee31", "is_disabled": 0, "rental_uris": {"android": "https://dc.lft.to/lastmile_qr_scan", "ios": "https://dc.lft.to/lastmile_qr_scan"}, "type": "electric_scooter", "lat": 38.905806, "is_reserved": 0, "fusion_lat": 0.0}, {"bike_id": "fba879953353e4106157b073b358c934", "fusion_lon": 0.0, "lon": -76.9375185, "name": "fba879953353e4106157b073b358c934", "is_disabled": 0, "rental_uris": {"android": "https://dc.lft.to/lastmile_qr_scan", "ios": "https://dc.lft.to/lastmile_qr_scan"}, "type": "electric_scooter", "lat": 38.890517833333334, "is_reserved": 0, "fusion_lat": 0.0}, {"bike_id": "2c14243a71c64613a408c4670107cbd2", "fusion_lon": 0.0, "lon": -76.9711265, "name": "2c14243a71c64613a408c4670107cbd2", "is_disabled": 0, "rental_uris": {"android": "https://dc.lft.to/lastmile_qr_scan", "ios": "https://dc.lft.to/lastmile_qr_scan"}, "type": "electric_bike", "lat": 38.8571455, "is_reserved": 0, "fusion_lat": 0.0}, {"bike_id": "0beb099f37c9dbc7dee6556ac1d5a934", "fusion_lon": 0.0, "lon": -76.9575395, "name": "0beb099f37c9dbc7dee6556ac1d5a934", "is_disabled": 0, "rental_uris": {"android": "https://dc.lft.to/lastmile_qr_scan", "ios": "https://dc.lft.to/lastmile_qr_scan"}, "type": "electric_scooter", "lat": 38.884371, "is_reserved": 0, "fusion_lat": 0.0}, {"bike_id": "33f584447df2055b1e7cffaa2c97c165", "fusion_lon": 0.0, "lon": -76.97827533333333, "name": "33f584447df2055b1e7cffaa2c97c165", "is_disabled": 0, "rental_uris": {"android": "https://dc.lft.to/lastmile_qr_scan", "ios": "https://dc.lft.to/lastmile_qr_scan"}, "type": "electric_bike", "lat": 38.843772, "is_reserved": 0, "fusion_lat": 0.0}, {"bike_id": "7b527c8af425f621a2b67b048685a573", "fusion_lon": 0.0, "lon": -77.0343905, "name": "7b527c8af425f621a2b67b048685a573", "is_disabled": 0, "rental_uris": {"android": "https://dc.lft.to/lastmile_qr_scan", "ios": "https://dc.lft.to/lastmile_qr_scan"}, "type": "electric_scooter", "lat": 38.90769, "is_reserved": 0, "fusion_lat": 0.0}, {"bike_id": "5ebf1a8d23e861899cc6b41babb41f72", "fusion_lon": 0.0, "lon": -77.0122925, "name": "5ebf1a8d23e861899cc6b41babb41f72", "is_disabled": 0, "rental_uris": {"android": "https://dc.lft.to/lastmile_qr_scan", "ios": "https://dc.lft.to/lastmile_qr_scan"}, "type": "electric_scooter", "lat": 38.93110566666667, "is_reserved": 0, "fusion_lat": 0.0}, {"bike_id": "5234eb9da510c02d7c38f909e62f18b6", "fusion_lon": 0.0, "lon": -77.033719, "name": "5234eb9da510c02d7c38f909e62f18b6", "is_disabled": 0, "rental_uris": {"android": "https://dc.lft.to/lastmile_qr_scan", "ios": "https://dc.lft.to/lastmile_qr_scan"}, "type": "electric_scooter", "lat": 38.90127666666667, "is_reserved": 0, "fusion_lat": 0.0}, {"bike_id": "be0dba828dcded9968774e74999f448e", "fusion_lon": 0.0, "lon": -77.02709966666667, "name": "be0dba828dcded9968774e74999f448e", "is_disabled": 0, "rental_uris": {"android": "https://dc.lft.to/lastmile_qr_scan", "ios": "https://dc.lft.to/lastmile_qr_scan"}, "type": "electric_scooter", "lat": 38.928863166666666, "is_reserved": 0, "fusion_lat": 0.0}, {"bike_id": "c79912dc914ae8b69bee4809874714cc", "fusion_lon": 0.0, "lon": -77.0203015, "name": "c79912dc914ae8b69bee4809874714cc", "is_disabled": 0, "rental_uris": {"android": "https://dc.lft.to/lastmile_qr_scan", "ios": "https://dc.lft.to/lastmile_qr_scan"}, "type": "electric_scooter", "lat": 38.92413166666667, "is_reserved": 0, "fusion_lat": 0.0}, {"bike_id": "0c9b316c53650daa1523a3c4d9f75bc0", "fusion_lon": 0.0, "lon": -77.05069316666666, "name": "0c9b316c53650daa1523a3c4d9f75bc0", "is_disabled": 0, "rental_uris": {"android": "https://dc.lft.to/lastmile_qr_scan", "ios": "https://dc.lft.to/lastmile_qr_scan"}, "type": "electric_bike", "lat": 38.862557, "is_reserved": 0, "fusion_lat": 0.0}, {"bike_id": "eaa9e8749ddba6b56b27b8b8e7e191c2", "fusion_lon": 0.0, "lon": -76.99776633333333, "name": "eaa9e8749ddba6b56b27b8b8e7e191c2", "is_disabled": 0, "rental_uris": {"android": "https://dc.lft.to/lastmile_qr_scan", "ios": "https://dc.lft.to/lastmile_qr_scan"}, "type": "electric_scooter", "lat": 38.8443555, "is_reserved": 0, "fusion_lat": 0.0}, {"bike_id": "91e570e8f7acae99aa44ac75ed9feb50", "fusion_lon": 0.0, "lon": -76.94639966666666, "name": "91e570e8f7acae99aa44ac75ed9feb50", "is_disabled": 0, "rental_uris": {"android": "https://dc.lft.to/lastmile_qr_scan", "ios": "https://dc.lft.to/lastmile_qr_scan"}, "type": "electric_scooter", "lat": 38.898478, "is_reserved": 0, "fusion_lat": 0.0}, {"bike_id": "d22bcdfd2bd0b00b4af770faf739f778", "fusion_lon": 0.0, "lon": -76.99780416666667, "name": "d22bcdfd2bd0b00b4af770faf739f778", "is_disabled": 0, "rental_uris": {"android": "https://dc.lft.to/lastmile_qr_scan", "ios": "https://dc.lft.to/lastmile_qr_scan"}, "type": "electric_scooter", "lat": 38.844355166666666, "is_reserved": 0, "fusion_lat": 0.0}, {"bike_id": "1e543b71279ff41685dbff6999d60649", "fusion_lon": 0.0, "lon": -77.04616433333334, "name": "1e543b71279ff41685dbff6999d60649", "is_disabled": 0, "rental_uris": {"android": "https://dc.lft.to/lastmile_qr_scan", "ios": "https://dc.lft.to/lastmile_qr_scan"}, "type": "electric_scooter", "lat": 38.90464816666667, "is_reserved": 0, "fusion_lat": 0.0}, {"bike_id": "1534c8c1c594f4dcea84fb098b4b6e03", "fusion_lon": 0.0, "lon": -77.02628416666667, "name": "1534c8c1c594f4dcea84fb098b4b6e03", "is_disabled": 0, "rental_uris": {"android": "https://dc.lft.to/lastmile_qr_scan", "ios": "https://dc.lft.to/lastmile_qr_scan"}, "type": "electric_bike", "lat": 38.962272666666664, "is_reserved": 0, "fusion_lat": 0.0}, {"bike_id": "82a8dabf5b21a6944c6dd1dcb622c7ed", "fusion_lon": 0.0, "lon": -77.0432745, "name": "82a8dabf5b21a6944c6dd1dcb622c7ed", "is_disabled": 0, "rental_uris": {"android": "https://dc.lft.to/lastmile_qr_scan", "ios": "https://dc.lft.to/lastmile_qr_scan"}, "type": "electric_scooter", "lat": 38.90735983333333, "is_reserved": 0, "fusion_lat": 0.0}, {"bike_id": "9d0e9d808efcaad56a36abcbf4ecc857", "fusion_lon": 0.0, "lon": -77.02988683333334, "name": "9d0e9d808efcaad56a36abcbf4ecc857", "is_disabled": 0, "rental_uris": {"android": "https://dc.lft.to/lastmile_qr_scan", "ios": "https://dc.lft.to/lastmile_qr_scan"}, "type": "electric_scooter", "lat": 38.89573633333333, "is_reserved": 0, "fusion_lat": 0.0}, {"bike_id": "3195b9012b50953273ecbf7553eb42d9", "fusion_lon": 0.0, "lon": -77.36090683333333, "name": "3195b9012b50953273ecbf7553eb42d9", "is_disabled": 0, "rental_uris": {"android": "https://dc.lft.to/lastmile_qr_scan", "ios": "https://dc.lft.to/lastmile_qr_scan"}, "type": "electric_bike", "lat": 38.939672333333334, "is_reserved": 0, "fusion_lat": 0.0}, {"bike_id": "bf9004c71019bf31c0f5e813b9533ff7", "fusion_lon": 0.0, "lon": -77.0201915, "name": "bf9004c71019bf31c0f5e813b9533ff7", "is_disabled": 0, "rental_uris": {"android": "https://dc.lft.to/lastmile_qr_scan", "ios": "https://dc.lft.to/lastmile_qr_scan"}, "type": "electric_scooter", "lat": 38.8976705, "is_reserved": 0, "fusion_lat": 0.0}, {"bike_id": "5d41d292a030e5ba18cb09e47dd2eeda", "fusion_lon": 0.0, "lon": -77.03975016666666, "name": "5d41d292a030e5ba18cb09e47dd2eeda", "is_disabled": 0, "rental_uris": {"android": "https://dc.lft.to/lastmile_qr_scan", "ios": "https://dc.lft.to/lastmile_qr_scan"}, "type": "electric_scooter", "lat": 38.912014, "is_reserved": 0, "fusion_lat": 0.0}, {"bike_id": "b73aaecf75b49e9bf629d2553affe2e5", "fusion_lon": 0.0, "lon": -77.03665883333333, "name": "b73aaecf75b49e9bf629d2553affe2e5", "is_disabled": 0, "rental_uris": {"android": "https://dc.lft.to/lastmile_qr_scan", "ios": "https://dc.lft.to/lastmile_qr_scan"}, "type": "electric_scooter", "lat": 38.922939166666666, "is_reserved": 0, "fusion_lat": 0.0}, {"bike_id": "f91311632dbe843b0bdb5c308fcd84b2", "fusion_lon": 0.0, "lon": -76.88375216666667, "name": "f91311632dbe843b0bdb5c308fcd84b2", "is_disabled": 0, "rental_uris": {"android": "https://dc.lft.to/lastmile_qr_scan", "ios": "https://dc.lft.to/lastmile_qr_scan"}, "type": "electric_bike", "lat": 38.998255666666665, "is_reserved": 0, "fusion_lat": 0.0}, {"bike_id": "c2ef4183864ce853d9784c2f7e70d242", "fusion_lon": 0.0, "lon": -76.951401, "name": "c2ef4183864ce853d9784c2f7e70d242", "is_disabled": 0, "rental_uris": {"android": "https://dc.lft.to/lastmile_qr_scan", "ios": "https://dc.lft.to/lastmile_qr_scan"}, "type": "electric_scooter", "lat": 38.8904575, "is_reserved": 0, "fusion_lat": 0.0}, {"bike_id": "7deded6b6974ff7364d62b8bc3dca12d", "fusion_lon": 0.0, "lon": -77.032498, "name": "7deded6b6974ff7364d62b8bc3dca12d", "is_disabled": 0, "rental_uris": {"android": "https://dc.lft.to/lastmile_qr_scan", "ios": "https://dc.lft.to/lastmile_qr_scan"}, "type": "electric_scooter", "lat": 38.90023816666667, "is_reserved": 0, "fusion_lat": 0.0}, {"bike_id": "f38894f0b7d277fc7ff94d3c43245b72", "fusion_lon": 0.0, "lon": -77.0210305, "name": "f38894f0b7d277fc7ff94d3c43245b72", "is_disabled": 0, "rental_uris": {"android": "https://dc.lft.to/lastmile_qr_scan", "ios": "https://dc.lft.to/lastmile_qr_scan"}, "type": "electric_scooter", "lat": 38.9241575, "is_reserved": 0, "fusion_lat": 0.0}, {"bike_id": "78cd8c01e827914e3e622cc85f0eefcb", "fusion_lon": 0.0, "lon": -76.97704933333333, "name": "78cd8c01e827914e3e622cc85f0eefcb", "is_disabled": 0, "rental_uris": {"android": "https://dc.lft.to/lastmile_qr_scan", "ios": "https://dc.lft.to/lastmile_qr_scan"}, "type": "electric_bike", "lat": 38.94924783333333, "is_reserved": 0, "fusion_lat": 0.0}, {"bike_id": "50e13c363211d3c9f353cc7c172bb288", "fusion_lon": 0.0, "lon": -77.03136366666666, "name": "50e13c363211d3c9f353cc7c172bb288", "is_disabled": 0, "rental_uris": {"android": "https://dc.lft.to/lastmile_qr_scan", "ios": "https://dc.lft.to/lastmile_qr_scan"}, "type": "electric_scooter", "lat": 38.91057166666667, "is_reserved": 0, "fusion_lat": 0.0}, {"bike_id": "48833d21b302a4fb0f67a5cddb2fe85a", "fusion_lon": 0.0, "lon": -77.07006933333334, "name": "48833d21b302a4fb0f67a5cddb2fe85a", "is_disabled": 0, "rental_uris": {"android": "https://dc.lft.to/lastmile_qr_scan", "ios": "https://dc.lft.to/lastmile_qr_scan"}, "type": "electric_scooter", "lat": 38.90602666666667, "is_reserved": 0, "fusion_lat": 0.0}, {"bike_id": "94734e1254abf19a79efcfd4366493a3", "fusion_lon": 0.0, "lon": -76.93552416666667, "name": "94734e1254abf19a79efcfd4366493a3", "is_disabled": 0, "rental_uris": {"android": "https://dc.lft.to/lastmile_qr_scan", "ios": "https://dc.lft.to/lastmile_qr_scan"}, "type": "electric_bike", "lat": 38.955587666666666, "is_reserved": 0, "fusion_lat": 0.0}, {"bike_id": "06a6407bf72c43dba44446390a9b8d05", "fusion_lon": 0.0, "lon": -77.00200483333333, "name": "06a6407bf72c43dba44446390a9b8d05", "is_disabled": 0, "rental_uris": {"android": "https://dc.lft.to/lastmile_qr_scan", "ios": "https://dc.lft.to/lastmile_qr_scan"}, "type": "electric_scooter", "lat": 38.900412333333335, "is_reserved": 0, "fusion_lat": 0.0}, {"bike_id": "fddde994e074e35e1560ba3665dcd33d", "fusion_lon": 0.0, "lon": -77.028005, "name": "fddde994e074e35e1560ba3665dcd33d", "is_disabled": 0, "rental_uris": {"android": "https://dc.lft.to/lastmile_qr_scan", "ios": "https://dc.lft.to/lastmile_qr_scan"}, "type": "electric_scooter", "lat": 38.899390333333336, "is_reserved": 0, "fusion_lat": 0.0}, {"bike_id": "bc59cb958480303665a4ffbd35f64b6b", "fusion_lon": 0.0, "lon": -77.015791, "name": "bc59cb958480303665a4ffbd35f64b6b", "is_disabled": 0, "rental_uris": {"android": "https://dc.lft.to/lastmile_qr_scan", "ios": "https://dc.lft.to/lastmile_qr_scan"}, "type": "electric_scooter", "lat": 38.891921333333336, "is_reserved": 0, "fusion_lat": 0.0}, {"bike_id": "7dc09117da0ea855c463f88164331ed7", "fusion_lon": 0.0, "lon": -77.01755383333334, "name": "7dc09117da0ea855c463f88164331ed7", "is_disabled": 0, "rental_uris": {"android": "https://dc.lft.to/lastmile_qr_scan", "ios": "https://dc.lft.to/lastmile_qr_scan"}, "type": "electric_scooter", "lat": 38.8841165, "is_reserved": 0, "fusion_lat": 0.0}, {"bike_id": "c9b2c50afcf116b40682f91a86e8c9d2", "fusion_lon": 0.0, "lon": -76.98516466666666, "name": "c9b2c50afcf116b40682f91a86e8c9d2", "is_disabled": 0, "rental_uris": {"android": "https://dc.lft.to/lastmile_qr_scan", "ios": "https://dc.lft.to/lastmile_qr_scan"}, "type": "electric_scooter", "lat": 38.866646333333335, "is_reserved": 0, "fusion_lat": 0.0}, {"bike_id": "61066ce449ba31c745198402d6615063", "fusion_lon": 0.0, "lon": -77.04495383333334, "name": "61066ce449ba31c745198402d6615063", "is_disabled": 0, "rental_uris": {"android": "https://dc.lft.to/lastmile_qr_scan", "ios": "https://dc.lft.to/lastmile_qr_scan"}, "type": "electric_scooter", "lat": 38.9001865, "is_reserved": 0, "fusion_lat": 0.0}, {"bike_id": "8e9317464f9267b8965c1db5236c1897", "fusion_lon": 0.0, "lon": -77.03542283333333, "name": "8e9317464f9267b8965c1db5236c1897", "is_disabled": 0, "rental_uris": {"android": "https://dc.lft.to/lastmile_qr_scan", "ios": "https://dc.lft.to/lastmile_qr_scan"}, "type": "electric_scooter", "lat": 38.92418933333333, "is_reserved": 0, "fusion_lat": 0.0}, {"bike_id": "77f02d13dc571437f9e5a938dacfb765", "fusion_lon": 0.0, "lon": -77.05123833333333, "name": "77f02d13dc571437f9e5a938dacfb765", "is_disabled": 0, "rental_uris": {"android": "https://dc.lft.to/lastmile_qr_scan", "ios": "https://dc.lft.to/lastmile_qr_scan"}, "type": "electric_scooter", "lat": 38.90534483333333, "is_reserved": 0, "fusion_lat": 0.0}, {"bike_id": "540d8ac3a4d480bc235e6f307e64a329", "fusion_lon": 0.0, "lon": -77.025839, "name": "540d8ac3a4d480bc235e6f307e64a329", "is_disabled": 0, "rental_uris": {"android": "https://dc.lft.to/lastmile_qr_scan", "ios": "https://dc.lft.to/lastmile_qr_scan"}, "type": "electric_bike", "lat": 38.89615466666667, "is_reserved": 0, "fusion_lat": 0.0}, {"bike_id": "19359de0a5dcfffc041531d32b6321b4", "fusion_lon": 0.0, "lon": -77.043264, "name": "19359de0a5dcfffc041531d32b6321b4", "is_disabled": 0, "rental_uris": {"android": "https://dc.lft.to/lastmile_qr_scan", "ios": "https://dc.lft.to/lastmile_qr_scan"}, "type": "electric_scooter", "lat": 38.908387833333336, "is_reserved": 0, "fusion_lat": 0.0}, {"bike_id": "e823db2f91740cb37847f33eb4bb86d3", "fusion_lon": 0.0, "lon": -76.93200833333333, "name": "e823db2f91740cb37847f33eb4bb86d3", "is_disabled": 0, "rental_uris": {"android": "https://dc.lft.to/lastmile_qr_scan", "ios": "https://dc.lft.to/lastmile_qr_scan"}, "type": "electric_scooter", "lat": 38.898847333333336, "is_reserved": 0, "fusion_lat": 0.0}, {"bike_id": "e8276d5d5ade62bd586a11352c759cb0", "fusion_lon": 0.0, "lon": -77.0447755, "name": "e8276d5d5ade62bd586a11352c759cb0", "is_disabled": 0, "rental_uris": {"android": "https://dc.lft.to/lastmile_qr_scan", "ios": "https://dc.lft.to/lastmile_qr_scan"}, "type": "electric_scooter", "lat": 38.9225195, "is_reserved": 0, "fusion_lat": 0.0}, {"bike_id": "9f2796b5723a8ddcba07546d218a6dac", "fusion_lon": 0.0, "lon": -77.00890333333334, "name": "9f2796b5723a8ddcba07546d218a6dac", "is_disabled": 0, "rental_uris": {"android": "https://dc.lft.to/lastmile_qr_scan", "ios": "https://dc.lft.to/lastmile_qr_scan"}, "type": "electric_scooter", "lat": 38.924955833333335, "is_reserved": 0, "fusion_lat": 0.0}, {"bike_id": "ac9787865cd82c48ca1f8377ecdce666", "fusion_lon": 0.0, "lon": -77.0166505, "name": "ac9787865cd82c48ca1f8377ecdce666", "is_disabled": 0, "rental_uris": {"android": "https://dc.lft.to/lastmile_qr_scan", "ios": "https://dc.lft.to/lastmile_qr_scan"}, "type": "electric_scooter", "lat": 38.881340333333334, "is_reserved": 0, "fusion_lat": 0.0}, {"bike_id": "5ab753f753c8458bc99cf5ad726ed80f", "fusion_lon": 0.0, "lon": -76.987824, "name": "5ab753f753c8458bc99cf5ad726ed80f", "is_disabled": 0, "rental_uris": {"android": "https://dc.lft.to/lastmile_qr_scan", "ios": "https://dc.lft.to/lastmile_qr_scan"}, "type": "electric_bike", "lat": 38.86605, "is_reserved": 0, "fusion_lat": 0.0}, {"bike_id": "7fbcb0a42c8bbc3638b74dd35a5d57e7", "fusion_lon": 0.0, "lon": -77.01203333333333, "name": "7fbcb0a42c8bbc3638b74dd35a5d57e7", "is_disabled": 0, "rental_uris": {"android": "https://dc.lft.to/lastmile_qr_scan", "ios": "https://dc.lft.to/lastmile_qr_scan"}, "type": "electric_scooter", "lat": 38.87097116666666, "is_reserved": 0, "fusion_lat": 0.0}, {"bike_id": "33bed11954c2549d1e6a0ad1d993612c", "fusion_lon": 0.0, "lon": -77.03212716666667, "name": "33bed11954c2549d1e6a0ad1d993612c", "is_disabled": 0, "rental_uris": {"android": "https://dc.lft.to/lastmile_qr_scan", "ios": "https://dc.lft.to/lastmile_qr_scan"}, "type": "electric_scooter", "lat": 38.914738666666665, "is_reserved": 0, "fusion_lat": 0.0}, {"bike_id": "12cd6782470d0824cda6498bd33f90f9", "fusion_lon": 0.0, "lon": -76.99399033333333, "name": "12cd6782470d0824cda6498bd33f90f9", "is_disabled": 0, "rental_uris": {"android": "https://dc.lft.to/lastmile_qr_scan", "ios": "https://dc.lft.to/lastmile_qr_scan"}, "type": "electric_scooter", "lat": 38.92171416666667, "is_reserved": 0, "fusion_lat": 0.0}, {"bike_id": "1ca76d75e7cfa0736cbea988170405fc", "fusion_lon": 0.0, "lon": -77.03855983333334, "name": "1ca76d75e7cfa0736cbea988170405fc", "is_disabled": 0, "rental_uris": {"android": "https://dc.lft.to/lastmile_qr_scan", "ios": "https://dc.lft.to/lastmile_qr_scan"}, "type": "electric_scooter", "lat": 38.916939666666664, "is_reserved": 0, "fusion_lat": 0.0}, {"bike_id": "fe625260df75962d8525886c70c35955", "fusion_lon": 0.0, "lon": -77.03504333333333, "name": "fe625260df75962d8525886c70c35955", "is_disabled": 0, "rental_uris": {"android": "https://dc.lft.to/lastmile_qr_scan", "ios": "https://dc.lft.to/lastmile_qr_scan"}, "type": "electric_scooter", "lat": 38.9216185, "is_reserved": 0, "fusion_lat": 0.0}, {"bike_id": "ed26c8d9d5257e2de07d4f0650416ee9", "fusion_lon": 0.0, "lon": -77.0784045, "name": "ed26c8d9d5257e2de07d4f0650416ee9", "is_disabled": 0, "rental_uris": {"android": "https://dc.lft.to/lastmile_qr_scan", "ios": "https://dc.lft.to/lastmile_qr_scan"}, "type": "electric_bike", "lat": 38.931478, "is_reserved": 0, "fusion_lat": 0.0}, {"bike_id": "6556b18d1a3941c66a4284e509750e86", "fusion_lon": 0.0, "lon": -77.04094616666667, "name": "6556b18d1a3941c66a4284e509750e86", "is_disabled": 0, "rental_uris": {"android": "https://dc.lft.to/lastmile_qr_scan", "ios": "https://dc.lft.to/lastmile_qr_scan"}, "type": "electric_scooter", "lat": 38.91049233333333, "is_reserved": 0, "fusion_lat": 0.0}, {"bike_id": "4709238614808c9bb0b93148a1ad70df", "fusion_lon": 0.0, "lon": -77.02695983333334, "name": "4709238614808c9bb0b93148a1ad70df", "is_disabled": 0, "rental_uris": {"android": "https://dc.lft.to/lastmile_qr_scan", "ios": "https://dc.lft.to/lastmile_qr_scan"}, "type": "electric_scooter", "lat": 38.90146416666666, "is_reserved": 0, "fusion_lat": 0.0}, {"bike_id": "3db32a2bc489c091a11a05bb131d17e5", "fusion_lon": 0.0, "lon": -77.031324, "name": "3db32a2bc489c091a11a05bb131d17e5", "is_disabled": 0, "rental_uris": {"android": "https://dc.lft.to/lastmile_qr_scan", "ios": "https://dc.lft.to/lastmile_qr_scan"}, "type": "electric_scooter", "lat": 38.923899, "is_reserved": 0, "fusion_lat": 0.0}, {"bike_id": "0845c082dd683de1485daac7a29f871e", "fusion_lon": 0.0, "lon": -77.04830233333334, "name": "0845c082dd683de1485daac7a29f871e", "is_disabled": 0, "rental_uris": {"android": "https://dc.lft.to/lastmile_qr_scan", "ios": "https://dc.lft.to/lastmile_qr_scan"}, "type": "electric_scooter", "lat": 38.911227333333336, "is_reserved": 0, "fusion_lat": 0.0}, {"bike_id": "40a3a52f55a66217df074d52a6a85f34", "fusion_lon": 0.0, "lon": -77.22338266666667, "name": "40a3a52f55a66217df074d52a6a85f34", "is_disabled": 0, "rental_uris": {"android": "https://dc.lft.to/lastmile_qr_scan", "ios": "https://dc.lft.to/lastmile_qr_scan"}, "type": "electric_bike", "lat": 38.91814683333333, "is_reserved": 0, "fusion_lat": 0.0},