{"data": {"bikes": [{"lat": 38.885978, "is_disabled": 0, "type": "electric_scooter", "lon": -77.01891933333333, "bike_id": "aa3899ef0f21a9a832a4cf812a655d76", "fusion_lat": 0.0, "name": "aa3899ef0f21a9a832a4cf812a655d76", "is_reserved": 0, "rental_uris": {"android": "https://dc.lft.to/lastmile_qr_scan", "ios": "https://dc.lft.to/lastmile_qr_scan"}, "fusion_lon": 0.0}, {"lat": 38.94822833333333, "is_disabled": 0, "type": "electric_scooter", "lon": -76.99904483333333, "bike_id": "23e33062de866aaf734b7d6293750329", "fusion_lat": 0.0, "name": "23e33062de866aaf734b7d6293750329", "is_reserved": 0, "rental_uris": {"android": "https://dc.lft.to/lastmile_qr_scan", "ios": "https://dc.lft.to/lastmile_qr_scan"}, "fusion_lon": 0.0}, {"lat": 38.8854975, "is_disabled": 0, "type": "electric_bike", "lon": -77.11786566666666, "bike_id": "20317005d3104ed42304a3fde6bc51af", "fusion_lat": 0.0, "name": "20317005d3104ed42304a3fde6bc51af", "is_reserved": 0, "rental_uris": {"android": "https://dc.lft.to/lastmile_qr_scan", "ios": "https://dc.lft.to/lastmile_qr_scan"}, "fusion_lon": 0.0}, {"lat": 38.91955083333333, "is_disabled": 0, "type": "electric_scooter", "lon": -77.01437416666667, "bike_id": "ac7aa51725f01abe893cfbe646653f40", "fusion_lat": 0.0, "name": "ac7aa51725f01abe893cfbe646653f40", "is_reserved": 0, "rental_uris": {"android": "https://dc.lft.to/lastmile_qr_scan", "ios": "https://dc.lft.to/lastmile_qr_scan"}, "fusion_lon": 0.0}, {"lat": 38.90135333333333, "is_disabled": 0, "type": "electric_scooter", "lon": -77.03994066666667, "bike_id": "6532149fedfd40433b0e729749b457f0", "fusion_lat": 0.0, "name": "6532149fedfd40433b0e729749b457f0", "is_reserved": 0, "rental_uris": {"android": "https://dc.lft.to/lastmile_qr_scan", "ios": "https://dc.lft.to/lastmile_qr_scan"}, "fusion_lon": 0.0}, {"lat": 38.90410416666667, "is_disabled": 0, "type": "electric_scooter", "lon": -77.05058216666667, "bike_id": "a93c011d4ce73b81aed7947196ed2a64", "fusion_lat": 0.0, "name": "a93c011d4ce73b81aed7947196ed2a64", "is_reserved": 0, "rental_uris": {"android": "https://dc.lft.to/lastmile_qr_scan", "ios": "https://dc.lft.to/lastmile_qr_scan"}, "fusion_lon": 0.0}, {"lat": 38.957054, "is_disabled": 0, "type": "electric_scooter", "lon": -77.0240155, "bike_id": "8b6b15d07bcbfd85f38b14a83ba4cb03", "fusion_lat": 0.0, "name": "8b6b15d07bcbfd85f38b14a83ba4cb03", "is_reserved": 0, "rental_uris": {"android": "https://dc.lft.to/lastmile_qr_scan", "ios": "https://dc.lft.to/lastmile_qr_scan"}, "fusion_lon": 0.0}, {"lat": 38.9082485, "is_disabled": 0, "type": "electric_scooter", "lon": -77.0200645, "bike_id": "392197435b54c4365a928e74bec93517", "fusion_lat": 0.0, "name": "392197435b54c4365a928e74bec93517", "is_reserved": 0, "rental_uris": {"android": "https://dc.lft.to/lastmile_qr_scan", "ios": "https://dc.lft.to/lastmile_qr_scan"}, "fusion_lon": 0.0}, {"lat": 38.8867815, "is_disabled": 0, "type": "electric_bike", "lon": -77.16243416666667, "bike_id": "ad9968f5458a042daf8a2a4bd2a6e9fb", "fusion_lat": 0.0, "name": "ad9968f5458a042daf8a2a4bd2a6e9fb", "is_reserved": 0, "rental_uris": {"android": "https://dc.lft.to/lastmile_qr_scan", "ios": "https://dc.lft.to/lastmile_qr_scan"}, "fusion_lon": 0.0}, {"lat": 38.906258333333334, "is_disabled": 0, "type": "electric_scooter", "lon": -77.00820766666666, "bike_id": "d7245a12ed977340ca43d97a8867cb0f", "fusion_lat": 0.0, "name": "d7245a12ed977340ca43d97a8867cb0f", "is_reserved": 0, "rental_uris": {"android": "https://dc.lft.to/lastmile_qr_scan", "ios": "https://dc.lft.to/lastmile_qr_scan"}, "fusion_lon": 0.0}, {"lat": 38.90391116666667, "is_disabled": 0, "type": "electric_scooter", "lon": -76.9900515, "bike_id": "ded279f531b7a1f6a036a40dd1236fe2", "fusion_lat": 0.0, "name": "ded279f531b7a1f6a036a40dd1236fe2", "is_reserved": 0, "rental_uris": {"android": "https://dc.lft.to/lastmile_qr_scan", "ios": "https://dc.lft.to/lastmile_qr_scan"}, "fusion_lon": 0.0}, {"lat": 38.92205933333334, "is_disabled": 0, "type": "electric_bike", "lon": -77.08199966666666, "bike_id": "95a1e2bcb3a659b95817a234988fe191", "fusion_lat": 0.0, "name": "95a1e2bcb3a659b95817a234988fe191", "is_reserved": 0, "rental_uris": {"android": "https://dc.lft.to/lastmile_qr_scan", "ios": "https://dc.lft.to/lastmile_qr_scan"}, "fusion_lon": 0.0}, {"lat": 38.933751666666666, "is_disabled": 0, "type": "electric_scooter", "lon": -77.035629, "bike_id": "fe7bb23c333b60fb0a77ac3e965f75c3", "fusion_lat": 0.0, "name": "fe7bb23c333b60fb0a77ac3e965f75c3", "is_reserved": 0, "rental_uris": {"android": "https://dc.lft.to/lastmile_qr_scan", "ios": "https://dc.lft.to/lastmile_qr_scan"}, "fusion_lon": 0.0}, {"lat": 38.905557, "is_disabled": 0, "type": "electric_scooter", "lon": -76.99871216666666, "bike_id": "ceb687698f310001b3a6fc0fac587bad", "fusion_lat": 0.0, "name": "ceb687698f310001b3a6fc0fac587bad", "is_reserved": 0, "rental_uris": {"android": "https://dc.lft.to/lastmile_qr_scan", "ios": "https://dc.lft.to/lastmile_qr_scan"}, "fusion_lon": 0.0}, {"lat": 38.867101, "is_disabled": 0, "type": "electric_scooter", "lon": -76.98726683333334, "bike_id": "af05f9f8d58b825bb6dcae9d85a65a2f", "fusion_lat": 0.0, "name": "af05f9f8d58b825bb6dcae9d85a65a2f", "is_reserved": 0, "rental_uris": {"android": "https://dc.lft.to/lastmile_qr_scan", "ios": "https://dc.lft.to/lastmile_qr_scan"}, "fusion_lon": 0.0}, {"lat": 38.903428, "is_disabled": 0, "type": "electric_scooter", "lon": -77.042675, "bike_id": "cf357fbe192987f9be3c5dc4f601b9b3", "fusion_lat": 0.0, "name": "cf357fbe192987f9be3c5dc4f601b9b3", "is_reserved": 0, "rental_uris": {"android": "https://dc.lft.to/lastmile_qr_scan", "ios": "https://dc.lft.to/lastmile_qr_scan"}, "fusion_lon": 0.0}, {"lat": 38.86507616666667, "is_disabled": 0, "type": "electric_scooter", "lon": -76.99007766666666, "bike_id": "95c801e73cac2d6ce6e8f026b8140ac4", "fusion_lat": 0.0, "name": "95c801e73cac2d6ce6e8f026b8140ac4", "is_reserved": 0, "rental_uris": {"android": "https://dc.lft.to/lastmile_qr_scan", "ios": "https://dc.lft.to/lastmile_qr_scan"}, "fusion_lon": 0.0}, {"lat": 38.884744, "is_disabled": 0, "type": "electric_scooter", "lon": -77.0241665, "bike_id": "b5a698bf55bf09fd1ea32191ac6b51f0", "fusion_lat": 0.0, "name": "b5a698bf55bf09fd1ea32191ac6b51f0", "is_reserved": 0, "rental_uris": {"android": "https://dc.lft.to/lastmile_qr_scan", "ios": "https://dc.lft.to/lastmile_qr_scan"}, "fusion_lon": 0.0}, {"lat": 38.88004733333333, "is_disabled": 0, "type": "electric_scooter", "lon": -77.02479316666667, "bike_id": "ad4aca12ff95b7c1ad729fd7415aae8a", "fusion_lat": 0.0, "name": "ad4aca12ff95b7c1ad729fd7415aae8a", "is_reserved": 0, "rental_uris": {"android": "https://dc.lft.to/lastmile_qr_scan", "ios": "https://dc.lft.to/lastmile_qr_scan"}, "fusion_lon": 0.0}, {"lat": 38.908525, "is_disabled": 0, "type": "electric_scooter", "lon": -77.04766616666667, "bike_id": "a397ac3d7aa8aa17864714cddb31a277", "fusion_lat": 0.0, "name": "a397ac3d7aa8aa17864714cddb31a277", "is_reserved": 0, "rental_uris": {"android": "https://dc.lft.to/lastmile_qr_scan", "ios": "https://dc.lft.to/lastmile_qr_scan"}, "fusion_lon": 0.0}, {"lat": 38.9440715, "is_disabled": 0, "type": "electric_scooter", "lon": -77.02643183333333, "bike_id": "10c997ea9db3e023cf097af534a21245", "fusion_lat": 0.0, "name": "10c997ea9db3e023cf097af534a21245", "is_reserved": 0, "rental_uris": {"android": "https://dc.lft.to/lastmile_qr_scan", "ios": "https://dc.lft.to/lastmile_qr_scan"}, "fusion_lon": 0.0}, {"lat": 38.900688833333334, "is_disabled": 0, "type": "electric_scooter", "lon": -77.00216483333334, "bike_id": "be7d8e090da6cbdb7dc229ede890112e", "fusion_lat": 0.0, "name": "be7d8e090da6cbdb7dc229ede890112e", "is_reserved": 0, "rental_uris": {"android": "https://dc.lft.to/lastmile_qr_scan", "ios": "https://dc.lft.to/lastmile_qr_scan"}, "fusion_lon": 0.0}, {"lat": 38.90668866666667, "is_disabled": 0, "type": "electric_bike", "lon": -77.0271045, "bike_id": "e64ce16c46de83351801c5badee0ba34", "fusion_lat": 0.0, "name": "e64ce16c46de83351801c5badee0ba34", "is_reserved": 0, "rental_uris": {"android": "https://dc.lft.to/lastmile_qr_scan", "ios": "https://dc.lft.to/lastmile_qr_scan"}, "fusion_lon": 0.0}, {"lat": 38.889256833333334, "is_disabled": 0, "type": "electric_scooter", "lon": -76.97370516666666, "bike_id": "1995520ab60d68d39d9833f591a313d2", "fusion_lat": 0.0, "name": "1995520ab60d68d39d9833f591a313d2", "is_reserved": 0, "rental_uris": {"android": "https://dc.lft.to/lastmile_qr_scan", "ios": "https://dc.lft.to/lastmile_qr_scan"}, "fusion_lon": 0.0}, {"lat": 38.91689616666667, "is_disabled": 0, "type": "electric_scooter", "lon": -77.0335065, "bike_id": "dc34c642ceadf706997daa389e83cdd6", "fusion_lat": 0.0, "name": "dc34c642ceadf706997daa389e83cdd6", "is_reserved": 0, "rental_uris": {"android": "https://dc.lft.to/lastmile_qr_scan", "ios": "https://dc.lft.to/lastmile_qr_scan"}, "fusion_lon": 0.0}, {"lat": 38.872386, "is_disabled": 0, "type": "electric_scooter", "lon": -76.97723033333334, "bike_id": "98ee1573f740c58bb3b5c9732f5c3909", "fusion_lat": 0.0, "name": "98ee1573f740c58bb3b5c9732f5c3909", "is_reserved": 0, "rental_uris": {"android": "https://dc.lft.to/lastmile_qr_scan", "ios": "https://dc.lft.to/lastmile_qr_scan"}, "fusion_lon": 0.0}, {"lat": 38.91693716666666, "is_disabled": 0, "type": "electric_scooter", "lon": -77.0269305, "bike_id": "0fe4736162f23363296a5f97c13fd79d", "fusion_lat": 0.0, "name": "0fe4736162f23363296a5f97c13fd79d", "is_reserved": 0, "rental_uris": {"android": "https://dc.lft.to/lastmile_qr_scan", "ios": "https://dc.lft.to/lastmile_qr_scan"}, "fusion_lon": 0.0}, {"lat": 38.89882266666667, "is_disabled": 0, "type": "electric_scooter", "lon": -77.07232483333334, "bike_id": "0476be3a13ff6c6bcdd3ec814d432c56", "fusion_lat": 0.0, "name": "0476be3a13ff6c6bcdd3ec814d432c56", "is_reserved": 0, "rental_uris": {"android": "https://dc.lft.to/lastmile_qr_scan", "ios": "https://dc.lft.to/lastmile_qr_scan"}, "fusion_lon": 0.0}, {"lat": 38.92298233333333, "is_disabled": 0, "type": "electric_scooter", "lon": -77.02331266666667, "bike_id": "3078190be4b23d83511dee0884417057", "fusion_lat": 0.0, "name": "3078190be4b23d83511dee0884417057", "is_reserved": 0, "rental_uris": {"android": "https://dc.lft.to/lastmile_qr_scan", "ios": "https://dc.lft.to/lastmile_qr_scan"}, "fusion_lon": 0.0}, {"lat": 38.903998333333334, "is_disabled": 0, "type": "electric_scooter", "lon": -77.04477816666666, "bike_id": "1b7221860c7ef95fbe1ff18881960c7a", "fusion_lat": 0.0, "name": "1b7221860c7ef95fbe1ff18881960c7a", "is_reserved": 0, "rental_uris": {"android": "https://dc.lft.to/lastmile_qr_scan", "ios": "https://dc.lft.to/lastmile_qr_scan"}, "fusion_lon": 0.0}, {"lat": 38.917489833333335, "is_disabled": 0, "type": "electric_scooter", "lon": -77.03182866666667, "bike_id": "7b010f2dbb08e504188f392d185a4000", "fusion_lat": 0.0, "name": "7b010f2dbb08e504188f392d185a4000", "is_reserved": 0, "rental_uris": {"android": "https://dc.lft.to/lastmile_qr_scan", "ios": "https://dc.lft.to/lastmile_qr_scan"}, "fusion_lon": 0.0}, {"lat": 38.912510166666664, "is_disabled": 0, "type": "electric_scooter", "lon": -77.04660716666666, "bike_id": "28fd211dce9d17dc0012da5a2e00ffaf", "fusion_lat": 0.0, "name": "28fd211dce9d17dc0012da5a2e00ffaf", "is_reserved": 0, "rental_uris": {"android": "https://dc.lft.to/lastmile_qr_scan", "ios": "https://dc.lft.to/lastmile_qr_scan"}, "fusion_lon": 0.0}, {"lat": 38.9329265, "is_disabled": 0, "type": "electric_scooter", "lon": -77.02194866666666, "bike_id": "15ea4d084c8267de93dd60c117c15de3", "fusion_lat": 0.0, "name": "15ea4d084c8267de93dd60c117c15de3", "is_reserved": 0, "rental_uris": {"android": "https://dc.lft.to/lastmile_qr_scan", "ios": "https://dc.lft.to/lastmile_qr_scan"}, "fusion_lon": 0.0}, {"lat": 38.939809333333336, "is_disabled": 0, "type": "electric_scooter", "lon": -77.02626983333333, "bike_id": "7c47d1bca69091ff0db34ad9a0877687", "fusion_lat": 0.0, "name": "7c47d1bca69091ff0db34ad9a0877687", "is_reserved": 0, "rental_uris": {"android": "https://dc.lft.to/lastmile_qr_scan", "ios": "https://dc.lft.to/lastmile_qr_scan"}, "fusion_lon": 0.0}, {"lat": 38.911859666666665, "is_disabled": 0, "type": "electric_scooter", "lon": -77.03637616666667, "bike_id": "2634785c978025b35b474e5d3bdf89ca", "fusion_lat": 0.0, "name": "2634785c978025b35b474e5d3bdf89ca", "is_reserved": 0, "rental_uris": {"android": "https://dc.lft.to/lastmile_qr_scan", "ios": "https://dc.lft.to/lastmile_qr_scan"}, "fusion_lon": 0.0}, {"lat": 38.919165, "is_disabled": 0, "type": "electric_scooter", "lon": -77.0246955, "bike_id": "f8b1a5e7f3404a37b6e2c104e8c2a6e4", "fusion_lat": 0.0, "name": "f8b1a5e7f3404a37b6e2c104e8c2a6e4", "is_reserved": 0, "rental_uris": {"android": "https://dc.lft.to/lastmile_qr_scan", "ios": "https://dc.lft.to/lastmile_qr_scan"}, "fusion_lon": 0.0}, {"lat": 38.93858633333333, "is_disabled": 0, "type": "electric_scooter", "lon": -77.030837, "bike_id": "e86c024321b9b3f4429ff4ac6ddaff58", "fusion_lat": 0.0, "name": "e86c024321b9b3f4429ff4ac6ddaff58", "is_reserved": 0, "rental_uris": {"android": "https://dc.lft.to/lastmile_qr_scan", "ios": "https://dc.lft.to/lastmile_qr_scan"}, "fusion_lon": 0.0}, {"lat": 38.90028433333333, "is_disabled": 0, "type": "electric_scooter", "lon": -76.98979433333334, "bike_id": "efd03bae257fef7c9f5f91fa23c31ffd", "fusion_lat": 0.0, "name": "efd03bae257fef7c9f5f91fa23c31ffd", "is_reserved": 0, "rental_uris": {"android": "https://dc.lft.to/lastmile_qr_scan", "ios": "https://dc.lft.to/lastmile_qr_scan"}, "fusion_lon": 0.0}, {"lat": 38.90304966666667, "is_disabled": 0, "type": "electric_bike", "lon": -77.01636733333333, "bike_id": "c12af73ad3c4aa959faabb687c0ecccb", "fusion_lat": 0.0, "name": "c12af73ad3c4aa959faabb687c0ecccb", "is_reserved": 0, "rental_uris": {"android": "https://dc.lft.to/lastmile_qr_scan", "ios": "https://dc.lft.to/lastmile_qr_scan"}, "fusion_lon": 0.0}, {"lat": 38.866429, "is_disabled": 0, "type": "electric_scooter", "lon": -76.98882616666667, "bike_id": "d2d2233abbbffd6d5476bffe6a1cd017", "fusion_lat": 0.0, "name": "d2d2233abbbffd6d5476bffe6a1cd017", "is_reserved": 0, "rental_uris": {"android": "https://dc.lft.to/lastmile_qr_scan", "ios": "https://dc.lft.to/lastmile_qr_scan"}, "fusion_lon": 0.0}, {"lat": 38.938680166666664, "is_disabled": 0, "type": "electric_scooter", "lon": -77.03123366666667, "bike_id": "b4a6f71589fb41736225355cb3c0f369", "fusion_lat": 0.0, "name": "b4a6f71589fb41736225355cb3c0f369", "is_reserved": 0, "rental_uris": {"android": "https://dc.lft.to/lastmile_qr_scan", "ios": "https://dc.lft.to/lastmile_qr_scan"}, "fusion_lon": 0.0}, {"lat": 38.8801925, "is_disabled": 0, "type": "electric_scooter", "lon": -76.96011883333334, "bike_id": "d2a18b9621f4e2200741bb412ec3b18b", "fusion_lat": 0.0, "name": "d2a18b9621f4e2200741bb412ec3b18b", "is_reserved": 0, "rental_uris": {"android": "https://dc.lft.to/lastmile_qr_scan", "ios": "https://dc.lft.to/lastmile_qr_scan"}, "fusion_lon": 0.0}, {"lat": 38.916834333333334, "is_disabled": 0, "type": "electric_scooter", "lon": -77.0374585, "bike_id": "0779f73e566b43bdc8efd002cafb1f83", "fusion_lat": 0.0, "name": "0779f73e566b43bdc8efd002cafb1f83", "is_reserved": 0, "rental_uris": {"android": "https://dc.lft.to/lastmile_qr_scan", "ios": "https://dc.lft.to/lastmile_qr_scan"}, "fusion_lon": 0.0}, {"lat": 38.920603166666666, "is_disabled": 0, "type": "electric_scooter", "lon": -77.04373366666667, "bike_id": "3641986b557d9613f2398c0b83706954", "fusion_lat": 0.0, "name": "3641986b557d9613f2398c0b83706954", "is_reserved": 0, "rental_uris": {"android": "https://dc.lft.to/lastmile_qr_scan", "ios": "https://dc.lft.to/lastmile_qr_scan"}, "fusion_lon": 0.0}, {"lat": 38.91714233333333, "is_disabled": 0, "type": "electric_scooter", "lon": -77.03345616666667, "bike_id": "0b1c04bfd7f063eeef633c27a9fbe2a8", "fusion_lat": 0.0, "name": "0b1c04bfd7f063eeef633c27a9fbe2a8", "is_reserved": 0, "rental_uris": {"android": "https://dc.lft.to/lastmile_qr_scan", "ios": "https://dc.lft.to/lastmile_qr_scan"}, "fusion_lon": 0.0}, {"lat": 38.895495, "is_disabled": 0, "type": "electric_scooter", "lon": -77.009213, "bike_id": "a91e1da775a2e0e3f7343811b3fc7a53", "fusion_lat": 0.0, "name": "a91e1da775a2e0e3f7343811b3fc7a53", "is_reserved": 0, "rental_uris": {"android": "https://dc.lft.to/lastmile_qr_scan", "ios": "https://dc.lft.to/lastmile_qr_scan"}, "fusion_lon": 0.0}, {"lat": 38.934676833333334, "is_disabled": 0, "type": "electric_scooter", "lon": -77.0411525, "bike_id": "43ffcf9fd50aa44f1e495602fe289af3", "fusion_lat": 0.0, "name": "43ffcf9fd50aa44f1e495602fe289af3", "is_reserved": 0, "rental_uris": {"android": "https://dc.lft.to/lastmile_qr_scan", "ios": "https://dc.lft.to/lastmile_qr_scan"}, "fusion_lon": 0.0}, {"lat": 38.8973475, "is_disabled": 0, "type": "electric_scooter", "lon": -77.02402166666667, "bike_id": "14446f30a6874bd1164a7bdc62c01413", "fusion_lat": 0.0, "name": "14446f30a6874bd1164a7bdc62c01413", "is_reserved": 0, "rental_uris": {"android": "https://dc.lft.to/lastmile_qr_scan", "ios": "https://dc.lft.to/lastmile_qr_scan"}, "fusion_lon": 0.0}, {"lat": 38.9125405, "is_disabled": 0, "type": "electric_scooter", "lon": -77.03805883333334, "bike_id": "5bae59abbe92d76cf8c76795764f08da", "fusion_lat": 0.0, "name": "5bae59abbe92d76cf8c76795764f08da", "is_reserved": 0, "rental_uris": {"android": "https://dc.lft.to/lastmile_qr_scan", "ios": "https://dc.lft.to/lastmile_qr_scan"}, "fusion_lon": 0.0}, {"lat": 38.90373066666667, "is_disabled": 0, "type": "electric_scooter", "lon": -76.99232466666666, "bike_id": "d5a33315c0441a368106c5462ed13e70", "fusion_lat": 0.0, "name": "d5a33315c0441a368106c5462ed13e70", "is_reserved": 0, "rental_uris": {"android": "https://dc.lft.to/lastmile_qr_scan", "ios": "https://dc.lft.to/lastmile_qr_scan"}, "fusion_lon": 0.0}, {"lat": 38.9083945, "is_disabled": 0, "type": "electric_scooter", "lon": -77.00097616666666, "bike_id": "2203bad9028e2244e1ba66e00bb3290d", "fusion_lat": 0.0, "name": "2203bad9028e2244e1ba66e00bb3290d", "is_reserved": 0, "rental_uris": {"android": "https://dc.lft.to/lastmile_qr_scan", "ios": "https://dc.lft.to/lastmile_qr_scan"}, "fusion_lon": 0.0}, {"lat": 38.89092866666667, "is_disabled": 0, "type": "electric_scooter", "lon": -76.95268016666667, "bike_id": "73a3356a523311cd80f03f74868ba192", "fusion_lat": 0.0, "name": "73a3356a523311cd80f03f74868ba192", "is_reserved": 0, "rental_uris": {"android": "https://dc.lft.to/lastmile_qr_scan", "ios": "https://dc.lft.to/lastmile_qr_scan"}, "fusion_lon": 0.0}, {"lat": 38.911196, "is_disabled": 0, "type": "electric_scooter", "lon": -77.037152, "bike_id": "29b16a02b6dc4440277ce13b6c9d7dab", "fusion_lat": 0.0, "name": "29b16a02b6dc4440277ce13b6c9d7dab", "is_reserved": 0, "rental_uris": {"android": "https://dc.lft.to/lastmile_qr_scan", "ios": "https://dc.lft.to/lastmile_qr_scan"}, "fusion_lon": 0.0}, {"lat": 38.952111, "is_disabled": 0, "type": "electric_scooter", "lon": -77.08599383333333, "bike_id": "260e8ca30421f84e69f63b93cc5fbbde", "fusion_lat": 0.0, "name": "260e8ca30421f84e69f63b93cc5fbbde", "is_reserved": 0, "rental_uris": {"android": "https://dc.lft.to/lastmile_qr_scan", "ios": "https://dc.lft.to/lastmile_qr_scan"}, "fusion_lon": 0.0}, {"lat": 38.92144016666666, "is_disabled": 0, "type": "electric_scooter", "lon": -77.045975, "bike_id": "76fad525f6acbffb8705018a884f4e81", "fusion_lat": 0.0, "name": "76fad525f6acbffb8705018a884f4e81", "is_reserved": 0, "rental_uris": {"android": "https://dc.lft.to/lastmile_qr_scan", "ios": "https://dc.lft.to/lastmile_qr_scan"}, "fusion_lon": 0.0}, {"lat": 38.9308455, "is_disabled": 0, "type": "electric_scooter", "lon": -77.03125683333333, "bike_id": "1bbe6d1bf3afed195c858207655428a5", "fusion_lat": 0.0, "name": "1bbe6d1bf3afed195c858207655428a5", "is_reserved": 0, "rental_uris": {"android": "https://dc.lft.to/lastmile_qr_scan", "ios": "https://dc.lft.to/lastmile_qr_scan"}, "fusion_lon": 0.0}, {"lat": 38.9130815, "is_disabled": 0, "type": "electric_scooter", "lon": -77.03191716666667, "bike_id": "1a944ecb064efeccaa1bab82fce6f353", "fusion_lat": 0.0, "name": "1a944ecb064efeccaa1bab82fce6f353", "is_reserved": 0, "rental_uris": {"android": "https://dc.lft.to/lastmile_qr_scan", "ios": "https://dc.lft.to/lastmile_qr_scan"}, "fusion_lon": 0.0}, {"lat": 38.99995933333334, "is_disabled": 0, "type": "electric_bike", "lon": -76.92494983333333, "bike_id": "83dbaf0f0eb862d21272d5889ba74720", "fusion_lat": 0.0, "name": "83dbaf0f0eb862d21272d5889ba74720", "is_reserved": 0, "rental_uris": {"android": "https://dc.lft.to/lastmile_qr_scan", "ios": "https://dc.lft.to/lastmile_qr_scan"}, "fusion_lon": 0.0}, {"lat": 38.916439, "is_disabled": 0, "type": "electric_scooter", "lon": -77.022373, "bike_id": "ef34dee9a6c7f44a9315f0cc182509b3", "fusion_lat": 0.0, "name": "ef34dee9a6c7f44a9315f0cc182509b3", "is_reserved": 0, "rental_uris": {"android": "https://dc.lft.to/lastmile_qr_scan", "ios": "https://dc.lft.to/lastmile_qr_scan"}, "fusion_lon": 0.0}, {"lat": 38.87009783333333, "is_disabled": 0, "type": "electric_bike", "lon": -76.9601695, "bike_id": "0e0c11981d49bb934b487a91580f6d7f", "fusion_lat": 0.0, "name": "0e0c11981d49bb934b487a91580f6d7f", "is_reserved": 0, "rental_uris": {"android": "https://dc.lft.to/lastmile_qr_scan", "ios": "https://dc.lft.to/lastmile_qr_scan"}, "fusion_lon": 0.0}, {"lat": 38.9198715, "is_disabled": 0, "type": "electric_scooter", "lon": -77.02373816666666, "bike_id": "65bd96b64edce52a5650144c6b0e792b", "fusion_lat": 0.0, "name": "65bd96b64edce52a5650144c6b0e792b", "is_reserved": 0, "rental_uris": {"android": "https://dc.lft.to/lastmile_qr_scan", "ios": "https://dc.lft.to/lastmile_qr_scan"}, "fusion_lon": 0.0}, {"lat": 38.99635516666667, "is_disabled": 0, "type": "electric_bike", "lon": -77.0297385, "bike_id": "4ecadec3e4fa2a91cf22ac9105b83214", "fusion_lat": 0.0, "name": "4ecadec3e4fa2a91cf22ac9105b83214", "is_reserved": 0, "rental_uris": {"android": "https://dc.lft.to/lastmile_qr_scan", "ios": "https://dc.lft.to/lastmile_qr_scan"}, "fusion_lon": 0.0}, {"lat": 38.918149166666666, "is_disabled": 0, "type": "electric_scooter", "lon": -77.03911916666667, "bike_id": "750f9dabd70144a81f70f034f346e04a", "fusion_lat": 0.0, "name": "750f9dabd70144a81f70f034f346e04a", "is_reserved": 0, "rental_uris": {"android": "https://dc.lft.to/lastmile_qr_scan", "ios": "https://dc.lft.to/lastmile_qr_scan"}, "fusion_lon": 0.0}, {"lat": 38.9141995, "is_disabled": 0, "type": "electric_scooter", "lon": -77.02201316666667, "bike_id": "5a9947babe32e08856fa71d01566c34d", "fusion_lat": 0.0, "name": "5a9947babe32e08856fa71d01566c34d", "is_reserved": 0, "rental_uris": {"android": "https://dc.lft.to/lastmile_qr_scan", "ios": "https://dc.lft.to/lastmile_qr_scan"}, "fusion_lon": 0.0}, {"lat": 38.904008833333336, "is_disabled": 0, "type": "electric_scooter", "lon": -77.04002283333334, "bike_id": "bc7925acb119e4f1a6590407fb6b8d05", "fusion_lat": 0.0, "name": "bc7925acb119e4f1a6590407fb6b8d05", "is_reserved": 0, "rental_uris": {"android": "https://dc.lft.to/lastmile_qr_scan", "ios": "https://dc.lft.to/lastmile_qr_scan"}, "fusion_lon": 0.0}, {"lat": 38.908526333333334, "is_disabled": 0, "type": "electric_scooter", "lon": -77.02308666666667, "bike_id": "63818ac082105cef37e46292667eccc2", "fusion_lat": 0.0, "name": "63818ac082105cef37e46292667eccc2", "is_reserved": 0, "rental_uris": {"android": "https://dc.lft.to/lastmile_qr_scan", "ios": "https://dc.lft.to/lastmile_qr_scan"}, "fusion_lon": 0.0}, {"lat": 38.90735733333333, "is_disabled": 0, "type": "electric_scooter", "lon": -77.0280265, "bike_id": "81548e6b0f1c721deb18abc0f0dd6f7f", "fusion_lat": 0.0, "name": "81548e6b0f1c721deb18abc0f0dd6f7f", "is_reserved": 0, "rental_uris": {"android": "https://dc.lft.to/lastmile_qr_scan", "ios": "https://dc.lft.to/lastmile_qr_scan"}, "fusion_lon": 0.0}, {"lat": 38.923923333333335, "is_disabled": 0, "type": "electric_scooter", "lon": -77.052598, "bike_id": "34daad4b5d61e217465e1f738f2ba677", "fusion_lat": 0.0, "name": "34daad4b5d61e217465e1f738f2ba677", "is_reserved": 0, "rental_uris": {"android": "https://dc.lft.to/lastmile_qr_scan", "ios": "https://dc.lft.to/lastmile_qr_scan"}, "fusion_lon": 0.0}, {"lat": 38.909859833333336, "is_disabled": 0, "type": "electric_scooter", "lon": -76.98464516666667, "bike_id": "e3b529bbf8aca0632f14950dd5a5be0c", "fusion_lat": 0.0, "name": "e3b529bbf8aca0632f14950dd5a5be0c", "is_reserved": 0, "rental_uris": {"android": "https://dc.lft.to/lastmile_qr_scan", "ios": "https://dc.lft.to/lastmile_qr_scan"}, "fusion_lon": 0.0}, {"lat": 38.90847766666667, "is_disabled": 0, "type": "electric_scooter", "lon": -76.99953283333333, "bike_id": "6da4d2044d74b4068746f4dbc323a92d", "fusion_lat": 0.0, "name": "6da4d2044d74b4068746f4dbc323a92d", "is_reserved": 0, "rental_uris": {"android": "https://dc.lft.to/lastmile_qr_scan", "ios": "https://dc.lft.to/lastmile_qr_scan"}, "fusion_lon": 0.0}, {"lat": 38.88015683333333, "is_disabled": 0, "type": "electric_scooter", "lon": -77.02481183333333, "bike_id": "b9ddd312a68fc0aca1d38c7fdc75bde0", "fusion_lat": 0.0, "name": "b9ddd312a68fc0aca1d38c7fdc75bde0", "is_reserved": 0, "rental_uris": {"android": "https://dc.lft.to/lastmile_qr_scan", "ios": "https://dc.lft.to/lastmile_qr_scan"}, "fusion_lon": 0.0}, {"lat": 38.87682733333333, "is_disabled": 0, "type": "electric_bike", "lon": -77.0175875, "bike_id": "9a508f61cd1730a6d49f726a6f84df0a", "fusion_lat": 0.0, "name": "9a508f61cd1730a6d49f726a6f84df0a", "is_reserved": 0, "rental_uris": {"android": "https://dc.lft.to/lastmile_qr_scan", "ios": "https://dc.lft.to/lastmile_qr_scan"}, "fusion_lon": 0.0}, {"lat": 38.90041333333333, "is_disabled": 0, "type": "electric_scooter", "lon": -76.99504883333333, "bike_id": "043d5fb38b4cba22d58e79ff09dc9423", "fusion_lat": 0.0, "name": "043d5fb38b4cba22d58e79ff09dc9423", "is_reserved": 0, "rental_uris": {"android": "https://dc.lft.to/lastmile_qr_scan", "ios": "https://dc.lft.to/lastmile_qr_scan"}, "fusion_lon": 0.0}, {"lat": 38.926812, "is_disabled": 0, "type": "electric_scooter", "lon": -77.02116466666666, "bike_id": "8ba94827163a0b32d38b615154a0c017", "fusion_lat": 0.0, "name": "8ba94827163a0b32d38b615154a0c017", "is_reserved": 0, "rental_uris": {"android": "https://dc.lft.to/lastmile_qr_scan", "ios": "https://dc.lft.to/lastmile_qr_scan"}, "fusion_lon": 0.0}, {"lat": 38.839834333333336, "is_disabled": 0, "type": "electric_bike", "lon": -77.00567616666666, "bike_id": "979d51d768c603eb19419c15974df17a", "fusion_lat": 0.0, "name": "979d51d768c603eb19419c15974df17a", "is_reserved": 0, "rental_uris": {"android": "https://dc.lft.to/lastmile_qr_scan", "ios": "https://dc.lft.to/lastmile_qr_scan"}, "fusion_lon": 0.0}, {"lat": 38.90419816666667, "is_disabled": 0, "type": "electric_scooter", "lon": -77.059099, "bike_id": "a8efede98a20cf00869dd5a63977b12b", "fusion_lat": 0.0, "name": "a8efede98a20cf00869dd5a63977b12b", "is_reserved": 0, "rental_uris": {"android": "https://dc.lft.to/lastmile_qr_scan", "ios": "https://dc.lft.to/lastmile_qr_scan"}, "fusion_lon": 0.0}, {"lat": 38.9168535, "is_disabled": 0, "type": "electric_scooter", "lon": -77.03719833333334, "bike_id": "438d63e9fb3d801516400c7acc145c30", "fusion_lat": 0.0, "name": "438d63e9fb3d801516400c7acc145c30", "is_reserved": 0, "rental_uris": {"android": "https://dc.lft.to/lastmile_qr_scan", "ios": "https://dc.lft.to/lastmile_qr_scan"}, "fusion_lon": 0.0}, {"lat": 38.909531, "is_disabled": 0, "type": "electric_scooter", "lon": -77.03201466666667, "bike_id": "86097b31f22bf9d2814ed32b8ad1f562", "fusion_lat": 0.0, "name": "86097b31f22bf9d2814ed32b8ad1f562", "is_reserved": 0, "rental_uris": {"android": "https://dc.lft.to/lastmile_qr_scan", "ios": "https://dc.lft.to/lastmile_qr_scan"}, "fusion_lon": 0.0}, {"lat": 38.92540983333333, "is_disabled": 0, "type": "electric_scooter", "lon": -77.04427583333333, "bike_id": "91cf203ad75efca96e7e4f689edddb7e", "fusion_lat": 0.0, "name": "91cf203ad75efca96e7e4f689edddb7e", "is_reserved": 0, "rental_uris": {"android": "https://dc.lft.to/lastmile_qr_scan", "ios": "https://dc.lft.to/lastmile_qr_scan"}, "fusion_lon": 0.0}, {"lat": 38.932069166666665, "is_disabled": 0, "type": "electric_scooter", "lon": -77.03658416666667, "bike_id": "5769fc32ff84cf496ae462662f2f2487", "fusion_lat": 0.0, "name": "5769fc32ff84cf496ae462662f2f2487", "is_reserved": 0, "rental_uris": {"android": "https://dc.lft.to/lastmile_qr_scan", "ios": "https://dc.lft.to/lastmile_qr_scan"}, "fusion_lon": 0.0}, {"lat": 38.90036, "is_disabled": 0, "type": "electric_scooter", "lon": -76.99372516666666, "bike_id": "2c5957fbb3bd1c785e1f765571f5d564", "fusion_lat": 0.0, "name": "2c5957fbb3bd1c785e1f765571f5d564", "is_reserved": 0, "rental_uris": {"android": "https://dc.lft.to/lastmile_qr_scan", "ios": "https://dc.lft.to/lastmile_qr_scan"}, "fusion_lon": 0.0}, {"lat": 38.900882, "is_disabled": 0, "type": "electric_scooter", "lon": -77.01817966666667, "bike_id": "c147d5656afbd1562223bf324f83ffd8", "fusion_lat": 0.0, "name": "c147d5656afbd1562223bf324f83ffd8", "is_reserved": 0, "rental_uris": {"android": "https://dc.lft.to/lastmile_qr_scan", "ios": "https://dc.lft.to/lastmile_qr_scan"}, "fusion_lon": 0.0}, {"lat": 38.93637866666667, "is_disabled": 0, "type": "electric_scooter", "lon": -77.02504016666667, "bike_id": "501d264ff650db959486ead9a5c30b68", "fusion_lat": 0.0, "name": "501d264ff650db959486ead9a5c30b68", "is_reserved": 0, "rental_uris": {"android": "https://dc.lft.to/lastmile_qr_scan", "ios": "https://dc.lft.to/lastmile_qr_scan"}, "fusion_lon": 0.0}, {"lat": 38.9224955, "is_disabled": 0, "type": "electric_scooter", "lon": -77.0429015, "bike_id": "d74565c320c09a235a87a1f9b0320a9f", "fusion_lat": 0.0, "name": "d74565c320c09a235a87a1f9b0320a9f", "is_reserved": 0, "rental_uris": {"android": "https://dc.lft.to/lastmile_qr_scan", "ios": "https://dc.lft.to/lastmile_qr_scan"}, "fusion_lon": 0.0}, {"lat": 38.8935085, "is_disabled": 0, "type": "electric_scooter", "lon": -77.04138183333333, "bike_id": "dbd5076e75852f27bef80990b462693c", "fusion_lat": 0.0, "name": "dbd5076e75852f27bef80990b462693c", "is_reserved": 0, "rental_uris": {"android": "https://dc.lft.to/lastmile_qr_scan", "ios": "https://dc.lft.to/lastmile_qr_scan"}, "fusion_lon": 0.0}, {"lat": 38.92850583333333, "is_disabled": 0, "type": "electric_bike", "lon": -77.10676733333334, "bike_id": "125bfff3bca29a9749ec843f6fc7f620", "fusion_lat": 0.0, "name": "125bfff3bca29a9749ec843f6fc7f620", "is_reserved": 0, "rental_uris": {"android": "https://dc.lft.to/lastmile_qr_scan", "ios": "https://dc.lft.to/lastmile_qr_scan"}, "fusion_lon": 0.0}, {"lat": 38.91643033333333, "is_disabled": 0, "type": "electric_scooter", "lon": -77.04791333333333, "bike_id": "955bccc2a7353ab5cbbb73dd895ecf47", "fusion_lat": 0.0, "name": "955bccc2a7353ab5cbbb73dd895ecf47", "is_reserved": 0, "rental_uris": {"android": "https://dc.lft.to/lastmile_qr_scan", "ios": "https://dc.lft.to/lastmile_qr_scan"}, "fusion_lon": 0.0}, {"lat": 38.91686716666667, "is_disabled": 0, "type": "electric_scooter", "lon": -77.0255675, "bike_id": "54efa6eebc43bccc75f9b816ed984dc9", "fusion_lat": 0.0, "name": "54efa6eebc43bccc75f9b816ed984dc9", "is_reserved": 0, "rental_uris": {"android": "https://dc.lft.to/lastmile_qr_scan", "ios": "https://dc.lft.to/lastmile_qr_scan"}, "fusion_lon": 0.0}, {"lat": 38.91482583333333, "is_disabled": 0, "type": "electric_scooter", "lon": -77.03260766666666, "bike_id": "ebcb0368d87a96f490e5b6bf0087150b", "fusion_lat": 0.0, "name": "ebcb0368d87a96f490e5b6bf0087150b", "is_reserved": 0, "rental_uris": {"android": "https://dc.lft.to/lastmile_qr_scan", "ios": "https://dc.lft.to/lastmile_qr_scan"}, "fusion_lon": 0.0}, {"lat": 38.91175666666667, "is_disabled": 0, "type": "electric_scooter", "lon": -77.006433, "bike_id": "29380f3265ae6bac23df161f1a0c915d", "fusion_lat": 0.0, "name": "29380f3265ae6bac23df161f1a0c915d", "is_reserved": 0, "rental_uris": {"android": "https://dc.lft.to/lastmile_qr_scan", "ios": "https://dc.lft.to/lastmile_qr_scan"}, "fusion_lon": 0.0}, {"lat": 38.9045045, "is_disabled": 0, "type": "electric_scooter", "lon": -76.99457233333334, "bike_id": "a72173511551f4a2a4f1624c819fbb17", "fusion_lat": 0.0, "name": "a72173511551f4a2a4f1624c819fbb17", "is_reserved": 0, "rental_uris": {"android": "https://dc.lft.to/lastmile_qr_scan", "ios": "https://dc.lft.to/lastmile_qr_scan"}, "fusion_lon": 0.0}, {"lat": 38.930178833333336, "is_disabled": 0, "type": "electric_bike", "lon": -77.03256066666667, "bike_id": "462a42c5ffa2488b8a8f734068221a9c", "fusion_lat": 0.0, "name": "462a42c5ffa2488b8a8f734068221a9c", "is_reserved": 0, "rental_uris": {"android": "https://dc.lft.to/lastmile_qr_scan", "ios": "https://dc.lft.to/lastmile_qr_scan"}, "fusion_lon": 0.0}, {"lat": 38.96929383333333, "is_disabled": 0, "type": "electric_bike", "lon": -77.026195, "bike_id": "7ff38f1367258847defebc4db0cf1171", "fusion_lat": 0.0, "name": "7ff38f1367258847defebc4db0cf1171", "is_reserved": 0, "rental_uris": {"android": "https://dc.lft.to/lastmile_qr_scan", "ios": "https://dc.lft.to/lastmile_qr_scan"}, "fusion_lon": 0.0}, {"lat": 38.903792, "is_disabled": 0, "type": "electric_scooter", "lon": -77.036555, "bike_id": "fe2ab56a5bc1e7dabfc526dd5c1707e2", "fusion_lat": 0.0, "name": "fe2ab56a5bc1e7dabfc526dd5c1707e2", "is_reserved": 0, "rental_uris": {"android": "https://dc.lft.to/lastmile_qr_scan", "ios": "https://dc.lft.to/lastmile_qr_scan"}, "fusion_lon": 0.0}, {"lat": 38.927455333333334, "is_disabled": 0, "type": "electric_bike", "lon": -77.036348, "bike_id": "57e4ca4db4f56ff776ad3b204b1dca15", "fusion_lat": 0.0, "name": "57e4ca4db4f56ff776ad3b204b1dca15", "is_reserved": 0, "rental_uris": {"android": "https://dc.lft.to/lastmile_qr_scan", "ios": "https://dc.lft.to/lastmile_qr_scan"}, "fusion_lon": 0.0}, {"lat": 38.933629833333335, "is_disabled": 0, "type": "electric_scooter", "lon": -77.0574955, "bike_id": "096e978260e72716480a349559a94b69", "fusion_lat": 0.0, "name": "096e978260e72716480a349559a94b69", "is_reserved": 0, "rental_uris": {"android": "https://dc.lft.to/lastmile_qr_scan", "ios": "https://dc.lft.to/lastmile_qr_scan"}, "fusion_lon": 0.0}, {"lat": 38.9309585, "is_disabled": 0, "type": "electric_scooter", "lon": -77.02557816666666, "bike_id": "6fb4a5ca7fb23198837c5dfe6f5856cd", "fusion_lat": 0.0, "name": "6fb4a5ca7fb23198837c5dfe6f5856cd", "is_reserved": 0, "rental_uris": {"android": "https://dc.lft.to/lastmile_qr_scan", "ios": "https://dc.lft.to/lastmile_qr_scan"}, "fusion_lon": 0.0}, {"lat": 38.892513, "is_disabled": 0, "type": "electric_scooter", "lon": -77.048939, "bike_id": "4739836412e6705f0c065958be3956b4", "fusion_lat": 0.0, "name": "4739836412e6705f0c065958be3956b4", "is_reserved": 0, "rental_uris": {"android": "https://dc.lft.to/lastmile_qr_scan", "ios": "https://dc.lft.to/lastmile_qr_scan"}, "fusion_lon": 0.0}, {"lat": 38.905706333333335, "is_disabled": 0, "type": "electric_scooter", "lon": -77.02489766666666, "bike_id": "9f4d7598fe0f8bc39f2feae492731610", "fusion_lat": 0.0, "name": "9f4d7598fe0f8bc39f2feae492731610", "is_reserved": 0, "rental_uris": {"android": "https://dc.lft.to/lastmile_qr_scan", "ios": "https://dc.lft.to/lastmile_qr_scan"}, "fusion_lon": 0.0}, {"lat": 38.91811633333333, "is_disabled": 0, "type": "electric_scooter", "lon": -77.03665133333334, "bike_id": "16ab42a787199c15a431254dc5393d74", "fusion_lat": 0.0, "name": "16ab42a787199c15a431254dc5393d74", "is_reserved": 0, "rental_uris": {"android": "https://dc.lft.to/lastmile_qr_scan", "ios": "https://dc.lft.to/lastmile_qr_scan"}, "fusion_lon": 0.0}, {"lat": 38.898325666666665, "is_disabled": 0, "type": "electric_scooter", "lon": -76.93106166666666, "bike_id": "bb887ec0cf6fc576c6c98aae8a6c9486", "fusion_lat": 0.0, "name": "bb887ec0cf6fc576c6c98aae8a6c9486", "is_reserved": 0, "rental_uris": {"android": "https://dc.lft.to/lastmile_qr_scan", "ios": "https://dc.lft.to/lastmile_qr_scan"}, "fusion_lon": 0.0}, {"lat": 38.92504266666667, "is_disabled": 0, "type": "electric_bike", "lon": -76.98222616666666, "bike_id": "9484d15d460ec7702e75a74512872f2f", "fusion_lat": 0.0, "name": "9484d15d460ec7702e75a74512872f2f", "is_reserved": 0, "rental_uris": {"android": "https://dc.lft.to/lastmile_qr_scan", "ios": "https://dc.lft.to/lastmile_qr_scan"}, "fusion_lon": 0.0}, {"lat": 38.92118883333333, "is_disabled": 0, "type": "electric_scooter", "lon": -77.03657783333334, "bike_id": "d1800f84db368080bca079d4af6ec0c6", "fusion_lat": 0.0, "name": "d1800f84db368080bca079d4af6ec0c6", "is_reserved": 0, "rental_uris": {"android": "https://dc.lft.to/lastmile_qr_scan", "ios": "https://dc.lft.to/lastmile_qr_scan"}, "fusion_lon": 0.0}, {"lat": 38.857113, "is_disabled": 0, "type": "electric_bike", "lon": -76.971128, "bike_id": "be3891dd8537c7a0c416177dc7451358", "fusion_lat": 0.0, "name": "be3891dd8537c7a0c416177dc7451358", "is_reserved": 0, "rental_uris": {"android": "https://dc.lft.to/lastmile_qr_scan", "ios": "https://dc.lft.to/lastmile_qr_scan"}, "fusion_lon": 0.0}, {"lat": 38.917655, "is_disabled": 0, "type": "electric_scooter", "lon": -77.0149835, "bike_id": "228695dbcc04e4aeeaef729b75bd0881", "fusion_lat": 0.0, "name": "228695dbcc04e4aeeaef729b75bd0881", "is_reserved": 0, "rental_uris": {"android": "https://dc.lft.to/lastmile_qr_scan", "ios": "https://dc.lft.to/lastmile_qr_scan"}, "fusion_lon": 0.0}, {"lat": 38.917993833333334, "is_disabled": 0, "type": "electric_scooter", "lon": -77.03199166666667, "bike_id": "5415220aea304122ce5cb5b68a1cc473", "fusion_lat": 0.0, "name": "5415220aea304122ce5cb5b68a1cc473", "is_reserved": 0, "rental_uris": {"android": "https://dc.lft.to/lastmile_qr_scan", "ios": "https://dc.lft.to/lastmile_qr_scan"}, "fusion_lon": 0.0}, {"lat": 38.89918616666667, "is_disabled": 0, "type": "electric_scooter", "lon": -77.04147616666667, "bike_id": "42e195ec6ffa6fe2ed8212f7215ab1a4", "fusion_lat": 0.0, "name": "42e195ec6ffa6fe2ed8212f7215ab1a4", "is_reserved": 0, "rental_uris": {"android": "https://dc.lft.to/lastmile_qr_scan", "ios": "https://dc.lft.to/lastmile_qr_scan"}, "fusion_lon": 0.0}, {"lat": 38.87146166666667, "is_disabled": 0, "type": "electric_bike", "lon": -76.93700733333333, "bike_id": "4b352dadbd29d8319d2c20c89138c71b", "fusion_lat": 0.0, "name": "4b352dadbd29d8319d2c20c89138c71b", "is_reserved": 0, "rental_uris": {"android": "https://dc.lft.to/lastmile_qr_scan", "ios": "https://dc.lft.to/lastmile_qr_scan"}, "fusion_lon": 0.0}, {"lat": 38.916068833333334, "is_disabled": 0, "type": "electric_scooter", "lon": -77.023014, "bike_id": "f35eddcb1e5e947c5d731dd24c8a54ae", "fusion_lat": 0.0, "name": "f35eddcb1e5e947c5d731dd24c8a54ae", "is_reserved": 0, "rental_uris": {"android": "https://dc.lft.to/lastmile_qr_scan", "ios": "https://dc.lft.to/lastmile_qr_scan"}, "fusion_lon": 0.0}, {"lat": 38.93059183333333, "is_disabled": 0, "type": "electric_bike", "lon": -77.02302666666667, "bike_id": "1fd5e6996c109425376e25c01ca098d4", "fusion_lat": 0.0, "name": "1fd5e6996c109425376e25c01ca098d4", "is_reserved": 0, "rental_uris": {"android": "https://dc.lft.to/lastmile_qr_scan", "ios": "https://dc.lft.to/lastmile_qr_scan"}, "fusion_lon": 0.0}, {"lat": 38.96135983333333, "is_disabled": 0, "type": "electric_scooter", "lon": -77.02235966666667, "bike_id": "4ea0304ea453ced3d2397ed7af032ab7", "fusion_lat": 0.0, "name": "4ea0304ea453ced3d2397ed7af032ab7", "is_reserved": 0, "rental_uris": {"android": "https://dc.lft.to/lastmile_qr_scan", "ios": "https://dc.lft.to/lastmile_qr_scan"}, "fusion_lon": 0.0}, {"lat": 38.9297075, "is_disabled": 0, "type": "electric_scooter", "lon": -77.0129805, "bike_id": "53c4ba73efd62c9b986f4f8bb15c3d75", "fusion_lat": 0.0, "name": "53c4ba73efd62c9b986f4f8bb15c3d75", "is_reserved": 0, "rental_uris": {"android": "https://dc.lft.to/lastmile_qr_scan", "ios": "https://dc.lft.to/lastmile_qr_scan"}, "fusion_lon": 0.0}, {"lat": 38.906705, "is_disabled": 0, "type": "electric_scooter", "lon": -77.0385735, "bike_id": "191e0da9dbe80d84b2a4f966d293e490", "fusion_lat": 0.0, "name": "191e0da9dbe80d84b2a4f966d293e490", "is_reserved": 0, "rental_uris": {"android": "https://dc.lft.to/lastmile_qr_scan", "ios": "https://dc.lft.to/lastmile_qr_scan"}, "fusion_lon": 0.0}, {"lat": 38.885927333333335, "is_disabled": 0, "type": "electric_scooter", "lon": -76.99250666666667, "bike_id": "bd8a44a5adafcb1c32b91f0e05fb72d0", "fusion_lat": 0.0, "name": "bd8a44a5adafcb1c32b91f0e05fb72d0", "is_reserved": 0, "rental_uris": {"android": "https://dc.lft.to/lastmile_qr_scan", "ios": "https://dc.lft.to/lastmile_qr_scan"}, "fusion_lon": 0.0}, {"lat": 38.88472566666667, "is_disabled": 0, "type": "electric_scooter", "lon": -76.9927925, "bike_id": "54d4822d14acc5d49db170f2bd85d605", "fusion_lat": 0.0, "name": "54d4822d14acc5d49db170f2bd85d605", "is_reserved": 0, "rental_uris": {"android": "https://dc.lft.to/lastmile_qr_scan", "ios": "https://dc.lft.to/lastmile_qr_scan"}, "fusion_lon": 0.0}, {"lat": 38.91125733333333, "is_disabled": 0, "type": "electric_scooter", "lon": -77.04352416666667, "bike_id": "fe1c2297a1839420df4c21c18b40e7fc", "fusion_lat": 0.0, "name": "fe1c2297a1839420df4c21c18b40e7fc", "is_reserved": 0, "rental_uris": {"android": "https://dc.lft.to/lastmile_qr_scan", "ios": "https://dc.lft.to/lastmile_qr_scan"}, "fusion_lon": 0.0}, {"lat": 39.0293305, "is_disabled": 0, "type": "electric_bike", "lon": -77.0492615, "bike_id": "002465cfa25e9f6f463ffcef2693073d", "fusion_lat": 0.0, "name": "002465cfa25e9f6f463ffcef2693073d", "is_reserved": 0, "rental_uris": {"android": "https://dc.lft.to/lastmile_qr_scan", "ios": "https://dc.lft.to/lastmile_qr_scan"}, "fusion_lon": 0.0}, {"lat": 38.902462, "is_disabled": 0, "type": "electric_scooter", "lon": -77.02686283333334, "bike_id": "e947358d21dbb451b2a78ef7fea2cd6a", "fusion_lat": 0.0, "name": "e947358d21dbb451b2a78ef7fea2cd6a", "is_reserved": 0, "rental_uris": {"android": "https://dc.lft.to/lastmile_qr_scan", "ios": "https://dc.lft.to/lastmile_qr_scan"}, "fusion_lon": 0.0}, {"lat": 38.88492766666667, "is_disabled": 0, "type": "electric_scooter", "lon": -77.00713466666667, "bike_id": "318dec2cf35234d0a6a8615554b458a8", "fusion_lat": 0.0, "name": "318dec2cf35234d0a6a8615554b458a8", "is_reserved": 0, "rental_uris": {"android": "https://dc.lft.to/lastmile_qr_scan", "ios": "https://dc.lft.to/lastmile_qr_scan"}, "fusion_lon": 0.0}, {"lat": 38.915507833333336, "is_disabled": 0, "type": "electric_scooter", "lon": -77.0386225, "bike_id": "b221edb0536a416d79c729918a7fd7da", "fusion_lat": 0.0, "name": "b221edb0536a416d79c729918a7fd7da", "is_reserved": 0, "rental_uris": {"android": "https://dc.lft.to/lastmile_qr_scan", "ios": "https://dc.lft.to/lastmile_qr_scan"}, "fusion_lon": 0.0}, {"lat": 38.9153635, "is_disabled": 0, "type": "electric_scooter", "lon": -77.02200533333334, "bike_id": "62ad6294e5871f1797fab93c4c055837", "fusion_lat": 0.0, "name": "62ad6294e5871f1797fab93c4c055837", "is_reserved": 0, "rental_uris": {"android": "https://dc.lft.to/lastmile_qr_scan", "ios": "https://dc.lft.to/lastmile_qr_scan"}, "fusion_lon": 0.0}, {"lat": 38.953272, "is_disabled": 0, "type": "electric_scooter", "lon": -77.027579, "bike_id": "94f369fd0e2dc7144eee77a2f4edd410", "fusion_lat": 0.0, "name": "94f369fd0e2dc7144eee77a2f4edd410", "is_reserved": 0, "rental_uris": {"android": "https://dc.lft.to/lastmile_qr_scan", "ios": "https://dc.lft.to/lastmile_qr_scan"}, "fusion_lon": 0.0}, {"lat": 38.80754316666667, "is_disabled": 0, "type": "electric_bike", "lon": -77.09452333333333, "bike_id": "af2e0448c87a653daaf4d636a587c5eb", "fusion_lat": 0.0, "name": "af2e0448c87a653daaf4d636a587c5eb", "is_reserved": 0, "rental_uris": {"android": "https://dc.lft.to/lastmile_qr_scan", "ios": "https://dc.lft.to/lastmile_qr_scan"}, "fusion_lon": 0.0}, {"lat": 38.907694, "is_disabled": 0, "type": "electric_scooter", "lon": -77.038523, "bike_id": "bafcb7345df12803eca14dad0783d9d4", "fusion_lat": 0.0, "name": "bafcb7345df12803eca14dad0783d9d4", "is_reserved": 0, "rental_uris": {"android": "https://dc.lft.to/lastmile_qr_scan", "ios": "https://dc.lft.to/lastmile_qr_scan"}, "fusion_lon": 0.0}, {"lat": 38.91473916666666, "is_disabled": 0, "type": "electric_scooter", "lon": -77.00351783333333, "bike_id": "28474757ff2e4ce9d740072d9b7d60eb", "fusion_lat": 0.0, "name": "28474757ff2e4ce9d740072d9b7d60eb", "is_reserved": 0, "rental_uris": {"android": "https://dc.lft.to/lastmile_qr_scan", "ios": "https://dc.lft.to/lastmile_qr_scan"}, "fusion_lon": 0.0}, {"lat": 38.98649316666667, "is_disabled": 0, "type": "electric_bike", "lon": -77.05629783333333, "bike_id": "67f261ebb29baed4e052201db396659f", "fusion_lat": 0.0, "name": "67f261ebb29baed4e052201db396659f", "is_reserved": 0, "rental_uris": {"android": "https://dc.lft.to/lastmile_qr_scan", "ios": "https://dc.lft.to/lastmile_qr_scan"}, "fusion_lon": 0.0}, {"lat": 38.900900666666665, "is_disabled": 0, "type": "electric_scooter", "lon": -76.99492166666667, "bike_id": "89d89324622bf874c2fb4b840be59430", "fusion_lat": 0.0, "name": "89d89324622bf874c2fb4b840be59430", "is_reserved": 0, "rental_uris": {"android": "https://dc.lft.to/lastmile_qr_scan", "ios": "https://dc.lft.to/lastmile_qr_scan"}, "fusion_lon": 0.0}, {"lat": 38.921933333333335, "is_disabled": 0, "type": "electric_scooter", "lon": -77.0397905, "bike_id": "562b56cc9f2f04c679a576d78abc1510", "fusion_lat": 0.0, "name": "562b56cc9f2f04c679a576d78abc1510", "is_reserved": 0, "rental_uris": {"android": "https://dc.lft.to/lastmile_qr_scan", "ios": "https://dc.lft.to/lastmile_qr_scan"}, "fusion_lon": 0.0}, {"lat": 38.84417766666667, "is_disabled": 0, "type": "electric_scooter", "lon": -76.99776883333334, "bike_id": "0f2d7248cf7fbe0bec2053fcaf1aad83", "fusion_lat": 0.0, "name": "0f2d7248cf7fbe0bec2053fcaf1aad83", "is_reserved": 0, "rental_uris": {"android": "https://dc.lft.to/lastmile_qr_scan", "ios": "https://dc.lft.to/lastmile_qr_scan"}, "fusion_lon": 0.0}, {"lat": 38.914455333333336, "is_disabled": 0, "type": "electric_scooter", "lon": -77.03195316666667, "bike_id": "6078ea6554f92adb55284e529a162295", "fusion_lat": 0.0, "name": "6078ea6554f92adb55284e529a162295", "is_reserved": 0, "rental_uris": {"android": "https://dc.lft.to/lastmile_qr_scan", "ios": "https://dc.lft.to/lastmile_qr_scan"}, "fusion_lon": 0.0}, {"lat": 38.9248405, "is_disabled": 0, "type": "electric_scooter", "lon": -77.02837016666666, "bike_id": "6da2545d175e05e4a802fec90bd7ae65", "fusion_lat": 0.0, "name": "6da2545d175e05e4a802fec90bd7ae65", "is_reserved": 0, "rental_uris": {"android": "https://dc.lft.to/lastmile_qr_scan", "ios": "https://dc.lft.to/lastmile_qr_scan"}, "fusion_lon": 0.0}, {"lat": 38.919175833333334, "is_disabled": 0, "type": "electric_scooter", "lon": -77.03394733333333, "bike_id": "f525efee88644cf710f76dfba287ee9f", "fusion_lat": 0.0, "name": "f525efee88644cf710f76dfba287ee9f", "is_reserved": 0, "rental_uris": {"android": "https://dc.lft.to/lastmile_qr_scan", "ios": "https://dc.lft.to/lastmile_qr_scan"}, "fusion_lon": 0.0}, {"lat": 38.886641166666664, "is_disabled": 0, "type": "electric_scooter", "lon": -77.01371166666667, "bike_id": "7c556bce049108881bb86d4d75044ef4", "fusion_lat": 0.0, "name": "7c556bce049108881bb86d4d75044ef4", "is_reserved": 0, "rental_uris": {"android": "https://dc.lft.to/lastmile_qr_scan", "ios": "https://dc.lft.to/lastmile_qr_scan"}, "fusion_lon": 0.0}, {"lat": 38.915919, "is_disabled": 0, "type": "electric_scooter", "lon": -77.02127283333333, "bike_id": "5a8fc6fdf79b948e4b9ca3c5d8da36f7", "fusion_lat": 0.0, "name": "5a8fc6fdf79b948e4b9ca3c5d8da36f7", "is_reserved": 0, "rental_uris": {"android": "https://dc.lft.to/lastmile_qr_scan", "ios": "https://dc.lft.to/lastmile_qr_scan"}, "fusion_lon": 0.0}, {"lat": 38.89221366666666, "is_disabled": 0, "type": "electric_bike", "lon": -77.10776883333334, "bike_id": "e453a4c15d551d8cd108a3d1a45c05bb", "fusion_lat": 0.0, "name": "e453a4c15d551d8cd108a3d1a45c05bb", "is_reserved": 0, "rental_uris": {"android": "https://dc.lft.to/lastmile_qr_scan", "ios": "https://dc.lft.to/lastmile_qr_scan"}, "fusion_lon": 0.0}, {"lat": 38.96217016666667, "is_disabled": 0, "type": "electric_bike", "lon": -77.02623316666667, "bike_id": "617d35e60bf316ad862ab62b4d0e796e", "fusion_lat": 0.0, "name": "617d35e60bf316ad862ab62b4d0e796e", "is_reserved": 0, "rental_uris": {"android": "https://dc.lft.to/lastmile_qr_scan", "ios": "https://dc.lft.to/lastmile_qr_scan"}, "fusion_lon": 0.0}, {"lat": 38.905481333333334, "is_disabled": 0, "type": "electric_scooter", "lon": -77.057078, "bike_id": "92e62806772bd5341aaf27e2a424996c", "fusion_lat": 0.0, "name": "92e62806772bd5341aaf27e2a424996c", "is_reserved": 0, "rental_uris": {"android": "https://dc.lft.to/lastmile_qr_scan", "ios": "https://dc.lft.to/lastmile_qr_scan"}, "fusion_lon": 0.0}, {"lat": 38.894820833333334, "is_disabled": 0, "type": "electric_bike", "lon": -77.072971, "bike_id": "201ec2a6589d9ca3e13afcbd5c4b4b45", "fusion_lat": 0.0, "name": "201ec2a6589d9ca3e13afcbd5c4b4b45", "is_reserved": 0, "rental_uris": {"android": "https://dc.lft.to/lastmile_qr_scan", "ios": "https://dc.lft.to/lastmile_qr_scan"}, "fusion_lon": 0.0}, {"lat": 38.92512716666667, "is_disabled": 0, "type": "electric_scooter", "lon": -77.023576, "bike_id": "4b8a218b3ca65a0804c9f840209f02d2", "fusion_lat": 0.0, "name": "4b8a218b3ca65a0804c9f840209f02d2", "is_reserved": 0, "rental_uris": {"android": "https://dc.lft.to/lastmile_qr_scan", "ios": "https://dc.lft.to/lastmile_qr_scan"}, "fusion_lon": 0.0}, {"lat": 38.898398, "is_disabled": 0, "type": "electric_scooter", "lon": -76.99501883333333, "bike_id": "c994d7ae7d051c493d1150c87e3cf7d5", "fusion_lat": 0.0, "name": "c994d7ae7d051c493d1150c87e3cf7d5", "is_reserved": 0, "rental_uris": {"android": "https://dc.lft.to/lastmile_qr_scan", "ios": "https://dc.lft.to/lastmile_qr_scan"}, "fusion_lon": 0.0}, {"lat": 38.90038, "is_disabled": 0, "type": "electric_scooter", "lon": -77.0219605, "bike_id": "e91f685728f4f34ca465a0116f782637", "fusion_lat": 0.0, "name": "e91f685728f4f34ca465a0116f782637", "is_reserved": 0, "rental_uris": {"android": "https://dc.lft.to/lastmile_qr_scan", "ios": "https://dc.lft.to/lastmile_qr_scan"}, "fusion_lon": 0.0}, {"lat": 38.898877666666664, "is_disabled": 0, "type": "electric_bike", "lon": -77.0328225, "bike_id": "37d993008c618b6e9116f84bef56aafd", "fusion_lat": 0.0, "name": "37d993008c618b6e9116f84bef56aafd", "is_reserved": 0, "rental_uris": {"android": "https://dc.lft.to/lastmile_qr_scan", "ios": "https://dc.lft.to/lastmile_qr_scan"}, "fusion_lon": 0.0}, {"lat": 38.903371, "is_disabled": 0, "type": "electric_scooter", "lon": -77.00739283333333, "bike_id": "bda528d7d8f1c23b3605a2eefe8bf624", "fusion_lat": 0.0, "name": "bda528d7d8f1c23b3605a2eefe8bf624", "is_reserved": 0, "rental_uris": {"android": "https://dc.lft.to/lastmile_qr_scan", "ios": "https://dc.lft.to/lastmile_qr_scan"}, "fusion_lon": 0.0}, {"lat": 38.936016, "is_disabled": 0, "type": "electric_scooter", "lon": -77.0375505, "bike_id": "013940f9d11347f3fcf9ed15df1f07ef", "fusion_lat": 0.0, "name": "013940f9d11347f3fcf9ed15df1f07ef", "is_reserved": 0, "rental_uris": {"android": "https://dc.lft.to/lastmile_qr_scan", "ios": "https://dc.lft.to/lastmile_qr_scan"}, "fusion_lon": 0.0}, {"lat": 38.911312333333335, "is_disabled": 0, "type": "electric_bike", "lon": -77.0088025, "bike_id": "0b014c91236552ea8b0a87f9983511cc", "fusion_lat": 0.0, "name": "0b014c91236552ea8b0a87f9983511cc", "is_reserved": 0, "rental_uris": {"android": "https://dc.lft.to/lastmile_qr_scan", "ios": "https://dc.lft.to/lastmile_qr_scan"}, "fusion_lon": 0.0}, {"lat": 38.93948, "is_disabled": 0, "type": "electric_bike", "lon": -77.36093766666667, "bike_id": "368c0e442d126ad15fcd9421f4468cc3", "fusion_lat": 0.0, "name": "368c0e442d126ad15fcd9421f4468cc3", "is_reserved": 0, "rental_uris": {"android": "https://dc.lft.to/lastmile_qr_scan", "ios": "https://dc.lft.to/lastmile_qr_scan"}, "fusion_lon": 0.0}, {"lat": 38.93101516666667, "is_disabled": 0, "type": "electric_scooter", "lon": -77.02554683333334, "bike_id": "c72ef29aaff8e05ec68127f67516947a", "fusion_lat": 0.0, "name": "c72ef29aaff8e05ec68127f67516947a", "is_reserved": 0, "rental_uris": {"android": "https://dc.lft.to/lastmile_qr_scan", "ios": "https://dc.lft.to/lastmile_qr_scan"}, "fusion_lon": 0.0}, {"lat": 38.895572666666666, "is_disabled": 0, "type": "electric_scooter", "lon": -76.93080416666666, "bike_id": "6041338cb80acdae0123d864ce29bc26", "fusion_lat": 0.0, "name": "6041338cb80acdae0123d864ce29bc26", "is_reserved": 0, "rental_uris": {"android": "https://dc.lft.to/lastmile_qr_scan", "ios": "https://dc.lft.to/lastmile_qr_scan"}, "fusion_lon": 0.0}, {"lat": 38.90265383333333, "is_disabled": 0, "type": "electric_scooter", "lon": -77.03874533333334, "bike_id": "8b553afd5c758e24557f863aee37e727", "fusion_lat": 0.0, "name": "8b553afd5c758e24557f863aee37e727", "is_reserved": 0, "rental_uris": {"android": "https://dc.lft.to/lastmile_qr_scan", "ios": "https://dc.lft.to/lastmile_qr_scan"}, "fusion_lon": 0.0}, {"lat": 38.87494083333333, "is_disabled": 0, "type": "electric_scooter", "lon": -77.00084866666667, "bike_id": "bc0b5335a446371fc955559c0e67917e", "fusion_lat": 0.0, "name": "bc0b5335a446371fc955559c0e67917e", "is_reserved": 0, "rental_uris": {"android": "https://dc.lft.to/lastmile_qr_scan", "ios": "https://dc.lft.to/lastmile_qr_scan"}, "fusion_lon": 0.0}, {"lat": 38.90338716666667, "is_disabled": 0, "type": "electric_scooter", "lon": -77.0447635, "bike_id": "7b759d68c455dbdfbb8a363c17a6e202", "fusion_lat": 0.0, "name": "7b759d68c455dbdfbb8a363c17a6e202", "is_reserved": 0, "rental_uris": {"android": "https://dc.lft.to/lastmile_qr_scan", "ios": "https://dc.lft.to/lastmile_qr_scan"}, "fusion_lon": 0.0}, {"lat": 38.91139283333333, "is_disabled": 0, "type": "electric_scooter", "lon": -77.04428683333333, "bike_id": "5c8c4bbc0e772211e4fb6234fcad7cdf", "fusion_lat": 0.0, "name": "5c8c4bbc0e772211e4fb6234fcad7cdf", "is_reserved": 0, "rental_uris": {"android": "https://dc.lft.to/lastmile_qr_scan", "ios": "https://dc.lft.to/lastmile_qr_scan"}, "fusion_lon": 0.0}, {"lat": 38.9528225, "is_disabled": 0, "type": "electric_bike", "lon": -76.94594866666667, "bike_id": "76f044c7e96eb26312605cfa5aa5b18c", "fusion_lat": 0.0, "name": "76f044c7e96eb26312605cfa5aa5b18c", "is_reserved": 0, "rental_uris": {"android": "https://dc.lft.to/lastmile_qr_scan", "ios": "https://dc.lft.to/lastmile_qr_scan"}, "fusion_lon": 0.0}, {"lat": 38.990016833333335, "is_disabled": 0, "type": "electric_bike", "lon": -77.004382, "bike_id": "04fdd794189adf3ca95556d76665c7c1", "fusion_lat": 0.0, "name": "04fdd794189adf3ca95556d76665c7c1", "is_reserved": 0, "rental_uris": {"android": "https://dc.lft.to/lastmile_qr_scan", "ios": "https://dc.lft.to/lastmile_qr_scan"}, "fusion_lon": 0.0}, {"lat": 38.90117083333333, "is_disabled": 0, "type": "electric_scooter", "lon": -77.04350333333333, "bike_id": "d5c7ca4d268239f2546cd7d5341e8610", "fusion_lat": 0.0, "name": "d5c7ca4d268239f2546cd7d5341e8610", "is_reserved": 0, "rental_uris": {"android": "https://dc.lft.to/lastmile_qr_scan", "ios": "https://dc.lft.to/lastmile_qr_scan"}, "fusion_lon": 0.0}, {"lat": 38.936567333333336, "is_disabled": 0, "type": "electric_bike", "lon": -76.95218216666666, "bike_id": "7a2fcaa67064d26aa07b93a0ce2acdef", "fusion_lat": 0.0, "name": "7a2fcaa67064d26aa07b93a0ce2acdef", "is_reserved": 0, "rental_uris": {"android": "https://dc.lft.to/lastmile_qr_scan", "ios": "https://dc.lft.to/lastmile_qr_scan"}, "fusion_lon": 0.0}, {"lat": 39.034245, "is_disabled": 0, "type": "electric_bike", "lon": -77.04308466666667, "bike_id": "4ce9056873c72b98ec951d0de42acbe7", "fusion_lat": 0.0, "name": "4ce9056873c72b98ec951d0de42acbe7", "is_reserved": 0, "rental_uris": {"android": "https://dc.lft.to/lastmile_qr_scan", "ios": "https://dc.lft.to/lastmile_qr_scan"}, "fusion_lon": 0.0}, {"lat": 38.900443333333335, "is_disabled": 0, "type": "electric_scooter", "lon": -77.04893033333333, "bike_id": "dd462c76c727316e486b0e7bc77d4d7c", "fusion_lat": 0.0, "name": "dd462c76c727316e486b0e7bc77d4d7c", "is_reserved": 0, "rental_uris": {"android": "https://dc.lft.to/lastmile_qr_scan", "ios": "https://dc.lft.to/lastmile_qr_scan"}, "fusion_lon": 0.0}, {"lat": 38.99253916666667, "is_disabled": 0, "type": "electric_scooter", "lon": -77.03656133333334, "bike_id": "3004b53462640d5b277da2fc7c391008", "fusion_lat": 0.0, "name": "3004b53462640d5b277da2fc7c391008", "is_reserved": 0, "rental_uris": {"android": "https://dc.lft.to/lastmile_qr_scan", "ios": "https://dc.lft.to/lastmile_qr_scan"}, "fusion_lon": 0.0}, {"lat": 38.85714633333333, "is_disabled": 0, "type": "electric_scooter", "lon": -76.986723, "bike_id": "4438e38f46d0696f64f6447819854222", "fusion_lat": 0.0, "name": "4438e38f46d0696f64f6447819854222", "is_reserved": 0, "rental_uris": {"android": "https://dc.lft.to/lastmile_qr_scan", "ios": "https://dc.lft.to/lastmile_qr_scan"}, "fusion_lon": 0.0}, {"lat": 38.925874, "is_disabled": 0, "type": "electric_scooter", "lon": -77.04417183333334, "bike_id": "30d89ad12b40da3bbe3ee9f071fc13e9", "fusion_lat": 0.0, "name": "30d89ad12b40da3bbe3ee9f071fc13e9", "is_reserved": 0, "rental_uris": {"android": "https://dc.lft.to/lastmile_qr_scan", "ios": "https://dc.lft.to/lastmile_qr_scan"}, "fusion_lon": 0.0}, {"lat": 38.90513583333333, "is_disabled": 0, "type": "electric_scooter", "lon": -77.06183733333333, "bike_id": "65d080488cd0803609fef2d7357e9a2f", "fusion_lat": 0.0, "name": "65d080488cd0803609fef2d7357e9a2f", "is_reserved": 0, "rental_uris": {"android": "https://dc.lft.to/lastmile_qr_scan", "ios": "https://dc.lft.to/lastmile_qr_scan"}, "fusion_lon": 0.0}, {"lat": 38.9172285, "is_disabled": 0, "type": "electric_scooter", "lon": -77.0229515, "bike_id": "29949dc8262cac79be1d0e46684f1b18", "fusion_lat": 0.0, "name": "29949dc8262cac79be1d0e46684f1b18", "is_reserved": 0, "rental_uris": {"android": "https://dc.lft.to/lastmile_qr_scan", "ios": "https://dc.lft.to/lastmile_qr_scan"}, "fusion_lon": 0.0}, {"lat": 38.8935035, "is_disabled": 0, "type": "electric_scooter", "lon": -77.04140716666667, "bike_id": "9c4f21f5ebcbef240c91cc87b39b46fd", "fusion_lat": 0.0, "name": "9c4f21f5ebcbef240c91cc87b39b46fd", "is_reserved": 0, "rental_uris": {"android": "https://dc.lft.to/lastmile_qr_scan", "ios": "https://dc.lft.to/lastmile_qr_scan"}, "fusion_lon": 0.0}, {"lat": 38.937355333333336, "is_disabled": 0, "type": "electric_scooter", "lon": -77.03617566666667, "bike_id": "11b005d15f81dcf96097453d2fcec62f", "fusion_lat": 0.0, "name": "11b005d15f81dcf96097453d2fcec62f", "is_reserved": 0, "rental_uris": {"android": "https://dc.lft.to/lastmile_qr_scan", "ios": "https://dc.lft.to/lastmile_qr_scan"}, "fusion_lon": 0.0}, {"lat": 38.91118566666667, "is_disabled": 0, "type": "electric_scooter", "lon": -77.04361616666667, "bike_id": "4d6d52db18f0701991b7599cfec9fbd1", "fusion_lat": 0.0, "name": "4d6d52db18f0701991b7599cfec9fbd1", "is_reserved": 0, "rental_uris": {"android": "https://dc.lft.to/lastmile_qr_scan", "ios": "https://dc.lft.to/lastmile_qr_scan"}, "fusion_lon": 0.0}, {"lat": 38.890687666666665, "is_disabled": 0, "type": "electric_scooter", "lon": -76.98836966666667, "bike_id": "c53c45569c289b3e0eb33c978073987c", "fusion_lat": 0.0, "name": "c53c45569c289b3e0eb33c978073987c", "is_reserved": 0, "rental_uris": {"android": "https://dc.lft.to/lastmile_qr_scan", "ios": "https://dc.lft.to/lastmile_qr_scan"}, "fusion_lon": 0.0}, {"lat": 38.8518685, "is_disabled": 0, "type": "electric_scooter", "lon": -76.9762025, "bike_id": "8d942798bed45f2201dba88318cb5d74", "fusion_lat": 0.0, "name": "8d942798bed45f2201dba88318cb5d74", "is_reserved": 0, "rental_uris": {"android": "https://dc.lft.to/lastmile_qr_scan", "ios": "https://dc.lft.to/lastmile_qr_scan"}, "fusion_lon": 0.0}, {"lat": 38.844327666666665, "is_disabled": 0, "type": "electric_scooter", "lon": -76.99655966666667, "bike_id": "b9695c332b089c582f943711cbaf0204", "fusion_lat": 0.0, "name": "b9695c332b089c582f943711cbaf0204", "is_reserved": 0, "rental_uris": {"android": "https://dc.lft.to/lastmile_qr_scan", "ios": "https://dc.lft.to/lastmile_qr_scan"}, "fusion_lon": 0.0}, {"lat": 38.945554666666666, "is_disabled": 0, "type": "electric_bike", "lon": -76.895381, "bike_id": "8727534b0515da2b0843ea9b9388b836", "fusion_lat": 0.0, "name": "8727534b0515da2b0843ea9b9388b836", "is_reserved": 0, "rental_uris": {"android": "https://dc.lft.to/lastmile_qr_scan", "ios": "https://dc.lft.to/lastmile_qr_scan"}, "fusion_lon": 0.0}, {"lat": 38.90534383333333, "is_disabled": 0, "type": "electric_scooter", "lon": -77.057164, "bike_id": "92dbe9ccb12242e7699170778edb839a", "fusion_lat": 0.0, "name": "92dbe9ccb12242e7699170778edb839a", "is_reserved": 0, "rental_uris": {"android": "https://dc.lft.to/lastmile_qr_scan", "ios": "https://dc.lft.to/lastmile_qr_scan"}, "fusion_lon": 0.0}, {"lat": 39.000086833333334, "is_disabled": 0, "type": "electric_bike", "lon": -76.91077316666667, "bike_id": "6f236062ab6e3c4e92603eec458eca57", "fusion_lat": 0.0, "name": "6f236062ab6e3c4e92603eec458eca57", "is_reserved": 0, "rental_uris": {"android": "https://dc.lft.to/lastmile_qr_scan", "ios": "https://dc.lft.to/lastmile_qr_scan"}, "fusion_lon": 0.0}, {"lat": 38.865489, "is_disabled": 0, "type": "electric_scooter", "lon": -76.97420833333334, "bike_id": "c7a25c1cd9602db7d0b073b4d9efbc39", "fusion_lat": 0.0, "name": "c7a25c1cd9602db7d0b073b4d9efbc39", "is_reserved": 0, "rental_uris": {"android": "https://dc.lft.to/lastmile_qr_scan", "ios": "https://dc.lft.to/lastmile_qr_scan"}, "fusion_lon": 0.0}, {"lat": 38.91100816666667, "is_disabled": 0, "type": "electric_scooter", "lon": -77.03180133333333, "bike_id": "7e1548bac2f9aa6f11bbb32afca3184f", "fusion_lat": 0.0, "name": "7e1548bac2f9aa6f11bbb32afca3184f", "is_reserved": 0, "rental_uris": {"android": "https://dc.lft.to/lastmile_qr_scan", "ios": "https://dc.lft.to/lastmile_qr_scan"}, "fusion_lon": 0.0}, {"lat": 38.863864666666665, "is_disabled": 0, "type": "electric_bike", "lon": -76.9898765, "bike_id": "bb3c57085574e1234794872c406aeb71", "fusion_lat": 0.0, "name": "bb3c57085574e1234794872c406aeb71", "is_reserved": 0, "rental_uris": {"android": "https://dc.lft.to/lastmile_qr_scan", "ios": "https://dc.lft.to/lastmile_qr_scan"}, "fusion_lon": 0.0}, {"lat": 38.953338333333335, "is_disabled": 0, "type": "electric_bike", "lon": -76.973611, "bike_id": "0c9dd8d18e9f8229afa13a6c1c33a5ec", "fusion_lat": 0.0, "name": "0c9dd8d18e9f8229afa13a6c1c33a5ec", "is_reserved": 0, "rental_uris": {"android": "https://dc.lft.to/lastmile_qr_scan", "ios": "https://dc.lft.to/lastmile_qr_scan"}, "fusion_lon": 0.0}, {"lat": 38.93847066666667, "is_disabled": 0, "type": "electric_scooter", "lon": -77.03398066666666, "bike_id": "d8e0ca57771682f2498715e8f692268d", "fusion_lat": 0.0, "name": "d8e0ca57771682f2498715e8f692268d", "is_reserved": 0, "rental_uris": {"android": "https://dc.lft.to/lastmile_qr_scan", "ios": "https://dc.lft.to/lastmile_qr_scan"}, "fusion_lon": 0.0}, {"lat": 38.934591833333336, "is_disabled": 0, "type": "electric_scooter", "lon": -77.06192566666667, "bike_id": "9ff110a2432d5fe25a4d7142023ad8c3", "fusion_lat": 0.0, "name": "9ff110a2432d5fe25a4d7142023ad8c3", "is_reserved": 0, "rental_uris": {"android": "https://dc.lft.to/lastmile_qr_scan", "ios": "https://dc.lft.to/lastmile_qr_scan"}, "fusion_lon": 0.0}, {"lat": 38.937391833333336, "is_disabled": 0, "type": "electric_scooter", "lon": -77.03611933333333, "bike_id": "062a83e54cf5ad42379099f1e95e9a99", "fusion_lat": 0.0, "name": "062a83e54cf5ad42379099f1e95e9a99", "is_reserved": 0, "rental_uris": {"android": "https://dc.lft.to/lastmile_qr_scan", "ios": "https://dc.lft.to/lastmile_qr_scan"}, "fusion_lon": 0.0}, {"lat": 38.90083683333334, "is_disabled": 0, "type": "electric_scooter", "lon": -77.0491565, "bike_id": "52ae482e94ab3e05b79cf3d461e21b3a", "fusion_lat": 0.0, "name": "52ae482e94ab3e05b79cf3d461e21b3a", "is_reserved": 0, "rental_uris": {"android": "https://dc.lft.to/lastmile_qr_scan", "ios": "https://dc.lft.to/lastmile_qr_scan"}, "fusion_lon": 0.0}, {"lat": 38.90634, "is_disabled": 0, "type": "electric_scooter", "lon": -77.0314355, "bike_id": "a85fa8ad4aee836368a0c1a8cda87687", "fusion_lat": 0.0, "name": "a85fa8ad4aee836368a0c1a8cda87687", "is_reserved": 0, "rental_uris": {"android": "https://dc.lft.to/lastmile_qr_scan", "ios": "https://dc.lft.to/lastmile_qr_scan"}, "fusion_lon": 0.0}, {"lat": 38.892792, "is_disabled": 0, "type": "electric_scooter", "lon": -77.05033, "bike_id": "745f45a2db0119575abfd639d652d128", "fusion_lat": 0.0, "name": "745f45a2db0119575abfd639d652d128", "is_reserved": 0, "rental_uris": {"android": "https://dc.lft.to/lastmile_qr_scan", "ios": "https://dc.lft.to/lastmile_qr_scan"}, "fusion_lon": 0.0}, {"lat": 38.924835333333334, "is_disabled": 0, "type": "electric_bike", "lon": -76.99031233333334, "bike_id": "b36886c7a17bc106fe816beceb5435fc", "fusion_lat": 0.0, "name": "b36886c7a17bc106fe816beceb5435fc", "is_reserved": 0, "rental_uris": {"android": "https://dc.lft.to/lastmile_qr_scan", "ios": "https://dc.lft.to/lastmile_qr_scan"}, "fusion_lon": 0.0}, {"lat": 39.088565833333334, "is_disabled": 0, "type": "electric_bike", "lon": -77.1784025, "bike_id": "e2d2cf4711a32317210e7ffe4f2c1c41", "fusion_lat": 0.0, "name": "e2d2cf4711a32317210e7ffe4f2c1c41", "is_reserved": 0, "rental_uris": {"android": "https://dc.lft.to/lastmile_qr_scan", "ios": "https://dc.lft.to/lastmile_qr_scan"}, "fusion_lon": 0.0}, {"lat": 38.90762983333333, "is_disabled": 0, "type": "electric_bike", "lon": -77.06998416666667, "bike_id": "1d7e7d507d78c25163e989ed933ec1aa", "fusion_lat": 0.0, "name": "1d7e7d507d78c25163e989ed933ec1aa", "is_reserved": 0, "rental_uris": {"android": "https://dc.lft.to/lastmile_qr_scan", "ios": "https://dc.lft.to/lastmile_qr_scan"}, "fusion_lon": 0.0}, {"lat": 38.92858866666667, "is_disabled": 0, "type": "electric_bike", "lon": -77.22224233333333, "bike_id": "b89ba7894c0dad5cd9217bb0cee33042", "fusion_lat": 0.0, "name": "b89ba7894c0dad5cd9217bb0cee33042", "is_reserved": 0, "rental_uris": {"android": "https://dc.lft.to/lastmile_qr_scan", "ios": "https://dc.lft.to/lastmile_qr_scan"}, "fusion_lon": 0.0}, {"lat": 38.917683333333336, "is_disabled": 0, "type": "electric_scooter", "lon": -77.04774116666667, "bike_id": "c0351f5271b86d59476437e28bcb91d7", "fusion_lat": 0.0, "name": "c0351f5271b86d59476437e28bcb91d7", "is_reserved": 0, "rental_uris": {"android": "https://dc.lft.to/lastmile_qr_scan", "ios": "https://dc.lft.to/lastmile_qr_scan"}, "fusion_lon": 0.0}, {"lat": 38.90314433333333, "is_disabled": 0, "type": "electric_scooter", "lon": -77.02880333333333, "bike_id": "fb404c1b498b17b6849d094494d6b3d0", "fusion_lat": 0.0, "name": "fb404c1b498b17b6849d094494d6b3d0", "is_reserved": 0, "rental_uris": {"android": "https://dc.lft.to/lastmile_qr_scan", "ios": "https://dc.lft.to/lastmile_qr_scan"}, "fusion_lon": 0.0}, {"lat": 38.908350166666665, "is_disabled": 0, "type": "electric_scooter", "lon": -76.9968475, "bike_id": "83731f28afd1f47e2410a3e634fe7c25", "fusion_lat": 0.0, "name": "83731f28afd1f47e2410a3e634fe7c25", "is_reserved": 0, "rental_uris": {"android": "https://dc.lft.to/lastmile_qr_scan", "ios": "https://dc.lft.to/lastmile_qr_scan"}, "fusion_lon": 0.0}, {"lat": 38.93322466666667, "is_disabled": 0, "type": "electric_scooter", "lon": -77.04532166666667, "bike_id": "901eb96793e17f333601531326a9240c", "fusion_lat": 0.0, "name": "901eb96793e17f333601531326a9240c", "is_reserved": 0, "rental_uris": {"android": "https://dc.lft.to/lastmile_qr_scan", "ios": "https://dc.lft.to/lastmile_qr_scan"}, "fusion_lon": 0.0}, {"lat": 38.948945333333334, "is_disabled": 0, "type": "electric_scooter", "lon": -77.03048616666666, "bike_id": "1c2a7d6c3b9dfcfb92982054ad0d6ed4", "fusion_lat": 0.0, "name": "1c2a7d6c3b9dfcfb92982054ad0d6ed4", "is_reserved": 0, "rental_uris": {"android": "https://dc.lft.to/lastmile_qr_scan", "ios": "https://dc.lft.to/lastmile_qr_scan"}, "fusion_lon": 0.0}, {"lat": 38.972275833333335, "is_disabled": 0, "type": "electric_bike", "lon": -76.99337816666667, "bike_id": "8d0a383a807385ceed33417959a095c4", "fusion_lat": 0.0, "name": "8d0a383a807385ceed33417959a095c4", "is_reserved": 0, "rental_uris": {"android": "https://dc.lft.to/lastmile_qr_scan", "ios": "https://dc.lft.to/lastmile_qr_scan"}, "fusion_lon": 0.0}, {"lat": 38.90329666666667, "is_disabled": 0, "type": "electric_scooter", "lon": -77.0375785, "bike_id": "5f3ce7f3e55b0e43819f510d5f735f21", "fusion_lat": 0.0, "name": "5f3ce7f3e55b0e43819f510d5f735f21", "is_reserved": 0, "rental_uris": {"android": "https://dc.lft.to/lastmile_qr_scan", "ios": "https://dc.lft.to/lastmile_qr_scan"}, "fusion_lon": 0.0}, {"lat": 38.9223925, "is_disabled": 0, "type": "electric_scooter", "lon": -77.04578416666666, "bike_id": "904d15e5d0db145eb34532c5403c65c6", "fusion_lat": 0.0, "name": "904d15e5d0db145eb34532c5403c65c6", "is_reserved": 0, "rental_uris": {"android": "https://dc.lft.to/lastmile_qr_scan", "ios": "https://dc.lft.to/lastmile_qr_scan"}, "fusion_lon": 0.0}, {"lat": 38.921572833333336, "is_disabled": 0, "type": "electric_scooter", "lon": -77.03519033333333, "bike_id": "d2e4518bf3273606628c968c66ca1aa1", "fusion_lat": 0.0, "name": "d2e4518bf3273606628c968c66ca1aa1", "is_reserved": 0, "rental_uris": {"android": "https://dc.lft.to/lastmile_qr_scan", "ios": "https://dc.lft.to/lastmile_qr_scan"}, "fusion_lon": 0.0}, {"lat": 38.92011516666667, "is_disabled": 0, "type": "electric_scooter", "lon": -77.03167933333333, "bike_id": "8214f73b1ecb9405a97eddb49d34778a", "fusion_lat": 0.0, "name": "8214f73b1ecb9405a97eddb49d34778a", "is_reserved": 0, "rental_uris": {"android": "https://dc.lft.to/lastmile_qr_scan", "ios": "https://dc.lft.to/lastmile_qr_scan"}, "fusion_lon": 0.0}, {"lat": 38.91253583333334, "is_disabled": 0, "type": "electric_scooter", "lon": -77.019929, "bike_id": "8d4aa55f20bbdadecf30412a23b21556", "fusion_lat": 0.0, "name": "8d4aa55f20bbdadecf30412a23b21556", "is_reserved": 0, "rental_uris": {"android": "https://dc.lft.to/lastmile_qr_scan", "ios": "https://dc.lft.to/lastmile_qr_scan"}, "fusion_lon": 0.0}, {"lat": 38.915612833333334, "is_disabled": 0, "type": "electric_scooter", "lon": -77.03668533333334, "bike_id": "5e2641991883d61bc95f73ab107d62ba", "fusion_lat": 0.0, "name": "5e2641991883d61bc95f73ab107d62ba", "is_reserved": 0, "rental_uris": {"android": "https://dc.lft.to/lastmile_qr_scan", "ios": "https://dc.lft.to/lastmile_qr_scan"}, "fusion_lon": 0.0}, {"lat": 38.9266845, "is_disabled": 0, "type": "electric_scooter", "lon": -77.01464416666667, "bike_id": "70b3ca6a9e171cc1dd0a1bb8de9783ca", "fusion_lat": 0.0, "name": "70b3ca6a9e171cc1dd0a1bb8de9783ca", "is_reserved": 0, "rental_uris": {"android": "https://dc.lft.to/lastmile_qr_scan", "ios": "https://dc.lft.to/lastmile_qr_scan"}, "fusion_lon": 0.0}, {"lat": 38.9507395, "is_disabled": 0, "type": "electric_scooter", "lon": -77.02717383333334, "bike_id": "a4a422504c57c03894f948c540c60c79", "fusion_lat": 0.0, "name": "a4a422504c57c03894f948c540c60c79", "is_reserved": 0, "rental_uris": {"android": "https://dc.lft.to/lastmile_qr_scan", "ios": "https://dc.lft.to/lastmile_qr_scan"}, "fusion_lon": 0.0}, {"lat": 38.914232, "is_disabled": 0, "type": "electric_scooter", "lon": -77.01615116666666, "bike_id": "d055e424a6be3b196390bdebb76e6313", "fusion_lat": 0.0, "name": "d055e424a6be3b196390bdebb76e6313", "is_reserved": 0, "rental_uris": {"android": "https://dc.lft.to/lastmile_qr_scan", "ios": "https://dc.lft.to/lastmile_qr_scan"}, "fusion_lon": 0.0}, {"lat": 38.9257405, "is_disabled": 0, "type": "electric_scooter", "lon": -77.05768716666667, "bike_id": "52d6e39d4eec80b368551ab039cb36c3", "fusion_lat": 0.0, "name": "52d6e39d4eec80b368551ab039cb36c3", "is_reserved": 0, "rental_uris": {"android": "https://dc.lft.to/lastmile_qr_scan", "ios": "https://dc.lft.to/lastmile_qr_scan"}, "fusion_lon": 0.0}, {"lat": 38.88642266666667, "is_disabled": 0, "type": "electric_scooter", "lon": -77.02153633333333, "bike_id": "fd904e4f1742818dc7ed55cfebeef6dd", "fusion_lat": 0.0, "name": "fd904e4f1742818dc7ed55cfebeef6dd", "is_reserved": 0, "rental_uris": {"android": "https://dc.lft.to/lastmile_qr_scan", "ios": "https://dc.lft.to/lastmile_qr_scan"}, "fusion_lon": 0.0}, {"lat": 38.8551045, "is_disabled": 0, "type": "electric_bike", "lon": -77.12043116666666, "bike_id": "62e8245401ebbb597f0b2435f6536be1", "fusion_lat": 0.0, "name": "62e8245401ebbb597f0b2435f6536be1", "is_reserved": 0, "rental_uris": {"android": "https://dc.lft.to/lastmile_qr_scan", "ios": "https://dc.lft.to/lastmile_qr_scan"}, "fusion_lon": 0.0}, {"lat": 38.895158, "is_disabled": 0, "type": "electric_scooter", "lon": -77.00736266666667, "bike_id": "a12a5a5915620cf0c0df82bc3f0d81e1", "fusion_lat": 0.0, "name": "a12a5a5915620cf0c0df82bc3f0d81e1", "is_reserved": 0, "rental_uris": {"android": "https://dc.lft.to/lastmile_qr_scan", "ios": "https://dc.lft.to/lastmile_qr_scan"}, "fusion_lon": 0.0}, {"lat": 38.94039516666667, "is_disabled": 0, "type": "electric_bike", "lon": -76.98819433333334, "bike_id": "75f530be0428d40d947ec287999907c0", "fusion_lat": 0.0, "name": "75f530be0428d40d947ec287999907c0", "is_reserved": 0, "rental_uris": {"android": "https://dc.lft.to/lastmile_qr_scan", "ios": "https://dc.lft.to/lastmile_qr_scan"}, "fusion_lon": 0.0}, {"lat": 38.80063616666666, "is_disabled": 0, "type": "electric_bike", "lon": -77.07115116666667, "bike_id": "7568cb50eeeeef5cb7533a83f58749ab", "fusion_lat": 0.0, "name": "7568cb50eeeeef5cb7533a83f58749ab", "is_reserved": 0, "rental_uris": {"android": "https://dc.lft.to/lastmile_qr_scan", "ios": "https://dc.lft.to/lastmile_qr_scan"}, "fusion_lon": 0.0}, {"lat": 38.90841616666667, "is_disabled": 0, "type": "electric_scooter", "lon": -77.02058483333333, "bike_id": "999d5d4eb1bf9d8477c2f21838ce3577", "fusion_lat": 0.0, "name": "999d5d4eb1bf9d8477c2f21838ce3577", "is_reserved": 0, "rental_uris": {"android": "https://dc.lft.to/lastmile_qr_scan", "ios": "https://dc.lft.to/lastmile_qr_scan"}, "fusion_lon": 0.0}, {"lat": 38.92065016666667, "is_disabled": 0, "type": "electric_scooter", "lon": -77.0253785, "bike_id": "a808b15882ee1640a0cf114abea3236c", "fusion_lat": 0.0, "name": "a808b15882ee1640a0cf114abea3236c", "is_reserved": 0, "rental_uris": {"android": "https://dc.lft.to/lastmile_qr_scan", "ios": "https://dc.lft.to/lastmile_qr_scan"}, "fusion_lon": 0.0}, {"lat": 38.918038, "is_disabled": 0, "type": "electric_scooter", "lon": -77.024931, "bike_id": "eebd57cd9fe94364c1bbfb1dc31dee73", "fusion_lat": 0.0, "name": "eebd57cd9fe94364c1bbfb1dc31dee73", "is_reserved": 0, "rental_uris": {"android": "https://dc.lft.to/lastmile_qr_scan", "ios": "https://dc.lft.to/lastmile_qr_scan"}, "fusion_lon": 0.0}, {"lat": 38.866480833333334, "is_disabled": 0, "type": "electric_scooter", "lon": -76.98883266666667, "bike_id": "8b7e9e3b2881a6f8366824960594954c", "fusion_lat": 0.0, "name": "8b7e9e3b2881a6f8366824960594954c", "is_reserved": 0, "rental_uris": {"android": "https://dc.lft.to/lastmile_qr_scan", "ios": "https://dc.lft.to/lastmile_qr_scan"}, "fusion_lon": 0.0}, {"lat": 38.95630583333333, "is_disabled": 0, "type": "electric_bike", "lon": -77.022927, "bike_id": "8f103384f1435a30a91d945cfeb200a8", "fusion_lat": 0.0, "name": "8f103384f1435a30a91d945cfeb200a8", "is_reserved": 0, "rental_uris": {"android": "https://dc.lft.to/lastmile_qr_scan", "ios": "https://dc.lft.to/lastmile_qr_scan"}, "fusion_lon": 0.0}, {"lat": 38.88490266666667, "is_disabled": 0, "type": "electric_scooter", "lon": -77.0070485, "bike_id": "7909e99582ec378d0eaa82bd6c8ca993", "fusion_lat": 0.0, "name": "7909e99582ec378d0eaa82bd6c8ca993", "is_reserved": 0, "rental_uris": {"android": "https://dc.lft.to/lastmile_qr_scan", "ios": "https://dc.lft.to/lastmile_qr_scan"}, "fusion_lon": 0.0}, {"lat": 38.914259666666666, "is_disabled": 0, "type": "electric_scooter", "lon": -77.03201983333334, "bike_id": "34e55acbdb0bdf04bef773227b73088c", "fusion_lat": 0.0, "name": "34e55acbdb0bdf04bef773227b73088c", "is_reserved": 0, "rental_uris": {"android": "https://dc.lft.to/lastmile_qr_scan", "ios": "https://dc.lft.to/lastmile_qr_scan"}, "fusion_lon": 0.0}, {"lat": 38.90714166666667, "is_disabled": 0, "type": "electric_scooter", "lon": -77.02749133333333, "bike_id": "586af073096d18a27a090ecf7c8384bf", "fusion_lat": 0.0, "name": "586af073096d18a27a090ecf7c8384bf", "is_reserved": 0, "rental_uris": {"android": "https://dc.lft.to/lastmile_qr_scan", "ios": "https://dc.lft.to/lastmile_qr_scan"}, "fusion_lon": 0.0}, {"lat": 38.91909316666667, "is_disabled": 0, "type": "electric_scooter", "lon": -77.02465383333333, "bike_id": "0a9d5cb9a74d66da0bc6fb0370a0fc44", "fusion_lat": 0.0, "name": "0a9d5cb9a74d66da0bc6fb0370a0fc44", "is_reserved": 0, "rental_uris": {"android": "https://dc.lft.to/lastmile_qr_scan", "ios": "https://dc.lft.to/lastmile_qr_scan"}, "fusion_lon": 0.0}, {"lat": 38.8762885, "is_disabled": 0, "type": "electric_scooter", "lon": -76.96522383333334, "bike_id": "4f44d12629d1ee3147971c82521a1ae9", "fusion_lat": 0.0, "name": "4f44d12629d1ee3147971c82521a1ae9", "is_reserved": 0, "rental_uris": {"android": "https://dc.lft.to/lastmile_qr_scan", "ios": "https://dc.lft.to/lastmile_qr_scan"}, "fusion_lon": 0.0}, {"lat": 38.90623883333333, "is_disabled": 0, "type": "electric_scooter", "lon": -77.0218385, "bike_id": "14ae82d013138f6b46d84fcae42ed01f", "fusion_lat": 0.0, "name": "14ae82d013138f6b46d84fcae42ed01f", "is_reserved": 0, "rental_uris": {"android": "https://dc.lft.to/lastmile_qr_scan", "ios": "https://dc.lft.to/lastmile_qr_scan"}, "fusion_lon": 0.0}, {"lat": 38.900550333333335, "is_disabled": 0, "type": "electric_scooter", "lon": -77.04402816666666, "bike_id": "4da09ffb32c087043666e084fa74663d", "fusion_lat": 0.0, "name": "4da09ffb32c087043666e084fa74663d", "is_reserved": 0, "rental_uris": {"android": "https://dc.lft.to/lastmile_qr_scan", "ios": "https://dc.lft.to/lastmile_qr_scan"}, "fusion_lon": 0.0}, {"lat": 38.9156385, "is_disabled": 0, "type": "electric_scooter", "lon": -77.02006216666666, "bike_id": "65e5a5242c03de6e373eec5f48dd2619", "fusion_lat": 0.0, "name": "65e5a5242c03de6e373eec5f48dd2619", "is_reserved": 0, "rental_uris": {"android": "https://dc.lft.to/lastmile_qr_scan", "ios": "https://dc.lft.to/lastmile_qr_scan"}, "fusion_lon": 0.0}, {"lat": 38.9541125, "is_disabled": 0, "type": "electric_bike", "lon": -76.98048933333334, "bike_id": "997f4fd26cfbbd36ed85773539ecd585", "fusion_lat": 0.0, "name": "997f4fd26cfbbd36ed85773539ecd585", "is_reserved": 0, "rental_uris": {"android": "https://dc.lft.to/lastmile_qr_scan", "ios": "https://dc.lft.to/lastmile_qr_scan"}, "fusion_lon": 0.0}, {"lat": 38.901042, "is_disabled": 0, "type": "electric_scooter", "lon": -77.03303983333333, "bike_id": "73dd177ba565dfb01b10bb03d3dcdbc8", "fusion_lat": 0.0, "name": "73dd177ba565dfb01b10bb03d3dcdbc8", "is_reserved": 0, "rental_uris": {"android": "https://dc.lft.to/lastmile_qr_scan", "ios": "https://dc.lft.to/lastmile_qr_scan"}, "fusion_lon": 0.0}, {"lat": 38.87345166666667, "is_disabled": 0, "type": "electric_scooter", "lon": -76.99167666666666, "bike_id": "2d79f8834fd582bf73f41798641a56b1", "fusion_lat": 0.0, "name": "2d79f8834fd582bf73f41798641a56b1", "is_reserved": 0, "rental_uris": {"android": "https://dc.lft.to/lastmile_qr_scan", "ios": "https://dc.lft.to/lastmile_qr_scan"}, "fusion_lon": 0.0}, {"lat": 38.854233, "is_disabled": 0, "type": "electric_bike", "lon": -76.9096785, "bike_id": "43a4fd50a92d331ab93aef2af8416622", "fusion_lat": 0.0, "name": "43a4fd50a92d331ab93aef2af8416622", "is_reserved": 0, "rental_uris": {"android": "https://dc.lft.to/lastmile_qr_scan", "ios": "https://dc.lft.to/lastmile_qr_scan"}, "fusion_lon": 0.0}, {"lat": 38.91819533333334, "is_disabled": 0, "type": "electric_scooter", "lon": -77.02951883333333, "bike_id": "4be1d59793ab044311b02ad9d8252115", "fusion_lat": 0.0, "name": "4be1d59793ab044311b02ad9d8252115", "is_reserved": 0, "rental_uris": {"android": "https://dc.lft.to/lastmile_qr_scan", "ios": "https://dc.lft.to/lastmile_qr_scan"}, "fusion_lon": 0.0}, {"lat": 38.8105035, "is_disabled": 0, "type": "electric_bike", "lon": -77.0851185, "bike_id": "5387e24dbd521823fdad7cd52bfe43a9", "fusion_lat": 0.0, "name": "5387e24dbd521823fdad7cd52bfe43a9", "is_reserved": 0, "rental_uris": {"android": "https://dc.lft.to/lastmile_qr_scan", "ios": "https://dc.lft.to/lastmile_qr_scan"}, "fusion_lon": 0.0}, {"lat": 38.93857533333333, "is_disabled": 0, "type": "electric_scooter", "lon": -77.02592883333334, "bike_id": "4a47fc4eb3282e5d786f3a3fc5f917ea", "fusion_lat": 0.0, "name": "4a47fc4eb3282e5d786f3a3fc5f917ea", "is_reserved": 0, "rental_uris": {"android": "https://dc.lft.to/lastmile_qr_scan", "ios": "https://dc.lft.to/lastmile_qr_scan"}, "fusion_lon": 0.0}, {"lat": 38.911093666666666, "is_disabled": 0, "type": "electric_scooter", "lon": -77.0241695, "bike_id": "bfbc6ab13580079354ae7060af19597d", "fusion_lat": 0.0, "name": "bfbc6ab13580079354ae7060af19597d", "is_reserved": 0, "rental_uris": {"android": "https://dc.lft.to/lastmile_qr_scan", "ios": "https://dc.lft.to/lastmile_qr_scan"}, "fusion_lon": 0.0}, {"lat": 38.905645166666666, "is_disabled": 0, "type": "electric_scooter", "lon": -76.98136316666667, "bike_id": "f5d0d4842f7bf738ebcf6c8158a6ad08", "fusion_lat": 0.0, "name": "f5d0d4842f7bf738ebcf6c8158a6ad08", "is_reserved": 0, "rental_uris": {"android": "https://dc.lft.to/lastmile_qr_scan", "ios": "https://dc.lft.to/lastmile_qr_scan"}, "fusion_lon": 0.0}, {"lat": 38.93609333333333, "is_disabled": 0, "type": "electric_scooter", "lon": -77.0586175, "bike_id": "6bc154a55d2a4497b3b580154c006100", "fusion_lat": 0.0, "name": "6bc154a55d2a4497b3b580154c006100", "is_reserved": 0, "rental_uris": {"android": "https://dc.lft.to/lastmile_qr_scan", "ios": "https://dc.lft.to/lastmile_qr_scan"}, "fusion_lon": 0.0}, {"lat": 38.9231465, "is_disabled": 0, "type": "electric_scooter", "lon": -77.0465175, "bike_id": "ece6515ac1985c8e551e468afccd51fd", "fusion_lat": 0.0, "name": "ece6515ac1985c8e551e468afccd51fd", "is_reserved": 0, "rental_uris": {"android": "https://dc.lft.to/lastmile_qr_scan", "ios": "https://dc.lft.to/lastmile_qr_scan"}, "fusion_lon": 0.0}, {"lat": 38.916857, "is_disabled": 0, "type": "electric_scooter", "lon": -77.035682, "bike_id": "e9c1c5dedf581fd0cd801a12a8a571a7", "fusion_lat": 0.0, "name": "e9c1c5dedf581fd0cd801a12a8a571a7", "is_reserved": 0, "rental_uris": {"android": "https://dc.lft.to/lastmile_qr_scan", "ios": "https://dc.lft.to/lastmile_qr_scan"}, "fusion_lon": 0.0}, {"lat": 38.844309, "is_disabled": 0, "type": "electric_scooter", "lon": -76.99813966666666, "bike_id": "1e7e8a41135d05e493aa1c3d65e64076", "fusion_lat": 0.0, "name": "1e7e8a41135d05e493aa1c3d65e64076", "is_reserved": 0, "rental_uris": {"android": "https://dc.lft.to/lastmile_qr_scan", "ios": "https://dc.lft.to/lastmile_qr_scan"}, "fusion_lon": 0.0}, {"lat": 38.94597, "is_disabled": 0, "type": "electric_scooter", "lon": -77.070384, "bike_id": "ac0e370813a703dad433c2df7b7265a9", "fusion_lat": 0.0, "name": "ac0e370813a703dad433c2df7b7265a9", "is_reserved": 0, "rental_uris": {"android": "https://dc.lft.to/lastmile_qr_scan", "ios": "https://dc.lft.to/lastmile_qr_scan"}, "fusion_lon": 0.0}, {"lat": 38.90257533333333, "is_disabled": 0, "type": "electric_scooter", "lon": -77.043815, "bike_id": "07115f1fe255d99df312215038bccef4", "fusion_lat": 0.0, "name": "07115f1fe255d99df312215038bccef4", "is_reserved": 0, "rental_uris": {"android": "https://dc.lft.to/lastmile_qr_scan", "ios": "https://dc.lft.to/lastmile_qr_scan"}, "fusion_lon": 0.0}, {"lat": 38.8904285, "is_disabled": 0, "type": "electric_scooter", "lon": -76.9524665, "bike_id": "37cb425bb75fcc74d0c096e29b335322", "fusion_lat": 0.0, "name": "37cb425bb75fcc74d0c096e29b335322", "is_reserved": 0, "rental_uris": {"android": "https://dc.lft.to/lastmile_qr_scan", "ios": "https://dc.lft.to/lastmile_qr_scan"}, "fusion_lon": 0.0}, {"lat": 38.93207916666667, "is_disabled": 0, "type": "electric_scooter", "lon": -77.02245283333333, "bike_id": "4ccc5fea8549015c595c9ede1843b07e", "fusion_lat": 0.0, "name": "4ccc5fea8549015c595c9ede1843b07e", "is_reserved": 0, "rental_uris": {"android": "https://dc.lft.to/lastmile_qr_scan", "ios": "https://dc.lft.to/lastmile_qr_scan"}, "fusion_lon": 0.0}, {"lat": 38.88887033333334, "is_disabled": 0, "type": "electric_scooter", "lon": -76.93150266666666, "bike_id": "14c14ea07f8d7714f8d18d54fff0a118", "fusion_lat": 0.0, "name": "14c14ea07f8d7714f8d18d54fff0a118", "is_reserved": 0, "rental_uris": {"android": "https://dc.lft.to/lastmile_qr_scan", "ios": "https://dc.lft.to/lastmile_qr_scan"}, "fusion_lon": 0.0}, {"lat": 38.911834, "is_disabled": 0, "type": "electric_scooter", "lon": -77.042958, "bike_id": "5e65c079b2b84353f04999940e1f3373", "fusion_lat": 0.0, "name": "5e65c079b2b84353f04999940e1f3373", "is_reserved": 0, "rental_uris": {"android": "https://dc.lft.to/lastmile_qr_scan", "ios": "https://dc.lft.to/lastmile_qr_scan"}, "fusion_lon": 0.0}, {"lat": 38.88403733333333, "is_disabled": 0, "type": "electric_bike", "lon": -76.954181, "bike_id": "22a16363b8d4e96f62ec9d7211741b2f", "fusion_lat": 0.0, "name": "22a16363b8d4e96f62ec9d7211741b2f", "is_reserved": 0, "rental_uris": {"android": "https://dc.lft.to/lastmile_qr_scan", "ios": "https://dc.lft.to/lastmile_qr_scan"}, "fusion_lon": 0.0}, {"lat": 38.919625, "is_disabled": 0, "type": "electric_scooter", "lon": -77.01212583333333, "bike_id": "7c87d1f9703a558488d77954a164a4c3", "fusion_lat": 0.0, "name": "7c87d1f9703a558488d77954a164a4c3", "is_reserved": 0, "rental_uris": {"android": "https://dc.lft.to/lastmile_qr_scan", "ios": "https://dc.lft.to/lastmile_qr_scan"}, "fusion_lon": 0.0}, {"lat": 38.911698666666666, "is_disabled": 0, "type": "electric_scooter", "lon": -77.046668, "bike_id": "21b0bdaf05f537e9a60fa739325481eb", "fusion_lat": 0.0, "name": "21b0bdaf05f537e9a60fa739325481eb", "is_reserved": 0, "rental_uris": {"android": "https://dc.lft.to/lastmile_qr_scan", "ios": "https://dc.lft.to/lastmile_qr_scan"}, "fusion_lon": 0.0}, {"lat": 38.911224, "is_disabled": 0, "type": "electric_scooter", "lon": -77.03789516666667, "bike_id": "f4f5d1ed6b2b7d6546ab9ff6ed55cd2a", "fusion_lat": 0.0, "name": "f4f5d1ed6b2b7d6546ab9ff6ed55cd2a", "is_reserved": 0, "rental_uris": {"android": "https://dc.lft.to/lastmile_qr_scan", "ios": "https://dc.lft.to/lastmile_qr_scan"}, "fusion_lon": 0.0}, {"lat": 38.88735166666667, "is_disabled": 0, "type": "electric_scooter", "lon": -77.015264, "bike_id": "55eb592e03ea87e09ac99241748d9611", "fusion_lat": 0.0, "name": "55eb592e03ea87e09ac99241748d9611", "is_reserved": 0, "rental_uris": {"android": "https://dc.lft.to/lastmile_qr_scan", "ios": "https://dc.lft.to/lastmile_qr_scan"}, "fusion_lon": 0.0}, {"lat": 38.898025, "is_disabled": 0, "type": "electric_scooter", "lon": -77.03096716666667, "bike_id": "b27b2b96a6a8f23d51cdce5d9f92e9d2", "fusion_lat": 0.0, "name": "b27b2b96a6a8f23d51cdce5d9f92e9d2", "is_reserved": 0, "rental_uris": {"android": "https://dc.lft.to/lastmile_qr_scan", "ios": "https://dc.lft.to/lastmile_qr_scan"}, "fusion_lon": 0.0}, {"lat": 38.955615333333334, "is_disabled": 0, "type": "electric_scooter", "lon": -77.02234116666666, "bike_id": "843819b59b447c5635bf235a8167819b", "fusion_lat": 0.0, "name": "843819b59b447c5635bf235a8167819b", "is_reserved": 0, "rental_uris": {"android": "https://dc.lft.to/lastmile_qr_scan", "ios": "https://dc.lft.to/lastmile_qr_scan"}, "fusion_lon": 0.0}, {"lat": 39.056309, "is_disabled": 0, "type": "electric_bike", "lon": -77.12525716666667, "bike_id": "53af705951a2a81f8497b6e2142e8b81", "fusion_lat": 0.0, "name": "53af705951a2a81f8497b6e2142e8b81", "is_reserved": 0, "rental_uris": {"android": "https://dc.lft.to/lastmile_qr_scan", "ios": "https://dc.lft.to/lastmile_qr_scan"}, "fusion_lon": 0.0}, {"lat": 38.866973333333334, "is_disabled": 0, "type": "electric_scooter", "lon": -76.98705633333333, "bike_id": "01d56ffd1509815b451e1747bc5e29e4", "fusion_lat": 0.0, "name": "01d56ffd1509815b451e1747bc5e29e4", "is_reserved": 0, "rental_uris": {"android": "https://dc.lft.to/lastmile_qr_scan", "ios": "https://dc.lft.to/lastmile_qr_scan"}, "fusion_lon": 0.0}, {"lat": 38.917990333333336, "is_disabled": 0, "type": "electric_scooter", "lon": -77.04014466666666, "bike_id": "261789e556323889bd6f8b4816a63e84", "fusion_lat": 0.0, "name": "261789e556323889bd6f8b4816a63e84", "is_reserved": 0, "rental_uris": {"android": "https://dc.lft.to/lastmile_qr_scan", "ios": "https://dc.lft.to/lastmile_qr_scan"}, "fusion_lon": 0.0}, {"lat": 38.928309, "is_disabled": 0, "type": "electric_scooter", "lon": -77.0141585, "bike_id": "2c6603ff272d51ccd3f5e6cca98f7699", "fusion_lat": 0.0, "name": "2c6603ff272d51ccd3f5e6cca98f7699", "is_reserved": 0, "rental_uris": {"android": "https://dc.lft.to/lastmile_qr_scan", "ios": "https://dc.lft.to/lastmile_qr_scan"}, "fusion_lon": 0.0}, {"lat": 38.898462333333335, "is_disabled": 0, "type": "electric_scooter", "lon": -77.020053, "bike_id": "1568651979d0163ca034413cee37e38f", "fusion_lat": 0.0, "name": "1568651979d0163ca034413cee37e38f", "is_reserved": 0, "rental_uris": {"android": "https://dc.lft.to/lastmile_qr_scan", "ios": "https://dc.lft.to/lastmile_qr_scan"}, "fusion_lon": 0.0}, {"lat": 38.88446916666667, "is_disabled": 0, "type": "electric_scooter", "lon": -77.00055383333333, "bike_id": "5f9fc64443d62801663f32dec0b714c8", "fusion_lat": 0.0, "name": "5f9fc64443d62801663f32dec0b714c8", "is_reserved": 0, "rental_uris": {"android": "https://dc.lft.to/lastmile_qr_scan", "ios": "https://dc.lft.to/lastmile_qr_scan"}, "fusion_lon": 0.0}, {"lat": 38.90920716666667, "is_disabled": 0, "type": "electric_scooter", "lon": -77.03204766666667, "bike_id": "fdd4f05337ec8118af9ce1da8e96e555", "fusion_lat": 0.0, "name": "fdd4f05337ec8118af9ce1da8e96e555", "is_reserved": 0, "rental_uris": {"android": "https://dc.lft.to/lastmile_qr_scan", "ios": "https://dc.lft.to/lastmile_qr_scan"}, "fusion_lon": 0.0}, {"lat": 38.914998833333335, "is_disabled": 0, "type": "electric_scooter", "lon": -77.06786383333333, "bike_id": "81bd32690e92030de06cde8c578d6fcd", "fusion_lat": 0.0, "name": "81bd32690e92030de06cde8c578d6fcd", "is_reserved": 0, "rental_uris": {"android": "https://dc.lft.to/lastmile_qr_scan", "ios": "https://dc.lft.to/lastmile_qr_scan"}, "fusion_lon": 0.0}, {"lat": 38.9556245, "is_disabled": 0, "type": "electric_scooter", "lon": -77.02232983333333, "bike_id": "d2ef621b4c7d15e8fa62ae085b68f518", "fusion_lat": 0.0, "name": "d2ef621b4c7d15e8fa62ae085b68f518", "is_reserved": 0, "rental_uris": {"android": "https://dc.lft.to/lastmile_qr_scan", "ios": "https://dc.lft.to/lastmile_qr_scan"}, "fusion_lon": 0.0}, {"lat": 38.90764733333334, "is_disabled": 0, "type": "electric_scooter", "lon": -76.98304933333333, "bike_id": "97047b2a2a3d5b13e532347a741d5dfa", "fusion_lat": 0.0, "name": "97047b2a2a3d5b13e532347a741d5dfa", "is_reserved": 0, "rental_uris": {"android": "https://dc.lft.to/lastmile_qr_scan", "ios": "https://dc.lft.to/lastmile_qr_scan"}, "fusion_lon": 0.0}, {"lat": 38.8656265, "is_disabled": 0, "type": "electric_scooter", "lon": -76.989536, "bike_id": "fdb10ae81b7afb96ba5a6b62c2a6dfa7", "fusion_lat": 0.0, "name": "fdb10ae81b7afb96ba5a6b62c2a6dfa7", "is_reserved": 0, "rental_uris": {"android": "https://dc.lft.to/lastmile_qr_scan", "ios": "https://dc.lft.to/lastmile_qr_scan"}, "fusion_lon": 0.0}, {"lat": 38.9268325, "is_disabled": 0, "type": "electric_scooter", "lon": -77.0157085, "bike_id": "ef53641f6d8641f480555ae0dcc8edf8", "fusion_lat": 0.0, "name": "ef53641f6d8641f480555ae0dcc8edf8", "is_reserved": 0, "rental_uris": {"android": "https://dc.lft.to/lastmile_qr_scan", "ios": "https://dc.lft.to/lastmile_qr_scan"}, "fusion_lon": 0.0}, {"lat": 38.89714016666667, "is_disabled": 0, "type": "electric_scooter", "lon": -77.0079565, "bike_id": "ceb290620747b559a21fdf630c002c5f", "fusion_lat": 0.0, "name": "ceb290620747b559a21fdf630c002c5f", "is_reserved": 0, "rental_uris": {"android": "https://dc.lft.to/lastmile_qr_scan", "ios": "https://dc.lft.to/lastmile_qr_scan"}, "fusion_lon": 0.0}, {"lat": 38.883335, "is_disabled": 0, "type": "electric_scooter", "lon": -77.00934766666667, "bike_id": "bcdb5760486148756008e6e274315888", "fusion_lat": 0.0, "name": "bcdb5760486148756008e6e274315888", "is_reserved": 0, "rental_uris": {"android": "https://dc.lft.to/lastmile_qr_scan", "ios": "https://dc.lft.to/lastmile_qr_scan"}, "fusion_lon": 0.0}, {"lat": 38.898120666666664, "is_disabled": 0, "type": "electric_scooter", "lon": -77.05018166666666, "bike_id": "f66b26cfb722a5a39e209835194c965a", "fusion_lat": 0.0, "name": "f66b26cfb722a5a39e209835194c965a", "is_reserved": 0, "rental_uris": {"android": "https://dc.lft.to/lastmile_qr_scan", "ios": "https://dc.lft.to/lastmile_qr_scan"}, "fusion_lon": 0.0}, {"lat": 38.90611616666666, "is_disabled": 0, "type": "electric_scooter", "lon": -77.0340205, "bike_id": "f98092fcfa2464fe9782f257715e0f80", "fusion_lat": 0.0, "name": "f98092fcfa2464fe9782f257715e0f80", "is_reserved": 0, "rental_uris": {"android": "https://dc.lft.to/lastmile_qr_scan", "ios": "https://dc.lft.to/lastmile_qr_scan"}, "fusion_lon": 0.0}, {"lat": 38.793223166666664, "is_disabled": 0, "type": "electric_bike", "lon": -77.04014383333333, "bike_id": "abe54fdfa150fde52b50a83ed45454e1", "fusion_lat": 0.0, "name": "abe54fdfa150fde52b50a83ed45454e1", "is_reserved": 0, "rental_uris": {"android": "https://dc.lft.to/lastmile_qr_scan", "ios": "https://dc.lft.to/lastmile_qr_scan"}, "fusion_lon": 0.0}, {"lat": 38.949026833333335, "is_disabled": 0, "type": "electric_bike", "lon": -76.97237633333333, "bike_id": "5e1d7530e0ce8fc07cb7c5aaa45f976f", "fusion_lat": 0.0, "name": "5e1d7530e0ce8fc07cb7c5aaa45f976f", "is_reserved": 0, "rental_uris": {"android": "https://dc.lft.to/lastmile_qr_scan", "ios": "https://dc.lft.to/lastmile_qr_scan"}, "fusion_lon": 0.0}, {"lat": 38.89227066666667, "is_disabled": 0, "type": "electric_scooter", "lon": -77.028328, "bike_id": "b7b7088a5c7fd5d969bdee85d07b399d", "fusion_lat": 0.0, "name": "b7b7088a5c7fd5d969bdee85d07b399d", "is_reserved": 0, "rental_uris": {"android": "https://dc.lft.to/lastmile_qr_scan", "ios": "https://dc.lft.to/lastmile_qr_scan"}, "fusion_lon": 0.0}, {"lat": 38.9135075, "is_disabled": 0, "type": "electric_scooter", "lon": -77.03366616666666, "bike_id": "805a2ff3b4956662a4a9056be2ac6530", "fusion_lat": 0.0, "name": "805a2ff3b4956662a4a9056be2ac6530", "is_reserved": 0, "rental_uris": {"android": "https://dc.lft.to/lastmile_qr_scan", "ios": "https://dc.lft.to/lastmile_qr_scan"}, "fusion_lon": 0.0}, {"lat": 38.903644666666665, "is_disabled": 0, "type": "electric_scooter", "lon": -77.05085133333333, "bike_id": "d788893b763b47130ea770bd3d63464a", "fusion_lat": 0.0, "name": "d788893b763b47130ea770bd3d63464a", "is_reserved": 0, "rental_uris": {"android": "https://dc.lft.to/lastmile_qr_scan", "ios": "https://dc.lft.to/lastmile_qr_scan"}, "fusion_lon": 0.0}, {"lat": 38.9174515, "is_disabled": 0, "type": "electric_scooter", "lon": -77.0359975, "bike_id": "bb2f5b54742ae44ed5c1e5fa622c7662", "fusion_lat": 0.0, "name": "bb2f5b54742ae44ed5c1e5fa622c7662", "is_reserved": 0, "rental_uris": {"android": "https://dc.lft.to/lastmile_qr_scan", "ios": "https://dc.lft.to/lastmile_qr_scan"}, "fusion_lon": 0.0}, {"lat": 38.92908516666667, "is_disabled": 0, "type": "electric_scooter", "lon": -77.03758483333333, "bike_id": "96d6ff9a1eafb35078f4d23591431f4b", "fusion_lat": 0.0, "name": "96d6ff9a1eafb35078f4d23591431f4b", "is_reserved": 0, "rental_uris": {"android": "https://dc.lft.to/lastmile_qr_scan", "ios": "https://dc.lft.to/lastmile_qr_scan"}, "fusion_lon": 0.0}, {"lat": 38.9022435, "is_disabled": 0, "type": "electric_scooter", "lon": -77.05904983333333, "bike_id": "c3b4f7ac96b5e30e39b062889b6920e6", "fusion_lat": 0.0, "name": "c3b4f7ac96b5e30e39b062889b6920e6", "is_reserved": 0, "rental_uris": {"android": "https://dc.lft.to/lastmile_qr_scan", "ios": "https://dc.lft.to/lastmile_qr_scan"}, "fusion_lon": 0.0}, {"lat": 38.865083166666665, "is_disabled": 0, "type": "electric_scooter", "lon": -76.990041, "bike_id": "ae96200db757ac6815b825070cf8ab71", "fusion_lat": 0.0, "name": "ae96200db757ac6815b825070cf8ab71", "is_reserved": 0, "rental_uris": {"android": "https://dc.lft.to/lastmile_qr_scan", "ios": "https://dc.lft.to/lastmile_qr_scan"}, "fusion_lon": 0.0}, {"lat": 38.89218, "is_disabled": 0, "type": "electric_scooter", "lon": -76.93294066666667, "bike_id": "4f1c5dd8361387b1be066edc6041acf3", "fusion_lat": 0.0, "name": "4f1c5dd8361387b1be066edc6041acf3", "is_reserved": 0, "rental_uris": {"android": "https://dc.lft.to/lastmile_qr_scan", "ios": "https://dc.lft.to/lastmile_qr_scan"}, "fusion_lon": 0.0}, {"lat": 38.90009833333333, "is_disabled": 0, "type": "electric_scooter", "lon": -77.033137, "bike_id": "6c4aace492352163dc44417e2c061b43", "fusion_lat": 0.0, "name": "6c4aace492352163dc44417e2c061b43", "is_reserved": 0, "rental_uris": {"android": "https://dc.lft.to/lastmile_qr_scan", "ios": "https://dc.lft.to/lastmile_qr_scan"}, "fusion_lon": 0.0}, {"lat": 38.907127333333335, "is_disabled": 0, "type": "electric_scooter", "lon": -77.01661783333333, "bike_id": "39f870795eb334caceb18ead451b4147", "fusion_lat": 0.0, "name": "39f870795eb334caceb18ead451b4147", "is_reserved": 0, "rental_uris": {"android": "https://dc.lft.to/lastmile_qr_scan", "ios": "https://dc.lft.to/lastmile_qr_scan"}, "fusion_lon": 0.0}, {"lat": 38.900936, "is_disabled": 0, "type": "electric_scooter", "lon": -77.05600833333334, "bike_id": "15d40e90d4b13c645613159e8330fed7", "fusion_lat": 0.0, "name": "15d40e90d4b13c645613159e8330fed7", "is_reserved": 0, "rental_uris": {"android": "https://dc.lft.to/lastmile_qr_scan", "ios": "https://dc.lft.to/lastmile_qr_scan"}, "fusion_lon": 0.0}, {"lat": 38.9105255, "is_disabled": 0, "type": "electric_scooter", "lon": -77.04258483333334, "bike_id": "8674a625d1dcd8dc7721ee95a62d0193", "fusion_lat": 0.0, "name": "8674a625d1dcd8dc7721ee95a62d0193", "is_reserved": 0, "rental_uris": {"android": "https://dc.lft.to/lastmile_qr_scan", "ios": "https://dc.lft.to/lastmile_qr_scan"}, "fusion_lon": 0.0}, {"lat": 38.899156, "is_disabled": 0, "type": "electric_scooter", "lon": -76.93379983333334, "bike_id": "d1eb9e862aa1d4c766e47071bfcacc03", "fusion_lat": 0.0, "name": "d1eb9e862aa1d4c766e47071bfcacc03", "is_reserved": 0, "rental_uris": {"android": "https://dc.lft.to/lastmile_qr_scan", "ios": "https://dc.lft.to/lastmile_qr_scan"}, "fusion_lon": 0.0}, {"lat": 38.9555135, "is_disabled": 0, "type": "electric_bike", "lon": -76.93538216666667, "bike_id": "c12f14a482a19b55305a86d9b230ef6c", "fusion_lat": 0.0, "name": "c12f14a482a19b55305a86d9b230ef6c", "is_reserved": 0, "rental_uris": {"android": "https://dc.lft.to/lastmile_qr_scan", "ios": "https://dc.lft.to/lastmile_qr_scan"}, "fusion_lon": 0.0}, {"lat": 38.9225085, "is_disabled": 0, "type": "electric_scooter", "lon": -77.03070783333334, "bike_id": "f0cabda7437a4e14a48b0d9a09bc499a", "fusion_lat": 0.0, "name": "f0cabda7437a4e14a48b0d9a09bc499a", "is_reserved": 0, "rental_uris": {"android": "https://dc.lft.to/lastmile_qr_scan", "ios": "https://dc.lft.to/lastmile_qr_scan"}, "fusion_lon": 0.0}, {"lat": 38.906811, "is_disabled": 0, "type": "electric_scooter", "lon": -77.027059, "bike_id": "06c15deed4655834b07a69b86da16c49", "fusion_lat": 0.0, "name": "06c15deed4655834b07a69b86da16c49", "is_reserved": 0, "rental_uris": {"android": "https://dc.lft.to/lastmile_qr_scan", "ios": "https://dc.lft.to/lastmile_qr_scan"}, "fusion_lon": 0.0}, {"lat": 38.89879883333333, "is_disabled": 0, "type": "electric_scooter", "lon": -77.05337816666666, "bike_id": "ec5a90ba8acd52176c86457db807f69f", "fusion_lat": 0.0, "name": "ec5a90ba8acd52176c86457db807f69f", "is_reserved": 0, "rental_uris": {"android": "https://dc.lft.to/lastmile_qr_scan", "ios": "https://dc.lft.to/lastmile_qr_scan"}, "fusion_lon": 0.0}, {"lat": 38.94829766666667, "is_disabled": 0, "type": "electric_bike", "lon": -77.03885283333334, "bike_id": "68a481267e2e2f70ec75bcdb3861dfe3", "fusion_lat": 0.0, "name": "68a481267e2e2f70ec75bcdb3861dfe3", "is_reserved": 0, "rental_uris": {"android": "https://dc.lft.to/lastmile_qr_scan", "ios": "https://dc.lft.to/lastmile_qr_scan"}, "fusion_lon": 0.0},