{"data": {"bikes": [{"name": "b53fa12aee8fdf42e0e91ae281d713ab", "is_disabled": 0, "lat": 38.89674333333333, "rental_uris": {"ios": "https://dc.lft.to/lastmile_qr_scan", "android": "https://dc.lft.to/lastmile_qr_scan"}, "bike_id": "b53fa12aee8fdf42e0e91ae281d713ab", "type": "electric_scooter", "lon": -77.024875, "is_reserved": 0, "fusion_lat": 0.0, "fusion_lon": 0.0}, {"name": "d195421b6d65e75b10a5d232885aba25", "is_disabled": 0, "lat": 38.88007416666667, "rental_uris": {"ios": "https://dc.lft.to/lastmile_qr_scan", "android": "https://dc.lft.to/lastmile_qr_scan"}, "bike_id": "d195421b6d65e75b10a5d232885aba25", "type": "electric_scooter", "lon": -77.02482616666667, "is_reserved": 0, "fusion_lat": 0.0, "fusion_lon": 0.0}, {"name": "dc1c8462182846323e386fe29abc6ff8", "is_disabled": 0, "lat": 38.89825883333334, "rental_uris": {"ios": "https://dc.lft.to/lastmile_qr_scan", "android": "https://dc.lft.to/lastmile_qr_scan"}, "bike_id": "dc1c8462182846323e386fe29abc6ff8", "type": "electric_scooter", "lon": -77.0334685, "is_reserved": 0, "fusion_lat": 0.0, "fusion_lon": 0.0}, {"name": "2c54e9156dccbc686121a49482b6505e", "is_disabled": 0, "lat": 38.95630533333333, "rental_uris": {"ios": "https://dc.lft.to/lastmile_qr_scan", "android": "https://dc.lft.to/lastmile_qr_scan"}, "bike_id": "2c54e9156dccbc686121a49482b6505e", "type": "electric_scooter", "lon": -77.0283545, "is_reserved": 0, "fusion_lat": 0.0, "fusion_lon": 0.0}, {"name": "366d4c9d9ec23125732f40784490e57b", "is_disabled": 0, "lat": 38.923427, "rental_uris": {"ios": "https://dc.lft.to/lastmile_qr_scan", "android": "https://dc.lft.to/lastmile_qr_scan"}, "bike_id": "366d4c9d9ec23125732f40784490e57b", "type": "electric_scooter", "lon": -77.0523075, "is_reserved": 0, "fusion_lat": 0.0, "fusion_lon": 0.0}, {"name": "cffaf8df492e1b1af775c0cb789e97a8", "is_disabled": 0, "lat": 38.905052, "rental_uris": {"ios": "https://dc.lft.to/lastmile_qr_scan", "android": "https://dc.lft.to/lastmile_qr_scan"}, "bike_id": "cffaf8df492e1b1af775c0cb789e97a8", "type": "electric_bike", "lon": -76.97442133333334, "is_reserved": 0, "fusion_lat": 0.0, "fusion_lon": 0.0}, {"name": "0c121294566fbdaf933ac618b257414d", "is_disabled": 0, "lat": 38.915764833333334, "rental_uris": {"ios": "https://dc.lft.to/lastmile_qr_scan", "android": "https://dc.lft.to/lastmile_qr_scan"}, "bike_id": "0c121294566fbdaf933ac618b257414d", "type": "electric_scooter", "lon": -76.9840105, "is_reserved": 0, "fusion_lat": 0.0, "fusion_lon": 0.0}, {"name": "803450fb9221e6bb2da27f4de8c76b91", "is_disabled": 0, "lat": 38.92077883333333, "rental_uris": {"ios": "https://dc.lft.to/lastmile_qr_scan", "android": "https://dc.lft.to/lastmile_qr_scan"}, "bike_id": "803450fb9221e6bb2da27f4de8c76b91", "type": "electric_scooter", "lon": -77.03202133333333, "is_reserved": 0, "fusion_lat": 0.0, "fusion_lon": 0.0}, {"name": "75c0359780e46dc273b1be2371cb23ca", "is_disabled": 0, "lat": 38.917320833333335, "rental_uris": {"ios": "https://dc.lft.to/lastmile_qr_scan", "android": "https://dc.lft.to/lastmile_qr_scan"}, "bike_id": "75c0359780e46dc273b1be2371cb23ca", "type": "electric_scooter", "lon": -77.0323615, "is_reserved": 0, "fusion_lat": 0.0, "fusion_lon": 0.0}, {"name": "4a58d9c9b501c071b18de6f843b5c2ee", "is_disabled": 0, "lat": 38.9073765, "rental_uris": {"ios": "https://dc.lft.to/lastmile_qr_scan", "android": "https://dc.lft.to/lastmile_qr_scan"}, "bike_id": "4a58d9c9b501c071b18de6f843b5c2ee", "type": "electric_scooter", "lon": -77.02953283333333, "is_reserved": 0, "fusion_lat": 0.0, "fusion_lon": 0.0}, {"name": "84efaf76bd1db0344d3fedc8479e5a38", "is_disabled": 0, "lat": 38.9015945, "rental_uris": {"ios": "https://dc.lft.to/lastmile_qr_scan", "android": "https://dc.lft.to/lastmile_qr_scan"}, "bike_id": "84efaf76bd1db0344d3fedc8479e5a38", "type": "electric_scooter", "lon": -77.0591865, "is_reserved": 0, "fusion_lat": 0.0, "fusion_lon": 0.0}, {"name": "e49aa61ec37a6c33838414334ac5784c", "is_disabled": 0, "lat": 38.8435865, "rental_uris": {"ios": "https://dc.lft.to/lastmile_qr_scan", "android": "https://dc.lft.to/lastmile_qr_scan"}, "bike_id": "e49aa61ec37a6c33838414334ac5784c", "type": "electric_bike", "lon": -76.97824316666667, "is_reserved": 0, "fusion_lat": 0.0, "fusion_lon": 0.0}, {"name": "f9fcc221aaf3a8454a912c31eb0d5f43", "is_disabled": 0, "lat": 38.87964933333333, "rental_uris": {"ios": "https://dc.lft.to/lastmile_qr_scan", "android": "https://dc.lft.to/lastmile_qr_scan"}, "bike_id": "f9fcc221aaf3a8454a912c31eb0d5f43", "type": "electric_scooter", "lon": -77.0059175, "is_reserved": 0, "fusion_lat": 0.0, "fusion_lon": 0.0}, {"name": "19d2fc755234bacb9f09fe3519db31dd", "is_disabled": 0, "lat": 38.942653666666665, "rental_uris": {"ios": "https://dc.lft.to/lastmile_qr_scan", "android": "https://dc.lft.to/lastmile_qr_scan"}, "bike_id": "19d2fc755234bacb9f09fe3519db31dd", "type": "electric_bike", "lon": -77.02836366666666, "is_reserved": 0, "fusion_lat": 0.0, "fusion_lon": 0.0}, {"name": "e185f8bb12cae0a397645cd21763f946", "is_disabled": 0, "lat": 38.88741016666667, "rental_uris": {"ios": "https://dc.lft.to/lastmile_qr_scan", "android": "https://dc.lft.to/lastmile_qr_scan"}, "bike_id": "e185f8bb12cae0a397645cd21763f946", "type": "electric_scooter", "lon": -77.02138016666666, "is_reserved": 0, "fusion_lat": 0.0, "fusion_lon": 0.0}, {"name": "98428d08614a4402666d4ae9d2d2fb67", "is_disabled": 0, "lat": 38.895239333333336, "rental_uris": {"ios": "https://dc.lft.to/lastmile_qr_scan", "android": "https://dc.lft.to/lastmile_qr_scan"}, "bike_id": "98428d08614a4402666d4ae9d2d2fb67", "type": "electric_scooter", "lon": -77.00213366666667, "is_reserved": 0, "fusion_lat": 0.0, "fusion_lon": 0.0}, {"name": "137e355ea4a80dafa7c80bda93fd9434", "is_disabled": 0, "lat": 38.88845416666667, "rental_uris": {"ios": "https://dc.lft.to/lastmile_qr_scan", "android": "https://dc.lft.to/lastmile_qr_scan"}, "bike_id": "137e355ea4a80dafa7c80bda93fd9434", "type": "electric_scooter", "lon": -76.92682583333334, "is_reserved": 0, "fusion_lat": 0.0, "fusion_lon": 0.0}, {"name": "0e2ec61340d4e5d7836aafaf6929a8c7", "is_disabled": 0, "lat": 38.89829666666667, "rental_uris": {"ios": "https://dc.lft.to/lastmile_qr_scan", "android": "https://dc.lft.to/lastmile_qr_scan"}, "bike_id": "0e2ec61340d4e5d7836aafaf6929a8c7", "type": "electric_scooter", "lon": -77.046124, "is_reserved": 0, "fusion_lat": 0.0, "fusion_lon": 0.0}, {"name": "6ab767696461841a445897958a6660ad", "is_disabled": 0, "lat": 38.89952516666666, "rental_uris": {"ios": "https://dc.lft.to/lastmile_qr_scan", "android": "https://dc.lft.to/lastmile_qr_scan"}, "bike_id": "6ab767696461841a445897958a6660ad", "type": "electric_scooter", "lon": -77.057001, "is_reserved": 0, "fusion_lat": 0.0, "fusion_lon": 0.0}, {"name": "6c1b1385a66c17982c131fb69d83b8d6", "is_disabled": 0, "lat": 38.915379333333334, "rental_uris": {"ios": "https://dc.lft.to/lastmile_qr_scan", "android": "https://dc.lft.to/lastmile_qr_scan"}, "bike_id": "6c1b1385a66c17982c131fb69d83b8d6", "type": "electric_scooter", "lon": -77.032037, "is_reserved": 0, "fusion_lat": 0.0, "fusion_lon": 0.0}, {"name": "d491c0c02ecb07bbaaefa966c53d09c4", "is_disabled": 0, "lat": 38.91065416666667, "rental_uris": {"ios": "https://dc.lft.to/lastmile_qr_scan", "android": "https://dc.lft.to/lastmile_qr_scan"}, "bike_id": "d491c0c02ecb07bbaaefa966c53d09c4", "type": "electric_scooter", "lon": -77.0425315, "is_reserved": 0, "fusion_lat": 0.0, "fusion_lon": 0.0}, {"name": "5c8c9be0c3b5e35fdae1ca398dfa3551", "is_disabled": 0, "lat": 38.90387066666667, "rental_uris": {"ios": "https://dc.lft.to/lastmile_qr_scan", "android": "https://dc.lft.to/lastmile_qr_scan"}, "bike_id": "5c8c9be0c3b5e35fdae1ca398dfa3551", "type": "electric_scooter", "lon": -77.03336183333333, "is_reserved": 0, "fusion_lat": 0.0, "fusion_lon": 0.0}, {"name": "8d66d36973919132472267e988dce553", "is_disabled": 0, "lat": 38.91404383333333, "rental_uris": {"ios": "https://dc.lft.to/lastmile_qr_scan", "android": "https://dc.lft.to/lastmile_qr_scan"}, "bike_id": "8d66d36973919132472267e988dce553", "type": "electric_scooter", "lon": -77.0755365, "is_reserved": 0, "fusion_lat": 0.0, "fusion_lon": 0.0}, {"name": "364488ac499321e5d190e6b2c6b7a605", "is_disabled": 0, "lat": 38.9028695, "rental_uris": {"ios": "https://dc.lft.to/lastmile_qr_scan", "android": "https://dc.lft.to/lastmile_qr_scan"}, "bike_id": "364488ac499321e5d190e6b2c6b7a605", "type": "electric_scooter", "lon": -77.0364005, "is_reserved": 0, "fusion_lat": 0.0, "fusion_lon": 0.0}, {"name": "67300126bd49e8d8d0b3e1a0989975a8", "is_disabled": 0, "lat": 38.87481433333333, "rental_uris": {"ios": "https://dc.lft.to/lastmile_qr_scan", "android": "https://dc.lft.to/lastmile_qr_scan"}, "bike_id": "67300126bd49e8d8d0b3e1a0989975a8", "type": "electric_scooter", "lon": -77.00591983333334, "is_reserved": 0, "fusion_lat": 0.0, "fusion_lon": 0.0}, {"name": "6ee162b64f711466970fffbe769fb75b", "is_disabled": 0, "lat": 38.939858666666666, "rental_uris": {"ios": "https://dc.lft.to/lastmile_qr_scan", "android": "https://dc.lft.to/lastmile_qr_scan"}, "bike_id": "6ee162b64f711466970fffbe769fb75b", "type": "electric_scooter", "lon": -77.02897183333333, "is_reserved": 0, "fusion_lat": 0.0, "fusion_lon": 0.0}, {"name": "257dd78e139a0c896f8f9ba90f89f43c", "is_disabled": 0, "lat": 38.91114, "rental_uris": {"ios": "https://dc.lft.to/lastmile_qr_scan", "android": "https://dc.lft.to/lastmile_qr_scan"}, "bike_id": "257dd78e139a0c896f8f9ba90f89f43c", "type": "electric_scooter", "lon": -77.04459566666667, "is_reserved": 0, "fusion_lat": 0.0, "fusion_lon": 0.0}, {"name": "254e5fe66d4fb994571973909a3b8a29", "is_disabled": 0, "lat": 38.978792166666665, "rental_uris": {"ios": "https://dc.lft.to/lastmile_qr_scan", "android": "https://dc.lft.to/lastmile_qr_scan"}, "bike_id": "254e5fe66d4fb994571973909a3b8a29", "type": "electric_bike", "lon": -77.060315, "is_reserved": 0, "fusion_lat": 0.0, "fusion_lon": 0.0}, {"name": "c025ba1f2aa689cb40c08b7656ffc3fe", "is_disabled": 0, "lat": 38.887699, "rental_uris": {"ios": "https://dc.lft.to/lastmile_qr_scan", "android": "https://dc.lft.to/lastmile_qr_scan"}, "bike_id": "c025ba1f2aa689cb40c08b7656ffc3fe", "type": "electric_scooter", "lon": -76.9915745, "is_reserved": 0, "fusion_lat": 0.0, "fusion_lon": 0.0}, {"name": "9e3eb24ad49f4ff555ddfaca0c586fee", "is_disabled": 0, "lat": 38.8872845, "rental_uris": {"ios": "https://dc.lft.to/lastmile_qr_scan", "android": "https://dc.lft.to/lastmile_qr_scan"}, "bike_id": "9e3eb24ad49f4ff555ddfaca0c586fee", "type": "electric_scooter", "lon": -77.03186383333333, "is_reserved": 0, "fusion_lat": 0.0, "fusion_lon": 0.0}, {"name": "8eff8bbd2d8208da149820fa9120716a", "is_disabled": 0, "lat": 38.918083333333335, "rental_uris": {"ios": "https://dc.lft.to/lastmile_qr_scan", "android": "https://dc.lft.to/lastmile_qr_scan"}, "bike_id": "8eff8bbd2d8208da149820fa9120716a", "type": "electric_scooter", "lon": -77.02496166666667, "is_reserved": 0, "fusion_lat": 0.0, "fusion_lon": 0.0}, {"name": "022607002ad8bb21209696c1bed40698", "is_disabled": 0, "lat": 38.92146833333334, "rental_uris": {"ios": "https://dc.lft.to/lastmile_qr_scan", "android": "https://dc.lft.to/lastmile_qr_scan"}, "bike_id": "022607002ad8bb21209696c1bed40698", "type": "electric_scooter", "lon": -77.04354933333333, "is_reserved": 0, "fusion_lat": 0.0, "fusion_lon": 0.0}, {"name": "e703171966b0f05ce6763a38c11bbccc", "is_disabled": 0, "lat": 38.901781166666666, "rental_uris": {"ios": "https://dc.lft.to/lastmile_qr_scan", "android": "https://dc.lft.to/lastmile_qr_scan"}, "bike_id": "e703171966b0f05ce6763a38c11bbccc", "type": "electric_scooter", "lon": -77.0506815, "is_reserved": 0, "fusion_lat": 0.0, "fusion_lon": 0.0}, {"name": "f692513a97165ff625357c5ae27f3701", "is_disabled": 0, "lat": 38.921365, "rental_uris": {"ios": "https://dc.lft.to/lastmile_qr_scan", "android": "https://dc.lft.to/lastmile_qr_scan"}, "bike_id": "f692513a97165ff625357c5ae27f3701", "type": "electric_scooter", "lon": -77.00399416666667, "is_reserved": 0, "fusion_lat": 0.0, "fusion_lon": 0.0}, {"name": "75441713a295f13b761ce167841c5581", "is_disabled": 0, "lat": 38.91807433333334, "rental_uris": {"ios": "https://dc.lft.to/lastmile_qr_scan", "android": "https://dc.lft.to/lastmile_qr_scan"}, "bike_id": "75441713a295f13b761ce167841c5581", "type": "electric_scooter", "lon": -77.0249745, "is_reserved": 0, "fusion_lat": 0.0, "fusion_lon": 0.0}, {"name": "8e826057b01e02c8cd401cfb0c9ace82", "is_disabled": 0, "lat": 38.899053333333335, "rental_uris": {"ios": "https://dc.lft.to/lastmile_qr_scan", "android": "https://dc.lft.to/lastmile_qr_scan"}, "bike_id": "8e826057b01e02c8cd401cfb0c9ace82", "type": "electric_scooter", "lon": -77.03935816666667, "is_reserved": 0, "fusion_lat": 0.0, "fusion_lon": 0.0}, {"name": "37de91b437b56d6b9a4d7c1eac68c4da", "is_disabled": 0, "lat": 38.89937466666667, "rental_uris": {"ios": "https://dc.lft.to/lastmile_qr_scan", "android": "https://dc.lft.to/lastmile_qr_scan"}, "bike_id": "37de91b437b56d6b9a4d7c1eac68c4da", "type": "electric_scooter", "lon": -77.03171016666667, "is_reserved": 0, "fusion_lat": 0.0, "fusion_lon": 0.0}, {"name": "e5cfd9878d7c7f347c6215dcb4e35fc3", "is_disabled": 0, "lat": 38.91704683333333, "rental_uris": {"ios": "https://dc.lft.to/lastmile_qr_scan", "android": "https://dc.lft.to/lastmile_qr_scan"}, "bike_id": "e5cfd9878d7c7f347c6215dcb4e35fc3", "type": "electric_scooter", "lon": -77.028598, "is_reserved": 0, "fusion_lat": 0.0, "fusion_lon": 0.0}, {"name": "e2ab4aaa8a0b2f176647a99887baface", "is_disabled": 0, "lat": 38.9020635, "rental_uris": {"ios": "https://dc.lft.to/lastmile_qr_scan", "android": "https://dc.lft.to/lastmile_qr_scan"}, "bike_id": "e2ab4aaa8a0b2f176647a99887baface", "type": "electric_scooter", "lon": -77.0221555, "is_reserved": 0, "fusion_lat": 0.0, "fusion_lon": 0.0}, {"name": "c1be8b95b6d3abd87268572f1a44bb97", "is_disabled": 0, "lat": 38.935835833333336, "rental_uris": {"ios": "https://dc.lft.to/lastmile_qr_scan", "android": "https://dc.lft.to/lastmile_qr_scan"}, "bike_id": "c1be8b95b6d3abd87268572f1a44bb97", "type": "electric_scooter", "lon": -77.0284515, "is_reserved": 0, "fusion_lat": 0.0, "fusion_lon": 0.0}, {"name": "ab5da096ead879ba6a20ae3c04e9b113", "is_disabled": 0, "lat": 38.877485666666665, "rental_uris": {"ios": "https://dc.lft.to/lastmile_qr_scan", "android": "https://dc.lft.to/lastmile_qr_scan"}, "bike_id": "ab5da096ead879ba6a20ae3c04e9b113", "type": "electric_scooter", "lon": -77.00335616666666, "is_reserved": 0, "fusion_lat": 0.0, "fusion_lon": 0.0}, {"name": "64b61faeb4f52d17143789dc5f497344", "is_disabled": 0, "lat": 38.909696333333336, "rental_uris": {"ios": "https://dc.lft.to/lastmile_qr_scan", "android": "https://dc.lft.to/lastmile_qr_scan"}, "bike_id": "64b61faeb4f52d17143789dc5f497344", "type": "electric_scooter", "lon": -77.03207366666666, "is_reserved": 0, "fusion_lat": 0.0, "fusion_lon": 0.0}, {"name": "692eb8685d1873400c43386b68fb4dda", "is_disabled": 0, "lat": 38.90926866666667, "rental_uris": {"ios": "https://dc.lft.to/lastmile_qr_scan", "android": "https://dc.lft.to/lastmile_qr_scan"}, "bike_id": "692eb8685d1873400c43386b68fb4dda", "type": "electric_scooter", "lon": -77.02811783333334, "is_reserved": 0, "fusion_lat": 0.0, "fusion_lon": 0.0}, {"name": "823c7d29fb979dc87c3a127641769ef9", "is_disabled": 0, "lat": 38.90350166666666, "rental_uris": {"ios": "https://dc.lft.to/lastmile_qr_scan", "android": "https://dc.lft.to/lastmile_qr_scan"}, "bike_id": "823c7d29fb979dc87c3a127641769ef9", "type": "electric_scooter", "lon": -77.0450875, "is_reserved": 0, "fusion_lat": 0.0, "fusion_lon": 0.0}, {"name": "be55dfeabdd8b5a2db49463f1d0e230b", "is_disabled": 0, "lat": 38.91256516666667, "rental_uris": {"ios": "https://dc.lft.to/lastmile_qr_scan", "android": "https://dc.lft.to/lastmile_qr_scan"}, "bike_id": "be55dfeabdd8b5a2db49463f1d0e230b", "type": "electric_scooter", "lon": -77.02810633333333, "is_reserved": 0, "fusion_lat": 0.0, "fusion_lon": 0.0}, {"name": "10ab2f2a0472439e2c2e1aeecdb658f2", "is_disabled": 0, "lat": 38.92322983333333, "rental_uris": {"ios": "https://dc.lft.to/lastmile_qr_scan", "android": "https://dc.lft.to/lastmile_qr_scan"}, "bike_id": "10ab2f2a0472439e2c2e1aeecdb658f2", "type": "electric_scooter", "lon": -77.04031216666667, "is_reserved": 0, "fusion_lat": 0.0, "fusion_lon": 0.0}, {"name": "993b5cd90cdd0fddb336104678f3dace", "is_disabled": 0, "lat": 38.905364, "rental_uris": {"ios": "https://dc.lft.to/lastmile_qr_scan", "android": "https://dc.lft.to/lastmile_qr_scan"}, "bike_id": "993b5cd90cdd0fddb336104678f3dace", "type": "electric_bike", "lon": -76.9980655, "is_reserved": 0, "fusion_lat": 0.0, "fusion_lon": 0.0}, {"name": "e3cbf918d7cb19691b24a44c25016c61", "is_disabled": 0, "lat": 38.9172565, "rental_uris": {"ios": "https://dc.lft.to/lastmile_qr_scan", "android": "https://dc.lft.to/lastmile_qr_scan"}, "bike_id": "e3cbf918d7cb19691b24a44c25016c61", "type": "electric_scooter", "lon": -77.02298983333333, "is_reserved": 0, "fusion_lat": 0.0, "fusion_lon": 0.0}, {"name": "b16147cb65ccf4bed7e334a41c968d55", "is_disabled": 0, "lat": 38.89907083333333, "rental_uris": {"ios": "https://dc.lft.to/lastmile_qr_scan", "android": "https://dc.lft.to/lastmile_qr_scan"}, "bike_id": "b16147cb65ccf4bed7e334a41c968d55", "type": "electric_scooter", "lon": -77.039345, "is_reserved": 0, "fusion_lat": 0.0, "fusion_lon": 0.0}, {"name": "f2baebe9ac7ab46ea0fc94beecf0df31", "is_disabled": 0, "lat": 38.89553, "rental_uris": {"ios": "https://dc.lft.to/lastmile_qr_scan", "android": "https://dc.lft.to/lastmile_qr_scan"}, "bike_id": "f2baebe9ac7ab46ea0fc94beecf0df31", "type": "electric_scooter", "lon": -76.94875183333333, "is_reserved": 0, "fusion_lat": 0.0, "fusion_lon": 0.0}, {"name": "d661987bbf8ad0786c99e0719b40417b", "is_disabled": 0, "lat": 38.89614866666667, "rental_uris": {"ios": "https://dc.lft.to/lastmile_qr_scan", "android": "https://dc.lft.to/lastmile_qr_scan"}, "bike_id": "d661987bbf8ad0786c99e0719b40417b", "type": "electric_scooter", "lon": -77.013311, "is_reserved": 0, "fusion_lat": 0.0, "fusion_lon": 0.0}, {"name": "c4611cf57a651c16aeff0cb0d16917b8", "is_disabled": 0, "lat": 38.90030316666667, "rental_uris": {"ios": "https://dc.lft.to/lastmile_qr_scan", "android": "https://dc.lft.to/lastmile_qr_scan"}, "bike_id": "c4611cf57a651c16aeff0cb0d16917b8", "type": "electric_scooter", "lon": -76.99631783333334, "is_reserved": 0, "fusion_lat": 0.0, "fusion_lon": 0.0}, {"name": "5c5bff8a43b7aeb769f803e4382abcf7", "is_disabled": 0, "lat": 38.9091945, "rental_uris": {"ios": "https://dc.lft.to/lastmile_qr_scan", "android": "https://dc.lft.to/lastmile_qr_scan"}, "bike_id": "5c5bff8a43b7aeb769f803e4382abcf7", "type": "electric_scooter", "lon": -76.99964583333333, "is_reserved": 0, "fusion_lat": 0.0, "fusion_lon": 0.0}, {"name": "130845fa621e3941be03b83400eadc63", "is_disabled": 0, "lat": 38.90716233333333, "rental_uris": {"ios": "https://dc.lft.to/lastmile_qr_scan", "android": "https://dc.lft.to/lastmile_qr_scan"}, "bike_id": "130845fa621e3941be03b83400eadc63", "type": "electric_scooter", "lon": -77.027173, "is_reserved": 0, "fusion_lat": 0.0, "fusion_lon": 0.0}, {"name": "a2683c3bb78240845f3c589093a2ec8d", "is_disabled": 0, "lat": 38.883432, "rental_uris": {"ios": "https://dc.lft.to/lastmile_qr_scan", "android": "https://dc.lft.to/lastmile_qr_scan"}, "bike_id": "a2683c3bb78240845f3c589093a2ec8d", "type": "electric_scooter", "lon": -77.03172783333333, "is_reserved": 0, "fusion_lat": 0.0, "fusion_lon": 0.0}, {"name": "2ed72c6bd04b7d76a51365c760cdacd9", "is_disabled": 0, "lat": 38.88753333333333, "rental_uris": {"ios": "https://dc.lft.to/lastmile_qr_scan", "android": "https://dc.lft.to/lastmile_qr_scan"}, "bike_id": "2ed72c6bd04b7d76a51365c760cdacd9", "type": "electric_scooter", "lon": -76.99605233333334, "is_reserved": 0, "fusion_lat": 0.0, "fusion_lon": 0.0}, {"name": "dff32f7efcd9eaf93b2ec60fef0f81bd", "is_disabled": 0, "lat": 38.923223, "rental_uris": {"ios": "https://dc.lft.to/lastmile_qr_scan", "android": "https://dc.lft.to/lastmile_qr_scan"}, "bike_id": "dff32f7efcd9eaf93b2ec60fef0f81bd", "type": "electric_scooter", "lon": -77.03971583333333, "is_reserved": 0, "fusion_lat": 0.0, "fusion_lon": 0.0}, {"name": "a95e3b6e8c4ea80948e9bbe8ea82fd8a", "is_disabled": 0, "lat": 38.897000166666665, "rental_uris": {"ios": "https://dc.lft.to/lastmile_qr_scan", "android": "https://dc.lft.to/lastmile_qr_scan"}, "bike_id": "a95e3b6e8c4ea80948e9bbe8ea82fd8a", "type": "electric_bike", "lon": -76.96304316666667, "is_reserved": 0, "fusion_lat": 0.0, "fusion_lon": 0.0}, {"name": "198fc8eaf84a9a912000fe12c65049fb", "is_disabled": 0, "lat": 38.9418795, "rental_uris": {"ios": "https://dc.lft.to/lastmile_qr_scan", "android": "https://dc.lft.to/lastmile_qr_scan"}, "bike_id": "198fc8eaf84a9a912000fe12c65049fb", "type": "electric_scooter", "lon": -77.0261365, "is_reserved": 0, "fusion_lat": 0.0, "fusion_lon": 0.0}, {"name": "83584a351f2dfcae3697234140a2734c", "is_disabled": 0, "lat": 38.92255566666667, "rental_uris": {"ios": "https://dc.lft.to/lastmile_qr_scan", "android": "https://dc.lft.to/lastmile_qr_scan"}, "bike_id": "83584a351f2dfcae3697234140a2734c", "type": "electric_scooter", "lon": -77.01951833333334, "is_reserved": 0, "fusion_lat": 0.0, "fusion_lon": 0.0}, {"name": "cb78dac26473a0e8a9e8319a44089688", "is_disabled": 0, "lat": 38.905648, "rental_uris": {"ios": "https://dc.lft.to/lastmile_qr_scan", "android": "https://dc.lft.to/lastmile_qr_scan"}, "bike_id": "cb78dac26473a0e8a9e8319a44089688", "type": "electric_scooter", "lon": -77.04674416666667, "is_reserved": 0, "fusion_lat": 0.0, "fusion_lon": 0.0}, {"name": "dce3e646c16c237956360ab77cd5f052", "is_disabled": 0, "lat": 38.84756333333333, "rental_uris": {"ios": "https://dc.lft.to/lastmile_qr_scan", "android": "https://dc.lft.to/lastmile_qr_scan"}, "bike_id": "dce3e646c16c237956360ab77cd5f052", "type": "electric_scooter", "lon": -76.9950085, "is_reserved": 0, "fusion_lat": 0.0, "fusion_lon": 0.0}, {"name": "246303e94291cf679210b1b7d957fc37", "is_disabled": 0, "lat": 38.90683833333333, "rental_uris": {"ios": "https://dc.lft.to/lastmile_qr_scan", "android": "https://dc.lft.to/lastmile_qr_scan"}, "bike_id": "246303e94291cf679210b1b7d957fc37", "type": "electric_scooter", "lon": -77.0269185, "is_reserved": 0, "fusion_lat": 0.0, "fusion_lon": 0.0}, {"name": "480f8b4ab3b0fd8c4d2b6aa390dbd74e", "is_disabled": 0, "lat": 38.90168283333333, "rental_uris": {"ios": "https://dc.lft.to/lastmile_qr_scan", "android": "https://dc.lft.to/lastmile_qr_scan"}, "bike_id": "480f8b4ab3b0fd8c4d2b6aa390dbd74e", "type": "electric_scooter", "lon": -76.99260483333333, "is_reserved": 0, "fusion_lat": 0.0, "fusion_lon": 0.0}, {"name": "e94380e4f51dc63195dd7fc76c9f47b0", "is_disabled": 0, "lat": 38.921551, "rental_uris": {"ios": "https://dc.lft.to/lastmile_qr_scan", "android": "https://dc.lft.to/lastmile_qr_scan"}, "bike_id": "e94380e4f51dc63195dd7fc76c9f47b0", "type": "electric_scooter", "lon": -76.99343916666666, "is_reserved": 0, "fusion_lat": 0.0, "fusion_lon": 0.0}, {"name": "ba3bb537ccf63637670921a59a47a436", "is_disabled": 0, "lat": 38.92251066666667, "rental_uris": {"ios": "https://dc.lft.to/lastmile_qr_scan", "android": "https://dc.lft.to/lastmile_qr_scan"}, "bike_id": "ba3bb537ccf63637670921a59a47a436", "type": "electric_scooter", "lon": -77.02807733333333, "is_reserved": 0, "fusion_lat": 0.0, "fusion_lon": 0.0}, {"name": "4e3d4a121517e243ca74b8713ae4950b", "is_disabled": 0, "lat": 38.935750166666665, "rental_uris": {"ios": "https://dc.lft.to/lastmile_qr_scan", "android": "https://dc.lft.to/lastmile_qr_scan"}, "bike_id": "4e3d4a121517e243ca74b8713ae4950b", "type": "electric_scooter", "lon": -77.0365545, "is_reserved": 0, "fusion_lat": 0.0, "fusion_lon": 0.0}, {"name": "29179500077829ef23a45d569ee3d659", "is_disabled": 0, "lat": 38.87659266666667, "rental_uris": {"ios": "https://dc.lft.to/lastmile_qr_scan", "android": "https://dc.lft.to/lastmile_qr_scan"}, "bike_id": "29179500077829ef23a45d569ee3d659", "type": "electric_scooter", "lon": -77.0173655, "is_reserved": 0, "fusion_lat": 0.0, "fusion_lon": 0.0}, {"name": "7d7ff8c62b57fa920a1e281f5440ad08", "is_disabled": 0, "lat": 38.897627666666665, "rental_uris": {"ios": "https://dc.lft.to/lastmile_qr_scan", "android": "https://dc.lft.to/lastmile_qr_scan"}, "bike_id": "7d7ff8c62b57fa920a1e281f5440ad08", "type": "electric_scooter", "lon": -77.0275925, "is_reserved": 0, "fusion_lat": 0.0, "fusion_lon": 0.0}, {"name": "1c8e7d80e2a157dab027a95fb25fc478", "is_disabled": 0, "lat": 38.91685483333333, "rental_uris": {"ios": "https://dc.lft.to/lastmile_qr_scan", "android": "https://dc.lft.to/lastmile_qr_scan"}, "bike_id": "1c8e7d80e2a157dab027a95fb25fc478", "type": "electric_scooter", "lon": -77.03856766666667, "is_reserved": 0, "fusion_lat": 0.0, "fusion_lon": 0.0}, {"name": "691dfc794f1659b4b475938f93bf3ab5", "is_disabled": 0, "lat": 38.895629666666665, "rental_uris": {"ios": "https://dc.lft.to/lastmile_qr_scan", "android": "https://dc.lft.to/lastmile_qr_scan"}, "bike_id": "691dfc794f1659b4b475938f93bf3ab5", "type": "electric_bike", "lon": -77.07854016666667, "is_reserved": 0, "fusion_lat": 0.0, "fusion_lon": 0.0}, {"name": "95145c8e30dfb279fdc8d37916dc3976", "is_disabled": 0, "lat": 38.87179283333333, "rental_uris": {"ios": "https://dc.lft.to/lastmile_qr_scan", "android": "https://dc.lft.to/lastmile_qr_scan"}, "bike_id": "95145c8e30dfb279fdc8d37916dc3976", "type": "electric_scooter", "lon": -77.00655333333333, "is_reserved": 0, "fusion_lat": 0.0, "fusion_lon": 0.0}, {"name": "a030a4a97420c1ea45e74f0d5f7210f8", "is_disabled": 0, "lat": 38.900226833333335, "rental_uris": {"ios": "https://dc.lft.to/lastmile_qr_scan", "android": "https://dc.lft.to/lastmile_qr_scan"}, "bike_id": "a030a4a97420c1ea45e74f0d5f7210f8", "type": "electric_scooter", "lon": -76.99856133333333, "is_reserved": 0, "fusion_lat": 0.0, "fusion_lon": 0.0}, {"name": "35becc2f08ddc68a09585626d7705d48", "is_disabled": 0, "lat": 38.90265333333333, "rental_uris": {"ios": "https://dc.lft.to/lastmile_qr_scan", "android": "https://dc.lft.to/lastmile_qr_scan"}, "bike_id": "35becc2f08ddc68a09585626d7705d48", "type": "electric_scooter", "lon": -77.005277, "is_reserved": 0, "fusion_lat": 0.0, "fusion_lon": 0.0}, {"name": "b15117d786c46677ef0e7e3faef39a2e", "is_disabled": 0, "lat": 38.90035866666667, "rental_uris": {"ios": "https://dc.lft.to/lastmile_qr_scan", "android": "https://dc.lft.to/lastmile_qr_scan"}, "bike_id": "b15117d786c46677ef0e7e3faef39a2e", "type": "electric_scooter", "lon": -77.02391783333333, "is_reserved": 0, "fusion_lat": 0.0, "fusion_lon": 0.0}, {"name": "30cb0f0c3be86947c1f72c8f75fa988b", "is_disabled": 0, "lat": 38.90572066666667, "rental_uris": {"ios": "https://dc.lft.to/lastmile_qr_scan", "android": "https://dc.lft.to/lastmile_qr_scan"}, "bike_id": "30cb0f0c3be86947c1f72c8f75fa988b", "type": "electric_scooter", "lon": -77.0052205, "is_reserved": 0, "fusion_lat": 0.0, "fusion_lon": 0.0}, {"name": "1dc7a105d5bea732b1028c0a377d2f77", "is_disabled": 0, "lat": 38.90055733333333, "rental_uris": {"ios": "https://dc.lft.to/lastmile_qr_scan", "android": "https://dc.lft.to/lastmile_qr_scan"}, "bike_id": "1dc7a105d5bea732b1028c0a377d2f77", "type": "electric_scooter", "lon": -77.016057, "is_reserved": 0, "fusion_lat": 0.0, "fusion_lon": 0.0}, {"name": "360340b768046e816a2ad42b804f8a02", "is_disabled": 0, "lat": 38.93243966666667, "rental_uris": {"ios": "https://dc.lft.to/lastmile_qr_scan", "android": "https://dc.lft.to/lastmile_qr_scan"}, "bike_id": "360340b768046e816a2ad42b804f8a02", "type": "electric_scooter", "lon": -77.02948916666666, "is_reserved": 0, "fusion_lat": 0.0, "fusion_lon": 0.0}, {"name": "70cab31a6c01efbbde1b329bd4b899c4", "is_disabled": 0, "lat": 38.910263666666665, "rental_uris": {"ios": "https://dc.lft.to/lastmile_qr_scan", "android": "https://dc.lft.to/lastmile_qr_scan"}, "bike_id": "70cab31a6c01efbbde1b329bd4b899c4", "type": "electric_scooter", "lon": -77.007685, "is_reserved": 0, "fusion_lat": 0.0, "fusion_lon": 0.0}, {"name": "d1d9292319959cd8a454387dacc2d921", "is_disabled": 0, "lat": 38.897293, "rental_uris": {"ios": "https://dc.lft.to/lastmile_qr_scan", "android": "https://dc.lft.to/lastmile_qr_scan"}, "bike_id": "d1d9292319959cd8a454387dacc2d921", "type": "electric_scooter", "lon": -77.05521633333333, "is_reserved": 0, "fusion_lat": 0.0, "fusion_lon": 0.0}, {"name": "dec1e5f14847a6db6018a6ee39e4905c", "is_disabled": 0, "lat": 38.857655666666666, "rental_uris": {"ios": "https://dc.lft.to/lastmile_qr_scan", "android": "https://dc.lft.to/lastmile_qr_scan"}, "bike_id": "dec1e5f14847a6db6018a6ee39e4905c", "type": "electric_bike", "lon": -76.9876555, "is_reserved": 0, "fusion_lat": 0.0, "fusion_lon": 0.0}, {"name": "75ce331a9181acbeaa4a24e8cf3e67ed", "is_disabled": 0, "lat": 38.912632333333335, "rental_uris": {"ios": "https://dc.lft.to/lastmile_qr_scan", "android": "https://dc.lft.to/lastmile_qr_scan"}, "bike_id": "75ce331a9181acbeaa4a24e8cf3e67ed", "type": "electric_scooter", "lon": -77.03155733333334, "is_reserved": 0, "fusion_lat": 0.0, "fusion_lon": 0.0}, {"name": "254d2c74084826588770e71b654feca7", "is_disabled": 0, "lat": 38.90626833333334, "rental_uris": {"ios": "https://dc.lft.to/lastmile_qr_scan", "android": "https://dc.lft.to/lastmile_qr_scan"}, "bike_id": "254d2c74084826588770e71b654feca7", "type": "electric_scooter", "lon": -77.0260505, "is_reserved": 0, "fusion_lat": 0.0, "fusion_lon": 0.0}, {"name": "4e930f3d5f08265ba4046f5aa53e8dfe", "is_disabled": 0, "lat": 38.929044166666664, "rental_uris": {"ios": "https://dc.lft.to/lastmile_qr_scan", "android": "https://dc.lft.to/lastmile_qr_scan"}, "bike_id": "4e930f3d5f08265ba4046f5aa53e8dfe", "type": "electric_scooter", "lon": -77.02161716666667, "is_reserved": 0, "fusion_lat": 0.0, "fusion_lon": 0.0}, {"name": "0d4476d10addbf451cada421b7cd43ea", "is_disabled": 0, "lat": 38.910432666666665, "rental_uris": {"ios": "https://dc.lft.to/lastmile_qr_scan", "android": "https://dc.lft.to/lastmile_qr_scan"}, "bike_id": "0d4476d10addbf451cada421b7cd43ea", "type": "electric_scooter", "lon": -77.03171866666666, "is_reserved": 0, "fusion_lat": 0.0, "fusion_lon": 0.0}, {"name": "eeca7b73fe8ff250c89e452f1b7174e2", "is_disabled": 0, "lat": 38.90788766666667, "rental_uris": {"ios": "https://dc.lft.to/lastmile_qr_scan", "android": "https://dc.lft.to/lastmile_qr_scan"}, "bike_id": "eeca7b73fe8ff250c89e452f1b7174e2", "type": "electric_scooter", "lon": -77.08359783333333, "is_reserved": 0, "fusion_lat": 0.0, "fusion_lon": 0.0}, {"name": "17ebea3ca2a8508200818c26fc31ccea", "is_disabled": 0, "lat": 38.88018183333333, "rental_uris": {"ios": "https://dc.lft.to/lastmile_qr_scan", "android": "https://dc.lft.to/lastmile_qr_scan"}, "bike_id": "17ebea3ca2a8508200818c26fc31ccea", "type": "electric_scooter", "lon": -76.9807145, "is_reserved": 0, "fusion_lat": 0.0, "fusion_lon": 0.0}, {"name": "3b0c41727bc8174e71ffe88136b0de34", "is_disabled": 0, "lat": 38.89235166666667, "rental_uris": {"ios": "https://dc.lft.to/lastmile_qr_scan", "android": "https://dc.lft.to/lastmile_qr_scan"}, "bike_id": "3b0c41727bc8174e71ffe88136b0de34", "type": "electric_scooter", "lon": -77.02382133333333, "is_reserved": 0, "fusion_lat": 0.0, "fusion_lon": 0.0}, {"name": "af821d1f40b9ec8ae72553feeecc569e", "is_disabled": 0, "lat": 38.905133666666664, "rental_uris": {"ios": "https://dc.lft.to/lastmile_qr_scan", "android": "https://dc.lft.to/lastmile_qr_scan"}, "bike_id": "af821d1f40b9ec8ae72553feeecc569e", "type": "electric_scooter", "lon": -77.0417, "is_reserved": 0, "fusion_lat": 0.0, "fusion_lon": 0.0}, {"name": "7df248a9ad573ec1eeeffaa65054809e", "is_disabled": 0, "lat": 38.9622755, "rental_uris": {"ios": "https://dc.lft.to/lastmile_qr_scan", "android": "https://dc.lft.to/lastmile_qr_scan"}, "bike_id": "7df248a9ad573ec1eeeffaa65054809e", "type": "electric_bike", "lon": -77.02626233333334, "is_reserved": 0, "fusion_lat": 0.0, "fusion_lon": 0.0}, {"name": "257e2b4aa7906c082cd2005c5615c63e", "is_disabled": 0, "lat": 38.9073085, "rental_uris": {"ios": "https://dc.lft.to/lastmile_qr_scan", "android": "https://dc.lft.to/lastmile_qr_scan"}, "bike_id": "257e2b4aa7906c082cd2005c5615c63e", "type": "electric_scooter", "lon": -77.04075916666666, "is_reserved": 0, "fusion_lat": 0.0, "fusion_lon": 0.0}, {"name": "ae43d77de5db1c016cc6ff745d3b807f", "is_disabled": 0, "lat": 38.9193425, "rental_uris": {"ios": "https://dc.lft.to/lastmile_qr_scan", "android": "https://dc.lft.to/lastmile_qr_scan"}, "bike_id": "ae43d77de5db1c016cc6ff745d3b807f", "type": "electric_scooter", "lon": -77.02510833333334, "is_reserved": 0, "fusion_lat": 0.0, "fusion_lon": 0.0}, {"name": "83ce17e3d0a8866511398e0de1be33a8", "is_disabled": 0, "lat": 38.91916166666667, "rental_uris": {"ios": "https://dc.lft.to/lastmile_qr_scan", "android": "https://dc.lft.to/lastmile_qr_scan"}, "bike_id": "83ce17e3d0a8866511398e0de1be33a8", "type": "electric_scooter", "lon": -77.02729083333334, "is_reserved": 0, "fusion_lat": 0.0, "fusion_lon": 0.0}, {"name": "6f3b95742a792cf6a912c355eef5b049", "is_disabled": 0, "lat": 38.897715, "rental_uris": {"ios": "https://dc.lft.to/lastmile_qr_scan", "android": "https://dc.lft.to/lastmile_qr_scan"}, "bike_id": "6f3b95742a792cf6a912c355eef5b049", "type": "electric_scooter", "lon": -76.98459416666667, "is_reserved": 0, "fusion_lat": 0.0, "fusion_lon": 0.0}, {"name": "5b10d0bde821313be0d1b6bff6e7c683", "is_disabled": 0, "lat": 39.034187, "rental_uris": {"ios": "https://dc.lft.to/lastmile_qr_scan", "android": "https://dc.lft.to/lastmile_qr_scan"}, "bike_id": "5b10d0bde821313be0d1b6bff6e7c683", "type": "electric_bike", "lon": -77.0431145, "is_reserved": 0, "fusion_lat": 0.0, "fusion_lon": 0.0}, {"name": "6016ed82a75f5656a6431de9aa080a91", "is_disabled": 0, "lat": 38.9431465, "rental_uris": {"ios": "https://dc.lft.to/lastmile_qr_scan", "android": "https://dc.lft.to/lastmile_qr_scan"}, "bike_id": "6016ed82a75f5656a6431de9aa080a91", "type": "electric_scooter", "lon": -77.061324, "is_reserved": 0, "fusion_lat": 0.0, "fusion_lon": 0.0}, {"name": "3db25bd3b8d94f9eb3e8768046cef9cd", "is_disabled": 0, "lat": 38.902867, "rental_uris": {"ios": "https://dc.lft.to/lastmile_qr_scan", "android": "https://dc.lft.to/lastmile_qr_scan"}, "bike_id": "3db25bd3b8d94f9eb3e8768046cef9cd", "type": "electric_scooter", "lon": -77.032658, "is_reserved": 0, "fusion_lat": 0.0, "fusion_lon": 0.0}, {"name": "e864620d935accc00c7955998e1a01e1", "is_disabled": 0, "lat": 38.853584, "rental_uris": {"ios": "https://dc.lft.to/lastmile_qr_scan", "android": "https://dc.lft.to/lastmile_qr_scan"}, "bike_id": "e864620d935accc00c7955998e1a01e1", "type": "electric_bike", "lon": -77.11501416666667, "is_reserved": 0, "fusion_lat": 0.0, "fusion_lon": 0.0}, {"name": "79703cc1f7e78688cf675b28bfc1d33c", "is_disabled": 0, "lat": 38.873845833333334, "rental_uris": {"ios": "https://dc.lft.to/lastmile_qr_scan", "android": "https://dc.lft.to/lastmile_qr_scan"}, "bike_id": "79703cc1f7e78688cf675b28bfc1d33c", "type": "electric_scooter", "lon": -77.0004165, "is_reserved": 0, "fusion_lat": 0.0, "fusion_lon": 0.0}, {"name": "8d28c10687e8ee3b9a5360fbb4f34af8", "is_disabled": 0, "lat": 38.93359316666667, "rental_uris": {"ios": "https://dc.lft.to/lastmile_qr_scan", "android": "https://dc.lft.to/lastmile_qr_scan"}, "bike_id": "8d28c10687e8ee3b9a5360fbb4f34af8", "type": "electric_scooter", "lon": -77.03414583333333, "is_reserved": 0, "fusion_lat": 0.0, "fusion_lon": 0.0}, {"name": "b963649ebe93a99ab57041c949885142", "is_disabled": 0, "lat": 38.860641333333334, "rental_uris": {"ios": "https://dc.lft.to/lastmile_qr_scan", "android": "https://dc.lft.to/lastmile_qr_scan"}, "bike_id": "b963649ebe93a99ab57041c949885142", "type": "electric_scooter", "lon": -76.96714616666667, "is_reserved": 0, "fusion_lat": 0.0, "fusion_lon": 0.0}, {"name": "306cb6e2a3bcc5e47c5d6a458672b6e0", "is_disabled": 0, "lat": 38.8788715, "rental_uris": {"ios": "https://dc.lft.to/lastmile_qr_scan", "android": "https://dc.lft.to/lastmile_qr_scan"}, "bike_id": "306cb6e2a3bcc5e47c5d6a458672b6e0", "type": "electric_scooter", "lon": -76.99436033333333, "is_reserved": 0, "fusion_lat": 0.0, "fusion_lon": 0.0}, {"name": "2001763f045041c4dd2cf2e1d278002d", "is_disabled": 0, "lat": 38.91708166666667, "rental_uris": {"ios": "https://dc.lft.to/lastmile_qr_scan", "android": "https://dc.lft.to/lastmile_qr_scan"}, "bike_id": "2001763f045041c4dd2cf2e1d278002d", "type": "electric_scooter", "lon": -77.03866733333334, "is_reserved": 0, "fusion_lat": 0.0, "fusion_lon": 0.0}, {"name": "e16e3ac2b7020dff7d6740bbb28460ad", "is_disabled": 0, "lat": 38.917094666666664, "rental_uris": {"ios": "https://dc.lft.to/lastmile_qr_scan", "android": "https://dc.lft.to/lastmile_qr_scan"}, "bike_id": "e16e3ac2b7020dff7d6740bbb28460ad", "type": "electric_scooter", "lon": -77.03038916666667, "is_reserved": 0, "fusion_lat": 0.0, "fusion_lon": 0.0}, {"name": "bc035943ad1b6e7542efe8b75a12ba9b", "is_disabled": 0, "lat": 38.87488666666667, "rental_uris": {"ios": "https://dc.lft.to/lastmile_qr_scan", "android": "https://dc.lft.to/lastmile_qr_scan"}, "bike_id": "bc035943ad1b6e7542efe8b75a12ba9b", "type": "electric_scooter", "lon": -77.00595666666666, "is_reserved": 0, "fusion_lat": 0.0, "fusion_lon": 0.0}, {"name": "9c1d4994a5ab4a04f4746d2105616497", "is_disabled": 0, "lat": 38.91125433333333, "rental_uris": {"ios": "https://dc.lft.to/lastmile_qr_scan", "android": "https://dc.lft.to/lastmile_qr_scan"}, "bike_id": "9c1d4994a5ab4a04f4746d2105616497", "type": "electric_scooter", "lon": -77.02200666666667, "is_reserved": 0, "fusion_lat": 0.0, "fusion_lon": 0.0}, {"name": "74820c7261123ae3c0e10784085b8cb0", "is_disabled": 0, "lat": 38.91752433333333, "rental_uris": {"ios": "https://dc.lft.to/lastmile_qr_scan", "android": "https://dc.lft.to/lastmile_qr_scan"}, "bike_id": "74820c7261123ae3c0e10784085b8cb0", "type": "electric_scooter", "lon": -77.022807, "is_reserved": 0, "fusion_lat": 0.0, "fusion_lon": 0.0}, {"name": "e97b118e50d921ec579f21844243fbf2", "is_disabled": 0, "lat": 38.921467666666665, "rental_uris": {"ios": "https://dc.lft.to/lastmile_qr_scan", "android": "https://dc.lft.to/lastmile_qr_scan"}, "bike_id": "e97b118e50d921ec579f21844243fbf2", "type": "electric_scooter", "lon": -77.0386805, "is_reserved": 0, "fusion_lat": 0.0, "fusion_lon": 0.0}, {"name": "54af0c6dfa1db65847b0371b4beb6911", "is_disabled": 0, "lat": 38.918082, "rental_uris": {"ios": "https://dc.lft.to/lastmile_qr_scan", "android": "https://dc.lft.to/lastmile_qr_scan"}, "bike_id": "54af0c6dfa1db65847b0371b4beb6911", "type": "electric_scooter", "lon": -77.031775, "is_reserved": 0, "fusion_lat": 0.0, "fusion_lon": 0.0}, {"name": "479cb26a4a1db03dfe3a1ec30a4d921f", "is_disabled": 0, "lat": 38.8766245, "rental_uris": {"ios": "https://dc.lft.to/lastmile_qr_scan", "android": "https://dc.lft.to/lastmile_qr_scan"}, "bike_id": "479cb26a4a1db03dfe3a1ec30a4d921f", "type": "electric_scooter", "lon": -77.01737616666666, "is_reserved": 0, "fusion_lat": 0.0, "fusion_lon": 0.0}, {"name": "b59073a719fe9eb8809250074208f552", "is_disabled": 0, "lat": 38.923324666666666, "rental_uris": {"ios": "https://dc.lft.to/lastmile_qr_scan", "android": "https://dc.lft.to/lastmile_qr_scan"}, "bike_id": "b59073a719fe9eb8809250074208f552", "type": "electric_scooter", "lon": -77.043458, "is_reserved": 0, "fusion_lat": 0.0, "fusion_lon": 0.0}, {"name": "7911f744838c6b012b3b66957cb6d21a", "is_disabled": 0, "lat": 38.9072755, "rental_uris": {"ios": "https://dc.lft.to/lastmile_qr_scan", "android": "https://dc.lft.to/lastmile_qr_scan"}, "bike_id": "7911f744838c6b012b3b66957cb6d21a", "type": "electric_scooter", "lon": -77.03207066666667, "is_reserved": 0, "fusion_lat": 0.0, "fusion_lon": 0.0}, {"name": "6a97eeadabd8f43e32d7885d60385729", "is_disabled": 0, "lat": 38.887244333333335, "rental_uris": {"ios": "https://dc.lft.to/lastmile_qr_scan", "android": "https://dc.lft.to/lastmile_qr_scan"}, "bike_id": "6a97eeadabd8f43e32d7885d60385729", "type": "electric_scooter", "lon": -77.02581116666667, "is_reserved": 0, "fusion_lat": 0.0, "fusion_lon": 0.0}, {"name": "f346bdce36f65017894d934f589c5ffc", "is_disabled": 0, "lat": 38.92160333333333, "rental_uris": {"ios": "https://dc.lft.to/lastmile_qr_scan", "android": "https://dc.lft.to/lastmile_qr_scan"}, "bike_id": "f346bdce36f65017894d934f589c5ffc", "type": "electric_scooter", "lon": -77.03434633333333, "is_reserved": 0, "fusion_lat": 0.0, "fusion_lon": 0.0}, {"name": "a7ec1515cd36d9d6cde8ef31f6cc3d45", "is_disabled": 0, "lat": 38.900128, "rental_uris": {"ios": "https://dc.lft.to/lastmile_qr_scan", "android": "https://dc.lft.to/lastmile_qr_scan"}, "bike_id": "a7ec1515cd36d9d6cde8ef31f6cc3d45", "type": "electric_scooter", "lon": -77.011777, "is_reserved": 0, "fusion_lat": 0.0, "fusion_lon": 0.0}, {"name": "72241212e76e56c07ce4aea8955945e5", "is_disabled": 0, "lat": 38.92870333333333, "rental_uris": {"ios": "https://dc.lft.to/lastmile_qr_scan", "android": "https://dc.lft.to/lastmile_qr_scan"}, "bike_id": "72241212e76e56c07ce4aea8955945e5", "type": "electric_scooter", "lon": -77.0139445, "is_reserved": 0, "fusion_lat": 0.0, "fusion_lon": 0.0}, {"name": "59e2e77bbbc9e86678560a9d4c49fabb", "is_disabled": 0, "lat": 38.91481133333333, "rental_uris": {"ios": "https://dc.lft.to/lastmile_qr_scan", "android": "https://dc.lft.to/lastmile_qr_scan"}, "bike_id": "59e2e77bbbc9e86678560a9d4c49fabb", "type": "electric_scooter", "lon": -77.04604433333333, "is_reserved": 0, "fusion_lat": 0.0, "fusion_lon": 0.0}, {"name": "49eff466e0c309066a76b9d3434dbb74", "is_disabled": 0, "lat": 38.90949233333333, "rental_uris": {"ios": "https://dc.lft.to/lastmile_qr_scan", "android": "https://dc.lft.to/lastmile_qr_scan"}, "bike_id": "49eff466e0c309066a76b9d3434dbb74", "type": "electric_scooter", "lon": -77.027166, "is_reserved": 0, "fusion_lat": 0.0, "fusion_lon": 0.0}, {"name": "87c9b372de852a54bc155003b6f4a657", "is_disabled": 0, "lat": 38.887254666666664, "rental_uris": {"ios": "https://dc.lft.to/lastmile_qr_scan", "android": "https://dc.lft.to/lastmile_qr_scan"}, "bike_id": "87c9b372de852a54bc155003b6f4a657", "type": "electric_scooter", "lon": -77.032131, "is_reserved": 0, "fusion_lat": 0.0, "fusion_lon": 0.0}, {"name": "28bb9de1a5c6ff0e03e04e497167f60c", "is_disabled": 0, "lat": 38.9541025, "rental_uris": {"ios": "https://dc.lft.to/lastmile_qr_scan", "android": "https://dc.lft.to/lastmile_qr_scan"}, "bike_id": "28bb9de1a5c6ff0e03e04e497167f60c", "type": "electric_scooter", "lon": -77.02788583333333, "is_reserved": 0, "fusion_lat": 0.0, "fusion_lon": 0.0}, {"name": "d94c3872c4d66ce4d1a88a69ed8f372d", "is_disabled": 0, "lat": 38.866651833333336, "rental_uris": {"ios": "https://dc.lft.to/lastmile_qr_scan", "android": "https://dc.lft.to/lastmile_qr_scan"}, "bike_id": "d94c3872c4d66ce4d1a88a69ed8f372d", "type": "electric_scooter", "lon": -76.9890165, "is_reserved": 0, "fusion_lat": 0.0, "fusion_lon": 0.0}, {"name": "42b8c27be2499c4253765b3f2e45dd02", "is_disabled": 0, "lat": 38.91688383333333, "rental_uris": {"ios": "https://dc.lft.to/lastmile_qr_scan", "android": "https://dc.lft.to/lastmile_qr_scan"}, "bike_id": "42b8c27be2499c4253765b3f2e45dd02", "type": "electric_scooter", "lon": -77.02962816666667, "is_reserved": 0, "fusion_lat": 0.0, "fusion_lon": 0.0}, {"name": "6cdae48bb64046700ab4ec4d744c08ad", "is_disabled": 0, "lat": 38.931766833333334, "rental_uris": {"ios": "https://dc.lft.to/lastmile_qr_scan", "android": "https://dc.lft.to/lastmile_qr_scan"}, "bike_id": "6cdae48bb64046700ab4ec4d744c08ad", "type": "electric_scooter", "lon": -77.03153983333333, "is_reserved": 0, "fusion_lat": 0.0, "fusion_lon": 0.0}, {"name": "fef88a4896b1aa31505a5ea218de4b67", "is_disabled": 0, "lat": 38.87451816666667, "rental_uris": {"ios": "https://dc.lft.to/lastmile_qr_scan", "android": "https://dc.lft.to/lastmile_qr_scan"}, "bike_id": "fef88a4896b1aa31505a5ea218de4b67", "type": "electric_scooter", "lon": -77.00282466666667, "is_reserved": 0, "fusion_lat": 0.0, "fusion_lon": 0.0}, {"name": "c755af8eac6dd4fb57504acee1943281", "is_disabled": 0, "lat": 38.918006, "rental_uris": {"ios": "https://dc.lft.to/lastmile_qr_scan", "android": "https://dc.lft.to/lastmile_qr_scan"}, "bike_id": "c755af8eac6dd4fb57504acee1943281", "type": "electric_scooter", "lon": -77.03194916666666, "is_reserved": 0, "fusion_lat": 0.0, "fusion_lon": 0.0}, {"name": "9540f4e26726aad0b5f7653d255bfc0d", "is_disabled": 0, "lat": 38.86021516666667, "rental_uris": {"ios": "https://dc.lft.to/lastmile_qr_scan", "android": "https://dc.lft.to/lastmile_qr_scan"}, "bike_id": "9540f4e26726aad0b5f7653d255bfc0d", "type": "electric_bike", "lon": -77.12805516666667, "is_reserved": 0, "fusion_lat": 0.0, "fusion_lon": 0.0}, {"name": "7c54386b553572b97af0df3c7e458ae9", "is_disabled": 0, "lat": 38.8766025, "rental_uris": {"ios": "https://dc.lft.to/lastmile_qr_scan", "android": "https://dc.lft.to/lastmile_qr_scan"}, "bike_id": "7c54386b553572b97af0df3c7e458ae9", "type": "electric_scooter", "lon": -77.00076233333333, "is_reserved": 0, "fusion_lat": 0.0, "fusion_lon": 0.0}, {"name": "28fd5db9ccfe268a01b752cc2965b5bb", "is_disabled": 0, "lat": 38.91728333333333, "rental_uris": {"ios": "https://dc.lft.to/lastmile_qr_scan", "android": "https://dc.lft.to/lastmile_qr_scan"}, "bike_id": "28fd5db9ccfe268a01b752cc2965b5bb", "type": "electric_scooter", "lon": -77.01926716666667, "is_reserved": 0, "fusion_lat": 0.0, "fusion_lon": 0.0}, {"name": "fcc1b6b50810eeb6e850712e51d5923f", "is_disabled": 0, "lat": 38.930777, "rental_uris": {"ios": "https://dc.lft.to/lastmile_qr_scan", "android": "https://dc.lft.to/lastmile_qr_scan"}, "bike_id": "fcc1b6b50810eeb6e850712e51d5923f", "type": "electric_scooter", "lon": -77.07764116666667, "is_reserved": 0, "fusion_lat": 0.0, "fusion_lon": 0.0}, {"name": "86f09f95180b6af9fa53b5ebf7c75d6d", "is_disabled": 0, "lat": 38.916979166666664, "rental_uris": {"ios": "https://dc.lft.to/lastmile_qr_scan", "android": "https://dc.lft.to/lastmile_qr_scan"}, "bike_id": "86f09f95180b6af9fa53b5ebf7c75d6d", "type": "electric_scooter", "lon": -77.02641383333334, "is_reserved": 0, "fusion_lat": 0.0, "fusion_lon": 0.0}, {"name": "97b30e6f9ef298828e952258a1b0d0e3", "is_disabled": 0, "lat": 38.901504333333335, "rental_uris": {"ios": "https://dc.lft.to/lastmile_qr_scan", "android": "https://dc.lft.to/lastmile_qr_scan"}, "bike_id": "97b30e6f9ef298828e952258a1b0d0e3", "type": "electric_scooter", "lon": -76.930677, "is_reserved": 0, "fusion_lat": 0.0, "fusion_lon": 0.0}, {"name": "9e4bab61de124466eca1b517c2aa2724", "is_disabled": 0, "lat": 38.910881, "rental_uris": {"ios": "https://dc.lft.to/lastmile_qr_scan", "android": "https://dc.lft.to/lastmile_qr_scan"}, "bike_id": "9e4bab61de124466eca1b517c2aa2724", "type": "electric_scooter", "lon": -77.04481366666667, "is_reserved": 0, "fusion_lat": 0.0, "fusion_lon": 0.0}, {"name": "2c1c720e6e61c5d0e5742f8ce34763fe", "is_disabled": 0, "lat": 38.90192, "rental_uris": {"ios": "https://dc.lft.to/lastmile_qr_scan", "android": "https://dc.lft.to/lastmile_qr_scan"}, "bike_id": "2c1c720e6e61c5d0e5742f8ce34763fe", "type": "electric_scooter", "lon": -77.02374083333333, "is_reserved": 0, "fusion_lat": 0.0, "fusion_lon": 0.0}, {"name": "2bff4e6dbf0124f8d66f0fb8f2abc801", "is_disabled": 0, "lat": 38.90683216666667, "rental_uris": {"ios": "https://dc.lft.to/lastmile_qr_scan", "android": "https://dc.lft.to/lastmile_qr_scan"}, "bike_id": "2bff4e6dbf0124f8d66f0fb8f2abc801", "type": "electric_bike", "lon": -76.94494033333334, "is_reserved": 0, "fusion_lat": 0.0, "fusion_lon": 0.0}, {"name": "7361aaf1865585e8323e3fe59fb3f8ff", "is_disabled": 0, "lat": 38.923216333333336, "rental_uris": {"ios": "https://dc.lft.to/lastmile_qr_scan", "android": "https://dc.lft.to/lastmile_qr_scan"}, "bike_id": "7361aaf1865585e8323e3fe59fb3f8ff", "type": "electric_scooter", "lon": -77.04128983333334, "is_reserved": 0, "fusion_lat": 0.0, "fusion_lon": 0.0}, {"name": "5b17b642777931a71884ef43a96d956e", "is_disabled": 0, "lat": 38.93828533333333, "rental_uris": {"ios": "https://dc.lft.to/lastmile_qr_scan", "android": "https://dc.lft.to/lastmile_qr_scan"}, "bike_id": "5b17b642777931a71884ef43a96d956e", "type": "electric_scooter", "lon": -77.03047216666667, "is_reserved": 0, "fusion_lat": 0.0, "fusion_lon": 0.0}, {"name": "8b48a4d304eda5a22e1ac3abc248b8df", "is_disabled": 0, "lat": 38.87556166666667, "rental_uris": {"ios": "https://dc.lft.to/lastmile_qr_scan", "android": "https://dc.lft.to/lastmile_qr_scan"}, "bike_id": "8b48a4d304eda5a22e1ac3abc248b8df", "type": "electric_scooter", "lon": -77.00604633333333, "is_reserved": 0, "fusion_lat": 0.0, "fusion_lon": 0.0}, {"name": "dca2ad5c71261ad573f005d33a595e40", "is_disabled": 0, "lat": 38.920648666666665, "rental_uris": {"ios": "https://dc.lft.to/lastmile_qr_scan", "android": "https://dc.lft.to/lastmile_qr_scan"}, "bike_id": "dca2ad5c71261ad573f005d33a595e40", "type": "electric_scooter", "lon": -77.04245416666667, "is_reserved": 0, "fusion_lat": 0.0, "fusion_lon": 0.0}, {"name": "47f2f0e8e56a3a95026c9cf5a1e2d098", "is_disabled": 0, "lat": 38.89952233333333, "rental_uris": {"ios": "https://dc.lft.to/lastmile_qr_scan", "android": "https://dc.lft.to/lastmile_qr_scan"}, "bike_id": "47f2f0e8e56a3a95026c9cf5a1e2d098", "type": "electric_scooter", "lon": -77.0161355, "is_reserved": 0, "fusion_lat": 0.0, "fusion_lon": 0.0}, {"name": "98c7f71a50392ba09705608514972b83", "is_disabled": 0, "lat": 38.92232816666667, "rental_uris": {"ios": "https://dc.lft.to/lastmile_qr_scan", "android": "https://dc.lft.to/lastmile_qr_scan"}, "bike_id": "98c7f71a50392ba09705608514972b83", "type": "electric_scooter", "lon": -77.04244716666666, "is_reserved": 0, "fusion_lat": 0.0, "fusion_lon": 0.0}, {"name": "45f1194c0b7040b0d751b580c9d17662", "is_disabled": 0, "lat": 38.9171625, "rental_uris": {"ios": "https://dc.lft.to/lastmile_qr_scan", "android": "https://dc.lft.to/lastmile_qr_scan"}, "bike_id": "45f1194c0b7040b0d751b580c9d17662", "type": "electric_scooter", "lon": -77.02434216666667, "is_reserved": 0, "fusion_lat": 0.0, "fusion_lon": 0.0}, {"name": "fd7a3ac0225efba7b3192487cedf9114", "is_disabled": 0, "lat": 38.87160433333333, "rental_uris": {"ios": "https://dc.lft.to/lastmile_qr_scan", "android": "https://dc.lft.to/lastmile_qr_scan"}, "bike_id": "fd7a3ac0225efba7b3192487cedf9114", "type": "electric_bike", "lon": -77.01189816666667, "is_reserved": 0, "fusion_lat": 0.0, "fusion_lon": 0.0}, {"name": "9fc4dd67586c25eecdad3023bd3cc8cc", "is_disabled": 0, "lat": 38.95058616666667, "rental_uris": {"ios": "https://dc.lft.to/lastmile_qr_scan", "android": "https://dc.lft.to/lastmile_qr_scan"}, "bike_id": "9fc4dd67586c25eecdad3023bd3cc8cc", "type": "electric_scooter", "lon": -77.08025866666667, "is_reserved": 0, "fusion_lat": 0.0, "fusion_lon": 0.0}, {"name": "b4ca041d25eb623e7448f9dc3e3e1d07", "is_disabled": 0, "lat": 38.875589833333336, "rental_uris": {"ios": "https://dc.lft.to/lastmile_qr_scan", "android": "https://dc.lft.to/lastmile_qr_scan"}, "bike_id": "b4ca041d25eb623e7448f9dc3e3e1d07", "type": "electric_scooter", "lon": -77.00600766666666, "is_reserved": 0, "fusion_lat": 0.0, "fusion_lon": 0.0}, {"name": "0b9811ca3bd3834d269783c03de73167", "is_disabled": 0, "lat": 38.9098065, "rental_uris": {"ios": "https://dc.lft.to/lastmile_qr_scan", "android": "https://dc.lft.to/lastmile_qr_scan"}, "bike_id": "0b9811ca3bd3834d269783c03de73167", "type": "electric_scooter", "lon": -77.03445283333333, "is_reserved": 0, "fusion_lat": 0.0, "fusion_lon": 0.0}, {"name": "72e99d94508237fc4e770342f224df46", "is_disabled": 0, "lat": 38.90846, "rental_uris": {"ios": "https://dc.lft.to/lastmile_qr_scan", "android": "https://dc.lft.to/lastmile_qr_scan"}, "bike_id": "72e99d94508237fc4e770342f224df46", "type": "electric_scooter", "lon": -76.99752083333334, "is_reserved": 0, "fusion_lat": 0.0, "fusion_lon": 0.0}, {"name": "7280fac67aaac5bda35365a68c56e0c1", "is_disabled": 0, "lat": 38.920954, "rental_uris": {"ios": "https://dc.lft.to/lastmile_qr_scan", "android": "https://dc.lft.to/lastmile_qr_scan"}, "bike_id": "7280fac67aaac5bda35365a68c56e0c1", "type": "electric_scooter", "lon": -77.02514533333333, "is_reserved": 0, "fusion_lat": 0.0, "fusion_lon": 0.0}, {"name": "3dacc0a26938082a2e94e7b63860e248", "is_disabled": 0, "lat": 38.91559133333333, "rental_uris": {"ios": "https://dc.lft.to/lastmile_qr_scan", "android": "https://dc.lft.to/lastmile_qr_scan"}, "bike_id": "3dacc0a26938082a2e94e7b63860e248", "type": "electric_scooter", "lon": -77.0105265, "is_reserved": 0, "fusion_lat": 0.0, "fusion_lon": 0.0}, {"name": "6c221d7cc2d60a59047e16f889e6c9c5", "is_disabled": 0, "lat": 38.998473, "rental_uris": {"ios": "https://dc.lft.to/lastmile_qr_scan", "android": "https://dc.lft.to/lastmile_qr_scan"}, "bike_id": "6c221d7cc2d60a59047e16f889e6c9c5", "type": "electric_bike", "lon": -77.02651766666666, "is_reserved": 0, "fusion_lat": 0.0, "fusion_lon": 0.0}, {"name": "c393dc79371ee37d7dcde48fa3856610", "is_disabled": 0, "lat": 38.9198965, "rental_uris": {"ios": "https://dc.lft.to/lastmile_qr_scan", "android": "https://dc.lft.to/lastmile_qr_scan"}, "bike_id": "c393dc79371ee37d7dcde48fa3856610", "type": "electric_scooter", "lon": -77.03272533333333, "is_reserved": 0, "fusion_lat": 0.0, "fusion_lon": 0.0}, {"name": "402918405f9725f3bc463875624b9e1e", "is_disabled": 0, "lat": 38.9097095, "rental_uris": {"ios": "https://dc.lft.to/lastmile_qr_scan", "android": "https://dc.lft.to/lastmile_qr_scan"}, "bike_id": "402918405f9725f3bc463875624b9e1e", "type": "electric_scooter", "lon": -77.02684466666666, "is_reserved": 0, "fusion_lat": 0.0, "fusion_lon": 0.0}, {"name": "f9b4bb33bf959e65b43ea08ed145c8a1", "is_disabled": 0, "lat": 38.926824333333336, "rental_uris": {"ios": "https://dc.lft.to/lastmile_qr_scan", "android": "https://dc.lft.to/lastmile_qr_scan"}, "bike_id": "f9b4bb33bf959e65b43ea08ed145c8a1", "type": "electric_scooter", "lon": -77.02992766666667, "is_reserved": 0, "fusion_lat": 0.0, "fusion_lon": 0.0}, {"name": "4f8ece7b2323130f3068d7ffadcd3313", "is_disabled": 0, "lat": 38.920771333333334, "rental_uris": {"ios": "https://dc.lft.to/lastmile_qr_scan", "android": "https://dc.lft.to/lastmile_qr_scan"}, "bike_id": "4f8ece7b2323130f3068d7ffadcd3313", "type": "electric_bike", "lon": -76.98948566666667, "is_reserved": 0, "fusion_lat": 0.0, "fusion_lon": 0.0}, {"name": "316246ec86c208263158f64a34af768f", "is_disabled": 0, "lat": 38.9077495, "rental_uris": {"ios": "https://dc.lft.to/lastmile_qr_scan", "android": "https://dc.lft.to/lastmile_qr_scan"}, "bike_id": "316246ec86c208263158f64a34af768f", "type": "electric_scooter", "lon": -77.03195016666666, "is_reserved": 0, "fusion_lat": 0.0, "fusion_lon": 0.0}, {"name": "61bb9c3179b4cdb4b238e8cd8d936738", "is_disabled": 0, "lat": 38.9057635, "rental_uris": {"ios": "https://dc.lft.to/lastmile_qr_scan", "android": "https://dc.lft.to/lastmile_qr_scan"}, "bike_id": "61bb9c3179b4cdb4b238e8cd8d936738", "type": "electric_scooter", "lon": -77.04597433333333, "is_reserved": 0, "fusion_lat": 0.0, "fusion_lon": 0.0}, {"name": "fe71c1cbb3dacd917aaf07d5c37b5262", "is_disabled": 0, "lat": 38.885412, "rental_uris": {"ios": "https://dc.lft.to/lastmile_qr_scan", "android": "https://dc.lft.to/lastmile_qr_scan"}, "bike_id": "fe71c1cbb3dacd917aaf07d5c37b5262", "type": "electric_scooter", "lon": -76.97889466666666, "is_reserved": 0, "fusion_lat": 0.0, "fusion_lon": 0.0}, {"name": "1bdde911a06ec5870fcd762165edfc69", "is_disabled": 0, "lat": 38.90037266666667, "rental_uris": {"ios": "https://dc.lft.to/lastmile_qr_scan", "android": "https://dc.lft.to/lastmile_qr_scan"}, "bike_id": "1bdde911a06ec5870fcd762165edfc69", "type": "electric_scooter", "lon": -77.01189533333333, "is_reserved": 0, "fusion_lat": 0.0, "fusion_lon": 0.0}, {"name": "e54f7249e75f803d0408857d338f9fc1", "is_disabled": 0, "lat": 38.87083166666667, "rental_uris": {"ios": "https://dc.lft.to/lastmile_qr_scan", "android": "https://dc.lft.to/lastmile_qr_scan"}, "bike_id": "e54f7249e75f803d0408857d338f9fc1", "type": "electric_scooter", "lon": -77.01379966666667, "is_reserved": 0, "fusion_lat": 0.0, "fusion_lon": 0.0}, {"name": "06b39e26899471454be8de0c65c17d13", "is_disabled": 0, "lat": 38.88732066666667, "rental_uris": {"ios": "https://dc.lft.to/lastmile_qr_scan", "android": "https://dc.lft.to/lastmile_qr_scan"}, "bike_id": "06b39e26899471454be8de0c65c17d13", "type": "electric_scooter", "lon": -77.003192, "is_reserved": 0, "fusion_lat": 0.0, "fusion_lon": 0.0}, {"name": "b71cce8932335ee78f714d9fb5b66989", "is_disabled": 0, "lat": 38.86041316666667, "rental_uris": {"ios": "https://dc.lft.to/lastmile_qr_scan", "android": "https://dc.lft.to/lastmile_qr_scan"}, "bike_id": "b71cce8932335ee78f714d9fb5b66989", "type": "electric_scooter", "lon": -77.00346883333333, "is_reserved": 0, "fusion_lat": 0.0, "fusion_lon": 0.0}, {"name": "4462ab0c5ecaebe7cf18494eb766a537", "is_disabled": 0, "lat": 38.887471, "rental_uris": {"ios": "https://dc.lft.to/lastmile_qr_scan", "android": "https://dc.lft.to/lastmile_qr_scan"}, "bike_id": "4462ab0c5ecaebe7cf18494eb766a537", "type": "electric_scooter", "lon": -77.017841, "is_reserved": 0, "fusion_lat": 0.0, "fusion_lon": 0.0}, {"name": "01280be976ca53a0dfc5bfffc2a1788d", "is_disabled": 0, "lat": 38.937666666666665, "rental_uris": {"ios": "https://dc.lft.to/lastmile_qr_scan", "android": "https://dc.lft.to/lastmile_qr_scan"}, "bike_id": "01280be976ca53a0dfc5bfffc2a1788d", "type": "electric_scooter", "lon": -77.032635, "is_reserved": 0, "fusion_lat": 0.0, "fusion_lon": 0.0}, {"name": "8b4c15c622f5909b527859511cb99879", "is_disabled": 0, "lat": 38.90276316666667, "rental_uris": {"ios": "https://dc.lft.to/lastmile_qr_scan", "android": "https://dc.lft.to/lastmile_qr_scan"}, "bike_id": "8b4c15c622f5909b527859511cb99879", "type": "electric_scooter", "lon": -77.00617433333333, "is_reserved": 0, "fusion_lat": 0.0, "fusion_lon": 0.0}, {"name": "67705b8b0fbe84a08beb64745e707ec6", "is_disabled": 0, "lat": 38.91550066666667, "rental_uris": {"ios": "https://dc.lft.to/lastmile_qr_scan", "android": "https://dc.lft.to/lastmile_qr_scan"}, "bike_id": "67705b8b0fbe84a08beb64745e707ec6", "type": "electric_scooter", "lon": -77.03854016666666, "is_reserved": 0, "fusion_lat": 0.0, "fusion_lon": 0.0}, {"name": "a74bae54a82936736122e04bcaa4f86d", "is_disabled": 0, "lat": 38.897905333333334, "rental_uris": {"ios": "https://dc.lft.to/lastmile_qr_scan", "android": "https://dc.lft.to/lastmile_qr_scan"}, "bike_id": "a74bae54a82936736122e04bcaa4f86d", "type": "electric_scooter", "lon": -76.94731266666666, "is_reserved": 0, "fusion_lat": 0.0, "fusion_lon": 0.0}, {"name": "fa9051798bb404aad360b023a005d487", "is_disabled": 0, "lat": 38.902728333333336, "rental_uris": {"ios": "https://dc.lft.to/lastmile_qr_scan", "android": "https://dc.lft.to/lastmile_qr_scan"}, "bike_id": "fa9051798bb404aad360b023a005d487", "type": "electric_scooter", "lon": -77.03632766666666, "is_reserved": 0, "fusion_lat": 0.0, "fusion_lon": 0.0}, {"name": "9b4b765962b4c25cc8327a651ea7b752", "is_disabled": 0, "lat": 38.90732533333333, "rental_uris": {"ios": "https://dc.lft.to/lastmile_qr_scan", "android": "https://dc.lft.to/lastmile_qr_scan"}, "bike_id": "9b4b765962b4c25cc8327a651ea7b752", "type": "electric_scooter", "lon": -77.02969633333333, "is_reserved": 0, "fusion_lat": 0.0, "fusion_lon": 0.0}, {"name": "1ee5fa030f6cf9378b61aa8773be66da", "is_disabled": 0, "lat": 38.923547666666664, "rental_uris": {"ios": "https://dc.lft.to/lastmile_qr_scan", "android": "https://dc.lft.to/lastmile_qr_scan"}, "bike_id": "1ee5fa030f6cf9378b61aa8773be66da", "type": "electric_scooter", "lon": -77.03903316666667, "is_reserved": 0, "fusion_lat": 0.0, "fusion_lon": 0.0}, {"name": "bcbf92b6685d8fe00310856931363035", "is_disabled": 0, "lat": 38.942742833333334, "rental_uris": {"ios": "https://dc.lft.to/lastmile_qr_scan", "android": "https://dc.lft.to/lastmile_qr_scan"}, "bike_id": "bcbf92b6685d8fe00310856931363035", "type": "electric_scooter", "lon": -77.03256416666666, "is_reserved": 0, "fusion_lat": 0.0, "fusion_lon": 0.0}, {"name": "fd62fc7a18ac8ba7a908d4e744e576c9", "is_disabled": 0, "lat": 38.91922666666667, "rental_uris": {"ios": "https://dc.lft.to/lastmile_qr_scan", "android": "https://dc.lft.to/lastmile_qr_scan"}, "bike_id": "fd62fc7a18ac8ba7a908d4e744e576c9", "type": "electric_scooter", "lon": -77.0325445, "is_reserved": 0, "fusion_lat": 0.0, "fusion_lon": 0.0}, {"name": "8893cb4e9c5feafd49c8f877cc6a8f06", "is_disabled": 0, "lat": 38.93487566666667, "rental_uris": {"ios": "https://dc.lft.to/lastmile_qr_scan", "android": "https://dc.lft.to/lastmile_qr_scan"}, "bike_id": "8893cb4e9c5feafd49c8f877cc6a8f06", "type": "electric_scooter", "lon": -77.072745, "is_reserved": 0, "fusion_lat": 0.0, "fusion_lon": 0.0}, {"name": "d59174b2465e1c4ea287a6747bd7ce70", "is_disabled": 0, "lat": 38.9037775, "rental_uris": {"ios": "https://dc.lft.to/lastmile_qr_scan", "android": "https://dc.lft.to/lastmile_qr_scan"}, "bike_id": "d59174b2465e1c4ea287a6747bd7ce70", "type": "electric_scooter", "lon": -77.0297475, "is_reserved": 0, "fusion_lat": 0.0, "fusion_lon": 0.0}, {"name": "0bc0654bfbd4d9bfca10711de56115fe", "is_disabled": 0, "lat": 38.90773, "rental_uris": {"ios": "https://dc.lft.to/lastmile_qr_scan", "android": "https://dc.lft.to/lastmile_qr_scan"}, "bike_id": "0bc0654bfbd4d9bfca10711de56115fe", "type": "electric_scooter", "lon": -76.997136, "is_reserved": 0, "fusion_lat": 0.0, "fusion_lon": 0.0}, {"name": "a9b2ce6dc0b843ac8056deddb0f53a34", "is_disabled": 0, "lat": 38.9010255, "rental_uris": {"ios": "https://dc.lft.to/lastmile_qr_scan", "android": "https://dc.lft.to/lastmile_qr_scan"}, "bike_id": "a9b2ce6dc0b843ac8056deddb0f53a34", "type": "electric_scooter", "lon": -77.04740366666667, "is_reserved": 0, "fusion_lat": 0.0, "fusion_lon": 0.0}, {"name": "1dad33356567b704cb89fdeb8f8f759e", "is_disabled": 0, "lat": 38.937564, "rental_uris": {"ios": "https://dc.lft.to/lastmile_qr_scan", "android": "https://dc.lft.to/lastmile_qr_scan"}, "bike_id": "1dad33356567b704cb89fdeb8f8f759e", "type": "electric_bike", "lon": -76.9582355, "is_reserved": 0, "fusion_lat": 0.0, "fusion_lon": 0.0}, {"name": "01320b1855470d3492c1557636a6bb56", "is_disabled": 0, "lat": 38.945006166666666, "rental_uris": {"ios": "https://dc.lft.to/lastmile_qr_scan", "android": "https://dc.lft.to/lastmile_qr_scan"}, "bike_id": "01320b1855470d3492c1557636a6bb56", "type": "electric_bike", "lon": -77.0068075, "is_reserved": 0, "fusion_lat": 0.0, "fusion_lon": 0.0}, {"name": "9edf1b68fdf9243971c8570b5b041ba1", "is_disabled": 0, "lat": 38.8918915, "rental_uris": {"ios": "https://dc.lft.to/lastmile_qr_scan", "android": "https://dc.lft.to/lastmile_qr_scan"}, "bike_id": "9edf1b68fdf9243971c8570b5b041ba1", "type": "electric_scooter", "lon": -76.998378, "is_reserved": 0, "fusion_lat": 0.0, "fusion_lon": 0.0}, {"name": "2c608bf1b5d9f4cca0b85fcce212e481", "is_disabled": 0, "lat": 38.90399816666667, "rental_uris": {"ios": "https://dc.lft.to/lastmile_qr_scan", "android": "https://dc.lft.to/lastmile_qr_scan"}, "bike_id": "2c608bf1b5d9f4cca0b85fcce212e481", "type": "electric_scooter", "lon": -77.00191183333334, "is_reserved": 0, "fusion_lat": 0.0, "fusion_lon": 0.0}, {"name": "973e3ed555ccab4379806a33921524b6", "is_disabled": 0, "lat": 38.9236595, "rental_uris": {"ios": "https://dc.lft.to/lastmile_qr_scan", "android": "https://dc.lft.to/lastmile_qr_scan"}, "bike_id": "973e3ed555ccab4379806a33921524b6", "type": "electric_scooter", "lon": -77.02812283333333, "is_reserved": 0, "fusion_lat": 0.0, "fusion_lon": 0.0}, {"name": "638b89cae5a143122e1d97143d9d5140", "is_disabled": 0, "lat": 38.9121205, "rental_uris": {"ios": "https://dc.lft.to/lastmile_qr_scan", "android": "https://dc.lft.to/lastmile_qr_scan"}, "bike_id": "638b89cae5a143122e1d97143d9d5140", "type": "electric_scooter", "lon": -77.03858633333333, "is_reserved": 0, "fusion_lat": 0.0, "fusion_lon": 0.0}, {"name": "e2026825d335767a13867f8008cea8ee", "is_disabled": 0, "lat": 38.902050833333334, "rental_uris": {"ios": "https://dc.lft.to/lastmile_qr_scan", "android": "https://dc.lft.to/lastmile_qr_scan"}, "bike_id": "e2026825d335767a13867f8008cea8ee", "type": "electric_scooter", "lon": -77.02368116666666, "is_reserved": 0, "fusion_lat": 0.0, "fusion_lon": 0.0}, {"name": "45c460544e5461a9d74c00d99ce498a0", "is_disabled": 0, "lat": 38.862436833333334, "rental_uris": {"ios": "https://dc.lft.to/lastmile_qr_scan", "android": "https://dc.lft.to/lastmile_qr_scan"}, "bike_id": "45c460544e5461a9d74c00d99ce498a0", "type": "electric_scooter", "lon": -76.994969, "is_reserved": 0, "fusion_lat": 0.0, "fusion_lon": 0.0}, {"name": "6c1d5a839983c024b8f7b9f467c9cc25", "is_disabled": 0, "lat": 38.94111783333334, "rental_uris": {"ios": "https://dc.lft.to/lastmile_qr_scan", "android": "https://dc.lft.to/lastmile_qr_scan"}, "bike_id": "6c1d5a839983c024b8f7b9f467c9cc25", "type": "electric_scooter", "lon": -77.00045383333334, "is_reserved": 0, "fusion_lat": 0.0, "fusion_lon": 0.0}, {"name": "243dfee35c9f093f336a88d54ead0df0", "is_disabled": 0, "lat": 38.90942583333333, "rental_uris": {"ios": "https://dc.lft.to/lastmile_qr_scan", "android": "https://dc.lft.to/lastmile_qr_scan"}, "bike_id": "243dfee35c9f093f336a88d54ead0df0", "type": "electric_scooter", "lon": -77.07386633333333, "is_reserved": 0, "fusion_lat": 0.0, "fusion_lon": 0.0}, {"name": "8605a13c027a75911b3eb8071fd4f4d9", "is_disabled": 0, "lat": 38.890068166666666, "rental_uris": {"ios": "https://dc.lft.to/lastmile_qr_scan", "android": "https://dc.lft.to/lastmile_qr_scan"}, "bike_id": "8605a13c027a75911b3eb8071fd4f4d9", "type": "electric_scooter", "lon": -76.93748366666667, "is_reserved": 0, "fusion_lat": 0.0, "fusion_lon": 0.0}, {"name": "94e12aed6221fb864d4b1fb7d6ac079b", "is_disabled": 0, "lat": 38.91123283333334, "rental_uris": {"ios": "https://dc.lft.to/lastmile_qr_scan", "android": "https://dc.lft.to/lastmile_qr_scan"}, "bike_id": "94e12aed6221fb864d4b1fb7d6ac079b", "type": "electric_scooter", "lon": -77.03832566666667, "is_reserved": 0, "fusion_lat": 0.0, "fusion_lon": 0.0}, {"name": "877a9e258069362e9a1312df3e2e4e53", "is_disabled": 0, "lat": 38.91796566666667, "rental_uris": {"ios": "https://dc.lft.to/lastmile_qr_scan", "android": "https://dc.lft.to/lastmile_qr_scan"}, "bike_id": "877a9e258069362e9a1312df3e2e4e53", "type": "electric_scooter", "lon": -77.0417205, "is_reserved": 0, "fusion_lat": 0.0, "fusion_lon": 0.0}, {"name": "5655a2fe59540feb91bbffc6642d7ef4", "is_disabled": 0, "lat": 38.937753666666666, "rental_uris": {"ios": "https://dc.lft.to/lastmile_qr_scan", "android": "https://dc.lft.to/lastmile_qr_scan"}, "bike_id": "5655a2fe59540feb91bbffc6642d7ef4", "type": "electric_bike", "lon": -77.01909166666667, "is_reserved": 0, "fusion_lat": 0.0, "fusion_lon": 0.0}, {"name": "54a44fce279b7fedfa8287ab14cca76e", "is_disabled": 0, "lat": 38.91408416666667, "rental_uris": {"ios": "https://dc.lft.to/lastmile_qr_scan", "android": "https://dc.lft.to/lastmile_qr_scan"}, "bike_id": "54a44fce279b7fedfa8287ab14cca76e", "type": "electric_scooter", "lon": -77.03161866666666, "is_reserved": 0, "fusion_lat": 0.0, "fusion_lon": 0.0}, {"name": "34693ebce9a8575da28f871c2aed84c7", "is_disabled": 0, "lat": 38.86349466666667, "rental_uris": {"ios": "https://dc.lft.to/lastmile_qr_scan", "android": "https://dc.lft.to/lastmile_qr_scan"}, "bike_id": "34693ebce9a8575da28f871c2aed84c7", "type": "electric_bike", "lon": -77.0771925, "is_reserved": 0, "fusion_lat": 0.0, "fusion_lon": 0.0}, {"name": "2e48e1cecb4ea15b5beb1941378812d2", "is_disabled": 0, "lat": 38.90516983333333, "rental_uris": {"ios": "https://dc.lft.to/lastmile_qr_scan", "android": "https://dc.lft.to/lastmile_qr_scan"}, "bike_id": "2e48e1cecb4ea15b5beb1941378812d2", "type": "electric_bike", "lon": -77.04157783333333, "is_reserved": 0, "fusion_lat": 0.0, "fusion_lon": 0.0}, {"name": "adc59d5235e704a119005f3b9fa0832d", "is_disabled": 0, "lat": 38.916323166666665, "rental_uris": {"ios": "https://dc.lft.to/lastmile_qr_scan", "android": "https://dc.lft.to/lastmile_qr_scan"}, "bike_id": "adc59d5235e704a119005f3b9fa0832d", "type": "electric_scooter", "lon": -77.050749, "is_reserved": 0, "fusion_lat": 0.0, "fusion_lon": 0.0}, {"name": "0f88522eb84ab355f5c0a52d342e8272", "is_disabled": 0, "lat": 38.918548333333334, "rental_uris": {"ios": "https://dc.lft.to/lastmile_qr_scan", "android": "https://dc.lft.to/lastmile_qr_scan"}, "bike_id": "0f88522eb84ab355f5c0a52d342e8272", "type": "electric_scooter", "lon": -77.02317533333333, "is_reserved": 0, "fusion_lat": 0.0, "fusion_lon": 0.0}, {"name": "515498e2a2e4faed451d1207584b44a3", "is_disabled": 0, "lat": 38.91961916666666, "rental_uris": {"ios": "https://dc.lft.to/lastmile_qr_scan", "android": "https://dc.lft.to/lastmile_qr_scan"}, "bike_id": "515498e2a2e4faed451d1207584b44a3", "type": "electric_scooter", "lon": -77.02388816666667, "is_reserved": 0, "fusion_lat": 0.0, "fusion_lon": 0.0}, {"name": "e7aba2d966f7f18348bd528500d40fb9", "is_disabled": 0, "lat": 38.954195666666664, "rental_uris": {"ios": "https://dc.lft.to/lastmile_qr_scan", "android": "https://dc.lft.to/lastmile_qr_scan"}, "bike_id": "e7aba2d966f7f18348bd528500d40fb9", "type": "electric_scooter", "lon": -77.027646, "is_reserved": 0, "fusion_lat": 0.0, "fusion_lon": 0.0}, {"name": "205f7773b856281fdc55212629e253a6", "is_disabled": 0, "lat": 38.8999995, "rental_uris": {"ios": "https://dc.lft.to/lastmile_qr_scan", "android": "https://dc.lft.to/lastmile_qr_scan"}, "bike_id": "205f7773b856281fdc55212629e253a6", "type": "electric_scooter", "lon": -76.998519, "is_reserved": 0, "fusion_lat": 0.0, "fusion_lon": 0.0}, {"name": "c2a9636ece4d47343ebcedcab12ff338", "is_disabled": 0, "lat": 38.9089835, "rental_uris": {"ios": "https://dc.lft.to/lastmile_qr_scan", "android": "https://dc.lft.to/lastmile_qr_scan"}, "bike_id": "c2a9636ece4d47343ebcedcab12ff338", "type": "electric_scooter", "lon": -77.044143, "is_reserved": 0, "fusion_lat": 0.0, "fusion_lon": 0.0}, {"name": "68f335241783bf30d696450dcbb679c0", "is_disabled": 0, "lat": 38.893528833333335, "rental_uris": {"ios": "https://dc.lft.to/lastmile_qr_scan", "android": "https://dc.lft.to/lastmile_qr_scan"}, "bike_id": "68f335241783bf30d696450dcbb679c0", "type": "electric_scooter", "lon": -76.98658466666667, "is_reserved": 0, "fusion_lat": 0.0, "fusion_lon": 0.0}, {"name": "c00691716e52da76575ae9853b870d19", "is_disabled": 0, "lat": 38.898482666666666, "rental_uris": {"ios": "https://dc.lft.to/lastmile_qr_scan", "android": "https://dc.lft.to/lastmile_qr_scan"}, "bike_id": "c00691716e52da76575ae9853b870d19", "type": "electric_scooter", "lon": -76.94253333333333, "is_reserved": 0, "fusion_lat": 0.0, "fusion_lon": 0.0}, {"name": "f8fb0868c6667b07b4461f3811fd7cdd", "is_disabled": 0, "lat": 38.897138166666664, "rental_uris": {"ios": "https://dc.lft.to/lastmile_qr_scan", "android": "https://dc.lft.to/lastmile_qr_scan"}, "bike_id": "f8fb0868c6667b07b4461f3811fd7cdd", "type": "electric_scooter", "lon": -77.007969, "is_reserved": 0, "fusion_lat": 0.0, "fusion_lon": 0.0}, {"name": "c8b348d43e78d6c5e045a6edb1c5b76e", "is_disabled": 0, "lat": 38.90001816666667, "rental_uris": {"ios": "https://dc.lft.to/lastmile_qr_scan", "android": "https://dc.lft.to/lastmile_qr_scan"}, "bike_id": "c8b348d43e78d6c5e045a6edb1c5b76e", "type": "electric_scooter", "lon": -77.02733766666667, "is_reserved": 0, "fusion_lat": 0.0, "fusion_lon": 0.0}, {"name": "3dcefe295de5d2ec5f34042f7fc18516", "is_disabled": 0, "lat": 38.8921855, "rental_uris": {"ios": "https://dc.lft.to/lastmile_qr_scan", "android": "https://dc.lft.to/lastmile_qr_scan"}, "bike_id": "3dcefe295de5d2ec5f34042f7fc18516", "type": "electric_scooter", "lon": -77.02309983333333, "is_reserved": 0, "fusion_lat": 0.0, "fusion_lon": 0.0}, {"name": "d84379b8f5f6fcecf8ab2e3196664692", "is_disabled": 0, "lat": 38.901757833333335, "rental_uris": {"ios": "https://dc.lft.to/lastmile_qr_scan", "android": "https://dc.lft.to/lastmile_qr_scan"}, "bike_id": "d84379b8f5f6fcecf8ab2e3196664692", "type": "electric_scooter", "lon": -77.02626933333333, "is_reserved": 0, "fusion_lat": 0.0, "fusion_lon": 0.0}, {"name": "2eb290fbb00066a00713826bac3e0528", "is_disabled": 0, "lat": 38.9340875, "rental_uris": {"ios": "https://dc.lft.to/lastmile_qr_scan", "android": "https://dc.lft.to/lastmile_qr_scan"}, "bike_id": "2eb290fbb00066a00713826bac3e0528", "type": "electric_scooter", "lon": -77.02203616666667, "is_reserved": 0, "fusion_lat": 0.0, "fusion_lon": 0.0}, {"name": "53980e1ac2e64d08ef9072c0ef1f4b77", "is_disabled": 0, "lat": 38.903616, "rental_uris": {"ios": "https://dc.lft.to/lastmile_qr_scan", "android": "https://dc.lft.to/lastmile_qr_scan"}, "bike_id": "53980e1ac2e64d08ef9072c0ef1f4b77", "type": "electric_scooter", "lon": -77.03861616666667, "is_reserved": 0, "fusion_lat": 0.0, "fusion_lon": 0.0}, {"name": "3303cefcd1a9c44eb05ccf4998225b45", "is_disabled": 0, "lat": 38.922677166666666, "rental_uris": {"ios": "https://dc.lft.to/lastmile_qr_scan", "android": "https://dc.lft.to/lastmile_qr_scan"}, "bike_id": "3303cefcd1a9c44eb05ccf4998225b45", "type": "electric_bike", "lon": -76.98646666666667, "is_reserved": 0, "fusion_lat": 0.0, "fusion_lon": 0.0}, {"name": "0c8c01068b3521ba38a349aaae6b8762", "is_disabled": 0, "lat": 38.92111283333333, "rental_uris": {"ios": "https://dc.lft.to/lastmile_qr_scan", "android": "https://dc.lft.to/lastmile_qr_scan"}, "bike_id": "0c8c01068b3521ba38a349aaae6b8762", "type": "electric_scooter", "lon": -77.0219, "is_reserved": 0, "fusion_lat": 0.0, "fusion_lon": 0.0}, {"name": "15453213a631c4577cea7d99ef07f326", "is_disabled": 0, "lat": 38.91698866666667, "rental_uris": {"ios": "https://dc.lft.to/lastmile_qr_scan", "android": "https://dc.lft.to/lastmile_qr_scan"}, "bike_id": "15453213a631c4577cea7d99ef07f326", "type": "electric_scooter", "lon": -77.0289485, "is_reserved": 0, "fusion_lat": 0.0, "fusion_lon": 0.0}, {"name": "dc159ef923b19f8951af132573c06371", "is_disabled": 0, "lat": 38.902858333333334, "rental_uris": {"ios": "https://dc.lft.to/lastmile_qr_scan", "android": "https://dc.lft.to/lastmile_qr_scan"}, "bike_id": "dc159ef923b19f8951af132573c06371", "type": "electric_scooter", "lon": -77.03266916666666, "is_reserved": 0, "fusion_lat": 0.0, "fusion_lon": 0.0}, {"name": "2f99380152d88f3d4c56161bea4748ae", "is_disabled": 0, "lat": 38.90120866666667, "rental_uris": {"ios": "https://dc.lft.to/lastmile_qr_scan", "android": "https://dc.lft.to/lastmile_qr_scan"}, "bike_id": "2f99380152d88f3d4c56161bea4748ae", "type": "electric_scooter", "lon": -77.03379566666666, "is_reserved": 0, "fusion_lat": 0.0, "fusion_lon": 0.0}, {"name": "d731bf1da27711fac387d7e1958c9f8e", "is_disabled": 0, "lat": 38.905687666666665, "rental_uris": {"ios": "https://dc.lft.to/lastmile_qr_scan", "android": "https://dc.lft.to/lastmile_qr_scan"}, "bike_id": "d731bf1da27711fac387d7e1958c9f8e", "type": "electric_scooter", "lon": -77.04684666666667, "is_reserved": 0, "fusion_lat": 0.0, "fusion_lon": 0.0}, {"name": "bdad43b89cecbc5ff84370e37d6caab3", "is_disabled": 0, "lat": 38.90030466666666, "rental_uris": {"ios": "https://dc.lft.to/lastmile_qr_scan", "android": "https://dc.lft.to/lastmile_qr_scan"}, "bike_id": "bdad43b89cecbc5ff84370e37d6caab3", "type": "electric_scooter", "lon": -76.99309766666667, "is_reserved": 0, "fusion_lat": 0.0, "fusion_lon": 0.0}, {"name": "a872198120357e5033ac9a4363f6366f", "is_disabled": 0, "lat": 38.93180066666667, "rental_uris": {"ios": "https://dc.lft.to/lastmile_qr_scan", "android": "https://dc.lft.to/lastmile_qr_scan"}, "bike_id": "a872198120357e5033ac9a4363f6366f", "type": "electric_scooter", "lon": -77.0329435, "is_reserved": 0, "fusion_lat": 0.0, "fusion_lon": 0.0}, {"name": "5b189b025680b2229e1498695e9505fd", "is_disabled": 0, "lat": 38.8978125, "rental_uris": {"ios": "https://dc.lft.to/lastmile_qr_scan", "android": "https://dc.lft.to/lastmile_qr_scan"}, "bike_id": "5b189b025680b2229e1498695e9505fd", "type": "electric_scooter", "lon": -77.02741483333334, "is_reserved": 0, "fusion_lat": 0.0, "fusion_lon": 0.0}, {"name": "e3c2a1a9ddc82a28f582acaea2efe61e", "is_disabled": 0, "lat": 38.91596633333333, "rental_uris": {"ios": "https://dc.lft.to/lastmile_qr_scan", "android": "https://dc.lft.to/lastmile_qr_scan"}, "bike_id": "e3c2a1a9ddc82a28f582acaea2efe61e", "type": "electric_scooter", "lon": -77.0147895, "is_reserved": 0, "fusion_lat": 0.0, "fusion_lon": 0.0}, {"name": "71c5c323d7175c7929ec3d852a3881b2", "is_disabled": 0, "lat": 38.90737516666667, "rental_uris": {"ios": "https://dc.lft.to/lastmile_qr_scan", "android": "https://dc.lft.to/lastmile_qr_scan"}, "bike_id": "71c5c323d7175c7929ec3d852a3881b2", "type": "electric_scooter", "lon": -77.04329016666667, "is_reserved": 0, "fusion_lat": 0.0, "fusion_lon": 0.0}, {"name": "834837c6cb0b3bdc5e035b86a9075410", "is_disabled": 0, "lat": 38.9167935, "rental_uris": {"ios": "https://dc.lft.to/lastmile_qr_scan", "android": "https://dc.lft.to/lastmile_qr_scan"}, "bike_id": "834837c6cb0b3bdc5e035b86a9075410", "type": "electric_scooter", "lon": -77.036828, "is_reserved": 0, "fusion_lat": 0.0, "fusion_lon": 0.0}, {"name": "71951d87e4af7c9a03093161cf71ee12", "is_disabled": 0, "lat": 38.90149066666667, "rental_uris": {"ios": "https://dc.lft.to/lastmile_qr_scan", "android": "https://dc.lft.to/lastmile_qr_scan"}, "bike_id": "71951d87e4af7c9a03093161cf71ee12", "type": "electric_scooter", "lon": -76.97425933333334, "is_reserved": 0, "fusion_lat": 0.0, "fusion_lon": 0.0}, {"name": "07ac0262fb517d0006f1db3380aba81b", "is_disabled": 0, "lat": 38.916883166666665, "rental_uris": {"ios": "https://dc.lft.to/lastmile_qr_scan", "android": "https://dc.lft.to/lastmile_qr_scan"}, "bike_id": "07ac0262fb517d0006f1db3380aba81b", "type": "electric_scooter", "lon": -77.031118, "is_reserved": 0, "fusion_lat": 0.0, "fusion_lon": 0.0}, {"name": "5a82d7a0f196534c0f2983eda5ef6e78", "is_disabled": 0, "lat": 38.907293333333335, "rental_uris": {"ios": "https://dc.lft.to/lastmile_qr_scan", "android": "https://dc.lft.to/lastmile_qr_scan"}, "bike_id": "5a82d7a0f196534c0f2983eda5ef6e78", "type": "electric_scooter", "lon": -77.04336683333334, "is_reserved": 0, "fusion_lat": 0.0, "fusion_lon": 0.0}, {"name": "9c6fc576a8c3ccb4fdd4ebbdcddb9ce4", "is_disabled": 0, "lat": 38.915030333333334, "rental_uris": {"ios": "https://dc.lft.to/lastmile_qr_scan", "android": "https://dc.lft.to/lastmile_qr_scan"}, "bike_id": "9c6fc576a8c3ccb4fdd4ebbdcddb9ce4", "type": "electric_scooter", "lon": -77.032092, "is_reserved": 0, "fusion_lat": 0.0, "fusion_lon": 0.0}, {"name": "773cf4e770639d9a2f34b0c46d6bb8e0", "is_disabled": 0, "lat": 38.88744966666667, "rental_uris": {"ios": "https://dc.lft.to/lastmile_qr_scan", "android": "https://dc.lft.to/lastmile_qr_scan"}, "bike_id": "773cf4e770639d9a2f34b0c46d6bb8e0", "type": "electric_scooter", "lon": -77.0177745, "is_reserved": 0, "fusion_lat": 0.0, "fusion_lon": 0.0}, {"name": "383528ad2f47ee501cbb235d0bc09f66", "is_disabled": 0, "lat": 38.887289, "rental_uris": {"ios": "https://dc.lft.to/lastmile_qr_scan", "android": "https://dc.lft.to/lastmile_qr_scan"}, "bike_id": "383528ad2f47ee501cbb235d0bc09f66", "type": "electric_scooter", "lon": -76.9835885, "is_reserved": 0, "fusion_lat": 0.0, "fusion_lon": 0.0}, {"name": "59a64395be020ed27a741bb1eb117132", "is_disabled": 0, "lat": 38.907628333333335, "rental_uris": {"ios": "https://dc.lft.to/lastmile_qr_scan", "android": "https://dc.lft.to/lastmile_qr_scan"}, "bike_id": "59a64395be020ed27a741bb1eb117132", "type": "electric_scooter", "lon": -77.03588316666666, "is_reserved": 0, "fusion_lat": 0.0, "fusion_lon": 0.0}, {"name": "729312a763fe7dacf0ffa0932375cc4b", "is_disabled": 0, "lat": 38.9204565, "rental_uris": {"ios": "https://dc.lft.to/lastmile_qr_scan", "android": "https://dc.lft.to/lastmile_qr_scan"}, "bike_id": "729312a763fe7dacf0ffa0932375cc4b", "type": "electric_scooter", "lon": -77.01677566666666, "is_reserved": 0, "fusion_lat": 0.0, "fusion_lon": 0.0}, {"name": "51197671051cc8b0993efcc8b9fbfc5e", "is_disabled": 0, "lat": 38.892953, "rental_uris": {"ios": "https://dc.lft.to/lastmile_qr_scan", "android": "https://dc.lft.to/lastmile_qr_scan"}, "bike_id": "51197671051cc8b0993efcc8b9fbfc5e", "type": "electric_scooter", "lon": -77.01232316666666, "is_reserved": 0, "fusion_lat": 0.0, "fusion_lon": 0.0}, {"name": "50e01bb5a9a892df5212b85ab0f8cc8f", "is_disabled": 0, "lat": 38.93248783333333, "rental_uris": {"ios": "https://dc.lft.to/lastmile_qr_scan", "android": "https://dc.lft.to/lastmile_qr_scan"}, "bike_id": "50e01bb5a9a892df5212b85ab0f8cc8f", "type": "electric_scooter", "lon": -77.066488, "is_reserved": 0, "fusion_lat": 0.0, "fusion_lon": 0.0}, {"name": "52a0e1e0f3019b27616e0400839ea69b", "is_disabled": 0, "lat": 38.99209283333333, "rental_uris": {"ios": "https://dc.lft.to/lastmile_qr_scan", "android": "https://dc.lft.to/lastmile_qr_scan"}, "bike_id": "52a0e1e0f3019b27616e0400839ea69b", "type": "electric_bike", "lon": -77.03209133333333, "is_reserved": 0, "fusion_lat": 0.0, "fusion_lon": 0.0}, {"name": "aaec07e5e77b2a2f3d7ded263fcdeb5d", "is_disabled": 0, "lat": 38.91694233333333, "rental_uris": {"ios": "https://dc.lft.to/lastmile_qr_scan", "android": "https://dc.lft.to/lastmile_qr_scan"}, "bike_id": "aaec07e5e77b2a2f3d7ded263fcdeb5d", "type": "electric_scooter", "lon": -77.03383283333334, "is_reserved": 0, "fusion_lat": 0.0, "fusion_lon": 0.0}, {"name": "b8fb002ff9b4d9e55baf6ccdb77a2f2f", "is_disabled": 0, "lat": 38.9354335, "rental_uris": {"ios": "https://dc.lft.to/lastmile_qr_scan", "android": "https://dc.lft.to/lastmile_qr_scan"}, "bike_id": "b8fb002ff9b4d9e55baf6ccdb77a2f2f", "type": "electric_scooter", "lon": -77.05741266666666, "is_reserved": 0, "fusion_lat": 0.0, "fusion_lon": 0.0}, {"name": "41d1d68544e7e98f869b130916c07ada", "is_disabled": 0, "lat": 38.91832383333333, "rental_uris": {"ios": "https://dc.lft.to/lastmile_qr_scan", "android": "https://dc.lft.to/lastmile_qr_scan"}, "bike_id": "41d1d68544e7e98f869b130916c07ada", "type": "electric_scooter", "lon": -77.03186483333333, "is_reserved": 0, "fusion_lat": 0.0, "fusion_lon": 0.0}, {"name": "efbb5cb6ceb1799a8ccea8a2ce6b5830", "is_disabled": 0, "lat": 38.90122266666667, "rental_uris": {"ios": "https://dc.lft.to/lastmile_qr_scan", "android": "https://dc.lft.to/lastmile_qr_scan"}, "bike_id": "efbb5cb6ceb1799a8ccea8a2ce6b5830", "type": "electric_scooter", "lon": -77.0021325, "is_reserved": 0, "fusion_lat": 0.0, "fusion_lon": 0.0}, {"name": "0cb7208445d2d5c9337ad20c7d763dac", "is_disabled": 0, "lat": 38.90989616666667, "rental_uris": {"ios": "https://dc.lft.to/lastmile_qr_scan", "android": "https://dc.lft.to/lastmile_qr_scan"}, "bike_id": "0cb7208445d2d5c9337ad20c7d763dac", "type": "electric_scooter", "lon": -77.04666333333333, "is_reserved": 0, "fusion_lat": 0.0, "fusion_lon": 0.0}, {"name": "966a600a095781f631f9696319a9b7f0", "is_disabled": 0, "lat": 38.887794166666666, "rental_uris": {"ios": "https://dc.lft.to/lastmile_qr_scan", "android": "https://dc.lft.to/lastmile_qr_scan"}, "bike_id": "966a600a095781f631f9696319a9b7f0", "type": "electric_scooter", "lon": -76.95530466666666, "is_reserved": 0, "fusion_lat": 0.0, "fusion_lon": 0.0}, {"name": "ab18c52d5158b6bfc551d1edbbe2dccb", "is_disabled": 0, "lat": 38.913976, "rental_uris": {"ios": "https://dc.lft.to/lastmile_qr_scan", "android": "https://dc.lft.to/lastmile_qr_scan"}, "bike_id": "ab18c52d5158b6bfc551d1edbbe2dccb", "type": "electric_scooter", "lon": -77.00845166666667, "is_reserved": 0, "fusion_lat": 0.0, "fusion_lon": 0.0}, {"name": "d421e068e0025169839e80c24514feff", "is_disabled": 0, "lat": 38.9023095, "rental_uris": {"ios": "https://dc.lft.to/lastmile_qr_scan", "android": "https://dc.lft.to/lastmile_qr_scan"}, "bike_id": "d421e068e0025169839e80c24514feff", "type": "electric_scooter", "lon": -77.06152783333333, "is_reserved": 0, "fusion_lat": 0.0, "fusion_lon": 0.0}, {"name": "aba882af7a802710781e5558f824cc97", "is_disabled": 0, "lat": 38.822191, "rental_uris": {"ios": "https://dc.lft.to/lastmile_qr_scan", "android": "https://dc.lft.to/lastmile_qr_scan"}, "bike_id": "aba882af7a802710781e5558f824cc97", "type": "electric_bike", "lon": -77.001897, "is_reserved": 0, "fusion_lat": 0.0, "fusion_lon": 0.0}, {"name": "9fafc3640d707d8a70b002e904a4a7d3", "is_disabled": 0, "lat": 38.94734166666667, "rental_uris": {"ios": "https://dc.lft.to/lastmile_qr_scan", "android": "https://dc.lft.to/lastmile_qr_scan"}, "bike_id": "9fafc3640d707d8a70b002e904a4a7d3", "type": "electric_scooter", "lon": -77.01616716666666, "is_reserved": 0, "fusion_lat": 0.0, "fusion_lon": 0.0}, {"name": "eee7079a9a5b9a18f29681c3d18c5aba", "is_disabled": 0, "lat": 38.90739383333333, "rental_uris": {"ios": "https://dc.lft.to/lastmile_qr_scan", "android": "https://dc.lft.to/lastmile_qr_scan"}, "bike_id": "eee7079a9a5b9a18f29681c3d18c5aba", "type": "electric_scooter", "lon": -77.04154916666667, "is_reserved": 0, "fusion_lat": 0.0, "fusion_lon": 0.0}, {"name": "2472f924b396257463a7c818ec96ffd3", "is_disabled": 0, "lat": 38.92448916666667, "rental_uris": {"ios": "https://dc.lft.to/lastmile_qr_scan", "android": "https://dc.lft.to/lastmile_qr_scan"}, "bike_id": "2472f924b396257463a7c818ec96ffd3", "type": "electric_scooter", "lon": -77.0402065, "is_reserved": 0, "fusion_lat": 0.0, "fusion_lon": 0.0}, {"name": "2ef50d57c01c2afd3097d7911325c5fe", "is_disabled": 0, "lat": 38.892427, "rental_uris": {"ios": "https://dc.lft.to/lastmile_qr_scan", "android": "https://dc.lft.to/lastmile_qr_scan"}, "bike_id": "2ef50d57c01c2afd3097d7911325c5fe", "type": "electric_scooter", "lon": -77.03349233333333, "is_reserved": 0, "fusion_lat": 0.0, "fusion_lon": 0.0}, {"name": "e1b3774f52ce7d4b64c689c442b2bac8", "is_disabled": 0, "lat": 38.90976833333333, "rental_uris": {"ios": "https://dc.lft.to/lastmile_qr_scan", "android": "https://dc.lft.to/lastmile_qr_scan"}, "bike_id": "e1b3774f52ce7d4b64c689c442b2bac8", "type": "electric_scooter", "lon": -77.0321155, "is_reserved": 0, "fusion_lat": 0.0, "fusion_lon": 0.0}, {"name": "cf59374316b5af3a843e7c3f3a618271", "is_disabled": 0, "lat": 38.8922215, "rental_uris": {"ios": "https://dc.lft.to/lastmile_qr_scan", "android": "https://dc.lft.to/lastmile_qr_scan"}, "bike_id": "cf59374316b5af3a843e7c3f3a618271", "type": "electric_scooter", "lon": -77.04871116666666, "is_reserved": 0, "fusion_lat": 0.0, "fusion_lon": 0.0}, {"name": "06e881232a8cbb75e594d67ace5d58cd", "is_disabled": 0, "lat": 38.930996, "rental_uris": {"ios": "https://dc.lft.to/lastmile_qr_scan", "android": "https://dc.lft.to/lastmile_qr_scan"}, "bike_id": "06e881232a8cbb75e594d67ace5d58cd", "type": "electric_scooter", "lon": -77.02663933333334, "is_reserved": 0, "fusion_lat": 0.0, "fusion_lon": 0.0}, {"name": "3c8858402d8b25cd726787b8f2ca449d", "is_disabled": 0, "lat": 38.9421165, "rental_uris": {"ios": "https://dc.lft.to/lastmile_qr_scan", "android": "https://dc.lft.to/lastmile_qr_scan"}, "bike_id": "3c8858402d8b25cd726787b8f2ca449d", "type": "electric_scooter", "lon": -76.98555133333333, "is_reserved": 0, "fusion_lat": 0.0, "fusion_lon": 0.0}, {"name": "cf4acb525842fdb15e001dc04327badc", "is_disabled": 0, "lat": 38.84299766666667, "rental_uris": {"ios": "https://dc.lft.to/lastmile_qr_scan", "android": "https://dc.lft.to/lastmile_qr_scan"}, "bike_id": "cf4acb525842fdb15e001dc04327badc", "type": "electric_bike", "lon": -77.10865683333333, "is_reserved": 0, "fusion_lat": 0.0, "fusion_lon": 0.0}, {"name": "1cc99903f48273d02dc5ddca9b6484fa", "is_disabled": 0, "lat": 38.92222783333333, "rental_uris": {"ios": "https://dc.lft.to/lastmile_qr_scan", "android": "https://dc.lft.to/lastmile_qr_scan"}, "bike_id": "1cc99903f48273d02dc5ddca9b6484fa", "type": "electric_scooter", "lon": -77.042405, "is_reserved": 0, "fusion_lat": 0.0, "fusion_lon": 0.0}, {"name": "69cf64d6fd599c5b6d658f48762b9d15", "is_disabled": 0, "lat": 38.903628166666664, "rental_uris": {"ios": "https://dc.lft.to/lastmile_qr_scan", "android": "https://dc.lft.to/lastmile_qr_scan"}, "bike_id": "69cf64d6fd599c5b6d658f48762b9d15", "type": "electric_scooter", "lon": -77.03865933333333, "is_reserved": 0, "fusion_lat": 0.0, "fusion_lon": 0.0}, {"name": "6701701fe2066a7c427e0975023f57b0", "is_disabled": 0, "lat": 38.90492483333333, "rental_uris": {"ios": "https://dc.lft.to/lastmile_qr_scan", "android": "https://dc.lft.to/lastmile_qr_scan"}, "bike_id": "6701701fe2066a7c427e0975023f57b0", "type": "electric_scooter", "lon": -77.00735433333334, "is_reserved": 0, "fusion_lat": 0.0, "fusion_lon": 0.0}, {"name": "3e57904fdf3a80c10597c30c7797ca91", "is_disabled": 0, "lat": 38.89914783333333, "rental_uris": {"ios": "https://dc.lft.to/lastmile_qr_scan", "android": "https://dc.lft.to/lastmile_qr_scan"}, "bike_id": "3e57904fdf3a80c10597c30c7797ca91", "type": "electric_scooter", "lon": -76.9455185, "is_reserved": 0, "fusion_lat": 0.0, "fusion_lon": 0.0}, {"name": "8be2298a39a73f0ad4ca82a8382e4801", "is_disabled": 0, "lat": 38.934827166666665, "rental_uris": {"ios": "https://dc.lft.to/lastmile_qr_scan", "android": "https://dc.lft.to/lastmile_qr_scan"}, "bike_id": "8be2298a39a73f0ad4ca82a8382e4801", "type": "electric_scooter", "lon": -77.0271025, "is_reserved": 0, "fusion_lat": 0.0, "fusion_lon": 0.0}, {"name": "c0787711e53b442923dcff4e685bb175", "is_disabled": 0, "lat": 38.89236733333333, "rental_uris": {"ios": "https://dc.lft.to/lastmile_qr_scan", "android": "https://dc.lft.to/lastmile_qr_scan"}, "bike_id": "c0787711e53b442923dcff4e685bb175", "type": "electric_scooter", "lon": -77.023844, "is_reserved": 0, "fusion_lat": 0.0, "fusion_lon": 0.0}, {"name": "e6f54060098554d77af3f28fdb57fb99", "is_disabled": 0, "lat": 38.91296766666667, "rental_uris": {"ios": "https://dc.lft.to/lastmile_qr_scan", "android": "https://dc.lft.to/lastmile_qr_scan"}, "bike_id": "e6f54060098554d77af3f28fdb57fb99", "type": "electric_scooter", "lon": -77.02226183333333, "is_reserved": 0, "fusion_lat": 0.0, "fusion_lon": 0.0}, {"name": "47411ab7a3c00b1eda8dd61b1715f4b5", "is_disabled": 0, "lat": 38.90536566666667, "rental_uris": {"ios": "https://dc.lft.to/lastmile_qr_scan", "android": "https://dc.lft.to/lastmile_qr_scan"}, "bike_id": "47411ab7a3c00b1eda8dd61b1715f4b5", "type": "electric_scooter", "lon": -77.06101583333333, "is_reserved": 0, "fusion_lat": 0.0, "fusion_lon": 0.0}, {"name": "f467ddd5f4233694ebf7deb25bc43c9f", "is_disabled": 0, "lat": 38.92318783333333, "rental_uris": {"ios": "https://dc.lft.to/lastmile_qr_scan", "android": "https://dc.lft.to/lastmile_qr_scan"}, "bike_id": "f467ddd5f4233694ebf7deb25bc43c9f", "type": "electric_scooter", "lon": -77.0340385, "is_reserved": 0, "fusion_lat": 0.0, "fusion_lon": 0.0}, {"name": "b24ff739e4b170e20956631106438dc3", "is_disabled": 0, "lat": 38.8960455, "rental_uris": {"ios": "https://dc.lft.to/lastmile_qr_scan", "android": "https://dc.lft.to/lastmile_qr_scan"}, "bike_id": "b24ff739e4b170e20956631106438dc3", "type": "electric_scooter", "lon": -77.02665933333333, "is_reserved": 0, "fusion_lat": 0.0, "fusion_lon": 0.0}, {"name": "057559bb70eb1127d47564925cb4bec4", "is_disabled": 0, "lat": 38.900972333333335, "rental_uris": {"ios": "https://dc.lft.to/lastmile_qr_scan", "android": "https://dc.lft.to/lastmile_qr_scan"}, "bike_id": "057559bb70eb1127d47564925cb4bec4", "type": "electric_scooter", "lon": -77.02217816666666, "is_reserved": 0, "fusion_lat": 0.0, "fusion_lon": 0.0}, {"name": "dd0ad367561a4d27b78d70c90452330c", "is_disabled": 0, "lat": 38.865177833333334, "rental_uris": {"ios": "https://dc.lft.to/lastmile_qr_scan", "android": "https://dc.lft.to/lastmile_qr_scan"}, "bike_id": "dd0ad367561a4d27b78d70c90452330c", "type": "electric_bike", "lon": -77.12939333333334, "is_reserved": 0, "fusion_lat": 0.0, "fusion_lon": 0.0}, {"name": "d9933f76bfb63052df39be4159f4183a", "is_disabled": 0, "lat": 38.91749566666667, "rental_uris": {"ios": "https://dc.lft.to/lastmile_qr_scan", "android": "https://dc.lft.to/lastmile_qr_scan"}, "bike_id": "d9933f76bfb63052df39be4159f4183a", "type": "electric_scooter", "lon": -77.02282283333334, "is_reserved": 0, "fusion_lat": 0.0, "fusion_lon": 0.0}, {"name": "16e1acca5684a814fbe8d561af343535", "is_disabled": 0, "lat": 38.90700966666667, "rental_uris": {"ios": "https://dc.lft.to/lastmile_qr_scan", "android": "https://dc.lft.to/lastmile_qr_scan"}, "bike_id": "16e1acca5684a814fbe8d561af343535", "type": "electric_scooter", "lon": -77.03190633333334, "is_reserved": 0, "fusion_lat": 0.0, "fusion_lon": 0.0}, {"name": "02c27f02684656cb08ca5eb4efc0178e", "is_disabled": 0, "lat": 38.919944666666666, "rental_uris": {"ios": "https://dc.lft.to/lastmile_qr_scan", "android": "https://dc.lft.to/lastmile_qr_scan"}, "bike_id": "02c27f02684656cb08ca5eb4efc0178e", "type": "electric_scooter", "lon": -77.03230783333333, "is_reserved": 0, "fusion_lat": 0.0, "fusion_lon": 0.0}, {"name": "17c37dfcf9dee285a031e7f6d42b4476", "is_disabled": 0, "lat": 38.90360033333333, "rental_uris": {"ios": "https://dc.lft.to/lastmile_qr_scan", "android": "https://dc.lft.to/lastmile_qr_scan"}, "bike_id": "17c37dfcf9dee285a031e7f6d42b4476", "type": "electric_scooter", "lon": -77.03438916666667, "is_reserved": 0, "fusion_lat": 0.0, "fusion_lon": 0.0}, {"name": "f7e99b6829482ce784a7a11605581c00", "is_disabled": 0, "lat": 38.923472, "rental_uris": {"ios": "https://dc.lft.to/lastmile_qr_scan", "android": "https://dc.lft.to/lastmile_qr_scan"}, "bike_id": "f7e99b6829482ce784a7a11605581c00", "type": "electric_scooter", "lon": -77.05177233333333, "is_reserved": 0, "fusion_lat": 0.0, "fusion_lon": 0.0}, {"name": "de1cfaa40a4ade5bcecef479ff3ec13f", "is_disabled": 0, "lat": 38.914057666666665, "rental_uris": {"ios": "https://dc.lft.to/lastmile_qr_scan", "android": "https://dc.lft.to/lastmile_qr_scan"}, "bike_id": "de1cfaa40a4ade5bcecef479ff3ec13f", "type": "electric_scooter", "lon": -77.02206216666667, "is_reserved": 0, "fusion_lat": 0.0, "fusion_lon": 0.0}, {"name": "e4d81c53c960ec29e57782ddb5734f8b", "is_disabled": 0, "lat": 38.905673166666666, "rental_uris": {"ios": "https://dc.lft.to/lastmile_qr_scan", "android": "https://dc.lft.to/lastmile_qr_scan"}, "bike_id": "e4d81c53c960ec29e57782ddb5734f8b", "type": "electric_scooter", "lon": -77.0169595, "is_reserved": 0, "fusion_lat": 0.0, "fusion_lon": 0.0}, {"name": "53e679d29e99646b6a4175967c330b3e", "is_disabled": 0, "lat": 38.90772183333333, "rental_uris": {"ios": "https://dc.lft.to/lastmile_qr_scan", "android": "https://dc.lft.to/lastmile_qr_scan"}, "bike_id": "53e679d29e99646b6a4175967c330b3e", "type": "electric_scooter", "lon": -77.03838416666666, "is_reserved": 0, "fusion_lat": 0.0, "fusion_lon": 0.0}, {"name": "1b8ba462167e5cea8223e6730148a043", "is_disabled": 0, "lat": 38.888175333333336, "rental_uris": {"ios": "https://dc.lft.to/lastmile_qr_scan", "android": "https://dc.lft.to/lastmile_qr_scan"}, "bike_id": "1b8ba462167e5cea8223e6730148a043", "type": "electric_scooter", "lon": -77.01494466666666, "is_reserved": 0, "fusion_lat": 0.0, "fusion_lon": 0.0}, {"name": "e21d005b896e2e743d02a90dc7bcf8b7", "is_disabled": 0, "lat": 38.90274616666667, "rental_uris": {"ios": "https://dc.lft.to/lastmile_qr_scan", "android": "https://dc.lft.to/lastmile_qr_scan"}, "bike_id": "e21d005b896e2e743d02a90dc7bcf8b7", "type": "electric_scooter", "lon": -77.03828716666666, "is_reserved": 0, "fusion_lat": 0.0, "fusion_lon": 0.0}, {"name": "39e291a5d4ff671b7421fcd2803d4f06", "is_disabled": 0, "lat": 38.90144566666667, "rental_uris": {"ios": "https://dc.lft.to/lastmile_qr_scan", "android": "https://dc.lft.to/lastmile_qr_scan"}, "bike_id": "39e291a5d4ff671b7421fcd2803d4f06", "type": "electric_scooter", "lon": -77.04418383333334, "is_reserved": 0, "fusion_lat": 0.0, "fusion_lon": 0.0}, {"name": "fd2ff08504cf63338989a100162525fd", "is_disabled": 0, "lat": 38.898162166666665, "rental_uris": {"ios": "https://dc.lft.to/lastmile_qr_scan", "android": "https://dc.lft.to/lastmile_qr_scan"}, "bike_id": "fd2ff08504cf63338989a100162525fd", "type": "electric_bike", "lon": -77.006013, "is_reserved": 0, "fusion_lat": 0.0, "fusion_lon": 0.0}, {"name": "80b73f6bfe21a40215f9128c450c03f6", "is_disabled": 0, "lat": 38.907347333333334, "rental_uris": {"ios": "https://dc.lft.to/lastmile_qr_scan", "android": "https://dc.lft.to/lastmile_qr_scan"}, "bike_id": "80b73f6bfe21a40215f9128c450c03f6", "type": "electric_scooter", "lon": -77.0320545, "is_reserved": 0, "fusion_lat": 0.0, "fusion_lon": 0.0}, {"name": "fe326b1beef56c6768a9ac83378fe1cc", "is_disabled": 0, "lat": 38.91479233333333, "rental_uris": {"ios": "https://dc.lft.to/lastmile_qr_scan", "android": "https://dc.lft.to/lastmile_qr_scan"}, "bike_id": "fe326b1beef56c6768a9ac83378fe1cc", "type": "electric_scooter", "lon": -77.0257725, "is_reserved": 0, "fusion_lat": 0.0, "fusion_lon": 0.0}, {"name": "98f055643f363f96d93445d75d07d448", "is_disabled": 0, "lat": 38.920458833333335, "rental_uris": {"ios": "https://dc.lft.to/lastmile_qr_scan", "android": "https://dc.lft.to/lastmile_qr_scan"}, "bike_id": "98f055643f363f96d93445d75d07d448", "type": "electric_scooter", "lon": -77.01670833333333, "is_reserved": 0, "fusion_lat": 0.0, "fusion_lon": 0.0}, {"name": "316a2130f4c0494edf1efdba2ee46f64", "is_disabled": 0, "lat": 38.885379, "rental_uris": {"ios": "https://dc.lft.to/lastmile_qr_scan", "android": "https://dc.lft.to/lastmile_qr_scan"}, "bike_id": "316a2130f4c0494edf1efdba2ee46f64", "type": "electric_scooter", "lon": -77.0006315, "is_reserved": 0, "fusion_lat": 0.0, "fusion_lon": 0.0}, {"name": "37733180d2655df2b55063906f3bf536", "is_disabled": 0, "lat": 38.95418733333333, "rental_uris": {"ios": "https://dc.lft.to/lastmile_qr_scan", "android": "https://dc.lft.to/lastmile_qr_scan"}, "bike_id": "37733180d2655df2b55063906f3bf536", "type": "electric_scooter", "lon": -77.027646, "is_reserved": 0, "fusion_lat": 0.0, "fusion_lon": 0.0}, {"name": "e2ead692d4ff68b751229e498c25efe0", "is_disabled": 0, "lat": 38.903900166666666, "rental_uris": {"ios": "https://dc.lft.to/lastmile_qr_scan", "android": "https://dc.lft.to/lastmile_qr_scan"}, "bike_id": "e2ead692d4ff68b751229e498c25efe0", "type": "electric_scooter", "lon": -77.06803733333334, "is_reserved": 0, "fusion_lat": 0.0, "fusion_lon": 0.0}, {"name": "f559dce88cd5e5178f84b52c279e64ec", "is_disabled": 0, "lat": 38.904616833333336, "rental_uris": {"ios": "https://dc.lft.to/lastmile_qr_scan", "android": "https://dc.lft.to/lastmile_qr_scan"}, "bike_id": "f559dce88cd5e5178f84b52c279e64ec", "type": "electric_scooter", "lon": -77.062914, "is_reserved": 0, "fusion_lat": 0.0, "fusion_lon": 0.0}, {"name": "1daca7a30184b0514fab289f2dd7dcaa", "is_disabled": 0, "lat": 38.9076975, "rental_uris": {"ios": "https://dc.lft.to/lastmile_qr_scan", "android": "https://dc.lft.to/lastmile_qr_scan"}, "bike_id": "1daca7a30184b0514fab289f2dd7dcaa", "type": "electric_scooter", "lon": -77.03861766666667, "is_reserved": 0, "fusion_lat": 0.0, "fusion_lon": 0.0}, {"name": "64d5fed30766e5d3e0fa2a4d2ac6f9cb", "is_disabled": 0, "lat": 38.877471, "rental_uris": {"ios": "https://dc.lft.to/lastmile_qr_scan", "android": "https://dc.lft.to/lastmile_qr_scan"}, "bike_id": "64d5fed30766e5d3e0fa2a4d2ac6f9cb", "type": "electric_scooter", "lon": -76.99665716666667, "is_reserved": 0, "fusion_lat": 0.0, "fusion_lon": 0.0}, {"name": "ed111a01176050a3be478d5a08c75f70", "is_disabled": 0, "lat": 38.916994833333334, "rental_uris": {"ios": "https://dc.lft.to/lastmile_qr_scan", "android": "https://dc.lft.to/lastmile_qr_scan"}, "bike_id": "ed111a01176050a3be478d5a08c75f70", "type": "electric_scooter", "lon": -77.02344433333333, "is_reserved": 0, "fusion_lat": 0.0, "fusion_lon": 0.0}, {"name": "13353419db442d793bed7ed12aca388e", "is_disabled": 0, "lat": 38.88539266666667, "rental_uris": {"ios": "https://dc.lft.to/lastmile_qr_scan", "android": "https://dc.lft.to/lastmile_qr_scan"}, "bike_id": "13353419db442d793bed7ed12aca388e", "type": "electric_scooter", "lon": -77.00063716666666, "is_reserved": 0, "fusion_lat": 0.0, "fusion_lon": 0.0}, {"name": "be7f6db85a032eda454eb7ed707c9b72", "is_disabled": 0, "lat": 38.90463583333333, "rental_uris": {"ios": "https://dc.lft.to/lastmile_qr_scan", "android": "https://dc.lft.to/lastmile_qr_scan"}, "bike_id": "be7f6db85a032eda454eb7ed707c9b72", "type": "electric_scooter", "lon": -77.001645, "is_reserved": 0, "fusion_lat": 0.0, "fusion_lon": 0.0},