{"data": {"bikes": [{"lat": 38.90313033333334, "is_disabled": 0, "type": "electric_scooter", "lon": -77.03464066666666, "bike_id": "585a184682ef7f4a130f7a1af8a1b4ef", "fusion_lat": 0.0, "name": "585a184682ef7f4a130f7a1af8a1b4ef", "is_reserved": 0, "rental_uris": {"android": "https://dc.lft.to/lastmile_qr_scan", "ios": "https://dc.lft.to/lastmile_qr_scan"}, "fusion_lon": 0.0}, {"lat": 38.915785666666665, "is_disabled": 0, "type": "electric_scooter", "lon": -77.01236566666667, "bike_id": "80c9b56190a9af88459611c6c577330e", "fusion_lat": 0.0, "name": "80c9b56190a9af88459611c6c577330e", "is_reserved": 0, "rental_uris": {"android": "https://dc.lft.to/lastmile_qr_scan", "ios": "https://dc.lft.to/lastmile_qr_scan"}, "fusion_lon": 0.0}, {"lat": 38.9236135, "is_disabled": 0, "type": "electric_scooter", "lon": -77.05758233333333, "bike_id": "1e1845b8c31714d763925fa8d3aab7fb", "fusion_lat": 0.0, "name": "1e1845b8c31714d763925fa8d3aab7fb", "is_reserved": 0, "rental_uris": {"android": "https://dc.lft.to/lastmile_qr_scan", "ios": "https://dc.lft.to/lastmile_qr_scan"}, "fusion_lon": 0.0}, {"lat": 38.897144, "is_disabled": 0, "type": "electric_scooter", "lon": -77.00801966666667, "bike_id": "9efaf0a72d5717473032b288a0fd66c1", "fusion_lat": 0.0, "name": "9efaf0a72d5717473032b288a0fd66c1", "is_reserved": 0, "rental_uris": {"android": "https://dc.lft.to/lastmile_qr_scan", "ios": "https://dc.lft.to/lastmile_qr_scan"}, "fusion_lon": 0.0}, {"lat": 38.92917333333333, "is_disabled": 0, "type": "electric_scooter", "lon": -77.03254133333333, "bike_id": "71c2fb29038c09c4733fd50e8fe9888e", "fusion_lat": 0.0, "name": "71c2fb29038c09c4733fd50e8fe9888e", "is_reserved": 0, "rental_uris": {"android": "https://dc.lft.to/lastmile_qr_scan", "ios": "https://dc.lft.to/lastmile_qr_scan"}, "fusion_lon": 0.0}, {"lat": 38.90170916666667, "is_disabled": 0, "type": "electric_scooter", "lon": -77.000078, "bike_id": "10f8a5cf6569bc1c8b231d12a5c7d10d", "fusion_lat": 0.0, "name": "10f8a5cf6569bc1c8b231d12a5c7d10d", "is_reserved": 0, "rental_uris": {"android": "https://dc.lft.to/lastmile_qr_scan", "ios": "https://dc.lft.to/lastmile_qr_scan"}, "fusion_lon": 0.0}, {"lat": 38.896288, "is_disabled": 0, "type": "electric_scooter", "lon": -77.02942266666666, "bike_id": "170c2151e5dddb1c26df947d0bcb53d8", "fusion_lat": 0.0, "name": "170c2151e5dddb1c26df947d0bcb53d8", "is_reserved": 0, "rental_uris": {"android": "https://dc.lft.to/lastmile_qr_scan", "ios": "https://dc.lft.to/lastmile_qr_scan"}, "fusion_lon": 0.0}, {"lat": 38.884337, "is_disabled": 0, "type": "electric_scooter", "lon": -77.03044233333334, "bike_id": "e88ecf87539e4eb2145c1ec44be2704f", "fusion_lat": 0.0, "name": "e88ecf87539e4eb2145c1ec44be2704f", "is_reserved": 0, "rental_uris": {"android": "https://dc.lft.to/lastmile_qr_scan", "ios": "https://dc.lft.to/lastmile_qr_scan"}, "fusion_lon": 0.0}, {"lat": 38.92581066666666, "is_disabled": 0, "type": "electric_scooter", "lon": -77.05764516666666, "bike_id": "bbc71a4dc73ec4a720144b1976ff32c3", "fusion_lat": 0.0, "name": "bbc71a4dc73ec4a720144b1976ff32c3", "is_reserved": 0, "rental_uris": {"android": "https://dc.lft.to/lastmile_qr_scan", "ios": "https://dc.lft.to/lastmile_qr_scan"}, "fusion_lon": 0.0}, {"lat": 38.878425666666665, "is_disabled": 0, "type": "electric_scooter", "lon": -77.0227545, "bike_id": "05efa0cb59502bf31840cfe9589b8375", "fusion_lat": 0.0, "name": "05efa0cb59502bf31840cfe9589b8375", "is_reserved": 0, "rental_uris": {"android": "https://dc.lft.to/lastmile_qr_scan", "ios": "https://dc.lft.to/lastmile_qr_scan"}, "fusion_lon": 0.0}, {"lat": 38.90256866666667, "is_disabled": 0, "type": "electric_scooter", "lon": -77.0181025, "bike_id": "e354630f157f1e90cdcbd7bb7cf05960", "fusion_lat": 0.0, "name": "e354630f157f1e90cdcbd7bb7cf05960", "is_reserved": 0, "rental_uris": {"android": "https://dc.lft.to/lastmile_qr_scan", "ios": "https://dc.lft.to/lastmile_qr_scan"}, "fusion_lon": 0.0}, {"lat": 38.8922965, "is_disabled": 0, "type": "electric_scooter", "lon": -77.02799416666667, "bike_id": "8821f82583b334b35b031fd7538a1576", "fusion_lat": 0.0, "name": "8821f82583b334b35b031fd7538a1576", "is_reserved": 0, "rental_uris": {"android": "https://dc.lft.to/lastmile_qr_scan", "ios": "https://dc.lft.to/lastmile_qr_scan"}, "fusion_lon": 0.0}, {"lat": 38.876326, "is_disabled": 0, "type": "electric_scooter", "lon": -77.01474666666667, "bike_id": "e70f9f0cab394ae5b33253161ea38da0", "fusion_lat": 0.0, "name": "e70f9f0cab394ae5b33253161ea38da0", "is_reserved": 0, "rental_uris": {"android": "https://dc.lft.to/lastmile_qr_scan", "ios": "https://dc.lft.to/lastmile_qr_scan"}, "fusion_lon": 0.0}, {"lat": 38.956283666666664, "is_disabled": 0, "type": "electric_bike", "lon": -76.93891, "bike_id": "772467e7c2d38e76a57d6379e920f0d6", "fusion_lat": 0.0, "name": "772467e7c2d38e76a57d6379e920f0d6", "is_reserved": 0, "rental_uris": {"android": "https://dc.lft.to/lastmile_qr_scan", "ios": "https://dc.lft.to/lastmile_qr_scan"}, "fusion_lon": 0.0}, {"lat": 38.88500033333333, "is_disabled": 0, "type": "electric_scooter", "lon": -77.00567633333333, "bike_id": "ecf4f6e81e8b4c6851f479525a5828bc", "fusion_lat": 0.0, "name": "ecf4f6e81e8b4c6851f479525a5828bc", "is_reserved": 0, "rental_uris": {"android": "https://dc.lft.to/lastmile_qr_scan", "ios": "https://dc.lft.to/lastmile_qr_scan"}, "fusion_lon": 0.0}, {"lat": 38.944189333333334, "is_disabled": 0, "type": "electric_scooter", "lon": -77.06308366666667, "bike_id": "14761dfcbb7be21f0a6f231c9d60bdec", "fusion_lat": 0.0, "name": "14761dfcbb7be21f0a6f231c9d60bdec", "is_reserved": 0, "rental_uris": {"android": "https://dc.lft.to/lastmile_qr_scan", "ios": "https://dc.lft.to/lastmile_qr_scan"}, "fusion_lon": 0.0}, {"lat": 38.905313, "is_disabled": 0, "type": "electric_scooter", "lon": -77.06100566666667, "bike_id": "49cb5833e2617f41ec7cf3365f18e5fd", "fusion_lat": 0.0, "name": "49cb5833e2617f41ec7cf3365f18e5fd", "is_reserved": 0, "rental_uris": {"android": "https://dc.lft.to/lastmile_qr_scan", "ios": "https://dc.lft.to/lastmile_qr_scan"}, "fusion_lon": 0.0}, {"lat": 38.899003, "is_disabled": 0, "type": "electric_scooter", "lon": -77.03347966666666, "bike_id": "1bbb2f84b063417c92db3050b7bb8ed3", "fusion_lat": 0.0, "name": "1bbb2f84b063417c92db3050b7bb8ed3", "is_reserved": 0, "rental_uris": {"android": "https://dc.lft.to/lastmile_qr_scan", "ios": "https://dc.lft.to/lastmile_qr_scan"}, "fusion_lon": 0.0}, {"lat": 38.91118633333333, "is_disabled": 0, "type": "electric_scooter", "lon": -77.03131866666666, "bike_id": "8e59c33099caebc2d2dbfc5b073ccac3", "fusion_lat": 0.0, "name": "8e59c33099caebc2d2dbfc5b073ccac3", "is_reserved": 0, "rental_uris": {"android": "https://dc.lft.to/lastmile_qr_scan", "ios": "https://dc.lft.to/lastmile_qr_scan"}, "fusion_lon": 0.0}, {"lat": 38.89234016666666, "is_disabled": 0, "type": "electric_scooter", "lon": -77.02800283333333, "bike_id": "c1794d95749f17c663cc12b777dde711", "fusion_lat": 0.0, "name": "c1794d95749f17c663cc12b777dde711", "is_reserved": 0, "rental_uris": {"android": "https://dc.lft.to/lastmile_qr_scan", "ios": "https://dc.lft.to/lastmile_qr_scan"}, "fusion_lon": 0.0}, {"lat": 38.90034416666667, "is_disabled": 0, "type": "electric_scooter", "lon": -76.988413, "bike_id": "54aca36ef20382761bd49f934e97ba53", "fusion_lat": 0.0, "name": "54aca36ef20382761bd49f934e97ba53", "is_reserved": 0, "rental_uris": {"android": "https://dc.lft.to/lastmile_qr_scan", "ios": "https://dc.lft.to/lastmile_qr_scan"}, "fusion_lon": 0.0}, {"lat": 38.92105433333333, "is_disabled": 0, "type": "electric_scooter", "lon": -77.03180216666667, "bike_id": "8a8e3dafef9fdf67ac9d1ab61df8a4d9", "fusion_lat": 0.0, "name": "8a8e3dafef9fdf67ac9d1ab61df8a4d9", "is_reserved": 0, "rental_uris": {"android": "https://dc.lft.to/lastmile_qr_scan", "ios": "https://dc.lft.to/lastmile_qr_scan"}, "fusion_lon": 0.0}, {"lat": 38.91471266666667, "is_disabled": 0, "type": "electric_scooter", "lon": -77.03194266666667, "bike_id": "3b7f552013df2237bd522e574bf84fa5", "fusion_lat": 0.0, "name": "3b7f552013df2237bd522e574bf84fa5", "is_reserved": 0, "rental_uris": {"android": "https://dc.lft.to/lastmile_qr_scan", "ios": "https://dc.lft.to/lastmile_qr_scan"}, "fusion_lon": 0.0}, {"lat": 38.88514633333333, "is_disabled": 0, "type": "electric_scooter", "lon": -77.00275483333333, "bike_id": "ed486b6f6ea18324cbf39beb8b95f46d", "fusion_lat": 0.0, "name": "ed486b6f6ea18324cbf39beb8b95f46d", "is_reserved": 0, "rental_uris": {"android": "https://dc.lft.to/lastmile_qr_scan", "ios": "https://dc.lft.to/lastmile_qr_scan"}, "fusion_lon": 0.0}, {"lat": 38.866284, "is_disabled": 0, "type": "electric_scooter", "lon": -76.98717716666667, "bike_id": "7d720f2c5e4b59f211932d9e59219e36", "fusion_lat": 0.0, "name": "7d720f2c5e4b59f211932d9e59219e36", "is_reserved": 0, "rental_uris": {"android": "https://dc.lft.to/lastmile_qr_scan", "ios": "https://dc.lft.to/lastmile_qr_scan"}, "fusion_lon": 0.0}, {"lat": 38.899711333333336, "is_disabled": 0, "type": "electric_scooter", "lon": -77.051053, "bike_id": "5164341844cfe928a4dcbe07e5687a43", "fusion_lat": 0.0, "name": "5164341844cfe928a4dcbe07e5687a43", "is_reserved": 0, "rental_uris": {"android": "https://dc.lft.to/lastmile_qr_scan", "ios": "https://dc.lft.to/lastmile_qr_scan"}, "fusion_lon": 0.0}, {"lat": 38.9053095, "is_disabled": 0, "type": "electric_scooter", "lon": -77.056801, "bike_id": "96cd5c9461b48f74f78be8e7ad417409", "fusion_lat": 0.0, "name": "96cd5c9461b48f74f78be8e7ad417409", "is_reserved": 0, "rental_uris": {"android": "https://dc.lft.to/lastmile_qr_scan", "ios": "https://dc.lft.to/lastmile_qr_scan"}, "fusion_lon": 0.0}, {"lat": 38.92900933333333, "is_disabled": 0, "type": "electric_scooter", "lon": -77.0641405, "bike_id": "e191b9be35d64405525322bdce4420c2", "fusion_lat": 0.0, "name": "e191b9be35d64405525322bdce4420c2", "is_reserved": 0, "rental_uris": {"android": "https://dc.lft.to/lastmile_qr_scan", "ios": "https://dc.lft.to/lastmile_qr_scan"}, "fusion_lon": 0.0}, {"lat": 38.842724, "is_disabled": 0, "type": "electric_bike", "lon": -76.9884525, "bike_id": "5e82efd17ece0f4a7c041f745e2b809c", "fusion_lat": 0.0, "name": "5e82efd17ece0f4a7c041f745e2b809c", "is_reserved": 0, "rental_uris": {"android": "https://dc.lft.to/lastmile_qr_scan", "ios": "https://dc.lft.to/lastmile_qr_scan"}, "fusion_lon": 0.0}, {"lat": 38.897665, "is_disabled": 0, "type": "electric_bike", "lon": -76.90442633333333, "bike_id": "dadc5313fa9d72a002f40584283bc9b1", "fusion_lat": 0.0, "name": "dadc5313fa9d72a002f40584283bc9b1", "is_reserved": 0, "rental_uris": {"android": "https://dc.lft.to/lastmile_qr_scan", "ios": "https://dc.lft.to/lastmile_qr_scan"}, "fusion_lon": 0.0}, {"lat": 38.89497716666666, "is_disabled": 0, "type": "electric_scooter", "lon": -77.0275705, "bike_id": "03577d5b84e4a243deefe7e818b1cfa4", "fusion_lat": 0.0, "name": "03577d5b84e4a243deefe7e818b1cfa4", "is_reserved": 0, "rental_uris": {"android": "https://dc.lft.to/lastmile_qr_scan", "ios": "https://dc.lft.to/lastmile_qr_scan"}, "fusion_lon": 0.0}, {"lat": 38.9184015, "is_disabled": 0, "type": "electric_scooter", "lon": -76.96544183333333, "bike_id": "061dac1569128fc8cde669dbbcc34cb7", "fusion_lat": 0.0, "name": "061dac1569128fc8cde669dbbcc34cb7", "is_reserved": 0, "rental_uris": {"android": "https://dc.lft.to/lastmile_qr_scan", "ios": "https://dc.lft.to/lastmile_qr_scan"}, "fusion_lon": 0.0}, {"lat": 38.92152516666667, "is_disabled": 0, "type": "electric_scooter", "lon": -77.04242516666666, "bike_id": "21e85c909480239151e5a59fb86dd998", "fusion_lat": 0.0, "name": "21e85c909480239151e5a59fb86dd998", "is_reserved": 0, "rental_uris": {"android": "https://dc.lft.to/lastmile_qr_scan", "ios": "https://dc.lft.to/lastmile_qr_scan"}, "fusion_lon": 0.0}, {"lat": 38.91478166666667, "is_disabled": 0, "type": "electric_scooter", "lon": -77.03246033333333, "bike_id": "95ca0addaacad0147bc17554db134a0e", "fusion_lat": 0.0, "name": "95ca0addaacad0147bc17554db134a0e", "is_reserved": 0, "rental_uris": {"android": "https://dc.lft.to/lastmile_qr_scan", "ios": "https://dc.lft.to/lastmile_qr_scan"}, "fusion_lon": 0.0}, {"lat": 38.89271183333334, "is_disabled": 0, "type": "electric_scooter", "lon": -77.05042816666666, "bike_id": "c509611b99989356185731083c8fcd42", "fusion_lat": 0.0, "name": "c509611b99989356185731083c8fcd42", "is_reserved": 0, "rental_uris": {"android": "https://dc.lft.to/lastmile_qr_scan", "ios": "https://dc.lft.to/lastmile_qr_scan"}, "fusion_lon": 0.0}, {"lat": 38.84623883333333, "is_disabled": 0, "type": "electric_bike", "lon": -77.06940233333333, "bike_id": "776b43d2db008c3cb02353262558293c", "fusion_lat": 0.0, "name": "776b43d2db008c3cb02353262558293c", "is_reserved": 0, "rental_uris": {"android": "https://dc.lft.to/lastmile_qr_scan", "ios": "https://dc.lft.to/lastmile_qr_scan"}, "fusion_lon": 0.0}, {"lat": 38.91672633333334, "is_disabled": 0, "type": "electric_scooter", "lon": -77.02403533333333, "bike_id": "493de4b275ddc3a47d63f7c1f2115af6", "fusion_lat": 0.0, "name": "493de4b275ddc3a47d63f7c1f2115af6", "is_reserved": 0, "rental_uris": {"android": "https://dc.lft.to/lastmile_qr_scan", "ios": "https://dc.lft.to/lastmile_qr_scan"}, "fusion_lon": 0.0}, {"lat": 38.887388, "is_disabled": 0, "type": "electric_scooter", "lon": -77.02163416666667, "bike_id": "d091871e8b840f0bd3b671c65b13f5e0", "fusion_lat": 0.0, "name": "d091871e8b840f0bd3b671c65b13f5e0", "is_reserved": 0, "rental_uris": {"android": "https://dc.lft.to/lastmile_qr_scan", "ios": "https://dc.lft.to/lastmile_qr_scan"}, "fusion_lon": 0.0}, {"lat": 38.909647, "is_disabled": 0, "type": "electric_scooter", "lon": -77.03950183333333, "bike_id": "bd084257c543c4e098eec4ffee30637b", "fusion_lat": 0.0, "name": "bd084257c543c4e098eec4ffee30637b", "is_reserved": 0, "rental_uris": {"android": "https://dc.lft.to/lastmile_qr_scan", "ios": "https://dc.lft.to/lastmile_qr_scan"}, "fusion_lon": 0.0}, {"lat": 38.932403666666666, "is_disabled": 0, "type": "electric_scooter", "lon": -77.0328185, "bike_id": "31980ad7ef0cba81596a1a24b34bc1f7", "fusion_lat": 0.0, "name": "31980ad7ef0cba81596a1a24b34bc1f7", "is_reserved": 0, "rental_uris": {"android": "https://dc.lft.to/lastmile_qr_scan", "ios": "https://dc.lft.to/lastmile_qr_scan"}, "fusion_lon": 0.0}, {"lat": 38.931351666666664, "is_disabled": 0, "type": "electric_scooter", "lon": -77.05613266666667, "bike_id": "3c1e285bbb4c592abc49e1378d3ce6f6", "fusion_lat": 0.0, "name": "3c1e285bbb4c592abc49e1378d3ce6f6", "is_reserved": 0, "rental_uris": {"android": "https://dc.lft.to/lastmile_qr_scan", "ios": "https://dc.lft.to/lastmile_qr_scan"}, "fusion_lon": 0.0}, {"lat": 38.92206183333333, "is_disabled": 0, "type": "electric_scooter", "lon": -77.04022083333334, "bike_id": "dd9084e0d6cdd563f71e387795a0d087", "fusion_lat": 0.0, "name": "dd9084e0d6cdd563f71e387795a0d087", "is_reserved": 0, "rental_uris": {"android": "https://dc.lft.to/lastmile_qr_scan", "ios": "https://dc.lft.to/lastmile_qr_scan"}, "fusion_lon": 0.0}, {"lat": 38.92345566666667, "is_disabled": 0, "type": "electric_bike", "lon": -76.9925325, "bike_id": "8e462e6bcbf76399c682ddeeb7fe69ea", "fusion_lat": 0.0, "name": "8e462e6bcbf76399c682ddeeb7fe69ea", "is_reserved": 0, "rental_uris": {"android": "https://dc.lft.to/lastmile_qr_scan", "ios": "https://dc.lft.to/lastmile_qr_scan"}, "fusion_lon": 0.0}, {"lat": 38.8887045, "is_disabled": 0, "type": "electric_scooter", "lon": -76.99037716666666, "bike_id": "2444dab932e75364bb73a0ccfb1a0937", "fusion_lat": 0.0, "name": "2444dab932e75364bb73a0ccfb1a0937", "is_reserved": 0, "rental_uris": {"android": "https://dc.lft.to/lastmile_qr_scan", "ios": "https://dc.lft.to/lastmile_qr_scan"}, "fusion_lon": 0.0}, {"lat": 38.961309, "is_disabled": 0, "type": "electric_scooter", "lon": -77.02806166666667, "bike_id": "8b05b7950ae9bde852f474ce89b24a26", "fusion_lat": 0.0, "name": "8b05b7950ae9bde852f474ce89b24a26", "is_reserved": 0, "rental_uris": {"android": "https://dc.lft.to/lastmile_qr_scan", "ios": "https://dc.lft.to/lastmile_qr_scan"}, "fusion_lon": 0.0}, {"lat": 38.88042683333333, "is_disabled": 0, "type": "electric_scooter", "lon": -77.00574533333334, "bike_id": "91a2c71bb57c329b307ec6a6b5750f1f", "fusion_lat": 0.0, "name": "91a2c71bb57c329b307ec6a6b5750f1f", "is_reserved": 0, "rental_uris": {"android": "https://dc.lft.to/lastmile_qr_scan", "ios": "https://dc.lft.to/lastmile_qr_scan"}, "fusion_lon": 0.0}, {"lat": 38.93210633333333, "is_disabled": 0, "type": "electric_scooter", "lon": -77.02343633333334, "bike_id": "24e7833f6896db392fb708d6b0151079", "fusion_lat": 0.0, "name": "24e7833f6896db392fb708d6b0151079", "is_reserved": 0, "rental_uris": {"android": "https://dc.lft.to/lastmile_qr_scan", "ios": "https://dc.lft.to/lastmile_qr_scan"}, "fusion_lon": 0.0}, {"lat": 38.884381833333336, "is_disabled": 0, "type": "electric_scooter", "lon": -77.03044333333334, "bike_id": "22b79d534c638c205fd8f1784a023531", "fusion_lat": 0.0, "name": "22b79d534c638c205fd8f1784a023531", "is_reserved": 0, "rental_uris": {"android": "https://dc.lft.to/lastmile_qr_scan", "ios": "https://dc.lft.to/lastmile_qr_scan"}, "fusion_lon": 0.0}, {"lat": 38.916969, "is_disabled": 0, "type": "electric_scooter", "lon": -77.03092, "bike_id": "39dee51b44c5e0c2cb21bda4be032dd1", "fusion_lat": 0.0, "name": "39dee51b44c5e0c2cb21bda4be032dd1", "is_reserved": 0, "rental_uris": {"android": "https://dc.lft.to/lastmile_qr_scan", "ios": "https://dc.lft.to/lastmile_qr_scan"}, "fusion_lon": 0.0}, {"lat": 38.90538633333333, "is_disabled": 0, "type": "electric_scooter", "lon": -77.05702733333334, "bike_id": "b4f3a4239e4ba1793c079ef8deb01032", "fusion_lat": 0.0, "name": "b4f3a4239e4ba1793c079ef8deb01032", "is_reserved": 0, "rental_uris": {"android": "https://dc.lft.to/lastmile_qr_scan", "ios": "https://dc.lft.to/lastmile_qr_scan"}, "fusion_lon": 0.0}, {"lat": 38.90558166666667, "is_disabled": 0, "type": "electric_scooter", "lon": -77.0569725, "bike_id": "beae335c26c24509bbe346b30f2d2794", "fusion_lat": 0.0, "name": "beae335c26c24509bbe346b30f2d2794", "is_reserved": 0, "rental_uris": {"android": "https://dc.lft.to/lastmile_qr_scan", "ios": "https://dc.lft.to/lastmile_qr_scan"}, "fusion_lon": 0.0}, {"lat": 38.9015375, "is_disabled": 0, "type": "electric_scooter", "lon": -77.0221205, "bike_id": "6d89cd82283060671bb5866888daa6d0", "fusion_lat": 0.0, "name": "6d89cd82283060671bb5866888daa6d0", "is_reserved": 0, "rental_uris": {"android": "https://dc.lft.to/lastmile_qr_scan", "ios": "https://dc.lft.to/lastmile_qr_scan"}, "fusion_lon": 0.0}, {"lat": 38.959546333333336, "is_disabled": 0, "type": "electric_bike", "lon": -77.10095016666666, "bike_id": "3984a365611efd24f6f3beb2157a11c2", "fusion_lat": 0.0, "name": "3984a365611efd24f6f3beb2157a11c2", "is_reserved": 0, "rental_uris": {"android": "https://dc.lft.to/lastmile_qr_scan", "ios": "https://dc.lft.to/lastmile_qr_scan"}, "fusion_lon": 0.0}, {"lat": 38.887452, "is_disabled": 0, "type": "electric_scooter", "lon": -77.02176966666667, "bike_id": "aa79191b3f0e4f314420a1a9c63246d5", "fusion_lat": 0.0, "name": "aa79191b3f0e4f314420a1a9c63246d5", "is_reserved": 0, "rental_uris": {"android": "https://dc.lft.to/lastmile_qr_scan", "ios": "https://dc.lft.to/lastmile_qr_scan"}, "fusion_lon": 0.0}, {"lat": 38.91765216666667, "is_disabled": 0, "type": "electric_scooter", "lon": -77.041792, "bike_id": "1a84411aa092865a8a2ac061e7293d4e", "fusion_lat": 0.0, "name": "1a84411aa092865a8a2ac061e7293d4e", "is_reserved": 0, "rental_uris": {"android": "https://dc.lft.to/lastmile_qr_scan", "ios": "https://dc.lft.to/lastmile_qr_scan"}, "fusion_lon": 0.0}, {"lat": 38.844644333333335, "is_disabled": 0, "type": "electric_scooter", "lon": -76.998437, "bike_id": "1b5d11bc16e8b10ad0f38e6c9ab2dde0", "fusion_lat": 0.0, "name": "1b5d11bc16e8b10ad0f38e6c9ab2dde0", "is_reserved": 0, "rental_uris": {"android": "https://dc.lft.to/lastmile_qr_scan", "ios": "https://dc.lft.to/lastmile_qr_scan"}, "fusion_lon": 0.0}, {"lat": 38.885058666666666, "is_disabled": 0, "type": "electric_scooter", "lon": -77.0056575, "bike_id": "f100640d3838ec1ab6687357f0d308e9", "fusion_lat": 0.0, "name": "f100640d3838ec1ab6687357f0d308e9", "is_reserved": 0, "rental_uris": {"android": "https://dc.lft.to/lastmile_qr_scan", "ios": "https://dc.lft.to/lastmile_qr_scan"}, "fusion_lon": 0.0}, {"lat": 38.9052495, "is_disabled": 0, "type": "electric_scooter", "lon": -76.996403, "bike_id": "1389e25bb1a390a5df682e5ebef9706e", "fusion_lat": 0.0, "name": "1389e25bb1a390a5df682e5ebef9706e", "is_reserved": 0, "rental_uris": {"android": "https://dc.lft.to/lastmile_qr_scan", "ios": "https://dc.lft.to/lastmile_qr_scan"}, "fusion_lon": 0.0}, {"lat": 38.90004866666666, "is_disabled": 0, "type": "electric_scooter", "lon": -76.99856, "bike_id": "1612dd57fe670e5381f661cb5447bb8e", "fusion_lat": 0.0, "name": "1612dd57fe670e5381f661cb5447bb8e", "is_reserved": 0, "rental_uris": {"android": "https://dc.lft.to/lastmile_qr_scan", "ios": "https://dc.lft.to/lastmile_qr_scan"}, "fusion_lon": 0.0}, {"lat": 38.910783333333335, "is_disabled": 0, "type": "electric_scooter", "lon": -77.07653383333333, "bike_id": "df16aa1e0aec2048b8298ad62c446b2b", "fusion_lat": 0.0, "name": "df16aa1e0aec2048b8298ad62c446b2b", "is_reserved": 0, "rental_uris": {"android": "https://dc.lft.to/lastmile_qr_scan", "ios": "https://dc.lft.to/lastmile_qr_scan"}, "fusion_lon": 0.0}, {"lat": 38.90397316666667, "is_disabled": 0, "type": "electric_scooter", "lon": -77.03292133333333, "bike_id": "2b35c79edba332d464b1c42694e65122", "fusion_lat": 0.0, "name": "2b35c79edba332d464b1c42694e65122", "is_reserved": 0, "rental_uris": {"android": "https://dc.lft.to/lastmile_qr_scan", "ios": "https://dc.lft.to/lastmile_qr_scan"}, "fusion_lon": 0.0}, {"lat": 39.015915, "is_disabled": 0, "type": "electric_bike", "lon": -77.04426383333333, "bike_id": "79673a6eb10413aa3e6b11c5b5103d4b", "fusion_lat": 0.0, "name": "79673a6eb10413aa3e6b11c5b5103d4b", "is_reserved": 0, "rental_uris": {"android": "https://dc.lft.to/lastmile_qr_scan", "ios": "https://dc.lft.to/lastmile_qr_scan"}, "fusion_lon": 0.0}, {"lat": 38.90524666666666, "is_disabled": 0, "type": "electric_scooter", "lon": -77.06381866666666, "bike_id": "415b5748d4f8291e8b09d69f8255f6b7", "fusion_lat": 0.0, "name": "415b5748d4f8291e8b09d69f8255f6b7", "is_reserved": 0, "rental_uris": {"android": "https://dc.lft.to/lastmile_qr_scan", "ios": "https://dc.lft.to/lastmile_qr_scan"}, "fusion_lon": 0.0}, {"lat": 38.884211, "is_disabled": 0, "type": "electric_scooter", "lon": -77.03055166666667, "bike_id": "66179771a9d37ef4295d36d3186edb42", "fusion_lat": 0.0, "name": "66179771a9d37ef4295d36d3186edb42", "is_reserved": 0, "rental_uris": {"android": "https://dc.lft.to/lastmile_qr_scan", "ios": "https://dc.lft.to/lastmile_qr_scan"}, "fusion_lon": 0.0}, {"lat": 38.8750635, "is_disabled": 0, "type": "electric_bike", "lon": -77.02588316666667, "bike_id": "9de593581d6a4312a32806087de769e5", "fusion_lat": 0.0, "name": "9de593581d6a4312a32806087de769e5", "is_reserved": 0, "rental_uris": {"android": "https://dc.lft.to/lastmile_qr_scan", "ios": "https://dc.lft.to/lastmile_qr_scan"}, "fusion_lon": 0.0}, {"lat": 38.891238666666666, "is_disabled": 0, "type": "electric_scooter", "lon": -76.94091683333333, "bike_id": "41fe41655242b5fdced0c3d3cec6cfc7", "fusion_lat": 0.0, "name": "41fe41655242b5fdced0c3d3cec6cfc7", "is_reserved": 0, "rental_uris": {"android": "https://dc.lft.to/lastmile_qr_scan", "ios": "https://dc.lft.to/lastmile_qr_scan"}, "fusion_lon": 0.0}, {"lat": 38.90285033333333, "is_disabled": 0, "type": "electric_scooter", "lon": -77.03300883333333, "bike_id": "8856a643d818c8d49765f7a2d3e6e5ec", "fusion_lat": 0.0, "name": "8856a643d818c8d49765f7a2d3e6e5ec", "is_reserved": 0, "rental_uris": {"android": "https://dc.lft.to/lastmile_qr_scan", "ios": "https://dc.lft.to/lastmile_qr_scan"}, "fusion_lon": 0.0}, {"lat": 38.919571833333336, "is_disabled": 0, "type": "electric_bike", "lon": -76.97272833333334, "bike_id": "8bbdb5434d9aee596fc06e5d5e69bb27", "fusion_lat": 0.0, "name": "8bbdb5434d9aee596fc06e5d5e69bb27", "is_reserved": 0, "rental_uris": {"android": "https://dc.lft.to/lastmile_qr_scan", "ios": "https://dc.lft.to/lastmile_qr_scan"}, "fusion_lon": 0.0}, {"lat": 38.91099883333333, "is_disabled": 0, "type": "electric_scooter", "lon": -77.03564183333333, "bike_id": "d4c40681633581a1c0ab93e59b235b16", "fusion_lat": 0.0, "name": "d4c40681633581a1c0ab93e59b235b16", "is_reserved": 0, "rental_uris": {"android": "https://dc.lft.to/lastmile_qr_scan", "ios": "https://dc.lft.to/lastmile_qr_scan"}, "fusion_lon": 0.0}, {"lat": 38.8976475, "is_disabled": 0, "type": "electric_scooter", "lon": -77.0437635, "bike_id": "0e1baae55ee69476704cf3d3c2a02144", "fusion_lat": 0.0, "name": "0e1baae55ee69476704cf3d3c2a02144", "is_reserved": 0, "rental_uris": {"android": "https://dc.lft.to/lastmile_qr_scan", "ios": "https://dc.lft.to/lastmile_qr_scan"}, "fusion_lon": 0.0}, {"lat": 38.902781, "is_disabled": 0, "type": "electric_scooter", "lon": -77.03366266666667, "bike_id": "7109924c3f15df4ef96f82483490b1e8", "fusion_lat": 0.0, "name": "7109924c3f15df4ef96f82483490b1e8", "is_reserved": 0, "rental_uris": {"android": "https://dc.lft.to/lastmile_qr_scan", "ios": "https://dc.lft.to/lastmile_qr_scan"}, "fusion_lon": 0.0}, {"lat": 38.9627555, "is_disabled": 0, "type": "electric_bike", "lon": -77.03252866666666, "bike_id": "44cb13d4bfdd7b52ea098748d9b2cfca", "fusion_lat": 0.0, "name": "44cb13d4bfdd7b52ea098748d9b2cfca", "is_reserved": 0, "rental_uris": {"android": "https://dc.lft.to/lastmile_qr_scan", "ios": "https://dc.lft.to/lastmile_qr_scan"}, "fusion_lon": 0.0}, {"lat": 38.915761333333336, "is_disabled": 0, "type": "electric_scooter", "lon": -77.04683666666666, "bike_id": "f60818de08055144b757bc76bd371dcb", "fusion_lat": 0.0, "name": "f60818de08055144b757bc76bd371dcb", "is_reserved": 0, "rental_uris": {"android": "https://dc.lft.to/lastmile_qr_scan", "ios": "https://dc.lft.to/lastmile_qr_scan"}, "fusion_lon": 0.0}, {"lat": 38.883168833333336, "is_disabled": 0, "type": "electric_scooter", "lon": -77.01546383333333, "bike_id": "ab9b32930e90feac7256f3ba9c19aa49", "fusion_lat": 0.0, "name": "ab9b32930e90feac7256f3ba9c19aa49", "is_reserved": 0, "rental_uris": {"android": "https://dc.lft.to/lastmile_qr_scan", "ios": "https://dc.lft.to/lastmile_qr_scan"}, "fusion_lon": 0.0}, {"lat": 38.902137, "is_disabled": 0, "type": "electric_scooter", "lon": -76.945918, "bike_id": "d188f384a122ff0f39f5442a44a20e8b", "fusion_lat": 0.0, "name": "d188f384a122ff0f39f5442a44a20e8b", "is_reserved": 0, "rental_uris": {"android": "https://dc.lft.to/lastmile_qr_scan", "ios": "https://dc.lft.to/lastmile_qr_scan"}, "fusion_lon": 0.0}, {"lat": 38.94955016666667, "is_disabled": 0, "type": "electric_scooter", "lon": -77.01616866666667, "bike_id": "a5488d663fcb71c59c6c0c7eac3348bf", "fusion_lat": 0.0, "name": "a5488d663fcb71c59c6c0c7eac3348bf", "is_reserved": 0, "rental_uris": {"android": "https://dc.lft.to/lastmile_qr_scan", "ios": "https://dc.lft.to/lastmile_qr_scan"}, "fusion_lon": 0.0}, {"lat": 38.93012483333333, "is_disabled": 0, "type": "electric_bike", "lon": -77.21650183333334, "bike_id": "065a03344bb056375fe82d634417c287", "fusion_lat": 0.0, "name": "065a03344bb056375fe82d634417c287", "is_reserved": 0, "rental_uris": {"android": "https://dc.lft.to/lastmile_qr_scan", "ios": "https://dc.lft.to/lastmile_qr_scan"}, "fusion_lon": 0.0}, {"lat": 38.91717033333333, "is_disabled": 0, "type": "electric_scooter", "lon": -77.03843233333333, "bike_id": "5325b93303670e58a954d371e3dff1e0", "fusion_lat": 0.0, "name": "5325b93303670e58a954d371e3dff1e0", "is_reserved": 0, "rental_uris": {"android": "https://dc.lft.to/lastmile_qr_scan", "ios": "https://dc.lft.to/lastmile_qr_scan"}, "fusion_lon": 0.0}, {"lat": 38.92257216666667, "is_disabled": 0, "type": "electric_scooter", "lon": -77.030747, "bike_id": "842893167d797597772bea2205851786", "fusion_lat": 0.0, "name": "842893167d797597772bea2205851786", "is_reserved": 0, "rental_uris": {"android": "https://dc.lft.to/lastmile_qr_scan", "ios": "https://dc.lft.to/lastmile_qr_scan"}, "fusion_lon": 0.0}, {"lat": 38.91108466666667, "is_disabled": 0, "type": "electric_scooter", "lon": -77.03221566666667, "bike_id": "5aa0331ff79d711d5e03412fb498aaa1", "fusion_lat": 0.0, "name": "5aa0331ff79d711d5e03412fb498aaa1", "is_reserved": 0, "rental_uris": {"android": "https://dc.lft.to/lastmile_qr_scan", "ios": "https://dc.lft.to/lastmile_qr_scan"}, "fusion_lon": 0.0}, {"lat": 38.90845983333333, "is_disabled": 0, "type": "electric_scooter", "lon": -77.01263716666666, "bike_id": "832e74a40f8d1952f5d5246be6711040", "fusion_lat": 0.0, "name": "832e74a40f8d1952f5d5246be6711040", "is_reserved": 0, "rental_uris": {"android": "https://dc.lft.to/lastmile_qr_scan", "ios": "https://dc.lft.to/lastmile_qr_scan"}, "fusion_lon": 0.0}, {"lat": 38.966071166666666, "is_disabled": 0, "type": "electric_bike", "lon": -77.03658433333334, "bike_id": "64999c295547e8dbe7b57540465666fb", "fusion_lat": 0.0, "name": "64999c295547e8dbe7b57540465666fb", "is_reserved": 0, "rental_uris": {"android": "https://dc.lft.to/lastmile_qr_scan", "ios": "https://dc.lft.to/lastmile_qr_scan"}, "fusion_lon": 0.0}, {"lat": 38.975316, "is_disabled": 0, "type": "electric_scooter", "lon": -77.01689266666666, "bike_id": "c5c2b143b0e6c04b0c892a1246a00f35", "fusion_lat": 0.0, "name": "c5c2b143b0e6c04b0c892a1246a00f35", "is_reserved": 0, "rental_uris": {"android": "https://dc.lft.to/lastmile_qr_scan", "ios": "https://dc.lft.to/lastmile_qr_scan"}, "fusion_lon": 0.0}, {"lat": 38.81220716666667, "is_disabled": 0, "type": "electric_bike", "lon": -77.10987533333333, "bike_id": "85c44bd2ce06c7f3a4d91b8928bca79b", "fusion_lat": 0.0, "name": "85c44bd2ce06c7f3a4d91b8928bca79b", "is_reserved": 0, "rental_uris": {"android": "https://dc.lft.to/lastmile_qr_scan", "ios": "https://dc.lft.to/lastmile_qr_scan"}, "fusion_lon": 0.0}, {"lat": 38.899497333333336, "is_disabled": 0, "type": "electric_scooter", "lon": -77.01630666666667, "bike_id": "d402367bc28a2c24a81129bbfe964d0a", "fusion_lat": 0.0, "name": "d402367bc28a2c24a81129bbfe964d0a", "is_reserved": 0, "rental_uris": {"android": "https://dc.lft.to/lastmile_qr_scan", "ios": "https://dc.lft.to/lastmile_qr_scan"}, "fusion_lon": 0.0}, {"lat": 38.92336783333333, "is_disabled": 0, "type": "electric_scooter", "lon": -77.05073816666666, "bike_id": "298a90e4eadd77979f6f7d8530065ca7", "fusion_lat": 0.0, "name": "298a90e4eadd77979f6f7d8530065ca7", "is_reserved": 0, "rental_uris": {"android": "https://dc.lft.to/lastmile_qr_scan", "ios": "https://dc.lft.to/lastmile_qr_scan"}, "fusion_lon": 0.0}, {"lat": 38.91699633333333, "is_disabled": 0, "type": "electric_scooter", "lon": -77.03888333333333, "bike_id": "5240ee61f9136627a74310676388d49e", "fusion_lat": 0.0, "name": "5240ee61f9136627a74310676388d49e", "is_reserved": 0, "rental_uris": {"android": "https://dc.lft.to/lastmile_qr_scan", "ios": "https://dc.lft.to/lastmile_qr_scan"}, "fusion_lon": 0.0}, {"lat": 38.845895, "is_disabled": 0, "type": "electric_bike", "lon": -77.07682433333333, "bike_id": "386f994da8cf663331f6d335285dfbfb", "fusion_lat": 0.0, "name": "386f994da8cf663331f6d335285dfbfb", "is_reserved": 0, "rental_uris": {"android": "https://dc.lft.to/lastmile_qr_scan", "ios": "https://dc.lft.to/lastmile_qr_scan"}, "fusion_lon": 0.0}, {"lat": 38.905668666666664, "is_disabled": 0, "type": "electric_scooter", "lon": -77.02224183333334, "bike_id": "05d1b2efa46451ff4ca650713c0c1f39", "fusion_lat": 0.0, "name": "05d1b2efa46451ff4ca650713c0c1f39", "is_reserved": 0, "rental_uris": {"android": "https://dc.lft.to/lastmile_qr_scan", "ios": "https://dc.lft.to/lastmile_qr_scan"}, "fusion_lon": 0.0}, {"lat": 38.8661625, "is_disabled": 0, "type": "electric_scooter", "lon": -76.98666733333333, "bike_id": "cedf44efdf3ff581afc3c1607ed2bd49", "fusion_lat": 0.0, "name": "cedf44efdf3ff581afc3c1607ed2bd49", "is_reserved": 0, "rental_uris": {"android": "https://dc.lft.to/lastmile_qr_scan", "ios": "https://dc.lft.to/lastmile_qr_scan"}, "fusion_lon": 0.0}, {"lat": 39.030452333333336, "is_disabled": 0, "type": "electric_bike", "lon": -77.09487183333333, "bike_id": "4c0fda62edfa261787e21ccf3e3a923c", "fusion_lat": 0.0, "name": "4c0fda62edfa261787e21ccf3e3a923c", "is_reserved": 0, "rental_uris": {"android": "https://dc.lft.to/lastmile_qr_scan", "ios": "https://dc.lft.to/lastmile_qr_scan"}, "fusion_lon": 0.0}, {"lat": 38.936103, "is_disabled": 0, "type": "electric_scooter", "lon": -77.03218516666666, "bike_id": "ddd5743327d9d620db525b519feb0b7d", "fusion_lat": 0.0, "name": "ddd5743327d9d620db525b519feb0b7d", "is_reserved": 0, "rental_uris": {"android": "https://dc.lft.to/lastmile_qr_scan", "ios": "https://dc.lft.to/lastmile_qr_scan"}, "fusion_lon": 0.0}, {"lat": 38.885792333333335, "is_disabled": 0, "type": "electric_scooter", "lon": -77.01231583333333, "bike_id": "fe53b876f5e1c2a3d307b00c05f480ce", "fusion_lat": 0.0, "name": "fe53b876f5e1c2a3d307b00c05f480ce", "is_reserved": 0, "rental_uris": {"android": "https://dc.lft.to/lastmile_qr_scan", "ios": "https://dc.lft.to/lastmile_qr_scan"}, "fusion_lon": 0.0}, {"lat": 38.91076483333333, "is_disabled": 0, "type": "electric_scooter", "lon": -77.04083333333334, "bike_id": "109dbc95d10f33dd2dcdad9c5fe283f7", "fusion_lat": 0.0, "name": "109dbc95d10f33dd2dcdad9c5fe283f7", "is_reserved": 0, "rental_uris": {"android": "https://dc.lft.to/lastmile_qr_scan", "ios": "https://dc.lft.to/lastmile_qr_scan"}, "fusion_lon": 0.0}, {"lat": 38.9141865, "is_disabled": 0, "type": "electric_scooter", "lon": -77.03258983333333, "bike_id": "2997fa27f90553548fddd970ef9d7a5d", "fusion_lat": 0.0, "name": "2997fa27f90553548fddd970ef9d7a5d", "is_reserved": 0, "rental_uris": {"android": "https://dc.lft.to/lastmile_qr_scan", "ios": "https://dc.lft.to/lastmile_qr_scan"}, "fusion_lon": 0.0}, {"lat": 38.928229, "is_disabled": 0, "type": "electric_scooter", "lon": -77.02256666666666, "bike_id": "23f09212b9038e1263dfbec8c642f815", "fusion_lat": 0.0, "name": "23f09212b9038e1263dfbec8c642f815", "is_reserved": 0, "rental_uris": {"android": "https://dc.lft.to/lastmile_qr_scan", "ios": "https://dc.lft.to/lastmile_qr_scan"}, "fusion_lon": 0.0}, {"lat": 39.02423866666667, "is_disabled": 0, "type": "electric_bike", "lon": -77.1310965, "bike_id": "2d6bd8ae14bd7133449714dc13d447f2", "fusion_lat": 0.0, "name": "2d6bd8ae14bd7133449714dc13d447f2", "is_reserved": 0, "rental_uris": {"android": "https://dc.lft.to/lastmile_qr_scan", "ios": "https://dc.lft.to/lastmile_qr_scan"}, "fusion_lon": 0.0}, {"lat": 38.930816, "is_disabled": 0, "type": "electric_scooter", "lon": -76.96720316666666, "bike_id": "28ce5355f219f77fb2e6d6fd12f60d2a", "fusion_lat": 0.0, "name": "28ce5355f219f77fb2e6d6fd12f60d2a", "is_reserved": 0, "rental_uris": {"android": "https://dc.lft.to/lastmile_qr_scan", "ios": "https://dc.lft.to/lastmile_qr_scan"}, "fusion_lon": 0.0}, {"lat": 38.96488566666667, "is_disabled": 0, "type": "electric_bike", "lon": -76.9384495, "bike_id": "b04034b7e43b00eff9987748fca3a2ab", "fusion_lat": 0.0, "name": "b04034b7e43b00eff9987748fca3a2ab", "is_reserved": 0, "rental_uris": {"android": "https://dc.lft.to/lastmile_qr_scan", "ios": "https://dc.lft.to/lastmile_qr_scan"}, "fusion_lon": 0.0}, {"lat": 38.916442333333336, "is_disabled": 0, "type": "electric_scooter", "lon": -77.03175466666667, "bike_id": "72b762b5c5561aeac8f5207bd5e6a32c", "fusion_lat": 0.0, "name": "72b762b5c5561aeac8f5207bd5e6a32c", "is_reserved": 0, "rental_uris": {"android": "https://dc.lft.to/lastmile_qr_scan", "ios": "https://dc.lft.to/lastmile_qr_scan"}, "fusion_lon": 0.0}, {"lat": 38.906056166666666, "is_disabled": 0, "type": "electric_scooter", "lon": -77.06309933333333, "bike_id": "d80987650e290b41e33ece1617cda1e2", "fusion_lat": 0.0, "name": "d80987650e290b41e33ece1617cda1e2", "is_reserved": 0, "rental_uris": {"android": "https://dc.lft.to/lastmile_qr_scan", "ios": "https://dc.lft.to/lastmile_qr_scan"}, "fusion_lon": 0.0}, {"lat": 38.9168995, "is_disabled": 0, "type": "electric_scooter", "lon": -77.02956116666667, "bike_id": "f8c4d96f7007d420ec048770d19d1c8f", "fusion_lat": 0.0, "name": "f8c4d96f7007d420ec048770d19d1c8f", "is_reserved": 0, "rental_uris": {"android": "https://dc.lft.to/lastmile_qr_scan", "ios": "https://dc.lft.to/lastmile_qr_scan"}, "fusion_lon": 0.0}, {"lat": 38.925907333333335, "is_disabled": 0, "type": "electric_scooter", "lon": -77.05694866666667, "bike_id": "d46f8050562bf6f0f43ce56d443cd79d", "fusion_lat": 0.0, "name": "d46f8050562bf6f0f43ce56d443cd79d", "is_reserved": 0, "rental_uris": {"android": "https://dc.lft.to/lastmile_qr_scan", "ios": "https://dc.lft.to/lastmile_qr_scan"}, "fusion_lon": 0.0}, {"lat": 38.93073116666667, "is_disabled": 0, "type": "electric_scooter", "lon": -77.02267633333334, "bike_id": "a2ee629b53d25040bec5060afe457322", "fusion_lat": 0.0, "name": "a2ee629b53d25040bec5060afe457322", "is_reserved": 0, "rental_uris": {"android": "https://dc.lft.to/lastmile_qr_scan", "ios": "https://dc.lft.to/lastmile_qr_scan"}, "fusion_lon": 0.0}, {"lat": 38.90953066666667, "is_disabled": 0, "type": "electric_scooter", "lon": -77.03383683333334, "bike_id": "952e7d5bb82f620acbd23de9bfc206e0", "fusion_lat": 0.0, "name": "952e7d5bb82f620acbd23de9bfc206e0", "is_reserved": 0, "rental_uris": {"android": "https://dc.lft.to/lastmile_qr_scan", "ios": "https://dc.lft.to/lastmile_qr_scan"}, "fusion_lon": 0.0}, {"lat": 38.9167925, "is_disabled": 0, "type": "electric_scooter", "lon": -77.02972633333333, "bike_id": "3512cb9e2eca10841f6d697a80412bd0", "fusion_lat": 0.0, "name": "3512cb9e2eca10841f6d697a80412bd0", "is_reserved": 0, "rental_uris": {"android": "https://dc.lft.to/lastmile_qr_scan", "ios": "https://dc.lft.to/lastmile_qr_scan"}, "fusion_lon": 0.0}, {"lat": 38.894656833333336, "is_disabled": 0, "type": "electric_bike", "lon": -76.9484095, "bike_id": "9e3c75edfc45fc25b1aa8a81b039fd17", "fusion_lat": 0.0, "name": "9e3c75edfc45fc25b1aa8a81b039fd17", "is_reserved": 0, "rental_uris": {"android": "https://dc.lft.to/lastmile_qr_scan", "ios": "https://dc.lft.to/lastmile_qr_scan"}, "fusion_lon": 0.0}, {"lat": 38.90111733333333, "is_disabled": 0, "type": "electric_scooter", "lon": -77.03176783333333, "bike_id": "137e3f4772f40863c198b771881ea9ac", "fusion_lat": 0.0, "name": "137e3f4772f40863c198b771881ea9ac", "is_reserved": 0, "rental_uris": {"android": "https://dc.lft.to/lastmile_qr_scan", "ios": "https://dc.lft.to/lastmile_qr_scan"}, "fusion_lon": 0.0}, {"lat": 38.90741333333333, "is_disabled": 0, "type": "electric_scooter", "lon": -77.00102433333333, "bike_id": "df6623f5dca40f7fc5aba3dfd19eaed3", "fusion_lat": 0.0, "name": "df6623f5dca40f7fc5aba3dfd19eaed3", "is_reserved": 0, "rental_uris": {"android": "https://dc.lft.to/lastmile_qr_scan", "ios": "https://dc.lft.to/lastmile_qr_scan"}, "fusion_lon": 0.0}, {"lat": 38.92324883333333, "is_disabled": 0, "type": "electric_scooter", "lon": -77.03893733333334, "bike_id": "d65b93ee389308994d87eafecae40cab", "fusion_lat": 0.0, "name": "d65b93ee389308994d87eafecae40cab", "is_reserved": 0, "rental_uris": {"android": "https://dc.lft.to/lastmile_qr_scan", "ios": "https://dc.lft.to/lastmile_qr_scan"}, "fusion_lon": 0.0}, {"lat": 38.91602433333333, "is_disabled": 0, "type": "electric_scooter", "lon": -77.02290816666667, "bike_id": "56fa4f77751e6fb7adddcda5fba05926", "fusion_lat": 0.0, "name": "56fa4f77751e6fb7adddcda5fba05926", "is_reserved": 0, "rental_uris": {"android": "https://dc.lft.to/lastmile_qr_scan", "ios": "https://dc.lft.to/lastmile_qr_scan"}, "fusion_lon": 0.0}, {"lat": 38.918205, "is_disabled": 0, "type": "electric_scooter", "lon": -77.03210016666667, "bike_id": "3f67face4e4b3282ec81f7e74fd77be2", "fusion_lat": 0.0, "name": "3f67face4e4b3282ec81f7e74fd77be2", "is_reserved": 0, "rental_uris": {"android": "https://dc.lft.to/lastmile_qr_scan", "ios": "https://dc.lft.to/lastmile_qr_scan"}, "fusion_lon": 0.0}, {"lat": 38.92588883333333, "is_disabled": 0, "type": "electric_scooter", "lon": -77.03226466666666, "bike_id": "251438908d54001db9682ae761d904d7", "fusion_lat": 0.0, "name": "251438908d54001db9682ae761d904d7", "is_reserved": 0, "rental_uris": {"android": "https://dc.lft.to/lastmile_qr_scan", "ios": "https://dc.lft.to/lastmile_qr_scan"}, "fusion_lon": 0.0}, {"lat": 38.907779, "is_disabled": 0, "type": "electric_scooter", "lon": -77.04453466666666, "bike_id": "1bc13c0b73b096faed970a24a27bb792", "fusion_lat": 0.0, "name": "1bc13c0b73b096faed970a24a27bb792", "is_reserved": 0, "rental_uris": {"android": "https://dc.lft.to/lastmile_qr_scan", "ios": "https://dc.lft.to/lastmile_qr_scan"}, "fusion_lon": 0.0}, {"lat": 38.90568733333333, "is_disabled": 0, "type": "electric_scooter", "lon": -77.0058065, "bike_id": "2ab22ed25d2a3973e53e246f6f833d17", "fusion_lat": 0.0, "name": "2ab22ed25d2a3973e53e246f6f833d17", "is_reserved": 0, "rental_uris": {"android": "https://dc.lft.to/lastmile_qr_scan", "ios": "https://dc.lft.to/lastmile_qr_scan"}, "fusion_lon": 0.0}, {"lat": 38.9387835, "is_disabled": 0, "type": "electric_scooter", "lon": -77.03285666666666, "bike_id": "9df1edcc04dddf649c03198309ae7d5d", "fusion_lat": 0.0, "name": "9df1edcc04dddf649c03198309ae7d5d", "is_reserved": 0, "rental_uris": {"android": "https://dc.lft.to/lastmile_qr_scan", "ios": "https://dc.lft.to/lastmile_qr_scan"}, "fusion_lon": 0.0}, {"lat": 38.86991166666667, "is_disabled": 0, "type": "electric_bike", "lon": -76.95991466666666, "bike_id": "1033d4fe511eef9f1faf842dc99250ae", "fusion_lat": 0.0, "name": "1033d4fe511eef9f1faf842dc99250ae", "is_reserved": 0, "rental_uris": {"android": "https://dc.lft.to/lastmile_qr_scan", "ios": "https://dc.lft.to/lastmile_qr_scan"}, "fusion_lon": 0.0}, {"lat": 38.8982825, "is_disabled": 0, "type": "electric_scooter", "lon": -77.03169166666666, "bike_id": "9012d38e0d321d157e8c519b2cb192b4", "fusion_lat": 0.0, "name": "9012d38e0d321d157e8c519b2cb192b4", "is_reserved": 0, "rental_uris": {"android": "https://dc.lft.to/lastmile_qr_scan", "ios": "https://dc.lft.to/lastmile_qr_scan"}, "fusion_lon": 0.0}, {"lat": 38.877497, "is_disabled": 0, "type": "electric_scooter", "lon": -77.00314983333334, "bike_id": "664510f028f713a444ea7aec4a386d6c", "fusion_lat": 0.0, "name": "664510f028f713a444ea7aec4a386d6c", "is_reserved": 0, "rental_uris": {"android": "https://dc.lft.to/lastmile_qr_scan", "ios": "https://dc.lft.to/lastmile_qr_scan"}, "fusion_lon": 0.0}, {"lat": 38.93254133333333, "is_disabled": 0, "type": "electric_scooter", "lon": -77.03289366666667, "bike_id": "b3dce64669f66e4ce2aa933b0fecf070", "fusion_lat": 0.0, "name": "b3dce64669f66e4ce2aa933b0fecf070", "is_reserved": 0, "rental_uris": {"android": "https://dc.lft.to/lastmile_qr_scan", "ios": "https://dc.lft.to/lastmile_qr_scan"}, "fusion_lon": 0.0}, {"lat": 38.89737483333333, "is_disabled": 0, "type": "electric_scooter", "lon": -77.04685733333334, "bike_id": "096210f309088d616af43fe6ae6dc89c", "fusion_lat": 0.0, "name": "096210f309088d616af43fe6ae6dc89c", "is_reserved": 0, "rental_uris": {"android": "https://dc.lft.to/lastmile_qr_scan", "ios": "https://dc.lft.to/lastmile_qr_scan"}, "fusion_lon": 0.0}, {"lat": 38.895408, "is_disabled": 0, "type": "electric_scooter", "lon": -77.02176516666667, "bike_id": "59a6e281e35d5debac120d9dc4b2fb39", "fusion_lat": 0.0, "name": "59a6e281e35d5debac120d9dc4b2fb39", "is_reserved": 0, "rental_uris": {"android": "https://dc.lft.to/lastmile_qr_scan", "ios": "https://dc.lft.to/lastmile_qr_scan"}, "fusion_lon": 0.0}, {"lat": 38.90827633333333, "is_disabled": 0, "type": "electric_scooter", "lon": -76.99699683333333, "bike_id": "250f6ff31fab450d538da836fbf56982", "fusion_lat": 0.0, "name": "250f6ff31fab450d538da836fbf56982", "is_reserved": 0, "rental_uris": {"android": "https://dc.lft.to/lastmile_qr_scan", "ios": "https://dc.lft.to/lastmile_qr_scan"}, "fusion_lon": 0.0}, {"lat": 38.89219933333333, "is_disabled": 0, "type": "electric_scooter", "lon": -77.02689566666666, "bike_id": "eaa6bd5d1248b500a08cc6628d5bc344", "fusion_lat": 0.0, "name": "eaa6bd5d1248b500a08cc6628d5bc344", "is_reserved": 0, "rental_uris": {"android": "https://dc.lft.to/lastmile_qr_scan", "ios": "https://dc.lft.to/lastmile_qr_scan"}, "fusion_lon": 0.0}, {"lat": 38.984971, "is_disabled": 0, "type": "electric_bike", "lon": -76.98200916666667, "bike_id": "8448895e2c7c9ccc4347d68ae236134c", "fusion_lat": 0.0, "name": "8448895e2c7c9ccc4347d68ae236134c", "is_reserved": 0, "rental_uris": {"android": "https://dc.lft.to/lastmile_qr_scan", "ios": "https://dc.lft.to/lastmile_qr_scan"}, "fusion_lon": 0.0}, {"lat": 38.907728166666665, "is_disabled": 0, "type": "electric_scooter", "lon": -77.03670283333334, "bike_id": "839c3e562c2695b026a3b2e89115fab0", "fusion_lat": 0.0, "name": "839c3e562c2695b026a3b2e89115fab0", "is_reserved": 0, "rental_uris": {"android": "https://dc.lft.to/lastmile_qr_scan", "ios": "https://dc.lft.to/lastmile_qr_scan"}, "fusion_lon": 0.0}, {"lat": 38.911239333333334, "is_disabled": 0, "type": "electric_scooter", "lon": -77.02208783333333, "bike_id": "ed73e7af767e2d97b5d83d22d7637744", "fusion_lat": 0.0, "name": "ed73e7af767e2d97b5d83d22d7637744", "is_reserved": 0, "rental_uris": {"android": "https://dc.lft.to/lastmile_qr_scan", "ios": "https://dc.lft.to/lastmile_qr_scan"}, "fusion_lon": 0.0}, {"lat": 38.82262633333333, "is_disabled": 0, "type": "electric_bike", "lon": -77.058206, "bike_id": "c98ed9e59d3ff60b9fb84de064c76888", "fusion_lat": 0.0, "name": "c98ed9e59d3ff60b9fb84de064c76888", "is_reserved": 0, "rental_uris": {"android": "https://dc.lft.to/lastmile_qr_scan", "ios": "https://dc.lft.to/lastmile_qr_scan"}, "fusion_lon": 0.0}, {"lat": 38.896413333333335, "is_disabled": 0, "type": "electric_scooter", "lon": -77.0089965, "bike_id": "48e265dbfe6e4083704cebe0800518f3", "fusion_lat": 0.0, "name": "48e265dbfe6e4083704cebe0800518f3", "is_reserved": 0, "rental_uris": {"android": "https://dc.lft.to/lastmile_qr_scan", "ios": "https://dc.lft.to/lastmile_qr_scan"}, "fusion_lon": 0.0}, {"lat": 38.921240833333336, "is_disabled": 0, "type": "electric_scooter", "lon": -77.036614, "bike_id": "ebd0719ef6499a263bc2b50b3af6c2d6", "fusion_lat": 0.0, "name": "ebd0719ef6499a263bc2b50b3af6c2d6", "is_reserved": 0, "rental_uris": {"android": "https://dc.lft.to/lastmile_qr_scan", "ios": "https://dc.lft.to/lastmile_qr_scan"}, "fusion_lon": 0.0}, {"lat": 38.857217, "is_disabled": 0, "type": "electric_scooter", "lon": -76.97889616666667, "bike_id": "638e97f95323f4c42cbf88985e2abd70", "fusion_lat": 0.0, "name": "638e97f95323f4c42cbf88985e2abd70", "is_reserved": 0, "rental_uris": {"android": "https://dc.lft.to/lastmile_qr_scan", "ios": "https://dc.lft.to/lastmile_qr_scan"}, "fusion_lon": 0.0}, {"lat": 38.890969166666665, "is_disabled": 0, "type": "electric_scooter", "lon": -77.0019225, "bike_id": "695358656506b39a7504c1306c7ae1df", "fusion_lat": 0.0, "name": "695358656506b39a7504c1306c7ae1df", "is_reserved": 0, "rental_uris": {"android": "https://dc.lft.to/lastmile_qr_scan", "ios": "https://dc.lft.to/lastmile_qr_scan"}, "fusion_lon": 0.0}, {"lat": 38.8656625, "is_disabled": 0, "type": "electric_scooter", "lon": -76.98955483333333, "bike_id": "f4045012b73fdeb458fdea1a05b42eca", "fusion_lat": 0.0, "name": "f4045012b73fdeb458fdea1a05b42eca", "is_reserved": 0, "rental_uris": {"android": "https://dc.lft.to/lastmile_qr_scan", "ios": "https://dc.lft.to/lastmile_qr_scan"}, "fusion_lon": 0.0}, {"lat": 38.948299, "is_disabled": 0, "type": "electric_scooter", "lon": -77.02561733333333, "bike_id": "ce8fa8ecfc8aadb596839f0c87ea9421", "fusion_lat": 0.0, "name": "ce8fa8ecfc8aadb596839f0c87ea9421", "is_reserved": 0, "rental_uris": {"android": "https://dc.lft.to/lastmile_qr_scan", "ios": "https://dc.lft.to/lastmile_qr_scan"}, "fusion_lon": 0.0}, {"lat": 38.90035233333333, "is_disabled": 0, "type": "electric_scooter", "lon": -77.0432355, "bike_id": "6763d0b61906e3d6fd1a6b1d1b30317e", "fusion_lat": 0.0, "name": "6763d0b61906e3d6fd1a6b1d1b30317e", "is_reserved": 0, "rental_uris": {"android": "https://dc.lft.to/lastmile_qr_scan", "ios": "https://dc.lft.to/lastmile_qr_scan"}, "fusion_lon": 0.0}, {"lat": 38.91759316666667, "is_disabled": 0, "type": "electric_scooter", "lon": -77.03192133333333, "bike_id": "678c565e368985b77133e6eeb63b3478", "fusion_lat": 0.0, "name": "678c565e368985b77133e6eeb63b3478", "is_reserved": 0, "rental_uris": {"android": "https://dc.lft.to/lastmile_qr_scan", "ios": "https://dc.lft.to/lastmile_qr_scan"}, "fusion_lon": 0.0}, {"lat": 38.956145166666666, "is_disabled": 0, "type": "electric_scooter", "lon": -77.02792366666667, "bike_id": "a4bf8cf7f6d663d8c9fc7c9f11a3b629", "fusion_lat": 0.0, "name": "a4bf8cf7f6d663d8c9fc7c9f11a3b629", "is_reserved": 0, "rental_uris": {"android": "https://dc.lft.to/lastmile_qr_scan", "ios": "https://dc.lft.to/lastmile_qr_scan"}, "fusion_lon": 0.0}, {"lat": 38.905015166666665, "is_disabled": 0, "type": "electric_scooter", "lon": -77.04056416666667, "bike_id": "a31a73dc3c9c2a29a9d0fd53d189e8aa", "fusion_lat": 0.0, "name": "a31a73dc3c9c2a29a9d0fd53d189e8aa", "is_reserved": 0, "rental_uris": {"android": "https://dc.lft.to/lastmile_qr_scan", "ios": "https://dc.lft.to/lastmile_qr_scan"}, "fusion_lon": 0.0}, {"lat": 38.91184633333334, "is_disabled": 0, "type": "electric_scooter", "lon": -77.0055485, "bike_id": "87bdb86ee49d1494f4a79af902184a3b", "fusion_lat": 0.0, "name": "87bdb86ee49d1494f4a79af902184a3b", "is_reserved": 0, "rental_uris": {"android": "https://dc.lft.to/lastmile_qr_scan", "ios": "https://dc.lft.to/lastmile_qr_scan"}, "fusion_lon": 0.0}, {"lat": 38.9225865, "is_disabled": 0, "type": "electric_scooter", "lon": -77.04204033333333, "bike_id": "a79eb578047f06dd84cbcc1c109ab1e1", "fusion_lat": 0.0, "name": "a79eb578047f06dd84cbcc1c109ab1e1", "is_reserved": 0, "rental_uris": {"android": "https://dc.lft.to/lastmile_qr_scan", "ios": "https://dc.lft.to/lastmile_qr_scan"}, "fusion_lon": 0.0}, {"lat": 38.904069, "is_disabled": 0, "type": "electric_scooter", "lon": -76.97334166666667, "bike_id": "088a16442aeb4cbe5791e714c9f7b4dc", "fusion_lat": 0.0, "name": "088a16442aeb4cbe5791e714c9f7b4dc", "is_reserved": 0, "rental_uris": {"android": "https://dc.lft.to/lastmile_qr_scan", "ios": "https://dc.lft.to/lastmile_qr_scan"}, "fusion_lon": 0.0}, {"lat": 38.90233583333333, "is_disabled": 0, "type": "electric_scooter", "lon": -77.039309, "bike_id": "8fab8c539c3e2b4b58594ae47fc386a8", "fusion_lat": 0.0, "name": "8fab8c539c3e2b4b58594ae47fc386a8", "is_reserved": 0, "rental_uris": {"android": "https://dc.lft.to/lastmile_qr_scan", "ios": "https://dc.lft.to/lastmile_qr_scan"}, "fusion_lon": 0.0}, {"lat": 38.87472283333334, "is_disabled": 0, "type": "electric_scooter", "lon": -77.00940116666666, "bike_id": "66ce3bf02dfc5d5bfdd814bbf35354f1", "fusion_lat": 0.0, "name": "66ce3bf02dfc5d5bfdd814bbf35354f1", "is_reserved": 0, "rental_uris": {"android": "https://dc.lft.to/lastmile_qr_scan", "ios": "https://dc.lft.to/lastmile_qr_scan"}, "fusion_lon": 0.0}, {"lat": 38.905705166666664, "is_disabled": 0, "type": "electric_scooter", "lon": -77.03915333333333, "bike_id": "48137b658408f08f4dcf0455e8f37d55", "fusion_lat": 0.0, "name": "48137b658408f08f4dcf0455e8f37d55", "is_reserved": 0, "rental_uris": {"android": "https://dc.lft.to/lastmile_qr_scan", "ios": "https://dc.lft.to/lastmile_qr_scan"}, "fusion_lon": 0.0}, {"lat": 38.89816666666667, "is_disabled": 0, "type": "electric_scooter", "lon": -77.00898433333333, "bike_id": "91ffbf4113a540994f65a211f8875c13", "fusion_lat": 0.0, "name": "91ffbf4113a540994f65a211f8875c13", "is_reserved": 0, "rental_uris": {"android": "https://dc.lft.to/lastmile_qr_scan", "ios": "https://dc.lft.to/lastmile_qr_scan"}, "fusion_lon": 0.0}, {"lat": 38.86217283333333, "is_disabled": 0, "type": "electric_scooter", "lon": -76.99476016666667, "bike_id": "65eebb0d6d16ed0e7cdab9b5042be6c4", "fusion_lat": 0.0, "name": "65eebb0d6d16ed0e7cdab9b5042be6c4", "is_reserved": 0, "rental_uris": {"android": "https://dc.lft.to/lastmile_qr_scan", "ios": "https://dc.lft.to/lastmile_qr_scan"}, "fusion_lon": 0.0}, {"lat": 38.91113, "is_disabled": 0, "type": "electric_scooter", "lon": -77.043708, "bike_id": "0a72a741c368e190b858e8836e8d811e", "fusion_lat": 0.0, "name": "0a72a741c368e190b858e8836e8d811e", "is_reserved": 0, "rental_uris": {"android": "https://dc.lft.to/lastmile_qr_scan", "ios": "https://dc.lft.to/lastmile_qr_scan"}, "fusion_lon": 0.0}, {"lat": 38.8973735, "is_disabled": 0, "type": "electric_scooter", "lon": -77.03101116666667, "bike_id": "cee44156f44b36075a6d7ad8a84ea321", "fusion_lat": 0.0, "name": "cee44156f44b36075a6d7ad8a84ea321", "is_reserved": 0, "rental_uris": {"android": "https://dc.lft.to/lastmile_qr_scan", "ios": "https://dc.lft.to/lastmile_qr_scan"}, "fusion_lon": 0.0}, {"lat": 38.9055255, "is_disabled": 0, "type": "electric_scooter", "lon": -77.0628805, "bike_id": "bae61a6e8cef396c0d0b5852d8bcbfa4", "fusion_lat": 0.0, "name": "bae61a6e8cef396c0d0b5852d8bcbfa4", "is_reserved": 0, "rental_uris": {"android": "https://dc.lft.to/lastmile_qr_scan", "ios": "https://dc.lft.to/lastmile_qr_scan"}, "fusion_lon": 0.0}, {"lat": 38.9096515, "is_disabled": 0, "type": "electric_scooter", "lon": -77.02383916666666, "bike_id": "8b24e8620644d6a64928cd7b3f75fecc", "fusion_lat": 0.0, "name": "8b24e8620644d6a64928cd7b3f75fecc", "is_reserved": 0, "rental_uris": {"android": "https://dc.lft.to/lastmile_qr_scan", "ios": "https://dc.lft.to/lastmile_qr_scan"}, "fusion_lon": 0.0}, {"lat": 38.92506766666666, "is_disabled": 0, "type": "electric_scooter", "lon": -77.03885216666667, "bike_id": "2493b30ca3bad9cb17fe0c9487b0b880", "fusion_lat": 0.0, "name": "2493b30ca3bad9cb17fe0c9487b0b880", "is_reserved": 0, "rental_uris": {"android": "https://dc.lft.to/lastmile_qr_scan", "ios": "https://dc.lft.to/lastmile_qr_scan"}, "fusion_lon": 0.0}, {"lat": 38.92149716666667, "is_disabled": 0, "type": "electric_scooter", "lon": -77.03227683333333, "bike_id": "ddec49e9b834a0cb3de7b19df1ea3ad4", "fusion_lat": 0.0, "name": "ddec49e9b834a0cb3de7b19df1ea3ad4", "is_reserved": 0, "rental_uris": {"android": "https://dc.lft.to/lastmile_qr_scan", "ios": "https://dc.lft.to/lastmile_qr_scan"}, "fusion_lon": 0.0}, {"lat": 38.88098633333333, "is_disabled": 0, "type": "electric_scooter", "lon": -76.99253783333333, "bike_id": "d5e74878ba903519e60ecde3bb0700e7", "fusion_lat": 0.0, "name": "d5e74878ba903519e60ecde3bb0700e7", "is_reserved": 0, "rental_uris": {"android": "https://dc.lft.to/lastmile_qr_scan", "ios": "https://dc.lft.to/lastmile_qr_scan"}, "fusion_lon": 0.0}, {"lat": 38.97324116666667, "is_disabled": 0, "type": "electric_bike", "lon": -77.02150983333334, "bike_id": "eabf483ce01d07e4a9573a6243b8ceb3", "fusion_lat": 0.0, "name": "eabf483ce01d07e4a9573a6243b8ceb3", "is_reserved": 0, "rental_uris": {"android": "https://dc.lft.to/lastmile_qr_scan", "ios": "https://dc.lft.to/lastmile_qr_scan"}, "fusion_lon": 0.0}, {"lat": 38.902725833333335, "is_disabled": 0, "type": "electric_scooter", "lon": -77.03837766666666, "bike_id": "bf87c1c268ca36857efe78d93def1f18", "fusion_lat": 0.0, "name": "bf87c1c268ca36857efe78d93def1f18", "is_reserved": 0, "rental_uris": {"android": "https://dc.lft.to/lastmile_qr_scan", "ios": "https://dc.lft.to/lastmile_qr_scan"}, "fusion_lon": 0.0}, {"lat": 38.89747716666667, "is_disabled": 0, "type": "electric_scooter", "lon": -77.031993, "bike_id": "8ebfd286e8a9b5cc891fba1fd29fa443", "fusion_lat": 0.0, "name": "8ebfd286e8a9b5cc891fba1fd29fa443", "is_reserved": 0, "rental_uris": {"android": "https://dc.lft.to/lastmile_qr_scan", "ios": "https://dc.lft.to/lastmile_qr_scan"}, "fusion_lon": 0.0}, {"lat": 38.844234166666666, "is_disabled": 0, "type": "electric_scooter", "lon": -76.99782583333334, "bike_id": "3f675972c706a39c6b38640fa04b0142", "fusion_lat": 0.0, "name": "3f675972c706a39c6b38640fa04b0142", "is_reserved": 0, "rental_uris": {"android": "https://dc.lft.to/lastmile_qr_scan", "ios": "https://dc.lft.to/lastmile_qr_scan"}, "fusion_lon": 0.0}, {"lat": 38.917826166666664, "is_disabled": 0, "type": "electric_scooter", "lon": -77.02309016666666, "bike_id": "031b875fde0c0cbe7f3fe21eb5332207", "fusion_lat": 0.0, "name": "031b875fde0c0cbe7f3fe21eb5332207", "is_reserved": 0, "rental_uris": {"android": "https://dc.lft.to/lastmile_qr_scan", "ios": "https://dc.lft.to/lastmile_qr_scan"}, "fusion_lon": 0.0}, {"lat": 38.9093585, "is_disabled": 0, "type": "electric_scooter", "lon": -77.04492216666667, "bike_id": "990dddfb473d2942853802520c70bdcc", "fusion_lat": 0.0, "name": "990dddfb473d2942853802520c70bdcc", "is_reserved": 0, "rental_uris": {"android": "https://dc.lft.to/lastmile_qr_scan", "ios": "https://dc.lft.to/lastmile_qr_scan"}, "fusion_lon": 0.0}, {"lat": 38.94554933333333, "is_disabled": 0, "type": "electric_bike", "lon": -76.89538666666667, "bike_id": "85fdf2cb427c1ec31182a09dcc438807", "fusion_lat": 0.0, "name": "85fdf2cb427c1ec31182a09dcc438807", "is_reserved": 0, "rental_uris": {"android": "https://dc.lft.to/lastmile_qr_scan", "ios": "https://dc.lft.to/lastmile_qr_scan"}, "fusion_lon": 0.0}, {"lat": 38.91701116666667, "is_disabled": 0, "type": "electric_scooter", "lon": -77.02628316666667, "bike_id": "058381efb06b7a97af3352913b321328", "fusion_lat": 0.0, "name": "058381efb06b7a97af3352913b321328", "is_reserved": 0, "rental_uris": {"android": "https://dc.lft.to/lastmile_qr_scan", "ios": "https://dc.lft.to/lastmile_qr_scan"}, "fusion_lon": 0.0}, {"lat": 38.9085935, "is_disabled": 0, "type": "electric_scooter", "lon": -77.04319283333334, "bike_id": "f8eb0239540a85393f028fb173a531d1", "fusion_lat": 0.0, "name": "f8eb0239540a85393f028fb173a531d1", "is_reserved": 0, "rental_uris": {"android": "https://dc.lft.to/lastmile_qr_scan", "ios": "https://dc.lft.to/lastmile_qr_scan"}, "fusion_lon": 0.0}, {"lat": 38.9185305, "is_disabled": 0, "type": "electric_scooter", "lon": -77.044988, "bike_id": "2e041d36c5f8a0dd3d60802ca5ddd6a3", "fusion_lat": 0.0, "name": "2e041d36c5f8a0dd3d60802ca5ddd6a3", "is_reserved": 0, "rental_uris": {"android": "https://dc.lft.to/lastmile_qr_scan", "ios": "https://dc.lft.to/lastmile_qr_scan"}, "fusion_lon": 0.0}, {"lat": 38.92124666666667, "is_disabled": 0, "type": "electric_scooter", "lon": -77.01808983333333, "bike_id": "fcbdddd59dab9c31ff290aba28b01241", "fusion_lat": 0.0, "name": "fcbdddd59dab9c31ff290aba28b01241", "is_reserved": 0, "rental_uris": {"android": "https://dc.lft.to/lastmile_qr_scan", "ios": "https://dc.lft.to/lastmile_qr_scan"}, "fusion_lon": 0.0}, {"lat": 38.929088, "is_disabled": 0, "type": "electric_scooter", "lon": -77.032544, "bike_id": "91cd9e65adcce9c0f94fe7ae6ac8fc28", "fusion_lat": 0.0, "name": "91cd9e65adcce9c0f94fe7ae6ac8fc28", "is_reserved": 0, "rental_uris": {"android": "https://dc.lft.to/lastmile_qr_scan", "ios": "https://dc.lft.to/lastmile_qr_scan"}, "fusion_lon": 0.0}, {"lat": 38.921056666666665, "is_disabled": 0, "type": "electric_scooter", "lon": -77.04696166666666, "bike_id": "d904c1ff9349942cbc10e0eb1b7fc0fd", "fusion_lat": 0.0, "name": "d904c1ff9349942cbc10e0eb1b7fc0fd", "is_reserved": 0, "rental_uris": {"android": "https://dc.lft.to/lastmile_qr_scan", "ios": "https://dc.lft.to/lastmile_qr_scan"}, "fusion_lon": 0.0}, {"lat": 38.915678166666666, "is_disabled": 0, "type": "electric_scooter", "lon": -77.05032666666666, "bike_id": "cb854bcb3936d527ed228d9115847175", "fusion_lat": 0.0, "name": "cb854bcb3936d527ed228d9115847175", "is_reserved": 0, "rental_uris": {"android": "https://dc.lft.to/lastmile_qr_scan", "ios": "https://dc.lft.to/lastmile_qr_scan"}, "fusion_lon": 0.0}, {"lat": 38.892210166666665, "is_disabled": 0, "type": "electric_scooter", "lon": -77.04448466666666, "bike_id": "a2243005d825318b282fd58af409e016", "fusion_lat": 0.0, "name": "a2243005d825318b282fd58af409e016", "is_reserved": 0, "rental_uris": {"android": "https://dc.lft.to/lastmile_qr_scan", "ios": "https://dc.lft.to/lastmile_qr_scan"}, "fusion_lon": 0.0}, {"lat": 38.93003733333333, "is_disabled": 0, "type": "electric_scooter", "lon": -77.05529383333334, "bike_id": "28db660c120f7d016a432f64f07c0cdd", "fusion_lat": 0.0, "name": "28db660c120f7d016a432f64f07c0cdd", "is_reserved": 0, "rental_uris": {"android": "https://dc.lft.to/lastmile_qr_scan", "ios": "https://dc.lft.to/lastmile_qr_scan"}, "fusion_lon": 0.0}, {"lat": 38.895351, "is_disabled": 0, "type": "electric_scooter", "lon": -76.948966, "bike_id": "735eac2551179c56bf10d56a94085fe6", "fusion_lat": 0.0, "name": "735eac2551179c56bf10d56a94085fe6", "is_reserved": 0, "rental_uris": {"android": "https://dc.lft.to/lastmile_qr_scan", "ios": "https://dc.lft.to/lastmile_qr_scan"}, "fusion_lon": 0.0}, {"lat": 38.872449333333336, "is_disabled": 0, "type": "electric_scooter", "lon": -76.9773325, "bike_id": "2f39ee8740020f0f4926dc907d9cbf4b", "fusion_lat": 0.0, "name": "2f39ee8740020f0f4926dc907d9cbf4b", "is_reserved": 0, "rental_uris": {"android": "https://dc.lft.to/lastmile_qr_scan", "ios": "https://dc.lft.to/lastmile_qr_scan"}, "fusion_lon": 0.0}, {"lat": 38.917102166666666, "is_disabled": 0, "type": "electric_scooter", "lon": -77.032797, "bike_id": "7fdd5f51df70c14b287dbc597439f010", "fusion_lat": 0.0, "name": "7fdd5f51df70c14b287dbc597439f010", "is_reserved": 0, "rental_uris": {"android": "https://dc.lft.to/lastmile_qr_scan", "ios": "https://dc.lft.to/lastmile_qr_scan"}, "fusion_lon": 0.0}, {"lat": 38.907325166666666, "is_disabled": 0, "type": "electric_scooter", "lon": -77.03994966666667, "bike_id": "c0fa5859541f3aec013f056c75fdb980", "fusion_lat": 0.0, "name": "c0fa5859541f3aec013f056c75fdb980", "is_reserved": 0, "rental_uris": {"android": "https://dc.lft.to/lastmile_qr_scan", "ios": "https://dc.lft.to/lastmile_qr_scan"}, "fusion_lon": 0.0}, {"lat": 38.927868333333336, "is_disabled": 0, "type": "electric_scooter", "lon": -77.03693583333333, "bike_id": "30d2d58d49cc1d1071d10f1331491e3b", "fusion_lat": 0.0, "name": "30d2d58d49cc1d1071d10f1331491e3b", "is_reserved": 0, "rental_uris": {"android": "https://dc.lft.to/lastmile_qr_scan", "ios": "https://dc.lft.to/lastmile_qr_scan"}, "fusion_lon": 0.0}, {"lat": 38.92220983333333, "is_disabled": 0, "type": "electric_scooter", "lon": -77.04241033333334, "bike_id": "a1a256d1dddef01bb1cf947f8e073641", "fusion_lat": 0.0, "name": "a1a256d1dddef01bb1cf947f8e073641", "is_reserved": 0, "rental_uris": {"android": "https://dc.lft.to/lastmile_qr_scan", "ios": "https://dc.lft.to/lastmile_qr_scan"}, "fusion_lon": 0.0}, {"lat": 38.90070516666667, "is_disabled": 0, "type": "electric_scooter", "lon": -77.0172435, "bike_id": "b9c9b938501f9444e23cb5d618984c40", "fusion_lat": 0.0, "name": "b9c9b938501f9444e23cb5d618984c40", "is_reserved": 0, "rental_uris": {"android": "https://dc.lft.to/lastmile_qr_scan", "ios": "https://dc.lft.to/lastmile_qr_scan"}, "fusion_lon": 0.0}, {"lat": 38.95400883333333, "is_disabled": 0, "type": "electric_scooter", "lon": -77.0275015, "bike_id": "405d5dcff47c32db7abc0e2d80f13193", "fusion_lat": 0.0, "name": "405d5dcff47c32db7abc0e2d80f13193", "is_reserved": 0, "rental_uris": {"android": "https://dc.lft.to/lastmile_qr_scan", "ios": "https://dc.lft.to/lastmile_qr_scan"}, "fusion_lon": 0.0}, {"lat": 38.92995066666667, "is_disabled": 0, "type": "electric_scooter", "lon": -77.0366345, "bike_id": "cce8a89c8a730c3c515384930d564821", "fusion_lat": 0.0, "name": "cce8a89c8a730c3c515384930d564821", "is_reserved": 0, "rental_uris": {"android": "https://dc.lft.to/lastmile_qr_scan", "ios": "https://dc.lft.to/lastmile_qr_scan"}, "fusion_lon": 0.0}, {"lat": 38.89350966666667, "is_disabled": 0, "type": "electric_bike", "lon": -77.1874305, "bike_id": "442ee2b46922b6cc7e4dd524f5a09ed5", "fusion_lat": 0.0, "name": "442ee2b46922b6cc7e4dd524f5a09ed5", "is_reserved": 0, "rental_uris": {"android": "https://dc.lft.to/lastmile_qr_scan", "ios": "https://dc.lft.to/lastmile_qr_scan"}, "fusion_lon": 0.0}, {"lat": 38.903825166666664, "is_disabled": 0, "type": "electric_scooter", "lon": -77.03955716666667, "bike_id": "2ceb5ccb1df935da936a7eb6c7ddcdd7", "fusion_lat": 0.0, "name": "2ceb5ccb1df935da936a7eb6c7ddcdd7", "is_reserved": 0, "rental_uris": {"android": "https://dc.lft.to/lastmile_qr_scan", "ios": "https://dc.lft.to/lastmile_qr_scan"}, "fusion_lon": 0.0}, {"lat": 38.90558216666667, "is_disabled": 0, "type": "electric_scooter", "lon": -77.05695966666667, "bike_id": "7e3abb8a49eb730dabe0dc09c020cbc0", "fusion_lat": 0.0, "name": "7e3abb8a49eb730dabe0dc09c020cbc0", "is_reserved": 0, "rental_uris": {"android": "https://dc.lft.to/lastmile_qr_scan", "ios": "https://dc.lft.to/lastmile_qr_scan"}, "fusion_lon": 0.0}, {"lat": 38.902375666666664, "is_disabled": 0, "type": "electric_scooter", "lon": -77.04855116666667, "bike_id": "d0b26aaa0a46d5cf0d7025de16f4f8c4", "fusion_lat": 0.0, "name": "d0b26aaa0a46d5cf0d7025de16f4f8c4", "is_reserved": 0, "rental_uris": {"android": "https://dc.lft.to/lastmile_qr_scan", "ios": "https://dc.lft.to/lastmile_qr_scan"}, "fusion_lon": 0.0}, {"lat": 38.8005995, "is_disabled": 0, "type": "electric_bike", "lon": -77.071145, "bike_id": "f6462ebd340df80b9bea10cd4a0fe689", "fusion_lat": 0.0, "name": "f6462ebd340df80b9bea10cd4a0fe689", "is_reserved": 0, "rental_uris": {"android": "https://dc.lft.to/lastmile_qr_scan", "ios": "https://dc.lft.to/lastmile_qr_scan"}, "fusion_lon": 0.0}, {"lat": 38.898105, "is_disabled": 0, "type": "electric_bike", "lon": -77.04334733333333, "bike_id": "7f9c8552d215af5c8ada3df5cb35e6ff", "fusion_lat": 0.0, "name": "7f9c8552d215af5c8ada3df5cb35e6ff", "is_reserved": 0, "rental_uris": {"android": "https://dc.lft.to/lastmile_qr_scan", "ios": "https://dc.lft.to/lastmile_qr_scan"}, "fusion_lon": 0.0}, {"lat": 38.93448683333333, "is_disabled": 0, "type": "electric_scooter", "lon": -77.02394866666667, "bike_id": "c120a6af9d8de32b59a638ffacb79850", "fusion_lat": 0.0, "name": "c120a6af9d8de32b59a638ffacb79850", "is_reserved": 0, "rental_uris": {"android": "https://dc.lft.to/lastmile_qr_scan", "ios": "https://dc.lft.to/lastmile_qr_scan"}, "fusion_lon": 0.0}, {"lat": 38.916421666666665, "is_disabled": 0, "type": "electric_scooter", "lon": -77.00068683333333, "bike_id": "41c76e5cd5e27f7fcd2031f6820e7af0", "fusion_lat": 0.0, "name": "41c76e5cd5e27f7fcd2031f6820e7af0", "is_reserved": 0, "rental_uris": {"android": "https://dc.lft.to/lastmile_qr_scan", "ios": "https://dc.lft.to/lastmile_qr_scan"}, "fusion_lon": 0.0}, {"lat": 38.888102833333335, "is_disabled": 0, "type": "electric_bike", "lon": -77.038305, "bike_id": "822cdf96bace21045d60f2256ac704e8", "fusion_lat": 0.0, "name": "822cdf96bace21045d60f2256ac704e8", "is_reserved": 0, "rental_uris": {"android": "https://dc.lft.to/lastmile_qr_scan", "ios": "https://dc.lft.to/lastmile_qr_scan"}, "fusion_lon": 0.0}, {"lat": 38.89232533333333, "is_disabled": 0, "type": "electric_scooter", "lon": -77.05001983333334, "bike_id": "53988044f896c8a1c9f27e4e9d61a391", "fusion_lat": 0.0, "name": "53988044f896c8a1c9f27e4e9d61a391", "is_reserved": 0, "rental_uris": {"android": "https://dc.lft.to/lastmile_qr_scan", "ios": "https://dc.lft.to/lastmile_qr_scan"}, "fusion_lon": 0.0}, {"lat": 38.85958516666667, "is_disabled": 0, "type": "electric_scooter", "lon": -76.99106783333333, "bike_id": "bc6eacca3943110a092bf1d17439076b", "fusion_lat": 0.0, "name": "bc6eacca3943110a092bf1d17439076b", "is_reserved": 0, "rental_uris": {"android": "https://dc.lft.to/lastmile_qr_scan", "ios": "https://dc.lft.to/lastmile_qr_scan"}, "fusion_lon": 0.0}, {"lat": 38.9397965, "is_disabled": 0, "type": "electric_scooter", "lon": -77.03268366666667, "bike_id": "d7d39605ad957438046cf0dcbabff1f6", "fusion_lat": 0.0, "name": "d7d39605ad957438046cf0dcbabff1f6", "is_reserved": 0, "rental_uris": {"android": "https://dc.lft.to/lastmile_qr_scan", "ios": "https://dc.lft.to/lastmile_qr_scan"}, "fusion_lon": 0.0}, {"lat": 38.92492466666667, "is_disabled": 0, "type": "electric_bike", "lon": -77.057635, "bike_id": "b4ca6d2b4effc93849f3d2ddde57b877", "fusion_lat": 0.0, "name": "b4ca6d2b4effc93849f3d2ddde57b877", "is_reserved": 0, "rental_uris": {"android": "https://dc.lft.to/lastmile_qr_scan", "ios": "https://dc.lft.to/lastmile_qr_scan"}, "fusion_lon": 0.0}, {"lat": 38.875666333333335, "is_disabled": 0, "type": "electric_scooter", "lon": -77.00592533333334, "bike_id": "1b33ca545d5fb6e08e678de75cf6af81", "fusion_lat": 0.0, "name": "1b33ca545d5fb6e08e678de75cf6af81", "is_reserved": 0, "rental_uris": {"android": "https://dc.lft.to/lastmile_qr_scan", "ios": "https://dc.lft.to/lastmile_qr_scan"}, "fusion_lon": 0.0}, {"lat": 38.911344666666665, "is_disabled": 0, "type": "electric_scooter", "lon": -77.04671183333333, "bike_id": "4bc0b0d13eba3e7d23e4fc4f2677f5b8", "fusion_lat": 0.0, "name": "4bc0b0d13eba3e7d23e4fc4f2677f5b8", "is_reserved": 0, "rental_uris": {"android": "https://dc.lft.to/lastmile_qr_scan", "ios": "https://dc.lft.to/lastmile_qr_scan"}, "fusion_lon": 0.0}, {"lat": 38.91807933333333, "is_disabled": 0, "type": "electric_scooter", "lon": -77.033016, "bike_id": "a9643f4b67f58b4154d984acdee7f761", "fusion_lat": 0.0, "name": "a9643f4b67f58b4154d984acdee7f761", "is_reserved": 0, "rental_uris": {"android": "https://dc.lft.to/lastmile_qr_scan", "ios": "https://dc.lft.to/lastmile_qr_scan"}, "fusion_lon": 0.0}, {"lat": 38.916857666666665, "is_disabled": 0, "type": "electric_scooter", "lon": -77.04609966666666, "bike_id": "51dea0da5a9379c81c699cc1b6962f8f", "fusion_lat": 0.0, "name": "51dea0da5a9379c81c699cc1b6962f8f", "is_reserved": 0, "rental_uris": {"android": "https://dc.lft.to/lastmile_qr_scan", "ios": "https://dc.lft.to/lastmile_qr_scan"}, "fusion_lon": 0.0}, {"lat": 38.924708, "is_disabled": 0, "type": "electric_scooter", "lon": -77.026337, "bike_id": "12326d14167d4829cf3c57f6d4be384e", "fusion_lat": 0.0, "name": "12326d14167d4829cf3c57f6d4be384e", "is_reserved": 0, "rental_uris": {"android": "https://dc.lft.to/lastmile_qr_scan", "ios": "https://dc.lft.to/lastmile_qr_scan"}, "fusion_lon": 0.0}, {"lat": 38.898491666666665, "is_disabled": 0, "type": "electric_scooter", "lon": -77.02714416666667, "bike_id": "a93801c82e6e8f605f09d2fc36e38be0", "fusion_lat": 0.0, "name": "a93801c82e6e8f605f09d2fc36e38be0", "is_reserved": 0, "rental_uris": {"android": "https://dc.lft.to/lastmile_qr_scan", "ios": "https://dc.lft.to/lastmile_qr_scan"}, "fusion_lon": 0.0}, {"lat": 38.9167625, "is_disabled": 0, "type": "electric_scooter", "lon": -77.03211733333333, "bike_id": "6f78685c57cccd79c01ca86350b7888a", "fusion_lat": 0.0, "name": "6f78685c57cccd79c01ca86350b7888a", "is_reserved": 0, "rental_uris": {"android": "https://dc.lft.to/lastmile_qr_scan", "ios": "https://dc.lft.to/lastmile_qr_scan"}, "fusion_lon": 0.0}, {"lat": 38.89221233333333, "is_disabled": 0, "type": "electric_scooter", "lon": -77.0465535, "bike_id": "3e3e78ef992ce2b5aea4f8c89952a1c8", "fusion_lat": 0.0, "name": "3e3e78ef992ce2b5aea4f8c89952a1c8", "is_reserved": 0, "rental_uris": {"android": "https://dc.lft.to/lastmile_qr_scan", "ios": "https://dc.lft.to/lastmile_qr_scan"}, "fusion_lon": 0.0}, {"lat": 38.91842616666667, "is_disabled": 0, "type": "electric_scooter", "lon": -76.96558533333334, "bike_id": "36b17af47fd6483f3c236dc089269f6f", "fusion_lat": 0.0, "name": "36b17af47fd6483f3c236dc089269f6f", "is_reserved": 0, "rental_uris": {"android": "https://dc.lft.to/lastmile_qr_scan", "ios": "https://dc.lft.to/lastmile_qr_scan"}, "fusion_lon": 0.0}, {"lat": 38.93977866666667, "is_disabled": 0, "type": "electric_scooter", "lon": -77.02894566666667, "bike_id": "9dcff00871a049db309c6a530eb0e8c2", "fusion_lat": 0.0, "name": "9dcff00871a049db309c6a530eb0e8c2", "is_reserved": 0, "rental_uris": {"android": "https://dc.lft.to/lastmile_qr_scan", "ios": "https://dc.lft.to/lastmile_qr_scan"}, "fusion_lon": 0.0}, {"lat": 38.842727333333336, "is_disabled": 0, "type": "electric_bike", "lon": -76.988504, "bike_id": "c6f077e5cfc25740ec2e6164568f08f1", "fusion_lat": 0.0, "name": "c6f077e5cfc25740ec2e6164568f08f1", "is_reserved": 0, "rental_uris": {"android": "https://dc.lft.to/lastmile_qr_scan", "ios": "https://dc.lft.to/lastmile_qr_scan"}, "fusion_lon": 0.0}, {"lat": 38.84931783333333, "is_disabled": 0, "type": "electric_bike", "lon": -77.10020966666667, "bike_id": "43ce7844631c45d0cc71ba5185f58aca", "fusion_lat": 0.0, "name": "43ce7844631c45d0cc71ba5185f58aca", "is_reserved": 0, "rental_uris": {"android": "https://dc.lft.to/lastmile_qr_scan", "ios": "https://dc.lft.to/lastmile_qr_scan"}, "fusion_lon": 0.0}, {"lat": 38.8847885, "is_disabled": 0, "type": "electric_scooter", "lon": -77.0152435, "bike_id": "e7f1459e3e2c420a36f1bdea6e43b3fb", "fusion_lat": 0.0, "name": "e7f1459e3e2c420a36f1bdea6e43b3fb", "is_reserved": 0, "rental_uris": {"android": "https://dc.lft.to/lastmile_qr_scan", "ios": "https://dc.lft.to/lastmile_qr_scan"}, "fusion_lon": 0.0}, {"lat": 38.924661666666665, "is_disabled": 0, "type": "electric_scooter", "lon": -77.028964, "bike_id": "cb2266bd153606ed3b4ebe368837f947", "fusion_lat": 0.0, "name": "cb2266bd153606ed3b4ebe368837f947", "is_reserved": 0, "rental_uris": {"android": "https://dc.lft.to/lastmile_qr_scan", "ios": "https://dc.lft.to/lastmile_qr_scan"}, "fusion_lon": 0.0}, {"lat": 38.92179433333333, "is_disabled": 0, "type": "electric_scooter", "lon": -77.024143, "bike_id": "6f725eccde10d0a31a5d25ca6971fe47", "fusion_lat": 0.0, "name": "6f725eccde10d0a31a5d25ca6971fe47", "is_reserved": 0, "rental_uris": {"android": "https://dc.lft.to/lastmile_qr_scan", "ios": "https://dc.lft.to/lastmile_qr_scan"}, "fusion_lon": 0.0}, {"lat": 38.909597833333336, "is_disabled": 0, "type": "electric_scooter", "lon": -77.048305, "bike_id": "8dd9f444ecd46c3857a53dc5bad09ef4", "fusion_lat": 0.0, "name": "8dd9f444ecd46c3857a53dc5bad09ef4", "is_reserved": 0, "rental_uris": {"android": "https://dc.lft.to/lastmile_qr_scan", "ios": "https://dc.lft.to/lastmile_qr_scan"}, "fusion_lon": 0.0}, {"lat": 38.90962183333333, "is_disabled": 0, "type": "electric_scooter", "lon": -76.98441733333334, "bike_id": "97ec6194fbb80896c11907c51d86fae6", "fusion_lat": 0.0, "name": "97ec6194fbb80896c11907c51d86fae6", "is_reserved": 0, "rental_uris": {"android": "https://dc.lft.to/lastmile_qr_scan", "ios": "https://dc.lft.to/lastmile_qr_scan"}, "fusion_lon": 0.0}, {"lat": 38.9311325, "is_disabled": 0, "type": "electric_scooter", "lon": -77.0381385, "bike_id": "8c2e0954b9c946295d98584702d4ea9f", "fusion_lat": 0.0, "name": "8c2e0954b9c946295d98584702d4ea9f", "is_reserved": 0, "rental_uris": {"android": "https://dc.lft.to/lastmile_qr_scan", "ios": "https://dc.lft.to/lastmile_qr_scan"}, "fusion_lon": 0.0}, {"lat": 38.921241333333334, "is_disabled": 0, "type": "electric_scooter", "lon": -77.01805183333333, "bike_id": "1f9d3485df4704e93f912e34599fe7d3", "fusion_lat": 0.0, "name": "1f9d3485df4704e93f912e34599fe7d3", "is_reserved": 0, "rental_uris": {"android": "https://dc.lft.to/lastmile_qr_scan", "ios": "https://dc.lft.to/lastmile_qr_scan"}, "fusion_lon": 0.0}, {"lat": 38.866137333333334, "is_disabled": 0, "type": "electric_scooter", "lon": -76.98702266666666, "bike_id": "486bdaac8e61d4f6dd75e434e9166877", "fusion_lat": 0.0, "name": "486bdaac8e61d4f6dd75e434e9166877", "is_reserved": 0, "rental_uris": {"android": "https://dc.lft.to/lastmile_qr_scan", "ios": "https://dc.lft.to/lastmile_qr_scan"}, "fusion_lon": 0.0}, {"lat": 38.918834333333336, "is_disabled": 0, "type": "electric_scooter", "lon": -77.02975583333334, "bike_id": "c4a7541a2391f4996051e5b4b8ab8da1", "fusion_lat": 0.0, "name": "c4a7541a2391f4996051e5b4b8ab8da1", "is_reserved": 0, "rental_uris": {"android": "https://dc.lft.to/lastmile_qr_scan", "ios": "https://dc.lft.to/lastmile_qr_scan"}, "fusion_lon": 0.0}, {"lat": 38.91112716666667, "is_disabled": 0, "type": "electric_scooter", "lon": -77.0446255, "bike_id": "ba96b4e442f72d73765293a1a34b06d3", "fusion_lat": 0.0, "name": "ba96b4e442f72d73765293a1a34b06d3", "is_reserved": 0, "rental_uris": {"android": "https://dc.lft.to/lastmile_qr_scan", "ios": "https://dc.lft.to/lastmile_qr_scan"}, "fusion_lon": 0.0}, {"lat": 38.842932166666664, "is_disabled": 0, "type": "electric_scooter", "lon": -76.999563, "bike_id": "ae0e2b5a6129a79a2f2d812c2dc46683", "fusion_lat": 0.0, "name": "ae0e2b5a6129a79a2f2d812c2dc46683", "is_reserved": 0, "rental_uris": {"android": "https://dc.lft.to/lastmile_qr_scan", "ios": "https://dc.lft.to/lastmile_qr_scan"}, "fusion_lon": 0.0}, {"lat": 38.893701666666665, "is_disabled": 0, "type": "electric_scooter", "lon": -76.95006883333333, "bike_id": "7204f2d1310806f718cb98308efc00f8", "fusion_lat": 0.0, "name": "7204f2d1310806f718cb98308efc00f8", "is_reserved": 0, "rental_uris": {"android": "https://dc.lft.to/lastmile_qr_scan", "ios": "https://dc.lft.to/lastmile_qr_scan"}, "fusion_lon": 0.0}, {"lat": 38.922277666666666, "is_disabled": 0, "type": "electric_scooter", "lon": -77.04310966666667, "bike_id": "033b1ee9664fa98221621911b679968f", "fusion_lat": 0.0, "name": "033b1ee9664fa98221621911b679968f", "is_reserved": 0, "rental_uris": {"android": "https://dc.lft.to/lastmile_qr_scan", "ios": "https://dc.lft.to/lastmile_qr_scan"}, "fusion_lon": 0.0}, {"lat": 38.923771333333335, "is_disabled": 0, "type": "electric_scooter", "lon": -77.04080483333334, "bike_id": "9da3dc6e1964e2c0562a13d5ea0fc422", "fusion_lat": 0.0, "name": "9da3dc6e1964e2c0562a13d5ea0fc422", "is_reserved": 0, "rental_uris": {"android": "https://dc.lft.to/lastmile_qr_scan", "ios": "https://dc.lft.to/lastmile_qr_scan"}, "fusion_lon": 0.0}, {"lat": 38.9011635, "is_disabled": 0, "type": "electric_scooter", "lon": -77.0181925, "bike_id": "51e841090e5b2c6a875754d24a066057", "fusion_lat": 0.0, "name": "51e841090e5b2c6a875754d24a066057", "is_reserved": 0, "rental_uris": {"android": "https://dc.lft.to/lastmile_qr_scan", "ios": "https://dc.lft.to/lastmile_qr_scan"}, "fusion_lon": 0.0}, {"lat": 38.912928, "is_disabled": 0, "type": "electric_scooter", "lon": -77.03863166666666, "bike_id": "83fe9edb58d3ba098a0b1a702a6ef4d5", "fusion_lat": 0.0, "name": "83fe9edb58d3ba098a0b1a702a6ef4d5", "is_reserved": 0, "rental_uris": {"android": "https://dc.lft.to/lastmile_qr_scan", "ios": "https://dc.lft.to/lastmile_qr_scan"}, "fusion_lon": 0.0}, {"lat": 38.92660983333333, "is_disabled": 0, "type": "electric_scooter", "lon": -77.0373265, "bike_id": "27aaed78b5730cb1fe58545d8e1ffdef", "fusion_lat": 0.0, "name": "27aaed78b5730cb1fe58545d8e1ffdef", "is_reserved": 0, "rental_uris": {"android": "https://dc.lft.to/lastmile_qr_scan", "ios": "https://dc.lft.to/lastmile_qr_scan"}, "fusion_lon": 0.0}, {"lat": 38.90429966666667, "is_disabled": 0, "type": "electric_bike", "lon": -77.06611483333333, "bike_id": "ca0abe256ab49127291ac36715e6921f", "fusion_lat": 0.0, "name": "ca0abe256ab49127291ac36715e6921f", "is_reserved": 0, "rental_uris": {"android": "https://dc.lft.to/lastmile_qr_scan", "ios": "https://dc.lft.to/lastmile_qr_scan"}, "fusion_lon": 0.0}, {"lat": 38.902807833333334, "is_disabled": 0, "type": "electric_scooter", "lon": -77.04023966666666, "bike_id": "6d572dae88b7f38340664171c8882270", "fusion_lat": 0.0, "name": "6d572dae88b7f38340664171c8882270", "is_reserved": 0, "rental_uris": {"android": "https://dc.lft.to/lastmile_qr_scan", "ios": "https://dc.lft.to/lastmile_qr_scan"}, "fusion_lon": 0.0}, {"lat": 38.9444605, "is_disabled": 0, "type": "electric_scooter", "lon": -77.0234395, "bike_id": "b4a86ec843e8f7ebee108f446fa0e6be", "fusion_lat": 0.0, "name": "b4a86ec843e8f7ebee108f446fa0e6be", "is_reserved": 0, "rental_uris": {"android": "https://dc.lft.to/lastmile_qr_scan", "ios": "https://dc.lft.to/lastmile_qr_scan"}, "fusion_lon": 0.0}, {"lat": 38.85566033333333, "is_disabled": 0, "type": "electric_scooter", "lon": -76.99518483333334, "bike_id": "ab71a442826b098fe337766dbfac6d1f", "fusion_lat": 0.0, "name": "ab71a442826b098fe337766dbfac6d1f", "is_reserved": 0, "rental_uris": {"android": "https://dc.lft.to/lastmile_qr_scan", "ios": "https://dc.lft.to/lastmile_qr_scan"}, "fusion_lon": 0.0}, {"lat": 38.90558383333333, "is_disabled": 0, "type": "electric_scooter", "lon": -77.04244916666667, "bike_id": "e9993baeef92f3f73515fad691900e56", "fusion_lat": 0.0, "name": "e9993baeef92f3f73515fad691900e56", "is_reserved": 0, "rental_uris": {"android": "https://dc.lft.to/lastmile_qr_scan", "ios": "https://dc.lft.to/lastmile_qr_scan"}, "fusion_lon": 0.0}, {"lat": 38.91522466666667, "is_disabled": 0, "type": "electric_scooter", "lon": -77.0200025, "bike_id": "7602709f2b60ef0e4af6cfff0831ca2a", "fusion_lat": 0.0, "name": "7602709f2b60ef0e4af6cfff0831ca2a", "is_reserved": 0, "rental_uris": {"android": "https://dc.lft.to/lastmile_qr_scan", "ios": "https://dc.lft.to/lastmile_qr_scan"}, "fusion_lon": 0.0}, {"lat": 38.903303666666666, "is_disabled": 0, "type": "electric_scooter", "lon": -77.0260115, "bike_id": "e8f17dcd4d5fc8ca25ce484ed5183c2f", "fusion_lat": 0.0, "name": "e8f17dcd4d5fc8ca25ce484ed5183c2f", "is_reserved": 0, "rental_uris": {"android": "https://dc.lft.to/lastmile_qr_scan", "ios": "https://dc.lft.to/lastmile_qr_scan"}, "fusion_lon": 0.0}, {"lat": 38.9222675, "is_disabled": 0, "type": "electric_scooter", "lon": -77.04125416666666, "bike_id": "0b841190f4fc5d3b76ec57224d8e22a4", "fusion_lat": 0.0, "name": "0b841190f4fc5d3b76ec57224d8e22a4", "is_reserved": 0, "rental_uris": {"android": "https://dc.lft.to/lastmile_qr_scan", "ios": "https://dc.lft.to/lastmile_qr_scan"}, "fusion_lon": 0.0}, {"lat": 38.88161866666667, "is_disabled": 0, "type": "electric_scooter", "lon": -76.9297605, "bike_id": "621b4c137876f63d0d2d4a7de6a13c5c", "fusion_lat": 0.0, "name": "621b4c137876f63d0d2d4a7de6a13c5c", "is_reserved": 0, "rental_uris": {"android": "https://dc.lft.to/lastmile_qr_scan", "ios": "https://dc.lft.to/lastmile_qr_scan"}, "fusion_lon": 0.0}, {"lat": 38.92455416666667, "is_disabled": 0, "type": "electric_scooter", "lon": -77.05767566666667, "bike_id": "1a9530f4d4b99b37be4e78bc0dffb415", "fusion_lat": 0.0, "name": "1a9530f4d4b99b37be4e78bc0dffb415", "is_reserved": 0, "rental_uris": {"android": "https://dc.lft.to/lastmile_qr_scan", "ios": "https://dc.lft.to/lastmile_qr_scan"}, "fusion_lon": 0.0}, {"lat": 38.908724666666664, "is_disabled": 0, "type": "electric_scooter", "lon": -76.99785366666667, "bike_id": "04897e9b281016a0c0b316289c94822a", "fusion_lat": 0.0, "name": "04897e9b281016a0c0b316289c94822a", "is_reserved": 0, "rental_uris": {"android": "https://dc.lft.to/lastmile_qr_scan", "ios": "https://dc.lft.to/lastmile_qr_scan"}, "fusion_lon": 0.0}, {"lat": 38.93630783333333, "is_disabled": 0, "type": "electric_scooter", "lon": -77.05879233333333, "bike_id": "97f3973d3946f90c15d03f758175027c", "fusion_lat": 0.0, "name": "97f3973d3946f90c15d03f758175027c", "is_reserved": 0, "rental_uris": {"android": "https://dc.lft.to/lastmile_qr_scan", "ios": "https://dc.lft.to/lastmile_qr_scan"}, "fusion_lon": 0.0}, {"lat": 38.89599533333333, "is_disabled": 0, "type": "electric_scooter", "lon": -76.95523983333334, "bike_id": "d09818f39079357c2823e9d83621cde1", "fusion_lat": 0.0, "name": "d09818f39079357c2823e9d83621cde1", "is_reserved": 0, "rental_uris": {"android": "https://dc.lft.to/lastmile_qr_scan", "ios": "https://dc.lft.to/lastmile_qr_scan"}, "fusion_lon": 0.0}, {"lat": 38.92472333333333, "is_disabled": 0, "type": "electric_scooter", "lon": -77.03386, "bike_id": "27d2ea0d0a52a31d29d9e22aaa1600ba", "fusion_lat": 0.0, "name": "27d2ea0d0a52a31d29d9e22aaa1600ba", "is_reserved": 0, "rental_uris": {"android": "https://dc.lft.to/lastmile_qr_scan", "ios": "https://dc.lft.to/lastmile_qr_scan"}, "fusion_lon": 0.0}, {"lat": 38.90265566666667, "is_disabled": 0, "type": "electric_scooter", "lon": -77.03941966666666, "bike_id": "e705419d837c1a43d9d9174653383f67", "fusion_lat": 0.0, "name": "e705419d837c1a43d9d9174653383f67", "is_reserved": 0, "rental_uris": {"android": "https://dc.lft.to/lastmile_qr_scan", "ios": "https://dc.lft.to/lastmile_qr_scan"}, "fusion_lon": 0.0}, {"lat": 38.90023033333333, "is_disabled": 0, "type": "electric_scooter", "lon": -77.01183083333333, "bike_id": "485cd8fe8f31309e6befd3f08a90b5e1", "fusion_lat": 0.0, "name": "485cd8fe8f31309e6befd3f08a90b5e1", "is_reserved": 0, "rental_uris": {"android": "https://dc.lft.to/lastmile_qr_scan", "ios": "https://dc.lft.to/lastmile_qr_scan"}, "fusion_lon": 0.0}, {"lat": 38.9056595, "is_disabled": 0, "type": "electric_scooter", "lon": -77.0222455, "bike_id": "94b85306bd2c64e70eb6e145c7e7e3aa", "fusion_lat": 0.0, "name": "94b85306bd2c64e70eb6e145c7e7e3aa", "is_reserved": 0, "rental_uris": {"android": "https://dc.lft.to/lastmile_qr_scan", "ios": "https://dc.lft.to/lastmile_qr_scan"}, "fusion_lon": 0.0}, {"lat": 38.884761833333336, "is_disabled": 0, "type": "electric_scooter", "lon": -76.9453175, "bike_id": "ae245cc217ed894e5fa3ea4f86c5ac5e", "fusion_lat": 0.0, "name": "ae245cc217ed894e5fa3ea4f86c5ac5e", "is_reserved": 0, "rental_uris": {"android": "https://dc.lft.to/lastmile_qr_scan", "ios": "https://dc.lft.to/lastmile_qr_scan"}, "fusion_lon": 0.0}, {"lat": 38.916858833333336, "is_disabled": 0, "type": "electric_scooter", "lon": -77.02955433333334, "bike_id": "e786e2f187291c9f099e9f0692234c02", "fusion_lat": 0.0, "name": "e786e2f187291c9f099e9f0692234c02", "is_reserved": 0, "rental_uris": {"android": "https://dc.lft.to/lastmile_qr_scan", "ios": "https://dc.lft.to/lastmile_qr_scan"}, "fusion_lon": 0.0}, {"lat": 38.893108, "is_disabled": 0, "type": "electric_scooter", "lon": -77.04495733333333, "bike_id": "6f93061fd65dfc0f0d4c48a6a11d36db", "fusion_lat": 0.0, "name": "6f93061fd65dfc0f0d4c48a6a11d36db", "is_reserved": 0, "rental_uris": {"android": "https://dc.lft.to/lastmile_qr_scan", "ios": "https://dc.lft.to/lastmile_qr_scan"}, "fusion_lon": 0.0}, {"lat": 38.887439666666666, "is_disabled": 0, "type": "electric_scooter", "lon": -77.02079183333333, "bike_id": "36cb7f0c2d25947c126fa3b0b099d9b7", "fusion_lat": 0.0, "name": "36cb7f0c2d25947c126fa3b0b099d9b7", "is_reserved": 0, "rental_uris": {"android": "https://dc.lft.to/lastmile_qr_scan", "ios": "https://dc.lft.to/lastmile_qr_scan"}, "fusion_lon": 0.0}, {"lat": 38.94758316666667, "is_disabled": 0, "type": "electric_scooter", "lon": -77.06572183333333, "bike_id": "73efbe8902c757784b2e874fdbaf81fd", "fusion_lat": 0.0, "name": "73efbe8902c757784b2e874fdbaf81fd", "is_reserved": 0, "rental_uris": {"android": "https://dc.lft.to/lastmile_qr_scan", "ios": "https://dc.lft.to/lastmile_qr_scan"}, "fusion_lon": 0.0}, {"lat": 38.896784333333336, "is_disabled": 0, "type": "electric_scooter", "lon": -77.04471216666667, "bike_id": "ff2e1530dfa49339ab25ca50658d1fff", "fusion_lat": 0.0, "name": "ff2e1530dfa49339ab25ca50658d1fff", "is_reserved": 0, "rental_uris": {"android": "https://dc.lft.to/lastmile_qr_scan", "ios": "https://dc.lft.to/lastmile_qr_scan"}, "fusion_lon": 0.0}, {"lat": 38.90371416666667, "is_disabled": 0, "type": "electric_scooter", "lon": -77.00756033333333, "bike_id": "274cc689f81c4dd887026d0d788a0271", "fusion_lat": 0.0, "name": "274cc689f81c4dd887026d0d788a0271", "is_reserved": 0, "rental_uris": {"android": "https://dc.lft.to/lastmile_qr_scan", "ios": "https://dc.lft.to/lastmile_qr_scan"}, "fusion_lon": 0.0}, {"lat": 38.8995505, "is_disabled": 0, "type": "electric_scooter", "lon": -77.051733, "bike_id": "c5f2c23495594341b6ec2b058580176e", "fusion_lat": 0.0, "name": "c5f2c23495594341b6ec2b058580176e", "is_reserved": 0, "rental_uris": {"android": "https://dc.lft.to/lastmile_qr_scan", "ios": "https://dc.lft.to/lastmile_qr_scan"}, "fusion_lon": 0.0}, {"lat": 38.908053, "is_disabled": 0, "type": "electric_scooter", "lon": -76.98570883333333, "bike_id": "f20dd5b3e5a3056ad83689001e6fa6e9", "fusion_lat": 0.0, "name": "f20dd5b3e5a3056ad83689001e6fa6e9", "is_reserved": 0, "rental_uris": {"android": "https://dc.lft.to/lastmile_qr_scan", "ios": "https://dc.lft.to/lastmile_qr_scan"}, "fusion_lon": 0.0}, {"lat": 38.89740166666667, "is_disabled": 0, "type": "electric_scooter", "lon": -77.04682416666667, "bike_id": "244cb90da02667549c85a91f5b00c079", "fusion_lat": 0.0, "name": "244cb90da02667549c85a91f5b00c079", "is_reserved": 0, "rental_uris": {"android": "https://dc.lft.to/lastmile_qr_scan", "ios": "https://dc.lft.to/lastmile_qr_scan"}, "fusion_lon": 0.0}, {"lat": 38.922592, "is_disabled": 0, "type": "electric_scooter", "lon": -77.04143383333333, "bike_id": "ae2c9336ed6406ccef7f64ffade6f7f1", "fusion_lat": 0.0, "name": "ae2c9336ed6406ccef7f64ffade6f7f1", "is_reserved": 0, "rental_uris": {"android": "https://dc.lft.to/lastmile_qr_scan", "ios": "https://dc.lft.to/lastmile_qr_scan"}, "fusion_lon": 0.0}, {"lat": 38.96224633333333, "is_disabled": 0, "type": "electric_scooter", "lon": -77.02785166666666, "bike_id": "a97926e7c1c35969c78a8f1126750d4b", "fusion_lat": 0.0, "name": "a97926e7c1c35969c78a8f1126750d4b", "is_reserved": 0, "rental_uris": {"android": "https://dc.lft.to/lastmile_qr_scan", "ios": "https://dc.lft.to/lastmile_qr_scan"}, "fusion_lon": 0.0}, {"lat": 38.89977366666667, "is_disabled": 0, "type": "electric_scooter", "lon": -77.05095433333334, "bike_id": "a5fe97d32e9d95de8023b1c312b97109", "fusion_lat": 0.0, "name": "a5fe97d32e9d95de8023b1c312b97109", "is_reserved": 0, "rental_uris": {"android": "https://dc.lft.to/lastmile_qr_scan", "ios": "https://dc.lft.to/lastmile_qr_scan"}, "fusion_lon": 0.0}, {"lat": 38.92253766666666, "is_disabled": 0, "type": "electric_scooter", "lon": -77.034112, "bike_id": "f83fc41c2b504197276a08069b70c0e6", "fusion_lat": 0.0, "name": "f83fc41c2b504197276a08069b70c0e6", "is_reserved": 0, "rental_uris": {"android": "https://dc.lft.to/lastmile_qr_scan", "ios": "https://dc.lft.to/lastmile_qr_scan"}, "fusion_lon": 0.0}, {"lat": 38.9263105, "is_disabled": 0, "type": "electric_scooter", "lon": -77.03792966666667, "bike_id": "8dfcf1f96f44fdfb59d9527598716e03", "fusion_lat": 0.0, "name": "8dfcf1f96f44fdfb59d9527598716e03", "is_reserved": 0, "rental_uris": {"android": "https://dc.lft.to/lastmile_qr_scan", "ios": "https://dc.lft.to/lastmile_qr_scan"}, "fusion_lon": 0.0}, {"lat": 38.919139, "is_disabled": 0, "type": "electric_scooter", "lon": -77.02951583333333, "bike_id": "a567f87d339197a32d7d6ccf3615e253", "fusion_lat": 0.0, "name": "a567f87d339197a32d7d6ccf3615e253", "is_reserved": 0, "rental_uris": {"android": "https://dc.lft.to/lastmile_qr_scan", "ios": "https://dc.lft.to/lastmile_qr_scan"}, "fusion_lon": 0.0}, {"lat": 38.864322666666666, "is_disabled": 0, "type": "electric_scooter", "lon": -76.97392716666667, "bike_id": "ee68d44fc27a8a5cbb42654fac96f370", "fusion_lat": 0.0, "name": "ee68d44fc27a8a5cbb42654fac96f370", "is_reserved": 0, "rental_uris": {"android": "https://dc.lft.to/lastmile_qr_scan", "ios": "https://dc.lft.to/lastmile_qr_scan"}, "fusion_lon": 0.0}, {"lat": 38.892176666666664, "is_disabled": 0, "type": "electric_scooter", "lon": -77.02648333333333, "bike_id": "39a9b21a01811b9f84b1373ff3283d78", "fusion_lat": 0.0, "name": "39a9b21a01811b9f84b1373ff3283d78", "is_reserved": 0, "rental_uris": {"android": "https://dc.lft.to/lastmile_qr_scan", "ios": "https://dc.lft.to/lastmile_qr_scan"}, "fusion_lon": 0.0}, {"lat": 38.874726, "is_disabled": 0, "type": "electric_scooter", "lon": -77.01074016666666, "bike_id": "b503edc6c0eec894aa3070c0976590df", "fusion_lat": 0.0, "name": "b503edc6c0eec894aa3070c0976590df", "is_reserved": 0, "rental_uris": {"android": "https://dc.lft.to/lastmile_qr_scan", "ios": "https://dc.lft.to/lastmile_qr_scan"}, "fusion_lon": 0.0}, {"lat": 38.902902, "is_disabled": 0, "type": "electric_scooter", "lon": -77.05325483333333, "bike_id": "9f4e19906c2c0aeee76e65c0f74cba09", "fusion_lat": 0.0, "name": "9f4e19906c2c0aeee76e65c0f74cba09", "is_reserved": 0, "rental_uris": {"android": "https://dc.lft.to/lastmile_qr_scan", "ios": "https://dc.lft.to/lastmile_qr_scan"}, "fusion_lon": 0.0}, {"lat": 38.863433666666666, "is_disabled": 0, "type": "electric_scooter", "lon": -76.99006266666666, "bike_id": "938c25e54db3445640e4e93673f204f1", "fusion_lat": 0.0, "name": "938c25e54db3445640e4e93673f204f1", "is_reserved": 0, "rental_uris": {"android": "https://dc.lft.to/lastmile_qr_scan", "ios": "https://dc.lft.to/lastmile_qr_scan"}, "fusion_lon": 0.0}, {"lat": 38.92128483333333, "is_disabled": 0, "type": "electric_scooter", "lon": -77.0442915, "bike_id": "a1084f938d32ae20a05f9d4a856d64e8", "fusion_lat": 0.0, "name": "a1084f938d32ae20a05f9d4a856d64e8", "is_reserved": 0, "rental_uris": {"android": "https://dc.lft.to/lastmile_qr_scan", "ios": "https://dc.lft.to/lastmile_qr_scan"}, "fusion_lon": 0.0}, {"lat": 38.957806833333336, "is_disabled": 0, "type": "electric_scooter", "lon": -77.02471566666667, "bike_id": "06d2fcabc78a9ae24e668e791793bb76", "fusion_lat": 0.0, "name": "06d2fcabc78a9ae24e668e791793bb76", "is_reserved": 0, "rental_uris": {"android": "https://dc.lft.to/lastmile_qr_scan", "ios": "https://dc.lft.to/lastmile_qr_scan"}, "fusion_lon": 0.0}, {"lat": 38.92851, "is_disabled": 0, "type": "electric_bike", "lon": -77.03297516666666, "bike_id": "e362208795b0aa66243aa72afedfbb5d", "fusion_lat": 0.0, "name": "e362208795b0aa66243aa72afedfbb5d", "is_reserved": 0, "rental_uris": {"android": "https://dc.lft.to/lastmile_qr_scan", "ios": "https://dc.lft.to/lastmile_qr_scan"}, "fusion_lon": 0.0}, {"lat": 38.879256, "is_disabled": 0, "type": "electric_scooter", "lon": -77.02257966666667, "bike_id": "2f24d0326487d504c9780ba956230d1a", "fusion_lat": 0.0, "name": "2f24d0326487d504c9780ba956230d1a", "is_reserved": 0, "rental_uris": {"android": "https://dc.lft.to/lastmile_qr_scan", "ios": "https://dc.lft.to/lastmile_qr_scan"}, "fusion_lon": 0.0}, {"lat": 38.927447, "is_disabled": 0, "type": "electric_bike", "lon": -77.0776615, "bike_id": "17e733f53e2688630cc3af8e0c5dffc4", "fusion_lat": 0.0, "name": "17e733f53e2688630cc3af8e0c5dffc4", "is_reserved": 0, "rental_uris": {"android": "https://dc.lft.to/lastmile_qr_scan", "ios": "https://dc.lft.to/lastmile_qr_scan"}, "fusion_lon": 0.0}, {"lat": 38.92191783333333, "is_disabled": 0, "type": "electric_scooter", "lon": -77.04258166666666, "bike_id": "57a8809936f783b65f08f5815e1b1d60", "fusion_lat": 0.0, "name": "57a8809936f783b65f08f5815e1b1d60", "is_reserved": 0, "rental_uris": {"android": "https://dc.lft.to/lastmile_qr_scan", "ios": "https://dc.lft.to/lastmile_qr_scan"}, "fusion_lon": 0.0}, {"lat": 38.8982575, "is_disabled": 0, "type": "electric_scooter", "lon": -77.03301566666667, "bike_id": "39d383bf7242c348da66751b3b4f39d7", "fusion_lat": 0.0, "name": "39d383bf7242c348da66751b3b4f39d7", "is_reserved": 0, "rental_uris": {"android": "https://dc.lft.to/lastmile_qr_scan", "ios": "https://dc.lft.to/lastmile_qr_scan"}, "fusion_lon": 0.0}, {"lat": 38.8428795, "is_disabled": 0, "type": "electric_scooter", "lon": -76.99957683333334, "bike_id": "cf4cb138b9486ada352473bbaf8b9df9", "fusion_lat": 0.0, "name": "cf4cb138b9486ada352473bbaf8b9df9", "is_reserved": 0, "rental_uris": {"android": "https://dc.lft.to/lastmile_qr_scan", "ios": "https://dc.lft.to/lastmile_qr_scan"}, "fusion_lon": 0.0}, {"lat": 38.899135666666666, "is_disabled": 0, "type": "electric_scooter", "lon": -76.93383816666666, "bike_id": "36fd797735e3e598bd81b83a99f683bf", "fusion_lat": 0.0, "name": "36fd797735e3e598bd81b83a99f683bf", "is_reserved": 0, "rental_uris": {"android": "https://dc.lft.to/lastmile_qr_scan", "ios": "https://dc.lft.to/lastmile_qr_scan"}, "fusion_lon": 0.0}, {"lat": 38.87481416666667, "is_disabled": 0, "type": "electric_bike", "lon": -77.00825766666667, "bike_id": "04089b5bd2aa02924a96e09c3b0f9f36", "fusion_lat": 0.0, "name": "04089b5bd2aa02924a96e09c3b0f9f36", "is_reserved": 0, "rental_uris": {"android": "https://dc.lft.to/lastmile_qr_scan", "ios": "https://dc.lft.to/lastmile_qr_scan"}, "fusion_lon": 0.0}, {"lat": 38.95549716666667, "is_disabled": 0, "type": "electric_bike", "lon": -76.9354835, "bike_id": "082d412ab49330e76fe6ea8a97868ce9", "fusion_lat": 0.0, "name": "082d412ab49330e76fe6ea8a97868ce9", "is_reserved": 0, "rental_uris": {"android": "https://dc.lft.to/lastmile_qr_scan", "ios": "https://dc.lft.to/lastmile_qr_scan"}, "fusion_lon": 0.0}, {"lat": 38.95324333333333, "is_disabled": 0, "type": "electric_bike", "lon": -76.9882205, "bike_id": "895ba3bf3e1a02105c8e47d3d614e5d1", "fusion_lat": 0.0, "name": "895ba3bf3e1a02105c8e47d3d614e5d1", "is_reserved": 0, "rental_uris": {"android": "https://dc.lft.to/lastmile_qr_scan", "ios": "https://dc.lft.to/lastmile_qr_scan"}, "fusion_lon": 0.0}, {"lat": 38.866130166666665, "is_disabled": 0, "type": "electric_scooter", "lon": -76.98660266666667, "bike_id": "c10537ee3aa18137dc4cf78a38b43609", "fusion_lat": 0.0, "name": "c10537ee3aa18137dc4cf78a38b43609", "is_reserved": 0, "rental_uris": {"android": "https://dc.lft.to/lastmile_qr_scan", "ios": "https://dc.lft.to/lastmile_qr_scan"}, "fusion_lon": 0.0}, {"lat": 38.93233516666667, "is_disabled": 0, "type": "electric_scooter", "lon": -77.03267716666667, "bike_id": "60ad60704f305257e204d177254bdc8d", "fusion_lat": 0.0, "name": "60ad60704f305257e204d177254bdc8d", "is_reserved": 0, "rental_uris": {"android": "https://dc.lft.to/lastmile_qr_scan", "ios": "https://dc.lft.to/lastmile_qr_scan"}, "fusion_lon": 0.0}, {"lat": 38.84423066666667, "is_disabled": 0, "type": "electric_scooter", "lon": -76.9978435, "bike_id": "11ccaa8a1b8359d49a5e2f573bbd427c", "fusion_lat": 0.0, "name": "11ccaa8a1b8359d49a5e2f573bbd427c", "is_reserved": 0, "rental_uris": {"android": "https://dc.lft.to/lastmile_qr_scan", "ios": "https://dc.lft.to/lastmile_qr_scan"}, "fusion_lon": 0.0}, {"lat": 38.802252, "is_disabled": 0, "type": "electric_bike", "lon": -77.0791965, "bike_id": "63548ff2c7174b1d51380a45c36d0c7b", "fusion_lat": 0.0, "name": "63548ff2c7174b1d51380a45c36d0c7b", "is_reserved": 0, "rental_uris": {"android": "https://dc.lft.to/lastmile_qr_scan", "ios": "https://dc.lft.to/lastmile_qr_scan"}, "fusion_lon": 0.0}, {"lat": 38.907665, "is_disabled": 0, "type": "electric_scooter", "lon": -77.02065683333333, "bike_id": "de2d30557a637ff7f54e6b240ec26cab", "fusion_lat": 0.0, "name": "de2d30557a637ff7f54e6b240ec26cab", "is_reserved": 0, "rental_uris": {"android": "https://dc.lft.to/lastmile_qr_scan", "ios": "https://dc.lft.to/lastmile_qr_scan"}, "fusion_lon": 0.0}, {"lat": 38.95667516666666, "is_disabled": 0, "type": "electric_bike", "lon": -77.0278535, "bike_id": "543f75e3ca56953e05b3709a22163375", "fusion_lat": 0.0, "name": "543f75e3ca56953e05b3709a22163375", "is_reserved": 0, "rental_uris": {"android": "https://dc.lft.to/lastmile_qr_scan", "ios": "https://dc.lft.to/lastmile_qr_scan"}, "fusion_lon": 0.0}, {"lat": 38.915582, "is_disabled": 0, "type": "electric_scooter", "lon": -77.032024, "bike_id": "01597f91b3ef67ea01b7e84790555de4", "fusion_lat": 0.0, "name": "01597f91b3ef67ea01b7e84790555de4", "is_reserved": 0, "rental_uris": {"android": "https://dc.lft.to/lastmile_qr_scan", "ios": "https://dc.lft.to/lastmile_qr_scan"}, "fusion_lon": 0.0}, {"lat": 38.918060833333335, "is_disabled": 0, "type": "electric_scooter", "lon": -77.034405, "bike_id": "0db0a22206a51cd71bc6948f4413dc0f", "fusion_lat": 0.0, "name": "0db0a22206a51cd71bc6948f4413dc0f", "is_reserved": 0, "rental_uris": {"android": "https://dc.lft.to/lastmile_qr_scan", "ios": "https://dc.lft.to/lastmile_qr_scan"}, "fusion_lon": 0.0}, {"lat": 38.890885833333336, "is_disabled": 0, "type": "electric_scooter", "lon": -76.98683016666666, "bike_id": "fece64d635ae7543af96c3e1310c57c0", "fusion_lat": 0.0, "name": "fece64d635ae7543af96c3e1310c57c0", "is_reserved": 0, "rental_uris": {"android": "https://dc.lft.to/lastmile_qr_scan", "ios": "https://dc.lft.to/lastmile_qr_scan"}, "fusion_lon": 0.0}, {"lat": 38.906861666666664, "is_disabled": 0, "type": "electric_bike", "lon": -76.9519375, "bike_id": "80e4d2b6491ac1c1202a59c822ab6c01", "fusion_lat": 0.0, "name": "80e4d2b6491ac1c1202a59c822ab6c01", "is_reserved": 0, "rental_uris": {"android": "https://dc.lft.to/lastmile_qr_scan", "ios": "https://dc.lft.to/lastmile_qr_scan"}, "fusion_lon": 0.0}, {"lat": 38.9155575, "is_disabled": 0, "type": "electric_scooter", "lon": -77.03247633333334, "bike_id": "0efb8c2cb34d3e9dec029a6911c81d7e", "fusion_lat": 0.0, "name": "0efb8c2cb34d3e9dec029a6911c81d7e", "is_reserved": 0, "rental_uris": {"android": "https://dc.lft.to/lastmile_qr_scan", "ios": "https://dc.lft.to/lastmile_qr_scan"}, "fusion_lon": 0.0}, {"lat": 38.8857325, "is_disabled": 0, "type": "electric_scooter", "lon": -77.0198075, "bike_id": "1a9d4df6ba05acc81363a795f611c056", "fusion_lat": 0.0, "name": "1a9d4df6ba05acc81363a795f611c056", "is_reserved": 0, "rental_uris": {"android": "https://dc.lft.to/lastmile_qr_scan", "ios": "https://dc.lft.to/lastmile_qr_scan"}, "fusion_lon": 0.0},