{"data": {"bikes": [{"rental_uris": {"android": "https://dc.lft.to/lastmile_qr_scan", "ios": "https://dc.lft.to/lastmile_qr_scan"}, "fusion_lat": 0.0, "is_reserved": 0, "lat": 38.89796416666667, "name": "118100c36aad164d267644da8daea8cb", "bike_id": "118100c36aad164d267644da8daea8cb", "is_disabled": 0, "fusion_lon": 0.0, "type": "electric_scooter", "lon": -77.05472066666667}, {"rental_uris": {"android": "https://dc.lft.to/lastmile_qr_scan", "ios": "https://dc.lft.to/lastmile_qr_scan"}, "fusion_lat": 0.0, "is_reserved": 0, "lat": 38.872958833333335, "name": "0792be90a48be39020f7aad987648f65", "bike_id": "0792be90a48be39020f7aad987648f65", "is_disabled": 0, "fusion_lon": 0.0, "type": "electric_scooter", "lon": -77.00228133333333}, {"rental_uris": {"android": "https://dc.lft.to/lastmile_qr_scan", "ios": "https://dc.lft.to/lastmile_qr_scan"}, "fusion_lat": 0.0, "is_reserved": 0, "lat": 38.918501666666664, "name": "8348c3eef3eebe981e61a52f72a7dcf1", "bike_id": "8348c3eef3eebe981e61a52f72a7dcf1", "is_disabled": 0, "fusion_lon": 0.0, "type": "electric_scooter", "lon": -77.0218235}, {"rental_uris": {"android": "https://dc.lft.to/lastmile_qr_scan", "ios": "https://dc.lft.to/lastmile_qr_scan"}, "fusion_lat": 0.0, "is_reserved": 0, "lat": 38.898369, "name": "487160d4de388d5275d7820f591f17c4", "bike_id": "487160d4de388d5275d7820f591f17c4", "is_disabled": 0, "fusion_lon": 0.0, "type": "electric_scooter", "lon": -77.04239183333334}, {"rental_uris": {"android": "https://dc.lft.to/lastmile_qr_scan", "ios": "https://dc.lft.to/lastmile_qr_scan"}, "fusion_lat": 0.0, "is_reserved": 0, "lat": 38.91599933333333, "name": "807eeeca8b087cfb6fa0c85a48b19ef5", "bike_id": "807eeeca8b087cfb6fa0c85a48b19ef5", "is_disabled": 0, "fusion_lon": 0.0, "type": "electric_scooter", "lon": -77.022938}, {"rental_uris": {"android": "https://dc.lft.to/lastmile_qr_scan", "ios": "https://dc.lft.to/lastmile_qr_scan"}, "fusion_lat": 0.0, "is_reserved": 0, "lat": 38.89228083333333, "name": "2d8d6ddef816874d977f8b45f9f10ee4", "bike_id": "2d8d6ddef816874d977f8b45f9f10ee4", "is_disabled": 0, "fusion_lon": 0.0, "type": "electric_scooter", "lon": -77.039936}, {"rental_uris": {"android": "https://dc.lft.to/lastmile_qr_scan", "ios": "https://dc.lft.to/lastmile_qr_scan"}, "fusion_lat": 0.0, "is_reserved": 0, "lat": 38.88988416666667, "name": "516aef09d1ac97811009dea310f3af7c", "bike_id": "516aef09d1ac97811009dea310f3af7c", "is_disabled": 0, "fusion_lon": 0.0, "type": "electric_scooter", "lon": -77.00334083333334}, {"rental_uris": {"android": "https://dc.lft.to/lastmile_qr_scan", "ios": "https://dc.lft.to/lastmile_qr_scan"}, "fusion_lat": 0.0, "is_reserved": 0, "lat": 38.922462, "name": "60c53a678daac39fabd5a2e663552293", "bike_id": "60c53a678daac39fabd5a2e663552293", "is_disabled": 0, "fusion_lon": 0.0, "type": "electric_scooter", "lon": -77.034637}, {"rental_uris": {"android": "https://dc.lft.to/lastmile_qr_scan", "ios": "https://dc.lft.to/lastmile_qr_scan"}, "fusion_lat": 0.0, "is_reserved": 0, "lat": 38.90572516666667, "name": "aff7702f918506cbc741c97eae61ac75", "bike_id": "aff7702f918506cbc741c97eae61ac75", "is_disabled": 0, "fusion_lon": 0.0, "type": "electric_scooter", "lon": -76.98204016666666}, {"rental_uris": {"android": "https://dc.lft.to/lastmile_qr_scan", "ios": "https://dc.lft.to/lastmile_qr_scan"}, "fusion_lat": 0.0, "is_reserved": 0, "lat": 38.90735183333334, "name": "45f78a2c1d36ae8f09aacd28bca6b4af", "bike_id": "45f78a2c1d36ae8f09aacd28bca6b4af", "is_disabled": 0, "fusion_lon": 0.0, "type": "electric_scooter", "lon": -77.00235683333334}, {"rental_uris": {"android": "https://dc.lft.to/lastmile_qr_scan", "ios": "https://dc.lft.to/lastmile_qr_scan"}, "fusion_lat": 0.0, "is_reserved": 0, "lat": 38.91422466666667, "name": "4a8f5a937f472731caf12d09ad7b100b", "bike_id": "4a8f5a937f472731caf12d09ad7b100b", "is_disabled": 0, "fusion_lon": 0.0, "type": "electric_scooter", "lon": -77.01915466666667}, {"rental_uris": {"android": "https://dc.lft.to/lastmile_qr_scan", "ios": "https://dc.lft.to/lastmile_qr_scan"}, "fusion_lat": 0.0, "is_reserved": 0, "lat": 38.88712833333334, "name": "79d5ebf04b48279b62f994d5c5a84cee", "bike_id": "79d5ebf04b48279b62f994d5c5a84cee", "is_disabled": 0, "fusion_lon": 0.0, "type": "electric_scooter", "lon": -77.0135935}, {"rental_uris": {"android": "https://dc.lft.to/lastmile_qr_scan", "ios": "https://dc.lft.to/lastmile_qr_scan"}, "fusion_lat": 0.0, "is_reserved": 0, "lat": 38.907416166666664, "name": "ede3d0d184a2f916c935a79128811042", "bike_id": "ede3d0d184a2f916c935a79128811042", "is_disabled": 0, "fusion_lon": 0.0, "type": "electric_scooter", "lon": -77.02598033333334}, {"rental_uris": {"android": "https://dc.lft.to/lastmile_qr_scan", "ios": "https://dc.lft.to/lastmile_qr_scan"}, "fusion_lat": 0.0, "is_reserved": 0, "lat": 38.93405933333333, "name": "a7f219b0326d211231712b59fe30bda0", "bike_id": "a7f219b0326d211231712b59fe30bda0", "is_disabled": 0, "fusion_lon": 0.0, "type": "electric_scooter", "lon": -77.02225183333333}, {"rental_uris": {"android": "https://dc.lft.to/lastmile_qr_scan", "ios": "https://dc.lft.to/lastmile_qr_scan"}, "fusion_lat": 0.0, "is_reserved": 0, "lat": 38.921830166666666, "name": "c2d4eee5d894a9b9e746453f3a39e5a4", "bike_id": "c2d4eee5d894a9b9e746453f3a39e5a4", "is_disabled": 0, "fusion_lon": 0.0, "type": "electric_scooter", "lon": -77.04233583333334}, {"rental_uris": {"android": "https://dc.lft.to/lastmile_qr_scan", "ios": "https://dc.lft.to/lastmile_qr_scan"}, "fusion_lat": 0.0, "is_reserved": 0, "lat": 38.88135066666667, "name": "24bc123b4d7906b99156e45dec4a9a22", "bike_id": "24bc123b4d7906b99156e45dec4a9a22", "is_disabled": 0, "fusion_lon": 0.0, "type": "electric_scooter", "lon": -77.01697416666667}, {"rental_uris": {"android": "https://dc.lft.to/lastmile_qr_scan", "ios": "https://dc.lft.to/lastmile_qr_scan"}, "fusion_lat": 0.0, "is_reserved": 0, "lat": 38.8980055, "name": "4e4095b032e8702a1369dd89f4aebecd", "bike_id": "4e4095b032e8702a1369dd89f4aebecd", "is_disabled": 0, "fusion_lon": 0.0, "type": "electric_scooter", "lon": -77.01178633333333}, {"rental_uris": {"android": "https://dc.lft.to/lastmile_qr_scan", "ios": "https://dc.lft.to/lastmile_qr_scan"}, "fusion_lat": 0.0, "is_reserved": 0, "lat": 38.831596, "name": "0d256a0675dfa28443d9c29cff73c2c8", "bike_id": "0d256a0675dfa28443d9c29cff73c2c8", "is_disabled": 0, "fusion_lon": 0.0, "type": "electric_bike", "lon": -76.995417}, {"rental_uris": {"android": "https://dc.lft.to/lastmile_qr_scan", "ios": "https://dc.lft.to/lastmile_qr_scan"}, "fusion_lat": 0.0, "is_reserved": 0, "lat": 38.902705833333336, "name": "6e5fce18251240dce3b85a7d38a8026b", "bike_id": "6e5fce18251240dce3b85a7d38a8026b", "is_disabled": 0, "fusion_lon": 0.0, "type": "electric_scooter", "lon": -77.03846416666667}, {"rental_uris": {"android": "https://dc.lft.to/lastmile_qr_scan", "ios": "https://dc.lft.to/lastmile_qr_scan"}, "fusion_lat": 0.0, "is_reserved": 0, "lat": 38.904347333333334, "name": "10d89515d8b15a8526da4f10b088c344", "bike_id": "10d89515d8b15a8526da4f10b088c344", "is_disabled": 0, "fusion_lon": 0.0, "type": "electric_scooter", "lon": -77.025912}, {"rental_uris": {"android": "https://dc.lft.to/lastmile_qr_scan", "ios": "https://dc.lft.to/lastmile_qr_scan"}, "fusion_lat": 0.0, "is_reserved": 0, "lat": 38.92063616666667, "name": "7b1f6b05b5b58b73362f98405fd521d3", "bike_id": "7b1f6b05b5b58b73362f98405fd521d3", "is_disabled": 0, "fusion_lon": 0.0, "type": "electric_scooter", "lon": -77.02506583333333}, {"rental_uris": {"android": "https://dc.lft.to/lastmile_qr_scan", "ios": "https://dc.lft.to/lastmile_qr_scan"}, "fusion_lat": 0.0, "is_reserved": 0, "lat": 38.905656666666665, "name": "9ca53c64fa14c8ba7c807b5dd85c22ee", "bike_id": "9ca53c64fa14c8ba7c807b5dd85c22ee", "is_disabled": 0, "fusion_lon": 0.0, "type": "electric_scooter", "lon": -77.00594466666666}, {"rental_uris": {"android": "https://dc.lft.to/lastmile_qr_scan", "ios": "https://dc.lft.to/lastmile_qr_scan"}, "fusion_lat": 0.0, "is_reserved": 0, "lat": 38.927899833333335, "name": "63b46ccc393eb9d8c6f5a8e304557ad6", "bike_id": "63b46ccc393eb9d8c6f5a8e304557ad6", "is_disabled": 0, "fusion_lon": 0.0, "type": "electric_scooter", "lon": -77.03087616666667}, {"rental_uris": {"android": "https://dc.lft.to/lastmile_qr_scan", "ios": "https://dc.lft.to/lastmile_qr_scan"}, "fusion_lat": 0.0, "is_reserved": 0, "lat": 38.8718035, "name": "7eb8fdb51eb82654a5e8789aa71255dd", "bike_id": "7eb8fdb51eb82654a5e8789aa71255dd", "is_disabled": 0, "fusion_lon": 0.0, "type": "electric_scooter", "lon": -77.006095}, {"rental_uris": {"android": "https://dc.lft.to/lastmile_qr_scan", "ios": "https://dc.lft.to/lastmile_qr_scan"}, "fusion_lat": 0.0, "is_reserved": 0, "lat": 38.8991005, "name": "b4ad2bf2dc02485cfdf0b02cfcb9b499", "bike_id": "b4ad2bf2dc02485cfdf0b02cfcb9b499", "is_disabled": 0, "fusion_lon": 0.0, "type": "electric_scooter", "lon": -76.9882785}, {"rental_uris": {"android": "https://dc.lft.to/lastmile_qr_scan", "ios": "https://dc.lft.to/lastmile_qr_scan"}, "fusion_lat": 0.0, "is_reserved": 0, "lat": 38.87292216666667, "name": "4207cfe6f68862c929e2c4e8d48ac9a9", "bike_id": "4207cfe6f68862c929e2c4e8d48ac9a9", "is_disabled": 0, "fusion_lon": 0.0, "type": "electric_scooter", "lon": -77.009837}, {"rental_uris": {"android": "https://dc.lft.to/lastmile_qr_scan", "ios": "https://dc.lft.to/lastmile_qr_scan"}, "fusion_lat": 0.0, "is_reserved": 0, "lat": 38.91810433333333, "name": "89a9995458657d725c2cbab381ecea53", "bike_id": "89a9995458657d725c2cbab381ecea53", "is_disabled": 0, "fusion_lon": 0.0, "type": "electric_scooter", "lon": -77.009263}, {"rental_uris": {"android": "https://dc.lft.to/lastmile_qr_scan", "ios": "https://dc.lft.to/lastmile_qr_scan"}, "fusion_lat": 0.0, "is_reserved": 0, "lat": 38.850746, "name": "f201150962666b935d260e17afb65d59", "bike_id": "f201150962666b935d260e17afb65d59", "is_disabled": 0, "fusion_lon": 0.0, "type": "electric_bike", "lon": -77.05178166666667}, {"rental_uris": {"android": "https://dc.lft.to/lastmile_qr_scan", "ios": "https://dc.lft.to/lastmile_qr_scan"}, "fusion_lat": 0.0, "is_reserved": 0, "lat": 38.93698766666667, "name": "bd8b4ec31be57317f079a7cb6ea07880", "bike_id": "bd8b4ec31be57317f079a7cb6ea07880", "is_disabled": 0, "fusion_lon": 0.0, "type": "electric_scooter", "lon": -77.060218}, {"rental_uris": {"android": "https://dc.lft.to/lastmile_qr_scan", "ios": "https://dc.lft.to/lastmile_qr_scan"}, "fusion_lat": 0.0, "is_reserved": 0, "lat": 38.91899866666667, "name": "c00e61be22404676d8d71c09a73d334c", "bike_id": "c00e61be22404676d8d71c09a73d334c", "is_disabled": 0, "fusion_lon": 0.0, "type": "electric_scooter", "lon": -77.0218755}, {"rental_uris": {"android": "https://dc.lft.to/lastmile_qr_scan", "ios": "https://dc.lft.to/lastmile_qr_scan"}, "fusion_lat": 0.0, "is_reserved": 0, "lat": 38.90272516666667, "name": "b18c94ad88fa25cb510e0fee8fda767c", "bike_id": "b18c94ad88fa25cb510e0fee8fda767c", "is_disabled": 0, "fusion_lon": 0.0, "type": "electric_scooter", "lon": -77.04595933333333}, {"rental_uris": {"android": "https://dc.lft.to/lastmile_qr_scan", "ios": "https://dc.lft.to/lastmile_qr_scan"}, "fusion_lat": 0.0, "is_reserved": 0, "lat": 38.91700866666667, "name": "e41b336e82a627e5ffc0ee36665b0fa4", "bike_id": "e41b336e82a627e5ffc0ee36665b0fa4", "is_disabled": 0, "fusion_lon": 0.0, "type": "electric_scooter", "lon": -77.05297466666667}, {"rental_uris": {"android": "https://dc.lft.to/lastmile_qr_scan", "ios": "https://dc.lft.to/lastmile_qr_scan"}, "fusion_lat": 0.0, "is_reserved": 0, "lat": 38.909783, "name": "a20d095e6a979a10799b28741b438d2d", "bike_id": "a20d095e6a979a10799b28741b438d2d", "is_disabled": 0, "fusion_lon": 0.0, "type": "electric_scooter", "lon": -77.032109}, {"rental_uris": {"android": "https://dc.lft.to/lastmile_qr_scan", "ios": "https://dc.lft.to/lastmile_qr_scan"}, "fusion_lat": 0.0, "is_reserved": 0, "lat": 38.91479066666667, "name": "a85e5aea9c012c564e4cb5b631fe07dd", "bike_id": "a85e5aea9c012c564e4cb5b631fe07dd", "is_disabled": 0, "fusion_lon": 0.0, "type": "electric_scooter", "lon": -77.03207633333334}, {"rental_uris": {"android": "https://dc.lft.to/lastmile_qr_scan", "ios": "https://dc.lft.to/lastmile_qr_scan"}, "fusion_lat": 0.0, "is_reserved": 0, "lat": 38.920910666666664, "name": "dc89837558d6cbe7f5ea1c47c4a6943d", "bike_id": "dc89837558d6cbe7f5ea1c47c4a6943d", "is_disabled": 0, "fusion_lon": 0.0, "type": "electric_scooter", "lon": -77.02187983333333}, {"rental_uris": {"android": "https://dc.lft.to/lastmile_qr_scan", "ios": "https://dc.lft.to/lastmile_qr_scan"}, "fusion_lat": 0.0, "is_reserved": 0, "lat": 38.905456666666666, "name": "69ee1ed8e309aeb0ad9f1405a571cf07", "bike_id": "69ee1ed8e309aeb0ad9f1405a571cf07", "is_disabled": 0, "fusion_lon": 0.0, "type": "electric_scooter", "lon": -77.04148766666667}, {"rental_uris": {"android": "https://dc.lft.to/lastmile_qr_scan", "ios": "https://dc.lft.to/lastmile_qr_scan"}, "fusion_lat": 0.0, "is_reserved": 0, "lat": 38.93509316666667, "name": "bd255dfd78e28abc99a790701af5c1e1", "bike_id": "bd255dfd78e28abc99a790701af5c1e1", "is_disabled": 0, "fusion_lon": 0.0, "type": "electric_scooter", "lon": -77.02009733333334}, {"rental_uris": {"android": "https://dc.lft.to/lastmile_qr_scan", "ios": "https://dc.lft.to/lastmile_qr_scan"}, "fusion_lat": 0.0, "is_reserved": 0, "lat": 38.896358666666664, "name": "a0cc62d3fa3b3e0c173bdd41667666c6", "bike_id": "a0cc62d3fa3b3e0c173bdd41667666c6", "is_disabled": 0, "fusion_lon": 0.0, "type": "electric_scooter", "lon": -77.02789983333334}, {"rental_uris": {"android": "https://dc.lft.to/lastmile_qr_scan", "ios": "https://dc.lft.to/lastmile_qr_scan"}, "fusion_lat": 0.0, "is_reserved": 0, "lat": 38.840344, "name": "232a41ecbba8d27418a1ae968bf7d17e", "bike_id": "232a41ecbba8d27418a1ae968bf7d17e", "is_disabled": 0, "fusion_lon": 0.0, "type": "electric_bike", "lon": -76.97619866666666}, {"rental_uris": {"android": "https://dc.lft.to/lastmile_qr_scan", "ios": "https://dc.lft.to/lastmile_qr_scan"}, "fusion_lat": 0.0, "is_reserved": 0, "lat": 38.933596666666666, "name": "e25759fa478de9bf09a440cfdec98269", "bike_id": "e25759fa478de9bf09a440cfdec98269", "is_disabled": 0, "fusion_lon": 0.0, "type": "electric_scooter", "lon": -77.02568083333334}, {"rental_uris": {"android": "https://dc.lft.to/lastmile_qr_scan", "ios": "https://dc.lft.to/lastmile_qr_scan"}, "fusion_lat": 0.0, "is_reserved": 0, "lat": 38.89486933333333, "name": "139cff3bad789f06a14f32d5b09d12f8", "bike_id": "139cff3bad789f06a14f32d5b09d12f8", "is_disabled": 0, "fusion_lon": 0.0, "type": "electric_scooter", "lon": -77.02650983333334}, {"rental_uris": {"android": "https://dc.lft.to/lastmile_qr_scan", "ios": "https://dc.lft.to/lastmile_qr_scan"}, "fusion_lat": 0.0, "is_reserved": 0, "lat": 38.9269305, "name": "371c776b3526f3fae11b9664424baafc", "bike_id": "371c776b3526f3fae11b9664424baafc", "is_disabled": 0, "fusion_lon": 0.0, "type": "electric_scooter", "lon": -77.022524}, {"rental_uris": {"android": "https://dc.lft.to/lastmile_qr_scan", "ios": "https://dc.lft.to/lastmile_qr_scan"}, "fusion_lat": 0.0, "is_reserved": 0, "lat": 38.9335635, "name": "0dc3f7c761c12a911b2f743b82c15426", "bike_id": "0dc3f7c761c12a911b2f743b82c15426", "is_disabled": 0, "fusion_lon": 0.0, "type": "electric_scooter", "lon": -77.05702016666666}, {"rental_uris": {"android": "https://dc.lft.to/lastmile_qr_scan", "ios": "https://dc.lft.to/lastmile_qr_scan"}, "fusion_lat": 0.0, "is_reserved": 0, "lat": 38.83814366666667, "name": "62860e701677b0abcf30b90a47684007", "bike_id": "62860e701677b0abcf30b90a47684007", "is_disabled": 0, "fusion_lon": 0.0, "type": "electric_bike", "lon": -77.09525633333334}, {"rental_uris": {"android": "https://dc.lft.to/lastmile_qr_scan", "ios": "https://dc.lft.to/lastmile_qr_scan"}, "fusion_lat": 0.0, "is_reserved": 0, "lat": 38.90748333333333, "name": "e3d9fa417e738d4d316d48ab0f8ed4e5", "bike_id": "e3d9fa417e738d4d316d48ab0f8ed4e5", "is_disabled": 0, "fusion_lon": 0.0, "type": "electric_scooter", "lon": -77.042009}, {"rental_uris": {"android": "https://dc.lft.to/lastmile_qr_scan", "ios": "https://dc.lft.to/lastmile_qr_scan"}, "fusion_lat": 0.0, "is_reserved": 0, "lat": 38.94657083333333, "name": "eae7848f8628951b3da5137aadb3bad7", "bike_id": "eae7848f8628951b3da5137aadb3bad7", "is_disabled": 0, "fusion_lon": 0.0, "type": "electric_scooter", "lon": -77.0647655}, {"rental_uris": {"android": "https://dc.lft.to/lastmile_qr_scan", "ios": "https://dc.lft.to/lastmile_qr_scan"}, "fusion_lat": 0.0, "is_reserved": 0, "lat": 38.90886166666667, "name": "91870c59ac35011c29fb1fb05d2d4ad1", "bike_id": "91870c59ac35011c29fb1fb05d2d4ad1", "is_disabled": 0, "fusion_lon": 0.0, "type": "electric_scooter", "lon": -77.031739}, {"rental_uris": {"android": "https://dc.lft.to/lastmile_qr_scan", "ios": "https://dc.lft.to/lastmile_qr_scan"}, "fusion_lat": 0.0, "is_reserved": 0, "lat": 38.90516516666667, "name": "2fe93882ec5a5ba0afced5457a56cad5", "bike_id": "2fe93882ec5a5ba0afced5457a56cad5", "is_disabled": 0, "fusion_lon": 0.0, "type": "electric_scooter", "lon": -77.04332833333333}, {"rental_uris": {"android": "https://dc.lft.to/lastmile_qr_scan", "ios": "https://dc.lft.to/lastmile_qr_scan"}, "fusion_lat": 0.0, "is_reserved": 0, "lat": 38.93069283333333, "name": "7320199f2d402a82ccbe8d03ab557a22", "bike_id": "7320199f2d402a82ccbe8d03ab557a22", "is_disabled": 0, "fusion_lon": 0.0, "type": "electric_scooter", "lon": -77.03942183333334}, {"rental_uris": {"android": "https://dc.lft.to/lastmile_qr_scan", "ios": "https://dc.lft.to/lastmile_qr_scan"}, "fusion_lat": 0.0, "is_reserved": 0, "lat": 38.890471833333336, "name": "2d4e2b02c90a640ec5a459244beaf46f", "bike_id": "2d4e2b02c90a640ec5a459244beaf46f", "is_disabled": 0, "fusion_lon": 0.0, "type": "electric_scooter", "lon": -76.93754666666666}, {"rental_uris": {"android": "https://dc.lft.to/lastmile_qr_scan", "ios": "https://dc.lft.to/lastmile_qr_scan"}, "fusion_lat": 0.0, "is_reserved": 0, "lat": 38.939651833333336, "name": "7695bbf89b728dcdc19499b5c3a93e8b", "bike_id": "7695bbf89b728dcdc19499b5c3a93e8b", "is_disabled": 0, "fusion_lon": 0.0, "type": "electric_scooter", "lon": -77.03282783333333}, {"rental_uris": {"android": "https://dc.lft.to/lastmile_qr_scan", "ios": "https://dc.lft.to/lastmile_qr_scan"}, "fusion_lat": 0.0, "is_reserved": 0, "lat": 38.921019, "name": "f6cbabb7654479efa9357ec722747efd", "bike_id": "f6cbabb7654479efa9357ec722747efd", "is_disabled": 0, "fusion_lon": 0.0, "type": "electric_scooter", "lon": -77.02520433333333}, {"rental_uris": {"android": "https://dc.lft.to/lastmile_qr_scan", "ios": "https://dc.lft.to/lastmile_qr_scan"}, "fusion_lat": 0.0, "is_reserved": 0, "lat": 38.90139766666667, "name": "20351172bd87c0f61ad9574c0fddd204", "bike_id": "20351172bd87c0f61ad9574c0fddd204", "is_disabled": 0, "fusion_lon": 0.0, "type": "electric_scooter", "lon": -77.04628316666667}, {"rental_uris": {"android": "https://dc.lft.to/lastmile_qr_scan", "ios": "https://dc.lft.to/lastmile_qr_scan"}, "fusion_lat": 0.0, "is_reserved": 0, "lat": 38.87939933333333, "name": "6523bccab90165ac1fb62ec9db576e54", "bike_id": "6523bccab90165ac1fb62ec9db576e54", "is_disabled": 0, "fusion_lon": 0.0, "type": "electric_scooter", "lon": -77.010317}, {"rental_uris": {"android": "https://dc.lft.to/lastmile_qr_scan", "ios": "https://dc.lft.to/lastmile_qr_scan"}, "fusion_lat": 0.0, "is_reserved": 0, "lat": 38.9054435, "name": "de1eb38acfd55290c48e6d2b4950d499", "bike_id": "de1eb38acfd55290c48e6d2b4950d499", "is_disabled": 0, "fusion_lon": 0.0, "type": "electric_scooter", "lon": -77.04356333333334}, {"rental_uris": {"android": "https://dc.lft.to/lastmile_qr_scan", "ios": "https://dc.lft.to/lastmile_qr_scan"}, "fusion_lat": 0.0, "is_reserved": 0, "lat": 38.89508516666667, "name": "4ee6d25ecbed66cca63d44dce671d7f9", "bike_id": "4ee6d25ecbed66cca63d44dce671d7f9", "is_disabled": 0, "fusion_lon": 0.0, "type": "electric_scooter", "lon": -77.046775}, {"rental_uris": {"android": "https://dc.lft.to/lastmile_qr_scan", "ios": "https://dc.lft.to/lastmile_qr_scan"}, "fusion_lat": 0.0, "is_reserved": 0, "lat": 38.918150833333335, "name": "925ad7e11f1da66a34da7e51047d9db7", "bike_id": "925ad7e11f1da66a34da7e51047d9db7", "is_disabled": 0, "fusion_lon": 0.0, "type": "electric_scooter", "lon": -77.02887733333333}, {"rental_uris": {"android": "https://dc.lft.to/lastmile_qr_scan", "ios": "https://dc.lft.to/lastmile_qr_scan"}, "fusion_lat": 0.0, "is_reserved": 0, "lat": 38.90452466666667, "name": "4cea3e45b7dbd349776f656c384dffb8", "bike_id": "4cea3e45b7dbd349776f656c384dffb8", "is_disabled": 0, "fusion_lon": 0.0, "type": "electric_scooter", "lon": -77.06595933333334}, {"rental_uris": {"android": "https://dc.lft.to/lastmile_qr_scan", "ios": "https://dc.lft.to/lastmile_qr_scan"}, "fusion_lat": 0.0, "is_reserved": 0, "lat": 38.926082666666666, "name": "6bb9701199d0fea58e1ac4d524be2394", "bike_id": "6bb9701199d0fea58e1ac4d524be2394", "is_disabled": 0, "fusion_lon": 0.0, "type": "electric_scooter", "lon": -77.02162566666667}, {"rental_uris": {"android": "https://dc.lft.to/lastmile_qr_scan", "ios": "https://dc.lft.to/lastmile_qr_scan"}, "fusion_lat": 0.0, "is_reserved": 0, "lat": 38.908163, "name": "1a0bfa9ba0b1f2b37f706e363b5f4cbb", "bike_id": "1a0bfa9ba0b1f2b37f706e363b5f4cbb", "is_disabled": 0, "fusion_lon": 0.0, "type": "electric_scooter", "lon": -77.083973}, {"rental_uris": {"android": "https://dc.lft.to/lastmile_qr_scan", "ios": "https://dc.lft.to/lastmile_qr_scan"}, "fusion_lat": 0.0, "is_reserved": 0, "lat": 38.88343016666666, "name": "17a6806537daffdfb6f35f67bc40d743", "bike_id": "17a6806537daffdfb6f35f67bc40d743", "is_disabled": 0, "fusion_lon": 0.0, "type": "electric_scooter", "lon": -76.94289516666667}, {"rental_uris": {"android": "https://dc.lft.to/lastmile_qr_scan", "ios": "https://dc.lft.to/lastmile_qr_scan"}, "fusion_lat": 0.0, "is_reserved": 0, "lat": 38.8793505, "name": "e9b81c4cfb55bac0ebfb5f9612ad5866", "bike_id": "e9b81c4cfb55bac0ebfb5f9612ad5866", "is_disabled": 0, "fusion_lon": 0.0, "type": "electric_scooter", "lon": -77.00377966666667}, {"rental_uris": {"android": "https://dc.lft.to/lastmile_qr_scan", "ios": "https://dc.lft.to/lastmile_qr_scan"}, "fusion_lat": 0.0, "is_reserved": 0, "lat": 38.87088816666667, "name": "59d41e91b5aa8e57c221a3147bb6646f", "bike_id": "59d41e91b5aa8e57c221a3147bb6646f", "is_disabled": 0, "fusion_lon": 0.0, "type": "electric_bike", "lon": -77.11055666666667}, {"rental_uris": {"android": "https://dc.lft.to/lastmile_qr_scan", "ios": "https://dc.lft.to/lastmile_qr_scan"}, "fusion_lat": 0.0, "is_reserved": 0, "lat": 38.902907166666665, "name": "16fa59044de815464be47034168b5087", "bike_id": "16fa59044de815464be47034168b5087", "is_disabled": 0, "fusion_lon": 0.0, "type": "electric_scooter", "lon": -77.0364965}, {"rental_uris": {"android": "https://dc.lft.to/lastmile_qr_scan", "ios": "https://dc.lft.to/lastmile_qr_scan"}, "fusion_lat": 0.0, "is_reserved": 0, "lat": 38.8981515, "name": "31510a716a3a5b173cb2b3e54f9c3299", "bike_id": "31510a716a3a5b173cb2b3e54f9c3299", "is_disabled": 0, "fusion_lon": 0.0, "type": "electric_scooter", "lon": -77.010516}, {"rental_uris": {"android": "https://dc.lft.to/lastmile_qr_scan", "ios": "https://dc.lft.to/lastmile_qr_scan"}, "fusion_lat": 0.0, "is_reserved": 0, "lat": 38.884244333333335, "name": "9d9fe14cbb84158848b076bf0ee8d2af", "bike_id": "9d9fe14cbb84158848b076bf0ee8d2af", "is_disabled": 0, "fusion_lon": 0.0, "type": "electric_scooter", "lon": -77.02628116666666}, {"rental_uris": {"android": "https://dc.lft.to/lastmile_qr_scan", "ios": "https://dc.lft.to/lastmile_qr_scan"}, "fusion_lat": 0.0, "is_reserved": 0, "lat": 38.91198083333333, "name": "4c91647db7207ea466b063dbba79b7e9", "bike_id": "4c91647db7207ea466b063dbba79b7e9", "is_disabled": 0, "fusion_lon": 0.0, "type": "electric_scooter", "lon": -77.0383575}, {"rental_uris": {"android": "https://dc.lft.to/lastmile_qr_scan", "ios": "https://dc.lft.to/lastmile_qr_scan"}, "fusion_lat": 0.0, "is_reserved": 0, "lat": 38.9181665, "name": "861aa94046de96dc3a071fa804d11558", "bike_id": "861aa94046de96dc3a071fa804d11558", "is_disabled": 0, "fusion_lon": 0.0, "type": "electric_scooter", "lon": -77.0248755}, {"rental_uris": {"android": "https://dc.lft.to/lastmile_qr_scan", "ios": "https://dc.lft.to/lastmile_qr_scan"}, "fusion_lat": 0.0, "is_reserved": 0, "lat": 38.906391666666664, "name": "3411738046019e255086b679d16c1d1d", "bike_id": "3411738046019e255086b679d16c1d1d", "is_disabled": 0, "fusion_lon": 0.0, "type": "electric_scooter", "lon": -77.03901483333334}, {"rental_uris": {"android": "https://dc.lft.to/lastmile_qr_scan", "ios": "https://dc.lft.to/lastmile_qr_scan"}, "fusion_lat": 0.0, "is_reserved": 0, "lat": 38.900936, "name": "8e3aedfd227d0b789e5f68882a2937b1", "bike_id": "8e3aedfd227d0b789e5f68882a2937b1", "is_disabled": 0, "fusion_lon": 0.0, "type": "electric_scooter", "lon": -77.05053816666667}, {"rental_uris": {"android": "https://dc.lft.to/lastmile_qr_scan", "ios": "https://dc.lft.to/lastmile_qr_scan"}, "fusion_lat": 0.0, "is_reserved": 0, "lat": 38.863831833333336, "name": "39e88aaa7a769e5ca3db4a68688d602a", "bike_id": "39e88aaa7a769e5ca3db4a68688d602a", "is_disabled": 0, "fusion_lon": 0.0, "type": "electric_scooter", "lon": -76.99060666666666}, {"rental_uris": {"android": "https://dc.lft.to/lastmile_qr_scan", "ios": "https://dc.lft.to/lastmile_qr_scan"}, "fusion_lat": 0.0, "is_reserved": 0, "lat": 38.923492, "name": "c7b3cf91495a6beb9780531debd58d74", "bike_id": "c7b3cf91495a6beb9780531debd58d74", "is_disabled": 0, "fusion_lon": 0.0, "type": "electric_scooter", "lon": -77.019033}, {"rental_uris": {"android": "https://dc.lft.to/lastmile_qr_scan", "ios": "https://dc.lft.to/lastmile_qr_scan"}, "fusion_lat": 0.0, "is_reserved": 0, "lat": 38.9202755, "name": "ae2f90a4709ccf4ee45479c6c66a97ab", "bike_id": "ae2f90a4709ccf4ee45479c6c66a97ab", "is_disabled": 0, "fusion_lon": 0.0, "type": "electric_scooter", "lon": -77.03130216666666}, {"rental_uris": {"android": "https://dc.lft.to/lastmile_qr_scan", "ios": "https://dc.lft.to/lastmile_qr_scan"}, "fusion_lat": 0.0, "is_reserved": 0, "lat": 38.89943016666667, "name": "ffe3d0115359c2ae7606ea0d4ff324e3", "bike_id": "ffe3d0115359c2ae7606ea0d4ff324e3", "is_disabled": 0, "fusion_lon": 0.0, "type": "electric_scooter", "lon": -76.97704033333333}, {"rental_uris": {"android": "https://dc.lft.to/lastmile_qr_scan", "ios": "https://dc.lft.to/lastmile_qr_scan"}, "fusion_lat": 0.0, "is_reserved": 0, "lat": 38.90037933333333, "name": "90deb0f04d357096384f2f9d3ca87862", "bike_id": "90deb0f04d357096384f2f9d3ca87862", "is_disabled": 0, "fusion_lon": 0.0, "type": "electric_scooter", "lon": -76.998507}, {"rental_uris": {"android": "https://dc.lft.to/lastmile_qr_scan", "ios": "https://dc.lft.to/lastmile_qr_scan"}, "fusion_lat": 0.0, "is_reserved": 0, "lat": 38.99523216666667, "name": "557a5169d230561a556892539048e954", "bike_id": "557a5169d230561a556892539048e954", "is_disabled": 0, "fusion_lon": 0.0, "type": "electric_bike", "lon": -77.03781166666667}, {"rental_uris": {"android": "https://dc.lft.to/lastmile_qr_scan", "ios": "https://dc.lft.to/lastmile_qr_scan"}, "fusion_lat": 0.0, "is_reserved": 0, "lat": 38.8899165, "name": "e90fa4cfbd208041d5d80ad5e95fcd87", "bike_id": "e90fa4cfbd208041d5d80ad5e95fcd87", "is_disabled": 0, "fusion_lon": 0.0, "type": "electric_scooter", "lon": -76.98382666666667}, {"rental_uris": {"android": "https://dc.lft.to/lastmile_qr_scan", "ios": "https://dc.lft.to/lastmile_qr_scan"}, "fusion_lat": 0.0, "is_reserved": 0, "lat": 38.91868516666667, "name": "944d2a9541e9b42c04657012ed2b8d38", "bike_id": "944d2a9541e9b42c04657012ed2b8d38", "is_disabled": 0, "fusion_lon": 0.0, "type": "electric_scooter", "lon": -77.0351965}, {"rental_uris": {"android": "https://dc.lft.to/lastmile_qr_scan", "ios": "https://dc.lft.to/lastmile_qr_scan"}, "fusion_lat": 0.0, "is_reserved": 0, "lat": 38.914257, "name": "01aa5d0c5af6bab2860e15300610ed80", "bike_id": "01aa5d0c5af6bab2860e15300610ed80", "is_disabled": 0, "fusion_lon": 0.0, "type": "electric_scooter", "lon": -77.01803733333334}, {"rental_uris": {"android": "https://dc.lft.to/lastmile_qr_scan", "ios": "https://dc.lft.to/lastmile_qr_scan"}, "fusion_lat": 0.0, "is_reserved": 0, "lat": 38.91815583333333, "name": "03f810ae5510284f515b3126d7b057a5", "bike_id": "03f810ae5510284f515b3126d7b057a5", "is_disabled": 0, "fusion_lon": 0.0, "type": "electric_scooter", "lon": -77.03301916666666}, {"rental_uris": {"android": "https://dc.lft.to/lastmile_qr_scan", "ios": "https://dc.lft.to/lastmile_qr_scan"}, "fusion_lat": 0.0, "is_reserved": 0, "lat": 38.89513816666667, "name": "54241b51c51e74feb95c6ecc23f41b11", "bike_id": "54241b51c51e74feb95c6ecc23f41b11", "is_disabled": 0, "fusion_lon": 0.0, "type": "electric_scooter", "lon": -77.02198033333333}, {"rental_uris": {"android": "https://dc.lft.to/lastmile_qr_scan", "ios": "https://dc.lft.to/lastmile_qr_scan"}, "fusion_lat": 0.0, "is_reserved": 0, "lat": 38.897464, "name": "d077d05de7a1b7abbe097bd9940d5ece", "bike_id": "d077d05de7a1b7abbe097bd9940d5ece", "is_disabled": 0, "fusion_lon": 0.0, "type": "electric_scooter", "lon": -77.02489083333333}, {"rental_uris": {"android": "https://dc.lft.to/lastmile_qr_scan", "ios": "https://dc.lft.to/lastmile_qr_scan"}, "fusion_lat": 0.0, "is_reserved": 0, "lat": 38.91681966666667, "name": "2c9e459fb9aeb81d1df084978eed0bf3", "bike_id": "2c9e459fb9aeb81d1df084978eed0bf3", "is_disabled": 0, "fusion_lon": 0.0, "type": "electric_scooter", "lon": -77.0414575}, {"rental_uris": {"android": "https://dc.lft.to/lastmile_qr_scan", "ios": "https://dc.lft.to/lastmile_qr_scan"}, "fusion_lat": 0.0, "is_reserved": 0, "lat": 38.92047266666667, "name": "3775d8f09a21ab0723983364fa79f611", "bike_id": "3775d8f09a21ab0723983364fa79f611", "is_disabled": 0, "fusion_lon": 0.0, "type": "electric_scooter", "lon": -77.04824366666666}, {"rental_uris": {"android": "https://dc.lft.to/lastmile_qr_scan", "ios": "https://dc.lft.to/lastmile_qr_scan"}, "fusion_lat": 0.0, "is_reserved": 0, "lat": 38.944181, "name": "65bb38533ac361721755d805a35725e6", "bike_id": "65bb38533ac361721755d805a35725e6", "is_disabled": 0, "fusion_lon": 0.0, "type": "electric_scooter", "lon": -77.06325283333334}, {"rental_uris": {"android": "https://dc.lft.to/lastmile_qr_scan", "ios": "https://dc.lft.to/lastmile_qr_scan"}, "fusion_lat": 0.0, "is_reserved": 0, "lat": 38.8835515, "name": "5916ad180ef3e73a6f233805459eed1f", "bike_id": "5916ad180ef3e73a6f233805459eed1f", "is_disabled": 0, "fusion_lon": 0.0, "type": "electric_scooter", "lon": -76.992686}, {"rental_uris": {"android": "https://dc.lft.to/lastmile_qr_scan", "ios": "https://dc.lft.to/lastmile_qr_scan"}, "fusion_lat": 0.0, "is_reserved": 0, "lat": 38.902988, "name": "fcd64128a5e5dd44a86ffd9f27e019c5", "bike_id": "fcd64128a5e5dd44a86ffd9f27e019c5", "is_disabled": 0, "fusion_lon": 0.0, "type": "electric_scooter", "lon": -77.05814666666667}, {"rental_uris": {"android": "https://dc.lft.to/lastmile_qr_scan", "ios": "https://dc.lft.to/lastmile_qr_scan"}, "fusion_lat": 0.0, "is_reserved": 0, "lat": 38.911363333333334, "name": "ffec25cba57bfd3b7faccd51a5ed15da", "bike_id": "ffec25cba57bfd3b7faccd51a5ed15da", "is_disabled": 0, "fusion_lon": 0.0, "type": "electric_scooter", "lon": -77.02201983333333}, {"rental_uris": {"android": "https://dc.lft.to/lastmile_qr_scan", "ios": "https://dc.lft.to/lastmile_qr_scan"}, "fusion_lat": 0.0, "is_reserved": 0, "lat": 38.857141166666665, "name": "b30ad3b5317576f5d87302d0130706b8", "bike_id": "b30ad3b5317576f5d87302d0130706b8", "is_disabled": 0, "fusion_lon": 0.0, "type": "electric_scooter", "lon": -76.98212333333333}, {"rental_uris": {"android": "https://dc.lft.to/lastmile_qr_scan", "ios": "https://dc.lft.to/lastmile_qr_scan"}, "fusion_lat": 0.0, "is_reserved": 0, "lat": 38.87074116666667, "name": "0a5656ca8fb37dc2b208a091f026e945", "bike_id": "0a5656ca8fb37dc2b208a091f026e945", "is_disabled": 0, "fusion_lon": 0.0, "type": "electric_scooter", "lon": -76.97910316666666}, {"rental_uris": {"android": "https://dc.lft.to/lastmile_qr_scan", "ios": "https://dc.lft.to/lastmile_qr_scan"}, "fusion_lat": 0.0, "is_reserved": 0, "lat": 38.89871133333333, "name": "216d40c97d022283a9e143f20f7d4355", "bike_id": "216d40c97d022283a9e143f20f7d4355", "is_disabled": 0, "fusion_lon": 0.0, "type": "electric_scooter", "lon": -76.94685116666666}, {"rental_uris": {"android": "https://dc.lft.to/lastmile_qr_scan", "ios": "https://dc.lft.to/lastmile_qr_scan"}, "fusion_lat": 0.0, "is_reserved": 0, "lat": 38.90153383333333, "name": "86e0e6437482ee547f9e8ee51cb49a69", "bike_id": "86e0e6437482ee547f9e8ee51cb49a69", "is_disabled": 0, "fusion_lon": 0.0, "type": "electric_scooter", "lon": -77.02486216666667}, {"rental_uris": {"android": "https://dc.lft.to/lastmile_qr_scan", "ios": "https://dc.lft.to/lastmile_qr_scan"}, "fusion_lat": 0.0, "is_reserved": 0, "lat": 38.907184, "name": "0da5df7a08ca2d68d20dd075e694bc57", "bike_id": "0da5df7a08ca2d68d20dd075e694bc57", "is_disabled": 0, "fusion_lon": 0.0, "type": "electric_scooter", "lon": -77.02684416666666}, {"rental_uris": {"android": "https://dc.lft.to/lastmile_qr_scan", "ios": "https://dc.lft.to/lastmile_qr_scan"}, "fusion_lat": 0.0, "is_reserved": 0, "lat": 38.9303705, "name": "502105ed5f62492163fbd113fbf8983e", "bike_id": "502105ed5f62492163fbd113fbf8983e", "is_disabled": 0, "fusion_lon": 0.0, "type": "electric_bike", "lon": -77.05559433333333}, {"rental_uris": {"android": "https://dc.lft.to/lastmile_qr_scan", "ios": "https://dc.lft.to/lastmile_qr_scan"}, "fusion_lat": 0.0, "is_reserved": 0, "lat": 38.88277733333334, "name": "43b28f074b90815d1e28b1631e71d314", "bike_id": "43b28f074b90815d1e28b1631e71d314", "is_disabled": 0, "fusion_lon": 0.0, "type": "electric_scooter", "lon": -76.9947435}, {"rental_uris": {"android": "https://dc.lft.to/lastmile_qr_scan", "ios": "https://dc.lft.to/lastmile_qr_scan"}, "fusion_lat": 0.0, "is_reserved": 0, "lat": 38.9107755, "name": "7e8fc00b43aa3a2542c709d0c2ebace3", "bike_id": "7e8fc00b43aa3a2542c709d0c2ebace3", "is_disabled": 0, "fusion_lon": 0.0, "type": "electric_scooter", "lon": -77.04602716666666}, {"rental_uris": {"android": "https://dc.lft.to/lastmile_qr_scan", "ios": "https://dc.lft.to/lastmile_qr_scan"}, "fusion_lat": 0.0, "is_reserved": 0, "lat": 38.89720916666667, "name": "70f14651a45af21ef78a82537e7ca8c2", "bike_id": "70f14651a45af21ef78a82537e7ca8c2", "is_disabled": 0, "fusion_lon": 0.0, "type": "electric_scooter", "lon": -77.0218265}, {"rental_uris": {"android": "https://dc.lft.to/lastmile_qr_scan", "ios": "https://dc.lft.to/lastmile_qr_scan"}, "fusion_lat": 0.0, "is_reserved": 0, "lat": 38.91767566666667, "name": "f6b95dbb58a4938b1e5ab49476355f28", "bike_id": "f6b95dbb58a4938b1e5ab49476355f28", "is_disabled": 0, "fusion_lon": 0.0, "type": "electric_scooter", "lon": -77.01922916666666}, {"rental_uris": {"android": "https://dc.lft.to/lastmile_qr_scan", "ios": "https://dc.lft.to/lastmile_qr_scan"}, "fusion_lat": 0.0, "is_reserved": 0, "lat": 38.926934, "name": "f8246ef26ff134d06cb72aabefa470fb", "bike_id": "f8246ef26ff134d06cb72aabefa470fb", "is_disabled": 0, "fusion_lon": 0.0, "type": "electric_scooter", "lon": -77.01500783333333}, {"rental_uris": {"android": "https://dc.lft.to/lastmile_qr_scan", "ios": "https://dc.lft.to/lastmile_qr_scan"}, "fusion_lat": 0.0, "is_reserved": 0, "lat": 38.903156, "name": "396e737845a27ae5e287d24441fc8b0f", "bike_id": "396e737845a27ae5e287d24441fc8b0f", "is_disabled": 0, "fusion_lon": 0.0, "type": "electric_scooter", "lon": -77.0316125}, {"rental_uris": {"android": "https://dc.lft.to/lastmile_qr_scan", "ios": "https://dc.lft.to/lastmile_qr_scan"}, "fusion_lat": 0.0, "is_reserved": 0, "lat": 38.901700166666664, "name": "a7739633d1dd4fde5b79b666742a9fa0", "bike_id": "a7739633d1dd4fde5b79b666742a9fa0", "is_disabled": 0, "fusion_lon": 0.0, "type": "electric_scooter", "lon": -77.050869}, {"rental_uris": {"android": "https://dc.lft.to/lastmile_qr_scan", "ios": "https://dc.lft.to/lastmile_qr_scan"}, "fusion_lat": 0.0, "is_reserved": 0, "lat": 38.90479666666667, "name": "b55ad910b3de51515f496cc89046db96", "bike_id": "b55ad910b3de51515f496cc89046db96", "is_disabled": 0, "fusion_lon": 0.0, "type": "electric_scooter", "lon": -77.04467633333333}, {"rental_uris": {"android": "https://dc.lft.to/lastmile_qr_scan", "ios": "https://dc.lft.to/lastmile_qr_scan"}, "fusion_lat": 0.0, "is_reserved": 0, "lat": 38.9012775, "name": "972d2a6a0d479a3c5c1c7c360fe7f7d9", "bike_id": "972d2a6a0d479a3c5c1c7c360fe7f7d9", "is_disabled": 0, "fusion_lon": 0.0, "type": "electric_scooter", "lon": -77.03045066666667}, {"rental_uris": {"android": "https://dc.lft.to/lastmile_qr_scan", "ios": "https://dc.lft.to/lastmile_qr_scan"}, "fusion_lat": 0.0, "is_reserved": 0, "lat": 38.936169, "name": "ad7932869390e7489cfb976fc92acc6b", "bike_id": "ad7932869390e7489cfb976fc92acc6b", "is_disabled": 0, "fusion_lon": 0.0, "type": "electric_scooter", "lon": -77.05861883333333}, {"rental_uris": {"android": "https://dc.lft.to/lastmile_qr_scan", "ios": "https://dc.lft.to/lastmile_qr_scan"}, "fusion_lat": 0.0, "is_reserved": 0, "lat": 38.901978, "name": "9efb4b92c0c0e0aa8119a18b3194cfc3", "bike_id": "9efb4b92c0c0e0aa8119a18b3194cfc3", "is_disabled": 0, "fusion_lon": 0.0, "type": "electric_scooter", "lon": -77.0209825}, {"rental_uris": {"android": "https://dc.lft.to/lastmile_qr_scan", "ios": "https://dc.lft.to/lastmile_qr_scan"}, "fusion_lat": 0.0, "is_reserved": 0, "lat": 38.901184666666666, "name": "f5e423364d4338ec048591e0c8a34151", "bike_id": "f5e423364d4338ec048591e0c8a34151", "is_disabled": 0, "fusion_lon": 0.0, "type": "electric_scooter", "lon": -77.049959}, {"rental_uris": {"android": "https://dc.lft.to/lastmile_qr_scan", "ios": "https://dc.lft.to/lastmile_qr_scan"}, "fusion_lat": 0.0, "is_reserved": 0, "lat": 38.8846795, "name": "fd11c061ca687ad460ee94588d1d7e2e", "bike_id": "fd11c061ca687ad460ee94588d1d7e2e", "is_disabled": 0, "fusion_lon": 0.0, "type": "electric_scooter", "lon": -76.99567283333333}, {"rental_uris": {"android": "https://dc.lft.to/lastmile_qr_scan", "ios": "https://dc.lft.to/lastmile_qr_scan"}, "fusion_lat": 0.0, "is_reserved": 0, "lat": 38.90551266666667, "name": "9f58029bc9d556fd55551edec74e92ad", "bike_id": "9f58029bc9d556fd55551edec74e92ad", "is_disabled": 0, "fusion_lon": 0.0, "type": "electric_scooter", "lon": -77.0344845}, {"rental_uris": {"android": "https://dc.lft.to/lastmile_qr_scan", "ios": "https://dc.lft.to/lastmile_qr_scan"}, "fusion_lat": 0.0, "is_reserved": 0, "lat": 38.94915116666667, "name": "a205de87b30cf0d4e9bf21e959d8c7ee", "bike_id": "a205de87b30cf0d4e9bf21e959d8c7ee", "is_disabled": 0, "fusion_lon": 0.0, "type": "electric_scooter", "lon": -77.02073633333333}, {"rental_uris": {"android": "https://dc.lft.to/lastmile_qr_scan", "ios": "https://dc.lft.to/lastmile_qr_scan"}, "fusion_lat": 0.0, "is_reserved": 0, "lat": 38.90231966666666, "name": "8f0b767923ec93aa160ea666c33a2fe4", "bike_id": "8f0b767923ec93aa160ea666c33a2fe4", "is_disabled": 0, "fusion_lon": 0.0, "type": "electric_scooter", "lon": -77.0376355}, {"rental_uris": {"android": "https://dc.lft.to/lastmile_qr_scan", "ios": "https://dc.lft.to/lastmile_qr_scan"}, "fusion_lat": 0.0, "is_reserved": 0, "lat": 38.91352166666667, "name": "3b3e4666bb1fabd2e494375448faa670", "bike_id": "3b3e4666bb1fabd2e494375448faa670", "is_disabled": 0, "fusion_lon": 0.0, "type": "electric_scooter", "lon": -77.032068}, {"rental_uris": {"android": "https://dc.lft.to/lastmile_qr_scan", "ios": "https://dc.lft.to/lastmile_qr_scan"}, "fusion_lat": 0.0, "is_reserved": 0, "lat": 38.8940985, "name": "f85fcac4b34efae4350c0a3214d909ae", "bike_id": "f85fcac4b34efae4350c0a3214d909ae", "is_disabled": 0, "fusion_lon": 0.0, "type": "electric_scooter", "lon": -77.02328466666667}, {"rental_uris": {"android": "https://dc.lft.to/lastmile_qr_scan", "ios": "https://dc.lft.to/lastmile_qr_scan"}, "fusion_lat": 0.0, "is_reserved": 0, "lat": 38.917887666666665, "name": "c0ddfc517413059e939207bd9fe7fa86", "bike_id": "c0ddfc517413059e939207bd9fe7fa86", "is_disabled": 0, "fusion_lon": 0.0, "type": "electric_scooter", "lon": -77.03445283333333}, {"rental_uris": {"android": "https://dc.lft.to/lastmile_qr_scan", "ios": "https://dc.lft.to/lastmile_qr_scan"}, "fusion_lat": 0.0, "is_reserved": 0, "lat": 38.901832, "name": "58d293b1f3657cad1ffafeae60f13b88", "bike_id": "58d293b1f3657cad1ffafeae60f13b88", "is_disabled": 0, "fusion_lon": 0.0, "type": "electric_scooter", "lon": -77.02601533333333}, {"rental_uris": {"android": "https://dc.lft.to/lastmile_qr_scan", "ios": "https://dc.lft.to/lastmile_qr_scan"}, "fusion_lat": 0.0, "is_reserved": 0, "lat": 38.9072505, "name": "37bb7dfbcf06c0f8307abf3c617f942d", "bike_id": "37bb7dfbcf06c0f8307abf3c617f942d", "is_disabled": 0, "fusion_lon": 0.0, "type": "electric_scooter", "lon": -77.0279705}, {"rental_uris": {"android": "https://dc.lft.to/lastmile_qr_scan", "ios": "https://dc.lft.to/lastmile_qr_scan"}, "fusion_lat": 0.0, "is_reserved": 0, "lat": 38.916245833333335, "name": "af3ec223188a4f106aa860288d7346c9", "bike_id": "af3ec223188a4f106aa860288d7346c9", "is_disabled": 0, "fusion_lon": 0.0, "type": "electric_scooter", "lon": -77.00215816666666}, {"rental_uris": {"android": "https://dc.lft.to/lastmile_qr_scan", "ios": "https://dc.lft.to/lastmile_qr_scan"}, "fusion_lat": 0.0, "is_reserved": 0, "lat": 38.8861755, "name": "f8b61d8b2376310d2d3ed082966a65b1", "bike_id": "f8b61d8b2376310d2d3ed082966a65b1", "is_disabled": 0, "fusion_lon": 0.0, "type": "electric_scooter", "lon": -77.00409833333333}, {"rental_uris": {"android": "https://dc.lft.to/lastmile_qr_scan", "ios": "https://dc.lft.to/lastmile_qr_scan"}, "fusion_lat": 0.0, "is_reserved": 0, "lat": 38.8989305, "name": "9037ba3f7f870f530f460536e2ad1710", "bike_id": "9037ba3f7f870f530f460536e2ad1710", "is_disabled": 0, "fusion_lon": 0.0, "type": "electric_scooter", "lon": -77.04664466666667}, {"rental_uris": {"android": "https://dc.lft.to/lastmile_qr_scan", "ios": "https://dc.lft.to/lastmile_qr_scan"}, "fusion_lat": 0.0, "is_reserved": 0, "lat": 38.88284783333334, "name": "84f69b59db5e9a6c5a89518a98cfb082", "bike_id": "84f69b59db5e9a6c5a89518a98cfb082", "is_disabled": 0, "fusion_lon": 0.0, "type": "electric_bike", "lon": -76.932448}, {"rental_uris": {"android": "https://dc.lft.to/lastmile_qr_scan", "ios": "https://dc.lft.to/lastmile_qr_scan"}, "fusion_lat": 0.0, "is_reserved": 0, "lat": 38.924916333333336, "name": "0d74cce3d9f6eee2e0d80a6ff6387e34", "bike_id": "0d74cce3d9f6eee2e0d80a6ff6387e34", "is_disabled": 0, "fusion_lon": 0.0, "type": "electric_scooter", "lon": -77.03053383333334}, {"rental_uris": {"android": "https://dc.lft.to/lastmile_qr_scan", "ios": "https://dc.lft.to/lastmile_qr_scan"}, "fusion_lat": 0.0, "is_reserved": 0, "lat": 38.90275183333333, "name": "34469ad568ff091595699ff2af8662a6", "bike_id": "34469ad568ff091595699ff2af8662a6", "is_disabled": 0, "fusion_lon": 0.0, "type": "electric_scooter", "lon": -77.01760933333334}, {"rental_uris": {"android": "https://dc.lft.to/lastmile_qr_scan", "ios": "https://dc.lft.to/lastmile_qr_scan"}, "fusion_lat": 0.0, "is_reserved": 0, "lat": 38.89227566666667, "name": "cb85615b998a0f7d6c48f0e016c309f7", "bike_id": "cb85615b998a0f7d6c48f0e016c309f7", "is_disabled": 0, "fusion_lon": 0.0, "type": "electric_scooter", "lon": -77.03987066666667}, {"rental_uris": {"android": "https://dc.lft.to/lastmile_qr_scan", "ios": "https://dc.lft.to/lastmile_qr_scan"}, "fusion_lat": 0.0, "is_reserved": 0, "lat": 38.95766733333333, "name": "414d24c4f0093f3dcb8520a0dbffef59", "bike_id": "414d24c4f0093f3dcb8520a0dbffef59", "is_disabled": 0, "fusion_lon": 0.0, "type": "electric_scooter", "lon": -77.01496833333333}, {"rental_uris": {"android": "https://dc.lft.to/lastmile_qr_scan", "ios": "https://dc.lft.to/lastmile_qr_scan"}, "fusion_lat": 0.0, "is_reserved": 0, "lat": 38.89409716666667, "name": "bee12da52420e16ae5aaffa64babb083", "bike_id": "bee12da52420e16ae5aaffa64babb083", "is_disabled": 0, "fusion_lon": 0.0, "type": "electric_bike", "lon": -76.8685765}, {"rental_uris": {"android": "https://dc.lft.to/lastmile_qr_scan", "ios": "https://dc.lft.to/lastmile_qr_scan"}, "fusion_lat": 0.0, "is_reserved": 0, "lat": 38.905925, "name": "9d91b2f9d51aa0bbc4d76d80f2987ac0", "bike_id": "9d91b2f9d51aa0bbc4d76d80f2987ac0", "is_disabled": 0, "fusion_lon": 0.0, "type": "electric_scooter", "lon": -76.98414266666667}, {"rental_uris": {"android": "https://dc.lft.to/lastmile_qr_scan", "ios": "https://dc.lft.to/lastmile_qr_scan"}, "fusion_lat": 0.0, "is_reserved": 0, "lat": 38.920827333333335, "name": "661b90f5a65f47339d8c9dd1e44e2e2c", "bike_id": "661b90f5a65f47339d8c9dd1e44e2e2c", "is_disabled": 0, "fusion_lon": 0.0, "type": "electric_scooter", "lon": -77.02305383333334}, {"rental_uris": {"android": "https://dc.lft.to/lastmile_qr_scan", "ios": "https://dc.lft.to/lastmile_qr_scan"}, "fusion_lat": 0.0, "is_reserved": 0, "lat": 38.89781333333333, "name": "f40cbe464751cb0fd7c799db6cf162fc", "bike_id": "f40cbe464751cb0fd7c799db6cf162fc", "is_disabled": 0, "fusion_lon": 0.0, "type": "electric_scooter", "lon": -77.03227183333334}, {"rental_uris": {"android": "https://dc.lft.to/lastmile_qr_scan", "ios": "https://dc.lft.to/lastmile_qr_scan"}, "fusion_lat": 0.0, "is_reserved": 0, "lat": 38.907227, "name": "4f5fb6f30491ce7feb59b6dc0db76735", "bike_id": "4f5fb6f30491ce7feb59b6dc0db76735", "is_disabled": 0, "fusion_lon": 0.0, "type": "electric_scooter", "lon": -77.04537583333334}, {"rental_uris": {"android": "https://dc.lft.to/lastmile_qr_scan", "ios": "https://dc.lft.to/lastmile_qr_scan"}, "fusion_lat": 0.0, "is_reserved": 0, "lat": 38.9039705, "name": "733a596c6800d62c95232dafe4b8fb1e", "bike_id": "733a596c6800d62c95232dafe4b8fb1e", "is_disabled": 0, "fusion_lon": 0.0, "type": "electric_scooter", "lon": -77.036416}, {"rental_uris": {"android": "https://dc.lft.to/lastmile_qr_scan", "ios": "https://dc.lft.to/lastmile_qr_scan"}, "fusion_lat": 0.0, "is_reserved": 0, "lat": 38.92286766666667, "name": "935f9f4e58f7d29239b260b164c3fab2", "bike_id": "935f9f4e58f7d29239b260b164c3fab2", "is_disabled": 0, "fusion_lon": 0.0, "type": "electric_scooter", "lon": -77.02966866666667}, {"rental_uris": {"android": "https://dc.lft.to/lastmile_qr_scan", "ios": "https://dc.lft.to/lastmile_qr_scan"}, "fusion_lat": 0.0, "is_reserved": 0, "lat": 38.90716966666667, "name": "fea892109f24204849a8d77a2df0c46b", "bike_id": "fea892109f24204849a8d77a2df0c46b", "is_disabled": 0, "fusion_lon": 0.0, "type": "electric_scooter", "lon": -77.00807616666667}, {"rental_uris": {"android": "https://dc.lft.to/lastmile_qr_scan", "ios": "https://dc.lft.to/lastmile_qr_scan"}, "fusion_lat": 0.0, "is_reserved": 0, "lat": 38.9011865, "name": "a196cdebbd0fa38af9e7d681f8da2647", "bike_id": "a196cdebbd0fa38af9e7d681f8da2647", "is_disabled": 0, "fusion_lon": 0.0, "type": "electric_scooter", "lon": -77.04985766666667}, {"rental_uris": {"android": "https://dc.lft.to/lastmile_qr_scan", "ios": "https://dc.lft.to/lastmile_qr_scan"}, "fusion_lat": 0.0, "is_reserved": 0, "lat": 38.918107, "name": "08d4d95bdf7931a8e6fc6a3bd258a8bf", "bike_id": "08d4d95bdf7931a8e6fc6a3bd258a8bf", "is_disabled": 0, "fusion_lon": 0.0, "type": "electric_scooter", "lon": -77.0401975}, {"rental_uris": {"android": "https://dc.lft.to/lastmile_qr_scan", "ios": "https://dc.lft.to/lastmile_qr_scan"}, "fusion_lat": 0.0, "is_reserved": 0, "lat": 38.90544233333333, "name": "baf20df8fc8d964001b85692d04b9d46", "bike_id": "baf20df8fc8d964001b85692d04b9d46", "is_disabled": 0, "fusion_lon": 0.0, "type": "electric_bike", "lon": -77.05913}, {"rental_uris": {"android": "https://dc.lft.to/lastmile_qr_scan", "ios": "https://dc.lft.to/lastmile_qr_scan"}, "fusion_lat": 0.0, "is_reserved": 0, "lat": 38.9352905, "name": "efd864ed3380631ca340812c8a1bffba", "bike_id": "efd864ed3380631ca340812c8a1bffba", "is_disabled": 0, "fusion_lon": 0.0, "type": "electric_scooter", "lon": -77.02846183333334}, {"rental_uris": {"android": "https://dc.lft.to/lastmile_qr_scan", "ios": "https://dc.lft.to/lastmile_qr_scan"}, "fusion_lat": 0.0, "is_reserved": 0, "lat": 38.9056545, "name": "621c3d312dc36fe122d31251ff0a9784", "bike_id": "621c3d312dc36fe122d31251ff0a9784", "is_disabled": 0, "fusion_lon": 0.0, "type": "electric_scooter", "lon": -77.0059805}, {"rental_uris": {"android": "https://dc.lft.to/lastmile_qr_scan", "ios": "https://dc.lft.to/lastmile_qr_scan"}, "fusion_lat": 0.0, "is_reserved": 0, "lat": 39.03567533333333, "name": "815163f75253bec48bedd90ee7d6ebb3", "bike_id": "815163f75253bec48bedd90ee7d6ebb3", "is_disabled": 0, "fusion_lon": 0.0, "type": "electric_bike", "lon": -77.03913466666667}, {"rental_uris": {"android": "https://dc.lft.to/lastmile_qr_scan", "ios": "https://dc.lft.to/lastmile_qr_scan"}, "fusion_lat": 0.0, "is_reserved": 0, "lat": 38.911129, "name": "7787d11e10aa24164b40f2195046afa2", "bike_id": "7787d11e10aa24164b40f2195046afa2", "is_disabled": 0, "fusion_lon": 0.0, "type": "electric_scooter", "lon": -77.01726983333333}, {"rental_uris": {"android": "https://dc.lft.to/lastmile_qr_scan", "ios": "https://dc.lft.to/lastmile_qr_scan"}, "fusion_lat": 0.0, "is_reserved": 0, "lat": 38.885294, "name": "4290c6846495890df5981dbe6ea42869", "bike_id": "4290c6846495890df5981dbe6ea42869", "is_disabled": 0, "fusion_lon": 0.0, "type": "electric_scooter", "lon": -76.98541666666667}, {"rental_uris": {"android": "https://dc.lft.to/lastmile_qr_scan", "ios": "https://dc.lft.to/lastmile_qr_scan"}, "fusion_lat": 0.0, "is_reserved": 0, "lat": 38.900623, "name": "dc58fadeb6459a8cb9c7fe1c824e863b", "bike_id": "dc58fadeb6459a8cb9c7fe1c824e863b", "is_disabled": 0, "fusion_lon": 0.0, "type": "electric_scooter", "lon": -77.03358416666667}, {"rental_uris": {"android": "https://dc.lft.to/lastmile_qr_scan", "ios": "https://dc.lft.to/lastmile_qr_scan"}, "fusion_lat": 0.0, "is_reserved": 0, "lat": 38.9605335, "name": "9582cf2fb6b9afe34d0ac7d0fb3e7229", "bike_id": "9582cf2fb6b9afe34d0ac7d0fb3e7229", "is_disabled": 0, "fusion_lon": 0.0, "type": "electric_bike", "lon": -77.00301233333333}, {"rental_uris": {"android": "https://dc.lft.to/lastmile_qr_scan", "ios": "https://dc.lft.to/lastmile_qr_scan"}, "fusion_lat": 0.0, "is_reserved": 0, "lat": 38.9622545, "name": "0565056bc8c2df8c755b312449a8ae1e", "bike_id": "0565056bc8c2df8c755b312449a8ae1e", "is_disabled": 0, "fusion_lon": 0.0, "type": "electric_bike", "lon": -77.026268}, {"rental_uris": {"android": "https://dc.lft.to/lastmile_qr_scan", "ios": "https://dc.lft.to/lastmile_qr_scan"}, "fusion_lat": 0.0, "is_reserved": 0, "lat": 38.87581983333333, "name": "8cb11daaab21eb2dbf30093051ffedf1", "bike_id": "8cb11daaab21eb2dbf30093051ffedf1", "is_disabled": 0, "fusion_lon": 0.0, "type": "electric_scooter", "lon": -77.00584216666667}, {"rental_uris": {"android": "https://dc.lft.to/lastmile_qr_scan", "ios": "https://dc.lft.to/lastmile_qr_scan"}, "fusion_lat": 0.0, "is_reserved": 0, "lat": 38.92079583333334, "name": "707712de953f0c78e7b755765602ce17", "bike_id": "707712de953f0c78e7b755765602ce17", "is_disabled": 0, "fusion_lon": 0.0, "type": "electric_scooter", "lon": -77.02320716666667}, {"rental_uris": {"android": "https://dc.lft.to/lastmile_qr_scan", "ios": "https://dc.lft.to/lastmile_qr_scan"}, "fusion_lat": 0.0, "is_reserved": 0, "lat": 38.893421000000004, "name": "75697f51d039bb879f534057fa2c19bd", "bike_id": "75697f51d039bb879f534057fa2c19bd", "is_disabled": 0, "fusion_lon": 0.0, "type": "electric_scooter", "lon": -77.03155116666667}, {"rental_uris": {"android": "https://dc.lft.to/lastmile_qr_scan", "ios": "https://dc.lft.to/lastmile_qr_scan"}, "fusion_lat": 0.0, "is_reserved": 0, "lat": 38.89204, "name": "949c70f49f3e5aaf1543d91fff40a01c", "bike_id": "949c70f49f3e5aaf1543d91fff40a01c", "is_disabled": 0, "fusion_lon": 0.0, "type": "electric_scooter", "lon": -77.002951}, {"rental_uris": {"android": "https://dc.lft.to/lastmile_qr_scan", "ios": "https://dc.lft.to/lastmile_qr_scan"}, "fusion_lat": 0.0, "is_reserved": 0, "lat": 38.90777583333333, "name": "fa12fe2e6aa6f62a4a48f2afc8c4ce38", "bike_id": "fa12fe2e6aa6f62a4a48f2afc8c4ce38", "is_disabled": 0, "fusion_lon": 0.0, "type": "electric_scooter", "lon": -77.06921533333333}, {"rental_uris": {"android": "https://dc.lft.to/lastmile_qr_scan", "ios": "https://dc.lft.to/lastmile_qr_scan"}, "fusion_lat": 0.0, "is_reserved": 0, "lat": 38.92672533333333, "name": "e5b724c329d5b44e2db9338cc44277a7", "bike_id": "e5b724c329d5b44e2db9338cc44277a7", "is_disabled": 0, "fusion_lon": 0.0, "type": "electric_scooter", "lon": -77.014851}, {"rental_uris": {"android": "https://dc.lft.to/lastmile_qr_scan", "ios": "https://dc.lft.to/lastmile_qr_scan"}, "fusion_lat": 0.0, "is_reserved": 0, "lat": 38.895431333333335, "name": "c2262d80d5a630e24a503ff9103536f7", "bike_id": "c2262d80d5a630e24a503ff9103536f7", "is_disabled": 0, "fusion_lon": 0.0, "type": "electric_scooter", "lon": -77.01105966666667}, {"rental_uris": {"android": "https://dc.lft.to/lastmile_qr_scan", "ios": "https://dc.lft.to/lastmile_qr_scan"}, "fusion_lat": 0.0, "is_reserved": 0, "lat": 38.838701, "name": "b4be28e5b012c3c30262116f548cc4ce", "bike_id": "b4be28e5b012c3c30262116f548cc4ce", "is_disabled": 0, "fusion_lon": 0.0, "type": "electric_bike", "lon": -76.99697483333334}, {"rental_uris": {"android": "https://dc.lft.to/lastmile_qr_scan", "ios": "https://dc.lft.to/lastmile_qr_scan"}, "fusion_lat": 0.0, "is_reserved": 0, "lat": 38.914235833333336, "name": "612f17bec5a9649aee8715859e04b524", "bike_id": "612f17bec5a9649aee8715859e04b524", "is_disabled": 0, "fusion_lon": 0.0, "type": "electric_scooter", "lon": -77.03172866666667}, {"rental_uris": {"android": "https://dc.lft.to/lastmile_qr_scan", "ios": "https://dc.lft.to/lastmile_qr_scan"}, "fusion_lat": 0.0, "is_reserved": 0, "lat": 38.8772475, "name": "b5a63c722b45a5d035600af9eac16739", "bike_id": "b5a63c722b45a5d035600af9eac16739", "is_disabled": 0, "fusion_lon": 0.0, "type": "electric_scooter", "lon": -77.01760033333333}, {"rental_uris": {"android": "https://dc.lft.to/lastmile_qr_scan", "ios": "https://dc.lft.to/lastmile_qr_scan"}, "fusion_lat": 0.0, "is_reserved": 0, "lat": 38.9448105, "name": "d55efe11e35bf9847f9490508e169670", "bike_id": "d55efe11e35bf9847f9490508e169670", "is_disabled": 0, "fusion_lon": 0.0, "type": "electric_bike", "lon": -76.986938}, {"rental_uris": {"android": "https://dc.lft.to/lastmile_qr_scan", "ios": "https://dc.lft.to/lastmile_qr_scan"}, "fusion_lat": 0.0, "is_reserved": 0, "lat": 38.905904, "name": "00c91b84726dfb14683ae5c0dcaa03ac", "bike_id": "00c91b84726dfb14683ae5c0dcaa03ac", "is_disabled": 0, "fusion_lon": 0.0, "type": "electric_scooter", "lon": -77.01614666666667}, {"rental_uris": {"android": "https://dc.lft.to/lastmile_qr_scan", "ios": "https://dc.lft.to/lastmile_qr_scan"}, "fusion_lat": 0.0, "is_reserved": 0, "lat": 38.92510216666667, "name": "ffda5c2b56fc6e0ea845f6cabfe3f317", "bike_id": "ffda5c2b56fc6e0ea845f6cabfe3f317", "is_disabled": 0, "fusion_lon": 0.0, "type": "electric_scooter", "lon": -77.02401116666667}, {"rental_uris": {"android": "https://dc.lft.to/lastmile_qr_scan", "ios": "https://dc.lft.to/lastmile_qr_scan"}, "fusion_lat": 0.0, "is_reserved": 0, "lat": 38.994186, "name": "829728546e640abce5bf96b934b68ccf", "bike_id": "829728546e640abce5bf96b934b68ccf", "is_disabled": 0, "fusion_lon": 0.0, "type": "electric_bike", "lon": -77.0180095}, {"rental_uris": {"android": "https://dc.lft.to/lastmile_qr_scan", "ios": "https://dc.lft.to/lastmile_qr_scan"}, "fusion_lat": 0.0, "is_reserved": 0, "lat": 38.94656116666667, "name": "17204476a226232288f1d5c915c7aa1c", "bike_id": "17204476a226232288f1d5c915c7aa1c", "is_disabled": 0, "fusion_lon": 0.0, "type": "electric_scooter", "lon": -77.064777}, {"rental_uris": {"android": "https://dc.lft.to/lastmile_qr_scan", "ios": "https://dc.lft.to/lastmile_qr_scan"}, "fusion_lat": 0.0, "is_reserved": 0, "lat": 38.89473483333333, "name": "a8beeadcc44ed1939a083f69eb87b104", "bike_id": "a8beeadcc44ed1939a083f69eb87b104", "is_disabled": 0, "fusion_lon": 0.0, "type": "electric_scooter", "lon": -76.99487016666667}, {"rental_uris": {"android": "https://dc.lft.to/lastmile_qr_scan", "ios": "https://dc.lft.to/lastmile_qr_scan"}, "fusion_lat": 0.0, "is_reserved": 0, "lat": 38.94047616666667, "name": "e333469fc3b503d095493214bd353606", "bike_id": "e333469fc3b503d095493214bd353606", "is_disabled": 0, "fusion_lon": 0.0, "type": "electric_scooter", "lon": -77.02914116666666}, {"rental_uris": {"android": "https://dc.lft.to/lastmile_qr_scan", "ios": "https://dc.lft.to/lastmile_qr_scan"}, "fusion_lat": 0.0, "is_reserved": 0, "lat": 38.899974666666665, "name": "2483427e372748048e90613d52775095", "bike_id": "2483427e372748048e90613d52775095", "is_disabled": 0, "fusion_lon": 0.0, "type": "electric_scooter", "lon": -77.0224285}, {"rental_uris": {"android": "https://dc.lft.to/lastmile_qr_scan", "ios": "https://dc.lft.to/lastmile_qr_scan"}, "fusion_lat": 0.0, "is_reserved": 0, "lat": 38.89722483333333, "name": "d03ec83730986b1e303bd1bd7f546fc6", "bike_id": "d03ec83730986b1e303bd1bd7f546fc6", "is_disabled": 0, "fusion_lon": 0.0, "type": "electric_scooter", "lon": -77.013279}, {"rental_uris": {"android": "https://dc.lft.to/lastmile_qr_scan", "ios": "https://dc.lft.to/lastmile_qr_scan"}, "fusion_lat": 0.0, "is_reserved": 0, "lat": 38.925350333333334, "name": "e0ed250c9c30e91bdaf76732527f2054", "bike_id": "e0ed250c9c30e91bdaf76732527f2054", "is_disabled": 0, "fusion_lon": 0.0, "type": "electric_scooter", "lon": -77.04116783333333}, {"rental_uris": {"android": "https://dc.lft.to/lastmile_qr_scan", "ios": "https://dc.lft.to/lastmile_qr_scan"}, "fusion_lat": 0.0, "is_reserved": 0, "lat": 38.86227016666667, "name": "f1de8e7e9d6a4b1d412ffbda6facc1c1", "bike_id": "f1de8e7e9d6a4b1d412ffbda6facc1c1", "is_disabled": 0, "fusion_lon": 0.0, "type": "electric_scooter", "lon": -76.99459083333333}, {"rental_uris": {"android": "https://dc.lft.to/lastmile_qr_scan", "ios": "https://dc.lft.to/lastmile_qr_scan"}, "fusion_lat": 0.0, "is_reserved": 0, "lat": 38.908811166666666, "name": "288d2a8df28d3441d89484077acb5a14", "bike_id": "288d2a8df28d3441d89484077acb5a14", "is_disabled": 0, "fusion_lon": 0.0, "type": "electric_scooter", "lon": -77.07158483333333}, {"rental_uris": {"android": "https://dc.lft.to/lastmile_qr_scan", "ios": "https://dc.lft.to/lastmile_qr_scan"}, "fusion_lat": 0.0, "is_reserved": 0, "lat": 38.90248316666667, "name": "33aa8bb80402cde02e1e9134513f273d", "bike_id": "33aa8bb80402cde02e1e9134513f273d", "is_disabled": 0, "fusion_lon": 0.0, "type": "electric_scooter", "lon": -77.00202666666667}, {"rental_uris": {"android": "https://dc.lft.to/lastmile_qr_scan", "ios": "https://dc.lft.to/lastmile_qr_scan"}, "fusion_lat": 0.0, "is_reserved": 0, "lat": 38.8879875, "name": "ba89a92644c9823e4a8c1fa127daafb2", "bike_id": "ba89a92644c9823e4a8c1fa127daafb2", "is_disabled": 0, "fusion_lon": 0.0, "type": "electric_scooter", "lon": -76.97712583333333}, {"rental_uris": {"android": "https://dc.lft.to/lastmile_qr_scan", "ios": "https://dc.lft.to/lastmile_qr_scan"}, "fusion_lat": 0.0, "is_reserved": 0, "lat": 38.93258483333334, "name": "fba800cd30319dbcbb6ce563f17c8a98", "bike_id": "fba800cd30319dbcbb6ce563f17c8a98", "is_disabled": 0, "fusion_lon": 0.0, "type": "electric_scooter", "lon": -77.03279333333333}, {"rental_uris": {"android": "https://dc.lft.to/lastmile_qr_scan", "ios": "https://dc.lft.to/lastmile_qr_scan"}, "fusion_lat": 0.0, "is_reserved": 0, "lat": 38.906739, "name": "4eb7b88fd70cc4984728454a023a357e", "bike_id": "4eb7b88fd70cc4984728454a023a357e", "is_disabled": 0, "fusion_lon": 0.0, "type": "electric_scooter", "lon": -77.038193}, {"rental_uris": {"android": "https://dc.lft.to/lastmile_qr_scan", "ios": "https://dc.lft.to/lastmile_qr_scan"}, "fusion_lat": 0.0, "is_reserved": 0, "lat": 38.918384833333334, "name": "63bed9a78021d145a8fad4ded77cabfe", "bike_id": "63bed9a78021d145a8fad4ded77cabfe", "is_disabled": 0, "fusion_lon": 0.0, "type": "electric_scooter", "lon": -77.02297633333333}, {"rental_uris": {"android": "https://dc.lft.to/lastmile_qr_scan", "ios": "https://dc.lft.to/lastmile_qr_scan"}, "fusion_lat": 0.0, "is_reserved": 0, "lat": 38.9014575, "name": "a6ba519847ea31a6baf25ce950498066", "bike_id": "a6ba519847ea31a6baf25ce950498066", "is_disabled": 0, "fusion_lon": 0.0, "type": "electric_scooter", "lon": -77.0434005}, {"rental_uris": {"android": "https://dc.lft.to/lastmile_qr_scan", "ios": "https://dc.lft.to/lastmile_qr_scan"}, "fusion_lat": 0.0, "is_reserved": 0, "lat": 38.900045, "name": "92098b9d956b7513119ad933366a517d", "bike_id": "92098b9d956b7513119ad933366a517d", "is_disabled": 0, "fusion_lon": 0.0, "type": "electric_scooter", "lon": -77.04654233333333}, {"rental_uris": {"android": "https://dc.lft.to/lastmile_qr_scan", "ios": "https://dc.lft.to/lastmile_qr_scan"}, "fusion_lat": 0.0, "is_reserved": 0, "lat": 38.88446833333333, "name": "3d50d61c793ec14be804b0630841cefc", "bike_id": "3d50d61c793ec14be804b0630841cefc", "is_disabled": 0, "fusion_lon": 0.0, "type": "electric_scooter", "lon": -76.95769433333334}, {"rental_uris": {"android": "https://dc.lft.to/lastmile_qr_scan", "ios": "https://dc.lft.to/lastmile_qr_scan"}, "fusion_lat": 0.0, "is_reserved": 0, "lat": 38.883768, "name": "28640b147e7292027ef6158fc06ab40c", "bike_id": "28640b147e7292027ef6158fc06ab40c", "is_disabled": 0, "fusion_lon": 0.0, "type": "electric_scooter", "lon": -77.00877533333333}, {"rental_uris": {"android": "https://dc.lft.to/lastmile_qr_scan", "ios": "https://dc.lft.to/lastmile_qr_scan"}, "fusion_lat": 0.0, "is_reserved": 0, "lat": 38.833006833333336, "name": "7ef47b7f3ba58fc71a008a0d1ca4a27d", "bike_id": "7ef47b7f3ba58fc71a008a0d1ca4a27d", "is_disabled": 0, "fusion_lon": 0.0, "type": "electric_bike", "lon": -77.08411133333334}, {"rental_uris": {"android": "https://dc.lft.to/lastmile_qr_scan", "ios": "https://dc.lft.to/lastmile_qr_scan"}, "fusion_lat": 0.0, "is_reserved": 0, "lat": 38.9248915, "name": "140c42dbbfe797a0b42342e9ddc48fd6", "bike_id": "140c42dbbfe797a0b42342e9ddc48fd6", "is_disabled": 0, "fusion_lon": 0.0, "type": "electric_scooter", "lon": -77.02136016666667}, {"rental_uris": {"android": "https://dc.lft.to/lastmile_qr_scan", "ios": "https://dc.lft.to/lastmile_qr_scan"}, "fusion_lat": 0.0, "is_reserved": 0, "lat": 38.84676533333333, "name": "41d0f5d42d2dadaa359b73a342bab0df", "bike_id": "41d0f5d42d2dadaa359b73a342bab0df", "is_disabled": 0, "fusion_lon": 0.0, "type": "electric_bike", "lon": -77.13916583333334}, {"rental_uris": {"android": "https://dc.lft.to/lastmile_qr_scan", "ios": "https://dc.lft.to/lastmile_qr_scan"}, "fusion_lat": 0.0, "is_reserved": 0, "lat": 38.92139733333333, "name": "78a692e32c67d1ae33937ea73bfe6d41", "bike_id": "78a692e32c67d1ae33937ea73bfe6d41", "is_disabled": 0, "fusion_lon": 0.0, "type": "electric_scooter", "lon": -77.0365915}, {"rental_uris": {"android": "https://dc.lft.to/lastmile_qr_scan", "ios": "https://dc.lft.to/lastmile_qr_scan"}, "fusion_lat": 0.0, "is_reserved": 0, "lat": 38.87654166666667, "name": "cc56a8adf504cfc03158875b8b919ce8", "bike_id": "cc56a8adf504cfc03158875b8b919ce8", "is_disabled": 0, "fusion_lon": 0.0, "type": "electric_scooter", "lon": -76.99329733333333}, {"rental_uris": {"android": "https://dc.lft.to/lastmile_qr_scan", "ios": "https://dc.lft.to/lastmile_qr_scan"}, "fusion_lat": 0.0, "is_reserved": 0, "lat": 38.91113083333333, "name": "54f2fb7166abe544dbe8a603d971615f", "bike_id": "54f2fb7166abe544dbe8a603d971615f", "is_disabled": 0, "fusion_lon": 0.0, "type": "electric_scooter", "lon": -77.04451733333333}, {"rental_uris": {"android": "https://dc.lft.to/lastmile_qr_scan", "ios": "https://dc.lft.to/lastmile_qr_scan"}, "fusion_lat": 0.0, "is_reserved": 0, "lat": 38.89842733333333, "name": "21a69a8b27be181631f3419bd019e068", "bike_id": "21a69a8b27be181631f3419bd019e068", "is_disabled": 0, "fusion_lon": 0.0, "type": "electric_scooter", "lon": -77.04908433333334}, {"rental_uris": {"android": "https://dc.lft.to/lastmile_qr_scan", "ios": "https://dc.lft.to/lastmile_qr_scan"}, "fusion_lat": 0.0, "is_reserved": 0, "lat": 38.905758666666664, "name": "7fe2489dc9b832e1051cf81b67d88fb6", "bike_id": "7fe2489dc9b832e1051cf81b67d88fb6", "is_disabled": 0, "fusion_lon": 0.0, "type": "electric_scooter", "lon": -77.02216216666666}, {"rental_uris": {"android": "https://dc.lft.to/lastmile_qr_scan", "ios": "https://dc.lft.to/lastmile_qr_scan"}, "fusion_lat": 0.0, "is_reserved": 0, "lat": 38.9208415, "name": "8c2a38ca6e8582303c0f86d639c7a767", "bike_id": "8c2a38ca6e8582303c0f86d639c7a767", "is_disabled": 0, "fusion_lon": 0.0, "type": "electric_scooter", "lon": -77.03559666666666}, {"rental_uris": {"android": "https://dc.lft.to/lastmile_qr_scan", "ios": "https://dc.lft.to/lastmile_qr_scan"}, "fusion_lat": 0.0, "is_reserved": 0, "lat": 38.91269166666667, "name": "c66144abafa77dfe7599b4256986fcc0", "bike_id": "c66144abafa77dfe7599b4256986fcc0", "is_disabled": 0, "fusion_lon": 0.0, "type": "electric_scooter", "lon": -77.045538}, {"rental_uris": {"android": "https://dc.lft.to/lastmile_qr_scan", "ios": "https://dc.lft.to/lastmile_qr_scan"}, "fusion_lat": 0.0, "is_reserved": 0, "lat": 38.90417033333333, "name": "9421071463ec63554d3fa27bb47a674e", "bike_id": "9421071463ec63554d3fa27bb47a674e", "is_disabled": 0, "fusion_lon": 0.0, "type": "electric_scooter", "lon": -76.973325}, {"rental_uris": {"android": "https://dc.lft.to/lastmile_qr_scan", "ios": "https://dc.lft.to/lastmile_qr_scan"}, "fusion_lat": 0.0, "is_reserved": 0, "lat": 38.930498, "name": "06a55f71a6f63f83b1e96b4afb695b30", "bike_id": "06a55f71a6f63f83b1e96b4afb695b30", "is_disabled": 0, "fusion_lon": 0.0, "type": "electric_scooter", "lon": -76.95835866666667}, {"rental_uris": {"android": "https://dc.lft.to/lastmile_qr_scan", "ios": "https://dc.lft.to/lastmile_qr_scan"}, "fusion_lat": 0.0, "is_reserved": 0, "lat": 38.90890533333334, "name": "b566557ef38a7ab8e0382ca13c6c50cc", "bike_id": "b566557ef38a7ab8e0382ca13c6c50cc", "is_disabled": 0, "fusion_lon": 0.0, "type": "electric_scooter", "lon": -77.072762}, {"rental_uris": {"android": "https://dc.lft.to/lastmile_qr_scan", "ios": "https://dc.lft.to/lastmile_qr_scan"}, "fusion_lat": 0.0, "is_reserved": 0, "lat": 38.91987566666667, "name": "d1a7ebf33a9fc92207b8f659c87fecbf", "bike_id": "d1a7ebf33a9fc92207b8f659c87fecbf", "is_disabled": 0, "fusion_lon": 0.0, "type": "electric_scooter", "lon": -77.03313583333333}, {"rental_uris": {"android": "https://dc.lft.to/lastmile_qr_scan", "ios": "https://dc.lft.to/lastmile_qr_scan"}, "fusion_lat": 0.0, "is_reserved": 0, "lat": 38.90647833333333, "name": "e7364e285caad13ec6e29f55f8c11393", "bike_id": "e7364e285caad13ec6e29f55f8c11393", "is_disabled": 0, "fusion_lon": 0.0, "type": "electric_scooter", "lon": -77.0533335}, {"rental_uris": {"android": "https://dc.lft.to/lastmile_qr_scan", "ios": "https://dc.lft.to/lastmile_qr_scan"}, "fusion_lat": 0.0, "is_reserved": 0, "lat": 38.91426583333333, "name": "28b46b5df09de5d6fb0d7621fd95b892", "bike_id": "28b46b5df09de5d6fb0d7621fd95b892", "is_disabled": 0, "fusion_lon": 0.0, "type": "electric_scooter", "lon": -77.042905}, {"rental_uris": {"android": "https://dc.lft.to/lastmile_qr_scan", "ios": "https://dc.lft.to/lastmile_qr_scan"}, "fusion_lat": 0.0, "is_reserved": 0, "lat": 38.924104, "name": "324f2747cef652d88269dbb13692a400", "bike_id": "324f2747cef652d88269dbb13692a400", "is_disabled": 0, "fusion_lon": 0.0, "type": "electric_scooter", "lon": -77.022426}, {"rental_uris": {"android": "https://dc.lft.to/lastmile_qr_scan", "ios": "https://dc.lft.to/lastmile_qr_scan"}, "fusion_lat": 0.0, "is_reserved": 0, "lat": 38.83553216666667, "name": "7e1a5bba2fb340852b09f4df48be40fb", "bike_id": "7e1a5bba2fb340852b09f4df48be40fb", "is_disabled": 0, "fusion_lon": 0.0, "type": "electric_bike", "lon": -77.00751266666667}, {"rental_uris": {"android": "https://dc.lft.to/lastmile_qr_scan", "ios": "https://dc.lft.to/lastmile_qr_scan"}, "fusion_lat": 0.0, "is_reserved": 0, "lat": 38.90376883333333, "name": "1099ec8096d54a44423e6156f6c620d6", "bike_id": "1099ec8096d54a44423e6156f6c620d6", "is_disabled": 0, "fusion_lon": 0.0, "type": "electric_scooter", "lon": -77.04205066666667}, {"rental_uris": {"android": "https://dc.lft.to/lastmile_qr_scan", "ios": "https://dc.lft.to/lastmile_qr_scan"}, "fusion_lat": 0.0, "is_reserved": 0, "lat": 38.90040116666667, "name": "a74019d3861da0d3adb010924ef99b42", "bike_id": "a74019d3861da0d3adb010924ef99b42", "is_disabled": 0, "fusion_lon": 0.0, "type": "electric_scooter", "lon": -77.00208233333333}, {"rental_uris": {"android": "https://dc.lft.to/lastmile_qr_scan", "ios": "https://dc.lft.to/lastmile_qr_scan"}, "fusion_lat": 0.0, "is_reserved": 0, "lat": 38.92792883333333, "name": "d8f359bb6e8b88a7012f8fe8c940013c", "bike_id": "d8f359bb6e8b88a7012f8fe8c940013c", "is_disabled": 0, "fusion_lon": 0.0, "type": "electric_scooter", "lon": -77.030824}, {"rental_uris": {"android": "https://dc.lft.to/lastmile_qr_scan", "ios": "https://dc.lft.to/lastmile_qr_scan"}, "fusion_lat": 0.0, "is_reserved": 0, "lat": 38.92691833333333, "name": "9ae4f3b39d10b1117884cff81951f240", "bike_id": "9ae4f3b39d10b1117884cff81951f240", "is_disabled": 0, "fusion_lon": 0.0, "type": "electric_scooter", "lon": -77.0296355}, {"rental_uris": {"android": "https://dc.lft.to/lastmile_qr_scan", "ios": "https://dc.lft.to/lastmile_qr_scan"}, "fusion_lat": 0.0, "is_reserved": 0, "lat": 38.88801516666667, "name": "1d05b667a65f8197a8600795efb7c7f8", "bike_id": "1d05b667a65f8197a8600795efb7c7f8", "is_disabled": 0, "fusion_lon": 0.0, "type": "electric_scooter", "lon": -76.9771385}, {"rental_uris": {"android": "https://dc.lft.to/lastmile_qr_scan", "ios": "https://dc.lft.to/lastmile_qr_scan"}, "fusion_lat": 0.0, "is_reserved": 0, "lat": 38.920530666666664, "name": "8ee50a8f488ab793627a36744650cd37", "bike_id": "8ee50a8f488ab793627a36744650cd37", "is_disabled": 0, "fusion_lon": 0.0, "type": "electric_scooter", "lon": -77.03472933333333}, {"rental_uris": {"android": "https://dc.lft.to/lastmile_qr_scan", "ios": "https://dc.lft.to/lastmile_qr_scan"}, "fusion_lat": 0.0, "is_reserved": 0, "lat": 38.919330333333335, "name": "92c8bb36dfb08fab865dc7e70e5d8e6b", "bike_id": "92c8bb36dfb08fab865dc7e70e5d8e6b", "is_disabled": 0, "fusion_lon": 0.0, "type": "electric_scooter", "lon": -77.02317}, {"rental_uris": {"android": "https://dc.lft.to/lastmile_qr_scan", "ios": "https://dc.lft.to/lastmile_qr_scan"}, "fusion_lat": 0.0, "is_reserved": 0, "lat": 38.904901333333335, "name": "919e7fe5891568115ffaeecb9906c0dd", "bike_id": "919e7fe5891568115ffaeecb9906c0dd", "is_disabled": 0, "fusion_lon": 0.0, "type": "electric_scooter", "lon": -77.0417185}, {"rental_uris": {"android": "https://dc.lft.to/lastmile_qr_scan", "ios": "https://dc.lft.to/lastmile_qr_scan"}, "fusion_lat": 0.0, "is_reserved": 0, "lat": 38.9061945, "name": "72555e1baf36eae0b9a65f6db77049bf", "bike_id": "72555e1baf36eae0b9a65f6db77049bf", "is_disabled": 0, "fusion_lon": 0.0, "type": "electric_scooter", "lon": -77.05051633333333}, {"rental_uris": {"android": "https://dc.lft.to/lastmile_qr_scan", "ios": "https://dc.lft.to/lastmile_qr_scan"}, "fusion_lat": 0.0, "is_reserved": 0, "lat": 38.93741633333333, "name": "93ba553d65dcc65c32d62fb4a4c1540c", "bike_id": "93ba553d65dcc65c32d62fb4a4c1540c", "is_disabled": 0, "fusion_lon": 0.0, "type": "electric_scooter", "lon": -77.08503433333334}, {"rental_uris": {"android": "https://dc.lft.to/lastmile_qr_scan", "ios": "https://dc.lft.to/lastmile_qr_scan"}, "fusion_lat": 0.0, "is_reserved": 0, "lat": 38.8729675, "name": "18b0d41a5d9919c416753d84f2e52ca0", "bike_id": "18b0d41a5d9919c416753d84f2e52ca0", "is_disabled": 0, "fusion_lon": 0.0, "type": "electric_scooter", "lon": -77.0155575}, {"rental_uris": {"android": "https://dc.lft.to/lastmile_qr_scan", "ios": "https://dc.lft.to/lastmile_qr_scan"}, "fusion_lat": 0.0, "is_reserved": 0, "lat": 38.882897166666666, "name": "e7ea51780ea34d91c1dfcb6e105e5d47", "bike_id": "e7ea51780ea34d91c1dfcb6e105e5d47", "is_disabled": 0, "fusion_lon": 0.0, "type": "electric_bike", "lon": -77.11169833333334}, {"rental_uris": {"android": "https://dc.lft.to/lastmile_qr_scan", "ios": "https://dc.lft.to/lastmile_qr_scan"}, "fusion_lat": 0.0, "is_reserved": 0, "lat": 38.924237, "name": "6298fd2e8c93af09900f531fca066854", "bike_id": "6298fd2e8c93af09900f531fca066854", "is_disabled": 0, "fusion_lon": 0.0, "type": "electric_scooter", "lon": -77.01950983333333}, {"rental_uris": {"android": "https://dc.lft.to/lastmile_qr_scan", "ios": "https://dc.lft.to/lastmile_qr_scan"}, "fusion_lat": 0.0, "is_reserved": 0, "lat": 38.90258166666667, "name": "20ceda20f87456f651f3e69ff103fc7b", "bike_id": "20ceda20f87456f651f3e69ff103fc7b", "is_disabled": 0, "fusion_lon": 0.0, "type": "electric_scooter", "lon": -77.03352783333334}, {"rental_uris": {"android": "https://dc.lft.to/lastmile_qr_scan", "ios": "https://dc.lft.to/lastmile_qr_scan"}, "fusion_lat": 0.0, "is_reserved": 0, "lat": 38.90593, "name": "e688459e729341ceaee85192495953cd", "bike_id": "e688459e729341ceaee85192495953cd", "is_disabled": 0, "fusion_lon": 0.0, "type": "electric_scooter", "lon": -77.01612866666666}, {"rental_uris": {"android": "https://dc.lft.to/lastmile_qr_scan", "ios": "https://dc.lft.to/lastmile_qr_scan"}, "fusion_lat": 0.0, "is_reserved": 0, "lat": 38.90729483333333, "name": "865940daed0839aaeb5b1d6acc4a71d4", "bike_id": "865940daed0839aaeb5b1d6acc4a71d4", "is_disabled": 0, "fusion_lon": 0.0, "type": "electric_scooter", "lon": -77.0172635}, {"rental_uris": {"android": "https://dc.lft.to/lastmile_qr_scan", "ios": "https://dc.lft.to/lastmile_qr_scan"}, "fusion_lat": 0.0, "is_reserved": 0, "lat": 38.969679, "name": "e07050a42e51aa9bf1e1e477d0016295", "bike_id": "e07050a42e51aa9bf1e1e477d0016295", "is_disabled": 0, "fusion_lon": 0.0, "type": "electric_bike", "lon": -77.02747466666666}, {"rental_uris": {"android": "https://dc.lft.to/lastmile_qr_scan", "ios": "https://dc.lft.to/lastmile_qr_scan"}, "fusion_lat": 0.0, "is_reserved": 0, "lat": 38.921623333333336, "name": "cb6005c13fd95d0830722c38701d648b", "bike_id": "cb6005c13fd95d0830722c38701d648b", "is_disabled": 0, "fusion_lon": 0.0, "type": "electric_scooter", "lon": -77.0338555}, {"rental_uris": {"android": "https://dc.lft.to/lastmile_qr_scan", "ios": "https://dc.lft.to/lastmile_qr_scan"}, "fusion_lat": 0.0, "is_reserved": 0, "lat": 38.9237, "name": "1cd201357449420db8cb0bfdbf973308", "bike_id": "1cd201357449420db8cb0bfdbf973308", "is_disabled": 0, "fusion_lon": 0.0, "type": "electric_scooter", "lon": -77.0502785}, {"rental_uris": {"android": "https://dc.lft.to/lastmile_qr_scan", "ios": "https://dc.lft.to/lastmile_qr_scan"}, "fusion_lat": 0.0, "is_reserved": 0, "lat": 38.919454, "name": "6c9a78089dba7fac80a4965f813810a5", "bike_id": "6c9a78089dba7fac80a4965f813810a5", "is_disabled": 0, "fusion_lon": 0.0, "type": "electric_scooter", "lon": -77.023319}, {"rental_uris": {"android": "https://dc.lft.to/lastmile_qr_scan", "ios": "https://dc.lft.to/lastmile_qr_scan"}, "fusion_lat": 0.0, "is_reserved": 0, "lat": 38.92170683333333, "name": "9e7c8f605f0ec222732cd8ce70410e84", "bike_id": "9e7c8f605f0ec222732cd8ce70410e84", "is_disabled": 0, "fusion_lon": 0.0, "type": "electric_scooter", "lon": -77.019083}, {"rental_uris": {"android": "https://dc.lft.to/lastmile_qr_scan", "ios": "https://dc.lft.to/lastmile_qr_scan"}, "fusion_lat": 0.0, "is_reserved": 0, "lat": 38.88761683333333, "name": "cfc68dc63a26f4fdebb917c892128f0b", "bike_id": "cfc68dc63a26f4fdebb917c892128f0b", "is_disabled": 0, "fusion_lon": 0.0, "type": "electric_bike", "lon": -76.9007205}, {"rental_uris": {"android": "https://dc.lft.to/lastmile_qr_scan", "ios": "https://dc.lft.to/lastmile_qr_scan"}, "fusion_lat": 0.0, "is_reserved": 0, "lat": 38.920354333333336, "name": "4b348d37f35f3b2af58f9414f2e14b5a", "bike_id": "4b348d37f35f3b2af58f9414f2e14b5a", "is_disabled": 0, "fusion_lon": 0.0, "type": "electric_scooter", "lon": -76.98546316666666}, {"rental_uris": {"android": "https://dc.lft.to/lastmile_qr_scan", "ios": "https://dc.lft.to/lastmile_qr_scan"}, "fusion_lat": 0.0, "is_reserved": 0, "lat": 38.88772616666667, "name": "ebfbdcb5295550b2eb1b33ec8a126263", "bike_id": "ebfbdcb5295550b2eb1b33ec8a126263", "is_disabled": 0, "fusion_lon": 0.0, "type": "electric_scooter", "lon": -76.932631}, {"rental_uris": {"android": "https://dc.lft.to/lastmile_qr_scan", "ios": "https://dc.lft.to/lastmile_qr_scan"}, "fusion_lat": 0.0, "is_reserved": 0, "lat": 38.9136535, "name": "45a1e7145c88735cafebd62fddea1702", "bike_id": "45a1e7145c88735cafebd62fddea1702", "is_disabled": 0, "fusion_lon": 0.0, "type": "electric_scooter", "lon": -77.0335055}, {"rental_uris": {"android": "https://dc.lft.to/lastmile_qr_scan", "ios": "https://dc.lft.to/lastmile_qr_scan"}, "fusion_lat": 0.0, "is_reserved": 0, "lat": 38.921320333333334, "name": "6953a13e3d833539c1ecd89fcfc2e1c1", "bike_id": "6953a13e3d833539c1ecd89fcfc2e1c1", "is_disabled": 0, "fusion_lon": 0.0, "type": "electric_scooter", "lon": -77.0367145}, {"rental_uris": {"android": "https://dc.lft.to/lastmile_qr_scan", "ios": "https://dc.lft.to/lastmile_qr_scan"}, "fusion_lat": 0.0, "is_reserved": 0, "lat": 38.904204166666666, "name": "535df277e828e18ac7535a481e0b7767", "bike_id": "535df277e828e18ac7535a481e0b7767", "is_disabled": 0, "fusion_lon": 0.0, "type": "electric_scooter", "lon": -77.0180725}, {"rental_uris": {"android": "https://dc.lft.to/lastmile_qr_scan", "ios": "https://dc.lft.to/lastmile_qr_scan"}, "fusion_lat": 0.0, "is_reserved": 0, "lat": 38.918165333333334, "name": "e5c4f9c7dc3d177fd56ea6ec53a85ec7", "bike_id": "e5c4f9c7dc3d177fd56ea6ec53a85ec7", "is_disabled": 0, "fusion_lon": 0.0, "type": "electric_scooter", "lon": -77.03306683333334}, {"rental_uris": {"android": "https://dc.lft.to/lastmile_qr_scan", "ios": "https://dc.lft.to/lastmile_qr_scan"}, "fusion_lat": 0.0, "is_reserved": 0, "lat": 38.871835, "name": "2e48e818756a0868755337986b4cc215", "bike_id": "2e48e818756a0868755337986b4cc215", "is_disabled": 0, "fusion_lon": 0.0, "type": "electric_scooter", "lon": -77.00610983333333}, {"rental_uris": {"android": "https://dc.lft.to/lastmile_qr_scan", "ios": "https://dc.lft.to/lastmile_qr_scan"}, "fusion_lat": 0.0, "is_reserved": 0, "lat": 38.904619833333335, "name": "8a01b3852157894e483c196de6b6e874", "bike_id": "8a01b3852157894e483c196de6b6e874", "is_disabled": 0, "fusion_lon": 0.0, "type": "electric_scooter", "lon": -77.03477183333334}, {"rental_uris": {"android": "https://dc.lft.to/lastmile_qr_scan", "ios": "https://dc.lft.to/lastmile_qr_scan"}, "fusion_lat": 0.0, "is_reserved": 0, "lat": 38.920818833333335, "name": "cf95cec541c0fa762967fe113f9c5a0a", "bike_id": "cf95cec541c0fa762967fe113f9c5a0a", "is_disabled": 0, "fusion_lon": 0.0, "type": "electric_scooter", "lon": -77.02312483333333}, {"rental_uris": {"android": "https://dc.lft.to/lastmile_qr_scan", "ios": "https://dc.lft.to/lastmile_qr_scan"}, "fusion_lat": 0.0, "is_reserved": 0, "lat": 38.91332933333333, "name": "ab609345508d77bc145b8bd9432eaa02", "bike_id": "ab609345508d77bc145b8bd9432eaa02", "is_disabled": 0, "fusion_lon": 0.0, "type": "electric_scooter", "lon": -77.01152583333334}, {"rental_uris": {"android": "https://dc.lft.to/lastmile_qr_scan", "ios": "https://dc.lft.to/lastmile_qr_scan"}, "fusion_lat": 0.0, "is_reserved": 0, "lat": 38.902707166666666, "name": "0ea31ec1804e234101434add05860fb9", "bike_id": "0ea31ec1804e234101434add05860fb9", "is_disabled": 0, "fusion_lon": 0.0, "type": "electric_scooter", "lon": -77.01812283333334}, {"rental_uris": {"android": "https://dc.lft.to/lastmile_qr_scan", "ios": "https://dc.lft.to/lastmile_qr_scan"}, "fusion_lat": 0.0, "is_reserved": 0, "lat": 38.89734, "name": "0c5a809613cdd17534f4d6ede8cd52ee", "bike_id": "0c5a809613cdd17534f4d6ede8cd52ee", "is_disabled": 0, "fusion_lon": 0.0, "type": "electric_scooter", "lon": -77.05525366666667}, {"rental_uris": {"android": "https://dc.lft.to/lastmile_qr_scan", "ios": "https://dc.lft.to/lastmile_qr_scan"}, "fusion_lat": 0.0, "is_reserved": 0, "lat": 38.9047115, "name": "ffe062db5c92782468a461d886fed060", "bike_id": "ffe062db5c92782468a461d886fed060", "is_disabled": 0, "fusion_lon": 0.0, "type": "electric_scooter", "lon": -77.03559833333334}, {"rental_uris": {"android": "https://dc.lft.to/lastmile_qr_scan", "ios": "https://dc.lft.to/lastmile_qr_scan"}, "fusion_lat": 0.0, "is_reserved": 0, "lat": 38.942066, "name": "0854e6e0845074bf1096765861a99f60", "bike_id": "0854e6e0845074bf1096765861a99f60", "is_disabled": 0, "fusion_lon": 0.0, "type": "electric_scooter", "lon": -77.02378583333333}, {"rental_uris": {"android": "https://dc.lft.to/lastmile_qr_scan", "ios": "https://dc.lft.to/lastmile_qr_scan"}, "fusion_lat": 0.0, "is_reserved": 0, "lat": 38.932720333333336, "name": "10e9c9da0e4dda2f42119342a41aacfe", "bike_id": "10e9c9da0e4dda2f42119342a41aacfe", "is_disabled": 0, "fusion_lon": 0.0, "type": "electric_scooter", "lon": -77.02095483333333}, {"rental_uris": {"android": "https://dc.lft.to/lastmile_qr_scan", "ios": "https://dc.lft.to/lastmile_qr_scan"}, "fusion_lat": 0.0, "is_reserved": 0, "lat": 38.916431, "name": "ccfd88edbe9cbc27534b09ba4fc4ae8b", "bike_id": "ccfd88edbe9cbc27534b09ba4fc4ae8b", "is_disabled": 0, "fusion_lon": 0.0, "type": "electric_scooter", "lon": -77.04808483333333}, {"rental_uris": {"android": "https://dc.lft.to/lastmile_qr_scan", "ios": "https://dc.lft.to/lastmile_qr_scan"}, "fusion_lat": 0.0, "is_reserved": 0, "lat": 38.920823666666664, "name": "ea032fb6bfa5a5dd2b74c3600deb5754", "bike_id": "ea032fb6bfa5a5dd2b74c3600deb5754", "is_disabled": 0, "fusion_lon": 0.0, "type": "electric_scooter", "lon": -77.02306566666667}, {"rental_uris": {"android": "https://dc.lft.to/lastmile_qr_scan", "ios": "https://dc.lft.to/lastmile_qr_scan"}, "fusion_lat": 0.0, "is_reserved": 0, "lat": 38.912752833333336, "name": "51f9becaa0b3baa1db9ee217bf25b7fe", "bike_id": "51f9becaa0b3baa1db9ee217bf25b7fe", "is_disabled": 0, "fusion_lon": 0.0, "type": "electric_scooter", "lon": -77.02212783333333}, {"rental_uris": {"android": "https://dc.lft.to/lastmile_qr_scan", "ios": "https://dc.lft.to/lastmile_qr_scan"}, "fusion_lat": 0.0, "is_reserved": 0, "lat": 38.90461916666667, "name": "d85503cdd10e9b21c05c32ab5a0c1b2f", "bike_id": "d85503cdd10e9b21c05c32ab5a0c1b2f", "is_disabled": 0, "fusion_lon": 0.0, "type": "electric_scooter", "lon": -77.04810516666667}, {"rental_uris": {"android": "https://dc.lft.to/lastmile_qr_scan", "ios": "https://dc.lft.to/lastmile_qr_scan"}, "fusion_lat": 0.0, "is_reserved": 0, "lat": 38.91275533333334, "name": "876f4993d146dfc964893f82e67b8cce", "bike_id": "876f4993d146dfc964893f82e67b8cce", "is_disabled": 0, "fusion_lon": 0.0, "type": "electric_scooter", "lon": -77.04501383333333}, {"rental_uris": {"android": "https://dc.lft.to/lastmile_qr_scan", "ios": "https://dc.lft.to/lastmile_qr_scan"}, "fusion_lat": 0.0, "is_reserved": 0, "lat": 38.908613, "name": "199789934019cf172c5c5e32561423e5", "bike_id": "199789934019cf172c5c5e32561423e5", "is_disabled": 0, "fusion_lon": 0.0, "type": "electric_scooter", "lon": -76.99110433333334}, {"rental_uris": {"android": "https://dc.lft.to/lastmile_qr_scan", "ios": "https://dc.lft.to/lastmile_qr_scan"}, "fusion_lat": 0.0, "is_reserved": 0, "lat": 38.89528966666666, "name": "39fc7612ac15050f907631c13e7cb5bf", "bike_id": "39fc7612ac15050f907631c13e7cb5bf", "is_disabled": 0, "fusion_lon": 0.0, "type": "electric_scooter", "lon": -76.99216383333334}, {"rental_uris": {"android": "https://dc.lft.to/lastmile_qr_scan", "ios": "https://dc.lft.to/lastmile_qr_scan"}, "fusion_lat": 0.0, "is_reserved": 0, "lat": 38.9521395, "name": "23101a60ad43cdf35b152d457612299f", "bike_id": "23101a60ad43cdf35b152d457612299f", "is_disabled": 0, "fusion_lon": 0.0, "type": "electric_bike", "lon": -77.01749033333333}, {"rental_uris": {"android": "https://dc.lft.to/lastmile_qr_scan", "ios": "https://dc.lft.to/lastmile_qr_scan"}, "fusion_lat": 0.0, "is_reserved": 0, "lat": 38.91546533333333, "name": "ca43ce34eb9db664ab24d6b71706b143", "bike_id": "ca43ce34eb9db664ab24d6b71706b143", "is_disabled": 0, "fusion_lon": 0.0, "type": "electric_scooter", "lon": -77.0445665}, {"rental_uris": {"android": "https://dc.lft.to/lastmile_qr_scan", "ios": "https://dc.lft.to/lastmile_qr_scan"}, "fusion_lat": 0.0, "is_reserved": 0, "lat": 38.8923295, "name": "06e1d83555f1dd2756b915720b08c278", "bike_id": "06e1d83555f1dd2756b915720b08c278", "is_disabled": 0, "fusion_lon": 0.0, "type": "electric_scooter", "lon": -77.05005116666666}, {"rental_uris": {"android": "https://dc.lft.to/lastmile_qr_scan", "ios": "https://dc.lft.to/lastmile_qr_scan"}, "fusion_lat": 0.0, "is_reserved": 0, "lat": 38.955779166666666, "name": "c8a0f5ea6cb9288f8ea32ab8077c6692", "bike_id": "c8a0f5ea6cb9288f8ea32ab8077c6692", "is_disabled": 0, "fusion_lon": 0.0, "type": "electric_scooter", "lon": -77.07009633333334}, {"rental_uris": {"android": "https://dc.lft.to/lastmile_qr_scan", "ios": "https://dc.lft.to/lastmile_qr_scan"}, "fusion_lat": 0.0, "is_reserved": 0, "lat": 38.88700466666667, "name": "e3a465ab69093b9a27838f02eafb8444", "bike_id": "e3a465ab69093b9a27838f02eafb8444", "is_disabled": 0, "fusion_lon": 0.0, "type": "electric_scooter", "lon": -76.976316}, {"rental_uris": {"android": "https://dc.lft.to/lastmile_qr_scan", "ios": "https://dc.lft.to/lastmile_qr_scan"}, "fusion_lat": 0.0, "is_reserved": 0, "lat": 38.927543666666665, "name": "57e167e5b5d410b4ca1182deac59f30f", "bike_id": "57e167e5b5d410b4ca1182deac59f30f", "is_disabled": 0, "fusion_lon": 0.0, "type": "electric_scooter", "lon": -77.024303}, {"rental_uris": {"android": "https://dc.lft.to/lastmile_qr_scan", "ios": "https://dc.lft.to/lastmile_qr_scan"}, "fusion_lat": 0.0, "is_reserved": 0, "lat": 38.90379866666667, "name": "3da75a671b447e26ac88c2f63ef3fa8d", "bike_id": "3da75a671b447e26ac88c2f63ef3fa8d", "is_disabled": 0, "fusion_lon": 0.0, "type": "electric_scooter", "lon": -77.0366885}, {"rental_uris": {"android": "https://dc.lft.to/lastmile_qr_scan", "ios": "https://dc.lft.to/lastmile_qr_scan"}, "fusion_lat": 0.0, "is_reserved": 0, "lat": 38.90997983333333, "name": "27beeafa5c4118caca2957b5bd965291", "bike_id": "27beeafa5c4118caca2957b5bd965291", "is_disabled": 0, "fusion_lon": 0.0, "type": "electric_scooter", "lon": -77.02398333333333}, {"rental_uris": {"android": "https://dc.lft.to/lastmile_qr_scan", "ios": "https://dc.lft.to/lastmile_qr_scan"}, "fusion_lat": 0.0, "is_reserved": 0, "lat": 38.927937666666665, "name": "1500df56e46bdc7eb30b657d11e3c9da", "bike_id": "1500df56e46bdc7eb30b657d11e3c9da", "is_disabled": 0, "fusion_lon": 0.0, "type": "electric_scooter", "lon": -77.05334983333333}, {"rental_uris": {"android": "https://dc.lft.to/lastmile_qr_scan", "ios": "https://dc.lft.to/lastmile_qr_scan"}, "fusion_lat": 0.0, "is_reserved": 0, "lat": 38.901922, "name": "70fb29d2bc89591637a6622a91a5f9e1", "bike_id": "70fb29d2bc89591637a6622a91a5f9e1", "is_disabled": 0, "fusion_lon": 0.0, "type": "electric_scooter", "lon": -76.93002066666666}, {"rental_uris": {"android": "https://dc.lft.to/lastmile_qr_scan", "ios": "https://dc.lft.to/lastmile_qr_scan"}, "fusion_lat": 0.0, "is_reserved": 0, "lat": 38.89486083333333, "name": "df6545655782ed99cb15887fe221c930", "bike_id": "df6545655782ed99cb15887fe221c930", "is_disabled": 0, "fusion_lon": 0.0, "type": "electric_scooter", "lon": -76.99574966666667}, {"rental_uris": {"android": "https://dc.lft.to/lastmile_qr_scan", "ios": "https://dc.lft.to/lastmile_qr_scan"}, "fusion_lat": 0.0, "is_reserved": 0, "lat": 38.900807666666665, "name": "7597ec0ea169f7924cddaaffee65e9c6", "bike_id": "7597ec0ea169f7924cddaaffee65e9c6", "is_disabled": 0, "fusion_lon": 0.0, "type": "electric_scooter", "lon": -76.94015616666667}, {"rental_uris": {"android": "https://dc.lft.to/lastmile_qr_scan", "ios": "https://dc.lft.to/lastmile_qr_scan"}, "fusion_lat": 0.0, "is_reserved": 0, "lat": 38.91926316666667, "name": "b49b29dc4c08224a630622ac204d0ba2", "bike_id": "b49b29dc4c08224a630622ac204d0ba2", "is_disabled": 0, "fusion_lon": 0.0, "type": "electric_scooter", "lon": -77.03421816666666}, {"rental_uris": {"android": "https://dc.lft.to/lastmile_qr_scan", "ios": "https://dc.lft.to/lastmile_qr_scan"}, "fusion_lat": 0.0, "is_reserved": 0, "lat": 38.946597, "name": "fbcbcc18930c3308c8245caa4dadfd1a", "bike_id": "fbcbcc18930c3308c8245caa4dadfd1a", "is_disabled": 0, "fusion_lon": 0.0, "type": "electric_scooter", "lon": -77.0647385}, {"rental_uris": {"android": "https://dc.lft.to/lastmile_qr_scan", "ios": "https://dc.lft.to/lastmile_qr_scan"}, "fusion_lat": 0.0, "is_reserved": 0, "lat": 38.92282733333333, "name": "736944ec554555a879a1a9fcb7ee4173", "bike_id": "736944ec554555a879a1a9fcb7ee4173", "is_disabled": 0, "fusion_lon": 0.0, "type": "electric_scooter", "lon": -77.02131333333334}, {"rental_uris": {"android": "https://dc.lft.to/lastmile_qr_scan", "ios": "https://dc.lft.to/lastmile_qr_scan"}, "fusion_lat": 0.0, "is_reserved": 0, "lat": 38.93335, "name": "919648a595ad88e88255f50d2bcd7254", "bike_id": "919648a595ad88e88255f50d2bcd7254", "is_disabled": 0, "fusion_lon": 0.0, "type": "electric_scooter", "lon": -77.036379}, {"rental_uris": {"android": "https://dc.lft.to/lastmile_qr_scan", "ios": "https://dc.lft.to/lastmile_qr_scan"}, "fusion_lat": 0.0, "is_reserved": 0, "lat": 38.81916483333333, "name": "6d8fcf376a43c49e307d8be7b4c39e8a", "bike_id": "6d8fcf376a43c49e307d8be7b4c39e8a", "is_disabled": 0, "fusion_lon": 0.0, "type": "electric_bike", "lon": -77.126668}, {"rental_uris": {"android": "https://dc.lft.to/lastmile_qr_scan", "ios": "https://dc.lft.to/lastmile_qr_scan"}, "fusion_lat": 0.0, "is_reserved": 0, "lat": 38.90735883333333, "name": "66e1a142a759b675c7671fc93f8d2c21", "bike_id": "66e1a142a759b675c7671fc93f8d2c21", "is_disabled": 0, "fusion_lon": 0.0, "type": "electric_scooter", "lon": -77.03198533333334}, {"rental_uris": {"android": "https://dc.lft.to/lastmile_qr_scan", "ios": "https://dc.lft.to/lastmile_qr_scan"}, "fusion_lat": 0.0, "is_reserved": 0, "lat": 38.86535283333333, "name": "b8cc29914a0defa967bcc9ec58e24f6f", "bike_id": "b8cc29914a0defa967bcc9ec58e24f6f", "is_disabled": 0, "fusion_lon": 0.0, "type": "electric_scooter", "lon": -76.97461166666666}, {"rental_uris": {"android": "https://dc.lft.to/lastmile_qr_scan", "ios": "https://dc.lft.to/lastmile_qr_scan"}, "fusion_lat": 0.0, "is_reserved": 0, "lat": 38.920926, "name": "250d592b0a25acc50a95819d1e59736b", "bike_id": "250d592b0a25acc50a95819d1e59736b", "is_disabled": 0, "fusion_lon": 0.0, "type": "electric_scooter", "lon": -77.02402516666666}, {"rental_uris": {"android": "https://dc.lft.to/lastmile_qr_scan", "ios": "https://dc.lft.to/lastmile_qr_scan"}, "fusion_lat": 0.0, "is_reserved": 0, "lat": 38.922142666666666, "name": "50de0dd0a3339d7ec3c14d6458d5507c", "bike_id": "50de0dd0a3339d7ec3c14d6458d5507c", "is_disabled": 0, "fusion_lon": 0.0, "type": "electric_scooter", "lon": -77.02659366666667}, {"rental_uris": {"android": "https://dc.lft.to/lastmile_qr_scan", "ios": "https://dc.lft.to/lastmile_qr_scan"}, "fusion_lat": 0.0, "is_reserved": 0, "lat": 38.915507, "name": "1b5d24df6747e12a3766e9a7fb2d631e", "bike_id": "1b5d24df6747e12a3766e9a7fb2d631e", "is_disabled": 0, "fusion_lon": 0.0, "type": "electric_scooter", "lon": -77.0220655}, {"rental_uris": {"android": "https://dc.lft.to/lastmile_qr_scan", "ios": "https://dc.lft.to/lastmile_qr_scan"}, "fusion_lat": 0.0, "is_reserved": 0, "lat": 38.924369166666665, "name": "762e34069a7ff27b49a5f5d123f8ed6c", "bike_id": "762e34069a7ff27b49a5f5d123f8ed6c", "is_disabled": 0, "fusion_lon": 0.0, "type": "electric_scooter", "lon": -77.04250366666666}, {"rental_uris": {"android": "https://dc.lft.to/lastmile_qr_scan", "ios": "https://dc.lft.to/lastmile_qr_scan"}, "fusion_lat": 0.0, "is_reserved": 0, "lat": 38.89223416666667, "name": "e22333ea4eeabc4331c5a1e25310ba80", "bike_id": "e22333ea4eeabc4331c5a1e25310ba80", "is_disabled": 0, "fusion_lon": 0.0, "type": "electric_scooter", "lon": -77.0223185}, {"rental_uris": {"android": "https://dc.lft.to/lastmile_qr_scan", "ios": "https://dc.lft.to/lastmile_qr_scan"}, "fusion_lat": 0.0, "is_reserved": 0, "lat": 38.92288516666667, "name": "62c2aa3571824b5526a1275c94dd237d", "bike_id": "62c2aa3571824b5526a1275c94dd237d", "is_disabled": 0, "fusion_lon": 0.0, "type": "electric_scooter", "lon": -77.03665633333334}, {"rental_uris": {"android": "https://dc.lft.to/lastmile_qr_scan", "ios": "https://dc.lft.to/lastmile_qr_scan"}, "fusion_lat": 0.0, "is_reserved": 0, "lat": 38.8852045, "name": "a8c53c5b9c7345fab958c8c21c8ea40a", "bike_id": "a8c53c5b9c7345fab958c8c21c8ea40a", "is_disabled": 0, "fusion_lon": 0.0, "type": "electric_scooter", "lon": -77.01588283333334}, {"rental_uris": {"android": "https://dc.lft.to/lastmile_qr_scan", "ios": "https://dc.lft.to/lastmile_qr_scan"}, "fusion_lat": 0.0, "is_reserved": 0, "lat": 38.909686, "name": "29133fcbe93f2ab19585f29e9825be9d", "bike_id": "29133fcbe93f2ab19585f29e9825be9d", "is_disabled": 0, "fusion_lon": 0.0, "type": "electric_scooter", "lon": -77.02581516666666}, {"rental_uris": {"android": "https://dc.lft.to/lastmile_qr_scan", "ios": "https://dc.lft.to/lastmile_qr_scan"}, "fusion_lat": 0.0, "is_reserved": 0, "lat": 38.9068125, "name": "4e790ac65e689a5e8938637445e5138a", "bike_id": "4e790ac65e689a5e8938637445e5138a", "is_disabled": 0, "fusion_lon": 0.0, "type": "electric_scooter", "lon": -77.02718333333333}, {"rental_uris": {"android": "https://dc.lft.to/lastmile_qr_scan", "ios": "https://dc.lft.to/lastmile_qr_scan"}, "fusion_lat": 0.0, "is_reserved": 0, "lat": 38.8872895, "name": "523af7735abe93409f4869a3d6c45889", "bike_id": "523af7735abe93409f4869a3d6c45889", "is_disabled": 0, "fusion_lon": 0.0, "type": "electric_scooter", "lon": -76.983584}, {"rental_uris": {"android": "https://dc.lft.to/lastmile_qr_scan", "ios": "https://dc.lft.to/lastmile_qr_scan"}, "fusion_lat": 0.0, "is_reserved": 0, "lat": 38.929520833333335, "name": "f3d31dddc9a68ff39ac510fa8e41985f", "bike_id": "f3d31dddc9a68ff39ac510fa8e41985f", "is_disabled": 0, "fusion_lon": 0.0, "type": "electric_scooter", "lon": -77.004084}, {"rental_uris": {"android": "https://dc.lft.to/lastmile_qr_scan", "ios": "https://dc.lft.to/lastmile_qr_scan"}, "fusion_lat": 0.0, "is_reserved": 0, "lat": 38.91495616666667, "name": "02d4a95d0196f3883f003adae7e4f9fa", "bike_id": "02d4a95d0196f3883f003adae7e4f9fa", "is_disabled": 0, "fusion_lon": 0.0, "type": "electric_scooter", "lon": -77.0185755}, {"rental_uris": {"android": "https://dc.lft.to/lastmile_qr_scan", "ios": "https://dc.lft.to/lastmile_qr_scan"}, "fusion_lat": 0.0, "is_reserved": 0, "lat": 38.900678166666665, "name": "ae81be830cff596ab0256faacaa1b2dd", "bike_id": "ae81be830cff596ab0256faacaa1b2dd", "is_disabled": 0, "fusion_lon": 0.0, "type": "electric_scooter", "lon": -76.92743416666667}, {"rental_uris": {"android": "https://dc.lft.to/lastmile_qr_scan", "ios": "https://dc.lft.to/lastmile_qr_scan"}, "fusion_lat": 0.0, "is_reserved": 0, "lat": 38.91821516666667, "name": "c5c1267bea0514b32038fecbed614406", "bike_id": "c5c1267bea0514b32038fecbed614406", "is_disabled": 0, "fusion_lon": 0.0, "type": "electric_scooter", "lon": -77.03025633333333}, {"rental_uris": {"android": "https://dc.lft.to/lastmile_qr_scan", "ios": "https://dc.lft.to/lastmile_qr_scan"}, "fusion_lat": 0.0, "is_reserved": 0, "lat": 38.89603, "name": "c2ce84fba79b1a456c3718ef87ce9834", "bike_id": "c2ce84fba79b1a456c3718ef87ce9834", "is_disabled": 0, "fusion_lon": 0.0, "type": "electric_scooter", "lon": -77.044113}, {"rental_uris": {"android": "https://dc.lft.to/lastmile_qr_scan", "ios": "https://dc.lft.to/lastmile_qr_scan"}, "fusion_lat": 0.0, "is_reserved": 0, "lat": 38.946832666666666, "name": "4df9775c2ff58b69c941062c4b215c39", "bike_id": "4df9775c2ff58b69c941062c4b215c39", "is_disabled": 0, "fusion_lon": 0.0, "type": "electric_bike", "lon": -76.99327883333333}, {"rental_uris": {"android": "https://dc.lft.to/lastmile_qr_scan", "ios": "https://dc.lft.to/lastmile_qr_scan"}, "fusion_lat": 0.0, "is_reserved": 0, "lat": 38.909699333333336, "name": "55e37607a510b07e53238d0ef1ad6d2f", "bike_id": "55e37607a510b07e53238d0ef1ad6d2f", "is_disabled": 0, "fusion_lon": 0.0, "type": "electric_scooter", "lon": -77.03219783333333}, {"rental_uris": {"android": "https://dc.lft.to/lastmile_qr_scan", "ios": "https://dc.lft.to/lastmile_qr_scan"}, "fusion_lat": 0.0, "is_reserved": 0, "lat": 38.998940166666664, "name": "3ab48e5f0293ce68ba280c9d86395326", "bike_id": "3ab48e5f0293ce68ba280c9d86395326", "is_disabled": 0, "fusion_lon": 0.0, "type": "electric_bike", "lon": -76.9086565}, {"rental_uris": {"android": "https://dc.lft.to/lastmile_qr_scan", "ios": "https://dc.lft.to/lastmile_qr_scan"}, "fusion_lat": 0.0, "is_reserved": 0, "lat": 38.91420183333334, "name": "53c05b5abfaf6b7824026a2360335bb4", "bike_id": "53c05b5abfaf6b7824026a2360335bb4", "is_disabled": 0, "fusion_lon": 0.0, "type": "electric_scooter", "lon": -77.03170816666666}, {"rental_uris": {"android": "https://dc.lft.to/lastmile_qr_scan", "ios": "https://dc.lft.to/lastmile_qr_scan"}, "fusion_lat": 0.0, "is_reserved": 0, "lat": 38.91134183333333, "name": "7627fe933acb41b340fd22f27a2db21a", "bike_id": "7627fe933acb41b340fd22f27a2db21a", "is_disabled": 0, "fusion_lon": 0.0, "type": "electric_scooter", "lon": -77.04419016666667}, {"rental_uris": {"android": "https://dc.lft.to/lastmile_qr_scan", "ios": "https://dc.lft.to/lastmile_qr_scan"}, "fusion_lat": 0.0, "is_reserved": 0, "lat": 38.906425166666665, "name": "076be6333b618bb2cecb04068715bd5f", "bike_id": "076be6333b618bb2cecb04068715bd5f", "is_disabled": 0, "fusion_lon": 0.0, "type": "electric_scooter", "lon": -77.00593466666666}, {"rental_uris": {"android": "https://dc.lft.to/lastmile_qr_scan", "ios": "https://dc.lft.to/lastmile_qr_scan"}, "fusion_lat": 0.0, "is_reserved": 0, "lat": 38.89708266666667, "name": "f73fbc0a01c4a2aa020991d912f12b6c", "bike_id": "f73fbc0a01c4a2aa020991d912f12b6c", "is_disabled": 0, "fusion_lon": 0.0, "type": "electric_scooter", "lon": -76.99119133333333}, {"rental_uris": {"android": "https://dc.lft.to/lastmile_qr_scan", "ios": "https://dc.lft.to/lastmile_qr_scan"}, "fusion_lat": 0.0, "is_reserved": 0, "lat": 38.924415333333336, "name": "47dc194d02fa20afd2f5c2d89f620c9a", "bike_id": "47dc194d02fa20afd2f5c2d89f620c9a", "is_disabled": 0, "fusion_lon": 0.0, "type": "electric_scooter", "lon": -77.02032816666667}, {"rental_uris": {"android": "https://dc.lft.to/lastmile_qr_scan", "ios": "https://dc.lft.to/lastmile_qr_scan"}, "fusion_lat": 0.0, "is_reserved": 0, "lat": 38.980942, "name": "0481ff56e87382898db0d20197cd361a", "bike_id": "0481ff56e87382898db0d20197cd361a", "is_disabled": 0, "fusion_lon": 0.0, "type": "electric_bike", "lon": -77.02613183333334}, {"rental_uris": {"android": "https://dc.lft.to/lastmile_qr_scan", "ios": "https://dc.lft.to/lastmile_qr_scan"}, "fusion_lat": 0.0, "is_reserved": 0, "lat": 38.9180675, "name": "fcd109a6deb5bfd55f799648c28d5415", "bike_id": "fcd109a6deb5bfd55f799648c28d5415", "is_disabled": 0, "fusion_lon": 0.0, "type": "electric_scooter", "lon": -77.0401735}, {"rental_uris": {"android": "https://dc.lft.to/lastmile_qr_scan", "ios": "https://dc.lft.to/lastmile_qr_scan"}, "fusion_lat": 0.0, "is_reserved": 0, "lat": 38.92330833333333, "name": "bcaa893247a1d56862dbf48d242d1d23", "bike_id": "bcaa893247a1d56862dbf48d242d1d23", "is_disabled": 0, "fusion_lon": 0.0, "type": "electric_scooter", "lon": -77.019623}, {"rental_uris": {"android": "https://dc.lft.to/lastmile_qr_scan", "ios": "https://dc.lft.to/lastmile_qr_scan"}, "fusion_lat": 0.0, "is_reserved": 0, "lat": 38.91918283333333, "name": "547e7bcf3350159e0f0aadef73ee8f07", "bike_id": "547e7bcf3350159e0f0aadef73ee8f07", "is_disabled": 0, "fusion_lon": 0.0, "type": "electric_scooter", "lon": -77.031837}, {"rental_uris": {"android": "https://dc.lft.to/lastmile_qr_scan", "ios": "https://dc.lft.to/lastmile_qr_scan"}, "fusion_lat": 0.0, "is_reserved": 0, "lat": 38.94227216666667, "name": "766e6b9736747fd7ba1a6bb76a452b58", "bike_id": "766e6b9736747fd7ba1a6bb76a452b58", "is_disabled": 0, "fusion_lon": 0.0, "type": "electric_scooter", "lon": -77.0296735}, {"rental_uris": {"android": "https://dc.lft.to/lastmile_qr_scan", "ios": "https://dc.lft.to/lastmile_qr_scan"},