{"data": {"bikes": [{"is_reserved": 0, "type": "electric_bike", "bike_id": "502fe10c2aab891ad0fb9ec0465a5f98", "lat": 38.89567133333333, "lon": -77.12733416666667, "rental_uris": {"android": "https://dc.lft.to/lastmile_qr_scan", "ios": "https://dc.lft.to/lastmile_qr_scan"}, "is_disabled": 0, "fusion_lat": 0.0, "name": "502fe10c2aab891ad0fb9ec0465a5f98", "fusion_lon": 0.0}, {"is_reserved": 0, "type": "electric_scooter", "bike_id": "d8658d49f1ed0e4e073e9a54d1680bff", "lat": 38.90361583333333, "lon": -77.0110825, "rental_uris": {"android": "https://dc.lft.to/lastmile_qr_scan", "ios": "https://dc.lft.to/lastmile_qr_scan"}, "is_disabled": 0, "fusion_lat": 0.0, "name": "d8658d49f1ed0e4e073e9a54d1680bff", "fusion_lon": 0.0}, {"is_reserved": 0, "type": "electric_scooter", "bike_id": "bc7a7fc5668ea8c6550a36a0ea9f4d5b", "lat": 38.92080083333333, "lon": -77.01786466666667, "rental_uris": {"android": "https://dc.lft.to/lastmile_qr_scan", "ios": "https://dc.lft.to/lastmile_qr_scan"}, "is_disabled": 0, "fusion_lat": 0.0, "name": "bc7a7fc5668ea8c6550a36a0ea9f4d5b", "fusion_lon": 0.0}, {"is_reserved": 0, "type": "electric_scooter", "bike_id": "7fb574762694213f44f200d77f490db8", "lat": 38.94025583333333, "lon": -77.02645066666666, "rental_uris": {"android": "https://dc.lft.to/lastmile_qr_scan", "ios": "https://dc.lft.to/lastmile_qr_scan"}, "is_disabled": 0, "fusion_lat": 0.0, "name": "7fb574762694213f44f200d77f490db8", "fusion_lon": 0.0}, {"is_reserved": 0, "type": "electric_scooter", "bike_id": "17d4af3473cd228fda1695b0fe553442", "lat": 38.8965515, "lon": -77.02610866666667, "rental_uris": {"android": "https://dc.lft.to/lastmile_qr_scan", "ios": "https://dc.lft.to/lastmile_qr_scan"}, "is_disabled": 0, "fusion_lat": 0.0, "name": "17d4af3473cd228fda1695b0fe553442", "fusion_lon": 0.0}, {"is_reserved": 0, "type": "electric_scooter", "bike_id": "176401ee33f2439263d4ec44732ce935", "lat": 38.90636466666667, "lon": -77.05146366666666, "rental_uris": {"android": "https://dc.lft.to/lastmile_qr_scan", "ios": "https://dc.lft.to/lastmile_qr_scan"}, "is_disabled": 0, "fusion_lat": 0.0, "name": "176401ee33f2439263d4ec44732ce935", "fusion_lon": 0.0}, {"is_reserved": 0, "type": "electric_scooter", "bike_id": "0fcec9d9a91b64f36a9057714ddd0d21", "lat": 38.8922365, "lon": -77.044889, "rental_uris": {"android": "https://dc.lft.to/lastmile_qr_scan", "ios": "https://dc.lft.to/lastmile_qr_scan"}, "is_disabled": 0, "fusion_lat": 0.0, "name": "0fcec9d9a91b64f36a9057714ddd0d21", "fusion_lon": 0.0}, {"is_reserved": 0, "type": "electric_scooter", "bike_id": "994837455fa7ddf7b5e7873f86ca95fe", "lat": 38.937569333333336, "lon": -77.03155416666667, "rental_uris": {"android": "https://dc.lft.to/lastmile_qr_scan", "ios": "https://dc.lft.to/lastmile_qr_scan"}, "is_disabled": 0, "fusion_lat": 0.0, "name": "994837455fa7ddf7b5e7873f86ca95fe", "fusion_lon": 0.0}, {"is_reserved": 0, "type": "electric_scooter", "bike_id": "26707b01d22ff746ff3d3c6cb4420028", "lat": 38.92071933333333, "lon": -77.02393683333334, "rental_uris": {"android": "https://dc.lft.to/lastmile_qr_scan", "ios": "https://dc.lft.to/lastmile_qr_scan"}, "is_disabled": 0, "fusion_lat": 0.0, "name": "26707b01d22ff746ff3d3c6cb4420028", "fusion_lon": 0.0}, {"is_reserved": 0, "type": "electric_scooter", "bike_id": "15bc118abae5cc0ff1e80443f469a1a4", "lat": 38.8927145, "lon": -76.952557, "rental_uris": {"android": "https://dc.lft.to/lastmile_qr_scan", "ios": "https://dc.lft.to/lastmile_qr_scan"}, "is_disabled": 0, "fusion_lat": 0.0, "name": "15bc118abae5cc0ff1e80443f469a1a4", "fusion_lon": 0.0}, {"is_reserved": 0, "type": "electric_scooter", "bike_id": "c60dd2a32bccd0d5a184109656b207c8", "lat": 38.920175, "lon": -77.029519, "rental_uris": {"android": "https://dc.lft.to/lastmile_qr_scan", "ios": "https://dc.lft.to/lastmile_qr_scan"}, "is_disabled": 0, "fusion_lat": 0.0, "name": "c60dd2a32bccd0d5a184109656b207c8", "fusion_lon": 0.0}, {"is_reserved": 0, "type": "electric_scooter", "bike_id": "9fad3bf236c1055cbe2010c88db81bfc", "lat": 38.9198685, "lon": -77.03314533333334, "rental_uris": {"android": "https://dc.lft.to/lastmile_qr_scan", "ios": "https://dc.lft.to/lastmile_qr_scan"}, "is_disabled": 0, "fusion_lat": 0.0, "name": "9fad3bf236c1055cbe2010c88db81bfc", "fusion_lon": 0.0}, {"is_reserved": 0, "type": "electric_scooter", "bike_id": "e7a89ec4e11c6aac2124e805fada3d27", "lat": 38.8960535, "lon": -77.04704, "rental_uris": {"android": "https://dc.lft.to/lastmile_qr_scan", "ios": "https://dc.lft.to/lastmile_qr_scan"}, "is_disabled": 0, "fusion_lat": 0.0, "name": "e7a89ec4e11c6aac2124e805fada3d27", "fusion_lon": 0.0}, {"is_reserved": 0, "type": "electric_scooter", "bike_id": "ee31e3ffeb3fb6160a9d6919c3439779", "lat": 38.896015, "lon": -77.025875, "rental_uris": {"android": "https://dc.lft.to/lastmile_qr_scan", "ios": "https://dc.lft.to/lastmile_qr_scan"}, "is_disabled": 0, "fusion_lat": 0.0, "name": "ee31e3ffeb3fb6160a9d6919c3439779", "fusion_lon": 0.0}, {"is_reserved": 0, "type": "electric_scooter", "bike_id": "36a8a30e0e00caf7dc6ba888333c3356", "lat": 38.9280665, "lon": -77.02292633333333, "rental_uris": {"android": "https://dc.lft.to/lastmile_qr_scan", "ios": "https://dc.lft.to/lastmile_qr_scan"}, "is_disabled": 0, "fusion_lat": 0.0, "name": "36a8a30e0e00caf7dc6ba888333c3356", "fusion_lon": 0.0}, {"is_reserved": 0, "type": "electric_scooter", "bike_id": "8191973b952c5552bb8df1e913f6203e", "lat": 38.900370833333334, "lon": -77.00212366666666, "rental_uris": {"android": "https://dc.lft.to/lastmile_qr_scan", "ios": "https://dc.lft.to/lastmile_qr_scan"}, "is_disabled": 0, "fusion_lat": 0.0, "name": "8191973b952c5552bb8df1e913f6203e", "fusion_lon": 0.0}, {"is_reserved": 0, "type": "electric_scooter", "bike_id": "e01fdd055a594ba9fd30de571b4882ca", "lat": 38.887184, "lon": -77.01979316666667, "rental_uris": {"android": "https://dc.lft.to/lastmile_qr_scan", "ios": "https://dc.lft.to/lastmile_qr_scan"}, "is_disabled": 0, "fusion_lat": 0.0, "name": "e01fdd055a594ba9fd30de571b4882ca", "fusion_lon": 0.0}, {"is_reserved": 0, "type": "electric_scooter", "bike_id": "9511d0106f28836eae6d2cdd59f862c1", "lat": 38.91844583333334, "lon": -77.02428116666667, "rental_uris": {"android": "https://dc.lft.to/lastmile_qr_scan", "ios": "https://dc.lft.to/lastmile_qr_scan"}, "is_disabled": 0, "fusion_lat": 0.0, "name": "9511d0106f28836eae6d2cdd59f862c1", "fusion_lon": 0.0}, {"is_reserved": 0, "type": "electric_scooter", "bike_id": "9c5820aff97fe52d4c3554dbfbc8eb84", "lat": 38.89615083333333, "lon": -76.9768365, "rental_uris": {"android": "https://dc.lft.to/lastmile_qr_scan", "ios": "https://dc.lft.to/lastmile_qr_scan"}, "is_disabled": 0, "fusion_lat": 0.0, "name": "9c5820aff97fe52d4c3554dbfbc8eb84", "fusion_lon": 0.0}, {"is_reserved": 0, "type": "electric_scooter", "bike_id": "d5411bb18003a3372a8105a30068a19f", "lat": 38.89272416666667, "lon": -76.92997616666666, "rental_uris": {"android": "https://dc.lft.to/lastmile_qr_scan", "ios": "https://dc.lft.to/lastmile_qr_scan"}, "is_disabled": 0, "fusion_lat": 0.0, "name": "d5411bb18003a3372a8105a30068a19f", "fusion_lon": 0.0}, {"is_reserved": 0, "type": "electric_scooter", "bike_id": "f24252b2122b344bc53a704c5d5941bd", "lat": 38.913288333333334, "lon": -77.02442116666667, "rental_uris": {"android": "https://dc.lft.to/lastmile_qr_scan", "ios": "https://dc.lft.to/lastmile_qr_scan"}, "is_disabled": 0, "fusion_lat": 0.0, "name": "f24252b2122b344bc53a704c5d5941bd", "fusion_lon": 0.0}, {"is_reserved": 0, "type": "electric_scooter", "bike_id": "11005bf5d21cd681615a7850130294e6", "lat": 38.8974495, "lon": -77.0301965, "rental_uris": {"android": "https://dc.lft.to/lastmile_qr_scan", "ios": "https://dc.lft.to/lastmile_qr_scan"}, "is_disabled": 0, "fusion_lat": 0.0, "name": "11005bf5d21cd681615a7850130294e6", "fusion_lon": 0.0}, {"is_reserved": 0, "type": "electric_scooter", "bike_id": "c945b6963910d69c98be58e63c42ea55", "lat": 38.90087783333333, "lon": -77.05736383333333, "rental_uris": {"android": "https://dc.lft.to/lastmile_qr_scan", "ios": "https://dc.lft.to/lastmile_qr_scan"}, "is_disabled": 0, "fusion_lat": 0.0, "name": "c945b6963910d69c98be58e63c42ea55", "fusion_lon": 0.0}, {"is_reserved": 0, "type": "electric_scooter", "bike_id": "223808c98b9e80f7c46e0510221952e6", "lat": 38.929704666666666, "lon": -77.03931183333333, "rental_uris": {"android": "https://dc.lft.to/lastmile_qr_scan", "ios": "https://dc.lft.to/lastmile_qr_scan"}, "is_disabled": 0, "fusion_lat": 0.0, "name": "223808c98b9e80f7c46e0510221952e6", "fusion_lon": 0.0}, {"is_reserved": 0, "type": "electric_scooter", "bike_id": "fd621ceff2da78f6a13c93897ab4c24b", "lat": 38.88390416666667, "lon": -76.930486, "rental_uris": {"android": "https://dc.lft.to/lastmile_qr_scan", "ios": "https://dc.lft.to/lastmile_qr_scan"}, "is_disabled": 0, "fusion_lat": 0.0, "name": "fd621ceff2da78f6a13c93897ab4c24b", "fusion_lon": 0.0}, {"is_reserved": 0, "type": "electric_scooter", "bike_id": "9ae25938029c6cf57713a1d6c3fc03ac", "lat": 38.9088075, "lon": -76.99120083333334, "rental_uris": {"android": "https://dc.lft.to/lastmile_qr_scan", "ios": "https://dc.lft.to/lastmile_qr_scan"}, "is_disabled": 0, "fusion_lat": 0.0, "name": "9ae25938029c6cf57713a1d6c3fc03ac", "fusion_lon": 0.0}, {"is_reserved": 0, "type": "electric_scooter", "bike_id": "d61e19e8fdf2c03e7990956d508f4f2c", "lat": 38.896791666666665, "lon": -76.93532783333333, "rental_uris": {"android": "https://dc.lft.to/lastmile_qr_scan", "ios": "https://dc.lft.to/lastmile_qr_scan"}, "is_disabled": 0, "fusion_lat": 0.0, "name": "d61e19e8fdf2c03e7990956d508f4f2c", "fusion_lon": 0.0}, {"is_reserved": 0, "type": "electric_scooter", "bike_id": "182785c7c6048465061cd11363732a84", "lat": 38.88162483333333, "lon": -76.99485933333334, "rental_uris": {"android": "https://dc.lft.to/lastmile_qr_scan", "ios": "https://dc.lft.to/lastmile_qr_scan"}, "is_disabled": 0, "fusion_lat": 0.0, "name": "182785c7c6048465061cd11363732a84", "fusion_lon": 0.0}, {"is_reserved": 0, "type": "electric_bike", "bike_id": "94ae468f4b4adf47231d1138e22b1da8", "lat": 38.9221915, "lon": -77.043361, "rental_uris": {"android": "https://dc.lft.to/lastmile_qr_scan", "ios": "https://dc.lft.to/lastmile_qr_scan"}, "is_disabled": 0, "fusion_lat": 0.0, "name": "94ae468f4b4adf47231d1138e22b1da8", "fusion_lon": 0.0}, {"is_reserved": 0, "type": "electric_scooter", "bike_id": "2b9bd3f6d099af697fd72057852d1c2b", "lat": 38.89230833333333, "lon": -77.03184783333333, "rental_uris": {"android": "https://dc.lft.to/lastmile_qr_scan", "ios": "https://dc.lft.to/lastmile_qr_scan"}, "is_disabled": 0, "fusion_lat": 0.0, "name": "2b9bd3f6d099af697fd72057852d1c2b", "fusion_lon": 0.0}, {"is_reserved": 0, "type": "electric_scooter", "bike_id": "6d0a9dbc439e4a777962fea6632fb6c2", "lat": 38.87504333333333, "lon": -77.00345316666667, "rental_uris": {"android": "https://dc.lft.to/lastmile_qr_scan", "ios": "https://dc.lft.to/lastmile_qr_scan"}, "is_disabled": 0, "fusion_lat": 0.0, "name": "6d0a9dbc439e4a777962fea6632fb6c2", "fusion_lon": 0.0}, {"is_reserved": 0, "type": "electric_scooter", "bike_id": "e33867b068f5373896aefcdb6beb080b", "lat": 38.8774475, "lon": -77.01871833333334, "rental_uris": {"android": "https://dc.lft.to/lastmile_qr_scan", "ios": "https://dc.lft.to/lastmile_qr_scan"}, "is_disabled": 0, "fusion_lat": 0.0, "name": "e33867b068f5373896aefcdb6beb080b", "fusion_lon": 0.0}, {"is_reserved": 0, "type": "electric_scooter", "bike_id": "70058c4188dc4539a6d5506e0ca649d1", "lat": 38.9245925, "lon": -77.0329705, "rental_uris": {"android": "https://dc.lft.to/lastmile_qr_scan", "ios": "https://dc.lft.to/lastmile_qr_scan"}, "is_disabled": 0, "fusion_lat": 0.0, "name": "70058c4188dc4539a6d5506e0ca649d1", "fusion_lon": 0.0}, {"is_reserved": 0, "type": "electric_scooter", "bike_id": "0547d80eaef546b930138c1730b8a6e3", "lat": 38.889715333333335, "lon": -76.9993905, "rental_uris": {"android": "https://dc.lft.to/lastmile_qr_scan", "ios": "https://dc.lft.to/lastmile_qr_scan"}, "is_disabled": 0, "fusion_lat": 0.0, "name": "0547d80eaef546b930138c1730b8a6e3", "fusion_lon": 0.0}, {"is_reserved": 0, "type": "electric_scooter", "bike_id": "eac6adff5f5767dd94dca9abdfcc0e9d", "lat": 38.89999666666667, "lon": -76.99832033333334, "rental_uris": {"android": "https://dc.lft.to/lastmile_qr_scan", "ios": "https://dc.lft.to/lastmile_qr_scan"}, "is_disabled": 0, "fusion_lat": 0.0, "name": "eac6adff5f5767dd94dca9abdfcc0e9d", "fusion_lon": 0.0}, {"is_reserved": 0, "type": "electric_scooter", "bike_id": "49a68a776886dfd71ff2f7aed7f29531", "lat": 38.915504, "lon": -77.03302483333333, "rental_uris": {"android": "https://dc.lft.to/lastmile_qr_scan", "ios": "https://dc.lft.to/lastmile_qr_scan"}, "is_disabled": 0, "fusion_lat": 0.0, "name": "49a68a776886dfd71ff2f7aed7f29531", "fusion_lon": 0.0}, {"is_reserved": 0, "type": "electric_scooter", "bike_id": "95a4111247e013a6cdff3dd6b6b85ad7", "lat": 38.92372866666667, "lon": -77.03055283333333, "rental_uris": {"android": "https://dc.lft.to/lastmile_qr_scan", "ios": "https://dc.lft.to/lastmile_qr_scan"}, "is_disabled": 0, "fusion_lat": 0.0, "name": "95a4111247e013a6cdff3dd6b6b85ad7", "fusion_lon": 0.0}, {"is_reserved": 0, "type": "electric_scooter", "bike_id": "5f15c9912aeb0cd0d3fa4cd7faa66c85", "lat": 38.899338666666665, "lon": -77.032118, "rental_uris": {"android": "https://dc.lft.to/lastmile_qr_scan", "ios": "https://dc.lft.to/lastmile_qr_scan"}, "is_disabled": 0, "fusion_lat": 0.0, "name": "5f15c9912aeb0cd0d3fa4cd7faa66c85", "fusion_lon": 0.0}, {"is_reserved": 0, "type": "electric_scooter", "bike_id": "8d9078568dee7a47b149923054711567", "lat": 38.892237333333334, "lon": -77.04484533333333, "rental_uris": {"android": "https://dc.lft.to/lastmile_qr_scan", "ios": "https://dc.lft.to/lastmile_qr_scan"}, "is_disabled": 0, "fusion_lat": 0.0, "name": "8d9078568dee7a47b149923054711567", "fusion_lon": 0.0}, {"is_reserved": 0, "type": "electric_scooter", "bike_id": "68635c93e21915c8e25bf3daad776176", "lat": 38.90024733333333, "lon": -77.01182516666667, "rental_uris": {"android": "https://dc.lft.to/lastmile_qr_scan", "ios": "https://dc.lft.to/lastmile_qr_scan"}, "is_disabled": 0, "fusion_lat": 0.0, "name": "68635c93e21915c8e25bf3daad776176", "fusion_lon": 0.0}, {"is_reserved": 0, "type": "electric_scooter", "bike_id": "4f3ff9865da7588616f03a5e9505ab87", "lat": 38.928347, "lon": -77.05507733333333, "rental_uris": {"android": "https://dc.lft.to/lastmile_qr_scan", "ios": "https://dc.lft.to/lastmile_qr_scan"}, "is_disabled": 0, "fusion_lat": 0.0, "name": "4f3ff9865da7588616f03a5e9505ab87", "fusion_lon": 0.0}, {"is_reserved": 0, "type": "electric_scooter", "bike_id": "9833465e7dc4d17a82984adcb0a52eee", "lat": 38.92748516666666, "lon": -77.02457983333333, "rental_uris": {"android": "https://dc.lft.to/lastmile_qr_scan", "ios": "https://dc.lft.to/lastmile_qr_scan"}, "is_disabled": 0, "fusion_lat": 0.0, "name": "9833465e7dc4d17a82984adcb0a52eee", "fusion_lon": 0.0}, {"is_reserved": 0, "type": "electric_scooter", "bike_id": "413b5f08337fbd088eefeaea332bf2cc", "lat": 38.94081533333333, "lon": -77.054944, "rental_uris": {"android": "https://dc.lft.to/lastmile_qr_scan", "ios": "https://dc.lft.to/lastmile_qr_scan"}, "is_disabled": 0, "fusion_lat": 0.0, "name": "413b5f08337fbd088eefeaea332bf2cc", "fusion_lon": 0.0}, {"is_reserved": 0, "type": "electric_scooter", "bike_id": "39767359c54279203ad8ccd2eaf1591f", "lat": 38.926238166666664, "lon": -77.036256, "rental_uris": {"android": "https://dc.lft.to/lastmile_qr_scan", "ios": "https://dc.lft.to/lastmile_qr_scan"}, "is_disabled": 0, "fusion_lat": 0.0, "name": "39767359c54279203ad8ccd2eaf1591f", "fusion_lon": 0.0}, {"is_reserved": 0, "type": "electric_scooter", "bike_id": "b697ebdad9312a5a33b954d7a9a2f18b", "lat": 38.892301, "lon": -77.03182966666667, "rental_uris": {"android": "https://dc.lft.to/lastmile_qr_scan", "ios": "https://dc.lft.to/lastmile_qr_scan"}, "is_disabled": 0, "fusion_lat": 0.0, "name": "b697ebdad9312a5a33b954d7a9a2f18b", "fusion_lon": 0.0}, {"is_reserved": 0, "type": "electric_scooter", "bike_id": "a94bf7988be68522f27e2bad4e678786", "lat": 38.9219855, "lon": -77.04694083333334, "rental_uris": {"android": "https://dc.lft.to/lastmile_qr_scan", "ios": "https://dc.lft.to/lastmile_qr_scan"}, "is_disabled": 0, "fusion_lat": 0.0, "name": "a94bf7988be68522f27e2bad4e678786", "fusion_lon": 0.0}, {"is_reserved": 0, "type": "electric_scooter", "bike_id": "5205771543dad5cfe3b37c7b3b631085", "lat": 38.88520583333333, "lon": -76.9961355, "rental_uris": {"android": "https://dc.lft.to/lastmile_qr_scan", "ios": "https://dc.lft.to/lastmile_qr_scan"}, "is_disabled": 0, "fusion_lat": 0.0, "name": "5205771543dad5cfe3b37c7b3b631085", "fusion_lon": 0.0}, {"is_reserved": 0, "type": "electric_scooter", "bike_id": "2f285bc200efc9cc75eb933858ab7532", "lat": 38.916291, "lon": -77.04576983333334, "rental_uris": {"android": "https://dc.lft.to/lastmile_qr_scan", "ios": "https://dc.lft.to/lastmile_qr_scan"}, "is_disabled": 0, "fusion_lat": 0.0, "name": "2f285bc200efc9cc75eb933858ab7532", "fusion_lon": 0.0}, {"is_reserved": 0, "type": "electric_scooter", "bike_id": "e76607293906bdc17d87f767f29f8f03", "lat": 38.916793166666665, "lon": -77.036859, "rental_uris": {"android": "https://dc.lft.to/lastmile_qr_scan", "ios": "https://dc.lft.to/lastmile_qr_scan"}, "is_disabled": 0, "fusion_lat": 0.0, "name": "e76607293906bdc17d87f767f29f8f03", "fusion_lon": 0.0}, {"is_reserved": 0, "type": "electric_scooter", "bike_id": "33602e66bd4d9d4561f10cd42f37325a", "lat": 38.942296, "lon": -77.07150733333333, "rental_uris": {"android": "https://dc.lft.to/lastmile_qr_scan", "ios": "https://dc.lft.to/lastmile_qr_scan"}, "is_disabled": 0, "fusion_lat": 0.0, "name": "33602e66bd4d9d4561f10cd42f37325a", "fusion_lon": 0.0}, {"is_reserved": 0, "type": "electric_scooter", "bike_id": "f9a4309fb075acb3f1cf3ed7fc67d189", "lat": 38.900955, "lon": -77.048705, "rental_uris": {"android": "https://dc.lft.to/lastmile_qr_scan", "ios": "https://dc.lft.to/lastmile_qr_scan"}, "is_disabled": 0, "fusion_lat": 0.0, "name": "f9a4309fb075acb3f1cf3ed7fc67d189", "fusion_lon": 0.0}, {"is_reserved": 0, "type": "electric_scooter", "bike_id": "0a2d94e49eda3930ff2573382e88d247", "lat": 38.8987535, "lon": -76.93183433333333, "rental_uris": {"android": "https://dc.lft.to/lastmile_qr_scan", "ios": "https://dc.lft.to/lastmile_qr_scan"}, "is_disabled": 0, "fusion_lat": 0.0, "name": "0a2d94e49eda3930ff2573382e88d247", "fusion_lon": 0.0}, {"is_reserved": 0, "type": "electric_scooter", "bike_id": "cd2c248fa0d2f4e7bf24f4fe0ef86a22", "lat": 38.917454166666666, "lon": -77.0280605, "rental_uris": {"android": "https://dc.lft.to/lastmile_qr_scan", "ios": "https://dc.lft.to/lastmile_qr_scan"}, "is_disabled": 0, "fusion_lat": 0.0, "name": "cd2c248fa0d2f4e7bf24f4fe0ef86a22", "fusion_lon": 0.0}, {"is_reserved": 0, "type": "electric_scooter", "bike_id": "17ed9c88a58b6ef35f69e200117b53b0", "lat": 38.9194555, "lon": -77.01358033333334, "rental_uris": {"android": "https://dc.lft.to/lastmile_qr_scan", "ios": "https://dc.lft.to/lastmile_qr_scan"}, "is_disabled": 0, "fusion_lat": 0.0, "name": "17ed9c88a58b6ef35f69e200117b53b0", "fusion_lon": 0.0}, {"is_reserved": 0, "type": "electric_scooter", "bike_id": "bc111513b8784a70ecd9fc1cbee968cf", "lat": 38.9068605, "lon": -77.06252866666667, "rental_uris": {"android": "https://dc.lft.to/lastmile_qr_scan", "ios": "https://dc.lft.to/lastmile_qr_scan"}, "is_disabled": 0, "fusion_lat": 0.0, "name": "bc111513b8784a70ecd9fc1cbee968cf", "fusion_lon": 0.0}, {"is_reserved": 0, "type": "electric_scooter", "bike_id": "c65dd1bdadb551c5546a5aed20925e01", "lat": 38.903560166666665, "lon": -77.03203266666667, "rental_uris": {"android": "https://dc.lft.to/lastmile_qr_scan", "ios": "https://dc.lft.to/lastmile_qr_scan"}, "is_disabled": 0, "fusion_lat": 0.0, "name": "c65dd1bdadb551c5546a5aed20925e01", "fusion_lon": 0.0}, {"is_reserved": 0, "type": "electric_scooter", "bike_id": "b3a546b8836d9ac02bae5f82bc18df30", "lat": 38.906574166666665, "lon": -77.00911466666666, "rental_uris": {"android": "https://dc.lft.to/lastmile_qr_scan", "ios": "https://dc.lft.to/lastmile_qr_scan"}, "is_disabled": 0, "fusion_lat": 0.0, "name": "b3a546b8836d9ac02bae5f82bc18df30", "fusion_lon": 0.0}, {"is_reserved": 0, "type": "electric_scooter", "bike_id": "64f20c16190a03e90e9076f90b4382de", "lat": 38.920359166666664, "lon": -77.041837, "rental_uris": {"android": "https://dc.lft.to/lastmile_qr_scan", "ios": "https://dc.lft.to/lastmile_qr_scan"}, "is_disabled": 0, "fusion_lat": 0.0, "name": "64f20c16190a03e90e9076f90b4382de", "fusion_lon": 0.0}, {"is_reserved": 0, "type": "electric_scooter", "bike_id": "c0db459f96bf4f7b62b5557013ed0bb8", "lat": 38.87550933333333, "lon": -77.00584633333334, "rental_uris": {"android": "https://dc.lft.to/lastmile_qr_scan", "ios": "https://dc.lft.to/lastmile_qr_scan"}, "is_disabled": 0, "fusion_lat": 0.0, "name": "c0db459f96bf4f7b62b5557013ed0bb8", "fusion_lon": 0.0}, {"is_reserved": 0, "type": "electric_scooter", "bike_id": "c29e2152b0d22617b35beb2f388f9593", "lat": 38.927745333333334, "lon": -77.02783733333334, "rental_uris": {"android": "https://dc.lft.to/lastmile_qr_scan", "ios": "https://dc.lft.to/lastmile_qr_scan"}, "is_disabled": 0, "fusion_lat": 0.0, "name": "c29e2152b0d22617b35beb2f388f9593", "fusion_lon": 0.0}, {"is_reserved": 0, "type": "electric_bike", "bike_id": "8a34feb1d28a297d0bc9e34e7b6edb14", "lat": 38.802548333333334, "lon": -77.1217245, "rental_uris": {"android": "https://dc.lft.to/lastmile_qr_scan", "ios": "https://dc.lft.to/lastmile_qr_scan"}, "is_disabled": 0, "fusion_lat": 0.0, "name": "8a34feb1d28a297d0bc9e34e7b6edb14", "fusion_lon": 0.0}, {"is_reserved": 0, "type": "electric_scooter", "bike_id": "65bf2542b7f0adc4e0aa3c17ba533349", "lat": 38.91046383333333, "lon": -77.015092, "rental_uris": {"android": "https://dc.lft.to/lastmile_qr_scan", "ios": "https://dc.lft.to/lastmile_qr_scan"}, "is_disabled": 0, "fusion_lat": 0.0, "name": "65bf2542b7f0adc4e0aa3c17ba533349", "fusion_lon": 0.0}, {"is_reserved": 0, "type": "electric_bike", "bike_id": "fb1d238f06404c41cc7043695814f6c3", "lat": 38.95151366666666, "lon": -76.93327716666667, "rental_uris": {"android": "https://dc.lft.to/lastmile_qr_scan", "ios": "https://dc.lft.to/lastmile_qr_scan"}, "is_disabled": 0, "fusion_lat": 0.0, "name": "fb1d238f06404c41cc7043695814f6c3", "fusion_lon": 0.0}, {"is_reserved": 0, "type": "electric_scooter", "bike_id": "b0e9c63cfb4b65329328d33a7f1452ca", "lat": 38.94971, "lon": -77.02437866666666, "rental_uris": {"android": "https://dc.lft.to/lastmile_qr_scan", "ios": "https://dc.lft.to/lastmile_qr_scan"}, "is_disabled": 0, "fusion_lat": 0.0, "name": "b0e9c63cfb4b65329328d33a7f1452ca", "fusion_lon": 0.0}, {"is_reserved": 0, "type": "electric_scooter", "bike_id": "a1a3365b457f49d98099446198871812", "lat": 38.926024, "lon": -77.057015, "rental_uris": {"android": "https://dc.lft.to/lastmile_qr_scan", "ios": "https://dc.lft.to/lastmile_qr_scan"}, "is_disabled": 0, "fusion_lat": 0.0, "name": "a1a3365b457f49d98099446198871812", "fusion_lon": 0.0}, {"is_reserved": 0, "type": "electric_scooter", "bike_id": "d48e84035313e45eab8ba25baebb407b", "lat": 38.89910966666667, "lon": -76.979956, "rental_uris": {"android": "https://dc.lft.to/lastmile_qr_scan", "ios": "https://dc.lft.to/lastmile_qr_scan"}, "is_disabled": 0, "fusion_lat": 0.0, "name": "d48e84035313e45eab8ba25baebb407b", "fusion_lon": 0.0}, {"is_reserved": 0, "type": "electric_scooter", "bike_id": "30012ee80f8912ba1d7e0a1b165f97d1", "lat": 38.91129883333333, "lon": -77.04424033333333, "rental_uris": {"android": "https://dc.lft.to/lastmile_qr_scan", "ios": "https://dc.lft.to/lastmile_qr_scan"}, "is_disabled": 0, "fusion_lat": 0.0, "name": "30012ee80f8912ba1d7e0a1b165f97d1", "fusion_lon": 0.0}, {"is_reserved": 0, "type": "electric_scooter", "bike_id": "d54b9693e57c23f10f39980ebff1e0ac", "lat": 38.875576833333334, "lon": -77.0059655, "rental_uris": {"android": "https://dc.lft.to/lastmile_qr_scan", "ios": "https://dc.lft.to/lastmile_qr_scan"}, "is_disabled": 0, "fusion_lat": 0.0, "name": "d54b9693e57c23f10f39980ebff1e0ac", "fusion_lon": 0.0}, {"is_reserved": 0, "type": "electric_scooter", "bike_id": "9923a44410c8216d1c63bccf8e7d8e2c", "lat": 38.90026833333334, "lon": -76.987641, "rental_uris": {"android": "https://dc.lft.to/lastmile_qr_scan", "ios": "https://dc.lft.to/lastmile_qr_scan"}, "is_disabled": 0, "fusion_lat": 0.0, "name": "9923a44410c8216d1c63bccf8e7d8e2c", "fusion_lon": 0.0}, {"is_reserved": 0, "type": "electric_scooter", "bike_id": "3652fd51e41b8a7dc29f87653c6ba8a7", "lat": 38.903031, "lon": -76.9765215, "rental_uris": {"android": "https://dc.lft.to/lastmile_qr_scan", "ios": "https://dc.lft.to/lastmile_qr_scan"}, "is_disabled": 0, "fusion_lat": 0.0, "name": "3652fd51e41b8a7dc29f87653c6ba8a7", "fusion_lon": 0.0}, {"is_reserved": 0, "type": "electric_scooter", "bike_id": "c91bb1053dc751f16eb7c92ea3925770", "lat": 38.935907666666665, "lon": -77.033682, "rental_uris": {"android": "https://dc.lft.to/lastmile_qr_scan", "ios": "https://dc.lft.to/lastmile_qr_scan"}, "is_disabled": 0, "fusion_lat": 0.0, "name": "c91bb1053dc751f16eb7c92ea3925770", "fusion_lon": 0.0}, {"is_reserved": 0, "type": "electric_scooter", "bike_id": "191c3692a56097834da266031080a216", "lat": 38.9171285, "lon": -77.04027816666667, "rental_uris": {"android": "https://dc.lft.to/lastmile_qr_scan", "ios": "https://dc.lft.to/lastmile_qr_scan"}, "is_disabled": 0, "fusion_lat": 0.0, "name": "191c3692a56097834da266031080a216", "fusion_lon": 0.0}, {"is_reserved": 0, "type": "electric_scooter", "bike_id": "55cf7208eaec6240d139eca1469330de", "lat": 38.91728716666667, "lon": -77.02382966666667, "rental_uris": {"android": "https://dc.lft.to/lastmile_qr_scan", "ios": "https://dc.lft.to/lastmile_qr_scan"}, "is_disabled": 0, "fusion_lat": 0.0, "name": "55cf7208eaec6240d139eca1469330de", "fusion_lon": 0.0}, {"is_reserved": 0, "type": "electric_scooter", "bike_id": "366fc436404f03c8edba0ccca8e313e7", "lat": 38.874717, "lon": -77.00334583333333, "rental_uris": {"android": "https://dc.lft.to/lastmile_qr_scan", "ios": "https://dc.lft.to/lastmile_qr_scan"}, "is_disabled": 0, "fusion_lat": 0.0, "name": "366fc436404f03c8edba0ccca8e313e7", "fusion_lon": 0.0}, {"is_reserved": 0, "type": "electric_bike", "bike_id": "0cc6f6a93fc780524f91a2cdd460574d", "lat": 38.9730875, "lon": -76.994867, "rental_uris": {"android": "https://dc.lft.to/lastmile_qr_scan", "ios": "https://dc.lft.to/lastmile_qr_scan"}, "is_disabled": 0, "fusion_lat": 0.0, "name": "0cc6f6a93fc780524f91a2cdd460574d", "fusion_lon": 0.0}, {"is_reserved": 0, "type": "electric_scooter", "bike_id": "4b39b7fe760d324970bf0d60dfb8057b", "lat": 38.909030333333334, "lon": -76.99618016666666, "rental_uris": {"android": "https://dc.lft.to/lastmile_qr_scan", "ios": "https://dc.lft.to/lastmile_qr_scan"}, "is_disabled": 0, "fusion_lat": 0.0, "name": "4b39b7fe760d324970bf0d60dfb8057b", "fusion_lon": 0.0}, {"is_reserved": 0, "type": "electric_scooter", "bike_id": "e13a1598fdd4143797533bfa6b518fd4", "lat": 38.9263095, "lon": -77.04250316666666, "rental_uris": {"android": "https://dc.lft.to/lastmile_qr_scan", "ios": "https://dc.lft.to/lastmile_qr_scan"}, "is_disabled": 0, "fusion_lat": 0.0, "name": "e13a1598fdd4143797533bfa6b518fd4", "fusion_lon": 0.0}, {"is_reserved": 0, "type": "electric_scooter", "bike_id": "524e8c2577be2c27c4122093556e7caf", "lat": 38.93042666666667, "lon": -77.05535416666666, "rental_uris": {"android": "https://dc.lft.to/lastmile_qr_scan", "ios": "https://dc.lft.to/lastmile_qr_scan"}, "is_disabled": 0, "fusion_lat": 0.0, "name": "524e8c2577be2c27c4122093556e7caf", "fusion_lon": 0.0}, {"is_reserved": 0, "type": "electric_scooter", "bike_id": "5cf6d916f950ee21fdd4240d4bc6ee38", "lat": 38.9209715, "lon": -77.04704983333333, "rental_uris": {"android": "https://dc.lft.to/lastmile_qr_scan", "ios": "https://dc.lft.to/lastmile_qr_scan"}, "is_disabled": 0, "fusion_lat": 0.0, "name": "5cf6d916f950ee21fdd4240d4bc6ee38", "fusion_lon": 0.0}, {"is_reserved": 0, "type": "electric_scooter", "bike_id": "c89de40ac3035d06516e8cf8a17386c7", "lat": 38.94325583333333, "lon": -77.012579, "rental_uris": {"android": "https://dc.lft.to/lastmile_qr_scan", "ios": "https://dc.lft.to/lastmile_qr_scan"}, "is_disabled": 0, "fusion_lat": 0.0, "name": "c89de40ac3035d06516e8cf8a17386c7", "fusion_lon": 0.0}, {"is_reserved": 0, "type": "electric_scooter", "bike_id": "30cc195773a367e8ae15a9c3330889c3", "lat": 38.89532416666667, "lon": -76.9790225, "rental_uris": {"android": "https://dc.lft.to/lastmile_qr_scan", "ios": "https://dc.lft.to/lastmile_qr_scan"}, "is_disabled": 0, "fusion_lat": 0.0, "name": "30cc195773a367e8ae15a9c3330889c3", "fusion_lon": 0.0}, {"is_reserved": 0, "type": "electric_scooter", "bike_id": "34111114d3b1d9ef9d23727037284d4a", "lat": 38.9119055, "lon": -77.03753216666667, "rental_uris": {"android": "https://dc.lft.to/lastmile_qr_scan", "ios": "https://dc.lft.to/lastmile_qr_scan"}, "is_disabled": 0, "fusion_lat": 0.0, "name": "34111114d3b1d9ef9d23727037284d4a", "fusion_lon": 0.0}, {"is_reserved": 0, "type": "electric_scooter", "bike_id": "a18d19bb887d4bda1c71023e20e05194", "lat": 38.924272333333334, "lon": -77.03419766666667, "rental_uris": {"android": "https://dc.lft.to/lastmile_qr_scan", "ios": "https://dc.lft.to/lastmile_qr_scan"}, "is_disabled": 0, "fusion_lat": 0.0, "name": "a18d19bb887d4bda1c71023e20e05194", "fusion_lon": 0.0}, {"is_reserved": 0, "type": "electric_scooter", "bike_id": "d2d0e37240497afa14655bfa775983df", "lat": 38.883872333333336, "lon": -77.01931733333333, "rental_uris": {"android": "https://dc.lft.to/lastmile_qr_scan", "ios": "https://dc.lft.to/lastmile_qr_scan"}, "is_disabled": 0, "fusion_lat": 0.0, "name": "d2d0e37240497afa14655bfa775983df", "fusion_lon": 0.0}, {"is_reserved": 0, "type": "electric_bike", "bike_id": "c6c415f3076fd23a8fc41b6d3fb98c25", "lat": 38.870007333333334, "lon": -77.22993816666667, "rental_uris": {"android": "https://dc.lft.to/lastmile_qr_scan", "ios": "https://dc.lft.to/lastmile_qr_scan"}, "is_disabled": 0, "fusion_lat": 0.0, "name": "c6c415f3076fd23a8fc41b6d3fb98c25", "fusion_lon": 0.0}, {"is_reserved": 0, "type": "electric_scooter", "bike_id": "2389e2faaf6a8b907dda39fa4052d50f", "lat": 38.91831083333334, "lon": -77.03213416666667, "rental_uris": {"android": "https://dc.lft.to/lastmile_qr_scan", "ios": "https://dc.lft.to/lastmile_qr_scan"}, "is_disabled": 0, "fusion_lat": 0.0, "name": "2389e2faaf6a8b907dda39fa4052d50f", "fusion_lon": 0.0}, {"is_reserved": 0, "type": "electric_bike", "bike_id": "1a32a7c371941b77ebc176ccca5ab1a2", "lat": 38.854182, "lon": -77.08367233333334, "rental_uris": {"android": "https://dc.lft.to/lastmile_qr_scan", "ios": "https://dc.lft.to/lastmile_qr_scan"}, "is_disabled": 0, "fusion_lat": 0.0, "name": "1a32a7c371941b77ebc176ccca5ab1a2", "fusion_lon": 0.0}, {"is_reserved": 0, "type": "electric_scooter", "bike_id": "35d58fc62759f7e530ca5ea2fa9b6b92", "lat": 38.90194066666667, "lon": -77.02158216666666, "rental_uris": {"android": "https://dc.lft.to/lastmile_qr_scan", "ios": "https://dc.lft.to/lastmile_qr_scan"}, "is_disabled": 0, "fusion_lat": 0.0, "name": "35d58fc62759f7e530ca5ea2fa9b6b92", "fusion_lon": 0.0}, {"is_reserved": 0, "type": "electric_scooter", "bike_id": "ce82884d54477a38dba781e240567018", "lat": 38.925247666666664, "lon": -77.05057066666667, "rental_uris": {"android": "https://dc.lft.to/lastmile_qr_scan", "ios": "https://dc.lft.to/lastmile_qr_scan"}, "is_disabled": 0, "fusion_lat": 0.0, "name": "ce82884d54477a38dba781e240567018", "fusion_lon": 0.0}, {"is_reserved": 0, "type": "electric_bike", "bike_id": "8ce01cbab547a176e8ebed45c07531d9", "lat": 38.863362, "lon": -76.98724683333333, "rental_uris": {"android": "https://dc.lft.to/lastmile_qr_scan", "ios": "https://dc.lft.to/lastmile_qr_scan"}, "is_disabled": 0, "fusion_lat": 0.0, "name": "8ce01cbab547a176e8ebed45c07531d9", "fusion_lon": 0.0}, {"is_reserved": 0, "type": "electric_scooter", "bike_id": "983701c2c4d5379f89bd7dbf50fe9542", "lat": 38.9084705, "lon": -77.04465733333333, "rental_uris": {"android": "https://dc.lft.to/lastmile_qr_scan", "ios": "https://dc.lft.to/lastmile_qr_scan"}, "is_disabled": 0, "fusion_lat": 0.0, "name": "983701c2c4d5379f89bd7dbf50fe9542", "fusion_lon": 0.0}, {"is_reserved": 0, "type": "electric_scooter", "bike_id": "4acf36231454df291446f03aa93e84b7", "lat": 38.92419566666667, "lon": -77.0200775, "rental_uris": {"android": "https://dc.lft.to/lastmile_qr_scan", "ios": "https://dc.lft.to/lastmile_qr_scan"}, "is_disabled": 0, "fusion_lat": 0.0, "name": "4acf36231454df291446f03aa93e84b7", "fusion_lon": 0.0}, {"is_reserved": 0, "type": "electric_scooter", "bike_id": "31654359053ed307096793e8a8e8022b", "lat": 38.922492166666665, "lon": -77.03083583333333, "rental_uris": {"android": "https://dc.lft.to/lastmile_qr_scan", "ios": "https://dc.lft.to/lastmile_qr_scan"}, "is_disabled": 0, "fusion_lat": 0.0, "name": "31654359053ed307096793e8a8e8022b", "fusion_lon": 0.0}, {"is_reserved": 0, "type": "electric_scooter", "bike_id": "7b8eda8db8c54c016a5b7f963112a411", "lat": 38.9181385, "lon": -77.04170516666667, "rental_uris": {"android": "https://dc.lft.to/lastmile_qr_scan", "ios": "https://dc.lft.to/lastmile_qr_scan"}, "is_disabled": 0, "fusion_lat": 0.0, "name": "7b8eda8db8c54c016a5b7f963112a411", "fusion_lon": 0.0}, {"is_reserved": 0, "type": "electric_scooter", "bike_id": "b46f5b47bc0fa1b6ac4f16fa449b04ca", "lat": 38.902651, "lon": -77.0278085, "rental_uris": {"android": "https://dc.lft.to/lastmile_qr_scan", "ios": "https://dc.lft.to/lastmile_qr_scan"}, "is_disabled": 0, "fusion_lat": 0.0, "name": "b46f5b47bc0fa1b6ac4f16fa449b04ca", "fusion_lon": 0.0}, {"is_reserved": 0, "type": "electric_scooter", "bike_id": "22c9328cc7f76fdca47feea7304f604c", "lat": 38.9055145, "lon": -77.00599666666666, "rental_uris": {"android": "https://dc.lft.to/lastmile_qr_scan", "ios": "https://dc.lft.to/lastmile_qr_scan"}, "is_disabled": 0, "fusion_lat": 0.0, "name": "22c9328cc7f76fdca47feea7304f604c", "fusion_lon": 0.0}, {"is_reserved": 0, "type": "electric_scooter", "bike_id": "d63039e2d83479ae822a95bed2034b55", "lat": 38.8755885, "lon": -77.00598683333334, "rental_uris": {"android": "https://dc.lft.to/lastmile_qr_scan", "ios": "https://dc.lft.to/lastmile_qr_scan"}, "is_disabled": 0, "fusion_lat": 0.0, "name": "d63039e2d83479ae822a95bed2034b55", "fusion_lon": 0.0}, {"is_reserved": 0, "type": "electric_scooter", "bike_id": "d72d97628a52d445461abb1835adfab6", "lat": 38.9101235, "lon": -77.02208133333333, "rental_uris": {"android": "https://dc.lft.to/lastmile_qr_scan", "ios": "https://dc.lft.to/lastmile_qr_scan"}, "is_disabled": 0, "fusion_lat": 0.0, "name": "d72d97628a52d445461abb1835adfab6", "fusion_lon": 0.0}, {"is_reserved": 0, "type": "electric_scooter", "bike_id": "8ab0eb54eb84e7adde63eacefd87b20d", "lat": 38.91763816666667, "lon": -77.0044595, "rental_uris": {"android": "https://dc.lft.to/lastmile_qr_scan", "ios": "https://dc.lft.to/lastmile_qr_scan"}, "is_disabled": 0, "fusion_lat": 0.0, "name": "8ab0eb54eb84e7adde63eacefd87b20d", "fusion_lon": 0.0}, {"is_reserved": 0, "type": "electric_scooter", "bike_id": "77b483ceb750ee772b46f159ee3349f9", "lat": 38.933264666666666, "lon": -77.02909233333334, "rental_uris": {"android": "https://dc.lft.to/lastmile_qr_scan", "ios": "https://dc.lft.to/lastmile_qr_scan"}, "is_disabled": 0, "fusion_lat": 0.0, "name": "77b483ceb750ee772b46f159ee3349f9", "fusion_lon": 0.0}, {"is_reserved": 0, "type": "electric_scooter", "bike_id": "2b094e5c1121aa6cfdbbf8c6f534d201", "lat": 38.9163725, "lon": -77.04267833333333, "rental_uris": {"android": "https://dc.lft.to/lastmile_qr_scan", "ios": "https://dc.lft.to/lastmile_qr_scan"}, "is_disabled": 0, "fusion_lat": 0.0, "name": "2b094e5c1121aa6cfdbbf8c6f534d201", "fusion_lon": 0.0}, {"is_reserved": 0, "type": "electric_scooter", "bike_id": "972d1846356cb0cbd60a7fe818d5f3ab", "lat": 38.94977033333333, "lon": -77.02447716666667, "rental_uris": {"android": "https://dc.lft.to/lastmile_qr_scan", "ios": "https://dc.lft.to/lastmile_qr_scan"}, "is_disabled": 0, "fusion_lat": 0.0, "name": "972d1846356cb0cbd60a7fe818d5f3ab", "fusion_lon": 0.0}, {"is_reserved": 0, "type": "electric_scooter", "bike_id": "d2a4134c216f89d199e91131076a7675", "lat": 38.90784716666667, "lon": -77.009619, "rental_uris": {"android": "https://dc.lft.to/lastmile_qr_scan", "ios": "https://dc.lft.to/lastmile_qr_scan"}, "is_disabled": 0, "fusion_lat": 0.0, "name": "d2a4134c216f89d199e91131076a7675", "fusion_lon": 0.0}, {"is_reserved": 0, "type": "electric_scooter", "bike_id": "8753288a0fdae3293fd301121bf922d0", "lat": 38.87984816666667, "lon": -77.00836216666667, "rental_uris": {"android": "https://dc.lft.to/lastmile_qr_scan", "ios": "https://dc.lft.to/lastmile_qr_scan"}, "is_disabled": 0, "fusion_lat": 0.0, "name": "8753288a0fdae3293fd301121bf922d0", "fusion_lon": 0.0}, {"is_reserved": 0, "type": "electric_scooter", "bike_id": "2812274953aec0cd84de04c697aea1cc", "lat": 38.90251083333333, "lon": -77.01626316666666, "rental_uris": {"android": "https://dc.lft.to/lastmile_qr_scan", "ios": "https://dc.lft.to/lastmile_qr_scan"}, "is_disabled": 0, "fusion_lat": 0.0, "name": "2812274953aec0cd84de04c697aea1cc", "fusion_lon": 0.0}, {"is_reserved": 0, "type": "electric_scooter", "bike_id": "54c4554eaf77c3d3934a476ac6811f8d", "lat": 38.90805816666666, "lon": -77.048846, "rental_uris": {"android": "https://dc.lft.to/lastmile_qr_scan", "ios": "https://dc.lft.to/lastmile_qr_scan"}, "is_disabled": 0, "fusion_lat": 0.0, "name": "54c4554eaf77c3d3934a476ac6811f8d", "fusion_lon": 0.0}, {"is_reserved": 0, "type": "electric_scooter", "bike_id": "ce606140ab88740f3c66ab0b682fdbbd", "lat": 38.902663833333335, "lon": -77.02779766666667, "rental_uris": {"android": "https://dc.lft.to/lastmile_qr_scan", "ios": "https://dc.lft.to/lastmile_qr_scan"}, "is_disabled": 0, "fusion_lat": 0.0, "name": "ce606140ab88740f3c66ab0b682fdbbd", "fusion_lon": 0.0}, {"is_reserved": 0, "type": "electric_bike", "bike_id": "bf5b0b472dcb1fc6d9ce1ceb621446c1", "lat": 38.92439516666666, "lon": -77.05741616666667, "rental_uris": {"android": "https://dc.lft.to/lastmile_qr_scan", "ios": "https://dc.lft.to/lastmile_qr_scan"}, "is_disabled": 0, "fusion_lat": 0.0, "name": "bf5b0b472dcb1fc6d9ce1ceb621446c1", "fusion_lon": 0.0}, {"is_reserved": 0, "type": "electric_scooter", "bike_id": "fe179c641e1938fb6bf3862597fb9cad", "lat": 38.91263816666667, "lon": -77.01558416666667, "rental_uris": {"android": "https://dc.lft.to/lastmile_qr_scan", "ios": "https://dc.lft.to/lastmile_qr_scan"}, "is_disabled": 0, "fusion_lat": 0.0, "name": "fe179c641e1938fb6bf3862597fb9cad", "fusion_lon": 0.0}, {"is_reserved": 0, "type": "electric_scooter", "bike_id": "79370d3123a1334ea50232ece112a984", "lat": 38.914850666666666, "lon": -77.045461, "rental_uris": {"android": "https://dc.lft.to/lastmile_qr_scan", "ios": "https://dc.lft.to/lastmile_qr_scan"}, "is_disabled": 0, "fusion_lat": 0.0, "name": "79370d3123a1334ea50232ece112a984", "fusion_lon": 0.0}, {"is_reserved": 0, "type": "electric_bike", "bike_id": "d9b55804d7097997e0687161a31e0cee", "lat": 38.94262116666667, "lon": -76.99069983333334, "rental_uris": {"android": "https://dc.lft.to/lastmile_qr_scan", "ios": "https://dc.lft.to/lastmile_qr_scan"}, "is_disabled": 0, "fusion_lat": 0.0, "name": "d9b55804d7097997e0687161a31e0cee", "fusion_lon": 0.0}, {"is_reserved": 0, "type": "electric_scooter", "bike_id": "e562e1894f500ed946750ad925dfa916", "lat": 38.92748816666667, "lon": -77.02535066666667, "rental_uris": {"android": "https://dc.lft.to/lastmile_qr_scan", "ios": "https://dc.lft.to/lastmile_qr_scan"}, "is_disabled": 0, "fusion_lat": 0.0, "name": "e562e1894f500ed946750ad925dfa916", "fusion_lon": 0.0}, {"is_reserved": 0, "type": "electric_scooter", "bike_id": "d0ace0765717d90b379e5454c367e1da", "lat": 38.920807, "lon": -77.022944, "rental_uris": {"android": "https://dc.lft.to/lastmile_qr_scan", "ios": "https://dc.lft.to/lastmile_qr_scan"}, "is_disabled": 0, "fusion_lat": 0.0, "name": "d0ace0765717d90b379e5454c367e1da", "fusion_lon": 0.0}, {"is_reserved": 0, "type": "electric_scooter", "bike_id": "8d9ada1d61be8cf4e8a3154874ec46b1", "lat": 38.90730833333333, "lon": -77.01091583333333, "rental_uris": {"android": "https://dc.lft.to/lastmile_qr_scan", "ios": "https://dc.lft.to/lastmile_qr_scan"}, "is_disabled": 0, "fusion_lat": 0.0, "name": "8d9ada1d61be8cf4e8a3154874ec46b1", "fusion_lon": 0.0}, {"is_reserved": 0, "type": "electric_scooter", "bike_id": "2390732126f34911087ad248cab4775d", "lat": 38.8963525, "lon": -76.9280165, "rental_uris": {"android": "https://dc.lft.to/lastmile_qr_scan", "ios": "https://dc.lft.to/lastmile_qr_scan"}, "is_disabled": 0, "fusion_lat": 0.0, "name": "2390732126f34911087ad248cab4775d", "fusion_lon": 0.0}, {"is_reserved": 0, "type": "electric_scooter", "bike_id": "7a23311f800f2696af84b01c25c7a34d", "lat": 38.92440766666667, "lon": -77.04027933333333, "rental_uris": {"android": "https://dc.lft.to/lastmile_qr_scan", "ios": "https://dc.lft.to/lastmile_qr_scan"}, "is_disabled": 0, "fusion_lat": 0.0, "name": "7a23311f800f2696af84b01c25c7a34d", "fusion_lon": 0.0}, {"is_reserved": 0, "type": "electric_scooter", "bike_id": "8defc839a77d3f68e587470db5b88947", "lat": 38.8921945, "lon": -77.02219616666666, "rental_uris": {"android": "https://dc.lft.to/lastmile_qr_scan", "ios": "https://dc.lft.to/lastmile_qr_scan"}, "is_disabled": 0, "fusion_lat": 0.0, "name": "8defc839a77d3f68e587470db5b88947", "fusion_lon": 0.0}, {"is_reserved": 0, "type": "electric_scooter", "bike_id": "be74ee60d70afa65fe39c81e62bc0211", "lat": 38.911074, "lon": -77.04495516666667, "rental_uris": {"android": "https://dc.lft.to/lastmile_qr_scan", "ios": "https://dc.lft.to/lastmile_qr_scan"}, "is_disabled": 0, "fusion_lat": 0.0, "name": "be74ee60d70afa65fe39c81e62bc0211", "fusion_lon": 0.0}, {"is_reserved": 0, "type": "electric_scooter", "bike_id": "80bd259549d9e88016f4cec34a4d99de", "lat": 38.89609866666667, "lon": -77.04680283333333, "rental_uris": {"android": "https://dc.lft.to/lastmile_qr_scan", "ios": "https://dc.lft.to/lastmile_qr_scan"}, "is_disabled": 0, "fusion_lat": 0.0, "name": "80bd259549d9e88016f4cec34a4d99de", "fusion_lon": 0.0}, {"is_reserved": 0, "type": "electric_scooter", "bike_id": "63c1ef09cada599eefe52894f4af3830", "lat": 38.92577816666667, "lon": -76.99493416666667, "rental_uris": {"android": "https://dc.lft.to/lastmile_qr_scan", "ios": "https://dc.lft.to/lastmile_qr_scan"}, "is_disabled": 0, "fusion_lat": 0.0, "name": "63c1ef09cada599eefe52894f4af3830", "fusion_lon": 0.0}, {"is_reserved": 0, "type": "electric_scooter", "bike_id": "c6966786c8b77ad4b973caea7ec5cc3e", "lat": 38.897505, "lon": -77.002041, "rental_uris": {"android": "https://dc.lft.to/lastmile_qr_scan", "ios": "https://dc.lft.to/lastmile_qr_scan"}, "is_disabled": 0, "fusion_lat": 0.0, "name": "c6966786c8b77ad4b973caea7ec5cc3e", "fusion_lon": 0.0}, {"is_reserved": 0, "type": "electric_scooter", "bike_id": "4e3e2c22f5f0cedb4a00054c0a0c5322", "lat": 38.89929083333333, "lon": -76.97833066666666, "rental_uris": {"android": "https://dc.lft.to/lastmile_qr_scan", "ios": "https://dc.lft.to/lastmile_qr_scan"}, "is_disabled": 0, "fusion_lat": 0.0, "name": "4e3e2c22f5f0cedb4a00054c0a0c5322", "fusion_lon": 0.0}, {"is_reserved": 0, "type": "electric_scooter", "bike_id": "b43cbe41c1a1cdfced6a22b7564fd175", "lat": 38.93096, "lon": -77.02482, "rental_uris": {"android": "https://dc.lft.to/lastmile_qr_scan", "ios": "https://dc.lft.to/lastmile_qr_scan"}, "is_disabled": 0, "fusion_lat": 0.0, "name": "b43cbe41c1a1cdfced6a22b7564fd175", "fusion_lon": 0.0}, {"is_reserved": 0, "type": "electric_scooter", "bike_id": "61db944057c994e1804a8bbfd512234f", "lat": 38.915747333333336, "lon": -77.01999933333333, "rental_uris": {"android": "https://dc.lft.to/lastmile_qr_scan", "ios": "https://dc.lft.to/lastmile_qr_scan"}, "is_disabled": 0, "fusion_lat": 0.0, "name": "61db944057c994e1804a8bbfd512234f", "fusion_lon": 0.0}, {"is_reserved": 0, "type": "electric_scooter", "bike_id": "676f57f3df57da8476b1359020b8e2de", "lat": 38.92603233333333, "lon": -77.05179216666667, "rental_uris": {"android": "https://dc.lft.to/lastmile_qr_scan", "ios": "https://dc.lft.to/lastmile_qr_scan"}, "is_disabled": 0, "fusion_lat": 0.0, "name": "676f57f3df57da8476b1359020b8e2de", "fusion_lon": 0.0}, {"is_reserved": 0, "type": "electric_scooter", "bike_id": "2283b9815eba077d6f4894fa1c733a45", "lat": 38.91823683333333, "lon": -77.03166683333333, "rental_uris": {"android": "https://dc.lft.to/lastmile_qr_scan", "ios": "https://dc.lft.to/lastmile_qr_scan"}, "is_disabled": 0, "fusion_lat": 0.0, "name": "2283b9815eba077d6f4894fa1c733a45", "fusion_lon": 0.0}, {"is_reserved": 0, "type": "electric_scooter", "bike_id": "ce67b6cb14bfaa5a9a54af9927b11055", "lat": 38.908305666666664, "lon": -76.9871705, "rental_uris": {"android": "https://dc.lft.to/lastmile_qr_scan", "ios": "https://dc.lft.to/lastmile_qr_scan"}, "is_disabled": 0, "fusion_lat": 0.0, "name": "ce67b6cb14bfaa5a9a54af9927b11055", "fusion_lon": 0.0}, {"is_reserved": 0, "type": "electric_scooter", "bike_id": "14afb29ec68b191242500f1bc63dd4e6", "lat": 38.88627283333334, "lon": -77.01532766666666, "rental_uris": {"android": "https://dc.lft.to/lastmile_qr_scan", "ios": "https://dc.lft.to/lastmile_qr_scan"}, "is_disabled": 0, "fusion_lat": 0.0, "name": "14afb29ec68b191242500f1bc63dd4e6", "fusion_lon": 0.0}, {"is_reserved": 0, "type": "electric_scooter", "bike_id": "3b24e1c1b6c0052a5c44d59808774111", "lat": 38.88507833333333, "lon": -77.011125, "rental_uris": {"android": "https://dc.lft.to/lastmile_qr_scan", "ios": "https://dc.lft.to/lastmile_qr_scan"}, "is_disabled": 0, "fusion_lat": 0.0, "name": "3b24e1c1b6c0052a5c44d59808774111", "fusion_lon": 0.0}, {"is_reserved": 0, "type": "electric_scooter", "bike_id": "f9d941da98d2e6c4337e2789eeed3f13", "lat": 38.90579266666667, "lon": -77.00610483333334, "rental_uris": {"android": "https://dc.lft.to/lastmile_qr_scan", "ios": "https://dc.lft.to/lastmile_qr_scan"}, "is_disabled": 0, "fusion_lat": 0.0, "name": "f9d941da98d2e6c4337e2789eeed3f13", "fusion_lon": 0.0}, {"is_reserved": 0, "type": "electric_scooter", "bike_id": "2b8303f9cbeb849aecc269d6128c4b43", "lat": 38.886108, "lon": -77.004011, "rental_uris": {"android": "https://dc.lft.to/lastmile_qr_scan", "ios": "https://dc.lft.to/lastmile_qr_scan"}, "is_disabled": 0, "fusion_lat": 0.0, "name": "2b8303f9cbeb849aecc269d6128c4b43", "fusion_lon": 0.0}, {"is_reserved": 0, "type": "electric_bike", "bike_id": "8f65aa4708656e3ab49c6679ff7c300b", "lat": 38.991021, "lon": -76.881528, "rental_uris": {"android": "https://dc.lft.to/lastmile_qr_scan", "ios": "https://dc.lft.to/lastmile_qr_scan"}, "is_disabled": 0, "fusion_lat": 0.0, "name": "8f65aa4708656e3ab49c6679ff7c300b", "fusion_lon": 0.0}, {"is_reserved": 0, "type": "electric_bike", "bike_id": "9433eec5d9f8a3a02586b4558dd8566b", "lat": 38.843247833333336, "lon": -76.99737633333334, "rental_uris": {"android": "https://dc.lft.to/lastmile_qr_scan", "ios": "https://dc.lft.to/lastmile_qr_scan"}, "is_disabled": 0, "fusion_lat": 0.0, "name": "9433eec5d9f8a3a02586b4558dd8566b", "fusion_lon": 0.0}, {"is_reserved": 0, "type": "electric_scooter", "bike_id": "a0e3a6a780b9e3c95370c02a6a48131f", "lat": 38.9241075, "lon": -77.03558416666667, "rental_uris": {"android": "https://dc.lft.to/lastmile_qr_scan", "ios": "https://dc.lft.to/lastmile_qr_scan"}, "is_disabled": 0, "fusion_lat": 0.0, "name": "a0e3a6a780b9e3c95370c02a6a48131f", "fusion_lon": 0.0}, {"is_reserved": 0, "type": "electric_scooter", "bike_id": "ca14ce911cf3781aa94aa153a7395a5a", "lat": 38.941982833333334, "lon": -77.0251515, "rental_uris": {"android": "https://dc.lft.to/lastmile_qr_scan", "ios": "https://dc.lft.to/lastmile_qr_scan"}, "is_disabled": 0, "fusion_lat": 0.0, "name": "ca14ce911cf3781aa94aa153a7395a5a", "fusion_lon": 0.0}, {"is_reserved": 0, "type": "electric_scooter", "bike_id": "628d536a9ef40ad779b6503292bdbc0b", "lat": 38.919998666666665, "lon": -76.98506566666667, "rental_uris": {"android": "https://dc.lft.to/lastmile_qr_scan", "ios": "https://dc.lft.to/lastmile_qr_scan"}, "is_disabled": 0, "fusion_lat": 0.0, "name": "628d536a9ef40ad779b6503292bdbc0b", "fusion_lon": 0.0}, {"is_reserved": 0, "type": "electric_scooter", "bike_id": "07cbc20f5abfb5929d20fa5ebef2bfa0", "lat": 38.91828183333333, "lon": -77.0322025, "rental_uris": {"android": "https://dc.lft.to/lastmile_qr_scan", "ios": "https://dc.lft.to/lastmile_qr_scan"}, "is_disabled": 0, "fusion_lat": 0.0, "name": "07cbc20f5abfb5929d20fa5ebef2bfa0", "fusion_lon": 0.0}, {"is_reserved": 0, "type": "electric_scooter", "bike_id": "a712455ccc00e0072fb6f20ea746e3e3", "lat": 38.92980216666667, "lon": -77.03790233333334, "rental_uris": {"android": "https://dc.lft.to/lastmile_qr_scan", "ios": "https://dc.lft.to/lastmile_qr_scan"}, "is_disabled": 0, "fusion_lat": 0.0, "name": "a712455ccc00e0072fb6f20ea746e3e3", "fusion_lon": 0.0}, {"is_reserved": 0, "type": "electric_bike", "bike_id": "12f061d0c1cb2deedfa943d3bdf0a41f", "lat": 38.863311333333336, "lon": -76.98723233333334, "rental_uris": {"android": "https://dc.lft.to/lastmile_qr_scan", "ios": "https://dc.lft.to/lastmile_qr_scan"}, "is_disabled": 0, "fusion_lat": 0.0, "name": "12f061d0c1cb2deedfa943d3bdf0a41f", "fusion_lon": 0.0}, {"is_reserved": 0, "type": "electric_scooter", "bike_id": "8c25c36d4f184c6456369406fe026f9c", "lat": 38.9111665, "lon": -77.03151033333333, "rental_uris": {"android": "https://dc.lft.to/lastmile_qr_scan", "ios": "https://dc.lft.to/lastmile_qr_scan"}, "is_disabled": 0, "fusion_lat": 0.0, "name": "8c25c36d4f184c6456369406fe026f9c", "fusion_lon": 0.0}, {"is_reserved": 0, "type": "electric_bike", "bike_id": "272a9c83500af6dea61297dbbe1cac31", "lat": 39.00000983333333, "lon": -76.91804466666666, "rental_uris": {"android": "https://dc.lft.to/lastmile_qr_scan", "ios": "https://dc.lft.to/lastmile_qr_scan"}, "is_disabled": 0, "fusion_lat": 0.0, "name": "272a9c83500af6dea61297dbbe1cac31", "fusion_lon": 0.0}, {"is_reserved": 0, "type": "electric_scooter", "bike_id": "323548d0b50ef36e188bbcc2e5b5179b", "lat": 38.90966383333333, "lon": -77.0324905, "rental_uris": {"android": "https://dc.lft.to/lastmile_qr_scan", "ios": "https://dc.lft.to/lastmile_qr_scan"}, "is_disabled": 0, "fusion_lat": 0.0, "name": "323548d0b50ef36e188bbcc2e5b5179b", "fusion_lon": 0.0}, {"is_reserved": 0, "type": "electric_bike", "bike_id": "8e3611890418c0cfb35bfb425396b2c7", "lat": 39.010974833333336, "lon": -77.04958566666667, "rental_uris": {"android": "https://dc.lft.to/lastmile_qr_scan", "ios": "https://dc.lft.to/lastmile_qr_scan"}, "is_disabled": 0, "fusion_lat": 0.0, "name": "8e3611890418c0cfb35bfb425396b2c7", "fusion_lon": 0.0}, {"is_reserved": 0, "type": "electric_scooter", "bike_id": "7be2e1928068a4ec36f9ffd06eba5e2f", "lat": 38.90368483333334, "lon": -77.0303215, "rental_uris": {"android": "https://dc.lft.to/lastmile_qr_scan", "ios": "https://dc.lft.to/lastmile_qr_scan"}, "is_disabled": 0, "fusion_lat": 0.0, "name": "7be2e1928068a4ec36f9ffd06eba5e2f", "fusion_lon": 0.0}, {"is_reserved": 0, "type": "electric_bike", "bike_id": "7fe53e2ae985ac53a171ed9bc6dd2606", "lat": 38.874245333333334, "lon": -77.08568416666667, "rental_uris": {"android": "https://dc.lft.to/lastmile_qr_scan", "ios": "https://dc.lft.to/lastmile_qr_scan"}, "is_disabled": 0, "fusion_lat": 0.0, "name": "7fe53e2ae985ac53a171ed9bc6dd2606", "fusion_lon": 0.0}, {"is_reserved": 0, "type": "electric_bike", "bike_id": "acd67b792154fba6ac1d0176b7385841", "lat": 38.92737666666667, "lon": -76.9936115, "rental_uris": {"android": "https://dc.lft.to/lastmile_qr_scan", "ios": "https://dc.lft.to/lastmile_qr_scan"}, "is_disabled": 0, "fusion_lat": 0.0, "name": "acd67b792154fba6ac1d0176b7385841", "fusion_lon": 0.0}, {"is_reserved": 0, "type": "electric_scooter", "bike_id": "11ae8dc9ee16a7b070436e9a6b2f062e", "lat": 38.92241, "lon": -77.040144, "rental_uris": {"android": "https://dc.lft.to/lastmile_qr_scan", "ios": "https://dc.lft.to/lastmile_qr_scan"}, "is_disabled": 0, "fusion_lat": 0.0, "name": "11ae8dc9ee16a7b070436e9a6b2f062e", "fusion_lon": 0.0}, {"is_reserved": 0, "type": "electric_scooter", "bike_id": "c6205f575970fd76659371a1a8cd30e3", "lat": 38.90029533333333, "lon": -76.99631133333334, "rental_uris": {"android": "https://dc.lft.to/lastmile_qr_scan", "ios": "https://dc.lft.to/lastmile_qr_scan"}, "is_disabled": 0, "fusion_lat": 0.0, "name": "c6205f575970fd76659371a1a8cd30e3", "fusion_lon": 0.0}, {"is_reserved": 0, "type": "electric_scooter", "bike_id": "04e257f1c1ad40b285a3ed8cb1ed9244", "lat": 38.932816333333335, "lon": -77.039396, "rental_uris": {"android": "https://dc.lft.to/lastmile_qr_scan", "ios": "https://dc.lft.to/lastmile_qr_scan"}, "is_disabled": 0, "fusion_lat": 0.0, "name": "04e257f1c1ad40b285a3ed8cb1ed9244", "fusion_lon": 0.0}, {"is_reserved": 0, "type": "electric_scooter", "bike_id": "a6c9eb81c06d0683b9ef039c8ebbbf74", "lat": 38.895149, "lon": -77.02201616666666, "rental_uris": {"android": "https://dc.lft.to/lastmile_qr_scan", "ios": "https://dc.lft.to/lastmile_qr_scan"}, "is_disabled": 0, "fusion_lat": 0.0, "name": "a6c9eb81c06d0683b9ef039c8ebbbf74", "fusion_lon": 0.0}, {"is_reserved": 0, "type": "electric_scooter", "bike_id": "32e91299dfb7b73974a1915fb769268f", "lat": 38.9309135, "lon": -77.02553733333333, "rental_uris": {"android": "https://dc.lft.to/lastmile_qr_scan", "ios": "https://dc.lft.to/lastmile_qr_scan"}, "is_disabled": 0, "fusion_lat": 0.0, "name": "32e91299dfb7b73974a1915fb769268f", "fusion_lon": 0.0}, {"is_reserved": 0, "type": "electric_bike", "bike_id": "31f2580fd4a2631d66de78ab2dad5a2f", "lat": 38.96252166666667, "lon": -76.99671, "rental_uris": {"android": "https://dc.lft.to/lastmile_qr_scan", "ios": "https://dc.lft.to/lastmile_qr_scan"}, "is_disabled": 0, "fusion_lat": 0.0, "name": "31f2580fd4a2631d66de78ab2dad5a2f", "fusion_lon": 0.0}, {"is_reserved": 0, "type": "electric_scooter", "bike_id": "95648bb54445ee2ace8a9a428f3af736", "lat": 38.879449666666666, "lon": -77.003837, "rental_uris": {"android": "https://dc.lft.to/lastmile_qr_scan", "ios": "https://dc.lft.to/lastmile_qr_scan"}, "is_disabled": 0, "fusion_lat": 0.0, "name": "95648bb54445ee2ace8a9a428f3af736", "fusion_lon": 0.0}, {"is_reserved": 0, "type": "electric_bike", "bike_id": "72a2bdb7a3e42278482a1f5c872a55ab", "lat": 38.949161833333335, "lon": -77.00796383333333, "rental_uris": {"android": "https://dc.lft.to/lastmile_qr_scan", "ios": "https://dc.lft.to/lastmile_qr_scan"}, "is_disabled": 0, "fusion_lat": 0.0, "name": "72a2bdb7a3e42278482a1f5c872a55ab", "fusion_lon": 0.0}, {"is_reserved": 0, "type": "electric_scooter", "bike_id": "9b53feafb7600bd25c1622738c6acd31", "lat": 38.90784516666667, "lon": -77.0107775, "rental_uris": {"android": "https://dc.lft.to/lastmile_qr_scan", "ios": "https://dc.lft.to/lastmile_qr_scan"}, "is_disabled": 0, "fusion_lat": 0.0, "name": "9b53feafb7600bd25c1622738c6acd31", "fusion_lon": 0.0}, {"is_reserved": 0, "type": "electric_scooter", "bike_id": "a06038813f66f5ef011081da7b775fa3", "lat": 38.94318066666666, "lon": -77.0617665, "rental_uris": {"android": "https://dc.lft.to/lastmile_qr_scan", "ios": "https://dc.lft.to/lastmile_qr_scan"}, "is_disabled": 0, "fusion_lat": 0.0, "name": "a06038813f66f5ef011081da7b775fa3", "fusion_lon": 0.0}, {"is_reserved": 0, "type": "electric_scooter", "bike_id": "0d8e17845fa114f2ad38d775064a039f", "lat": 38.93407166666667, "lon": -77.0453995, "rental_uris": {"android": "https://dc.lft.to/lastmile_qr_scan", "ios": "https://dc.lft.to/lastmile_qr_scan"}, "is_disabled": 0, "fusion_lat": 0.0, "name": "0d8e17845fa114f2ad38d775064a039f", "fusion_lon": 0.0}, {"is_reserved": 0, "type": "electric_scooter", "bike_id": "333b8678efbe45e8ddca3fbf9b3dcd64", "lat": 38.92058633333333, "lon": -77.0294565, "rental_uris": {"android": "https://dc.lft.to/lastmile_qr_scan", "ios": "https://dc.lft.to/lastmile_qr_scan"}, "is_disabled": 0, "fusion_lat": 0.0, "name": "333b8678efbe45e8ddca3fbf9b3dcd64", "fusion_lon": 0.0}, {"is_reserved": 0, "type": "electric_scooter", "bike_id": "514f4555f2007d460c81829e88fda314", "lat": 38.89889733333333, "lon": -77.0395665, "rental_uris": {"android": "https://dc.lft.to/lastmile_qr_scan", "ios": "https://dc.lft.to/lastmile_qr_scan"}, "is_disabled": 0, "fusion_lat": 0.0, "name": "514f4555f2007d460c81829e88fda314", "fusion_lon": 0.0}, {"is_reserved": 0, "type": "electric_scooter", "bike_id": "af4adf8a0cbc358e5a4702fcdea332e3", "lat": 38.94508416666667, "lon": -77.03364133333334, "rental_uris": {"android": "https://dc.lft.to/lastmile_qr_scan", "ios": "https://dc.lft.to/lastmile_qr_scan"}, "is_disabled": 0, "fusion_lat": 0.0, "name": "af4adf8a0cbc358e5a4702fcdea332e3", "fusion_lon": 0.0}, {"is_reserved": 0, "type": "electric_scooter", "bike_id": "4d23578caea81b9dfd09171596234051", "lat": 38.8953585, "lon": -77.01115533333333, "rental_uris": {"android": "https://dc.lft.to/lastmile_qr_scan", "ios": "https://dc.lft.to/lastmile_qr_scan"}, "is_disabled": 0, "fusion_lat": 0.0, "name": "4d23578caea81b9dfd09171596234051", "fusion_lon": 0.0}, {"is_reserved": 0, "type": "electric_scooter", "bike_id": "08d9594b5a20c266aa55410b4b96cf4d", "lat": 38.90784816666667, "lon": -77.00218633333333, "rental_uris": {"android": "https://dc.lft.to/lastmile_qr_scan", "ios": "https://dc.lft.to/lastmile_qr_scan"}, "is_disabled": 0, "fusion_lat": 0.0, "name": "08d9594b5a20c266aa55410b4b96cf4d", "fusion_lon": 0.0}, {"is_reserved": 0, "type": "electric_scooter", "bike_id": "642582faf28ec3da90c9e87f389189ed", "lat": 38.91284816666667, "lon": -77.07278066666667, "rental_uris": {"android": "https://dc.lft.to/lastmile_qr_scan", "ios": "https://dc.lft.to/lastmile_qr_scan"}, "is_disabled": 0, "fusion_lat": 0.0, "name": "642582faf28ec3da90c9e87f389189ed", "fusion_lon": 0.0}, {"is_reserved": 0, "type": "electric_scooter", "bike_id": "49abe09c184e2e5f2e314dd35f328d5c", "lat": 38.908384166666664, "lon": -77.043699, "rental_uris": {"android": "https://dc.lft.to/lastmile_qr_scan", "ios": "https://dc.lft.to/lastmile_qr_scan"}, "is_disabled": 0, "fusion_lat": 0.0, "name": "49abe09c184e2e5f2e314dd35f328d5c", "fusion_lon": 0.0}, {"is_reserved": 0, "type": "electric_scooter", "bike_id": "8be28f6a73c39471d38e44b8fdb1254c", "lat": 38.91070033333333, "lon": -77.016129, "rental_uris": {"android": "https://dc.lft.to/lastmile_qr_scan", "ios": "https://dc.lft.to/lastmile_qr_scan"}, "is_disabled": 0, "fusion_lat": 0.0, "name": "8be28f6a73c39471d38e44b8fdb1254c", "fusion_lon": 0.0}, {"is_reserved": 0, "type": "electric_scooter", "bike_id": "33cbe5442bd0bf98182ba6c500a4e95b", "lat": 38.918129, "lon": -77.0316705, "rental_uris": {"android": "https://dc.lft.to/lastmile_qr_scan", "ios": "https://dc.lft.to/lastmile_qr_scan"}, "is_disabled": 0, "fusion_lat": 0.0, "name": "33cbe5442bd0bf98182ba6c500a4e95b", "fusion_lon": 0.0}, {"is_reserved": 0, "type": "electric_scooter", "bike_id": "b0d0f58835f4cd653037dd21d128b919", "lat": 38.934993666666664, "lon": -77.0427875, "rental_uris": {"android": "https://dc.lft.to/lastmile_qr_scan", "ios": "https://dc.lft.to/lastmile_qr_scan"}, "is_disabled": 0, "fusion_lat": 0.0, "name": "b0d0f58835f4cd653037dd21d128b919", "fusion_lon": 0.0}, {"is_reserved": 0, "type": "electric_scooter", "bike_id": "77da66ba9f267b98053e9477940f8fc2", "lat": 38.90446466666667, "lon": -76.9962515, "rental_uris": {"android": "https://dc.lft.to/lastmile_qr_scan", "ios": "https://dc.lft.to/lastmile_qr_scan"}, "is_disabled": 0, "fusion_lat": 0.0, "name": "77da66ba9f267b98053e9477940f8fc2", "fusion_lon": 0.0}, {"is_reserved": 0, "type": "electric_scooter", "bike_id": "115b36e383a538ba49fc0306762d2228", "lat": 38.877011333333336, "lon": -77.0184215, "rental_uris": {"android": "https://dc.lft.to/lastmile_qr_scan", "ios": "https://dc.lft.to/lastmile_qr_scan"}, "is_disabled": 0, "fusion_lat": 0.0, "name": "115b36e383a538ba49fc0306762d2228", "fusion_lon": 0.0}, {"is_reserved": 0, "type": "electric_scooter", "bike_id": "fbf391b8955bf8a7c3ef60500dfc6d34", "lat": 38.87497166666667, "lon": -77.00022816666667, "rental_uris": {"android": "https://dc.lft.to/lastmile_qr_scan", "ios": "https://dc.lft.to/lastmile_qr_scan"}, "is_disabled": 0, "fusion_lat": 0.0, "name": "fbf391b8955bf8a7c3ef60500dfc6d34", "fusion_lon": 0.0}, {"is_reserved": 0, "type": "electric_scooter", "bike_id": "cab6c08009e8a4b7ea79adcbb3447a64", "lat": 38.856503833333335, "lon": -76.99676516666666, "rental_uris": {"android": "https://dc.lft.to/lastmile_qr_scan", "ios": "https://dc.lft.to/lastmile_qr_scan"}, "is_disabled": 0, "fusion_lat": 0.0, "name": "cab6c08009e8a4b7ea79adcbb3447a64", "fusion_lon": 0.0}, {"is_reserved": 0, "type": "electric_scooter", "bike_id": "52839a4e71e30598045c1a8aa83df9cc", "lat": 38.90031066666667, "lon": -76.9883515, "rental_uris": {"android": "https://dc.lft.to/lastmile_qr_scan", "ios": "https://dc.lft.to/lastmile_qr_scan"}, "is_disabled": 0, "fusion_lat": 0.0, "name": "52839a4e71e30598045c1a8aa83df9cc", "fusion_lon": 0.0}, {"is_reserved": 0, "type": "electric_bike", "bike_id": "5c7e669ed6b25ac10ebc1420b9f99664", "lat": 38.8946595, "lon": -77.10358, "rental_uris": {"android": "https://dc.lft.to/lastmile_qr_scan", "ios": "https://dc.lft.to/lastmile_qr_scan"}, "is_disabled": 0, "fusion_lat": 0.0, "name": "5c7e669ed6b25ac10ebc1420b9f99664", "fusion_lon": 0.0}, {"is_reserved": 0, "type": "electric_scooter", "bike_id": "e1e13e9f23a385d32082d9bda8dc1378", "lat": 38.93702583333334, "lon": -77.02403616666666, "rental_uris": {"android": "https://dc.lft.to/lastmile_qr_scan", "ios": "https://dc.lft.to/lastmile_qr_scan"}, "is_disabled": 0, "fusion_lat": 0.0, "name": "e1e13e9f23a385d32082d9bda8dc1378", "fusion_lon": 0.0}, {"is_reserved": 0, "type": "electric_scooter", "bike_id": "f5d96d1f0eafcb99167831ed96285869", "lat": 38.93251, "lon": -77.03274483333334, "rental_uris": {"android": "https://dc.lft.to/lastmile_qr_scan", "ios": "https://dc.lft.to/lastmile_qr_scan"}, "is_disabled": 0, "fusion_lat": 0.0, "name": "f5d96d1f0eafcb99167831ed96285869", "fusion_lon": 0.0}, {"is_reserved": 0, "type": "electric_scooter", "bike_id": "b0827ad83dd216db54e8a7f5938f864e", "lat": 38.95151083333333, "lon": -77.018684, "rental_uris": {"android": "https://dc.lft.to/lastmile_qr_scan", "ios": "https://dc.lft.to/lastmile_qr_scan"}, "is_disabled": 0, "fusion_lat": 0.0, "name": "b0827ad83dd216db54e8a7f5938f864e", "fusion_lon": 0.0}, {"is_reserved": 0, "type": "electric_scooter", "bike_id": "3197ff3435c521b0d1b5f75fbd38ba38", "lat": 38.90396783333333, "lon": -77.0273475, "rental_uris": {"android": "https://dc.lft.to/lastmile_qr_scan", "ios": "https://dc.lft.to/lastmile_qr_scan"}, "is_disabled": 0, "fusion_lat": 0.0, "name": "3197ff3435c521b0d1b5f75fbd38ba38", "fusion_lon": 0.0}, {"is_reserved": 0, "type": "electric_scooter", "bike_id": "415334bf96c94144957c2f4a97952561", "lat": 38.94318033333333, "lon": -77.07575433333334, "rental_uris": {"android": "https://dc.lft.to/lastmile_qr_scan", "ios": "https://dc.lft.to/lastmile_qr_scan"}, "is_disabled": 0, "fusion_lat": 0.0, "name": "415334bf96c94144957c2f4a97952561", "fusion_lon": 0.0}, {"is_reserved": 0, "type": "electric_scooter", "bike_id": "e692295becc34165f87038365d1ab197", "lat": 38.9003135, "lon": -77.01762516666666, "rental_uris": {"android": "https://dc.lft.to/lastmile_qr_scan", "ios": "https://dc.lft.to/lastmile_qr_scan"}, "is_disabled": 0, "fusion_lat": 0.0, "name": "e692295becc34165f87038365d1ab197", "fusion_lon": 0.0}, {"is_reserved": 0, "type": "electric_scooter", "bike_id": "dd4357f5f40e5c29fcf8c07f218dd935", "lat": 38.92655416666667, "lon": -77.03616983333333, "rental_uris": {"android": "https://dc.lft.to/lastmile_qr_scan", "ios": "https://dc.lft.to/lastmile_qr_scan"}, "is_disabled": 0, "fusion_lat": 0.0, "name": "dd4357f5f40e5c29fcf8c07f218dd935", "fusion_lon": 0.0}, {"is_reserved": 0, "type": "electric_scooter", "bike_id": "2fe0fd55f2c2028429e641fbad9a6d6c", "lat": 38.9169355, "lon": -77.05296516666667, "rental_uris": {"android": "https://dc.lft.to/lastmile_qr_scan", "ios": "https://dc.lft.to/lastmile_qr_scan"}, "is_disabled": 0, "fusion_lat": 0.0, "name": "2fe0fd55f2c2028429e641fbad9a6d6c", "fusion_lon": 0.0}, {"is_reserved": 0, "type": "electric_scooter", "bike_id": "7ba80efa09a641e5b7ae163b059aa3b2", "lat": 38.907886166666664, "lon": -77.0095295, "rental_uris": {"android": "https://dc.lft.to/lastmile_qr_scan", "ios": "https://dc.lft.to/lastmile_qr_scan"}, "is_disabled": 0, "fusion_lat": 0.0, "name": "7ba80efa09a641e5b7ae163b059aa3b2", "fusion_lon": 0.0}, {"is_reserved": 0, "type": "electric_scooter", "bike_id": "0f1abca5eb686a3182dc7efba75d4bba", "lat": 38.89283433333333, "lon": -77.01987333333334, "rental_uris": {"android": "https://dc.lft.to/lastmile_qr_scan", "ios": "https://dc.lft.to/lastmile_qr_scan"}, "is_disabled": 0, "fusion_lat": 0.0, "name": "0f1abca5eb686a3182dc7efba75d4bba", "fusion_lon": 0.0}, {"is_reserved": 0, "type": "electric_scooter", "bike_id": "61959c450846be08cd31413e8b7924bf", "lat": 38.897380166666665, "lon": -77.00993416666667, "rental_uris": {"android": "https://dc.lft.to/lastmile_qr_scan", "ios": "https://dc.lft.to/lastmile_qr_scan"}, "is_disabled": 0, "fusion_lat": 0.0, "name": "61959c450846be08cd31413e8b7924bf", "fusion_lon": 0.0}, {"is_reserved": 0, "type": "electric_scooter", "bike_id": "f1587ad6b8dcfcc2c1d86c7729fc8d6f", "lat": 38.90863316666667, "lon": -77.04653133333333, "rental_uris": {"android": "https://dc.lft.to/lastmile_qr_scan", "ios": "https://dc.lft.to/lastmile_qr_scan"}, "is_disabled": 0, "fusion_lat": 0.0, "name": "f1587ad6b8dcfcc2c1d86c7729fc8d6f", "fusion_lon": 0.0}, {"is_reserved": 0, "type": "electric_scooter", "bike_id": "404e565bd2b1518672252aa661943e2c", "lat": 38.915668333333336, "lon": -77.03721516666667, "rental_uris": {"android": "https://dc.lft.to/lastmile_qr_scan", "ios": "https://dc.lft.to/lastmile_qr_scan"}, "is_disabled": 0, "fusion_lat": 0.0, "name": "404e565bd2b1518672252aa661943e2c", "fusion_lon": 0.0}, {"is_reserved": 0, "type": "electric_scooter", "bike_id": "c773a94b2632e32bf8f5befbdf5a4261", "lat": 38.90582366666667, "lon": -77.00689416666667, "rental_uris": {"android": "https://dc.lft.to/lastmile_qr_scan", "ios": "https://dc.lft.to/lastmile_qr_scan"}, "is_disabled": 0, "fusion_lat": 0.0, "name": "c773a94b2632e32bf8f5befbdf5a4261", "fusion_lon": 0.0}, {"is_reserved": 0, "type": "electric_scooter", "bike_id": "3ea8723a2eb9f01d7abbfd57011d52e7", "lat": 38.940073, "lon": -77.01905666666667, "rental_uris": {"android": "https://dc.lft.to/lastmile_qr_scan", "ios": "https://dc.lft.to/lastmile_qr_scan"}, "is_disabled": 0, "fusion_lat": 0.0, "name": "3ea8723a2eb9f01d7abbfd57011d52e7", "fusion_lon": 0.0}, {"is_reserved": 0, "type": "electric_scooter", "bike_id": "8eec986a3f4823a775e7260e84686464", "lat": 38.921535666666664, "lon": -77.0336025, "rental_uris": {"android": "https://dc.lft.to/lastmile_qr_scan", "ios": "https://dc.lft.to/lastmile_qr_scan"}, "is_disabled": 0, "fusion_lat": 0.0, "name": "8eec986a3f4823a775e7260e84686464", "fusion_lon": 0.0}, {"is_reserved": 0, "type": "electric_scooter", "bike_id": "b95208db5614d1a3252dab70e03705ee", "lat": 38.922399166666665, "lon": -77.0352295, "rental_uris": {"android": "https://dc.lft.to/lastmile_qr_scan", "ios": "https://dc.lft.to/lastmile_qr_scan"}, "is_disabled": 0, "fusion_lat": 0.0, "name": "b95208db5614d1a3252dab70e03705ee", "fusion_lon": 0.0}, {"is_reserved": 0, "type": "electric_scooter", "bike_id": "6ef6a6fb3c1856b160373600293224d7", "lat": 38.923301333333335, "lon": -77.0370665, "rental_uris": {"android": "https://dc.lft.to/lastmile_qr_scan", "ios": "https://dc.lft.to/lastmile_qr_scan"}, "is_disabled": 0, "fusion_lat": 0.0, "name": "6ef6a6fb3c1856b160373600293224d7", "fusion_lon": 0.0}, {"is_reserved": 0, "type": "electric_scooter", "bike_id": "6ecf50e8c276a473c110e1f093d0c490", "lat": 38.917763666666666, "lon": -77.02308566666666, "rental_uris": {"android": "https://dc.lft.to/lastmile_qr_scan", "ios": "https://dc.lft.to/lastmile_qr_scan"}, "is_disabled": 0, "fusion_lat": 0.0, "name": "6ecf50e8c276a473c110e1f093d0c490", "fusion_lon": 0.0}, {"is_reserved": 0, "type": "electric_scooter", "bike_id": "6fd4ffaa70b5a6482bc4ea4cbc18f888", "lat": 38.926752, "lon": -77.00734, "rental_uris": {"android": "https://dc.lft.to/lastmile_qr_scan", "ios": "https://dc.lft.to/lastmile_qr_scan"}, "is_disabled": 0, "fusion_lat": 0.0, "name": "6fd4ffaa70b5a6482bc4ea4cbc18f888", "fusion_lon": 0.0}, {"is_reserved": 0, "type": "electric_scooter", "bike_id": "05e88767b007eb2e7988b259492a903e", "lat": 38.89543616666667, "lon": -76.983351, "rental_uris": {"android": "https://dc.lft.to/lastmile_qr_scan", "ios": "https://dc.lft.to/lastmile_qr_scan"}, "is_disabled": 0, "fusion_lat": 0.0, "name": "05e88767b007eb2e7988b259492a903e", "fusion_lon": 0.0}, {"is_reserved": 0, "type": "electric_scooter", "bike_id": "6590e89d4566392ddd85876dedcfaba0", "lat": 38.927004, "lon": -77.0206925, "rental_uris": {"android": "https://dc.lft.to/lastmile_qr_scan", "ios": "https://dc.lft.to/lastmile_qr_scan"}, "is_disabled": 0, "fusion_lat": 0.0, "name": "6590e89d4566392ddd85876dedcfaba0", "fusion_lon": 0.0}, {"is_reserved": 0, "type": "electric_scooter", "bike_id": "1200452ebe695c37e5ea39792e276317", "lat": 38.8988255, "lon": -77.0488705, "rental_uris": {"android": "https://dc.lft.to/lastmile_qr_scan", "ios": "https://dc.lft.to/lastmile_qr_scan"}, "is_disabled": 0, "fusion_lat": 0.0, "name": "1200452ebe695c37e5ea39792e276317", "fusion_lon": 0.0}, {"is_reserved": 0, "type": "electric_scooter", "bike_id": "cd95d7a9fa834608860160d79061cf63", "lat": 38.92403733333333, "lon": -76.95151166666666, "rental_uris": {"android": "https://dc.lft.to/lastmile_qr_scan", "ios": "https://dc.lft.to/lastmile_qr_scan"}, "is_disabled": 0, "fusion_lat": 0.0, "name": "cd95d7a9fa834608860160d79061cf63", "fusion_lon": 0.0}, {"is_reserved": 0, "type": "electric_scooter", "bike_id": "71384f8d4a2a40e1f7d92a37f1ff5214", "lat": 38.9036295, "lon": -77.02853466666667, "rental_uris": {"android": "https://dc.lft.to/lastmile_qr_scan", "ios": "https://dc.lft.to/lastmile_qr_scan"}, "is_disabled": 0, "fusion_lat": 0.0, "name": "71384f8d4a2a40e1f7d92a37f1ff5214", "fusion_lon": 0.0}, {"is_reserved": 0, "type": "electric_scooter", "bike_id": "9c94b202374255c532a19b82a0a210e9", "lat": 38.893496166666665, "lon": -77.01170616666667, "rental_uris": {"android": "https://dc.lft.to/lastmile_qr_scan", "ios": "https://dc.lft.to/lastmile_qr_scan"}, "is_disabled": 0, "fusion_lat": 0.0, "name": "9c94b202374255c532a19b82a0a210e9", "fusion_lon": 0.0}, {"is_reserved": 0, "type": "electric_scooter", "bike_id": "1960df274804a74eaa6cabd28fc91836", "lat": 38.90037433333333, "lon": -76.99029833333333, "rental_uris": {"android": "https://dc.lft.to/lastmile_qr_scan", "ios": "https://dc.lft.to/lastmile_qr_scan"}, "is_disabled": 0, "fusion_lat": 0.0, "name": "1960df274804a74eaa6cabd28fc91836", "fusion_lon": 0.0}, {"is_reserved": 0, "type": "electric_scooter", "bike_id": "8815297fb356790f0d2f69ecab064a29", "lat": 38.9097175, "lon": -77.024086, "rental_uris": {"android": "https://dc.lft.to/lastmile_qr_scan", "ios": "https://dc.lft.to/lastmile_qr_scan"}, "is_disabled": 0, "fusion_lat": 0.0, "name": "8815297fb356790f0d2f69ecab064a29", "fusion_lon": 0.0}, {"is_reserved": 0, "type": "electric_bike", "bike_id": "aa4f61efca727dd052b409a7634ae897", "lat": 38.912313, "lon": -77.0477135, "rental_uris": {"android": "https://dc.lft.to/lastmile_qr_scan", "ios": "https://dc.lft.to/lastmile_qr_scan"}, "is_disabled": 0, "fusion_lat": 0.0, "name": "aa4f61efca727dd052b409a7634ae897", "fusion_lon": 0.0}, {"is_reserved": 0, "type": "electric_scooter", "bike_id": "18f3786465dc820ec9941e7d35d5dded", "lat": 38.87085183333333, "lon": -77.01375783333333, "rental_uris": {"android": "https://dc.lft.to/lastmile_qr_scan", "ios": "https://dc.lft.to/lastmile_qr_scan"}, "is_disabled": 0, "fusion_lat": 0.0, "name": "18f3786465dc820ec9941e7d35d5dded", "fusion_lon": 0.0}, {"is_reserved": 0, "type": "electric_scooter", "bike_id": "2ef4f639df159bf4c4b53eb2ec0f0d39", "lat": 38.89223833333333, "lon": -77.0160195, "rental_uris": {"android": "https://dc.lft.to/lastmile_qr_scan", "ios": "https://dc.lft.to/lastmile_qr_scan"}, "is_disabled": 0, "fusion_lat": 0.0, "name": "2ef4f639df159bf4c4b53eb2ec0f0d39", "fusion_lon": 0.0}, {"is_reserved": 0, "type": "electric_scooter", "bike_id": "3683495d9b50025bf46ff2ca1fcee6b6", "lat": 38.8991955, "lon": -77.01878333333333, "rental_uris": {"android": "https://dc.lft.to/lastmile_qr_scan", "ios": "https://dc.lft.to/lastmile_qr_scan"}, "is_disabled": 0, "fusion_lat": 0.0, "name": "3683495d9b50025bf46ff2ca1fcee6b6", "fusion_lon": 0.0}, {"is_reserved": 0, "type": "electric_scooter", "bike_id": "92f702b51649b37bca4a53c84e85a01b", "lat": 38.89729366666667, "lon": -77.02372283333334, "rental_uris": {"android": "https://dc.lft.to/lastmile_qr_scan", "ios": "https://dc.lft.to/lastmile_qr_scan"}, "is_disabled": 0, "fusion_lat": 0.0, "name": "92f702b51649b37bca4a53c84e85a01b", "fusion_lon": 0.0}, {"is_reserved": 0, "type": "electric_scooter", "bike_id": "7cbca13433fd22ae27a89c39fe12616e", "lat": 38.920798166666664, "lon": -77.07697533333334, "rental_uris": {"android": "https://dc.lft.to/lastmile_qr_scan", "ios": "https://dc.lft.to/lastmile_qr_scan"}, "is_disabled": 0, "fusion_lat": 0.0, "name": "7cbca13433fd22ae27a89c39fe12616e", "fusion_lon": 0.0}, {"is_reserved": 0, "type": "electric_scooter", "bike_id": "963f50354261ce996e438cfb42ed195c", "lat": 38.926418, "lon": -77.04052316666667, "rental_uris": {"android": "https://dc.lft.to/lastmile_qr_scan", "ios": "https://dc.lft.to/lastmile_qr_scan"}, "is_disabled": 0, "fusion_lat": 0.0, "name": "963f50354261ce996e438cfb42ed195c", "fusion_lon": 0.0}, {"is_reserved": 0, "type": "electric_scooter", "bike_id": "2334ebd414aeff653959d16d2751d5f1", "lat": 38.92150433333333, "lon": -77.03871083333334, "rental_uris": {"android": "https://dc.lft.to/lastmile_qr_scan", "ios": "https://dc.lft.to/lastmile_qr_scan"}, "is_disabled": 0, "fusion_lat": 0.0, "name": "2334ebd414aeff653959d16d2751d5f1", "fusion_lon": 0.0}, {"is_reserved": 0, "type": "electric_scooter", "bike_id": "f7948ac660d20e9a4645058edce1c7f0", "lat": 38.89378083333333, "lon": -76.97819583333333, "rental_uris": {"android": "https://dc.lft.to/lastmile_qr_scan", "ios": "https://dc.lft.to/lastmile_qr_scan"}, "is_disabled": 0, "fusion_lat": 0.0, "name": "f7948ac660d20e9a4645058edce1c7f0", "fusion_lon": 0.0}, {"is_reserved": 0, "type": "electric_scooter", "bike_id": "933e4518c816f7258a7582dc2392278c", "lat": 38.91015433333333, "lon": -76.99371616666667, "rental_uris": {"android": "https://dc.lft.to/lastmile_qr_scan", "ios": "https://dc.lft.to/lastmile_qr_scan"}, "is_disabled": 0, "fusion_lat": 0.0, "name": "933e4518c816f7258a7582dc2392278c", "fusion_lon": 0.0}, {"is_reserved": 0, "type": "electric_scooter", "bike_id": "a3a6d0493705c5ff04ea527a24f57391", "lat": 38.87472566666667, "lon": -77.00337166666667, "rental_uris": {"android": "https://dc.lft.to/lastmile_qr_scan", "ios": "https://dc.lft.to/lastmile_qr_scan"}, "is_disabled": 0, "fusion_lat": 0.0, "name": "a3a6d0493705c5ff04ea527a24f57391", "fusion_lon": 0.0}, {"is_reserved": 0, "type": "electric_scooter", "bike_id": "5782a9897a1f976ec1a8070e5022d3c6", "lat": 38.89195483333334, "lon": -77.02229616666666, "rental_uris": {"android": "https://dc.lft.to/lastmile_qr_scan", "ios": "https://dc.lft.to/lastmile_qr_scan"}, "is_disabled": 0, "fusion_lat": 0.0, "name": "5782a9897a1f976ec1a8070e5022d3c6", "fusion_lon": 0.0}, {"is_reserved": 0, "type": "electric_scooter", "bike_id": "7dec9e0e7bca17c6706d3ac96584fbe0", "lat": 38.89224466666667, "lon": -77.043634, "rental_uris": {"android": "https://dc.lft.to/lastmile_qr_scan", "ios": "https://dc.lft.to/lastmile_qr_scan"}, "is_disabled": 0, "fusion_lat": 0.0, "name": "7dec9e0e7bca17c6706d3ac96584fbe0", "fusion_lon": 0.0}, {"is_reserved": 0, "type": "electric_scooter", "bike_id": "769fb6cb039757ec26c23ed75a7ede4f", "lat": 38.918775833333335, "lon": -77.04308583333334, "rental_uris": {"android": "https://dc.lft.to/lastmile_qr_scan", "ios": "https://dc.lft.to/lastmile_qr_scan"}, "is_disabled": 0, "fusion_lat": 0.0, "name": "769fb6cb039757ec26c23ed75a7ede4f", "fusion_lon": 0.0}, {"is_reserved": 0, "type": "electric_scooter", "bike_id": "cbdff7481833104d452e8fd155d017e5", "lat": 38.92204433333333, "lon": -77.02036166666667, "rental_uris": {"android": "https://dc.lft.to/lastmile_qr_scan", "ios": "https://dc.lft.to/lastmile_qr_scan"}, "is_disabled": 0, "fusion_lat": 0.0, "name": "cbdff7481833104d452e8fd155d017e5", "fusion_lon": 0.0}, {"is_reserved": 0, "type": "electric_scooter", "bike_id": "93a34387086504c2aa9a1673730c1090", "lat": 38.897736333333334, "lon": -77.0478105, "rental_uris": {"android": "https://dc.lft.to/lastmile_qr_scan", "ios": "https://dc.lft.to/lastmile_qr_scan"}, "is_disabled": 0, "fusion_lat": 0.0, "name": "93a34387086504c2aa9a1673730c1090", "fusion_lon": 0.0}, {"is_reserved": 0, "type": "electric_scooter", "bike_id": "fc9e333b781f461ca05480b41fb34eec", "lat": 38.91181366666667, "lon": -77.0026635, "rental_uris": {"android": "https://dc.lft.to/lastmile_qr_scan", "ios": "https://dc.lft.to/lastmile_qr_scan"}, "is_disabled": 0, "fusion_lat": 0.0, "name": "fc9e333b781f461ca05480b41fb34eec", "fusion_lon": 0.0}, {"is_reserved": 0, "type": "electric_scooter", "bike_id": "8e5dea6e4bf123605b2f9becbb5b7eda", "lat": 38.91880366666667, "lon": -77.04313983333333, "rental_uris": {"android": "https://dc.lft.to/lastmile_qr_scan", "ios": "https://dc.lft.to/lastmile_qr_scan"}, "is_disabled": 0, "fusion_lat": 0.0, "name": "8e5dea6e4bf123605b2f9becbb5b7eda", "fusion_lon": 0.0}, {"is_reserved": 0, "type": "electric_scooter", "bike_id": "4958d9e1150fac16d839be7dc39fbe1c", "lat": 38.934007666666666, "lon": -77.03985666666667, "rental_uris": {"android": "https://dc.lft.to/lastmile_qr_scan", "ios": "https://dc.lft.to/lastmile_qr_scan"}, "is_disabled": 0, "fusion_lat": 0.0, "name": "4958d9e1150fac16d839be7dc39fbe1c", "fusion_lon": 0.0}, {"is_reserved": 0, "type": "electric_scooter", "bike_id": "80e833123ea441dab0e2dd01af0fd97d", "lat": 38.909698166666665, "lon": -77.00771583333334, "rental_uris": {"android": "https://dc.lft.to/lastmile_qr_scan", "ios": "https://dc.lft.to/lastmile_qr_scan"}, "is_disabled": 0, "fusion_lat": 0.0, "name": "80e833123ea441dab0e2dd01af0fd97d", "fusion_lon": 0.0}, {"is_reserved": 0, "type": "electric_scooter", "bike_id": "8409430a0a956c6a2bee21ef4ce9c3a7", "lat": 38.919403833333334, "lon": -77.047987, "rental_uris": {"android": "https://dc.lft.to/lastmile_qr_scan", "ios": "https://dc.lft.to/lastmile_qr_scan"}, "is_disabled": 0, "fusion_lat": 0.0, "name": "8409430a0a956c6a2bee21ef4ce9c3a7", "fusion_lon": 0.0}, {"is_reserved": 0, "type": "electric_scooter", "bike_id": "5deff71a48249e5f9c642d2721405345", "lat": 38.930795333333336, "lon": -77.028062, "rental_uris": {"android": "https://dc.lft.to/lastmile_qr_scan", "ios": "https://dc.lft.to/lastmile_qr_scan"}, "is_disabled": 0, "fusion_lat": 0.0, "name": "5deff71a48249e5f9c642d2721405345", "fusion_lon": 0.0}, {"is_reserved": 0, "type": "electric_scooter", "bike_id": "6d1517a460dbfbbcb2c3a1ad433e20e8", "lat": 38.92066333333333, "lon": -77.03209216666667, "rental_uris": {"android": "https://dc.lft.to/lastmile_qr_scan", "ios": "https://dc.lft.to/lastmile_qr_scan"}, "is_disabled": 0, "fusion_lat": 0.0, "name": "6d1517a460dbfbbcb2c3a1ad433e20e8", "fusion_lon": 0.0}, {"is_reserved": 0, "type": "electric_scooter", "bike_id": "4ab0b0065debe31005c159270ddd16e9", "lat": 38.89822866666667, "lon": -77.02478183333334, "rental_uris": {"android": "https://dc.lft.to/lastmile_qr_scan", "ios": "https://dc.lft.to/lastmile_qr_scan"}, "is_disabled": 0, "fusion_lat": 0.0, "name": "4ab0b0065debe31005c159270ddd16e9", "fusion_lon": 0.0}, {"is_reserved": 0, "type": "electric_scooter", "bike_id": "93a4cd8e6ce020a23bee1c12ac57e6b5", "lat": 38.887256, "lon": -76.98374683333333, "rental_uris": {"android": "https://dc.lft.to/lastmile_qr_scan", "ios": "https://dc.lft.to/lastmile_qr_scan"}, "is_disabled": 0, "fusion_lat": 0.0, "name": "93a4cd8e6ce020a23bee1c12ac57e6b5", "fusion_lon": 0.0}, {"is_reserved": 0, "type": "electric_scooter", "bike_id": "3b323d86e7ff0bf8fedfe82d3efbde7b", "lat": 38.89957783333333, "lon": -77.01452266666666, "rental_uris": {"android": "https://dc.lft.to/lastmile_qr_scan", "ios": "https://dc.lft.to/lastmile_qr_scan"}, "is_disabled": 0, "fusion_lat": 0.0, "name": "3b323d86e7ff0bf8fedfe82d3efbde7b", "fusion_lon": 0.0}, {"is_reserved": 0, "type": "electric_scooter", "bike_id": "b83f34842f323b03ff39c5816eaa8a97", "lat": 38.9161225, "lon": -77.04860516666666, "rental_uris": {"android": "https://dc.lft.to/lastmile_qr_scan", "ios": "https://dc.lft.to/lastmile_qr_scan"}, "is_disabled": 0, "fusion_lat": 0.0, "name": "b83f34842f323b03ff39c5816eaa8a97", "fusion_lon": 0.0}, {"is_reserved": 0, "type": "electric_bike", "bike_id": "82286bdd40f5d3538d2ea11079b57597", "lat": 38.89953766666667, "lon": -76.98557616666666, "rental_uris": {"android": "https://dc.lft.to/lastmile_qr_scan", "ios": "https://dc.lft.to/lastmile_qr_scan"}, "is_disabled": 0, "fusion_lat": 0.0, "name": "82286bdd40f5d3538d2ea11079b57597", "fusion_lon": 0.0}, {"is_reserved": 0, "type": "electric_scooter", "bike_id": "2407046dabe8d91509d433f9fc2fc753", "lat": 38.9209285, "lon": -77.0137085, "rental_uris": {"android": "https://dc.lft.to/lastmile_qr_scan", "ios": "https://dc.lft.to/lastmile_qr_scan"}, "is_disabled": 0, "fusion_lat": 0.0, "name": "2407046dabe8d91509d433f9fc2fc753", "fusion_lon": 0.0}, {"is_reserved": 0, "type": "electric_scooter", "bike_id": "cfe47cf4cebcfb8324bd1796fab2a33f", "lat": 38.90171866666667, "lon": -77.02173066666667, "rental_uris": {"android": "https://dc.lft.to/lastmile_qr_scan", "ios": "https://dc.lft.to/lastmile_qr_scan"}, "is_disabled": 0, "fusion_lat": 0.0, "name": "cfe47cf4cebcfb8324bd1796fab2a33f", "fusion_lon": 0.0}, {"is_reserved": 0, "type": "electric_bike", "bike_id": "2ce5b029246f36eef073bca5036cb1c2", "lat": 38.886878, "lon": -76.99011333333333, "rental_uris": {"android": "https://dc.lft.to/lastmile_qr_scan", "ios": "https://dc.lft.to/lastmile_qr_scan"}, "is_disabled": 0, "fusion_lat": 0.0, "name": "2ce5b029246f36eef073bca5036cb1c2", "fusion_lon": 0.0}, {"is_reserved": 0, "type": "electric_scooter", "bike_id": "946fa26335c9b33b3780e31381dab98a", "lat": 38.923181666666665, "lon": -77.041295, "rental_uris": {"android": "https://dc.lft.to/lastmile_qr_scan", "ios": "https://dc.lft.to/lastmile_qr_scan"}, "is_disabled": 0, "fusion_lat": 0.0, "name": "946fa26335c9b33b3780e31381dab98a", "fusion_lon": 0.0}, {"is_reserved": 0, "type": "electric_scooter", "bike_id": "7c2e18f163cab7f1c2ba0ed22ea183e0", "lat": 38.893649833333335, "lon": -77.028197, "rental_uris": {"android": "https://dc.lft.to/lastmile_qr_scan", "ios": "https://dc.lft.to/lastmile_qr_scan"}, "is_disabled": 0, "fusion_lat": 0.0, "name": "7c2e18f163cab7f1c2ba0ed22ea183e0", "fusion_lon": 0.0}, {"is_reserved": 0, "type": "electric_scooter", "bike_id": "cc18dc51d78cdf952df9229e984f6ae6", "lat": 38.88988583333333, "lon": -77.00079016666666, "rental_uris": {"android": "https://dc.lft.to/lastmile_qr_scan", "ios": "https://dc.lft.to/lastmile_qr_scan"}, "is_disabled": 0, "fusion_lat": 0.0, "name": "cc18dc51d78cdf952df9229e984f6ae6", "fusion_lon": 0.0}, {"is_reserved": 0, "type": "electric_scooter", "bike_id": "b91358398d4ca90685231c1af713c4e7", "lat": 38.925756, "lon": -76.995114, "rental_uris": {"android": "https://dc.lft.to/lastmile_qr_scan", "ios": "https://dc.lft.to/lastmile_qr_scan"}, "is_disabled": 0, "fusion_lat": 0.0, "name": "b91358398d4ca90685231c1af713c4e7", "fusion_lon": 0.0}, {"is_reserved": 0, "type": "electric_scooter", "bike_id": "af9725e110760363b5f33db6a8e02de9", "lat": 38.90399516666667, "lon": -77.067762, "rental_uris": {"android": "https://dc.lft.to/lastmile_qr_scan", "ios": "https://dc.lft.to/lastmile_qr_scan"}, "is_disabled": 0, "fusion_lat": 0.0, "name": "af9725e110760363b5f33db6a8e02de9", "fusion_lon": 0.0}, {"is_reserved": 0, "type": "electric_scooter", "bike_id": "1b132bb653bfd7905fb4c9f11053941c", "lat": 38.92868816666667, "lon": -77.0344245, "rental_uris": {"android": "https://dc.lft.to/lastmile_qr_scan", "ios": "https://dc.lft.to/lastmile_qr_scan"}, "is_disabled": 0, "fusion_lat": 0.0, "name": "1b132bb653bfd7905fb4c9f11053941c", "fusion_lon": 0.0}, {"is_reserved": 0, "type": "electric_scooter", "bike_id": "50bb7c04d950bb01058cad45c2c89cee", "lat": 38.899498666666666, "lon": -77.053912, "rental_uris": {"android": "https://dc.lft.to/lastmile_qr_scan", "ios": "https://dc.lft.to/lastmile_qr_scan"}, "is_disabled": 0, "fusion_lat": 0.0, "name": "50bb7c04d950bb01058cad45c2c89cee", "fusion_lon": 0.0}, {"is_reserved": 0, "type": "electric_scooter", "bike_id": "3f6bbfa471d6db623a99a730f54be6bc", "lat": 38.92449283333333, "lon": -77.02032, "rental_uris": {"android": "https://dc.lft.to/lastmile_qr_scan", "ios": "https://dc.lft.to/lastmile_qr_scan"}, "is_disabled": 0, "fusion_lat": 0.0, "name": "3f6bbfa471d6db623a99a730f54be6bc", "fusion_lon": 0.0}, {"is_reserved": 0, "type": "electric_scooter", "bike_id": "8ec6a8e50e217f0855d9f39ba064fcb9", "lat": 38.94008933333333, "lon": -77.02733733333334, "rental_uris": {"android": "https://dc.lft.to/lastmile_qr_scan", "ios": "https://dc.lft.to/lastmile_qr_scan"}, "is_disabled": 0, "fusion_lat": 0.0, "name": "8ec6a8e50e217f0855d9f39ba064fcb9", "fusion_lon": 0.0}, {"is_reserved": 0, "type": "electric_scooter", "bike_id": "e90ba4d90edf6c16364a02da772ef711", "lat": 38.9008005, "lon": -77.01628216666667, "rental_uris": {"android": "https://dc.lft.to/lastmile_qr_scan", "ios": "https://dc.lft.to/lastmile_qr_scan"}, "is_disabled": 0, "fusion_lat": 0.0, "name": "e90ba4d90edf6c16364a02da772ef711", "fusion_lon": 0.0}, {"is_reserved": 0, "type": "electric_scooter", "bike_id": "5e6eda28f9e0147f02a3a6bc1cee4c4d", "lat": 38.9131675, "lon": -77.01444833333333, "rental_uris": {"android": "https://dc.lft.to/lastmile_qr_scan", "ios": "https://dc.lft.to/lastmile_qr_scan"}, "is_disabled": 0, "fusion_lat": 0.0, "name": "5e6eda28f9e0147f02a3a6bc1cee4c4d", "fusion_lon": 0.0}, {"is_reserved": 0, "type": "electric_bike", "bike_id": "9e406fbb361f894708b30ce98417e094", "lat": 38.907932833333334, "lon": -77.02393733333334, "rental_uris": {"android": "https://dc.lft.to/lastmile_qr_scan", "ios": "https://dc.lft.to/lastmile_qr_scan"}, "is_disabled": 0, "fusion_lat": 0.0, "name": "9e406fbb361f894708b30ce98417e094", "fusion_lon": 0.0}, {"is_reserved": 0, "type": "electric_scooter", "bike_id": "19d3cecb923ce7793e41ef73e42dbb5d", "lat": 38.887434, "lon": -77.01737366666667, "rental_uris": {"android": "https://dc.lft.to/lastmile_qr_scan", "ios": "https://dc.lft.to/lastmile_qr_scan"}, "is_disabled": 0, "fusion_lat": 0.0, "name": "19d3cecb923ce7793e41ef73e42dbb5d", "fusion_lon": 0.0}, {"is_reserved": 0, "type": "electric_scooter", "bike_id": "baaadb43295de4837ffe05b6148b5d41", "lat": 38.93782516666667, "lon": -77.07449066666666, "rental_uris": {"android": "https://dc.lft.to/lastmile_qr_scan", "ios": "https://dc.lft.to/lastmile_qr_scan"}, "is_disabled": 0, "fusion_lat": 0.0, "name": "baaadb43295de4837ffe05b6148b5d41", "fusion_lon": 0.0}, {"is_reserved": 0, "type": "electric_scooter", "bike_id": "a5811102af6dea1221ac71947feae200", "lat": 38.912425166666665, "lon": -77.03844816666667, "rental_uris": {"android": "https://dc.lft.to/lastmile_qr_scan", "ios": "https://dc.lft.to/lastmile_qr_scan"}, "is_disabled": 0, "fusion_lat": 0.0, "name": "a5811102af6dea1221ac71947feae200", "fusion_lon": 0.0}, {"is_reserved": 0, "type": "electric_scooter", "bike_id": "a737d2a3c5a9e9229511022d1b213ce4", "lat": 38.905643833333336, "lon": -76.99775316666667, "rental_uris": {"android": "https://dc.lft.to/lastmile_qr_scan", "ios": "https://dc.lft.to/lastmile_qr_scan"}, "is_disabled": 0, "fusion_lat": 0.0, "name": "a737d2a3c5a9e9229511022d1b213ce4", "fusion_lon": 0.0}, {"is_reserved": 0, "type": "electric_scooter", "bike_id": "3ff1a06f50734626455d03086b2b102a", "lat": 38.94973916666667, "lon": -77.0244565, "rental_uris": {"android": "https://dc.lft.to/lastmile_qr_scan", "ios": "https://dc.lft.to/lastmile_qr_scan"}, "is_disabled": 0, "fusion_lat": 0.0, "name": "3ff1a06f50734626455d03086b2b102a", "fusion_lon": 0.0}, {"is_reserved": 0, "type": "electric_scooter", "bike_id": "7d88b51beb0edf6dc089f668ae8fb4ab", "lat": 38.91113766666667, "lon": -77.00355766666667, "rental_uris": {"android": "https://dc.lft.to/lastmile_qr_scan", "ios": "https://dc.lft.to/lastmile_qr_scan"}, "is_disabled": 0, "fusion_lat": 0.0, "name": "7d88b51beb0edf6dc089f668ae8fb4ab", "fusion_lon": 0.0}, {"is_reserved": 0, "type": "electric_bike", "bike_id": "764736957d14d1e9ef0fb4c570b1eb98", "lat": 38.95596316666666, "lon": -76.99532333333333, "rental_uris": {"android": "https://dc.lft.to/lastmile_qr_scan", "ios": "https://dc.lft.to/lastmile_qr_scan"}, "is_disabled": 0, "fusion_lat": 0.0, "name": "764736957d14d1e9ef0fb4c570b1eb98", "fusion_lon": 0.0}, {"is_reserved": 0, "type": "electric_scooter", "bike_id": "e00617e95dd1e9384463af14eb628b42", "lat": 38.91388166666667, "lon": -77.01982516666666, "rental_uris": {"android": "https://dc.lft.to/lastmile_qr_scan", "ios": "https://dc.lft.to/lastmile_qr_scan"}, "is_disabled": 0, "fusion_lat": 0.0, "name": "e00617e95dd1e9384463af14eb628b42", "fusion_lon": 0.0}, {"is_reserved": 0, "type": "electric_bike", "bike_id": "7b797ba44e767aea0013cf0478459619", "lat": 38.78392783333334, "lon": -77.1206795, "rental_uris": {"android": "https://dc.lft.to/lastmile_qr_scan", "ios": "https://dc.lft.to/lastmile_qr_scan"}, "is_disabled": 0, "fusion_lat": 0.0, "name": "7b797ba44e767aea0013cf0478459619", "fusion_lon": 0.0}, {"is_reserved": 0, "type": "electric_scooter", "bike_id": "f18423fece8ab93a8516219ca6883a0e", "lat": 38.922319, "lon": -77.02329, "rental_uris": {"android": "https://dc.lft.to/lastmile_qr_scan", "ios": "https://dc.lft.to/lastmile_qr_scan"}, "is_disabled": 0, "fusion_lat": 0.0, "name": "f18423fece8ab93a8516219ca6883a0e", "fusion_lon": 0.0}, {"is_reserved": 0, "type": "electric_scooter", "bike_id": "cd195c779b2b46783f0746d0bed5447c", "lat": 38.920835333333336, "lon": -77.03171033333334, "rental_uris": {"android": "https://dc.lft.to/lastmile_qr_scan", "ios": "https://dc.lft.to/lastmile_qr_scan"}, "is_disabled": 0, "fusion_lat": 0.0, "name": "cd195c779b2b46783f0746d0bed5447c", "fusion_lon": 0.0}, {"is_reserved": 0, "type": "electric_scooter", "bike_id": "24280a0fe06776ee35b27abdb7255992", "lat": 38.9131545, "lon": -77.03649266666666, "rental_uris": {"android": "https://dc.lft.to/lastmile_qr_scan", "ios": "https://dc.lft.to/lastmile_qr_scan"}, "is_disabled": 0, "fusion_lat": 0.0, "name": "24280a0fe06776ee35b27abdb7255992", "fusion_lon": 0.0}, {"is_reserved": 0, "type": "electric_scooter", "bike_id": "f6b8d587f7e01e370ab82dbb65df6785", "lat": 38.9248475, "lon": -77.0226715, "rental_uris": {"android": "https://dc.lft.to/lastmile_qr_scan", "ios": "https://dc.lft.to/lastmile_qr_scan"}, "is_disabled": 0, "fusion_lat": 0.0, "name": "f6b8d587f7e01e370ab82dbb65df6785", "fusion_lon": 0.0}, {"is_reserved": 0, "type": "electric_scooter", "bike_id": "f689f0b0f5f8570070143b6d8851eb2c", "lat": 38.903858, "lon": -77.03134483333334, "rental_uris": {"android": "https://dc.lft.to/lastmile_qr_scan", "ios": "https://dc.lft.to/lastmile_qr_scan"}, "is_disabled": 0, "fusion_lat": 0.0, "name": "f689f0b0f5f8570070143b6d8851eb2c", "fusion_lon": 0.0}, {"is_reserved": 0, "type": "electric_scooter", "bike_id": "707e51ed9e059aa8f95628cb006739fa", "lat": 38.89948166666667, "lon": -76.9819175, "rental_uris": {"android": "https://dc.lft.to/lastmile_qr_scan", "ios": "https://dc.lft.to/lastmile_qr_scan"}, "is_disabled": 0, "fusion_lat": 0.0, "name": "707e51ed9e059aa8f95628cb006739fa", "fusion_lon": 0.0}, {"is_reserved": 0, "type": "electric_scooter", "bike_id": "3e518e4e527f1103b162c629e8e93594", "lat": 38.90664666666667, "lon": -77.02707583333333, "rental_uris": {"android": "https://dc.lft.to/lastmile_qr_scan", "ios": "https://dc.lft.to/lastmile_qr_scan"}, "is_disabled": 0, "fusion_lat": 0.0, "name": "3e518e4e527f1103b162c629e8e93594", "fusion_lon": 0.0}, {"is_reserved": 0, "type": "electric_scooter", "bike_id": "c98f78c409440d56d31139ba9f19e6ee", "lat": 38.90427316666667, "lon": -77.02606, "rental_uris": {"android": "https://dc.lft.to/lastmile_qr_scan", "ios": "https://dc.lft.to/lastmile_qr_scan"}, "is_disabled": 0, "fusion_lat": 0.0, "name": "c98f78c409440d56d31139ba9f19e6ee", "fusion_lon": 0.0}, {"is_reserved": 0, "type": "electric_scooter", "bike_id": "e8c06af88e96f11cde338e6e42a10a62", "lat": 38.921359333333335, "lon": -77.04700233333334, "rental_uris": {"android": "https://dc.lft.to/lastmile_qr_scan", "ios": "https://dc.lft.to/lastmile_qr_scan"}, "is_disabled": 0, "fusion_lat": 0.0, "name": "e8c06af88e96f11cde338e6e42a10a62", "fusion_lon": 0.0}, {"is_reserved": 0, "type": "electric_scooter", "bike_id": "b027d36c8b78188f71f3a6b08166205f", "lat": 38.89957733333333, "lon": -77.0508305, "rental_uris": {"android": "https://dc.lft.to/lastmile_qr_scan", "ios": "https://dc.lft.to/lastmile_qr_scan"}, "is_disabled": 0, "fusion_lat": 0.0, "name": "b027d36c8b78188f71f3a6b08166205f", "fusion_lon": 0.0}, {"is_reserved": 0, "type": "electric_scooter", "bike_id": "4448beb89b53aaa8b54d11d85456811b", "lat": 38.89557283333333, "lon": -77.01109633333333, "rental_uris": {"android": "https://dc.lft.to/lastmile_qr_scan", "ios": "https://dc.lft.to/lastmile_qr_scan"}, "is_disabled": 0, "fusion_lat": 0.0, "name": "4448beb89b53aaa8b54d11d85456811b", "fusion_lon": 0.0}, {"is_reserved": 0, "type": "electric_scooter", "bike_id": "34149e3a70aa9afc0dcdf50e1e5c964e", "lat": 38.98023083333333, "lon": -77.02660816666666, "rental_uris": {"android": "https://dc.lft.to/lastmile_qr_scan", "ios": "https://dc.lft.to/lastmile_qr_scan"}, "is_disabled": 0, "fusion_lat": 0.0, "name": "34149e3a70aa9afc0dcdf50e1e5c964e", "fusion_lon": 0.0}, {"is_reserved": 0, "type": "electric_scooter", "bike_id": "f8da95469648e0bbb93333570996b130", "lat": 38.93331883333333, "lon": -77.0818785, "rental_uris": {"android": "https://dc.lft.to/lastmile_qr_scan", "ios": "https://dc.lft.to/lastmile_qr_scan"}, "is_disabled": 0, "fusion_lat": 0.0, "name": "f8da95469648e0bbb93333570996b130", "fusion_lon": 0.0}, {"is_reserved": 0, "type": "electric_scooter", "bike_id": "32cd960c3f0613b8d973f26995e0eda8", "lat": 38.91919983333333, "lon": -77.03431433333333, "rental_uris": {"android": "https://dc.lft.to/lastmile_qr_scan", "ios": "https://dc.lft.to/lastmile_qr_scan"}, "is_disabled": 0, "fusion_lat": 0.0, "name": "32cd960c3f0613b8d973f26995e0eda8", "fusion_lon": 0.0}, {"is_reserved": 0, "type": "electric_scooter", "bike_id": "0df336bd48e97242646f36739d8cd637", "lat": 38.90383966666667, "lon": -77.05389716666667, "rental_uris": {"android": "https://dc.lft.to/lastmile_qr_scan", "ios": "https://dc.lft.to/lastmile_qr_scan"}, "is_disabled": 0, "fusion_lat": 0.0, "name": "0df336bd48e97242646f36739d8cd637", "fusion_lon": 0.0}, {"is_reserved": 0, "type": "electric_scooter", "bike_id": "3fbf87424cd0c43dc154a93a5d7c073c", "lat": 38.883180833333334, "lon": -77.00952683333334, "rental_uris": {"android": "https://dc.lft.to/lastmile_qr_scan", "ios": "https://dc.lft.to/lastmile_qr_scan"}, "is_disabled": 0, "fusion_lat": 0.0, "name": "3fbf87424cd0c43dc154a93a5d7c073c", "fusion_lon": 0.0}, {"is_reserved": 0, "type": "electric_scooter", "bike_id": "b1a10857b5c13e29c5e8443a0a7347cb", "lat": 38.88534816666667, "lon": -76.99829366666667, "rental_uris": {"android": "https://dc.lft.to/lastmile_qr_scan", "ios": "https://dc.lft.to/lastmile_qr_scan"}, "is_disabled": 0, "fusion_lat": 0.0, "name": "b1a10857b5c13e29c5e8443a0a7347cb", "fusion_lon": 0.0}, {"is_reserved": 0, "type": "electric_bike", "bike_id": "05dfb5e43ada16ff606d6fcf82c7c5b6", "lat": 38.922929833333335, "lon": -77.02423533333334, "rental_uris": {"android": "https://dc.lft.to/lastmile_qr_scan", "ios": "https://dc.lft.to/lastmile_qr_scan"}, "is_disabled": 0, "fusion_lat": 0.0, "name": "05dfb5e43ada16ff606d6fcf82c7c5b6", "fusion_lon": 0.0}, {"is_reserved": 0, "type": "electric_bike", "bike_id": "66e6f7f00eef20e98a7071853bbad1fa", "lat": 38.94315916666667, "lon": -76.99010816666667, "rental_uris": {"android": "https://dc.lft.to/lastmile_qr_scan", "ios": "https://dc.lft.to/lastmile_qr_scan"}, "is_disabled": 0, "fusion_lat": 0.0, "name": "66e6f7f00eef20e98a7071853bbad1fa", "fusion_lon": 0.0}, {"is_reserved": 0, "type": "electric_scooter", "bike_id": "70664ccd52a0256cf8a851823825cb82", "lat": 38.918069333333335, "lon": -77.04029283333334, "rental_uris": {"android": "https://dc.lft.to/lastmile_qr_scan", "ios": "https://dc.lft.to/lastmile_qr_scan"}, "is_disabled": 0, "fusion_lat": 0.0, "name": "70664ccd52a0256cf8a851823825cb82", "fusion_lon": 0.0}, {"is_reserved": 0, "type": "electric_bike", "bike_id": "9696047f320f4be6b6aa55bea1e4f77a", "lat": 38.87211333333333, "lon": -77.11739133333333, "rental_uris": {"android": "https://dc.lft.to/lastmile_qr_scan", "ios": "https://dc.lft.to/lastmile_qr_scan"}, "is_disabled": 0, "fusion_lat": 0.0, "name": "9696047f320f4be6b6aa55bea1e4f77a", "fusion_lon": 0.0}, {"is_reserved": 0, "type": "electric_scooter", "bike_id": "0c447d382383e4a9cfb6cc095482a903", "lat": 38.898596166666664, "lon": -76.97759666666667, "rental_uris": {"android": "https://dc.lft.to/lastmile_qr_scan", "ios": "https://dc.lft.to/lastmile_qr_scan"}, "is_disabled": 0, "fusion_lat": 0.0, "name": "0c447d382383e4a9cfb6cc095482a903", "fusion_lon": 0.0}, {"is_reserved": 0, "type": "electric_bike", "bike_id": "cc9d9e8a51fffd1897b1523c290d49f0", "lat": 38.86459333333333, "lon": -76.9775035, "rental_uris": {"android": "https://dc.lft.to/lastmile_qr_scan", "ios": "https://dc.lft.to/lastmile_qr_scan"}, "is_disabled": 0, "fusion_lat": 0.0, "name": "cc9d9e8a51fffd1897b1523c290d49f0", "fusion_lon": 0.0}, {"is_reserved": 0, "type": "electric_bike", "bike_id": "2e27938727df2f0f90cdefb8e0350027", "lat": 38.857837, "lon": -76.98754416666667, "rental_uris": {"android": "https://dc.lft.to/lastmile_qr_scan", "ios": "https://dc.lft.to/lastmile_qr_scan"}, "is_disabled": 0, "fusion_lat": 0.0, "name": "2e27938727df2f0f90cdefb8e0350027", "fusion_lon": 0.0}, {"is_reserved": 0, "type": "electric_scooter", "bike_id": "ceaaa140d5ac5cec70a894657c0a34af", "lat": 38.94692333333333, "lon": -77.02245266666667, "rental_uris": {"android": "https://dc.lft.to/lastmile_qr_scan", "ios": "https://dc.lft.to/lastmile_qr_scan"}, "is_disabled": 0, "fusion_lat": 0.0, "name": "ceaaa140d5ac5cec70a894657c0a34af", "fusion_lon": 0.0}, {"is_reserved": 0, "type": "electric_scooter", "bike_id": "9e602b41a8a4430b75442018024e6e59", "lat": 38.933953333333335, "lon": -77.04125266666667, "rental_uris": {"android": "https://dc.lft.to/lastmile_qr_scan", "ios": "https://dc.lft.to/lastmile_qr_scan"}, "is_disabled": 0, "fusion_lat": 0.0, "name": "9e602b41a8a4430b75442018024e6e59", "fusion_lon": 0.0}, {"is_reserved": 0, "type": "electric_scooter", "bike_id": "8d5c22ccbb3a3270890c0dcd75050489", "lat": 38.90549, "lon": -77.03503833333333, "rental_uris": {"android": "https://dc.lft.to/lastmile_qr_scan", "ios": "https://dc.lft.to/lastmile_qr_scan"}, "is_disabled": 0, "fusion_lat": 0.0, "name": "8d5c22ccbb3a3270890c0dcd75050489", "fusion_lon": 0.0}, {"is_reserved": 0, "type": "electric_scooter", "bike_id": "cfc082387febdb01e46abc5b1d55fc28", "lat": 38.90392383333333, "lon": -76.98941066666667, "rental_uris": {"android": "https://dc.lft.to/lastmile_qr_scan", "ios": "https://dc.lft.to/lastmile_qr_scan"}, "is_disabled": 0, "fusion_lat": 0.0, "name": "cfc082387febdb01e46abc5b1d55fc28", "fusion_lon": 0.0}, {"is_reserved": 0, "type": "electric_scooter", "bike_id": "31b7d1afcba50efe17f99e28ddc7df82", "lat": 38.900161833333335, "lon": -77.0188165, "rental_uris": {"android": "https://dc.lft.to/lastmile_qr_scan", "ios": "https://dc.lft.to/lastmile_qr_scan"}, "is_disabled": 0, "fusion_lat": 0.0, "name": "31b7d1afcba50efe17f99e28ddc7df82", "fusion_lon": 0.0},