{"data": {"bikes": [{"lat": 38.92736433333334, "is_disabled": 0, "type": "electric_scooter", "lon": -77.022436, "bike_id": "337f9c251f9126b1bcf4484b96ca9618", "fusion_lat": 0.0, "name": "337f9c251f9126b1bcf4484b96ca9618", "is_reserved": 0, "rental_uris": {"android": "https://dc.lft.to/lastmile_qr_scan", "ios": "https://dc.lft.to/lastmile_qr_scan"}, "fusion_lon": 0.0}, {"lat": 38.91763533333334, "is_disabled": 0, "type": "electric_scooter", "lon": -77.0321065, "bike_id": "3307b45995371ffa0620945433d0fd59", "fusion_lat": 0.0, "name": "3307b45995371ffa0620945433d0fd59", "is_reserved": 0, "rental_uris": {"android": "https://dc.lft.to/lastmile_qr_scan", "ios": "https://dc.lft.to/lastmile_qr_scan"}, "fusion_lon": 0.0}, {"lat": 38.90708766666667, "is_disabled": 0, "type": "electric_scooter", "lon": -77.04506283333333, "bike_id": "c1a25aa01c3dd2db66fe0587e0189214", "fusion_lat": 0.0, "name": "c1a25aa01c3dd2db66fe0587e0189214", "is_reserved": 0, "rental_uris": {"android": "https://dc.lft.to/lastmile_qr_scan", "ios": "https://dc.lft.to/lastmile_qr_scan"}, "fusion_lon": 0.0}, {"lat": 38.931196666666665, "is_disabled": 0, "type": "electric_scooter", "lon": -77.02089, "bike_id": "3d0815faeb5c60348cfbeedcb031fe82", "fusion_lat": 0.0, "name": "3d0815faeb5c60348cfbeedcb031fe82", "is_reserved": 0, "rental_uris": {"android": "https://dc.lft.to/lastmile_qr_scan", "ios": "https://dc.lft.to/lastmile_qr_scan"}, "fusion_lon": 0.0}, {"lat": 38.92682833333333, "is_disabled": 0, "type": "electric_scooter", "lon": -77.01514666666667, "bike_id": "0ae6189c80fa85af368a5afccfdc3e14", "fusion_lat": 0.0, "name": "0ae6189c80fa85af368a5afccfdc3e14", "is_reserved": 0, "rental_uris": {"android": "https://dc.lft.to/lastmile_qr_scan", "ios": "https://dc.lft.to/lastmile_qr_scan"}, "fusion_lon": 0.0}, {"lat": 38.902664333333334, "is_disabled": 0, "type": "electric_scooter", "lon": -77.03637333333333, "bike_id": "139878f1e9df07a534ab5f70c8513fde", "fusion_lat": 0.0, "name": "139878f1e9df07a534ab5f70c8513fde", "is_reserved": 0, "rental_uris": {"android": "https://dc.lft.to/lastmile_qr_scan", "ios": "https://dc.lft.to/lastmile_qr_scan"}, "fusion_lon": 0.0}, {"lat": 38.916989666666666, "is_disabled": 0, "type": "electric_scooter", "lon": -77.037477, "bike_id": "c1983b8ec9ee0ddb8b2266317ed3dedb", "fusion_lat": 0.0, "name": "c1983b8ec9ee0ddb8b2266317ed3dedb", "is_reserved": 0, "rental_uris": {"android": "https://dc.lft.to/lastmile_qr_scan", "ios": "https://dc.lft.to/lastmile_qr_scan"}, "fusion_lon": 0.0}, {"lat": 38.90278133333333, "is_disabled": 0, "type": "electric_scooter", "lon": -77.0438275, "bike_id": "83f577b83755717775e8856429563af6", "fusion_lat": 0.0, "name": "83f577b83755717775e8856429563af6", "is_reserved": 0, "rental_uris": {"android": "https://dc.lft.to/lastmile_qr_scan", "ios": "https://dc.lft.to/lastmile_qr_scan"}, "fusion_lon": 0.0}, {"lat": 38.9117325, "is_disabled": 0, "type": "electric_scooter", "lon": -77.031874, "bike_id": "8217618bddefca07124c86e4ffa9e582", "fusion_lat": 0.0, "name": "8217618bddefca07124c86e4ffa9e582", "is_reserved": 0, "rental_uris": {"android": "https://dc.lft.to/lastmile_qr_scan", "ios": "https://dc.lft.to/lastmile_qr_scan"}, "fusion_lon": 0.0}, {"lat": 38.927754666666665, "is_disabled": 0, "type": "electric_scooter", "lon": -77.027074, "bike_id": "d64dc5ebfbcb29dd448bf5290f9d59cc", "fusion_lat": 0.0, "name": "d64dc5ebfbcb29dd448bf5290f9d59cc", "is_reserved": 0, "rental_uris": {"android": "https://dc.lft.to/lastmile_qr_scan", "ios": "https://dc.lft.to/lastmile_qr_scan"}, "fusion_lon": 0.0}, {"lat": 38.913134166666666, "is_disabled": 0, "type": "electric_scooter", "lon": -77.04482433333334, "bike_id": "18697a8bc2aac933c90dbe1faa41550f", "fusion_lat": 0.0, "name": "18697a8bc2aac933c90dbe1faa41550f", "is_reserved": 0, "rental_uris": {"android": "https://dc.lft.to/lastmile_qr_scan", "ios": "https://dc.lft.to/lastmile_qr_scan"}, "fusion_lon": 0.0}, {"lat": 38.933823333333336, "is_disabled": 0, "type": "electric_scooter", "lon": -77.03253316666667, "bike_id": "ecbee1acafdc366c0fefbd0994d0f549", "fusion_lat": 0.0, "name": "ecbee1acafdc366c0fefbd0994d0f549", "is_reserved": 0, "rental_uris": {"android": "https://dc.lft.to/lastmile_qr_scan", "ios": "https://dc.lft.to/lastmile_qr_scan"}, "fusion_lon": 0.0}, {"lat": 38.885982166666665, "is_disabled": 0, "type": "electric_scooter", "lon": -77.02202383333334, "bike_id": "1d3e4c3e037509b3809229910dcfaf9b", "fusion_lat": 0.0, "name": "1d3e4c3e037509b3809229910dcfaf9b", "is_reserved": 0, "rental_uris": {"android": "https://dc.lft.to/lastmile_qr_scan", "ios": "https://dc.lft.to/lastmile_qr_scan"}, "fusion_lon": 0.0}, {"lat": 38.89352616666667, "is_disabled": 0, "type": "electric_scooter", "lon": -77.0413925, "bike_id": "96dba1419b614ee992a799489272e244", "fusion_lat": 0.0, "name": "96dba1419b614ee992a799489272e244", "is_reserved": 0, "rental_uris": {"android": "https://dc.lft.to/lastmile_qr_scan", "ios": "https://dc.lft.to/lastmile_qr_scan"}, "fusion_lon": 0.0}, {"lat": 38.9285215, "is_disabled": 0, "type": "electric_bike", "lon": -77.10675033333334, "bike_id": "260cfbf7e1d49aa207f1f5a916ee627f", "fusion_lat": 0.0, "name": "260cfbf7e1d49aa207f1f5a916ee627f", "is_reserved": 0, "rental_uris": {"android": "https://dc.lft.to/lastmile_qr_scan", "ios": "https://dc.lft.to/lastmile_qr_scan"}, "fusion_lon": 0.0}, {"lat": 38.916369, "is_disabled": 0, "type": "electric_scooter", "lon": -77.047877, "bike_id": "8b5fe6d4cd09a89c922de893d11aeefc", "fusion_lat": 0.0, "name": "8b5fe6d4cd09a89c922de893d11aeefc", "is_reserved": 0, "rental_uris": {"android": "https://dc.lft.to/lastmile_qr_scan", "ios": "https://dc.lft.to/lastmile_qr_scan"}, "fusion_lon": 0.0}, {"lat": 38.91488433333333, "is_disabled": 0, "type": "electric_scooter", "lon": -77.03264783333333, "bike_id": "a54bb0b3058c413064c01c14b3b8af89", "fusion_lat": 0.0, "name": "a54bb0b3058c413064c01c14b3b8af89", "is_reserved": 0, "rental_uris": {"android": "https://dc.lft.to/lastmile_qr_scan", "ios": "https://dc.lft.to/lastmile_qr_scan"}, "fusion_lon": 0.0}, {"lat": 38.91686033333333, "is_disabled": 0, "type": "electric_scooter", "lon": -77.02554283333333, "bike_id": "8923ef93321817109d4397e1c7bbc326", "fusion_lat": 0.0, "name": "8923ef93321817109d4397e1c7bbc326", "is_reserved": 0, "rental_uris": {"android": "https://dc.lft.to/lastmile_qr_scan", "ios": "https://dc.lft.to/lastmile_qr_scan"}, "fusion_lon": 0.0}, {"lat": 38.93208416666667, "is_disabled": 0, "type": "electric_scooter", "lon": -77.036622, "bike_id": "180d972e290a6f56d12c48fbadd80a47", "fusion_lat": 0.0, "name": "180d972e290a6f56d12c48fbadd80a47", "is_reserved": 0, "rental_uris": {"android": "https://dc.lft.to/lastmile_qr_scan", "ios": "https://dc.lft.to/lastmile_qr_scan"}, "fusion_lon": 0.0}, {"lat": 38.9254145, "is_disabled": 0, "type": "electric_scooter", "lon": -77.04430483333333, "bike_id": "d76cf20b51d29d4a668f89d6615605b4", "fusion_lat": 0.0, "name": "d76cf20b51d29d4a668f89d6615605b4", "is_reserved": 0, "rental_uris": {"android": "https://dc.lft.to/lastmile_qr_scan", "ios": "https://dc.lft.to/lastmile_qr_scan"}, "fusion_lon": 0.0}, {"lat": 38.90040366666667, "is_disabled": 0, "type": "electric_scooter", "lon": -76.99370716666667, "bike_id": "ded34def14465f0265066f34f5853c9c", "fusion_lat": 0.0, "name": "ded34def14465f0265066f34f5853c9c", "is_reserved": 0, "rental_uris": {"android": "https://dc.lft.to/lastmile_qr_scan", "ios": "https://dc.lft.to/lastmile_qr_scan"}, "fusion_lon": 0.0}, {"lat": 38.900602, "is_disabled": 0, "type": "electric_scooter", "lon": -77.01822016666667, "bike_id": "882daf4f91004517363bd96d7c218fac", "fusion_lat": 0.0, "name": "882daf4f91004517363bd96d7c218fac", "is_reserved": 0, "rental_uris": {"android": "https://dc.lft.to/lastmile_qr_scan", "ios": "https://dc.lft.to/lastmile_qr_scan"}, "fusion_lon": 0.0}, {"lat": 38.922604166666666, "is_disabled": 0, "type": "electric_scooter", "lon": -77.043002, "bike_id": "5f25753e9ce2217ccddca1d0c5bc8b14", "fusion_lat": 0.0, "name": "5f25753e9ce2217ccddca1d0c5bc8b14", "is_reserved": 0, "rental_uris": {"android": "https://dc.lft.to/lastmile_qr_scan", "ios": "https://dc.lft.to/lastmile_qr_scan"}, "fusion_lon": 0.0}, {"lat": 38.936312, "is_disabled": 0, "type": "electric_scooter", "lon": -77.02486066666667, "bike_id": "72dfeeea330003f47bda267e084d98b3", "fusion_lat": 0.0, "name": "72dfeeea330003f47bda267e084d98b3", "is_reserved": 0, "rental_uris": {"android": "https://dc.lft.to/lastmile_qr_scan", "ios": "https://dc.lft.to/lastmile_qr_scan"}, "fusion_lon": 0.0}, {"lat": 38.84254583333333, "is_disabled": 0, "type": "electric_bike", "lon": -77.05832933333333, "bike_id": "e8bfdf6e284252b1aa675feaa1caae9f", "fusion_lat": 0.0, "name": "e8bfdf6e284252b1aa675feaa1caae9f", "is_reserved": 0, "rental_uris": {"android": "https://dc.lft.to/lastmile_qr_scan", "ios": "https://dc.lft.to/lastmile_qr_scan"}, "fusion_lon": 0.0}, {"lat": 38.916944666666666, "is_disabled": 0, "type": "electric_scooter", "lon": -77.0426895, "bike_id": "262395ce8432d2df83da32744af7c925", "fusion_lat": 0.0, "name": "262395ce8432d2df83da32744af7c925", "is_reserved": 0, "rental_uris": {"android": "https://dc.lft.to/lastmile_qr_scan", "ios": "https://dc.lft.to/lastmile_qr_scan"}, "fusion_lon": 0.0}, {"lat": 38.910065333333336, "is_disabled": 0, "type": "electric_scooter", "lon": -77.01507583333333, "bike_id": "0d41016e0bba57b4e10363cbf412e868", "fusion_lat": 0.0, "name": "0d41016e0bba57b4e10363cbf412e868", "is_reserved": 0, "rental_uris": {"android": "https://dc.lft.to/lastmile_qr_scan", "ios": "https://dc.lft.to/lastmile_qr_scan"}, "fusion_lon": 0.0}, {"lat": 38.900364833333335, "is_disabled": 0, "type": "electric_scooter", "lon": -77.005912, "bike_id": "4f6f95504feb022ec7519794c8e9a37b", "fusion_lat": 0.0, "name": "4f6f95504feb022ec7519794c8e9a37b", "is_reserved": 0, "rental_uris": {"android": "https://dc.lft.to/lastmile_qr_scan", "ios": "https://dc.lft.to/lastmile_qr_scan"}, "fusion_lon": 0.0}, {"lat": 38.90687883333333, "is_disabled": 0, "type": "electric_scooter", "lon": -77.0101025, "bike_id": "1145519b44c4f3e1d48f91ef610aad35", "fusion_lat": 0.0, "name": "1145519b44c4f3e1d48f91ef610aad35", "is_reserved": 0, "rental_uris": {"android": "https://dc.lft.to/lastmile_qr_scan", "ios": "https://dc.lft.to/lastmile_qr_scan"}, "fusion_lon": 0.0}, {"lat": 38.92045666666667, "is_disabled": 0, "type": "electric_scooter", "lon": -77.034482, "bike_id": "475a823b09b4e38f85788576bfb8deff", "fusion_lat": 0.0, "name": "475a823b09b4e38f85788576bfb8deff", "is_reserved": 0, "rental_uris": {"android": "https://dc.lft.to/lastmile_qr_scan", "ios": "https://dc.lft.to/lastmile_qr_scan"}, "fusion_lon": 0.0}, {"lat": 38.929708, "is_disabled": 0, "type": "electric_scooter", "lon": -77.03269583333334, "bike_id": "e12380c9a36f34f1117f714e38d511ff", "fusion_lat": 0.0, "name": "e12380c9a36f34f1117f714e38d511ff", "is_reserved": 0, "rental_uris": {"android": "https://dc.lft.to/lastmile_qr_scan", "ios": "https://dc.lft.to/lastmile_qr_scan"}, "fusion_lon": 0.0}, {"lat": 38.908328833333336, "is_disabled": 0, "type": "electric_scooter", "lon": -76.99704366666667, "bike_id": "88aedd269cbe1650caa17edf672db0c0", "fusion_lat": 0.0, "name": "88aedd269cbe1650caa17edf672db0c0", "is_reserved": 0, "rental_uris": {"android": "https://dc.lft.to/lastmile_qr_scan", "ios": "https://dc.lft.to/lastmile_qr_scan"}, "fusion_lon": 0.0}, {"lat": 38.9171135, "is_disabled": 0, "type": "electric_scooter", "lon": -77.032461, "bike_id": "ab25940bc8360bf89a1182d44c5e171d", "fusion_lat": 0.0, "name": "ab25940bc8360bf89a1182d44c5e171d", "is_reserved": 0, "rental_uris": {"android": "https://dc.lft.to/lastmile_qr_scan", "ios": "https://dc.lft.to/lastmile_qr_scan"}, "fusion_lon": 0.0}, {"lat": 38.91109083333333, "is_disabled": 0, "type": "electric_scooter", "lon": -77.003253, "bike_id": "1e16877b17e209cf3ad164f452e25bef", "fusion_lat": 0.0, "name": "1e16877b17e209cf3ad164f452e25bef", "is_reserved": 0, "rental_uris": {"android": "https://dc.lft.to/lastmile_qr_scan", "ios": "https://dc.lft.to/lastmile_qr_scan"}, "fusion_lon": 0.0}, {"lat": 38.9246685, "is_disabled": 0, "type": "electric_bike", "lon": -77.20838716666667, "bike_id": "b07379eb5cd96bf2b3554d9e10063758", "fusion_lat": 0.0, "name": "b07379eb5cd96bf2b3554d9e10063758", "is_reserved": 0, "rental_uris": {"android": "https://dc.lft.to/lastmile_qr_scan", "ios": "https://dc.lft.to/lastmile_qr_scan"}, "fusion_lon": 0.0}, {"lat": 38.9156545, "is_disabled": 0, "type": "electric_scooter", "lon": -77.03177233333334, "bike_id": "2538d82474717212b79aabbab79e1d09", "fusion_lat": 0.0, "name": "2538d82474717212b79aabbab79e1d09", "is_reserved": 0, "rental_uris": {"android": "https://dc.lft.to/lastmile_qr_scan", "ios": "https://dc.lft.to/lastmile_qr_scan"}, "fusion_lon": 0.0}, {"lat": 38.9168135, "is_disabled": 0, "type": "electric_scooter", "lon": -77.02385333333334, "bike_id": "1f40d23d874a6cbdb4b3b4384d485b78", "fusion_lat": 0.0, "name": "1f40d23d874a6cbdb4b3b4384d485b78", "is_reserved": 0, "rental_uris": {"android": "https://dc.lft.to/lastmile_qr_scan", "ios": "https://dc.lft.to/lastmile_qr_scan"}, "fusion_lon": 0.0}, {"lat": 38.9155625, "is_disabled": 0, "type": "electric_bike", "lon": -77.03168433333333, "bike_id": "2e3566ccb1e7034cf5399bc0bdbabaae", "fusion_lat": 0.0, "name": "2e3566ccb1e7034cf5399bc0bdbabaae", "is_reserved": 0, "rental_uris": {"android": "https://dc.lft.to/lastmile_qr_scan", "ios": "https://dc.lft.to/lastmile_qr_scan"}, "fusion_lon": 0.0}, {"lat": 38.922374, "is_disabled": 0, "type": "electric_scooter", "lon": -77.04251683333334, "bike_id": "01cb94df9fc3fc9d9062c74c54fc0f1b", "fusion_lat": 0.0, "name": "01cb94df9fc3fc9d9062c74c54fc0f1b", "is_reserved": 0, "rental_uris": {"android": "https://dc.lft.to/lastmile_qr_scan", "ios": "https://dc.lft.to/lastmile_qr_scan"}, "fusion_lon": 0.0}, {"lat": 38.90008483333333, "is_disabled": 0, "type": "electric_scooter", "lon": -76.92236816666667, "bike_id": "b8b0d7148c728acd74f2c04449eb056b", "fusion_lat": 0.0, "name": "b8b0d7148c728acd74f2c04449eb056b", "is_reserved": 0, "rental_uris": {"android": "https://dc.lft.to/lastmile_qr_scan", "ios": "https://dc.lft.to/lastmile_qr_scan"}, "fusion_lon": 0.0}, {"lat": 38.91449633333333, "is_disabled": 0, "type": "electric_scooter", "lon": -77.029703, "bike_id": "34e9ce14db5bd1e796ac58ad14025322", "fusion_lat": 0.0, "name": "34e9ce14db5bd1e796ac58ad14025322", "is_reserved": 0, "rental_uris": {"android": "https://dc.lft.to/lastmile_qr_scan", "ios": "https://dc.lft.to/lastmile_qr_scan"}, "fusion_lon": 0.0}, {"lat": 38.9040585, "is_disabled": 0, "type": "electric_scooter", "lon": -77.0202675, "bike_id": "056e29c355d8add6e6b4ca4ea961ac20", "fusion_lat": 0.0, "name": "056e29c355d8add6e6b4ca4ea961ac20", "is_reserved": 0, "rental_uris": {"android": "https://dc.lft.to/lastmile_qr_scan", "ios": "https://dc.lft.to/lastmile_qr_scan"}, "fusion_lon": 0.0}, {"lat": 38.933417666666664, "is_disabled": 0, "type": "electric_scooter", "lon": -76.9930555, "bike_id": "45814449eb5679d6205378555cf9eec7", "fusion_lat": 0.0, "name": "45814449eb5679d6205378555cf9eec7", "is_reserved": 0, "rental_uris": {"android": "https://dc.lft.to/lastmile_qr_scan", "ios": "https://dc.lft.to/lastmile_qr_scan"}, "fusion_lon": 0.0}, {"lat": 38.931396, "is_disabled": 0, "type": "electric_scooter", "lon": -77.02156583333333, "bike_id": "c7701c587fcb6593b1ff68b22a0b0d66", "fusion_lat": 0.0, "name": "c7701c587fcb6593b1ff68b22a0b0d66", "is_reserved": 0, "rental_uris": {"android": "https://dc.lft.to/lastmile_qr_scan", "ios": "https://dc.lft.to/lastmile_qr_scan"}, "fusion_lon": 0.0}, {"lat": 38.899488166666664, "is_disabled": 0, "type": "electric_scooter", "lon": -77.00351633333334, "bike_id": "69f3c13e71f9f686b399405e2bb3ba66", "fusion_lat": 0.0, "name": "69f3c13e71f9f686b399405e2bb3ba66", "is_reserved": 0, "rental_uris": {"android": "https://dc.lft.to/lastmile_qr_scan", "ios": "https://dc.lft.to/lastmile_qr_scan"}, "fusion_lon": 0.0}, {"lat": 38.909621, "is_disabled": 0, "type": "electric_scooter", "lon": -77.021584, "bike_id": "c21a9e7f5a707be7afce3d9b41225d3b", "fusion_lat": 0.0, "name": "c21a9e7f5a707be7afce3d9b41225d3b", "is_reserved": 0, "rental_uris": {"android": "https://dc.lft.to/lastmile_qr_scan", "ios": "https://dc.lft.to/lastmile_qr_scan"}, "fusion_lon": 0.0}, {"lat": 38.91683966666667, "is_disabled": 0, "type": "electric_scooter", "lon": -77.02876366666666, "bike_id": "8524effcce91cd63dcb8831db497828d", "fusion_lat": 0.0, "name": "8524effcce91cd63dcb8831db497828d", "is_reserved": 0, "rental_uris": {"android": "https://dc.lft.to/lastmile_qr_scan", "ios": "https://dc.lft.to/lastmile_qr_scan"}, "fusion_lon": 0.0}, {"lat": 38.8980855, "is_disabled": 0, "type": "electric_scooter", "lon": -77.03111733333333, "bike_id": "2460018a45df3a2d02c1cdf7fa85e41d", "fusion_lat": 0.0, "name": "2460018a45df3a2d02c1cdf7fa85e41d", "is_reserved": 0, "rental_uris": {"android": "https://dc.lft.to/lastmile_qr_scan", "ios": "https://dc.lft.to/lastmile_qr_scan"}, "fusion_lon": 0.0}, {"lat": 38.95566733333333, "is_disabled": 0, "type": "electric_scooter", "lon": -77.02235116666667, "bike_id": "9543d6515a672a1d73aaa250b3856413", "fusion_lat": 0.0, "name": "9543d6515a672a1d73aaa250b3856413", "is_reserved": 0, "rental_uris": {"android": "https://dc.lft.to/lastmile_qr_scan", "ios": "https://dc.lft.to/lastmile_qr_scan"}, "fusion_lon": 0.0}, {"lat": 38.919684333333336, "is_disabled": 0, "type": "electric_scooter", "lon": -77.0121625, "bike_id": "9a1d3f30bab098368d393331a48bad62", "fusion_lat": 0.0, "name": "9a1d3f30bab098368d393331a48bad62", "is_reserved": 0, "rental_uris": {"android": "https://dc.lft.to/lastmile_qr_scan", "ios": "https://dc.lft.to/lastmile_qr_scan"}, "fusion_lon": 0.0}, {"lat": 39.05633233333333, "is_disabled": 0, "type": "electric_bike", "lon": -77.12521983333333, "bike_id": "a96d0ce882f640a837d8dcce65769334", "fusion_lat": 0.0, "name": "a96d0ce882f640a837d8dcce65769334", "is_reserved": 0, "rental_uris": {"android": "https://dc.lft.to/lastmile_qr_scan", "ios": "https://dc.lft.to/lastmile_qr_scan"}, "fusion_lon": 0.0}, {"lat": 38.890423, "is_disabled": 0, "type": "electric_scooter", "lon": -76.9524515, "bike_id": "39000a204222e8449fd45a6ac6dcbb8d", "fusion_lat": 0.0, "name": "39000a204222e8449fd45a6ac6dcbb8d", "is_reserved": 0, "rental_uris": {"android": "https://dc.lft.to/lastmile_qr_scan", "ios": "https://dc.lft.to/lastmile_qr_scan"}, "fusion_lon": 0.0}, {"lat": 38.902735, "is_disabled": 0, "type": "electric_scooter", "lon": -77.04381266666667, "bike_id": "3aa0390d8a9a984bc99b74f75438d7ca", "fusion_lat": 0.0, "name": "3aa0390d8a9a984bc99b74f75438d7ca", "is_reserved": 0, "rental_uris": {"android": "https://dc.lft.to/lastmile_qr_scan", "ios": "https://dc.lft.to/lastmile_qr_scan"}, "fusion_lon": 0.0}, {"lat": 38.911810333333335, "is_disabled": 0, "type": "electric_scooter", "lon": -77.04290633333333, "bike_id": "dd48d84680f7495d9ad40a2bb497016b", "fusion_lat": 0.0, "name": "dd48d84680f7495d9ad40a2bb497016b", "is_reserved": 0, "rental_uris": {"android": "https://dc.lft.to/lastmile_qr_scan", "ios": "https://dc.lft.to/lastmile_qr_scan"}, "fusion_lon": 0.0}, {"lat": 38.8841065, "is_disabled": 0, "type": "electric_bike", "lon": -76.9541465, "bike_id": "63b2a3ec3d8cb5f56204cf8f00ac00b6", "fusion_lat": 0.0, "name": "63b2a3ec3d8cb5f56204cf8f00ac00b6", "is_reserved": 0, "rental_uris": {"android": "https://dc.lft.to/lastmile_qr_scan", "ios": "https://dc.lft.to/lastmile_qr_scan"}, "fusion_lon": 0.0}, {"lat": 38.932102, "is_disabled": 0, "type": "electric_scooter", "lon": -77.02245066666667, "bike_id": "10f8758b4733c0742c2ac3355e544f6c", "fusion_lat": 0.0, "name": "10f8758b4733c0742c2ac3355e544f6c", "is_reserved": 0, "rental_uris": {"android": "https://dc.lft.to/lastmile_qr_scan", "ios": "https://dc.lft.to/lastmile_qr_scan"}, "fusion_lon": 0.0}, {"lat": 38.91868866666667, "is_disabled": 0, "type": "electric_scooter", "lon": -77.03163016666667, "bike_id": "74d6ef23ac8e5e2cd408c2573c5da841", "fusion_lat": 0.0, "name": "74d6ef23ac8e5e2cd408c2573c5da841", "is_reserved": 0, "rental_uris": {"android": "https://dc.lft.to/lastmile_qr_scan", "ios": "https://dc.lft.to/lastmile_qr_scan"}, "fusion_lon": 0.0}, {"lat": 38.91114916666667, "is_disabled": 0, "type": "electric_scooter", "lon": -77.03793366666666, "bike_id": "2a5e2e1d0e7a92dab86bb3f093bf872c", "fusion_lat": 0.0, "name": "2a5e2e1d0e7a92dab86bb3f093bf872c", "is_reserved": 0, "rental_uris": {"android": "https://dc.lft.to/lastmile_qr_scan", "ios": "https://dc.lft.to/lastmile_qr_scan"}, "fusion_lon": 0.0}, {"lat": 38.887379, "is_disabled": 0, "type": "electric_scooter", "lon": -77.0152895, "bike_id": "695a15db29aa75263920225a799a2925", "fusion_lat": 0.0, "name": "695a15db29aa75263920225a799a2925", "is_reserved": 0, "rental_uris": {"android": "https://dc.lft.to/lastmile_qr_scan", "ios": "https://dc.lft.to/lastmile_qr_scan"}, "fusion_lon": 0.0}, {"lat": 38.88658783333333, "is_disabled": 0, "type": "electric_bike", "lon": -77.16234383333334, "bike_id": "bfc3003fc1ab2b71fab2f7ab0cd87738", "fusion_lat": 0.0, "name": "bfc3003fc1ab2b71fab2f7ab0cd87738", "is_reserved": 0, "rental_uris": {"android": "https://dc.lft.to/lastmile_qr_scan", "ios": "https://dc.lft.to/lastmile_qr_scan"}, "fusion_lon": 0.0}, {"lat": 38.901101833333335, "is_disabled": 0, "type": "electric_scooter", "lon": -76.9954815, "bike_id": "b45c9e75b1303577e11b8ad0a74abc62", "fusion_lat": 0.0, "name": "b45c9e75b1303577e11b8ad0a74abc62", "is_reserved": 0, "rental_uris": {"android": "https://dc.lft.to/lastmile_qr_scan", "ios": "https://dc.lft.to/lastmile_qr_scan"}, "fusion_lon": 0.0}, {"lat": 38.918962, "is_disabled": 0, "type": "electric_scooter", "lon": -77.00051016666667, "bike_id": "50080215e04e1a2cf88061e2c5bd099e", "fusion_lat": 0.0, "name": "50080215e04e1a2cf88061e2c5bd099e", "is_reserved": 0, "rental_uris": {"android": "https://dc.lft.to/lastmile_qr_scan", "ios": "https://dc.lft.to/lastmile_qr_scan"}, "fusion_lon": 0.0}, {"lat": 38.900590666666666, "is_disabled": 0, "type": "electric_scooter", "lon": -77.002042, "bike_id": "79db59745674ef0cc9fd54f06b584e5b", "fusion_lat": 0.0, "name": "79db59745674ef0cc9fd54f06b584e5b", "is_reserved": 0, "rental_uris": {"android": "https://dc.lft.to/lastmile_qr_scan", "ios": "https://dc.lft.to/lastmile_qr_scan"}, "fusion_lon": 0.0}, {"lat": 38.919199, "is_disabled": 0, "type": "electric_scooter", "lon": -77.02404416666667, "bike_id": "06485dad74584dde8467ea6b7470dca5", "fusion_lat": 0.0, "name": "06485dad74584dde8467ea6b7470dca5", "is_reserved": 0, "rental_uris": {"android": "https://dc.lft.to/lastmile_qr_scan", "ios": "https://dc.lft.to/lastmile_qr_scan"}, "fusion_lon": 0.0}, {"lat": 38.917252500000004, "is_disabled": 0, "type": "electric_scooter", "lon": -77.023005, "bike_id": "e77cacca9903614cb1a1fb428d010339", "fusion_lat": 0.0, "name": "e77cacca9903614cb1a1fb428d010339", "is_reserved": 0, "rental_uris": {"android": "https://dc.lft.to/lastmile_qr_scan", "ios": "https://dc.lft.to/lastmile_qr_scan"}, "fusion_lon": 0.0}, {"lat": 38.91138633333333, "is_disabled": 0, "type": "electric_scooter", "lon": -77.02695133333333, "bike_id": "f29d486989dd9e6fbc529adc7e0bfba4", "fusion_lat": 0.0, "name": "f29d486989dd9e6fbc529adc7e0bfba4", "is_reserved": 0, "rental_uris": {"android": "https://dc.lft.to/lastmile_qr_scan", "ios": "https://dc.lft.to/lastmile_qr_scan"}, "fusion_lon": 0.0}, {"lat": 38.90531516666667, "is_disabled": 0, "type": "electric_scooter", "lon": -77.0314255, "bike_id": "9af4e986ee9a405676c0609270b8762c", "fusion_lat": 0.0, "name": "9af4e986ee9a405676c0609270b8762c", "is_reserved": 0, "rental_uris": {"android": "https://dc.lft.to/lastmile_qr_scan", "ios": "https://dc.lft.to/lastmile_qr_scan"}, "fusion_lon": 0.0}, {"lat": 38.91763616666667, "is_disabled": 0, "type": "electric_scooter", "lon": -77.0220015, "bike_id": "299b452c55f694e8f132d5bec80c0a2d", "fusion_lat": 0.0, "name": "299b452c55f694e8f132d5bec80c0a2d", "is_reserved": 0, "rental_uris": {"android": "https://dc.lft.to/lastmile_qr_scan", "ios": "https://dc.lft.to/lastmile_qr_scan"}, "fusion_lon": 0.0}, {"lat": 38.90416783333333, "is_disabled": 0, "type": "electric_scooter", "lon": -77.06890716666666, "bike_id": "a6ef2bcfba2b18fbb99b1d69a9137134", "fusion_lat": 0.0, "name": "a6ef2bcfba2b18fbb99b1d69a9137134", "is_reserved": 0, "rental_uris": {"android": "https://dc.lft.to/lastmile_qr_scan", "ios": "https://dc.lft.to/lastmile_qr_scan"}, "fusion_lon": 0.0}, {"lat": 38.91295066666667, "is_disabled": 0, "type": "electric_scooter", "lon": -77.02385, "bike_id": "1521db0b0184d6043565c44da25055d5", "fusion_lat": 0.0, "name": "1521db0b0184d6043565c44da25055d5", "is_reserved": 0, "rental_uris": {"android": "https://dc.lft.to/lastmile_qr_scan", "ios": "https://dc.lft.to/lastmile_qr_scan"}, "fusion_lon": 0.0}, {"lat": 38.88738083333333, "is_disabled": 0, "type": "electric_scooter", "lon": -77.01532566666667, "bike_id": "bfbfc7363db12f61d45ff20665715e47", "fusion_lat": 0.0, "name": "bfbfc7363db12f61d45ff20665715e47", "is_reserved": 0, "rental_uris": {"android": "https://dc.lft.to/lastmile_qr_scan", "ios": "https://dc.lft.to/lastmile_qr_scan"}, "fusion_lon": 0.0}, {"lat": 38.90969416666667, "is_disabled": 0, "type": "electric_scooter", "lon": -77.03372566666667, "bike_id": "4ff44ccde82cb4e79d0a63dd982509e7", "fusion_lat": 0.0, "name": "4ff44ccde82cb4e79d0a63dd982509e7", "is_reserved": 0, "rental_uris": {"android": "https://dc.lft.to/lastmile_qr_scan", "ios": "https://dc.lft.to/lastmile_qr_scan"}, "fusion_lon": 0.0}, {"lat": 38.915409, "is_disabled": 0, "type": "electric_scooter", "lon": -77.037964, "bike_id": "23d294059e8812bfe004602d760be73e", "fusion_lat": 0.0, "name": "23d294059e8812bfe004602d760be73e", "is_reserved": 0, "rental_uris": {"android": "https://dc.lft.to/lastmile_qr_scan", "ios": "https://dc.lft.to/lastmile_qr_scan"}, "fusion_lon": 0.0}, {"lat": 38.905624, "is_disabled": 0, "type": "electric_scooter", "lon": -77.0379225, "bike_id": "4d0fbc5368926e5703b26d14fe51aec1", "fusion_lat": 0.0, "name": "4d0fbc5368926e5703b26d14fe51aec1", "is_reserved": 0, "rental_uris": {"android": "https://dc.lft.to/lastmile_qr_scan", "ios": "https://dc.lft.to/lastmile_qr_scan"}, "fusion_lon": 0.0}, {"lat": 38.859219833333334, "is_disabled": 0, "type": "electric_scooter", "lon": -76.98981066666667, "bike_id": "d1075b8feb49d9fb1f54050aeb248843", "fusion_lat": 0.0, "name": "d1075b8feb49d9fb1f54050aeb248843", "is_reserved": 0, "rental_uris": {"android": "https://dc.lft.to/lastmile_qr_scan", "ios": "https://dc.lft.to/lastmile_qr_scan"}, "fusion_lon": 0.0}, {"lat": 38.92396516666667, "is_disabled": 0, "type": "electric_scooter", "lon": -77.04275483333333, "bike_id": "df20737abe00460b99f9c425735964c7", "fusion_lat": 0.0, "name": "df20737abe00460b99f9c425735964c7", "is_reserved": 0, "rental_uris": {"android": "https://dc.lft.to/lastmile_qr_scan", "ios": "https://dc.lft.to/lastmile_qr_scan"}, "fusion_lon": 0.0}, {"lat": 38.920561666666664, "is_disabled": 0, "type": "electric_scooter", "lon": -77.0316195, "bike_id": "68a209ca24849dc8670d3f4df5d3c332", "fusion_lat": 0.0, "name": "68a209ca24849dc8670d3f4df5d3c332", "is_reserved": 0, "rental_uris": {"android": "https://dc.lft.to/lastmile_qr_scan", "ios": "https://dc.lft.to/lastmile_qr_scan"}, "fusion_lon": 0.0}, {"lat": 38.93068483333333, "is_disabled": 0, "type": "electric_scooter", "lon": -77.0402565, "bike_id": "2cec21055a6c9315cb302a3745d0d5a4", "fusion_lat": 0.0, "name": "2cec21055a6c9315cb302a3745d0d5a4", "is_reserved": 0, "rental_uris": {"android": "https://dc.lft.to/lastmile_qr_scan", "ios": "https://dc.lft.to/lastmile_qr_scan"}, "fusion_lon": 0.0}, {"lat": 38.903639, "is_disabled": 0, "type": "electric_scooter", "lon": -77.04272366666666, "bike_id": "822a5b1ec573f224563912f9956c9b4e", "fusion_lat": 0.0, "name": "822a5b1ec573f224563912f9956c9b4e", "is_reserved": 0, "rental_uris": {"android": "https://dc.lft.to/lastmile_qr_scan", "ios": "https://dc.lft.to/lastmile_qr_scan"}, "fusion_lon": 0.0}, {"lat": 38.865078833333335, "is_disabled": 0, "type": "electric_scooter", "lon": -76.99007316666666, "bike_id": "f0e19a4003508b0c997ae0cdbe885b7a", "fusion_lat": 0.0, "name": "f0e19a4003508b0c997ae0cdbe885b7a", "is_reserved": 0, "rental_uris": {"android": "https://dc.lft.to/lastmile_qr_scan", "ios": "https://dc.lft.to/lastmile_qr_scan"}, "fusion_lon": 0.0}, {"lat": 38.884724, "is_disabled": 0, "type": "electric_scooter", "lon": -77.02421916666667, "bike_id": "89bcad7a06d93e018fa35ed6a748b20a", "fusion_lat": 0.0, "name": "89bcad7a06d93e018fa35ed6a748b20a", "is_reserved": 0, "rental_uris": {"android": "https://dc.lft.to/lastmile_qr_scan", "ios": "https://dc.lft.to/lastmile_qr_scan"}, "fusion_lon": 0.0}, {"lat": 38.9056775, "is_disabled": 0, "type": "electric_scooter", "lon": -76.99873633333333, "bike_id": "5ebfdfd6d435a4b328b37ccc0f37d51f", "fusion_lat": 0.0, "name": "5ebfdfd6d435a4b328b37ccc0f37d51f", "is_reserved": 0, "rental_uris": {"android": "https://dc.lft.to/lastmile_qr_scan", "ios": "https://dc.lft.to/lastmile_qr_scan"}, "fusion_lon": 0.0}, {"lat": 38.8671285, "is_disabled": 0, "type": "electric_scooter", "lon": -76.9872535, "bike_id": "1fa53d32be67e17071f7758a77bfe217", "fusion_lat": 0.0, "name": "1fa53d32be67e17071f7758a77bfe217", "is_reserved": 0, "rental_uris": {"android": "https://dc.lft.to/lastmile_qr_scan", "ios": "https://dc.lft.to/lastmile_qr_scan"}, "fusion_lon": 0.0}, {"lat": 38.880139, "is_disabled": 0, "type": "electric_scooter", "lon": -77.02479483333333, "bike_id": "c07ff7b40a453e84a0a7ef948b4e9420", "fusion_lat": 0.0, "name": "c07ff7b40a453e84a0a7ef948b4e9420", "is_reserved": 0, "rental_uris": {"android": "https://dc.lft.to/lastmile_qr_scan", "ios": "https://dc.lft.to/lastmile_qr_scan"}, "fusion_lon": 0.0}, {"lat": 38.93293966666667, "is_disabled": 0, "type": "electric_scooter", "lon": -77.02193516666667, "bike_id": "68e4d26059d062f05e45bfa9c4bf7277", "fusion_lat": 0.0, "name": "68e4d26059d062f05e45bfa9c4bf7277", "is_reserved": 0, "rental_uris": {"android": "https://dc.lft.to/lastmile_qr_scan", "ios": "https://dc.lft.to/lastmile_qr_scan"}, "fusion_lon": 0.0}, {"lat": 38.91919166666667, "is_disabled": 0, "type": "electric_scooter", "lon": -77.02459783333333, "bike_id": "a62bd219e8c1bda4ac56d899a5cb44a8", "fusion_lat": 0.0, "name": "a62bd219e8c1bda4ac56d899a5cb44a8", "is_reserved": 0, "rental_uris": {"android": "https://dc.lft.to/lastmile_qr_scan", "ios": "https://dc.lft.to/lastmile_qr_scan"}, "fusion_lon": 0.0}, {"lat": 38.93977733333333, "is_disabled": 0, "type": "electric_scooter", "lon": -77.026286, "bike_id": "667e0b594c83b802df9625d0046144cd", "fusion_lat": 0.0, "name": "667e0b594c83b802df9625d0046144cd", "is_reserved": 0, "rental_uris": {"android": "https://dc.lft.to/lastmile_qr_scan", "ios": "https://dc.lft.to/lastmile_qr_scan"}, "fusion_lon": 0.0}, {"lat": 38.91188616666667, "is_disabled": 0, "type": "electric_scooter", "lon": -77.0363425, "bike_id": "a0cb0e559471b38a5b71cd33c8af8599", "fusion_lat": 0.0, "name": "a0cb0e559471b38a5b71cd33c8af8599", "is_reserved": 0, "rental_uris": {"android": "https://dc.lft.to/lastmile_qr_scan", "ios": "https://dc.lft.to/lastmile_qr_scan"}, "fusion_lon": 0.0}, {"lat": 38.898911, "is_disabled": 0, "type": "electric_scooter", "lon": -77.072342, "bike_id": "80261cc294ba40a1ec366795e9841682", "fusion_lat": 0.0, "name": "80261cc294ba40a1ec366795e9841682", "is_reserved": 0, "rental_uris": {"android": "https://dc.lft.to/lastmile_qr_scan", "ios": "https://dc.lft.to/lastmile_qr_scan"}, "fusion_lon": 0.0}, {"lat": 38.922996166666664, "is_disabled": 0, "type": "electric_scooter", "lon": -77.02331916666667, "bike_id": "db07ce666c5698e66f2e67e2095eca5e", "fusion_lat": 0.0, "name": "db07ce666c5698e66f2e67e2095eca5e", "is_reserved": 0, "rental_uris": {"android": "https://dc.lft.to/lastmile_qr_scan", "ios": "https://dc.lft.to/lastmile_qr_scan"}, "fusion_lon": 0.0}, {"lat": 38.90405616666666, "is_disabled": 0, "type": "electric_scooter", "lon": -77.044814, "bike_id": "4fd606dbe9ca37aec201b41273bbbb48", "fusion_lat": 0.0, "name": "4fd606dbe9ca37aec201b41273bbbb48", "is_reserved": 0, "rental_uris": {"android": "https://dc.lft.to/lastmile_qr_scan", "ios": "https://dc.lft.to/lastmile_qr_scan"}, "fusion_lon": 0.0}, {"lat": 38.91768283333333, "is_disabled": 0, "type": "electric_scooter", "lon": -77.03188316666666, "bike_id": "11f76a6d9976af455270e08eb21836ca", "fusion_lat": 0.0, "name": "11f76a6d9976af455270e08eb21836ca", "is_reserved": 0, "rental_uris": {"android": "https://dc.lft.to/lastmile_qr_scan", "ios": "https://dc.lft.to/lastmile_qr_scan"}, "fusion_lon": 0.0}, {"lat": 38.912448166666664, "is_disabled": 0, "type": "electric_scooter", "lon": -77.0466465, "bike_id": "e92e0e4ab8197daa1ef8c03b538f1502", "fusion_lat": 0.0, "name": "e92e0e4ab8197daa1ef8c03b538f1502", "is_reserved": 0, "rental_uris": {"android": "https://dc.lft.to/lastmile_qr_scan", "ios": "https://dc.lft.to/lastmile_qr_scan"}, "fusion_lon": 0.0}, {"lat": 38.9555765, "is_disabled": 0, "type": "electric_bike", "lon": -76.93547433333333, "bike_id": "11b5de832d82ddbe7f5e633f9c7889d2", "fusion_lat": 0.0, "name": "11b5de832d82ddbe7f5e633f9c7889d2", "is_reserved": 0, "rental_uris": {"android": "https://dc.lft.to/lastmile_qr_scan", "ios": "https://dc.lft.to/lastmile_qr_scan"}, "fusion_lon": 0.0}, {"lat": 38.922489, "is_disabled": 0, "type": "electric_scooter", "lon": -77.0306935, "bike_id": "71c65f0ca35f78c6eef6640ea5a9c6e3", "fusion_lat": 0.0, "name": "71c65f0ca35f78c6eef6640ea5a9c6e3", "is_reserved": 0, "rental_uris": {"android": "https://dc.lft.to/lastmile_qr_scan", "ios": "https://dc.lft.to/lastmile_qr_scan"}, "fusion_lon": 0.0}, {"lat": 38.90677983333333, "is_disabled": 0, "type": "electric_scooter", "lon": -77.02713033333333, "bike_id": "19b7fc6e1884349db92a288dd1e34f7c", "fusion_lat": 0.0, "name": "19b7fc6e1884349db92a288dd1e34f7c", "is_reserved": 0, "rental_uris": {"android": "https://dc.lft.to/lastmile_qr_scan", "ios": "https://dc.lft.to/lastmile_qr_scan"}, "fusion_lon": 0.0}, {"lat": 38.8987875, "is_disabled": 0, "type": "electric_scooter", "lon": -77.05338566666667, "bike_id": "78c957d47316dbcfae0832134318db2d", "fusion_lat": 0.0, "name": "78c957d47316dbcfae0832134318db2d", "is_reserved": 0, "rental_uris": {"android": "https://dc.lft.to/lastmile_qr_scan", "ios": "https://dc.lft.to/lastmile_qr_scan"}, "fusion_lon": 0.0}, {"lat": 38.863486333333334, "is_disabled": 0, "type": "electric_scooter", "lon": -76.9899925, "bike_id": "717a421b1da23aab4a622fe579cfc2b9", "fusion_lat": 0.0, "name": "717a421b1da23aab4a622fe579cfc2b9", "is_reserved": 0, "rental_uris": {"android": "https://dc.lft.to/lastmile_qr_scan", "ios": "https://dc.lft.to/lastmile_qr_scan"}, "fusion_lon": 0.0}, {"lat": 38.94834316666667, "is_disabled": 0, "type": "electric_bike", "lon": -77.038883, "bike_id": "70071babbdbd5a3335832476afddc48e", "fusion_lat": 0.0, "name": "70071babbdbd5a3335832476afddc48e", "is_reserved": 0, "rental_uris": {"android": "https://dc.lft.to/lastmile_qr_scan", "ios": "https://dc.lft.to/lastmile_qr_scan"}, "fusion_lon": 0.0}, {"lat": 38.899158666666665, "is_disabled": 0, "type": "electric_scooter", "lon": -76.9337875, "bike_id": "92545c8321ecf80b0657ea86f2e0808a", "fusion_lat": 0.0, "name": "92545c8321ecf80b0657ea86f2e0808a", "is_reserved": 0, "rental_uris": {"android": "https://dc.lft.to/lastmile_qr_scan", "ios": "https://dc.lft.to/lastmile_qr_scan"}, "fusion_lon": 0.0}, {"lat": 38.87707433333333, "is_disabled": 0, "type": "electric_bike", "lon": -77.00330933333333, "bike_id": "af23fd9bceae13fc28a608d952476a7e", "fusion_lat": 0.0, "name": "af23fd9bceae13fc28a608d952476a7e", "is_reserved": 0, "rental_uris": {"android": "https://dc.lft.to/lastmile_qr_scan", "ios": "https://dc.lft.to/lastmile_qr_scan"}, "fusion_lon": 0.0}, {"lat": 38.87725316666667, "is_disabled": 0, "type": "electric_scooter", "lon": -77.00361883333333, "bike_id": "eac532ca22d5b900107741b24f393e96", "fusion_lat": 0.0, "name": "eac532ca22d5b900107741b24f393e96", "is_reserved": 0, "rental_uris": {"android": "https://dc.lft.to/lastmile_qr_scan", "ios": "https://dc.lft.to/lastmile_qr_scan"}, "fusion_lon": 0.0}, {"lat": 38.93298383333333, "is_disabled": 0, "type": "electric_scooter", "lon": -77.04533966666666, "bike_id": "4bbcdba68f72295e666146a479233658", "fusion_lat": 0.0, "name": "4bbcdba68f72295e666146a479233658", "is_reserved": 0, "rental_uris": {"android": "https://dc.lft.to/lastmile_qr_scan", "ios": "https://dc.lft.to/lastmile_qr_scan"}, "fusion_lon": 0.0}, {"lat": 38.91460283333333, "is_disabled": 0, "type": "electric_scooter", "lon": -77.01431483333333, "bike_id": "db39d18dff1f7c703e9699bd3f42526c", "fusion_lat": 0.0, "name": "db39d18dff1f7c703e9699bd3f42526c", "is_reserved": 0, "rental_uris": {"android": "https://dc.lft.to/lastmile_qr_scan", "ios": "https://dc.lft.to/lastmile_qr_scan"}, "fusion_lon": 0.0}, {"lat": 38.92329016666667, "is_disabled": 0, "type": "electric_scooter", "lon": -77.03544133333334, "bike_id": "bcb921c931a4cc2bbfb9e5ab6a93f533", "fusion_lat": 0.0, "name": "bcb921c931a4cc2bbfb9e5ab6a93f533", "is_reserved": 0, "rental_uris": {"android": "https://dc.lft.to/lastmile_qr_scan", "ios": "https://dc.lft.to/lastmile_qr_scan"}, "fusion_lon": 0.0}, {"lat": 38.881944, "is_disabled": 0, "type": "electric_scooter", "lon": -76.98934833333334, "bike_id": "cc05fdaddc218233ac05684c9e27353a", "fusion_lat": 0.0, "name": "cc05fdaddc218233ac05684c9e27353a", "is_reserved": 0, "rental_uris": {"android": "https://dc.lft.to/lastmile_qr_scan", "ios": "https://dc.lft.to/lastmile_qr_scan"}, "fusion_lon": 0.0}, {"lat": 38.887987, "is_disabled": 0, "type": "electric_scooter", "lon": -76.93358366666666, "bike_id": "3ec29e586cb9f2c48b4c7f8e9daf7fc3", "fusion_lat": 0.0, "name": "3ec29e586cb9f2c48b4c7f8e9daf7fc3", "is_reserved": 0, "rental_uris": {"android": "https://dc.lft.to/lastmile_qr_scan", "ios": "https://dc.lft.to/lastmile_qr_scan"}, "fusion_lon": 0.0}, {"lat": 38.87073933333333, "is_disabled": 0, "type": "electric_bike", "lon": -76.97835933333333, "bike_id": "8339a4a083e3741b5fbe5ffa79b4a15b", "fusion_lat": 0.0, "name": "8339a4a083e3741b5fbe5ffa79b4a15b", "is_reserved": 0, "rental_uris": {"android": "https://dc.lft.to/lastmile_qr_scan", "ios": "https://dc.lft.to/lastmile_qr_scan"}, "fusion_lon": 0.0}, {"lat": 38.92049983333333, "is_disabled": 0, "type": "electric_scooter", "lon": -77.04196433333334, "bike_id": "1d7c3a46888543232d97a6cbf188421f", "fusion_lat": 0.0, "name": "1d7c3a46888543232d97a6cbf188421f", "is_reserved": 0, "rental_uris": {"android": "https://dc.lft.to/lastmile_qr_scan", "ios": "https://dc.lft.to/lastmile_qr_scan"}, "fusion_lon": 0.0}, {"lat": 38.884010833333335, "is_disabled": 0, "type": "electric_bike", "lon": -76.96061366666666, "bike_id": "a5ad4ce5de82d8d790879f4ab91eacde", "fusion_lat": 0.0, "name": "a5ad4ce5de82d8d790879f4ab91eacde", "is_reserved": 0, "rental_uris": {"android": "https://dc.lft.to/lastmile_qr_scan", "ios": "https://dc.lft.to/lastmile_qr_scan"}, "fusion_lon": 0.0}, {"lat": 38.92117966666667, "is_disabled": 0, "type": "electric_scooter", "lon": -77.018026, "bike_id": "f94a3cdd2fd056f999b089ae7e6a7282", "fusion_lat": 0.0, "name": "f94a3cdd2fd056f999b089ae7e6a7282", "is_reserved": 0, "rental_uris": {"android": "https://dc.lft.to/lastmile_qr_scan", "ios": "https://dc.lft.to/lastmile_qr_scan"}, "fusion_lon": 0.0}, {"lat": 38.852122666666666, "is_disabled": 0, "type": "electric_bike", "lon": -77.10130766666667, "bike_id": "affdb2fefc434a4fa55317b116d80737", "fusion_lat": 0.0, "name": "affdb2fefc434a4fa55317b116d80737", "is_reserved": 0, "rental_uris": {"android": "https://dc.lft.to/lastmile_qr_scan", "ios": "https://dc.lft.to/lastmile_qr_scan"}, "fusion_lon": 0.0}, {"lat": 38.919251, "is_disabled": 0, "type": "electric_scooter", "lon": -77.03424983333333, "bike_id": "4f3ccb24326ef3ff742429a0eab5d0c5", "fusion_lat": 0.0, "name": "4f3ccb24326ef3ff742429a0eab5d0c5", "is_reserved": 0, "rental_uris": {"android": "https://dc.lft.to/lastmile_qr_scan", "ios": "https://dc.lft.to/lastmile_qr_scan"}, "fusion_lon": 0.0}, {"lat": 38.902612, "is_disabled": 0, "type": "electric_scooter", "lon": -77.03859316666667, "bike_id": "342ffdd008382de7a4d05164714e079b", "fusion_lat": 0.0, "name": "342ffdd008382de7a4d05164714e079b", "is_reserved": 0, "rental_uris": {"android": "https://dc.lft.to/lastmile_qr_scan", "ios": "https://dc.lft.to/lastmile_qr_scan"}, "fusion_lon": 0.0}, {"lat": 38.879221, "is_disabled": 0, "type": "electric_scooter", "lon": -77.030854, "bike_id": "dfc1f920ac7a34ab957b84922601e504", "fusion_lat": 0.0, "name": "dfc1f920ac7a34ab957b84922601e504", "is_reserved": 0, "rental_uris": {"android": "https://dc.lft.to/lastmile_qr_scan", "ios": "https://dc.lft.to/lastmile_qr_scan"}, "fusion_lon": 0.0}, {"lat": 38.9118565, "is_disabled": 0, "type": "electric_scooter", "lon": -77.04025416666667, "bike_id": "6dd9602890e75f0acc85d6ebf4d8e202", "fusion_lat": 0.0, "name": "6dd9602890e75f0acc85d6ebf4d8e202", "is_reserved": 0, "rental_uris": {"android": "https://dc.lft.to/lastmile_qr_scan", "ios": "https://dc.lft.to/lastmile_qr_scan"}, "fusion_lon": 0.0}, {"lat": 38.92386533333333, "is_disabled": 0, "type": "electric_scooter", "lon": -77.0253915, "bike_id": "abaf698c6b6c29aa07ae7f80beaeabb5", "fusion_lat": 0.0, "name": "abaf698c6b6c29aa07ae7f80beaeabb5", "is_reserved": 0, "rental_uris": {"android": "https://dc.lft.to/lastmile_qr_scan", "ios": "https://dc.lft.to/lastmile_qr_scan"}, "fusion_lon": 0.0}, {"lat": 38.97088866666667, "is_disabled": 0, "type": "electric_bike", "lon": -77.06966233333333, "bike_id": "7eb03fac6e65cabbb436b134e43e70b7", "fusion_lat": 0.0, "name": "7eb03fac6e65cabbb436b134e43e70b7", "is_reserved": 0, "rental_uris": {"android": "https://dc.lft.to/lastmile_qr_scan", "ios": "https://dc.lft.to/lastmile_qr_scan"}, "fusion_lon": 0.0}, {"lat": 38.9155395, "is_disabled": 0, "type": "electric_scooter", "lon": -77.0204685, "bike_id": "3fbbdfab105137b057fc3ce39bbe94de", "fusion_lat": 0.0, "name": "3fbbdfab105137b057fc3ce39bbe94de", "is_reserved": 0, "rental_uris": {"android": "https://dc.lft.to/lastmile_qr_scan", "ios": "https://dc.lft.to/lastmile_qr_scan"}, "fusion_lon": 0.0}, {"lat": 38.913971833333335, "is_disabled": 0, "type": "electric_scooter", "lon": -77.031785, "bike_id": "af72cd32dafa3fdfb6493e73ca031f46", "fusion_lat": 0.0, "name": "af72cd32dafa3fdfb6493e73ca031f46", "is_reserved": 0, "rental_uris": {"android": "https://dc.lft.to/lastmile_qr_scan", "ios": "https://dc.lft.to/lastmile_qr_scan"}, "fusion_lon": 0.0}, {"lat": 38.885312, "is_disabled": 0, "type": "electric_scooter", "lon": -77.015258, "bike_id": "2df2657628a118f444f10db70a5baa11", "fusion_lat": 0.0, "name": "2df2657628a118f444f10db70a5baa11", "is_reserved": 0, "rental_uris": {"android": "https://dc.lft.to/lastmile_qr_scan", "ios": "https://dc.lft.to/lastmile_qr_scan"}, "fusion_lon": 0.0}, {"lat": 38.865963666666666, "is_disabled": 0, "type": "electric_bike", "lon": -76.93229966666667, "bike_id": "bdf243e2a22c0a6bbb131f7fe0befac0", "fusion_lat": 0.0, "name": "bdf243e2a22c0a6bbb131f7fe0befac0", "is_reserved": 0, "rental_uris": {"android": "https://dc.lft.to/lastmile_qr_scan", "ios": "https://dc.lft.to/lastmile_qr_scan"}, "fusion_lon": 0.0}, {"lat": 38.95744083333334, "is_disabled": 0, "type": "electric_bike", "lon": -77.02170133333334, "bike_id": "da6811eb92821b2e6dbd6d4f976383aa", "fusion_lat": 0.0, "name": "da6811eb92821b2e6dbd6d4f976383aa", "is_reserved": 0, "rental_uris": {"android": "https://dc.lft.to/lastmile_qr_scan", "ios": "https://dc.lft.to/lastmile_qr_scan"}, "fusion_lon": 0.0}, {"lat": 38.91760933333333, "is_disabled": 0, "type": "electric_scooter", "lon": -77.0045195, "bike_id": "c0198da6d787b0f52acabd93853bfe24", "fusion_lat": 0.0, "name": "c0198da6d787b0f52acabd93853bfe24", "is_reserved": 0, "rental_uris": {"android": "https://dc.lft.to/lastmile_qr_scan", "ios": "https://dc.lft.to/lastmile_qr_scan"}, "fusion_lon": 0.0}, {"lat": 38.92168933333333, "is_disabled": 0, "type": "electric_scooter", "lon": -77.05135666666666, "bike_id": "a60c23f957cb692315ddc18f7194b279", "fusion_lat": 0.0, "name": "a60c23f957cb692315ddc18f7194b279", "is_reserved": 0, "rental_uris": {"android": "https://dc.lft.to/lastmile_qr_scan", "ios": "https://dc.lft.to/lastmile_qr_scan"}, "fusion_lon": 0.0}, {"lat": 38.86519883333333, "is_disabled": 0, "type": "electric_scooter", "lon": -76.990317, "bike_id": "34fb38bd90d7e03f1dac822efc67b891", "fusion_lat": 0.0, "name": "34fb38bd90d7e03f1dac822efc67b891", "is_reserved": 0, "rental_uris": {"android": "https://dc.lft.to/lastmile_qr_scan", "ios": "https://dc.lft.to/lastmile_qr_scan"}, "fusion_lon": 0.0}, {"lat": 38.89221833333333, "is_disabled": 0, "type": "electric_scooter", "lon": -77.04866466666667, "bike_id": "71a1a8cb0ed066ebbd5fd242d59a966c", "fusion_lat": 0.0, "name": "71a1a8cb0ed066ebbd5fd242d59a966c", "is_reserved": 0, "rental_uris": {"android": "https://dc.lft.to/lastmile_qr_scan", "ios": "https://dc.lft.to/lastmile_qr_scan"}, "fusion_lon": 0.0}, {"lat": 38.91000283333333, "is_disabled": 0, "type": "electric_scooter", "lon": -77.04004983333333, "bike_id": "5f863fd7cd3fb454a42cad7c0b903771", "fusion_lat": 0.0, "name": "5f863fd7cd3fb454a42cad7c0b903771", "is_reserved": 0, "rental_uris": {"android": "https://dc.lft.to/lastmile_qr_scan", "ios": "https://dc.lft.to/lastmile_qr_scan"}, "fusion_lon": 0.0}, {"lat": 38.852243333333334, "is_disabled": 0, "type": "electric_bike", "lon": -77.12943483333333, "bike_id": "13f09b3a205c047131bd0910d9d56454", "fusion_lat": 0.0, "name": "13f09b3a205c047131bd0910d9d56454", "is_reserved": 0, "rental_uris": {"android": "https://dc.lft.to/lastmile_qr_scan", "ios": "https://dc.lft.to/lastmile_qr_scan"}, "fusion_lon": 0.0}, {"lat": 38.92155866666667, "is_disabled": 0, "type": "electric_scooter", "lon": -77.040232, "bike_id": "88195780c753eed44e1fcfdd4b523346", "fusion_lat": 0.0, "name": "88195780c753eed44e1fcfdd4b523346", "is_reserved": 0, "rental_uris": {"android": "https://dc.lft.to/lastmile_qr_scan", "ios": "https://dc.lft.to/lastmile_qr_scan"}, "fusion_lon": 0.0}, {"lat": 38.90053966666667, "is_disabled": 0, "type": "electric_scooter", "lon": -77.007394, "bike_id": "f4be609e1733fe582518f3c9f3cb74c8", "fusion_lat": 0.0, "name": "f4be609e1733fe582518f3c9f3cb74c8", "is_reserved": 0, "rental_uris": {"android": "https://dc.lft.to/lastmile_qr_scan", "ios": "https://dc.lft.to/lastmile_qr_scan"}, "fusion_lon": 0.0}, {"lat": 38.92469766666667, "is_disabled": 0, "type": "electric_scooter", "lon": -77.03533133333333, "bike_id": "a401a974bb3b66a6c78e263cb8158fc7", "fusion_lat": 0.0, "name": "a401a974bb3b66a6c78e263cb8158fc7", "is_reserved": 0, "rental_uris": {"android": "https://dc.lft.to/lastmile_qr_scan", "ios": "https://dc.lft.to/lastmile_qr_scan"}, "fusion_lon": 0.0}, {"lat": 38.93229083333333, "is_disabled": 0, "type": "electric_scooter", "lon": -77.0440445, "bike_id": "b1551c68a9bad6098a9b000f4486c6aa", "fusion_lat": 0.0, "name": "b1551c68a9bad6098a9b000f4486c6aa", "is_reserved": 0, "rental_uris": {"android": "https://dc.lft.to/lastmile_qr_scan", "ios": "https://dc.lft.to/lastmile_qr_scan"}, "fusion_lon": 0.0}, {"lat": 38.95898016666666, "is_disabled": 0, "type": "electric_bike", "lon": -76.92479833333333, "bike_id": "a39962a82b1af5f2c30db9e13ed75ed9", "fusion_lat": 0.0, "name": "a39962a82b1af5f2c30db9e13ed75ed9", "is_reserved": 0, "rental_uris": {"android": "https://dc.lft.to/lastmile_qr_scan", "ios": "https://dc.lft.to/lastmile_qr_scan"}, "fusion_lon": 0.0}, {"lat": 38.914233, "is_disabled": 0, "type": "electric_scooter", "lon": -77.031859, "bike_id": "3991a11dbb61d8ae116db658ab9d7ddf", "fusion_lat": 0.0, "name": "3991a11dbb61d8ae116db658ab9d7ddf", "is_reserved": 0, "rental_uris": {"android": "https://dc.lft.to/lastmile_qr_scan", "ios": "https://dc.lft.to/lastmile_qr_scan"}, "fusion_lon": 0.0}, {"lat": 38.93124133333333, "is_disabled": 0, "type": "electric_scooter", "lon": -77.033978, "bike_id": "1d6179b74d9e0f294b713c8d7d2fd73a", "fusion_lat": 0.0, "name": "1d6179b74d9e0f294b713c8d7d2fd73a", "is_reserved": 0, "rental_uris": {"android": "https://dc.lft.to/lastmile_qr_scan", "ios": "https://dc.lft.to/lastmile_qr_scan"}, "fusion_lon": 0.0}, {"lat": 38.90279133333333, "is_disabled": 0, "type": "electric_scooter", "lon": -77.063604, "bike_id": "9d8741ec3bc67b44ad9a5ce156e817e8", "fusion_lat": 0.0, "name": "9d8741ec3bc67b44ad9a5ce156e817e8", "is_reserved": 0, "rental_uris": {"android": "https://dc.lft.to/lastmile_qr_scan", "ios": "https://dc.lft.to/lastmile_qr_scan"}, "fusion_lon": 0.0}, {"lat": 38.912626833333334, "is_disabled": 0, "type": "electric_scooter", "lon": -77.04479783333333, "bike_id": "307fdbe711e03fd4d8d89283827fd4d1", "fusion_lat": 0.0, "name": "307fdbe711e03fd4d8d89283827fd4d1", "is_reserved": 0, "rental_uris": {"android": "https://dc.lft.to/lastmile_qr_scan", "ios": "https://dc.lft.to/lastmile_qr_scan"}, "fusion_lon": 0.0}, {"lat": 38.843378666666666, "is_disabled": 0, "type": "electric_bike", "lon": -77.11481616666667, "bike_id": "8f3d376a23b1dafde4b616c8e2dd0185", "fusion_lat": 0.0, "name": "8f3d376a23b1dafde4b616c8e2dd0185", "is_reserved": 0, "rental_uris": {"android": "https://dc.lft.to/lastmile_qr_scan", "ios": "https://dc.lft.to/lastmile_qr_scan"}, "fusion_lon": 0.0}, {"lat": 38.9118655, "is_disabled": 0, "type": "electric_scooter", "lon": -77.0432825, "bike_id": "ac23f9b820aa113b272cd13c06f33593", "fusion_lat": 0.0, "name": "ac23f9b820aa113b272cd13c06f33593", "is_reserved": 0, "rental_uris": {"android": "https://dc.lft.to/lastmile_qr_scan", "ios": "https://dc.lft.to/lastmile_qr_scan"}, "fusion_lon": 0.0}, {"lat": 38.917079333333334, "is_disabled": 0, "type": "electric_scooter", "lon": -77.02462966666667, "bike_id": "336bef8fd82a2e718167a7adb2cb99c4", "fusion_lat": 0.0, "name": "336bef8fd82a2e718167a7adb2cb99c4", "is_reserved": 0, "rental_uris": {"android": "https://dc.lft.to/lastmile_qr_scan", "ios": "https://dc.lft.to/lastmile_qr_scan"}, "fusion_lon": 0.0}, {"lat": 38.93471183333333, "is_disabled": 0, "type": "electric_scooter", "lon": -77.024073, "bike_id": "1792b37a4f5c97e60e4af4ec9a652bef", "fusion_lat": 0.0, "name": "1792b37a4f5c97e60e4af4ec9a652bef", "is_reserved": 0, "rental_uris": {"android": "https://dc.lft.to/lastmile_qr_scan", "ios": "https://dc.lft.to/lastmile_qr_scan"}, "fusion_lon": 0.0}, {"lat": 38.89351416666667, "is_disabled": 0, "type": "electric_scooter", "lon": -77.04136383333334, "bike_id": "e86600561814712d0ac033644038a631", "fusion_lat": 0.0, "name": "e86600561814712d0ac033644038a631", "is_reserved": 0, "rental_uris": {"android": "https://dc.lft.to/lastmile_qr_scan", "ios": "https://dc.lft.to/lastmile_qr_scan"}, "fusion_lon": 0.0}, {"lat": 38.912752833333336, "is_disabled": 0, "type": "electric_scooter", "lon": -77.0320555, "bike_id": "11a1ee695e1065e0dde4bd465da9bbf3", "fusion_lat": 0.0, "name": "11a1ee695e1065e0dde4bd465da9bbf3", "is_reserved": 0, "rental_uris": {"android": "https://dc.lft.to/lastmile_qr_scan", "ios": "https://dc.lft.to/lastmile_qr_scan"}, "fusion_lon": 0.0}, {"lat": 38.917195666666665, "is_disabled": 0, "type": "electric_scooter", "lon": -77.024062, "bike_id": "9f87315d621267c414f0a5515da7b154", "fusion_lat": 0.0, "name": "9f87315d621267c414f0a5515da7b154", "is_reserved": 0, "rental_uris": {"android": "https://dc.lft.to/lastmile_qr_scan", "ios": "https://dc.lft.to/lastmile_qr_scan"}, "fusion_lon": 0.0}, {"lat": 38.9491655, "is_disabled": 0, "type": "electric_bike", "lon": -77.007956, "bike_id": "9350214c5a7f16ae5ebe031e61ae1cde", "fusion_lat": 0.0, "name": "9350214c5a7f16ae5ebe031e61ae1cde", "is_reserved": 0, "rental_uris": {"android": "https://dc.lft.to/lastmile_qr_scan", "ios": "https://dc.lft.to/lastmile_qr_scan"}, "fusion_lon": 0.0}, {"lat": 38.92109383333333, "is_disabled": 0, "type": "electric_bike", "lon": -76.9857435, "bike_id": "40c5467b765f12a7c668cf9a8c20c284", "fusion_lat": 0.0, "name": "40c5467b765f12a7c668cf9a8c20c284", "is_reserved": 0, "rental_uris": {"android": "https://dc.lft.to/lastmile_qr_scan", "ios": "https://dc.lft.to/lastmile_qr_scan"}, "fusion_lon": 0.0}, {"lat": 38.900564833333334, "is_disabled": 0, "type": "electric_scooter", "lon": -77.05000983333333, "bike_id": "6f793e7f004d6753b28aecbd5ec4009c", "fusion_lat": 0.0, "name": "6f793e7f004d6753b28aecbd5ec4009c", "is_reserved": 0, "rental_uris": {"android": "https://dc.lft.to/lastmile_qr_scan", "ios": "https://dc.lft.to/lastmile_qr_scan"}, "fusion_lon": 0.0}, {"lat": 38.909395833333335, "is_disabled": 0, "type": "electric_scooter", "lon": -76.98960716666667, "bike_id": "1a4db3751d5ae9257aeb8df2b03f89a2", "fusion_lat": 0.0, "name": "1a4db3751d5ae9257aeb8df2b03f89a2", "is_reserved": 0, "rental_uris": {"android": "https://dc.lft.to/lastmile_qr_scan", "ios": "https://dc.lft.to/lastmile_qr_scan"}, "fusion_lon": 0.0}, {"lat": 38.8670425, "is_disabled": 0, "type": "electric_scooter", "lon": -76.98712233333333, "bike_id": "d6a0b3d886c0ee39bbf8d34dac848d5f", "fusion_lat": 0.0, "name": "d6a0b3d886c0ee39bbf8d34dac848d5f", "is_reserved": 0, "rental_uris": {"android": "https://dc.lft.to/lastmile_qr_scan", "ios": "https://dc.lft.to/lastmile_qr_scan"}, "fusion_lon": 0.0}, {"lat": 38.89818916666667, "is_disabled": 0, "type": "electric_scooter", "lon": -77.0259825, "bike_id": "44cd99196eb1d8536ff1bde347d44774", "fusion_lat": 0.0, "name": "44cd99196eb1d8536ff1bde347d44774", "is_reserved": 0, "rental_uris": {"android": "https://dc.lft.to/lastmile_qr_scan", "ios": "https://dc.lft.to/lastmile_qr_scan"}, "fusion_lon": 0.0}, {"lat": 38.9007045, "is_disabled": 0, "type": "electric_scooter", "lon": -77.02716666666667, "bike_id": "4cb1c88bd0b915263437e4febadf6c3a", "fusion_lat": 0.0, "name": "4cb1c88bd0b915263437e4febadf6c3a", "is_reserved": 0, "rental_uris": {"android": "https://dc.lft.to/lastmile_qr_scan", "ios": "https://dc.lft.to/lastmile_qr_scan"}, "fusion_lon": 0.0}, {"lat": 38.840329, "is_disabled": 0, "type": "electric_bike", "lon": -76.97578533333333, "bike_id": "01211131dd0cb8babbf355177a4c8532", "fusion_lat": 0.0, "name": "01211131dd0cb8babbf355177a4c8532", "is_reserved": 0, "rental_uris": {"android": "https://dc.lft.to/lastmile_qr_scan", "ios": "https://dc.lft.to/lastmile_qr_scan"}, "fusion_lon": 0.0}, {"lat": 38.9578595, "is_disabled": 0, "type": "electric_bike", "lon": -77.02754183333333, "bike_id": "41f627b1d6d6a61215899006f6f83796", "fusion_lat": 0.0, "name": "41f627b1d6d6a61215899006f6f83796", "is_reserved": 0, "rental_uris": {"android": "https://dc.lft.to/lastmile_qr_scan", "ios": "https://dc.lft.to/lastmile_qr_scan"}, "fusion_lon": 0.0}, {"lat": 38.90028733333333, "is_disabled": 0, "type": "electric_scooter", "lon": -76.999013, "bike_id": "c41b9131687ba56413f1ccfb35c32de8", "fusion_lat": 0.0, "name": "c41b9131687ba56413f1ccfb35c32de8", "is_reserved": 0, "rental_uris": {"android": "https://dc.lft.to/lastmile_qr_scan", "ios": "https://dc.lft.to/lastmile_qr_scan"}, "fusion_lon": 0.0}, {"lat": 38.87415466666667, "is_disabled": 0, "type": "electric_bike", "lon": -76.96572583333334, "bike_id": "3ada91b89f0613a076e11441851e05b9", "fusion_lat": 0.0, "name": "3ada91b89f0613a076e11441851e05b9", "is_reserved": 0, "rental_uris": {"android": "https://dc.lft.to/lastmile_qr_scan", "ios": "https://dc.lft.to/lastmile_qr_scan"}, "fusion_lon": 0.0}, {"lat": 38.902884, "is_disabled": 0, "type": "electric_scooter", "lon": -77.0581525, "bike_id": "ddd5b840e194e45489cdb52a33a9fcf4", "fusion_lat": 0.0, "name": "ddd5b840e194e45489cdb52a33a9fcf4", "is_reserved": 0, "rental_uris": {"android": "https://dc.lft.to/lastmile_qr_scan", "ios": "https://dc.lft.to/lastmile_qr_scan"}, "fusion_lon": 0.0}, {"lat": 38.93086016666667, "is_disabled": 0, "type": "electric_scooter", "lon": -77.07750366666667, "bike_id": "3a87c3db5079d1320d19d55926d6fb43", "fusion_lat": 0.0, "name": "3a87c3db5079d1320d19d55926d6fb43", "is_reserved": 0, "rental_uris": {"android": "https://dc.lft.to/lastmile_qr_scan", "ios": "https://dc.lft.to/lastmile_qr_scan"}, "fusion_lon": 0.0}, {"lat": 38.863845, "is_disabled": 0, "type": "electric_scooter", "lon": -76.99248533333333, "bike_id": "2172edae39365aef9fd66504761e35d7", "fusion_lat": 0.0, "name": "2172edae39365aef9fd66504761e35d7", "is_reserved": 0, "rental_uris": {"android": "https://dc.lft.to/lastmile_qr_scan", "ios": "https://dc.lft.to/lastmile_qr_scan"}, "fusion_lon": 0.0}, {"lat": 38.923413, "is_disabled": 0, "type": "electric_scooter", "lon": -77.04397483333334, "bike_id": "92064d762991500f2b296dda271b8f4e", "fusion_lat": 0.0, "name": "92064d762991500f2b296dda271b8f4e", "is_reserved": 0, "rental_uris": {"android": "https://dc.lft.to/lastmile_qr_scan", "ios": "https://dc.lft.to/lastmile_qr_scan"}, "fusion_lon": 0.0}, {"lat": 38.909746166666665, "is_disabled": 0, "type": "electric_scooter", "lon": -77.024109, "bike_id": "7039d5df9c7e1116e2313507cfc946af", "fusion_lat": 0.0, "name": "7039d5df9c7e1116e2313507cfc946af", "is_reserved": 0, "rental_uris": {"android": "https://dc.lft.to/lastmile_qr_scan", "ios": "https://dc.lft.to/lastmile_qr_scan"}, "fusion_lon": 0.0}, {"lat": 38.90962233333333, "is_disabled": 0, "type": "electric_scooter", "lon": -77.03809016666666, "bike_id": "3a68c9603341a5a9f2e5c24d5336e769", "fusion_lat": 0.0, "name": "3a68c9603341a5a9f2e5c24d5336e769", "is_reserved": 0, "rental_uris": {"android": "https://dc.lft.to/lastmile_qr_scan", "ios": "https://dc.lft.to/lastmile_qr_scan"}, "fusion_lon": 0.0}, {"lat": 38.91821916666667, "is_disabled": 0, "type": "electric_scooter", "lon": -77.02424033333334, "bike_id": "3779019f51f23640376e13c22666afb9", "fusion_lat": 0.0, "name": "3779019f51f23640376e13c22666afb9", "is_reserved": 0, "rental_uris": {"android": "https://dc.lft.to/lastmile_qr_scan", "ios": "https://dc.lft.to/lastmile_qr_scan"}, "fusion_lon": 0.0}, {"lat": 38.90319383333333, "is_disabled": 0, "type": "electric_bike", "lon": -77.06280816666667, "bike_id": "0e1baa8b82c5653ede4b908031dca6e9", "fusion_lat": 0.0, "name": "0e1baa8b82c5653ede4b908031dca6e9", "is_reserved": 0, "rental_uris": {"android": "https://dc.lft.to/lastmile_qr_scan", "ios": "https://dc.lft.to/lastmile_qr_scan"}, "fusion_lon": 0.0}, {"lat": 38.943133, "is_disabled": 0, "type": "electric_scooter", "lon": -77.0592715, "bike_id": "592d593edcd0e85a3f9c29ed7542c500", "fusion_lat": 0.0, "name": "592d593edcd0e85a3f9c29ed7542c500", "is_reserved": 0, "rental_uris": {"android": "https://dc.lft.to/lastmile_qr_scan", "ios": "https://dc.lft.to/lastmile_qr_scan"}, "fusion_lon": 0.0}, {"lat": 38.854522333333335, "is_disabled": 0, "type": "electric_scooter", "lon": -76.97223333333334, "bike_id": "4118e45fb0266b904ac86f7bca12c654", "fusion_lat": 0.0, "name": "4118e45fb0266b904ac86f7bca12c654", "is_reserved": 0, "rental_uris": {"android": "https://dc.lft.to/lastmile_qr_scan", "ios": "https://dc.lft.to/lastmile_qr_scan"}, "fusion_lon": 0.0}, {"lat": 38.978378, "is_disabled": 0, "type": "electric_bike", "lon": -77.0264415, "bike_id": "66b1c78b37aa5d79535c4aab389acc5c", "fusion_lat": 0.0, "name": "66b1c78b37aa5d79535c4aab389acc5c", "is_reserved": 0, "rental_uris": {"android": "https://dc.lft.to/lastmile_qr_scan", "ios": "https://dc.lft.to/lastmile_qr_scan"}, "fusion_lon": 0.0}, {"lat": 38.914259333333334, "is_disabled": 0, "type": "electric_scooter", "lon": -77.02409733333333, "bike_id": "c41b13a38129d6654131985190268e76", "fusion_lat": 0.0, "name": "c41b13a38129d6654131985190268e76", "is_reserved": 0, "rental_uris": {"android": "https://dc.lft.to/lastmile_qr_scan", "ios": "https://dc.lft.to/lastmile_qr_scan"}, "fusion_lon": 0.0}, {"lat": 38.897609, "is_disabled": 0, "type": "electric_scooter", "lon": -77.0549965, "bike_id": "0a654bccfdbf795f5a4af89dcb1cdc1a", "fusion_lat": 0.0, "name": "0a654bccfdbf795f5a4af89dcb1cdc1a", "is_reserved": 0, "rental_uris": {"android": "https://dc.lft.to/lastmile_qr_scan", "ios": "https://dc.lft.to/lastmile_qr_scan"}, "fusion_lon": 0.0}, {"lat": 38.93216183333333, "is_disabled": 0, "type": "electric_scooter", "lon": -77.03511433333334, "bike_id": "49b159b0d0559cb6f91d578ebaaf7b58", "fusion_lat": 0.0, "name": "49b159b0d0559cb6f91d578ebaaf7b58", "is_reserved": 0, "rental_uris": {"android": "https://dc.lft.to/lastmile_qr_scan", "ios": "https://dc.lft.to/lastmile_qr_scan"}, "fusion_lon": 0.0}, {"lat": 38.922109, "is_disabled": 0, "type": "electric_bike", "lon": -76.9879485, "bike_id": "62b5e032c37d8398c460aa517afe36e4", "fusion_lat": 0.0, "name": "62b5e032c37d8398c460aa517afe36e4", "is_reserved": 0, "rental_uris": {"android": "https://dc.lft.to/lastmile_qr_scan", "ios": "https://dc.lft.to/lastmile_qr_scan"}, "fusion_lon": 0.0}, {"lat": 38.8762935, "is_disabled": 0, "type": "electric_scooter", "lon": -76.96526616666667, "bike_id": "35ad826ae139446b329bcab7b065d4ed", "fusion_lat": 0.0, "name": "35ad826ae139446b329bcab7b065d4ed", "is_reserved": 0, "rental_uris": {"android": "https://dc.lft.to/lastmile_qr_scan", "ios": "https://dc.lft.to/lastmile_qr_scan"}, "fusion_lon": 0.0}, {"lat": 38.91483683333333, "is_disabled": 0, "type": "electric_scooter", "lon": -76.98362883333333, "bike_id": "7af08bda4d443b4d1b151a1358443dc9", "fusion_lat": 0.0, "name": "7af08bda4d443b4d1b151a1358443dc9", "is_reserved": 0, "rental_uris": {"android": "https://dc.lft.to/lastmile_qr_scan", "ios": "https://dc.lft.to/lastmile_qr_scan"}, "fusion_lon": 0.0}, {"lat": 38.932060166666666, "is_disabled": 0, "type": "electric_scooter", "lon": -77.044191, "bike_id": "82a6a3e05052e275d3f71c5b5cbaa1fd", "fusion_lat": 0.0, "name": "82a6a3e05052e275d3f71c5b5cbaa1fd", "is_reserved": 0, "rental_uris": {"android": "https://dc.lft.to/lastmile_qr_scan", "ios": "https://dc.lft.to/lastmile_qr_scan"}, "fusion_lon": 0.0}, {"lat": 38.9507265, "is_disabled": 0, "type": "electric_scooter", "lon": -77.02716166666667, "bike_id": "0032016cde2299017600b4e467937cca", "fusion_lat": 0.0, "name": "0032016cde2299017600b4e467937cca", "is_reserved": 0, "rental_uris": {"android": "https://dc.lft.to/lastmile_qr_scan", "ios": "https://dc.lft.to/lastmile_qr_scan"}, "fusion_lon": 0.0}, {"lat": 38.914195166666666, "is_disabled": 0, "type": "electric_scooter", "lon": -77.01615616666666, "bike_id": "d4995aaa240e160e6018c096aac6fca2", "fusion_lat": 0.0, "name": "d4995aaa240e160e6018c096aac6fca2", "is_reserved": 0, "rental_uris": {"android": "https://dc.lft.to/lastmile_qr_scan", "ios": "https://dc.lft.to/lastmile_qr_scan"}, "fusion_lon": 0.0}, {"lat": 38.925751166666664, "is_disabled": 0, "type": "electric_scooter", "lon": -77.05772116666667, "bike_id": "1554cde165edd69d7b87acf836ad6cac", "fusion_lat": 0.0, "name": "1554cde165edd69d7b87acf836ad6cac", "is_reserved": 0, "rental_uris": {"android": "https://dc.lft.to/lastmile_qr_scan", "ios": "https://dc.lft.to/lastmile_qr_scan"}, "fusion_lon": 0.0}, {"lat": 38.9282755, "is_disabled": 0, "type": "electric_scooter", "lon": -77.02256466666667, "bike_id": "0163e1700697145ff6e370e15ea13be3", "fusion_lat": 0.0, "name": "0163e1700697145ff6e370e15ea13be3", "is_reserved": 0, "rental_uris": {"android": "https://dc.lft.to/lastmile_qr_scan", "ios": "https://dc.lft.to/lastmile_qr_scan"}, "fusion_lon": 0.0}, {"lat": 38.88637, "is_disabled": 0, "type": "electric_scooter", "lon": -77.02171283333334, "bike_id": "0284ef80645424e0aac1e777183bf5f0", "fusion_lat": 0.0, "name": "0284ef80645424e0aac1e777183bf5f0", "is_reserved": 0, "rental_uris": {"android": "https://dc.lft.to/lastmile_qr_scan", "ios": "https://dc.lft.to/lastmile_qr_scan"}, "fusion_lon": 0.0}, {"lat": 38.924510833333336, "is_disabled": 0, "type": "electric_scooter", "lon": -77.04018633333334, "bike_id": "439745b6befb49cbbb809edefdc21567", "fusion_lat": 0.0, "name": "439745b6befb49cbbb809edefdc21567", "is_reserved": 0, "rental_uris": {"android": "https://dc.lft.to/lastmile_qr_scan", "ios": "https://dc.lft.to/lastmile_qr_scan"}, "fusion_lon": 0.0}, {"lat": 38.85502, "is_disabled": 0, "type": "electric_bike", "lon": -77.12049066666667, "bike_id": "d8c28df13e9e398c3c8a692c7563da2d", "fusion_lat": 0.0, "name": "d8c28df13e9e398c3c8a692c7563da2d", "is_reserved": 0, "rental_uris": {"android": "https://dc.lft.to/lastmile_qr_scan", "ios": "https://dc.lft.to/lastmile_qr_scan"}, "fusion_lon": 0.0}, {"lat": 38.92152333333333, "is_disabled": 0, "type": "electric_scooter", "lon": -77.035203, "bike_id": "52b4ac89e5323cc7f5b8a6ed6e9fc4d1", "fusion_lat": 0.0, "name": "52b4ac89e5323cc7f5b8a6ed6e9fc4d1", "is_reserved": 0, "rental_uris": {"android": "https://dc.lft.to/lastmile_qr_scan", "ios": "https://dc.lft.to/lastmile_qr_scan"}, "fusion_lon": 0.0}, {"lat": 38.92806066666667, "is_disabled": 0, "type": "electric_scooter", "lon": -77.05420816666667, "bike_id": "66bcc11ae76e4c19f1daf3f3f9fb99de", "fusion_lat": 0.0, "name": "66bcc11ae76e4c19f1daf3f3f9fb99de", "is_reserved": 0, "rental_uris": {"android": "https://dc.lft.to/lastmile_qr_scan", "ios": "https://dc.lft.to/lastmile_qr_scan"}, "fusion_lon": 0.0}, {"lat": 38.912507833333336, "is_disabled": 0, "type": "electric_scooter", "lon": -77.01993633333333, "bike_id": "a9d3f192bc9a3d284e71c5b81b9f3eac", "fusion_lat": 0.0, "name": "a9d3f192bc9a3d284e71c5b81b9f3eac", "is_reserved": 0, "rental_uris": {"android": "https://dc.lft.to/lastmile_qr_scan", "ios": "https://dc.lft.to/lastmile_qr_scan"}, "fusion_lon": 0.0}, {"lat": 38.9156555, "is_disabled": 0, "type": "electric_scooter", "lon": -77.03668266666666, "bike_id": "01579bd65816e86a0ca4059bf002885f", "fusion_lat": 0.0, "name": "01579bd65816e86a0ca4059bf002885f", "is_reserved": 0, "rental_uris": {"android": "https://dc.lft.to/lastmile_qr_scan", "ios": "https://dc.lft.to/lastmile_qr_scan"}, "fusion_lon": 0.0}, {"lat": 38.91878966666667, "is_disabled": 0, "type": "electric_scooter", "lon": -77.035066, "bike_id": "3df3bf37da1fdd54728ec939df1ede3c", "fusion_lat": 0.0, "name": "3df3bf37da1fdd54728ec939df1ede3c", "is_reserved": 0, "rental_uris": {"android": "https://dc.lft.to/lastmile_qr_scan", "ios": "https://dc.lft.to/lastmile_qr_scan"}, "fusion_lon": 0.0}, {"lat": 38.908631, "is_disabled": 0, "type": "electric_bike", "lon": -76.94008783333334, "bike_id": "a1e0aca341c03ff614c15993617f9a80", "fusion_lat": 0.0, "name": "a1e0aca341c03ff614c15993617f9a80", "is_reserved": 0, "rental_uris": {"android": "https://dc.lft.to/lastmile_qr_scan", "ios": "https://dc.lft.to/lastmile_qr_scan"}, "fusion_lon": 0.0}, {"lat": 38.904428333333335, "is_disabled": 0, "type": "electric_scooter", "lon": -77.06119516666666, "bike_id": "17736d904708064e0946efa08430c3cd", "fusion_lat": 0.0, "name": "17736d904708064e0946efa08430c3cd", "is_reserved": 0, "rental_uris": {"android": "https://dc.lft.to/lastmile_qr_scan", "ios": "https://dc.lft.to/lastmile_qr_scan"}, "fusion_lon": 0.0}, {"lat": 38.905873166666666, "is_disabled": 0, "type": "electric_scooter", "lon": -76.98620149999999, "bike_id": "d62b2df5f69e8a6a40583d3cfa3175ad", "fusion_lat": 0.0, "name": "d62b2df5f69e8a6a40583d3cfa3175ad", "is_reserved": 0, "rental_uris": {"android": "https://dc.lft.to/lastmile_qr_scan", "ios": "https://dc.lft.to/lastmile_qr_scan"}, "fusion_lon": 0.0}, {"lat": 38.91707316666667, "is_disabled": 0, "type": "electric_scooter", "lon": -77.03348983333333, "bike_id": "e77a555eab4bcc94f52f439fe7521e79", "fusion_lat": 0.0, "name": "e77a555eab4bcc94f52f439fe7521e79", "is_reserved": 0, "rental_uris": {"android": "https://dc.lft.to/lastmile_qr_scan", "ios": "https://dc.lft.to/lastmile_qr_scan"}, "fusion_lon": 0.0}, {"lat": 38.912715166666665, "is_disabled": 0, "type": "electric_scooter", "lon": -77.0224935, "bike_id": "429a659ae2d79daabc5eceead790ca94", "fusion_lat": 0.0, "name": "429a659ae2d79daabc5eceead790ca94", "is_reserved": 0, "rental_uris": {"android": "https://dc.lft.to/lastmile_qr_scan", "ios": "https://dc.lft.to/lastmile_qr_scan"}, "fusion_lon": 0.0}, {"lat": 38.8965535, "is_disabled": 0, "type": "electric_scooter", "lon": -77.00521583333334, "bike_id": "51307e9547d7e90e3e60d652a93c2dc8", "fusion_lat": 0.0, "name": "51307e9547d7e90e3e60d652a93c2dc8", "is_reserved": 0, "rental_uris": {"android": "https://dc.lft.to/lastmile_qr_scan", "ios": "https://dc.lft.to/lastmile_qr_scan"}, "fusion_lon": 0.0}, {"lat": 38.84506616666667, "is_disabled": 0, "type": "electric_bike", "lon": -76.99354883333334, "bike_id": "b55b38cb47396fd3b55b4d7e50c26304", "fusion_lat": 0.0, "name": "b55b38cb47396fd3b55b4d7e50c26304", "is_reserved": 0, "rental_uris": {"android": "https://dc.lft.to/lastmile_qr_scan", "ios": "https://dc.lft.to/lastmile_qr_scan"}, "fusion_lon": 0.0}, {"lat": 38.91255816666666, "is_disabled": 0, "type": "electric_scooter", "lon": -77.05138816666667, "bike_id": "2d543c5221141cee248fd927e45980a7", "fusion_lat": 0.0, "name": "2d543c5221141cee248fd927e45980a7", "is_reserved": 0, "rental_uris": {"android": "https://dc.lft.to/lastmile_qr_scan", "ios": "https://dc.lft.to/lastmile_qr_scan"}, "fusion_lon": 0.0}, {"lat": 38.86710516666667, "is_disabled": 0, "type": "electric_scooter", "lon": -76.98726433333333, "bike_id": "3e471aaa41c8cdb3dedbb8d542ef0747", "fusion_lat": 0.0, "name": "3e471aaa41c8cdb3dedbb8d542ef0747", "is_reserved": 0, "rental_uris": {"android": "https://dc.lft.to/lastmile_qr_scan", "ios": "https://dc.lft.to/lastmile_qr_scan"}, "fusion_lon": 0.0}, {"lat": 38.911157, "is_disabled": 0, "type": "electric_scooter", "lon": -77.03769366666667, "bike_id": "b579e5659d4b3e58b40142451618f90f", "fusion_lat": 0.0, "name": "b579e5659d4b3e58b40142451618f90f", "is_reserved": 0, "rental_uris": {"android": "https://dc.lft.to/lastmile_qr_scan", "ios": "https://dc.lft.to/lastmile_qr_scan"}, "fusion_lon": 0.0}, {"lat": 38.905613333333335, "is_disabled": 0, "type": "electric_scooter", "lon": -77.01307183333333, "bike_id": "004582279f43f0d9582543d799003ca0", "fusion_lat": 0.0, "name": "004582279f43f0d9582543d799003ca0", "is_reserved": 0, "rental_uris": {"android": "https://dc.lft.to/lastmile_qr_scan", "ios": "https://dc.lft.to/lastmile_qr_scan"}, "fusion_lon": 0.0}, {"lat": 38.9067365, "is_disabled": 0, "type": "electric_scooter", "lon": -77.02396366666666, "bike_id": "e1df39e397509217f44c9b7ece54ca47", "fusion_lat": 0.0, "name": "e1df39e397509217f44c9b7ece54ca47", "is_reserved": 0, "rental_uris": {"android": "https://dc.lft.to/lastmile_qr_scan", "ios": "https://dc.lft.to/lastmile_qr_scan"}, "fusion_lon": 0.0}, {"lat": 38.92170133333333, "is_disabled": 0, "type": "electric_scooter", "lon": -77.03203833333333, "bike_id": "7ff180626108c154c47b22217f907030", "fusion_lat": 0.0, "name": "7ff180626108c154c47b22217f907030", "is_reserved": 0, "rental_uris": {"android": "https://dc.lft.to/lastmile_qr_scan", "ios": "https://dc.lft.to/lastmile_qr_scan"}, "fusion_lon": 0.0}, {"lat": 38.91744466666667, "is_disabled": 0, "type": "electric_scooter", "lon": -77.03206416666667, "bike_id": "1c9436529f21b585bdf0f89d832c0e86", "fusion_lat": 0.0, "name": "1c9436529f21b585bdf0f89d832c0e86", "is_reserved": 0, "rental_uris": {"android": "https://dc.lft.to/lastmile_qr_scan", "ios": "https://dc.lft.to/lastmile_qr_scan"}, "fusion_lon": 0.0}, {"lat": 38.945196833333334, "is_disabled": 0, "type": "electric_scooter", "lon": -76.97955883333333, "bike_id": "5699e3e21a7dcfb876c6d7211c48afa5", "fusion_lat": 0.0, "name": "5699e3e21a7dcfb876c6d7211c48afa5", "is_reserved": 0, "rental_uris": {"android": "https://dc.lft.to/lastmile_qr_scan", "ios": "https://dc.lft.to/lastmile_qr_scan"}, "fusion_lon": 0.0}, {"lat": 38.85019883333333, "is_disabled": 0, "type": "electric_bike", "lon": -77.098107, "bike_id": "ce0a42c62825821f264f6618a8f17f32", "fusion_lat": 0.0, "name": "ce0a42c62825821f264f6618a8f17f32", "is_reserved": 0, "rental_uris": {"android": "https://dc.lft.to/lastmile_qr_scan", "ios": "https://dc.lft.to/lastmile_qr_scan"}, "fusion_lon": 0.0}, {"lat": 38.902529, "is_disabled": 0, "type": "electric_scooter", "lon": -77.05271766666667, "bike_id": "1b00e810b98f4c55f1ff9b3a92eb945a", "fusion_lat": 0.0, "name": "1b00e810b98f4c55f1ff9b3a92eb945a", "is_reserved": 0, "rental_uris": {"android": "https://dc.lft.to/lastmile_qr_scan", "ios": "https://dc.lft.to/lastmile_qr_scan"}, "fusion_lon": 0.0}, {"lat": 38.884779, "is_disabled": 0, "type": "electric_scooter", "lon": -76.94528016666666, "bike_id": "6be43e56b51c2b80ce2ddea65cc416c8", "fusion_lat": 0.0, "name": "6be43e56b51c2b80ce2ddea65cc416c8", "is_reserved": 0, "rental_uris": {"android": "https://dc.lft.to/lastmile_qr_scan", "ios": "https://dc.lft.to/lastmile_qr_scan"}, "fusion_lon": 0.0}, {"lat": 38.91745216666666, "is_disabled": 0, "type": "electric_scooter", "lon": -77.0318275, "bike_id": "4b19b53fd2efb770bf91acea8c5f1dbe", "fusion_lat": 0.0, "name": "4b19b53fd2efb770bf91acea8c5f1dbe", "is_reserved": 0, "rental_uris": {"android": "https://dc.lft.to/lastmile_qr_scan", "ios": "https://dc.lft.to/lastmile_qr_scan"}, "fusion_lon": 0.0}, {"lat": 38.930711, "is_disabled": 0, "type": "electric_scooter", "lon": -77.07763616666666, "bike_id": "e5795ffb594813a8be00cf2feee7a49a", "fusion_lat": 0.0, "name": "e5795ffb594813a8be00cf2feee7a49a", "is_reserved": 0, "rental_uris": {"android": "https://dc.lft.to/lastmile_qr_scan", "ios": "https://dc.lft.to/lastmile_qr_scan"}, "fusion_lon": 0.0}, {"lat": 38.91902816666666, "is_disabled": 0, "type": "electric_scooter", "lon": -77.0178695, "bike_id": "f1a28babb9440ba418a0544045589410", "fusion_lat": 0.0, "name": "f1a28babb9440ba418a0544045589410", "is_reserved": 0, "rental_uris": {"android": "https://dc.lft.to/lastmile_qr_scan", "ios": "https://dc.lft.to/lastmile_qr_scan"}, "fusion_lon": 0.0}, {"lat": 38.900202166666666, "is_disabled": 0, "type": "electric_scooter", "lon": -76.983731, "bike_id": "c97d26fadfea08468ac70a585705eb59", "fusion_lat": 0.0, "name": "c97d26fadfea08468ac70a585705eb59", "is_reserved": 0, "rental_uris": {"android": "https://dc.lft.to/lastmile_qr_scan", "ios": "https://dc.lft.to/lastmile_qr_scan"}, "fusion_lon": 0.0}, {"lat": 38.93144516666667, "is_disabled": 0, "type": "electric_scooter", "lon": -77.0213955, "bike_id": "438cb7eb898a556fdd309d806ec5e767", "fusion_lat": 0.0, "name": "438cb7eb898a556fdd309d806ec5e767", "is_reserved": 0, "rental_uris": {"android": "https://dc.lft.to/lastmile_qr_scan", "ios": "https://dc.lft.to/lastmile_qr_scan"}, "fusion_lon": 0.0}, {"lat": 38.92220833333333, "is_disabled": 0, "type": "electric_scooter", "lon": -77.04017416666667, "bike_id": "2dcd860636b131aa873e223536dea4ef", "fusion_lat": 0.0, "name": "2dcd860636b131aa873e223536dea4ef", "is_reserved": 0, "rental_uris": {"android": "https://dc.lft.to/lastmile_qr_scan", "ios": "https://dc.lft.to/lastmile_qr_scan"}, "fusion_lon": 0.0}, {"lat": 38.90012683333333, "is_disabled": 0, "type": "electric_scooter", "lon": -77.012004, "bike_id": "bb76d0b1bf8ad30e04b67446f97adc48", "fusion_lat": 0.0, "name": "bb76d0b1bf8ad30e04b67446f97adc48", "is_reserved": 0, "rental_uris": {"android": "https://dc.lft.to/lastmile_qr_scan", "ios": "https://dc.lft.to/lastmile_qr_scan"}, "fusion_lon": 0.0}, {"lat": 38.909761, "is_disabled": 0, "type": "electric_scooter", "lon": -77.0386745, "bike_id": "88e04e46d2dfd295ca4b11c889af8202", "fusion_lat": 0.0, "name": "88e04e46d2dfd295ca4b11c889af8202", "is_reserved": 0, "rental_uris": {"android": "https://dc.lft.to/lastmile_qr_scan", "ios": "https://dc.lft.to/lastmile_qr_scan"}, "fusion_lon": 0.0}, {"lat": 38.90533716666667, "is_disabled": 0, "type": "electric_scooter", "lon": -77.05713483333334, "bike_id": "d7a8786d40742929e6d092e8faf6ba20", "fusion_lat": 0.0, "name": "d7a8786d40742929e6d092e8faf6ba20", "is_reserved": 0, "rental_uris": {"android": "https://dc.lft.to/lastmile_qr_scan", "ios": "https://dc.lft.to/lastmile_qr_scan"}, "fusion_lon": 0.0}, {"lat": 38.93317283333333, "is_disabled": 0, "type": "electric_scooter", "lon": -77.04519633333334, "bike_id": "3950bda5ea313c31122db28be719071c", "fusion_lat": 0.0, "name": "3950bda5ea313c31122db28be719071c", "is_reserved": 0, "rental_uris": {"android": "https://dc.lft.to/lastmile_qr_scan", "ios": "https://dc.lft.to/lastmile_qr_scan"}, "fusion_lon": 0.0}, {"lat": 38.898839833333334, "is_disabled": 0, "type": "electric_scooter", "lon": -77.020044, "bike_id": "a9ed2d4e5a0591c95209cfd60c1963b1", "fusion_lat": 0.0, "name": "a9ed2d4e5a0591c95209cfd60c1963b1", "is_reserved": 0, "rental_uris": {"android": "https://dc.lft.to/lastmile_qr_scan", "ios": "https://dc.lft.to/lastmile_qr_scan"}, "fusion_lon": 0.0}, {"lat": 38.87870566666667, "is_disabled": 0, "type": "electric_scooter", "lon": -77.0073555, "bike_id": "ffadf5565de72776461c76d3986e4cc1", "fusion_lat": 0.0, "name": "ffadf5565de72776461c76d3986e4cc1", "is_reserved": 0, "rental_uris": {"android": "https://dc.lft.to/lastmile_qr_scan", "ios": "https://dc.lft.to/lastmile_qr_scan"}, "fusion_lon": 0.0}, {"lat": 38.906141166666664, "is_disabled": 0, "type": "electric_scooter", "lon": -77.0398935, "bike_id": "d2c0e0a2f1a07213db9a0ebe6968a5e3", "fusion_lat": 0.0, "name": "d2c0e0a2f1a07213db9a0ebe6968a5e3", "is_reserved": 0, "rental_uris": {"android": "https://dc.lft.to/lastmile_qr_scan", "ios": "https://dc.lft.to/lastmile_qr_scan"}, "fusion_lon": 0.0}, {"lat": 38.86676116666667, "is_disabled": 0, "type": "electric_scooter", "lon": -76.98536783333333, "bike_id": "46cf7468a6f866fde3122072829d5f89", "fusion_lat": 0.0, "name": "46cf7468a6f866fde3122072829d5f89", "is_reserved": 0, "rental_uris": {"android": "https://dc.lft.to/lastmile_qr_scan", "ios": "https://dc.lft.to/lastmile_qr_scan"}, "fusion_lon": 0.0}, {"lat": 38.895871666666665, "is_disabled": 0, "type": "electric_scooter", "lon": -77.02589716666667, "bike_id": "7499d0468ec602a28705ff7a8d8f7191", "fusion_lat": 0.0, "name": "7499d0468ec602a28705ff7a8d8f7191", "is_reserved": 0, "rental_uris": {"android": "https://dc.lft.to/lastmile_qr_scan", "ios": "https://dc.lft.to/lastmile_qr_scan"}, "fusion_lon": 0.0}, {"lat": 38.897412333333335, "is_disabled": 0, "type": "electric_scooter", "lon": -77.00074983333333, "bike_id": "36fb2e2cb4c64a119000c09fc17228c9", "fusion_lat": 0.0, "name": "36fb2e2cb4c64a119000c09fc17228c9", "is_reserved": 0, "rental_uris": {"android": "https://dc.lft.to/lastmile_qr_scan", "ios": "https://dc.lft.to/lastmile_qr_scan"}, "fusion_lon": 0.0}, {"lat": 38.917814166666666, "is_disabled": 0, "type": "electric_scooter", "lon": -77.03660066666667, "bike_id": "419b7c08e7b0a8d96162d33e489fa8d3", "fusion_lat": 0.0, "name": "419b7c08e7b0a8d96162d33e489fa8d3", "is_reserved": 0, "rental_uris": {"android": "https://dc.lft.to/lastmile_qr_scan", "ios": "https://dc.lft.to/lastmile_qr_scan"}, "fusion_lon": 0.0}, {"lat": 38.9176855, "is_disabled": 0, "type": "electric_scooter", "lon": -77.02817383333333, "bike_id": "f0453719f1b632a3c752c4a71982d43f", "fusion_lat": 0.0, "name": "f0453719f1b632a3c752c4a71982d43f", "is_reserved": 0, "rental_uris": {"android": "https://dc.lft.to/lastmile_qr_scan", "ios": "https://dc.lft.to/lastmile_qr_scan"}, "fusion_lon": 0.0}, {"lat": 38.877323833333335, "is_disabled": 0, "type": "electric_bike", "lon": -76.98107083333333, "bike_id": "1e3d0dcfc128048d5f38c4a2f40e00c6", "fusion_lat": 0.0, "name": "1e3d0dcfc128048d5f38c4a2f40e00c6", "is_reserved": 0, "rental_uris": {"android": "https://dc.lft.to/lastmile_qr_scan", "ios": "https://dc.lft.to/lastmile_qr_scan"}, "fusion_lon": 0.0}, {"lat": 38.95782783333333, "is_disabled": 0, "type": "electric_scooter", "lon": -77.0275605, "bike_id": "099057b0c1a89bb4a42b0c79ef8d73f8", "fusion_lat": 0.0, "name": "099057b0c1a89bb4a42b0c79ef8d73f8", "is_reserved": 0, "rental_uris": {"android": "https://dc.lft.to/lastmile_qr_scan", "ios": "https://dc.lft.to/lastmile_qr_scan"}, "fusion_lon": 0.0}, {"lat": 38.9008095, "is_disabled": 0, "type": "electric_scooter", "lon": -77.04903483333334, "bike_id": "bba9fe81e7cab6d90120deafad94ffce", "fusion_lat": 0.0, "name": "bba9fe81e7cab6d90120deafad94ffce", "is_reserved": 0, "rental_uris": {"android": "https://dc.lft.to/lastmile_qr_scan", "ios": "https://dc.lft.to/lastmile_qr_scan"}, "fusion_lon": 0.0}, {"lat": 38.917111, "is_disabled": 0, "type": "electric_scooter", "lon": -77.0294885, "bike_id": "d92fb6cc4958668f559d58476c39303e", "fusion_lat": 0.0, "name": "d92fb6cc4958668f559d58476c39303e", "is_reserved": 0, "rental_uris": {"android": "https://dc.lft.to/lastmile_qr_scan", "ios": "https://dc.lft.to/lastmile_qr_scan"}, "fusion_lon": 0.0}, {"lat": 38.91778083333333, "is_disabled": 0, "type": "electric_scooter", "lon": -77.043376, "bike_id": "3a4adee30e3f376e55aba7d6369e809c", "fusion_lat": 0.0, "name": "3a4adee30e3f376e55aba7d6369e809c", "is_reserved": 0, "rental_uris": {"android": "https://dc.lft.to/lastmile_qr_scan", "ios": "https://dc.lft.to/lastmile_qr_scan"}, "fusion_lon": 0.0}, {"lat": 38.956529, "is_disabled": 0, "type": "electric_scooter", "lon": -77.02393916666666, "bike_id": "380b47dfd17926ca8df9cd5ca80af4f9", "fusion_lat": 0.0, "name": "380b47dfd17926ca8df9cd5ca80af4f9", "is_reserved": 0, "rental_uris": {"android": "https://dc.lft.to/lastmile_qr_scan", "ios": "https://dc.lft.to/lastmile_qr_scan"}, "fusion_lon": 0.0}, {"lat": 38.91977116666666, "is_disabled": 0, "type": "electric_scooter", "lon": -77.023966, "bike_id": "434f7d987d50ad4cbedc721b2e578cb3", "fusion_lat": 0.0, "name": "434f7d987d50ad4cbedc721b2e578cb3", "is_reserved": 0, "rental_uris": {"android": "https://dc.lft.to/lastmile_qr_scan", "ios": "https://dc.lft.to/lastmile_qr_scan"}, "fusion_lon": 0.0}, {"lat": 38.908782333333335, "is_disabled": 0, "type": "electric_scooter", "lon": -77.036665, "bike_id": "46ce342070018425bd1e1c7db600c14e", "fusion_lat": 0.0, "name": "46ce342070018425bd1e1c7db600c14e", "is_reserved": 0, "rental_uris": {"android": "https://dc.lft.to/lastmile_qr_scan", "ios": "https://dc.lft.to/lastmile_qr_scan"}, "fusion_lon": 0.0}, {"lat": 38.89737, "is_disabled": 0, "type": "electric_scooter", "lon": -77.00782533333333, "bike_id": "67a21a2ce884c3163859d13a27572ff1", "fusion_lat": 0.0, "name": "67a21a2ce884c3163859d13a27572ff1", "is_reserved": 0, "rental_uris": {"android": "https://dc.lft.to/lastmile_qr_scan", "ios": "https://dc.lft.to/lastmile_qr_scan"}, "fusion_lon": 0.0}, {"lat": 38.922882666666666, "is_disabled": 0, "type": "electric_scooter", "lon": -77.0425815, "bike_id": "94fe74b052df3d2a61a66b1b5ffe4487", "fusion_lat": 0.0, "name": "94fe74b052df3d2a61a66b1b5ffe4487", "is_reserved": 0, "rental_uris": {"android": "https://dc.lft.to/lastmile_qr_scan", "ios": "https://dc.lft.to/lastmile_qr_scan"}, "fusion_lon": 0.0}, {"lat": 38.905302166666665, "is_disabled": 0, "type": "electric_scooter", "lon": -77.06243, "bike_id": "e800d29e7943d7f68f90d03c6b613263", "fusion_lat": 0.0, "name": "e800d29e7943d7f68f90d03c6b613263", "is_reserved": 0, "rental_uris": {"android": "https://dc.lft.to/lastmile_qr_scan", "ios": "https://dc.lft.to/lastmile_qr_scan"}, "fusion_lon": 0.0}, {"lat": 38.93322783333333, "is_disabled": 0, "type": "electric_scooter", "lon": -77.04367066666667, "bike_id": "12ed8baf70ba6378f99ab8f073c22bae", "fusion_lat": 0.0, "name": "12ed8baf70ba6378f99ab8f073c22bae", "is_reserved": 0, "rental_uris": {"android": "https://dc.lft.to/lastmile_qr_scan", "ios": "https://dc.lft.to/lastmile_qr_scan"}, "fusion_lon": 0.0}, {"lat": 38.90225816666667, "is_disabled": 0, "type": "electric_scooter", "lon": -77.0605085, "bike_id": "364f7389d91c6a66fb598b3eeccfd971", "fusion_lat": 0.0, "name": "364f7389d91c6a66fb598b3eeccfd971", "is_reserved": 0, "rental_uris": {"android": "https://dc.lft.to/lastmile_qr_scan", "ios": "https://dc.lft.to/lastmile_qr_scan"}, "fusion_lon": 0.0}, {"lat": 38.8556395, "is_disabled": 0, "type": "electric_bike", "lon": -77.11141116666667, "bike_id": "d2d39300caa9d39856d5f6cbb457b697", "fusion_lat": 0.0, "name": "d2d39300caa9d39856d5f6cbb457b697", "is_reserved": 0, "rental_uris": {"android": "https://dc.lft.to/lastmile_qr_scan", "ios": "https://dc.lft.to/lastmile_qr_scan"}, "fusion_lon": 0.0}, {"lat": 38.91955, "is_disabled": 0, "type": "electric_scooter", "lon": -76.98075416666667, "bike_id": "24e344b04cbb5fa07729db3957a15616", "fusion_lat": 0.0, "name": "24e344b04cbb5fa07729db3957a15616", "is_reserved": 0, "rental_uris": {"android": "https://dc.lft.to/lastmile_qr_scan", "ios": "https://dc.lft.to/lastmile_qr_scan"}, "fusion_lon": 0.0}, {"lat": 38.858077333333334, "is_disabled": 0, "type": "electric_scooter", "lon": -76.98654216666667, "bike_id": "d23d4a1a75128d744e21b13d59395542", "fusion_lat": 0.0, "name": "d23d4a1a75128d744e21b13d59395542", "is_reserved": 0, "rental_uris": {"android": "https://dc.lft.to/lastmile_qr_scan", "ios": "https://dc.lft.to/lastmile_qr_scan"}, "fusion_lon": 0.0}, {"lat": 38.901411, "is_disabled": 0, "type": "electric_scooter", "lon": -77.03270366666666, "bike_id": "27df676af265e06979359bfaade7c7ab", "fusion_lat": 0.0, "name": "27df676af265e06979359bfaade7c7ab", "is_reserved": 0, "rental_uris": {"android": "https://dc.lft.to/lastmile_qr_scan", "ios": "https://dc.lft.to/lastmile_qr_scan"}, "fusion_lon": 0.0}, {"lat": 38.96611266666667, "is_disabled": 0, "type": "electric_scooter", "lon": -77.020542, "bike_id": "28777654ace0643528fc56107736e029", "fusion_lat": 0.0, "name": "28777654ace0643528fc56107736e029", "is_reserved": 0, "rental_uris": {"android": "https://dc.lft.to/lastmile_qr_scan", "ios": "https://dc.lft.to/lastmile_qr_scan"}, "fusion_lon": 0.0}, {"lat": 38.91755633333333, "is_disabled": 0, "type": "electric_scooter", "lon": -77.011636, "bike_id": "40720135cf259c1f8e08d2fa3e85c213", "fusion_lat": 0.0, "name": "40720135cf259c1f8e08d2fa3e85c213", "is_reserved": 0, "rental_uris": {"android": "https://dc.lft.to/lastmile_qr_scan", "ios": "https://dc.lft.to/lastmile_qr_scan"}, "fusion_lon": 0.0}, {"lat": 38.90725616666667, "is_disabled": 0, "type": "electric_bike", "lon": -77.010685, "bike_id": "89901154a44db99b31aa75d62dcdca3b", "fusion_lat": 0.0, "name": "89901154a44db99b31aa75d62dcdca3b", "is_reserved": 0, "rental_uris": {"android": "https://dc.lft.to/lastmile_qr_scan", "ios": "https://dc.lft.to/lastmile_qr_scan"}, "fusion_lon": 0.0}, {"lat": 38.920949666666665, "is_disabled": 0, "type": "electric_scooter", "lon": -77.02522183333333, "bike_id": "a1e60fa1afdf4ff0836879c05b7811a0", "fusion_lat": 0.0, "name": "a1e60fa1afdf4ff0836879c05b7811a0", "is_reserved": 0, "rental_uris": {"android": "https://dc.lft.to/lastmile_qr_scan", "ios": "https://dc.lft.to/lastmile_qr_scan"}, "fusion_lon": 0.0}, {"lat": 38.928855166666665, "is_disabled": 0, "type": "electric_scooter", "lon": -77.032687, "bike_id": "e7bbbba5a6191b9057951da589045a94", "fusion_lat": 0.0, "name": "e7bbbba5a6191b9057951da589045a94", "is_reserved": 0, "rental_uris": {"android": "https://dc.lft.to/lastmile_qr_scan", "ios": "https://dc.lft.to/lastmile_qr_scan"}, "fusion_lon": 0.0}, {"lat": 38.98509383333333, "is_disabled": 0, "type": "electric_bike", "lon": -76.9821505, "bike_id": "b40dcc0d3545c064d4ee692e7d7ff77c", "fusion_lat": 0.0, "name": "b40dcc0d3545c064d4ee692e7d7ff77c", "is_reserved": 0, "rental_uris": {"android": "https://dc.lft.to/lastmile_qr_scan", "ios": "https://dc.lft.to/lastmile_qr_scan"}, "fusion_lon": 0.0}, {"lat": 38.890887, "is_disabled": 0, "type": "electric_scooter", "lon": -76.9992245, "bike_id": "3cd1d155ede28e479e73dd9d6e188fe4", "fusion_lat": 0.0, "name": "3cd1d155ede28e479e73dd9d6e188fe4", "is_reserved": 0, "rental_uris": {"android": "https://dc.lft.to/lastmile_qr_scan", "ios": "https://dc.lft.to/lastmile_qr_scan"}, "fusion_lon": 0.0}, {"lat": 38.88829333333334, "is_disabled": 0, "type": "electric_scooter", "lon": -76.99416133333334, "bike_id": "620cfa42bfd2eaff8961293838cf1079", "fusion_lat": 0.0, "name": "620cfa42bfd2eaff8961293838cf1079", "is_reserved": 0, "rental_uris": {"android": "https://dc.lft.to/lastmile_qr_scan", "ios": "https://dc.lft.to/lastmile_qr_scan"}, "fusion_lon": 0.0}, {"lat": 38.805752, "is_disabled": 0, "type": "electric_bike", "lon": -77.068599, "bike_id": "eaf274775f832d203c97a928a4f1228a", "fusion_lat": 0.0, "name": "eaf274775f832d203c97a928a4f1228a", "is_reserved": 0, "rental_uris": {"android": "https://dc.lft.to/lastmile_qr_scan", "ios": "https://dc.lft.to/lastmile_qr_scan"}, "fusion_lon": 0.0}, {"lat": 38.909751166666666, "is_disabled": 0, "type": "electric_scooter", "lon": -77.0417545, "bike_id": "2767d854fbbf5afa1c7528d5602460a4", "fusion_lat": 0.0, "name": "2767d854fbbf5afa1c7528d5602460a4", "is_reserved": 0, "rental_uris": {"android": "https://dc.lft.to/lastmile_qr_scan", "ios": "https://dc.lft.to/lastmile_qr_scan"}, "fusion_lon": 0.0}, {"lat": 38.91987783333333, "is_disabled": 0, "type": "electric_scooter", "lon": -77.02528083333333, "bike_id": "ea9a6d519405830522064f0f4bfe533d", "fusion_lat": 0.0, "name": "ea9a6d519405830522064f0f4bfe533d", "is_reserved": 0, "rental_uris": {"android": "https://dc.lft.to/lastmile_qr_scan", "ios": "https://dc.lft.to/lastmile_qr_scan"}, "fusion_lon": 0.0}, {"lat": 38.917435166666664, "is_disabled": 0, "type": "electric_scooter", "lon": -77.032047, "bike_id": "3a389b6f113dd0e66e2cba546fb7ec00", "fusion_lat": 0.0, "name": "3a389b6f113dd0e66e2cba546fb7ec00", "is_reserved": 0, "rental_uris": {"android": "https://dc.lft.to/lastmile_qr_scan", "ios": "https://dc.lft.to/lastmile_qr_scan"}, "fusion_lon": 0.0}, {"lat": 38.9234265, "is_disabled": 0, "type": "electric_bike", "lon": -77.051745, "bike_id": "5f6b5bfb86f6f46e8ca951e9de28ac7c", "fusion_lat": 0.0, "name": "5f6b5bfb86f6f46e8ca951e9de28ac7c", "is_reserved": 0, "rental_uris": {"android": "https://dc.lft.to/lastmile_qr_scan", "ios": "https://dc.lft.to/lastmile_qr_scan"}, "fusion_lon": 0.0}, {"lat": 38.920176166666664, "is_disabled": 0, "type": "electric_scooter", "lon": -77.0195545, "bike_id": "de887795f5fe438e0422f5a2c8e5fbc5", "fusion_lat": 0.0, "name": "de887795f5fe438e0422f5a2c8e5fbc5", "is_reserved": 0, "rental_uris": {"android": "https://dc.lft.to/lastmile_qr_scan", "ios": "https://dc.lft.to/lastmile_qr_scan"}, "fusion_lon": 0.0}, {"lat": 38.98273733333333, "is_disabled": 0, "type": "electric_bike", "lon": -77.01769216666666, "bike_id": "63f1fa0c19bf0e7e99a9f125c2900fc2", "fusion_lat": 0.0, "name": "63f1fa0c19bf0e7e99a9f125c2900fc2", "is_reserved": 0, "rental_uris": {"android": "https://dc.lft.to/lastmile_qr_scan", "ios": "https://dc.lft.to/lastmile_qr_scan"}, "fusion_lon": 0.0}, {"lat": 38.92125983333333, "is_disabled": 0, "type": "electric_scooter", "lon": -77.01165633333333, "bike_id": "ae95bf43b1aa0e2fe459ff8b1ea6c550", "fusion_lat": 0.0, "name": "ae95bf43b1aa0e2fe459ff8b1ea6c550", "is_reserved": 0, "rental_uris": {"android": "https://dc.lft.to/lastmile_qr_scan", "ios": "https://dc.lft.to/lastmile_qr_scan"}, "fusion_lon": 0.0}, {"lat": 38.907316333333334, "is_disabled": 0, "type": "electric_scooter", "lon": -77.03478616666666, "bike_id": "b3a72e4f959293a6fb8327c9116a7415", "fusion_lat": 0.0, "name": "b3a72e4f959293a6fb8327c9116a7415", "is_reserved": 0, "rental_uris": {"android": "https://dc.lft.to/lastmile_qr_scan", "ios": "https://dc.lft.to/lastmile_qr_scan"}, "fusion_lon": 0.0}, {"lat": 38.90358583333333, "is_disabled": 0, "type": "electric_scooter", "lon": -77.04453033333333, "bike_id": "0b69b967f84dfc3d22bb7d78fb213744", "fusion_lat": 0.0, "name": "0b69b967f84dfc3d22bb7d78fb213744", "is_reserved": 0, "rental_uris": {"android": "https://dc.lft.to/lastmile_qr_scan", "ios": "https://dc.lft.to/lastmile_qr_scan"}, "fusion_lon": 0.0}, {"lat": 38.902737, "is_disabled": 0, "type": "electric_scooter", "lon": -77.03963266666666, "bike_id": "9fd6d5b5a6dcc94bbd69407882b8f9e7", "fusion_lat": 0.0, "name": "9fd6d5b5a6dcc94bbd69407882b8f9e7", "is_reserved": 0, "rental_uris": {"android": "https://dc.lft.to/lastmile_qr_scan", "ios": "https://dc.lft.to/lastmile_qr_scan"}, "fusion_lon": 0.0}, {"lat": 38.881552166666665, "is_disabled": 0, "type": "electric_scooter", "lon": -77.02736233333333, "bike_id": "413d26e6ac183ec360cc5e493f4eecd8", "fusion_lat": 0.0, "name": "413d26e6ac183ec360cc5e493f4eecd8", "is_reserved": 0, "rental_uris": {"android": "https://dc.lft.to/lastmile_qr_scan", "ios": "https://dc.lft.to/lastmile_qr_scan"}, "fusion_lon": 0.0}, {"lat": 38.933598, "is_disabled": 0, "type": "electric_bike", "lon": -77.099607, "bike_id": "75aeb3ad7194b7cad1ae1c397b24f478", "fusion_lat": 0.0, "name": "75aeb3ad7194b7cad1ae1c397b24f478", "is_reserved": 0, "rental_uris": {"android": "https://dc.lft.to/lastmile_qr_scan", "ios": "https://dc.lft.to/lastmile_qr_scan"}, "fusion_lon": 0.0}, {"lat": 38.9284185, "is_disabled": 0, "type": "electric_scooter", "lon": -77.01384533333334, "bike_id": "a2956dcdfb1deb1b187179c348c0c2ab", "fusion_lat": 0.0, "name": "a2956dcdfb1deb1b187179c348c0c2ab", "is_reserved": 0, "rental_uris": {"android": "https://dc.lft.to/lastmile_qr_scan", "ios": "https://dc.lft.to/lastmile_qr_scan"}, "fusion_lon": 0.0}, {"lat": 38.951620166666665, "is_disabled": 0, "type": "electric_bike", "lon": -76.96901716666666, "bike_id": "a41c34a510797f0deed141f00351a5cc", "fusion_lat": 0.0, "name": "a41c34a510797f0deed141f00351a5cc", "is_reserved": 0, "rental_uris": {"android": "https://dc.lft.to/lastmile_qr_scan", "ios": "https://dc.lft.to/lastmile_qr_scan"}, "fusion_lon": 0.0}, {"lat": 38.91871483333333, "is_disabled": 0, "type": "electric_scooter", "lon": -77.01210716666667, "bike_id": "c7c71afcb3007260ce9fbf614ce8b474", "fusion_lat": 0.0, "name": "c7c71afcb3007260ce9fbf614ce8b474", "is_reserved": 0, "rental_uris": {"android": "https://dc.lft.to/lastmile_qr_scan", "ios": "https://dc.lft.to/lastmile_qr_scan"}, "fusion_lon": 0.0}, {"lat": 38.900738, "is_disabled": 0, "type": "electric_scooter", "lon": -77.00210183333333, "bike_id": "7dd1d8243c312f20e81ddb1b88f04a1b", "fusion_lat": 0.0, "name": "7dd1d8243c312f20e81ddb1b88f04a1b", "is_reserved": 0, "rental_uris": {"android": "https://dc.lft.to/lastmile_qr_scan", "ios": "https://dc.lft.to/lastmile_qr_scan"}, "fusion_lon": 0.0}, {"lat": 38.91306066666667, "is_disabled": 0, "type": "electric_scooter", "lon": -77.02396566666667, "bike_id": "2be7eefba82446f10b79630d4dc95370", "fusion_lat": 0.0, "name": "2be7eefba82446f10b79630d4dc95370", "is_reserved": 0, "rental_uris": {"android": "https://dc.lft.to/lastmile_qr_scan", "ios": "https://dc.lft.to/lastmile_qr_scan"}, "fusion_lon": 0.0}, {"lat": 38.901167666666666, "is_disabled": 0, "type": "electric_scooter", "lon": -77.03314366666666, "bike_id": "7bf84f99eac9b55aaaa9c04a74c7c9b4", "fusion_lat": 0.0, "name": "7bf84f99eac9b55aaaa9c04a74c7c9b4", "is_reserved": 0, "rental_uris": {"android": "https://dc.lft.to/lastmile_qr_scan", "ios": "https://dc.lft.to/lastmile_qr_scan"}, "fusion_lon": 0.0}, {"lat": 38.954059666666666, "is_disabled": 0, "type": "electric_bike", "lon": -76.98056666666666, "bike_id": "93e455a1e012e4f21e12496759b2165d", "fusion_lat": 0.0, "name": "93e455a1e012e4f21e12496759b2165d", "is_reserved": 0, "rental_uris": {"android": "https://dc.lft.to/lastmile_qr_scan", "ios": "https://dc.lft.to/lastmile_qr_scan"}, "fusion_lon": 0.0}, {"lat": 38.9244975, "is_disabled": 0, "type": "electric_scooter", "lon": -77.04019366666667, "bike_id": "f84810cc015974ac2ccab3ed65ff97d6", "fusion_lat": 0.0, "name": "f84810cc015974ac2ccab3ed65ff97d6", "is_reserved": 0, "rental_uris": {"android": "https://dc.lft.to/lastmile_qr_scan", "ios": "https://dc.lft.to/lastmile_qr_scan"}, "fusion_lon": 0.0}, {"lat": 38.87343533333333, "is_disabled": 0, "type": "electric_scooter", "lon": -76.99163733333333, "bike_id": "8610dd53b464af82945a46b3b42a4856", "fusion_lat": 0.0, "name": "8610dd53b464af82945a46b3b42a4856", "is_reserved": 0, "rental_uris": {"android": "https://dc.lft.to/lastmile_qr_scan", "ios": "https://dc.lft.to/lastmile_qr_scan"}, "fusion_lon": 0.0}, {"lat": 38.90720433333333, "is_disabled": 0, "type": "electric_scooter", "lon": -77.02751816666667, "bike_id": "c346fb294800ac3e39f8cd407dd59336", "fusion_lat": 0.0, "name": "c346fb294800ac3e39f8cd407dd59336", "is_reserved": 0, "rental_uris": {"android": "https://dc.lft.to/lastmile_qr_scan", "ios": "https://dc.lft.to/lastmile_qr_scan"}, "fusion_lon": 0.0}, {"lat": 38.876282333333336, "is_disabled": 0, "type": "electric_scooter", "lon": -76.96525866666667, "bike_id": "ebb9fc6d677fefec7b848389b91595c6", "fusion_lat": 0.0, "name": "ebb9fc6d677fefec7b848389b91595c6", "is_reserved": 0, "rental_uris": {"android": "https://dc.lft.to/lastmile_qr_scan", "ios": "https://dc.lft.to/lastmile_qr_scan"}, "fusion_lon": 0.0}, {"lat": 38.9191365, "is_disabled": 0, "type": "electric_scooter", "lon": -77.024602, "bike_id": "ebcad7a859effa861f6e83fc1f23f391", "fusion_lat": 0.0, "name": "ebcad7a859effa861f6e83fc1f23f391", "is_reserved": 0, "rental_uris": {"android": "https://dc.lft.to/lastmile_qr_scan", "ios": "https://dc.lft.to/lastmile_qr_scan"}, "fusion_lon": 0.0}, {"lat": 38.906204, "is_disabled": 0, "type": "electric_scooter", "lon": -77.02186683333333, "bike_id": "239d0f3d24c1d63a5f253de94d36e450", "fusion_lat": 0.0, "name": "239d0f3d24c1d63a5f253de94d36e450", "is_reserved": 0, "rental_uris": {"android": "https://dc.lft.to/lastmile_qr_scan", "ios": "https://dc.lft.to/lastmile_qr_scan"}, "fusion_lon": 0.0}, {"lat": 38.90022666666667, "is_disabled": 0, "type": "electric_scooter", "lon": -77.0442065, "bike_id": "210e0d2eaa7758e046bd7fa22e4cec4c", "fusion_lat": 0.0, "name": "210e0d2eaa7758e046bd7fa22e4cec4c", "is_reserved": 0, "rental_uris": {"android": "https://dc.lft.to/lastmile_qr_scan", "ios": "https://dc.lft.to/lastmile_qr_scan"}, "fusion_lon": 0.0}, {"lat": 38.91563133333333, "is_disabled": 0, "type": "electric_scooter", "lon": -77.02006133333333, "bike_id": "e1649979546d3e17a3316050824b08da", "fusion_lat": 0.0, "name": "e1649979546d3e17a3316050824b08da", "is_reserved": 0, "rental_uris": {"android": "https://dc.lft.to/lastmile_qr_scan", "ios": "https://dc.lft.to/lastmile_qr_scan"}, "fusion_lon": 0.0}, {"lat": 38.909625, "is_disabled": 0, "type": "electric_scooter", "lon": -77.02277833333333, "bike_id": "34739cbd949e095508ff2eb939bb2b31", "fusion_lat": 0.0, "name": "34739cbd949e095508ff2eb939bb2b31", "is_reserved": 0, "rental_uris": {"android": "https://dc.lft.to/lastmile_qr_scan", "ios": "https://dc.lft.to/lastmile_qr_scan"}, "fusion_lon": 0.0}, {"lat": 38.88605066666667, "is_disabled": 0, "type": "electric_scooter", "lon": -77.04512083333333, "bike_id": "af49223d4121b190a229a10e076a9d3c", "fusion_lat": 0.0, "name": "af49223d4121b190a229a10e076a9d3c", "is_reserved": 0, "rental_uris": {"android": "https://dc.lft.to/lastmile_qr_scan", "ios": "https://dc.lft.to/lastmile_qr_scan"}, "fusion_lon": 0.0}, {"lat": 38.9168075, "is_disabled": 0, "type": "electric_scooter", "lon": -77.0271355, "bike_id": "f7255613665ff1b0a8f2e7b694c3f4d7", "fusion_lat": 0.0, "name": "f7255613665ff1b0a8f2e7b694c3f4d7", "is_reserved": 0, "rental_uris": {"android": "https://dc.lft.to/lastmile_qr_scan", "ios": "https://dc.lft.to/lastmile_qr_scan"}, "fusion_lon": 0.0}, {"lat": 38.920462, "is_disabled": 0, "type": "electric_scooter", "lon": -77.04196833333333, "bike_id": "0587c531ac563676aa1189203a0ba09b", "fusion_lat": 0.0, "name": "0587c531ac563676aa1189203a0ba09b", "is_reserved": 0, "rental_uris": {"android": "https://dc.lft.to/lastmile_qr_scan", "ios": "https://dc.lft.to/lastmile_qr_scan"}, "fusion_lon": 0.0}, {"lat": 38.902783666666664, "is_disabled": 0, "type": "electric_scooter", "lon": -77.03834316666666, "bike_id": "5177711d723dbce978aee5aa7d14d3f2", "fusion_lat": 0.0, "name": "5177711d723dbce978aee5aa7d14d3f2", "is_reserved": 0, "rental_uris": {"android": "https://dc.lft.to/lastmile_qr_scan", "ios": "https://dc.lft.to/lastmile_qr_scan"}, "fusion_lon": 0.0}, {"lat": 38.902994166666666, "is_disabled": 0, "type": "electric_scooter", "lon": -77.01182216666666, "bike_id": "742d7423ec5b5b9951e2f407b85fd8fc", "fusion_lat": 0.0, "name": "742d7423ec5b5b9951e2f407b85fd8fc", "is_reserved": 0, "rental_uris": {"android": "https://dc.lft.to/lastmile_qr_scan", "ios": "https://dc.lft.to/lastmile_qr_scan"}, "fusion_lon": 0.0}, {"lat": 38.90277866666667, "is_disabled": 0, "type": "electric_scooter", "lon": -77.03977766666667, "bike_id": "f506fe3ea84e1ffa0bec73191dad3fe7", "fusion_lat": 0.0, "name": "f506fe3ea84e1ffa0bec73191dad3fe7", "is_reserved": 0, "rental_uris": {"android": "https://dc.lft.to/lastmile_qr_scan", "ios": "https://dc.lft.to/lastmile_qr_scan"}, "fusion_lon": 0.0},