{"data": {"bikes": [{"is_reserved": 0, "is_disabled": 0, "fusion_lon": 0.0, "lat": 38.92859133333333, "name": "5ef4dd98c6285f090c6d553e4b1cf56e", "bike_id": "5ef4dd98c6285f090c6d553e4b1cf56e", "lon": -77.0544085, "fusion_lat": 0.0, "rental_uris": {"android": "https://dc.lft.to/lastmile_qr_scan", "ios": "https://dc.lft.to/lastmile_qr_scan"}, "type": "electric_scooter"}, {"is_reserved": 0, "is_disabled": 0, "fusion_lon": 0.0, "lat": 38.92238866666667, "name": "d51f1fbc85731aeb62590c6889e240d2", "bike_id": "d51f1fbc85731aeb62590c6889e240d2", "lon": -77.021169, "fusion_lat": 0.0, "rental_uris": {"android": "https://dc.lft.to/lastmile_qr_scan", "ios": "https://dc.lft.to/lastmile_qr_scan"}, "type": "electric_scooter"}, {"is_reserved": 0, "is_disabled": 0, "fusion_lon": 0.0, "lat": 38.895477, "name": "29332fab4fbf74c52b787ac20dba5876", "bike_id": "29332fab4fbf74c52b787ac20dba5876", "lon": -77.009161, "fusion_lat": 0.0, "rental_uris": {"android": "https://dc.lft.to/lastmile_qr_scan", "ios": "https://dc.lft.to/lastmile_qr_scan"}, "type": "electric_scooter"}, {"is_reserved": 0, "is_disabled": 0, "fusion_lon": 0.0, "lat": 38.913459, "name": "3ca5e6d20d37c5037ccbfc399b0a1b85", "bike_id": "3ca5e6d20d37c5037ccbfc399b0a1b85", "lon": -77.03187066666666, "fusion_lat": 0.0, "rental_uris": {"android": "https://dc.lft.to/lastmile_qr_scan", "ios": "https://dc.lft.to/lastmile_qr_scan"}, "type": "electric_scooter"}, {"is_reserved": 0, "is_disabled": 0, "fusion_lon": 0.0, "lat": 38.85441633333333, "name": "88880ebbbcb7786074b26fe1d4b36c7c", "bike_id": "88880ebbbcb7786074b26fe1d4b36c7c", "lon": -77.083219, "fusion_lat": 0.0, "rental_uris": {"android": "https://dc.lft.to/lastmile_qr_scan", "ios": "https://dc.lft.to/lastmile_qr_scan"}, "type": "electric_bike"}, {"is_reserved": 0, "is_disabled": 0, "fusion_lon": 0.0, "lat": 38.868697166666664, "name": "6c61c4087a135bd463d010b467552f58", "bike_id": "6c61c4087a135bd463d010b467552f58", "lon": -76.98659933333333, "fusion_lat": 0.0, "rental_uris": {"android": "https://dc.lft.to/lastmile_qr_scan", "ios": "https://dc.lft.to/lastmile_qr_scan"}, "type": "electric_scooter"}, {"is_reserved": 0, "is_disabled": 0, "fusion_lon": 0.0, "lat": 38.927704166666665, "name": "72274e5d387cd889c0c72db691d978e6", "bike_id": "72274e5d387cd889c0c72db691d978e6", "lon": -77.02790883333333, "fusion_lat": 0.0, "rental_uris": {"android": "https://dc.lft.to/lastmile_qr_scan", "ios": "https://dc.lft.to/lastmile_qr_scan"}, "type": "electric_scooter"}, {"is_reserved": 0, "is_disabled": 0, "fusion_lon": 0.0, "lat": 38.92328916666666, "name": "5cda245f947bc6fc38f01337cb3b46c3", "bike_id": "5cda245f947bc6fc38f01337cb3b46c3", "lon": -77.056851, "fusion_lat": 0.0, "rental_uris": {"android": "https://dc.lft.to/lastmile_qr_scan", "ios": "https://dc.lft.to/lastmile_qr_scan"}, "type": "electric_scooter"}, {"is_reserved": 0, "is_disabled": 0, "fusion_lon": 0.0, "lat": 38.9213965, "name": "86124b51632033d0d1276a3423fc0c06", "bike_id": "86124b51632033d0d1276a3423fc0c06", "lon": -77.01222316666667, "fusion_lat": 0.0, "rental_uris": {"android": "https://dc.lft.to/lastmile_qr_scan", "ios": "https://dc.lft.to/lastmile_qr_scan"}, "type": "electric_scooter"}, {"is_reserved": 0, "is_disabled": 0, "fusion_lon": 0.0, "lat": 38.915721166666664, "name": "05d95c38393ed00e92d6768bb996566e", "bike_id": "05d95c38393ed00e92d6768bb996566e", "lon": -77.036432, "fusion_lat": 0.0, "rental_uris": {"android": "https://dc.lft.to/lastmile_qr_scan", "ios": "https://dc.lft.to/lastmile_qr_scan"}, "type": "electric_scooter"}, {"is_reserved": 0, "is_disabled": 0, "fusion_lon": 0.0, "lat": 38.9191395, "name": "7ca9a5a8b6d7295396d0e282a6467f92", "bike_id": "7ca9a5a8b6d7295396d0e282a6467f92", "lon": -77.03382966666666, "fusion_lat": 0.0, "rental_uris": {"android": "https://dc.lft.to/lastmile_qr_scan", "ios": "https://dc.lft.to/lastmile_qr_scan"}, "type": "electric_scooter"}, {"is_reserved": 0, "is_disabled": 0, "fusion_lon": 0.0, "lat": 38.934499, "name": "75cec244740a72143ae120bdaaa77292", "bike_id": "75cec244740a72143ae120bdaaa77292", "lon": -77.02359433333334, "fusion_lat": 0.0, "rental_uris": {"android": "https://dc.lft.to/lastmile_qr_scan", "ios": "https://dc.lft.to/lastmile_qr_scan"}, "type": "electric_scooter"}, {"is_reserved": 0, "is_disabled": 0, "fusion_lon": 0.0, "lat": 38.8972545, "name": "6f2736f0095917bb43fe2f105f785245", "bike_id": "6f2736f0095917bb43fe2f105f785245", "lon": -77.05527183333334, "fusion_lat": 0.0, "rental_uris": {"android": "https://dc.lft.to/lastmile_qr_scan", "ios": "https://dc.lft.to/lastmile_qr_scan"}, "type": "electric_scooter"}, {"is_reserved": 0, "is_disabled": 0, "fusion_lon": 0.0, "lat": 38.90641866666667, "name": "08ad222dcb3534e54f566954b24b4c4e", "bike_id": "08ad222dcb3534e54f566954b24b4c4e", "lon": -77.017679, "fusion_lat": 0.0, "rental_uris": {"android": "https://dc.lft.to/lastmile_qr_scan", "ios": "https://dc.lft.to/lastmile_qr_scan"}, "type": "electric_scooter"}, {"is_reserved": 0, "is_disabled": 0, "fusion_lon": 0.0, "lat": 38.924586, "name": "1c750596fda8ab710ab009ebbdf79654", "bike_id": "1c750596fda8ab710ab009ebbdf79654", "lon": -77.032845, "fusion_lat": 0.0, "rental_uris": {"android": "https://dc.lft.to/lastmile_qr_scan", "ios": "https://dc.lft.to/lastmile_qr_scan"}, "type": "electric_scooter"}, {"is_reserved": 0, "is_disabled": 0, "fusion_lon": 0.0, "lat": 38.85216233333333, "name": "9916771de75dbe62a91a7c01ef2d8612", "bike_id": "9916771de75dbe62a91a7c01ef2d8612", "lon": -76.99371666666667, "fusion_lat": 0.0, "rental_uris": {"android": "https://dc.lft.to/lastmile_qr_scan", "ios": "https://dc.lft.to/lastmile_qr_scan"}, "type": "electric_bike"}, {"is_reserved": 0, "is_disabled": 0, "fusion_lon": 0.0, "lat": 38.918392833333336, "name": "0ca7f7596b4e6db35181526304e492b5", "bike_id": "0ca7f7596b4e6db35181526304e492b5", "lon": -77.0320755, "fusion_lat": 0.0, "rental_uris": {"android": "https://dc.lft.to/lastmile_qr_scan", "ios": "https://dc.lft.to/lastmile_qr_scan"}, "type": "electric_scooter"}, {"is_reserved": 0, "is_disabled": 0, "fusion_lon": 0.0, "lat": 38.922427666666664, "name": "a31db7ac74f7f0a51c7af318f170c912", "bike_id": "a31db7ac74f7f0a51c7af318f170c912", "lon": -77.03519683333333, "fusion_lat": 0.0, "rental_uris": {"android": "https://dc.lft.to/lastmile_qr_scan", "ios": "https://dc.lft.to/lastmile_qr_scan"}, "type": "electric_scooter"}, {"is_reserved": 0, "is_disabled": 0, "fusion_lon": 0.0, "lat": 38.898337, "name": "85282693bb46365a97215c5c849a22c8", "bike_id": "85282693bb46365a97215c5c849a22c8", "lon": -77.02282216666667, "fusion_lat": 0.0, "rental_uris": {"android": "https://dc.lft.to/lastmile_qr_scan", "ios": "https://dc.lft.to/lastmile_qr_scan"}, "type": "electric_scooter"}, {"is_reserved": 0, "is_disabled": 0, "fusion_lon": 0.0, "lat": 38.922300166666666, "name": "dad61760ac5e3acad7ec6644463b082a", "bike_id": "dad61760ac5e3acad7ec6644463b082a", "lon": -77.02111333333333, "fusion_lat": 0.0, "rental_uris": {"android": "https://dc.lft.to/lastmile_qr_scan", "ios": "https://dc.lft.to/lastmile_qr_scan"}, "type": "electric_scooter"}, {"is_reserved": 0, "is_disabled": 0, "fusion_lon": 0.0, "lat": 38.9023805, "name": "75d81d8dac55d35da836574c79bc20d3", "bike_id": "75d81d8dac55d35da836574c79bc20d3", "lon": -77.00199016666667, "fusion_lat": 0.0, "rental_uris": {"android": "https://dc.lft.to/lastmile_qr_scan", "ios": "https://dc.lft.to/lastmile_qr_scan"}, "type": "electric_scooter"}, {"is_reserved": 0, "is_disabled": 0, "fusion_lon": 0.0, "lat": 38.92066833333333, "name": "d252e9bf25f9a9409105b4405d31488e", "bike_id": "d252e9bf25f9a9409105b4405d31488e", "lon": -77.0346815, "fusion_lat": 0.0, "rental_uris": {"android": "https://dc.lft.to/lastmile_qr_scan", "ios": "https://dc.lft.to/lastmile_qr_scan"}, "type": "electric_scooter"}, {"is_reserved": 0, "is_disabled": 0, "fusion_lon": 0.0, "lat": 38.938616833333334, "name": "fb4958c89531323e5911a4f9c9dc98a5", "bike_id": "fb4958c89531323e5911a4f9c9dc98a5", "lon": -77.030472, "fusion_lat": 0.0, "rental_uris": {"android": "https://dc.lft.to/lastmile_qr_scan", "ios": "https://dc.lft.to/lastmile_qr_scan"}, "type": "electric_scooter"}, {"is_reserved": 0, "is_disabled": 0, "fusion_lon": 0.0, "lat": 38.89713283333333, "name": "ec308fe35598f9c9ee4d92e52531c4e4", "bike_id": "ec308fe35598f9c9ee4d92e52531c4e4", "lon": -77.03172083333334, "fusion_lat": 0.0, "rental_uris": {"android": "https://dc.lft.to/lastmile_qr_scan", "ios": "https://dc.lft.to/lastmile_qr_scan"}, "type": "electric_scooter"}, {"is_reserved": 0, "is_disabled": 0, "fusion_lon": 0.0, "lat": 38.8826965, "name": "6640e76fa1de2cb707f7c09aabe59983", "bike_id": "6640e76fa1de2cb707f7c09aabe59983", "lon": -76.9323685, "fusion_lat": 0.0, "rental_uris": {"android": "https://dc.lft.to/lastmile_qr_scan", "ios": "https://dc.lft.to/lastmile_qr_scan"}, "type": "electric_bike"}, {"is_reserved": 0, "is_disabled": 0, "fusion_lon": 0.0, "lat": 38.90905983333333, "name": "a17dbcc57d908090f6b3752ba1af2ccc", "bike_id": "a17dbcc57d908090f6b3752ba1af2ccc", "lon": -77.07270216666667, "fusion_lat": 0.0, "rental_uris": {"android": "https://dc.lft.to/lastmile_qr_scan", "ios": "https://dc.lft.to/lastmile_qr_scan"}, "type": "electric_scooter"}, {"is_reserved": 0, "is_disabled": 0, "fusion_lon": 0.0, "lat": 38.876687833333335, "name": "fd85e601deb390f0779447a013f51510", "bike_id": "fd85e601deb390f0779447a013f51510", "lon": -77.004137, "fusion_lat": 0.0, "rental_uris": {"android": "https://dc.lft.to/lastmile_qr_scan", "ios": "https://dc.lft.to/lastmile_qr_scan"}, "type": "electric_scooter"}, {"is_reserved": 0, "is_disabled": 0, "fusion_lon": 0.0, "lat": 38.914556, "name": "bf3b9bb81d9813850a19f7acff098cb5", "bike_id": "bf3b9bb81d9813850a19f7acff098cb5", "lon": -76.97290416666667, "fusion_lat": 0.0, "rental_uris": {"android": "https://dc.lft.to/lastmile_qr_scan", "ios": "https://dc.lft.to/lastmile_qr_scan"}, "type": "electric_bike"}, {"is_reserved": 0, "is_disabled": 0, "fusion_lon": 0.0, "lat": 38.9154465, "name": "f79524a28c18ac17db72a2217592e647", "bike_id": "f79524a28c18ac17db72a2217592e647", "lon": -77.012229, "fusion_lat": 0.0, "rental_uris": {"android": "https://dc.lft.to/lastmile_qr_scan", "ios": "https://dc.lft.to/lastmile_qr_scan"}, "type": "electric_scooter"}, {"is_reserved": 0, "is_disabled": 0, "fusion_lon": 0.0, "lat": 38.93763833333333, "name": "58bcb984f458b5b7fdb1bc494ec79922", "bike_id": "58bcb984f458b5b7fdb1bc494ec79922", "lon": -77.032124, "fusion_lat": 0.0, "rental_uris": {"android": "https://dc.lft.to/lastmile_qr_scan", "ios": "https://dc.lft.to/lastmile_qr_scan"}, "type": "electric_scooter"}, {"is_reserved": 0, "is_disabled": 0, "fusion_lon": 0.0, "lat": 38.87933833333334, "name": "01abc06b1fb55e3bd08ce725aa475415", "bike_id": "01abc06b1fb55e3bd08ce725aa475415", "lon": -77.00752266666667, "fusion_lat": 0.0, "rental_uris": {"android": "https://dc.lft.to/lastmile_qr_scan", "ios": "https://dc.lft.to/lastmile_qr_scan"}, "type": "electric_scooter"}, {"is_reserved": 0, "is_disabled": 0, "fusion_lon": 0.0, "lat": 38.924542, "name": "b24c6117ad70631eb6719c8364de3e7a", "bike_id": "b24c6117ad70631eb6719c8364de3e7a", "lon": -77.02244166666667, "fusion_lat": 0.0, "rental_uris": {"android": "https://dc.lft.to/lastmile_qr_scan", "ios": "https://dc.lft.to/lastmile_qr_scan"}, "type": "electric_scooter"}, {"is_reserved": 0, "is_disabled": 0, "fusion_lon": 0.0, "lat": 38.936263333333336, "name": "67ca47dcc06f724edbd43a4cfc4c9d23", "bike_id": "67ca47dcc06f724edbd43a4cfc4c9d23", "lon": -77.03663083333333, "fusion_lat": 0.0, "rental_uris": {"android": "https://dc.lft.to/lastmile_qr_scan", "ios": "https://dc.lft.to/lastmile_qr_scan"}, "type": "electric_scooter"}, {"is_reserved": 0, "is_disabled": 0, "fusion_lon": 0.0, "lat": 38.912563, "name": "d68b53ec1bb61f415118f08f8f753c94", "bike_id": "d68b53ec1bb61f415118f08f8f753c94", "lon": -77.03868583333333, "fusion_lat": 0.0, "rental_uris": {"android": "https://dc.lft.to/lastmile_qr_scan", "ios": "https://dc.lft.to/lastmile_qr_scan"}, "type": "electric_scooter"}, {"is_reserved": 0, "is_disabled": 0, "fusion_lon": 0.0, "lat": 38.9344975, "name": "052cc68811fc811f2a3e332613563b65", "bike_id": "052cc68811fc811f2a3e332613563b65", "lon": -77.02102083333334, "fusion_lat": 0.0, "rental_uris": {"android": "https://dc.lft.to/lastmile_qr_scan", "ios": "https://dc.lft.to/lastmile_qr_scan"}, "type": "electric_scooter"}, {"is_reserved": 0, "is_disabled": 0, "fusion_lon": 0.0, "lat": 38.9257285, "name": "2890d08ef13dd41c136fe151a7c2e391", "bike_id": "2890d08ef13dd41c136fe151a7c2e391", "lon": -77.0268435, "fusion_lat": 0.0, "rental_uris": {"android": "https://dc.lft.to/lastmile_qr_scan", "ios": "https://dc.lft.to/lastmile_qr_scan"}, "type": "electric_scooter"}, {"is_reserved": 0, "is_disabled": 0, "fusion_lon": 0.0, "lat": 38.922339666666666, "name": "710b4efb2ce9b42b6c4e51eed3386f1f", "bike_id": "710b4efb2ce9b42b6c4e51eed3386f1f", "lon": -76.97532933333333, "fusion_lat": 0.0, "rental_uris": {"android": "https://dc.lft.to/lastmile_qr_scan", "ios": "https://dc.lft.to/lastmile_qr_scan"}, "type": "electric_scooter"}, {"is_reserved": 0, "is_disabled": 0, "fusion_lon": 0.0, "lat": 38.90284233333333, "name": "8250fe8f2ac85441d0a3a3c3144107e7", "bike_id": "8250fe8f2ac85441d0a3a3c3144107e7", "lon": -77.04880716666666, "fusion_lat": 0.0, "rental_uris": {"android": "https://dc.lft.to/lastmile_qr_scan", "ios": "https://dc.lft.to/lastmile_qr_scan"}, "type": "electric_scooter"}, {"is_reserved": 0, "is_disabled": 0, "fusion_lon": 0.0, "lat": 38.894920666666664, "name": "ddeefef062cf9a283fd9e3e046860e36", "bike_id": "ddeefef062cf9a283fd9e3e046860e36", "lon": -76.99500133333333, "fusion_lat": 0.0, "rental_uris": {"android": "https://dc.lft.to/lastmile_qr_scan", "ios": "https://dc.lft.to/lastmile_qr_scan"}, "type": "electric_scooter"}, {"is_reserved": 0, "is_disabled": 0, "fusion_lon": 0.0, "lat": 38.879011, "name": "73ba6289747d37225eb6508d16d560f8", "bike_id": "73ba6289747d37225eb6508d16d560f8", "lon": -77.02135983333334, "fusion_lat": 0.0, "rental_uris": {"android": "https://dc.lft.to/lastmile_qr_scan", "ios": "https://dc.lft.to/lastmile_qr_scan"}, "type": "electric_scooter"}, {"is_reserved": 0, "is_disabled": 0, "fusion_lon": 0.0, "lat": 38.915412833333335, "name": "73fccafea98a6c8255a57169b7363040", "bike_id": "73fccafea98a6c8255a57169b7363040", "lon": -77.01269616666667, "fusion_lat": 0.0, "rental_uris": {"android": "https://dc.lft.to/lastmile_qr_scan", "ios": "https://dc.lft.to/lastmile_qr_scan"}, "type": "electric_scooter"}, {"is_reserved": 0, "is_disabled": 0, "fusion_lon": 0.0, "lat": 38.91127133333333, "name": "c82a1f8023c96cb2793c0ee4a679b794", "bike_id": "c82a1f8023c96cb2793c0ee4a679b794", "lon": -77.02193416666667, "fusion_lat": 0.0, "rental_uris": {"android": "https://dc.lft.to/lastmile_qr_scan", "ios": "https://dc.lft.to/lastmile_qr_scan"}, "type": "electric_scooter"}, {"is_reserved": 0, "is_disabled": 0, "fusion_lon": 0.0, "lat": 38.92855766666667, "name": "4509b5e681e9f0c0b8304fdec4e993d0", "bike_id": "4509b5e681e9f0c0b8304fdec4e993d0", "lon": -77.0139925, "fusion_lat": 0.0, "rental_uris": {"android": "https://dc.lft.to/lastmile_qr_scan", "ios": "https://dc.lft.to/lastmile_qr_scan"}, "type": "electric_scooter"}, {"is_reserved": 0, "is_disabled": 0, "fusion_lon": 0.0, "lat": 38.90331283333333, "name": "0078fbeafea87b53bd570130a36855e8", "bike_id": "0078fbeafea87b53bd570130a36855e8", "lon": -77.01947983333334, "fusion_lat": 0.0, "rental_uris": {"android": "https://dc.lft.to/lastmile_qr_scan", "ios": "https://dc.lft.to/lastmile_qr_scan"}, "type": "electric_scooter"}, {"is_reserved": 0, "is_disabled": 0, "fusion_lon": 0.0, "lat": 38.914340833333334, "name": "f7d457332745b89fd95f5ee4ddd9a29c", "bike_id": "f7d457332745b89fd95f5ee4ddd9a29c", "lon": -77.003576, "fusion_lat": 0.0, "rental_uris": {"android": "https://dc.lft.to/lastmile_qr_scan", "ios": "https://dc.lft.to/lastmile_qr_scan"}, "type": "electric_scooter"}, {"is_reserved": 0, "is_disabled": 0, "fusion_lon": 0.0, "lat": 38.918419666666665, "name": "9bfbaa0e99297e9862f100b2a31d19e5", "bike_id": "9bfbaa0e99297e9862f100b2a31d19e5", "lon": -77.0232625, "fusion_lat": 0.0, "rental_uris": {"android": "https://dc.lft.to/lastmile_qr_scan", "ios": "https://dc.lft.to/lastmile_qr_scan"}, "type": "electric_scooter"}, {"is_reserved": 0, "is_disabled": 0, "fusion_lon": 0.0, "lat": 38.919144333333335, "name": "4ab6c4d5ab1be7b9acc6c0962924449b", "bike_id": "4ab6c4d5ab1be7b9acc6c0962924449b", "lon": -77.033276, "fusion_lat": 0.0, "rental_uris": {"android": "https://dc.lft.to/lastmile_qr_scan", "ios": "https://dc.lft.to/lastmile_qr_scan"}, "type": "electric_scooter"}, {"is_reserved": 0, "is_disabled": 0, "fusion_lon": 0.0, "lat": 38.892231333333335, "name": "4eebd40cac81b30be74d9f7cbcb6ddd7", "bike_id": "4eebd40cac81b30be74d9f7cbcb6ddd7", "lon": -77.04343933333334, "fusion_lat": 0.0, "rental_uris": {"android": "https://dc.lft.to/lastmile_qr_scan", "ios": "https://dc.lft.to/lastmile_qr_scan"}, "type": "electric_scooter"}, {"is_reserved": 0, "is_disabled": 0, "fusion_lon": 0.0, "lat": 38.89679016666667, "name": "2f8f5e70332942882159eca0b1d1bbf0", "bike_id": "2f8f5e70332942882159eca0b1d1bbf0", "lon": -76.9630465, "fusion_lat": 0.0, "rental_uris": {"android": "https://dc.lft.to/lastmile_qr_scan", "ios": "https://dc.lft.to/lastmile_qr_scan"}, "type": "electric_bike"}, {"is_reserved": 0, "is_disabled": 0, "fusion_lon": 0.0, "lat": 38.929015, "name": "07f2073b77e078a663e4ce4ede0eb062", "bike_id": "07f2073b77e078a663e4ce4ede0eb062", "lon": -77.03266466666666, "fusion_lat": 0.0, "rental_uris": {"android": "https://dc.lft.to/lastmile_qr_scan", "ios": "https://dc.lft.to/lastmile_qr_scan"}, "type": "electric_scooter"}, {"is_reserved": 0, "is_disabled": 0, "fusion_lon": 0.0, "lat": 38.9232055, "name": "b5046c6d007fb22a633d5431e5a20f0d", "bike_id": "b5046c6d007fb22a633d5431e5a20f0d", "lon": -77.02712133333333, "fusion_lat": 0.0, "rental_uris": {"android": "https://dc.lft.to/lastmile_qr_scan", "ios": "https://dc.lft.to/lastmile_qr_scan"}, "type": "electric_scooter"}, {"is_reserved": 0, "is_disabled": 0, "fusion_lon": 0.0, "lat": 38.876607166666666, "name": "df534bf3737ae6ae1eed48466819022f", "bike_id": "df534bf3737ae6ae1eed48466819022f", "lon": -77.00238583333334, "fusion_lat": 0.0, "rental_uris": {"android": "https://dc.lft.to/lastmile_qr_scan", "ios": "https://dc.lft.to/lastmile_qr_scan"}, "type": "electric_scooter"}, {"is_reserved": 0, "is_disabled": 0, "fusion_lon": 0.0, "lat": 38.998148, "name": "88815b28cbe70facde7bc61556d74873", "bike_id": "88815b28cbe70facde7bc61556d74873", "lon": -77.028995, "fusion_lat": 0.0, "rental_uris": {"android": "https://dc.lft.to/lastmile_qr_scan", "ios": "https://dc.lft.to/lastmile_qr_scan"}, "type": "electric_bike"}, {"is_reserved": 0, "is_disabled": 0, "fusion_lon": 0.0, "lat": 38.94228733333333, "name": "c500fe7fe14199b1c318f13bc2f3fbcf", "bike_id": "c500fe7fe14199b1c318f13bc2f3fbcf", "lon": -77.01436866666667, "fusion_lat": 0.0, "rental_uris": {"android": "https://dc.lft.to/lastmile_qr_scan", "ios": "https://dc.lft.to/lastmile_qr_scan"}, "type": "electric_scooter"}, {"is_reserved": 0, "is_disabled": 0, "fusion_lon": 0.0, "lat": 38.913108666666666, "name": "41a879cb49e1e03844b1680df7254f7a", "bike_id": "41a879cb49e1e03844b1680df7254f7a", "lon": -77.03649883333334, "fusion_lat": 0.0, "rental_uris": {"android": "https://dc.lft.to/lastmile_qr_scan", "ios": "https://dc.lft.to/lastmile_qr_scan"}, "type": "electric_scooter"}, {"is_reserved": 0, "is_disabled": 0, "fusion_lon": 0.0, "lat": 38.92758716666667, "name": "6a789862d58016f4de95448d35969470", "bike_id": "6a789862d58016f4de95448d35969470", "lon": -77.0321525, "fusion_lat": 0.0, "rental_uris": {"android": "https://dc.lft.to/lastmile_qr_scan", "ios": "https://dc.lft.to/lastmile_qr_scan"}, "type": "electric_scooter"}, {"is_reserved": 0, "is_disabled": 0, "fusion_lon": 0.0, "lat": 38.92502433333333, "name": "162dc23ef414784ccf5ff0fbbe912a3a", "bike_id": "162dc23ef414784ccf5ff0fbbe912a3a", "lon": -77.0235275, "fusion_lat": 0.0, "rental_uris": {"android": "https://dc.lft.to/lastmile_qr_scan", "ios": "https://dc.lft.to/lastmile_qr_scan"}, "type": "electric_scooter"}, {"is_reserved": 0, "is_disabled": 0, "fusion_lon": 0.0, "lat": 38.8865755, "name": "a8038bee3ebb8b3b90cf63534ad78360", "bike_id": "a8038bee3ebb8b3b90cf63534ad78360", "lon": -76.9366885, "fusion_lat": 0.0, "rental_uris": {"android": "https://dc.lft.to/lastmile_qr_scan", "ios": "https://dc.lft.to/lastmile_qr_scan"}, "type": "electric_scooter"}, {"is_reserved": 0, "is_disabled": 0, "fusion_lon": 0.0, "lat": 39.084307, "name": "ef322a89827e4dc79849929b3bfabde7", "bike_id": "ef322a89827e4dc79849929b3bfabde7", "lon": -76.951454, "fusion_lat": 0.0, "rental_uris": {"android": "https://dc.lft.to/lastmile_qr_scan", "ios": "https://dc.lft.to/lastmile_qr_scan"}, "type": "electric_bike"}, {"is_reserved": 0, "is_disabled": 0, "fusion_lon": 0.0, "lat": 38.91919883333333, "name": "18a3caa382a237ecaebc4dc592f7b602", "bike_id": "18a3caa382a237ecaebc4dc592f7b602", "lon": -77.00996133333334, "fusion_lat": 0.0, "rental_uris": {"android": "https://dc.lft.to/lastmile_qr_scan", "ios": "https://dc.lft.to/lastmile_qr_scan"}, "type": "electric_scooter"}, {"is_reserved": 0, "is_disabled": 0, "fusion_lon": 0.0, "lat": 38.92470616666667, "name": "a9391cd226f50acf63019c4c64937f0b", "bike_id": "a9391cd226f50acf63019c4c64937f0b", "lon": -77.02222416666666, "fusion_lat": 0.0, "rental_uris": {"android": "https://dc.lft.to/lastmile_qr_scan", "ios": "https://dc.lft.to/lastmile_qr_scan"}, "type": "electric_scooter"}, {"is_reserved": 0, "is_disabled": 0, "fusion_lon": 0.0, "lat": 38.9061455, "name": "9d1e2b92b3050db1f0befa93eec63bac", "bike_id": "9d1e2b92b3050db1f0befa93eec63bac", "lon": -76.97803933333333, "fusion_lat": 0.0, "rental_uris": {"android": "https://dc.lft.to/lastmile_qr_scan", "ios": "https://dc.lft.to/lastmile_qr_scan"}, "type": "electric_scooter"}, {"is_reserved": 0, "is_disabled": 0, "fusion_lon": 0.0, "lat": 38.9206735, "name": "722d5fbaed6e8a1b61668173b946d5e8", "bike_id": "722d5fbaed6e8a1b61668173b946d5e8", "lon": -77.04549, "fusion_lat": 0.0, "rental_uris": {"android": "https://dc.lft.to/lastmile_qr_scan", "ios": "https://dc.lft.to/lastmile_qr_scan"}, "type": "electric_scooter"}, {"is_reserved": 0, "is_disabled": 0, "fusion_lon": 0.0, "lat": 38.9213455, "name": "b6903fa3781aca757930115c5980eae5", "bike_id": "b6903fa3781aca757930115c5980eae5", "lon": -77.011673, "fusion_lat": 0.0, "rental_uris": {"android": "https://dc.lft.to/lastmile_qr_scan", "ios": "https://dc.lft.to/lastmile_qr_scan"}, "type": "electric_scooter"}, {"is_reserved": 0, "is_disabled": 0, "fusion_lon": 0.0, "lat": 38.945383666666665, "name": "c6797f8ef1ff3ddb9b4463275d6e5cf0", "bike_id": "c6797f8ef1ff3ddb9b4463275d6e5cf0", "lon": -77.344663, "fusion_lat": 0.0, "rental_uris": {"android": "https://dc.lft.to/lastmile_qr_scan", "ios": "https://dc.lft.to/lastmile_qr_scan"}, "type": "electric_bike"}, {"is_reserved": 0, "is_disabled": 0, "fusion_lon": 0.0, "lat": 38.9205605, "name": "89c7fc7d7e39853cc6a71d7124915f0c", "bike_id": "89c7fc7d7e39853cc6a71d7124915f0c", "lon": -77.024356, "fusion_lat": 0.0, "rental_uris": {"android": "https://dc.lft.to/lastmile_qr_scan", "ios": "https://dc.lft.to/lastmile_qr_scan"}, "type": "electric_scooter"}, {"is_reserved": 0, "is_disabled": 0, "fusion_lon": 0.0, "lat": 38.91063366666667, "name": "f13e32fa7cf81eb19df2cf7f81074862", "bike_id": "f13e32fa7cf81eb19df2cf7f81074862", "lon": -77.05387566666667, "fusion_lat": 0.0, "rental_uris": {"android": "https://dc.lft.to/lastmile_qr_scan", "ios": "https://dc.lft.to/lastmile_qr_scan"}, "type": "electric_scooter"}, {"is_reserved": 0, "is_disabled": 0, "fusion_lon": 0.0, "lat": 38.92059183333333, "name": "d9671999bd2c2ccc4bd8dc8c8cd87dc7", "bike_id": "d9671999bd2c2ccc4bd8dc8c8cd87dc7", "lon": -77.023642, "fusion_lat": 0.0, "rental_uris": {"android": "https://dc.lft.to/lastmile_qr_scan", "ios": "https://dc.lft.to/lastmile_qr_scan"}, "type": "electric_scooter"}, {"is_reserved": 0, "is_disabled": 0, "fusion_lon": 0.0, "lat": 38.917958166666665, "name": "672bfae1c448f2cd394e6fb9bb08ee82", "bike_id": "672bfae1c448f2cd394e6fb9bb08ee82", "lon": -77.03187716666666, "fusion_lat": 0.0, "rental_uris": {"android": "https://dc.lft.to/lastmile_qr_scan", "ios": "https://dc.lft.to/lastmile_qr_scan"}, "type": "electric_scooter"}, {"is_reserved": 0, "is_disabled": 0, "fusion_lon": 0.0, "lat": 38.882377, "name": "86edc87566b8c4dc59c04405c02f35e5", "bike_id": "86edc87566b8c4dc59c04405c02f35e5", "lon": -76.994922, "fusion_lat": 0.0, "rental_uris": {"android": "https://dc.lft.to/lastmile_qr_scan", "ios": "https://dc.lft.to/lastmile_qr_scan"}, "type": "electric_scooter"}, {"is_reserved": 0, "is_disabled": 0, "fusion_lon": 0.0, "lat": 38.91842666666667, "name": "13e97f00ec3eecaefca3ec90b6088141", "bike_id": "13e97f00ec3eecaefca3ec90b6088141", "lon": -77.02545333333333, "fusion_lat": 0.0, "rental_uris": {"android": "https://dc.lft.to/lastmile_qr_scan", "ios": "https://dc.lft.to/lastmile_qr_scan"}, "type": "electric_scooter"}, {"is_reserved": 0, "is_disabled": 0, "fusion_lon": 0.0, "lat": 38.91946433333333, "name": "17a3f129a0fecb1dec196233cc09ff22", "bike_id": "17a3f129a0fecb1dec196233cc09ff22", "lon": -77.02182233333333, "fusion_lat": 0.0, "rental_uris": {"android": "https://dc.lft.to/lastmile_qr_scan", "ios": "https://dc.lft.to/lastmile_qr_scan"}, "type": "electric_scooter"}, {"is_reserved": 0, "is_disabled": 0, "fusion_lon": 0.0, "lat": 38.9181385, "name": "9516ae30b5c1746e35e441f8fbfaa151", "bike_id": "9516ae30b5c1746e35e441f8fbfaa151", "lon": -77.02317733333334, "fusion_lat": 0.0, "rental_uris": {"android": "https://dc.lft.to/lastmile_qr_scan", "ios": "https://dc.lft.to/lastmile_qr_scan"}, "type": "electric_scooter"}, {"is_reserved": 0, "is_disabled": 0, "fusion_lon": 0.0, "lat": 38.902154833333334, "name": "f0b324c1757c93eb319c8e6a02ef538d", "bike_id": "f0b324c1757c93eb319c8e6a02ef538d", "lon": -77.04340333333333, "fusion_lat": 0.0, "rental_uris": {"android": "https://dc.lft.to/lastmile_qr_scan", "ios": "https://dc.lft.to/lastmile_qr_scan"}, "type": "electric_scooter"}, {"is_reserved": 0, "is_disabled": 0, "fusion_lon": 0.0, "lat": 38.88391166666667, "name": "f294630f621e0fe00b4e8b20c3411c3a", "bike_id": "f294630f621e0fe00b4e8b20c3411c3a", "lon": -76.93041033333333, "fusion_lat": 0.0, "rental_uris": {"android": "https://dc.lft.to/lastmile_qr_scan", "ios": "https://dc.lft.to/lastmile_qr_scan"}, "type": "electric_scooter"}, {"is_reserved": 0, "is_disabled": 0, "fusion_lon": 0.0, "lat": 38.91565283333333, "name": "4a158f42187ece32d80fe9db97402ee0", "bike_id": "4a158f42187ece32d80fe9db97402ee0", "lon": -77.02179266666667, "fusion_lat": 0.0, "rental_uris": {"android": "https://dc.lft.to/lastmile_qr_scan", "ios": "https://dc.lft.to/lastmile_qr_scan"}, "type": "electric_scooter"}, {"is_reserved": 0, "is_disabled": 0, "fusion_lon": 0.0, "lat": 38.893541, "name": "45471ee39d3731bfda5706743fbe6c3e", "bike_id": "45471ee39d3731bfda5706743fbe6c3e", "lon": -77.003374, "fusion_lat": 0.0, "rental_uris": {"android": "https://dc.lft.to/lastmile_qr_scan", "ios": "https://dc.lft.to/lastmile_qr_scan"}, "type": "electric_scooter"}, {"is_reserved": 0, "is_disabled": 0, "fusion_lon": 0.0, "lat": 38.92791833333333, "name": "1eb0d271d06bd9d73c5c584c61c03166", "bike_id": "1eb0d271d06bd9d73c5c584c61c03166", "lon": -77.0308565, "fusion_lat": 0.0, "rental_uris": {"android": "https://dc.lft.to/lastmile_qr_scan", "ios": "https://dc.lft.to/lastmile_qr_scan"}, "type": "electric_scooter"}, {"is_reserved": 0, "is_disabled": 0, "fusion_lon": 0.0, "lat": 38.91410316666666, "name": "a74f56ef277b07d047dcd9a48cba144c", "bike_id": "a74f56ef277b07d047dcd9a48cba144c", "lon": -77.01294383333334, "fusion_lat": 0.0, "rental_uris": {"android": "https://dc.lft.to/lastmile_qr_scan", "ios": "https://dc.lft.to/lastmile_qr_scan"}, "type": "electric_scooter"}, {"is_reserved": 0, "is_disabled": 0, "fusion_lon": 0.0, "lat": 38.94101966666667, "name": "8fcbbc9a8fa19220a8a9d64d6952faeb", "bike_id": "8fcbbc9a8fa19220a8a9d64d6952faeb", "lon": -77.06141733333334, "fusion_lat": 0.0, "rental_uris": {"android": "https://dc.lft.to/lastmile_qr_scan", "ios": "https://dc.lft.to/lastmile_qr_scan"}, "type": "electric_scooter"}, {"is_reserved": 0, "is_disabled": 0, "fusion_lon": 0.0, "lat": 38.9248925, "name": "9509840e2b5f3b88af106c49767545da", "bike_id": "9509840e2b5f3b88af106c49767545da", "lon": -77.04138466666667, "fusion_lat": 0.0, "rental_uris": {"android": "https://dc.lft.to/lastmile_qr_scan", "ios": "https://dc.lft.to/lastmile_qr_scan"}, "type": "electric_scooter"}, {"is_reserved": 0, "is_disabled": 0, "fusion_lon": 0.0, "lat": 38.89729466666667, "name": "34c86a1d3cf98320261303a217d61cfc", "bike_id": "34c86a1d3cf98320261303a217d61cfc", "lon": -77.0445455, "fusion_lat": 0.0, "rental_uris": {"android": "https://dc.lft.to/lastmile_qr_scan", "ios": "https://dc.lft.to/lastmile_qr_scan"}, "type": "electric_scooter"}, {"is_reserved": 0, "is_disabled": 0, "fusion_lon": 0.0, "lat": 38.8982485, "name": "fd9a3555ec813c94879080f012f54f50", "bike_id": "fd9a3555ec813c94879080f012f54f50", "lon": -77.0461515, "fusion_lat": 0.0, "rental_uris": {"android": "https://dc.lft.to/lastmile_qr_scan", "ios": "https://dc.lft.to/lastmile_qr_scan"}, "type": "electric_scooter"}, {"is_reserved": 0, "is_disabled": 0, "fusion_lon": 0.0, "lat": 38.9234005, "name": "cc95b97aa9cef6e24003a1912721e056", "bike_id": "cc95b97aa9cef6e24003a1912721e056", "lon": -77.01910116666667, "fusion_lat": 0.0, "rental_uris": {"android": "https://dc.lft.to/lastmile_qr_scan", "ios": "https://dc.lft.to/lastmile_qr_scan"}, "type": "electric_scooter"}, {"is_reserved": 0, "is_disabled": 0, "fusion_lon": 0.0, "lat": 38.93461283333333, "name": "061ef0a0825c785d88c49c0784af77d0", "bike_id": "061ef0a0825c785d88c49c0784af77d0", "lon": -77.05811416666667, "fusion_lat": 0.0, "rental_uris": {"android": "https://dc.lft.to/lastmile_qr_scan", "ios": "https://dc.lft.to/lastmile_qr_scan"}, "type": "electric_scooter"}, {"is_reserved": 0, "is_disabled": 0, "fusion_lon": 0.0, "lat": 38.93968366666667, "name": "17dcba4b47980fa7bd8de56c7dc3e76d", "bike_id": "17dcba4b47980fa7bd8de56c7dc3e76d", "lon": -77.03032183333333, "fusion_lat": 0.0, "rental_uris": {"android": "https://dc.lft.to/lastmile_qr_scan", "ios": "https://dc.lft.to/lastmile_qr_scan"}, "type": "electric_scooter"}, {"is_reserved": 0, "is_disabled": 0, "fusion_lon": 0.0, "lat": 38.9639335, "name": "20a6f64d2d983bbcbc30f5224cb7c591", "bike_id": "20a6f64d2d983bbcbc30f5224cb7c591", "lon": -77.02591766666667, "fusion_lat": 0.0, "rental_uris": {"android": "https://dc.lft.to/lastmile_qr_scan", "ios": "https://dc.lft.to/lastmile_qr_scan"}, "type": "electric_scooter"}, {"is_reserved": 0, "is_disabled": 0, "fusion_lon": 0.0, "lat": 38.903369166666664, "name": "4f1cd2a5c13e1c936518ad548361bd38", "bike_id": "4f1cd2a5c13e1c936518ad548361bd38", "lon": -76.97613633333333, "fusion_lat": 0.0, "rental_uris": {"android": "https://dc.lft.to/lastmile_qr_scan", "ios": "https://dc.lft.to/lastmile_qr_scan"}, "type": "electric_scooter"}, {"is_reserved": 0, "is_disabled": 0, "fusion_lon": 0.0, "lat": 38.83589, "name": "47eab3bbc53507b1ce531575f5a5278c", "bike_id": "47eab3bbc53507b1ce531575f5a5278c", "lon": -76.99033066666667, "fusion_lat": 0.0, "rental_uris": {"android": "https://dc.lft.to/lastmile_qr_scan", "ios": "https://dc.lft.to/lastmile_qr_scan"}, "type": "electric_bike"}, {"is_reserved": 0, "is_disabled": 0, "fusion_lon": 0.0, "lat": 38.92446266666666, "name": "b0bb22e785660513218062fddb8a3b12", "bike_id": "b0bb22e785660513218062fddb8a3b12", "lon": -77.02983966666666, "fusion_lat": 0.0, "rental_uris": {"android": "https://dc.lft.to/lastmile_qr_scan", "ios": "https://dc.lft.to/lastmile_qr_scan"}, "type": "electric_scooter"}, {"is_reserved": 0, "is_disabled": 0, "fusion_lon": 0.0, "lat": 38.89356083333333, "name": "a4225de9b039703933e3c2452b85b951", "bike_id": "a4225de9b039703933e3c2452b85b951", "lon": -77.00334283333333, "fusion_lat": 0.0, "rental_uris": {"android": "https://dc.lft.to/lastmile_qr_scan", "ios": "https://dc.lft.to/lastmile_qr_scan"}, "type": "electric_scooter"}, {"is_reserved": 0, "is_disabled": 0, "fusion_lon": 0.0, "lat": 38.8960695, "name": "0cff74437b5ebd49d650681677dec0cc", "bike_id": "0cff74437b5ebd49d650681677dec0cc", "lon": -76.992445, "fusion_lat": 0.0, "rental_uris": {"android": "https://dc.lft.to/lastmile_qr_scan", "ios": "https://dc.lft.to/lastmile_qr_scan"}, "type": "electric_scooter"}, {"is_reserved": 0, "is_disabled": 0, "fusion_lon": 0.0, "lat": 38.918961, "name": "6b82d317d941389276c5cbd2fa98c15b", "bike_id": "6b82d317d941389276c5cbd2fa98c15b", "lon": -77.10169733333333, "fusion_lat": 0.0, "rental_uris": {"android": "https://dc.lft.to/lastmile_qr_scan", "ios": "https://dc.lft.to/lastmile_qr_scan"}, "type": "electric_bike"}, {"is_reserved": 0, "is_disabled": 0, "fusion_lon": 0.0, "lat": 38.91493166666667, "name": "d3daccf2a8adf67bad24209679cb6c02", "bike_id": "d3daccf2a8adf67bad24209679cb6c02", "lon": -77.03234766666667, "fusion_lat": 0.0, "rental_uris": {"android": "https://dc.lft.to/lastmile_qr_scan", "ios": "https://dc.lft.to/lastmile_qr_scan"}, "type": "electric_scooter"}, {"is_reserved": 0, "is_disabled": 0, "fusion_lon": 0.0, "lat": 38.90406516666667, "name": "b6a11364361819cdf960222b45b59b5e", "bike_id": "b6a11364361819cdf960222b45b59b5e", "lon": -77.02601833333334, "fusion_lat": 0.0, "rental_uris": {"android": "https://dc.lft.to/lastmile_qr_scan", "ios": "https://dc.lft.to/lastmile_qr_scan"}, "type": "electric_scooter"}, {"is_reserved": 0, "is_disabled": 0, "fusion_lon": 0.0, "lat": 38.9246125, "name": "053d26d62f873c9230f8e750810036bf", "bike_id": "053d26d62f873c9230f8e750810036bf", "lon": -77.02266966666667, "fusion_lat": 0.0, "rental_uris": {"android": "https://dc.lft.to/lastmile_qr_scan", "ios": "https://dc.lft.to/lastmile_qr_scan"}, "type": "electric_scooter"}, {"is_reserved": 0, "is_disabled": 0, "fusion_lon": 0.0, "lat": 38.89744866666667, "name": "8f9b979f938890f71d0126d3e4d3b454", "bike_id": "8f9b979f938890f71d0126d3e4d3b454", "lon": -76.97581366666667, "fusion_lat": 0.0, "rental_uris": {"android": "https://dc.lft.to/lastmile_qr_scan", "ios": "https://dc.lft.to/lastmile_qr_scan"}, "type": "electric_scooter"}, {"is_reserved": 0, "is_disabled": 0, "fusion_lon": 0.0, "lat": 38.878959333333334, "name": "ad3b870f7d5915f3ab28a8e7273f2c7f", "bike_id": "ad3b870f7d5915f3ab28a8e7273f2c7f", "lon": -76.98672033333334, "fusion_lat": 0.0, "rental_uris": {"android": "https://dc.lft.to/lastmile_qr_scan", "ios": "https://dc.lft.to/lastmile_qr_scan"}, "type": "electric_scooter"}, {"is_reserved": 0, "is_disabled": 0, "fusion_lon": 0.0, "lat": 38.9175075, "name": "08405b1c46336afd10aaf48884a6df2e", "bike_id": "08405b1c46336afd10aaf48884a6df2e", "lon": -77.02487266666667, "fusion_lat": 0.0, "rental_uris": {"android": "https://dc.lft.to/lastmile_qr_scan", "ios": "https://dc.lft.to/lastmile_qr_scan"}, "type": "electric_scooter"}, {"is_reserved": 0, "is_disabled": 0, "fusion_lon": 0.0, "lat": 38.908845166666666, "name": "373c0d83daeb0b924bcb9c7ec9111616", "bike_id": "373c0d83daeb0b924bcb9c7ec9111616", "lon": -77.03399883333333, "fusion_lat": 0.0, "rental_uris": {"android": "https://dc.lft.to/lastmile_qr_scan", "ios": "https://dc.lft.to/lastmile_qr_scan"}, "type": "electric_scooter"}, {"is_reserved": 0, "is_disabled": 0, "fusion_lon": 0.0, "lat": 38.8923065, "name": "84c8deed396f020f342c78db78c66285", "bike_id": "84c8deed396f020f342c78db78c66285", "lon": -77.03184283333333, "fusion_lat": 0.0, "rental_uris": {"android": "https://dc.lft.to/lastmile_qr_scan", "ios": "https://dc.lft.to/lastmile_qr_scan"}, "type": "electric_scooter"}, {"is_reserved": 0, "is_disabled": 0, "fusion_lon": 0.0, "lat": 38.924541166666664, "name": "c1b11e490899575a516a55cce672afbc", "bike_id": "c1b11e490899575a516a55cce672afbc", "lon": -77.033873, "fusion_lat": 0.0, "rental_uris": {"android": "https://dc.lft.to/lastmile_qr_scan", "ios": "https://dc.lft.to/lastmile_qr_scan"}, "type": "electric_scooter"}, {"is_reserved": 0, "is_disabled": 0, "fusion_lon": 0.0, "lat": 38.920706333333335, "name": "79e3573995fcc1183b9eb78dfa3d927f", "bike_id": "79e3573995fcc1183b9eb78dfa3d927f", "lon": -77.042508, "fusion_lat": 0.0, "rental_uris": {"android": "https://dc.lft.to/lastmile_qr_scan", "ios": "https://dc.lft.to/lastmile_qr_scan"}, "type": "electric_scooter"}, {"is_reserved": 0, "is_disabled": 0, "fusion_lon": 0.0, "lat": 38.91933366666667, "name": "daeaa8bfa53912137208a05234ba19bd", "bike_id": "daeaa8bfa53912137208a05234ba19bd", "lon": -77.01910516666666, "fusion_lat": 0.0, "rental_uris": {"android": "https://dc.lft.to/lastmile_qr_scan", "ios": "https://dc.lft.to/lastmile_qr_scan"}, "type": "electric_scooter"}, {"is_reserved": 0, "is_disabled": 0, "fusion_lon": 0.0, "lat": 38.91726216666667, "name": "8285100ab2866a09a50a9978f496dcaf", "bike_id": "8285100ab2866a09a50a9978f496dcaf", "lon": -77.03209083333333, "fusion_lat": 0.0, "rental_uris": {"android": "https://dc.lft.to/lastmile_qr_scan", "ios": "https://dc.lft.to/lastmile_qr_scan"}, "type": "electric_scooter"}, {"is_reserved": 0, "is_disabled": 0, "fusion_lon": 0.0, "lat": 38.89500983333333, "name": "cf05d8a2e980af6d77534f7cbd45ee70", "bike_id": "cf05d8a2e980af6d77534f7cbd45ee70", "lon": -77.046378, "fusion_lat": 0.0, "rental_uris": {"android": "https://dc.lft.to/lastmile_qr_scan", "ios": "https://dc.lft.to/lastmile_qr_scan"}, "type": "electric_scooter"}, {"is_reserved": 0, "is_disabled": 0, "fusion_lon": 0.0, "lat": 38.8988905, "name": "599d514360668c6029f278c48c77b4c1", "bike_id": "599d514360668c6029f278c48c77b4c1", "lon": -77.04067133333334, "fusion_lat": 0.0, "rental_uris": {"android": "https://dc.lft.to/lastmile_qr_scan", "ios": "https://dc.lft.to/lastmile_qr_scan"}, "type": "electric_scooter"}, {"is_reserved": 0, "is_disabled": 0, "fusion_lon": 0.0, "lat": 38.9070525, "name": "d570a2a71a3d091fa3634768bba601ca", "bike_id": "d570a2a71a3d091fa3634768bba601ca", "lon": -77.04529916666667, "fusion_lat": 0.0, "rental_uris": {"android": "https://dc.lft.to/lastmile_qr_scan", "ios": "https://dc.lft.to/lastmile_qr_scan"}, "type": "electric_scooter"}, {"is_reserved": 0, "is_disabled": 0, "fusion_lon": 0.0, "lat": 38.938425333333335, "name": "7a9439ee3ca8f2a1f8850e700a668d90", "bike_id": "7a9439ee3ca8f2a1f8850e700a668d90", "lon": -77.02470266666667, "fusion_lat": 0.0, "rental_uris": {"android": "https://dc.lft.to/lastmile_qr_scan", "ios": "https://dc.lft.to/lastmile_qr_scan"}, "type": "electric_scooter"}, {"is_reserved": 0, "is_disabled": 0, "fusion_lon": 0.0, "lat": 38.923243166666666, "name": "185f75685070023cafefd0be83adbc22", "bike_id": "185f75685070023cafefd0be83adbc22", "lon": -77.02964483333334, "fusion_lat": 0.0, "rental_uris": {"android": "https://dc.lft.to/lastmile_qr_scan", "ios": "https://dc.lft.to/lastmile_qr_scan"}, "type": "electric_scooter"}, {"is_reserved": 0, "is_disabled": 0, "fusion_lon": 0.0, "lat": 38.922189333333336, "name": "c225f2306716d12371e92ea013561757", "bike_id": "c225f2306716d12371e92ea013561757", "lon": -77.04467783333334, "fusion_lat": 0.0, "rental_uris": {"android": "https://dc.lft.to/lastmile_qr_scan", "ios": "https://dc.lft.to/lastmile_qr_scan"}, "type": "electric_scooter"}, {"is_reserved": 0, "is_disabled": 0, "fusion_lon": 0.0, "lat": 38.9396965, "name": "dd84be9c092717dc0480c344a3d76986", "bike_id": "dd84be9c092717dc0480c344a3d76986", "lon": -76.98613983333334, "fusion_lat": 0.0, "rental_uris": {"android": "https://dc.lft.to/lastmile_qr_scan", "ios": "https://dc.lft.to/lastmile_qr_scan"}, "type": "electric_bike"}, {"is_reserved": 0, "is_disabled": 0, "fusion_lon": 0.0, "lat": 38.867232666666666, "name": "abb9425b2b0b19c3726b2268acc082b6", "bike_id": "abb9425b2b0b19c3726b2268acc082b6", "lon": -77.01016033333333, "fusion_lat": 0.0, "rental_uris": {"android": "https://dc.lft.to/lastmile_qr_scan", "ios": "https://dc.lft.to/lastmile_qr_scan"}, "type": "electric_scooter"}, {"is_reserved": 0, "is_disabled": 0, "fusion_lon": 0.0, "lat": 38.914151833333335, "name": "261cce6da891ca696985d1aca96a2ed9", "bike_id": "261cce6da891ca696985d1aca96a2ed9", "lon": -77.00935266666667, "fusion_lat": 0.0, "rental_uris": {"android": "https://dc.lft.to/lastmile_qr_scan", "ios": "https://dc.lft.to/lastmile_qr_scan"}, "type": "electric_scooter"}, {"is_reserved": 0, "is_disabled": 0, "fusion_lon": 0.0, "lat": 38.917050833333334, "name": "73a7b06bf51bb5ad0841b2e3ffc7450a", "bike_id": "73a7b06bf51bb5ad0841b2e3ffc7450a", "lon": -77.03893, "fusion_lat": 0.0, "rental_uris": {"android": "https://dc.lft.to/lastmile_qr_scan", "ios": "https://dc.lft.to/lastmile_qr_scan"}, "type": "electric_scooter"}, {"is_reserved": 0, "is_disabled": 0, "fusion_lon": 0.0, "lat": 38.86559066666667, "name": "4ad979af9a87faeb00dedb2f845f6cde", "bike_id": "4ad979af9a87faeb00dedb2f845f6cde", "lon": -76.97473016666666, "fusion_lat": 0.0, "rental_uris": {"android": "https://dc.lft.to/lastmile_qr_scan", "ios": "https://dc.lft.to/lastmile_qr_scan"}, "type": "electric_bike"}, {"is_reserved": 0, "is_disabled": 0, "fusion_lon": 0.0, "lat": 38.895149, "name": "99f42985d1a1490de4dba4ddb39b59a5", "bike_id": "99f42985d1a1490de4dba4ddb39b59a5", "lon": -77.01087383333333, "fusion_lat": 0.0, "rental_uris": {"android": "https://dc.lft.to/lastmile_qr_scan", "ios": "https://dc.lft.to/lastmile_qr_scan"}, "type": "electric_scooter"}, {"is_reserved": 0, "is_disabled": 0, "fusion_lon": 0.0, "lat": 38.824322333333335, "name": "ff884580bf745f49c0181d6a100431eb", "bike_id": "ff884580bf745f49c0181d6a100431eb", "lon": -77.12038416666667, "fusion_lat": 0.0, "rental_uris": {"android": "https://dc.lft.to/lastmile_qr_scan", "ios": "https://dc.lft.to/lastmile_qr_scan"}, "type": "electric_bike"}, {"is_reserved": 0, "is_disabled": 0, "fusion_lon": 0.0, "lat": 38.8706695, "name": "3534255373a430a22579dc76d8a6bf5b", "bike_id": "3534255373a430a22579dc76d8a6bf5b", "lon": -76.98002266666667, "fusion_lat": 0.0, "rental_uris": {"android": "https://dc.lft.to/lastmile_qr_scan", "ios": "https://dc.lft.to/lastmile_qr_scan"}, "type": "electric_scooter"}, {"is_reserved": 0, "is_disabled": 0, "fusion_lon": 0.0, "lat": 38.882186833333336, "name": "b7d0f05908ff6017bcfd7df606ce02e8", "bike_id": "b7d0f05908ff6017bcfd7df606ce02e8", "lon": -76.99740616666666, "fusion_lat": 0.0, "rental_uris": {"android": "https://dc.lft.to/lastmile_qr_scan", "ios": "https://dc.lft.to/lastmile_qr_scan"}, "type": "electric_scooter"}, {"is_reserved": 0, "is_disabled": 0, "fusion_lon": 0.0, "lat": 38.88332666666667, "name": "a3a2ae12e8ed81e175f2cb7348064d41", "bike_id": "a3a2ae12e8ed81e175f2cb7348064d41", "lon": -77.01373816666667, "fusion_lat": 0.0, "rental_uris": {"android": "https://dc.lft.to/lastmile_qr_scan", "ios": "https://dc.lft.to/lastmile_qr_scan"}, "type": "electric_scooter"}, {"is_reserved": 0, "is_disabled": 0, "fusion_lon": 0.0, "lat": 38.89225, "name": "9c9a597d1d332003992c1d4424200df1", "bike_id": "9c9a597d1d332003992c1d4424200df1", "lon": -77.04802166666667, "fusion_lat": 0.0, "rental_uris": {"android": "https://dc.lft.to/lastmile_qr_scan", "ios": "https://dc.lft.to/lastmile_qr_scan"}, "type": "electric_scooter"}, {"is_reserved": 0, "is_disabled": 0, "fusion_lon": 0.0, "lat": 38.908382, "name": "2a14ffdec50d4f0efc88e6acc55dcb87", "bike_id": "2a14ffdec50d4f0efc88e6acc55dcb87", "lon": -77.00222033333333, "fusion_lat": 0.0, "rental_uris": {"android": "https://dc.lft.to/lastmile_qr_scan", "ios": "https://dc.lft.to/lastmile_qr_scan"}, "type": "electric_scooter"}, {"is_reserved": 0, "is_disabled": 0, "fusion_lon": 0.0, "lat": 38.90007466666667, "name": "3d4e33169b40f058f1b6bd3058473632", "bike_id": "3d4e33169b40f058f1b6bd3058473632", "lon": -77.04662783333333, "fusion_lat": 0.0, "rental_uris": {"android": "https://dc.lft.to/lastmile_qr_scan", "ios": "https://dc.lft.to/lastmile_qr_scan"}, "type": "electric_scooter"}, {"is_reserved": 0, "is_disabled": 0, "fusion_lon": 0.0, "lat": 38.909698166666665, "name": "37923efcc9280ca9216869cb1834aa07", "bike_id": "37923efcc9280ca9216869cb1834aa07", "lon": -77.04522066666667, "fusion_lat": 0.0, "rental_uris": {"android": "https://dc.lft.to/lastmile_qr_scan", "ios": "https://dc.lft.to/lastmile_qr_scan"}, "type": "electric_scooter"}, {"is_reserved": 0, "is_disabled": 0, "fusion_lon": 0.0, "lat": 38.913981166666666, "name": "4f276f94c2ac183382c103ff7f8c9810", "bike_id": "4f276f94c2ac183382c103ff7f8c9810", "lon": -77.03260833333333, "fusion_lat": 0.0, "rental_uris": {"android": "https://dc.lft.to/lastmile_qr_scan", "ios": "https://dc.lft.to/lastmile_qr_scan"}, "type": "electric_scooter"}, {"is_reserved": 0, "is_disabled": 0, "fusion_lon": 0.0, "lat": 38.92448683333333, "name": "d2268b40dcc24fa62c71f5464932ec21", "bike_id": "d2268b40dcc24fa62c71f5464932ec21", "lon": -77.04017633333333, "fusion_lat": 0.0, "rental_uris": {"android": "https://dc.lft.to/lastmile_qr_scan", "ios": "https://dc.lft.to/lastmile_qr_scan"}, "type": "electric_scooter"}, {"is_reserved": 0, "is_disabled": 0, "fusion_lon": 0.0, "lat": 38.92438666666666, "name": "1bf5864385919c30ffd77ca06773b39f", "bike_id": "1bf5864385919c30ffd77ca06773b39f", "lon": -77.03403516666667, "fusion_lat": 0.0, "rental_uris": {"android": "https://dc.lft.to/lastmile_qr_scan", "ios": "https://dc.lft.to/lastmile_qr_scan"}, "type": "electric_scooter"}, {"is_reserved": 0, "is_disabled": 0, "fusion_lon": 0.0, "lat": 38.92705, "name": "c7de111bd9f2960c3cede1255f2ec924", "bike_id": "c7de111bd9f2960c3cede1255f2ec924", "lon": -77.0209555, "fusion_lat": 0.0, "rental_uris": {"android": "https://dc.lft.to/lastmile_qr_scan", "ios": "https://dc.lft.to/lastmile_qr_scan"}, "type": "electric_scooter"}, {"is_reserved": 0, "is_disabled": 0, "fusion_lon": 0.0, "lat": 38.8956535, "name": "3baff23cc39441ae378ae224f0d008b8", "bike_id": "3baff23cc39441ae378ae224f0d008b8", "lon": -76.99406966666666, "fusion_lat": 0.0, "rental_uris": {"android": "https://dc.lft.to/lastmile_qr_scan", "ios": "https://dc.lft.to/lastmile_qr_scan"}, "type": "electric_scooter"}, {"is_reserved": 0, "is_disabled": 0, "fusion_lon": 0.0, "lat": 38.905689833333334, "name": "7755b194054b9abfc04717873abf003c", "bike_id": "7755b194054b9abfc04717873abf003c", "lon": -77.005641, "fusion_lat": 0.0, "rental_uris": {"android": "https://dc.lft.to/lastmile_qr_scan", "ios": "https://dc.lft.to/lastmile_qr_scan"}, "type": "electric_scooter"}, {"is_reserved": 0, "is_disabled": 0, "fusion_lon": 0.0, "lat": 38.92002516666667, "name": "f9149e0e5a567abaf5b5f43cc9f9fa9d", "bike_id": "f9149e0e5a567abaf5b5f43cc9f9fa9d", "lon": -77.02340416666667, "fusion_lat": 0.0, "rental_uris": {"android": "https://dc.lft.to/lastmile_qr_scan", "ios": "https://dc.lft.to/lastmile_qr_scan"}, "type": "electric_scooter"}, {"is_reserved": 0, "is_disabled": 0, "fusion_lon": 0.0, "lat": 38.87574583333333, "name": "3f7d957084f2b9c44948def4172fdae5", "bike_id": "3f7d957084f2b9c44948def4172fdae5", "lon": -77.000647, "fusion_lat": 0.0, "rental_uris": {"android": "https://dc.lft.to/lastmile_qr_scan", "ios": "https://dc.lft.to/lastmile_qr_scan"}, "type": "electric_scooter"}, {"is_reserved": 0, "is_disabled": 0, "fusion_lon": 0.0, "lat": 38.896389166666665, "name": "d4a1a85681d164cce75551c308759910", "bike_id": "d4a1a85681d164cce75551c308759910", "lon": -77.043578, "fusion_lat": 0.0, "rental_uris": {"android": "https://dc.lft.to/lastmile_qr_scan", "ios": "https://dc.lft.to/lastmile_qr_scan"}, "type": "electric_scooter"}, {"is_reserved": 0, "is_disabled": 0, "fusion_lon": 0.0, "lat": 38.907233166666664, "name": "cc632bef45fb89d574fd6d39c2334208", "bike_id": "cc632bef45fb89d574fd6d39c2334208", "lon": -77.00319816666666, "fusion_lat": 0.0, "rental_uris": {"android": "https://dc.lft.to/lastmile_qr_scan", "ios": "https://dc.lft.to/lastmile_qr_scan"}, "type": "electric_scooter"}, {"is_reserved": 0, "is_disabled": 0, "fusion_lon": 0.0, "lat": 39.03900433333333, "name": "38d7631b4591548eee8dc9e446f1bbaf", "bike_id": "38d7631b4591548eee8dc9e446f1bbaf", "lon": -77.05043566666667, "fusion_lat": 0.0, "rental_uris": {"android": "https://dc.lft.to/lastmile_qr_scan", "ios": "https://dc.lft.to/lastmile_qr_scan"}, "type": "electric_bike"}, {"is_reserved": 0, "is_disabled": 0, "fusion_lon": 0.0, "lat": 38.913991, "name": "a52026354bf9a1655598082cfef6137f", "bike_id": "a52026354bf9a1655598082cfef6137f", "lon": -77.018142, "fusion_lat": 0.0, "rental_uris": {"android": "https://dc.lft.to/lastmile_qr_scan", "ios": "https://dc.lft.to/lastmile_qr_scan"}, "type": "electric_scooter"}, {"is_reserved": 0, "is_disabled": 0, "fusion_lon": 0.0, "lat": 38.882182, "name": "3f231773b0d7dae9fab1da5e070f6c3f", "bike_id": "3f231773b0d7dae9fab1da5e070f6c3f", "lon": -76.93922266666667, "fusion_lat": 0.0, "rental_uris": {"android": "https://dc.lft.to/lastmile_qr_scan", "ios": "https://dc.lft.to/lastmile_qr_scan"}, "type": "electric_scooter"}, {"is_reserved": 0, "is_disabled": 0, "fusion_lon": 0.0, "lat": 38.88379, "name": "f4589ab7d9f03308bdcb86bf501cb9b0", "bike_id": "f4589ab7d9f03308bdcb86bf501cb9b0", "lon": -77.00883616666667, "fusion_lat": 0.0, "rental_uris": {"android": "https://dc.lft.to/lastmile_qr_scan", "ios": "https://dc.lft.to/lastmile_qr_scan"}, "type": "electric_scooter"}, {"is_reserved": 0, "is_disabled": 0, "fusion_lon": 0.0, "lat": 38.9256195, "name": "eecc15eecd3cdcf1e571b4c5589b57cf", "bike_id": "eecc15eecd3cdcf1e571b4c5589b57cf", "lon": -77.03774783333333, "fusion_lat": 0.0, "rental_uris": {"android": "https://dc.lft.to/lastmile_qr_scan", "ios": "https://dc.lft.to/lastmile_qr_scan"}, "type": "electric_scooter"}, {"is_reserved": 0, "is_disabled": 0, "fusion_lon": 0.0, "lat": 38.92774216666667, "name": "1165c14add94b8071aa9837a751bb295", "bike_id": "1165c14add94b8071aa9837a751bb295", "lon": -77.02917, "fusion_lat": 0.0, "rental_uris": {"android": "https://dc.lft.to/lastmile_qr_scan", "ios": "https://dc.lft.to/lastmile_qr_scan"}, "type": "electric_scooter"}, {"is_reserved": 0, "is_disabled": 0, "fusion_lon": 0.0, "lat": 38.892181, "name": "2b53b2311d1215abba34d47b48a15516", "bike_id": "2b53b2311d1215abba34d47b48a15516", "lon": -77.048684, "fusion_lat": 0.0, "rental_uris": {"android": "https://dc.lft.to/lastmile_qr_scan", "ios": "https://dc.lft.to/lastmile_qr_scan"}, "type": "electric_scooter"}, {"is_reserved": 0, "is_disabled": 0, "fusion_lon": 0.0, "lat": 38.921015, "name": "a2aadabc0c378349444627d900da8957", "bike_id": "a2aadabc0c378349444627d900da8957", "lon": -77.02503866666666, "fusion_lat": 0.0, "rental_uris": {"android": "https://dc.lft.to/lastmile_qr_scan", "ios": "https://dc.lft.to/lastmile_qr_scan"}, "type": "electric_scooter"}, {"is_reserved": 0, "is_disabled": 0, "fusion_lon": 0.0, "lat": 38.92677966666667, "name": "7f44102b18b4f19120e933f44c2a64f5", "bike_id": "7f44102b18b4f19120e933f44c2a64f5", "lon": -77.0274755, "fusion_lat": 0.0, "rental_uris": {"android": "https://dc.lft.to/lastmile_qr_scan", "ios": "https://dc.lft.to/lastmile_qr_scan"}, "type": "electric_scooter"}, {"is_reserved": 0, "is_disabled": 0, "fusion_lon": 0.0, "lat": 38.927348, "name": "4e3e9eae600cdda5c5e971a9db72d477", "bike_id": "4e3e9eae600cdda5c5e971a9db72d477", "lon": -77.03238083333333, "fusion_lat": 0.0, "rental_uris": {"android": "https://dc.lft.to/lastmile_qr_scan", "ios": "https://dc.lft.to/lastmile_qr_scan"}, "type": "electric_scooter"}, {"is_reserved": 0, "is_disabled": 0, "fusion_lon": 0.0, "lat": 38.93387033333333, "name": "4fbe0310f2783681a49223c7da518e71", "bike_id": "4fbe0310f2783681a49223c7da518e71", "lon": -77.03249316666667, "fusion_lat": 0.0, "rental_uris": {"android": "https://dc.lft.to/lastmile_qr_scan", "ios": "https://dc.lft.to/lastmile_qr_scan"}, "type": "electric_scooter"}, {"is_reserved": 0, "is_disabled": 0, "fusion_lon": 0.0, "lat": 38.91863933333333, "name": "9cd7267f880c23998f2978aeb79f9156", "bike_id": "9cd7267f880c23998f2978aeb79f9156", "lon": -77.04600183333334, "fusion_lat": 0.0, "rental_uris": {"android": "https://dc.lft.to/lastmile_qr_scan", "ios": "https://dc.lft.to/lastmile_qr_scan"}, "type": "electric_scooter"}, {"is_reserved": 0, "is_disabled": 0, "fusion_lon": 0.0, "lat": 38.89704966666667, "name": "c76d7dc58a2e8fe5a1740cedb9773597", "bike_id": "c76d7dc58a2e8fe5a1740cedb9773597", "lon": -76.94744166666666, "fusion_lat": 0.0, "rental_uris": {"android": "https://dc.lft.to/lastmile_qr_scan", "ios": "https://dc.lft.to/lastmile_qr_scan"}, "type": "electric_bike"}, {"is_reserved": 0, "is_disabled": 0, "fusion_lon": 0.0, "lat": 38.89938866666667, "name": "99736c98092f8a61158c7b19376be888", "bike_id": "99736c98092f8a61158c7b19376be888", "lon": -77.04148016666667, "fusion_lat": 0.0, "rental_uris": {"android": "https://dc.lft.to/lastmile_qr_scan", "ios": "https://dc.lft.to/lastmile_qr_scan"}, "type": "electric_scooter"}, {"is_reserved": 0, "is_disabled": 0, "fusion_lon": 0.0, "lat": 38.8994105, "name": "d84a57fe64a438fb019b455ae7f68dc3", "bike_id": "d84a57fe64a438fb019b455ae7f68dc3", "lon": -76.997336, "fusion_lat": 0.0, "rental_uris": {"android": "https://dc.lft.to/lastmile_qr_scan", "ios": "https://dc.lft.to/lastmile_qr_scan"}, "type": "electric_scooter"}, {"is_reserved": 0, "is_disabled": 0, "fusion_lon": 0.0, "lat": 38.9223315, "name": "af4ee6b195d307fd5ef84b787202c0c3", "bike_id": "af4ee6b195d307fd5ef84b787202c0c3", "lon": -77.02855766666667, "fusion_lat": 0.0, "rental_uris": {"android": "https://dc.lft.to/lastmile_qr_scan", "ios": "https://dc.lft.to/lastmile_qr_scan"}, "type": "electric_scooter"}, {"is_reserved": 0, "is_disabled": 0, "fusion_lon": 0.0, "lat": 38.9147645, "name": "6895c11cbf3b219bc6c88ec3429b9e5c", "bike_id": "6895c11cbf3b219bc6c88ec3429b9e5c", "lon": -77.00214066666666, "fusion_lat": 0.0, "rental_uris": {"android": "https://dc.lft.to/lastmile_qr_scan", "ios": "https://dc.lft.to/lastmile_qr_scan"}, "type": "electric_scooter"}, {"is_reserved": 0, "is_disabled": 0, "fusion_lon": 0.0, "lat": 38.896284, "name": "53cf58f9decabf9714247e56009473c9", "bike_id": "53cf58f9decabf9714247e56009473c9", "lon": -77.01908833333333, "fusion_lat": 0.0, "rental_uris": {"android": "https://dc.lft.to/lastmile_qr_scan", "ios": "https://dc.lft.to/lastmile_qr_scan"}, "type": "electric_scooter"}, {"is_reserved": 0, "is_disabled": 0, "fusion_lon": 0.0, "lat": 38.92095533333333, "name": "fd1a20b9f8445c5191ae6b8a0fbcae27", "bike_id": "fd1a20b9f8445c5191ae6b8a0fbcae27", "lon": -77.02533033333333, "fusion_lat": 0.0, "rental_uris": {"android": "https://dc.lft.to/lastmile_qr_scan", "ios": "https://dc.lft.to/lastmile_qr_scan"}, "type": "electric_scooter"}, {"is_reserved": 0, "is_disabled": 0, "fusion_lon": 0.0, "lat": 38.89685883333333, "name": "ea6f5782b407e5669c11e614451fbafd", "bike_id": "ea6f5782b407e5669c11e614451fbafd", "lon": -76.927898, "fusion_lat": 0.0, "rental_uris": {"android": "https://dc.lft.to/lastmile_qr_scan", "ios": "https://dc.lft.to/lastmile_qr_scan"}, "type": "electric_scooter"}, {"is_reserved": 0, "is_disabled": 0, "fusion_lon": 0.0, "lat": 38.96217466666667, "name": "35dd231a8c418ab9353477b3273276ff", "bike_id": "35dd231a8c418ab9353477b3273276ff", "lon": -77.02773866666666, "fusion_lat": 0.0, "rental_uris": {"android": "https://dc.lft.to/lastmile_qr_scan", "ios": "https://dc.lft.to/lastmile_qr_scan"}, "type": "electric_scooter"}, {"is_reserved": 0, "is_disabled": 0, "fusion_lon": 0.0, "lat": 38.90399133333333, "name": "1775932efe647ac9e361cac69f7bfa47", "bike_id": "1775932efe647ac9e361cac69f7bfa47", "lon": -77.03762033333334, "fusion_lat": 0.0, "rental_uris": {"android": "https://dc.lft.to/lastmile_qr_scan", "ios": "https://dc.lft.to/lastmile_qr_scan"}, "type": "electric_scooter"}, {"is_reserved": 0, "is_disabled": 0, "fusion_lon": 0.0, "lat": 38.904090833333335, "name": "76d386995134c49cf2eb349f3bd60bf7", "bike_id": "76d386995134c49cf2eb349f3bd60bf7", "lon": -76.97329983333333, "fusion_lat": 0.0, "rental_uris": {"android": "https://dc.lft.to/lastmile_qr_scan", "ios": "https://dc.lft.to/lastmile_qr_scan"}, "type": "electric_scooter"}, {"is_reserved": 0, "is_disabled": 0, "fusion_lon": 0.0, "lat": 38.892077666666665, "name": "31dccd00267a420b94bf20a9c63d9f0d", "bike_id": "31dccd00267a420b94bf20a9c63d9f0d", "lon": -77.02379616666667, "fusion_lat": 0.0, "rental_uris": {"android": "https://dc.lft.to/lastmile_qr_scan", "ios": "https://dc.lft.to/lastmile_qr_scan"}, "type": "electric_scooter"}, {"is_reserved": 0, "is_disabled": 0, "fusion_lon": 0.0, "lat": 38.92466316666667, "name": "1fdefc66e8c8474182c68e80c07918ba", "bike_id": "1fdefc66e8c8474182c68e80c07918ba", "lon": -77.02203083333333, "fusion_lat": 0.0, "rental_uris": {"android": "https://dc.lft.to/lastmile_qr_scan", "ios": "https://dc.lft.to/lastmile_qr_scan"}, "type": "electric_scooter"}, {"is_reserved": 0, "is_disabled": 0, "fusion_lon": 0.0, "lat": 38.8950415, "name": "090a5e36a686e898291c9ac717bc7812", "bike_id": "090a5e36a686e898291c9ac717bc7812", "lon": -76.9347585, "fusion_lat": 0.0, "rental_uris": {"android": "https://dc.lft.to/lastmile_qr_scan", "ios": "https://dc.lft.to/lastmile_qr_scan"}, "type": "electric_scooter"}, {"is_reserved": 0, "is_disabled": 0, "fusion_lon": 0.0, "lat": 38.92663733333333, "name": "e1e02c888e73c1774f0ee7cdf17cd50a", "bike_id": "e1e02c888e73c1774f0ee7cdf17cd50a", "lon": -77.015199, "fusion_lat": 0.0, "rental_uris": {"android": "https://dc.lft.to/lastmile_qr_scan", "ios": "https://dc.lft.to/lastmile_qr_scan"}, "type": "electric_scooter"}, {"is_reserved": 0, "is_disabled": 0, "fusion_lon": 0.0, "lat": 38.905207833333336, "name": "9a7f150ffdaadf147295b93f1f75a5a2", "bike_id": "9a7f150ffdaadf147295b93f1f75a5a2", "lon": -77.0297515, "fusion_lat": 0.0, "rental_uris": {"android": "https://dc.lft.to/lastmile_qr_scan", "ios": "https://dc.lft.to/lastmile_qr_scan"}, "type": "electric_scooter"}, {"is_reserved": 0, "is_disabled": 0, "fusion_lon": 0.0, "lat": 38.90960883333333, "name": "339caf131d18df4e16cdf45847141d30", "bike_id": "339caf131d18df4e16cdf45847141d30", "lon": -77.08806133333333, "fusion_lat": 0.0, "rental_uris": {"android": "https://dc.lft.to/lastmile_qr_scan", "ios": "https://dc.lft.to/lastmile_qr_scan"}, "type": "electric_bike"}, {"is_reserved": 0, "is_disabled": 0, "fusion_lon": 0.0, "lat": 38.929953, "name": "26d914f6f025351c9b709e8c5c0b8be6", "bike_id": "26d914f6f025351c9b709e8c5c0b8be6", "lon": -77.03772666666667, "fusion_lat": 0.0, "rental_uris": {"android": "https://dc.lft.to/lastmile_qr_scan", "ios": "https://dc.lft.to/lastmile_qr_scan"}, "type": "electric_scooter"}, {"is_reserved": 0, "is_disabled": 0, "fusion_lon": 0.0, "lat": 38.9248405, "name": "05e03ae70956f0b719bf92ea72942fe1", "bike_id": "05e03ae70956f0b719bf92ea72942fe1", "lon": -77.03935283333334, "fusion_lat": 0.0, "rental_uris": {"android": "https://dc.lft.to/lastmile_qr_scan", "ios": "https://dc.lft.to/lastmile_qr_scan"}, "type": "electric_scooter"}, {"is_reserved": 0, "is_disabled": 0, "fusion_lon": 0.0, "lat": 38.921503, "name": "c7d5ca2138e9ecc621f59ff3dc063ba5", "bike_id": "c7d5ca2138e9ecc621f59ff3dc063ba5", "lon": -77.038708, "fusion_lat": 0.0, "rental_uris": {"android": "https://dc.lft.to/lastmile_qr_scan", "ios": "https://dc.lft.to/lastmile_qr_scan"}, "type": "electric_scooter"}, {"is_reserved": 0, "is_disabled": 0, "fusion_lon": 0.0, "lat": 38.92691883333333, "name": "fb68336364853c92507a3f1fd189b2b9", "bike_id": "fb68336364853c92507a3f1fd189b2b9", "lon": -77.0257215, "fusion_lat": 0.0, "rental_uris": {"android": "https://dc.lft.to/lastmile_qr_scan", "ios": "https://dc.lft.to/lastmile_qr_scan"}, "type": "electric_scooter"}, {"is_reserved": 0, "is_disabled": 0, "fusion_lon": 0.0, "lat": 38.898432666666665, "name": "e8ea1ccf9a671de021b2bd492c0786e5", "bike_id": "e8ea1ccf9a671de021b2bd492c0786e5", "lon": -77.02276633333334, "fusion_lat": 0.0, "rental_uris": {"android": "https://dc.lft.to/lastmile_qr_scan", "ios": "https://dc.lft.to/lastmile_qr_scan"}, "type": "electric_scooter"}, {"is_reserved": 0, "is_disabled": 0, "fusion_lon": 0.0, "lat": 38.9055415, "name": "f297391f1a1efd5859f59509120d24d8", "bike_id": "f297391f1a1efd5859f59509120d24d8", "lon": -77.006977, "fusion_lat": 0.0, "rental_uris": {"android": "https://dc.lft.to/lastmile_qr_scan", "ios": "https://dc.lft.to/lastmile_qr_scan"}, "type": "electric_scooter"}, {"is_reserved": 0, "is_disabled": 0, "fusion_lon": 0.0, "lat": 38.93419883333333, "name": "8bc6d34bb26bfd71e9f36bbebd1a524e", "bike_id": "8bc6d34bb26bfd71e9f36bbebd1a524e", "lon": -77.01994016666667, "fusion_lat": 0.0, "rental_uris": {"android": "https://dc.lft.to/lastmile_qr_scan", "ios": "https://dc.lft.to/lastmile_qr_scan"}, "type": "electric_scooter"}, {"is_reserved": 0, "is_disabled": 0, "fusion_lon": 0.0, "lat": 38.91835533333333, "name": "20cd9894ebf31eb3595442e7951a69b8", "bike_id": "20cd9894ebf31eb3595442e7951a69b8", "lon": -77.0229785, "fusion_lat": 0.0, "rental_uris": {"android": "https://dc.lft.to/lastmile_qr_scan", "ios": "https://dc.lft.to/lastmile_qr_scan"}, "type": "electric_scooter"}, {"is_reserved": 0, "is_disabled": 0, "fusion_lon": 0.0, "lat": 38.915427, "name": "557fcb785121554517186faba62ff41a", "bike_id": "557fcb785121554517186faba62ff41a", "lon": -77.04447466666667, "fusion_lat": 0.0, "rental_uris": {"android": "https://dc.lft.to/lastmile_qr_scan", "ios": "https://dc.lft.to/lastmile_qr_scan"}, "type": "electric_scooter"}, {"is_reserved": 0, "is_disabled": 0, "fusion_lon": 0.0, "lat": 38.90215233333333, "name": "f94d9a8d8ebba4bb0a7fe295ea5c0e45", "bike_id": "f94d9a8d8ebba4bb0a7fe295ea5c0e45", "lon": -77.051191, "fusion_lat": 0.0, "rental_uris": {"android": "https://dc.lft.to/lastmile_qr_scan", "ios": "https://dc.lft.to/lastmile_qr_scan"}, "type": "electric_scooter"}, {"is_reserved": 0, "is_disabled": 0, "fusion_lon": 0.0, "lat": 38.88689866666667, "name": "2cd1e18692b35fa935d43d9c8d09bd1c", "bike_id": "2cd1e18692b35fa935d43d9c8d09bd1c", "lon": -76.97639133333334, "fusion_lat": 0.0, "rental_uris": {"android": "https://dc.lft.to/lastmile_qr_scan", "ios": "https://dc.lft.to/lastmile_qr_scan"}, "type": "electric_scooter"}, {"is_reserved": 0, "is_disabled": 0, "fusion_lon": 0.0, "lat": 38.896305, "name": "805610819dabef09ec11038644630dda", "bike_id": "805610819dabef09ec11038644630dda", "lon": -77.04013083333334, "fusion_lat": 0.0, "rental_uris": {"android": "https://dc.lft.to/lastmile_qr_scan", "ios": "https://dc.lft.to/lastmile_qr_scan"}, "type": "electric_scooter"}, {"is_reserved": 0, "is_disabled": 0, "fusion_lon": 0.0, "lat": 38.909866, "name": "176a1d01529e1d655b1ed4df62c66f67", "bike_id": "176a1d01529e1d655b1ed4df62c66f67", "lon": -77.0220405, "fusion_lat": 0.0, "rental_uris": {"android": "https://dc.lft.to/lastmile_qr_scan", "ios": "https://dc.lft.to/lastmile_qr_scan"}, "type": "electric_scooter"}, {"is_reserved": 0, "is_disabled": 0, "fusion_lon": 0.0, "lat": 38.912607666666666, "name": "855b267e08525a527bb563a902b9dd96", "bike_id": "855b267e08525a527bb563a902b9dd96", "lon": -76.97207366666666, "fusion_lat": 0.0, "rental_uris": {"android": "https://dc.lft.to/lastmile_qr_scan", "ios": "https://dc.lft.to/lastmile_qr_scan"}, "type": "electric_scooter"}, {"is_reserved": 0, "is_disabled": 0, "fusion_lon": 0.0, "lat": 38.89177733333333, "name": "17ff601259b1f8e07ec812d66dba9f9f", "bike_id": "17ff601259b1f8e07ec812d66dba9f9f", "lon": -77.015649, "fusion_lat": 0.0, "rental_uris": {"android": "https://dc.lft.to/lastmile_qr_scan", "ios": "https://dc.lft.to/lastmile_qr_scan"}, "type": "electric_scooter"}, {"is_reserved": 0, "is_disabled": 0, "fusion_lon": 0.0, "lat": 38.92488016666667, "name": "e2ca9382daf23d8ab092e97ba0fd7930", "bike_id": "e2ca9382daf23d8ab092e97ba0fd7930", "lon": -77.02135416666667, "fusion_lat": 0.0, "rental_uris": {"android": "https://dc.lft.to/lastmile_qr_scan", "ios": "https://dc.lft.to/lastmile_qr_scan"}, "type": "electric_scooter"}, {"is_reserved": 0, "is_disabled": 0, "fusion_lon": 0.0, "lat": 38.895672833333336, "name": "4525bc98ca7897a5d9ce4a838ee9eb4b", "bike_id": "4525bc98ca7897a5d9ce4a838ee9eb4b", "lon": -76.9940685, "fusion_lat": 0.0, "rental_uris": {"android": "https://dc.lft.to/lastmile_qr_scan", "ios": "https://dc.lft.to/lastmile_qr_scan"}, "type": "electric_scooter"}, {"is_reserved": 0, "is_disabled": 0, "fusion_lon": 0.0, "lat": 38.90394366666666, "name": "081207ef6ba076543b9da51a52666c9b", "bike_id": "081207ef6ba076543b9da51a52666c9b", "lon": -77.01269516666666, "fusion_lat": 0.0, "rental_uris": {"android": "https://dc.lft.to/lastmile_qr_scan", "ios": "https://dc.lft.to/lastmile_qr_scan"}, "type": "electric_scooter"}, {"is_reserved": 0, "is_disabled": 0, "fusion_lon": 0.0, "lat": 38.9163135, "name": "f90fa0f7ca337a61a444b21a116c16c1", "bike_id": "f90fa0f7ca337a61a444b21a116c16c1", "lon": -77.046199, "fusion_lat": 0.0, "rental_uris": {"android": "https://dc.lft.to/lastmile_qr_scan", "ios": "https://dc.lft.to/lastmile_qr_scan"}, "type": "electric_scooter"}, {"is_reserved": 0, "is_disabled": 0, "fusion_lon": 0.0, "lat": 38.894678, "name": "3c1b2ff66db83307d2cf8458e3e58008", "bike_id": "3c1b2ff66db83307d2cf8458e3e58008", "lon": -77.02033283333333, "fusion_lat": 0.0, "rental_uris": {"android": "https://dc.lft.to/lastmile_qr_scan", "ios": "https://dc.lft.to/lastmile_qr_scan"}, "type": "electric_scooter"}, {"is_reserved": 0, "is_disabled": 0, "fusion_lon": 0.0, "lat": 38.90530283333333, "name": "be46e53a3021550378258e136fc2f539", "bike_id": "be46e53a3021550378258e136fc2f539", "lon": -77.0090755, "fusion_lat": 0.0, "rental_uris": {"android": "https://dc.lft.to/lastmile_qr_scan", "ios": "https://dc.lft.to/lastmile_qr_scan"}, "type": "electric_scooter"}, {"is_reserved": 0, "is_disabled": 0, "fusion_lon": 0.0, "lat": 38.903842166666664, "name": "ea0dd4ed56969d758455009d1bd24e26", "bike_id": "ea0dd4ed56969d758455009d1bd24e26", "lon": -77.04046633333333, "fusion_lat": 0.0, "rental_uris": {"android": "https://dc.lft.to/lastmile_qr_scan", "ios": "https://dc.lft.to/lastmile_qr_scan"}, "type": "electric_scooter"}, {"is_reserved": 0, "is_disabled": 0, "fusion_lon": 0.0, "lat": 38.9290435, "name": "44a6e3e0d8fd6deb516b1e31f81af4da", "bike_id": "44a6e3e0d8fd6deb516b1e31f81af4da", "lon": -77.03256816666666, "fusion_lat": 0.0, "rental_uris": {"android": "https://dc.lft.to/lastmile_qr_scan", "ios": "https://dc.lft.to/lastmile_qr_scan"}, "type": "electric_scooter"}, {"is_reserved": 0, "is_disabled": 0, "fusion_lon": 0.0, "lat": 38.92239433333334, "name": "5a06c18a93b0000e74a85024ca714af9", "bike_id": "5a06c18a93b0000e74a85024ca714af9", "lon": -77.022584, "fusion_lat": 0.0, "rental_uris": {"android": "https://dc.lft.to/lastmile_qr_scan", "ios": "https://dc.lft.to/lastmile_qr_scan"}, "type": "electric_scooter"}, {"is_reserved": 0, "is_disabled": 0, "fusion_lon": 0.0, "lat": 38.910924666666666, "name": "f507df03120e87990650fe42684cd6ce", "bike_id": "f507df03120e87990650fe42684cd6ce", "lon": -76.99712083333333, "fusion_lat": 0.0, "rental_uris": {"android": "https://dc.lft.to/lastmile_qr_scan", "ios": "https://dc.lft.to/lastmile_qr_scan"}, "type": "electric_scooter"}, {"is_reserved": 0, "is_disabled": 0, "fusion_lon": 0.0, "lat": 38.91736483333333, "name": "54566d58219636d24f9ca5975cfea8d3", "bike_id": "54566d58219636d24f9ca5975cfea8d3", "lon": -77.0250225, "fusion_lat": 0.0, "rental_uris": {"android": "https://dc.lft.to/lastmile_qr_scan", "ios": "https://dc.lft.to/lastmile_qr_scan"}, "type": "electric_scooter"}, {"is_reserved": 0, "is_disabled": 0, "fusion_lon": 0.0, "lat": 38.94886016666667, "name": "9850085c406bc059da7fec60ee863a85", "bike_id": "9850085c406bc059da7fec60ee863a85", "lon": -77.01855683333334, "fusion_lat": 0.0, "rental_uris": {"android": "https://dc.lft.to/lastmile_qr_scan", "ios": "https://dc.lft.to/lastmile_qr_scan"}, "type": "electric_scooter"}, {"is_reserved": 0, "is_disabled": 0, "fusion_lon": 0.0, "lat": 38.9249515, "name": "06d748615801e76425516adc2c984b38", "bike_id": "06d748615801e76425516adc2c984b38", "lon": -77.021561, "fusion_lat": 0.0, "rental_uris": {"android": "https://dc.lft.to/lastmile_qr_scan", "ios": "https://dc.lft.to/lastmile_qr_scan"}, "type": "electric_scooter"}, {"is_reserved": 0, "is_disabled": 0, "fusion_lon": 0.0, "lat": 38.93532366666667, "name": "bf95d5e3ced4f46d0675d0d2b325557f", "bike_id": "bf95d5e3ced4f46d0675d0d2b325557f", "lon": -77.0236635, "fusion_lat": 0.0, "rental_uris": {"android": "https://dc.lft.to/lastmile_qr_scan", "ios": "https://dc.lft.to/lastmile_qr_scan"}, "type": "electric_scooter"}, {"is_reserved": 0, "is_disabled": 0, "fusion_lon": 0.0, "lat": 38.82888533333333, "name": "836f910751fb2813d080009a6a839b51", "bike_id": "836f910751fb2813d080009a6a839b51", "lon": -77.01204216666666, "fusion_lat": 0.0, "rental_uris": {"android": "https://dc.lft.to/lastmile_qr_scan", "ios": "https://dc.lft.to/lastmile_qr_scan"}, "type": "electric_bike"}, {"is_reserved": 0, "is_disabled": 0, "fusion_lon": 0.0, "lat": 38.9061635, "name": "b0de95cb7f3895ddff6670ed4da70ffc", "bike_id": "b0de95cb7f3895ddff6670ed4da70ffc", "lon": -77.062656, "fusion_lat": 0.0, "rental_uris": {"android": "https://dc.lft.to/lastmile_qr_scan", "ios": "https://dc.lft.to/lastmile_qr_scan"}, "type": "electric_scooter"}, {"is_reserved": 0, "is_disabled": 0, "fusion_lon": 0.0, "lat": 38.91922816666667, "name": "bb2d61b5c3e9596bb1ab4211f88142b0", "bike_id": "bb2d61b5c3e9596bb1ab4211f88142b0", "lon": -77.0457545, "fusion_lat": 0.0, "rental_uris": {"android": "https://dc.lft.to/lastmile_qr_scan", "ios": "https://dc.lft.to/lastmile_qr_scan"}, "type": "electric_scooter"}, {"is_reserved": 0, "is_disabled": 0, "fusion_lon": 0.0, "lat": 38.91727483333333, "name": "67d1cf5ebaa47d1049112cd70fe31d2d", "bike_id": "67d1cf5ebaa47d1049112cd70fe31d2d", "lon": -77.0320755, "fusion_lat": 0.0, "rental_uris": {"android": "https://dc.lft.to/lastmile_qr_scan", "ios": "https://dc.lft.to/lastmile_qr_scan"}, "type": "electric_scooter"}, {"is_reserved": 0, "is_disabled": 0, "fusion_lon": 0.0, "lat": 38.881172, "name": "58978773d040b0134374a997a5d533ae", "bike_id": "58978773d040b0134374a997a5d533ae", "lon": -77.01650533333333, "fusion_lat": 0.0, "rental_uris": {"android": "https://dc.lft.to/lastmile_qr_scan", "ios": "https://dc.lft.to/lastmile_qr_scan"}, "type": "electric_bike"}, {"is_reserved": 0, "is_disabled": 0, "fusion_lon": 0.0, "lat": 38.89632433333333, "name": "805aa04f9d5ef4042983509240ba1c05", "bike_id": "805aa04f9d5ef4042983509240ba1c05", "lon": -76.929621, "fusion_lat": 0.0, "rental_uris": {"android": "https://dc.lft.to/lastmile_qr_scan", "ios": "https://dc.lft.to/lastmile_qr_scan"}, "type": "electric_scooter"}, {"is_reserved": 0, "is_disabled": 0, "fusion_lon": 0.0, "lat": 38.902004, "name": "69c763adca136566651594bda011cca0", "bike_id": "69c763adca136566651594bda011cca0", "lon": -76.99838383333334, "fusion_lat": 0.0, "rental_uris": {"android": "https://dc.lft.to/lastmile_qr_scan", "ios": "https://dc.lft.to/lastmile_qr_scan"}, "type": "electric_scooter"}, {"is_reserved": 0, "is_disabled": 0, "fusion_lon": 0.0, "lat": 38.9573095, "name": "c4e5e846791ae66c8e79d5337fdc0c7f", "bike_id": "c4e5e846791ae66c8e79d5337fdc0c7f", "lon": -77.02748683333333, "fusion_lat": 0.0, "rental_uris": {"android": "https://dc.lft.to/lastmile_qr_scan", "ios": "https://dc.lft.to/lastmile_qr_scan"}, "type": "electric_scooter"}, {"is_reserved": 0, "is_disabled": 0, "fusion_lon": 0.0, "lat": 38.931523166666665, "name": "b4fb2cf5f2bfbb8f5dff5f5cac362faa", "bike_id": "b4fb2cf5f2bfbb8f5dff5f5cac362faa", "lon": -77.03935383333334, "fusion_lat": 0.0, "rental_uris": {"android": "https://dc.lft.to/lastmile_qr_scan", "ios": "https://dc.lft.to/lastmile_qr_scan"}, "type": "electric_scooter"}, {"is_reserved": 0, "is_disabled": 0, "fusion_lon": 0.0, "lat": 38.961550833333334, "name": "0753bee9b3debc35a29e5752857d2925", "bike_id": "0753bee9b3debc35a29e5752857d2925", "lon": -76.99776916666667, "fusion_lat": 0.0, "rental_uris": {"android": "https://dc.lft.to/lastmile_qr_scan", "ios": "https://dc.lft.to/lastmile_qr_scan"}, "type": "electric_bike"}, {"is_reserved": 0, "is_disabled": 0, "fusion_lon": 0.0, "lat": 38.90868116666667, "name": "c4823616e17697108fc3dd0cd30eaefb", "bike_id": "c4823616e17697108fc3dd0cd30eaefb", "lon": -77.04538316666667, "fusion_lat": 0.0, "rental_uris": {"android": "https://dc.lft.to/lastmile_qr_scan", "ios": "https://dc.lft.to/lastmile_qr_scan"}, "type": "electric_scooter"}, {"is_reserved": 0, "is_disabled": 0, "fusion_lon": 0.0, "lat": 38.896117, "name": "b8d0c48300702b8111ac6fb6b011c831", "bike_id": "b8d0c48300702b8111ac6fb6b011c831", "lon": -77.04800083333333, "fusion_lat": 0.0, "rental_uris": {"android": "https://dc.lft.to/lastmile_qr_scan", "ios": "https://dc.lft.to/lastmile_qr_scan"}, "type": "electric_scooter"}, {"is_reserved": 0, "is_disabled": 0, "fusion_lon": 0.0, "lat": 38.93273133333334, "name": "bdf06b7b1abfc946d5bf21dad92e315e", "bike_id": "bdf06b7b1abfc946d5bf21dad92e315e", "lon": -77.0265515, "fusion_lat": 0.0, "rental_uris": {"android": "https://dc.lft.to/lastmile_qr_scan", "ios": "https://dc.lft.to/lastmile_qr_scan"}, "type": "electric_scooter"}, {"is_reserved": 0, "is_disabled": 0, "fusion_lon": 0.0, "lat": 38.91328133333333, "name": "4bb43a203b87f7c1117dc74ba7e7c2c3", "bike_id": "4bb43a203b87f7c1117dc74ba7e7c2c3", "lon": -77.0453435, "fusion_lat": 0.0, "rental_uris": {"android": "https://dc.lft.to/lastmile_qr_scan", "ios": "https://dc.lft.to/lastmile_qr_scan"}, "type": "electric_scooter"}, {"is_reserved": 0, "is_disabled": 0, "fusion_lon": 0.0, "lat": 38.89593816666667, "name": "53165fb64dfba50a181322bb25744a18", "bike_id": "53165fb64dfba50a181322bb25744a18", "lon": -77.048104, "fusion_lat": 0.0, "rental_uris": {"android": "https://dc.lft.to/lastmile_qr_scan", "ios": "https://dc.lft.to/lastmile_qr_scan"}, "type": "electric_scooter"}, {"is_reserved": 0, "is_disabled": 0, "fusion_lon": 0.0, "lat": 39.005314166666665, "name": "3a1a7abb76e4b36a3373ce53ee4c3cfb", "bike_id": "3a1a7abb76e4b36a3373ce53ee4c3cfb", "lon": -77.10400733333333, "fusion_lat": 0.0, "rental_uris": {"android": "https://dc.lft.to/lastmile_qr_scan", "ios": "https://dc.lft.to/lastmile_qr_scan"}, "type": "electric_bike"}, {"is_reserved": 0, "is_disabled": 0, "fusion_lon": 0.0, "lat": 38.897222, "name": "e176086d8c8a2fc056986e583e2cff42", "bike_id": "e176086d8c8a2fc056986e583e2cff42", "lon": -77.0244715, "fusion_lat": 0.0, "rental_uris": {"android": "https://dc.lft.to/lastmile_qr_scan", "ios": "https://dc.lft.to/lastmile_qr_scan"}, "type": "electric_scooter"}, {"is_reserved": 0, "is_disabled": 0, "fusion_lon": 0.0, "lat": 38.90340716666667, "name": "4cee99e3b8972df6e739c05d6358de0c", "bike_id": "4cee99e3b8972df6e739c05d6358de0c", "lon": -77.03307016666666, "fusion_lat": 0.0, "rental_uris": {"android": "https://dc.lft.to/lastmile_qr_scan", "ios": "https://dc.lft.to/lastmile_qr_scan"}, "type": "electric_scooter"}, {"is_reserved": 0, "is_disabled": 0, "fusion_lon": 0.0, "lat": 38.90280766666667, "name": "8f99f6656a5405a8d4eb7134730e1997", "bike_id": "8f99f6656a5405a8d4eb7134730e1997", "lon": -77.038393, "fusion_lat": 0.0, "rental_uris": {"android": "https://dc.lft.to/lastmile_qr_scan", "ios": "https://dc.lft.to/lastmile_qr_scan"}, "type": "electric_scooter"}, {"is_reserved": 0, "is_disabled": 0, "fusion_lon": 0.0, "lat": 38.89722233333333, "name": "ead63c13a186caba628c9078967c3734", "bike_id": "ead63c13a186caba628c9078967c3734", "lon": -77.04350416666666, "fusion_lat": 0.0, "rental_uris": {"android": "https://dc.lft.to/lastmile_qr_scan", "ios": "https://dc.lft.to/lastmile_qr_scan"}, "type": "electric_scooter"}, {"is_reserved": 0, "is_disabled": 0, "fusion_lon": 0.0, "lat": 38.93882, "name": "dd794a62cab1a287f52b66f53d55204e", "bike_id": "dd794a62cab1a287f52b66f53d55204e", "lon": -77.02528416666667, "fusion_lat": 0.0, "rental_uris": {"android": "https://dc.lft.to/lastmile_qr_scan", "ios": "https://dc.lft.to/lastmile_qr_scan"}, "type": "electric_scooter"}, {"is_reserved": 0, "is_disabled": 0, "fusion_lon": 0.0, "lat": 38.91057083333333, "name": "889579adb824a95b9f5a083669df9648", "bike_id": "889579adb824a95b9f5a083669df9648", "lon": -77.05289066666667, "fusion_lat": 0.0, "rental_uris": {"android": "https://dc.lft.to/lastmile_qr_scan", "ios": "https://dc.lft.to/lastmile_qr_scan"}, "type": "electric_scooter"}, {"is_reserved": 0, "is_disabled": 0, "fusion_lon": 0.0, "lat": 38.920133666666665, "name": "22cec0073b9f431b41c1bd33b75f3594", "bike_id": "22cec0073b9f431b41c1bd33b75f3594", "lon": -77.04406733333333, "fusion_lat": 0.0, "rental_uris": {"android": "https://dc.lft.to/lastmile_qr_scan", "ios": "https://dc.lft.to/lastmile_qr_scan"}, "type": "electric_scooter"}, {"is_reserved": 0, "is_disabled": 0, "fusion_lon": 0.0, "lat": 38.917088, "name": "463c2f958c384950f44750c4a8c8f08e", "bike_id": "463c2f958c384950f44750c4a8c8f08e", "lon": -77.032166, "fusion_lat": 0.0, "rental_uris": {"android": "https://dc.lft.to/lastmile_qr_scan", "ios": "https://dc.lft.to/lastmile_qr_scan"}, "type": "electric_scooter"}, {"is_reserved": 0, "is_disabled": 0, "fusion_lon": 0.0, "lat": 38.936366166666666, "name": "b318bb56dfdf024b9bb76fd3c73f11a5", "bike_id": "b318bb56dfdf024b9bb76fd3c73f11a5", "lon": -77.03669216666667, "fusion_lat": 0.0, "rental_uris": {"android": "https://dc.lft.to/lastmile_qr_scan", "ios": "https://dc.lft.to/lastmile_qr_scan"}, "type": "electric_scooter"}, {"is_reserved": 0, "is_disabled": 0, "fusion_lon": 0.0, "lat": 38.9280055, "name": "34d3a1aeea33099246b95b778630d0bd", "bike_id": "34d3a1aeea33099246b95b778630d0bd", "lon": -77.029785, "fusion_lat": 0.0, "rental_uris": {"android": "https://dc.lft.to/lastmile_qr_scan", "ios": "https://dc.lft.to/lastmile_qr_scan"}, "type": "electric_scooter"}, {"is_reserved": 0, "is_disabled": 0, "fusion_lon": 0.0, "lat": 38.902199333333336, "name": "a74def3a7244148f7c1c3ab8de9604a3", "bike_id": "a74def3a7244148f7c1c3ab8de9604a3", "lon": -77.04344683333333, "fusion_lat": 0.0, "rental_uris": {"android": "https://dc.lft.to/lastmile_qr_scan", "ios": "https://dc.lft.to/lastmile_qr_scan"}, "type": "electric_scooter"}, {"is_reserved": 0, "is_disabled": 0, "fusion_lon": 0.0, "lat": 38.93501216666667, "name": "6fe02ea80668bc3272301035d2b62aed", "bike_id": "6fe02ea80668bc3272301035d2b62aed", "lon": -77.03708483333334, "fusion_lat": 0.0, "rental_uris": {"android": "https://dc.lft.to/lastmile_qr_scan", "ios": "https://dc.lft.to/lastmile_qr_scan"}, "type": "electric_scooter"}, {"is_reserved": 0, "is_disabled": 0, "fusion_lon": 0.0, "lat": 38.900312666666665, "name": "5a2712cce7788c9279f6de4d311dfd69", "bike_id": "5a2712cce7788c9279f6de4d311dfd69", "lon": -76.86207766666666, "fusion_lat": 0.0, "rental_uris": {"android": "https://dc.lft.to/lastmile_qr_scan", "ios": "https://dc.lft.to/lastmile_qr_scan"}, "type": "electric_bike"}, {"is_reserved": 0, "is_disabled": 0, "fusion_lon": 0.0, "lat": 38.921154333333334, "name": "ab53f5b54799488f64e54935b1bf0e1b", "bike_id": "ab53f5b54799488f64e54935b1bf0e1b", "lon": -77.03246933333334, "fusion_lat": 0.0, "rental_uris": {"android": "https://dc.lft.to/lastmile_qr_scan", "ios": "https://dc.lft.to/lastmile_qr_scan"}, "type": "electric_scooter"}, {"is_reserved": 0, "is_disabled": 0, "fusion_lon": 0.0, "lat": 38.87661666666666, "name": "9912f6bd280f91d9c4d138d79c178935", "bike_id": "9912f6bd280f91d9c4d138d79c178935", "lon": -77.01995416666666, "fusion_lat": 0.0, "rental_uris": {"android": "https://dc.lft.to/lastmile_qr_scan", "ios": "https://dc.lft.to/lastmile_qr_scan"}, "type": "electric_scooter"}, {"is_reserved": 0, "is_disabled": 0, "fusion_lon": 0.0, "lat": 38.965613, "name": "f2cc9108ef7a7daf09ba00967a60edae", "bike_id": "f2cc9108ef7a7daf09ba00967a60edae", "lon": -77.0230325, "fusion_lat": 0.0, "rental_uris": {"android": "https://dc.lft.to/lastmile_qr_scan", "ios": "https://dc.lft.to/lastmile_qr_scan"}, "type": "electric_bike"}, {"is_reserved": 0, "is_disabled": 0, "fusion_lon": 0.0, "lat": 38.940395, "name": "f36ce06481e85f6b4bc413402f9e81e7", "bike_id": "f36ce06481e85f6b4bc413402f9e81e7", "lon": -77.029104, "fusion_lat": 0.0, "rental_uris": {"android": "https://dc.lft.to/lastmile_qr_scan", "ios": "https://dc.lft.to/lastmile_qr_scan"}, "type": "electric_scooter"}, {"is_reserved": 0, "is_disabled": 0, "fusion_lon": 0.0, "lat": 38.9015465, "name": "3da98853ba6acc53749767e4c8de15cf", "bike_id": "3da98853ba6acc53749767e4c8de15cf", "lon": -76.98066716666666, "fusion_lat": 0.0, "rental_uris": {"android": "https://dc.lft.to/lastmile_qr_scan", "ios": "https://dc.lft.to/lastmile_qr_scan"}, "type": "electric_scooter"}, {"is_reserved": 0, "is_disabled": 0, "fusion_lon": 0.0, "lat": 38.92675166666667, "name": "028a48ec07ce17ee52903f2f1fa6fdc9", "bike_id": "028a48ec07ce17ee52903f2f1fa6fdc9", "lon": -77.01487283333333, "fusion_lat": 0.0, "rental_uris": {"android": "https://dc.lft.to/lastmile_qr_scan", "ios": "https://dc.lft.to/lastmile_qr_scan"}, "type": "electric_scooter"}, {"is_reserved": 0, "is_disabled": 0, "fusion_lon": 0.0, "lat": 38.8954995, "name": "3790bbfeded696f2e9865d58588ae85a", "bike_id": "3790bbfeded696f2e9865d58588ae85a", "lon": -76.988973, "fusion_lat": 0.0, "rental_uris": {"android": "https://dc.lft.to/lastmile_qr_scan", "ios": "https://dc.lft.to/lastmile_qr_scan"}, "type": "electric_scooter"}, {"is_reserved": 0, "is_disabled": 0, "fusion_lon": 0.0, "lat": 38.92063366666667, "name": "0c4776ec07030c6711185d38dde6c521", "bike_id": "0c4776ec07030c6711185d38dde6c521", "lon": -77.0252465, "fusion_lat": 0.0, "rental_uris": {"android": "https://dc.lft.to/lastmile_qr_scan", "ios": "https://dc.lft.to/lastmile_qr_scan"}, "type": "electric_scooter"}, {"is_reserved": 0, "is_disabled": 0, "fusion_lon": 0.0, "lat": 38.92602383333333, "name": "769b8038de9e902589a3ddfac497e4c1", "bike_id": "769b8038de9e902589a3ddfac497e4c1", "lon": -77.02436966666667, "fusion_lat": 0.0, "rental_uris": {"android": "https://dc.lft.to/lastmile_qr_scan", "ios": "https://dc.lft.to/lastmile_qr_scan"}, "type": "electric_scooter"}, {"is_reserved": 0, "is_disabled": 0, "fusion_lon": 0.0, "lat": 38.9027855, "name": "6340bc2fc96042ec4f8f1db3f16127e6", "bike_id": "6340bc2fc96042ec4f8f1db3f16127e6", "lon": -77.03827016666666, "fusion_lat": 0.0, "rental_uris": {"android": "https://dc.lft.to/lastmile_qr_scan", "ios": "https://dc.lft.to/lastmile_qr_scan"}, "type": "electric_scooter"}, {"is_reserved": 0, "is_disabled": 0, "fusion_lon": 0.0, "lat": 38.93529483333333, "name": "086b63de9df6fa7c3a30a94142551786", "bike_id": "086b63de9df6fa7c3a30a94142551786", "lon": -77.02848283333333, "fusion_lat": 0.0, "rental_uris": {"android": "https://dc.lft.to/lastmile_qr_scan", "ios": "https://dc.lft.to/lastmile_qr_scan"}, "type": "electric_scooter"}, {"is_reserved": 0, "is_disabled": 0, "fusion_lon": 0.0, "lat": 38.89225066666667, "name": "8bd11b655ce5c946d0316410546dac1b", "bike_id": "8bd11b655ce5c946d0316410546dac1b", "lon": -77.04336516666666, "fusion_lat": 0.0, "rental_uris": {"android": "https://dc.lft.to/lastmile_qr_scan", "ios": "https://dc.lft.to/lastmile_qr_scan"}, "type": "electric_scooter"}, {"is_reserved": 0, "is_disabled": 0, "fusion_lon": 0.0, "lat": 38.923853666666666, "name": "b21b02608b39c015e4014e9e4536ccc6", "bike_id": "b21b02608b39c015e4014e9e4536ccc6", "lon": -77.03664733333333, "fusion_lat": 0.0, "rental_uris": {"android": "https://dc.lft.to/lastmile_qr_scan", "ios": "https://dc.lft.to/lastmile_qr_scan"}, "type": "electric_scooter"}, {"is_reserved": 0, "is_disabled": 0, "fusion_lon": 0.0, "lat": 38.910222, "name": "89358dff2760cd2f3462185d313972b4", "bike_id": "89358dff2760cd2f3462185d313972b4", "lon": -77.052624, "fusion_lat": 0.0, "rental_uris": {"android": "https://dc.lft.to/lastmile_qr_scan", "ios": "https://dc.lft.to/lastmile_qr_scan"}, "type": "electric_scooter"}, {"is_reserved": 0, "is_disabled": 0, "fusion_lon": 0.0, "lat": 38.8854135, "name": "bae7865762d9b6c9e9bd1e3de8d24097", "bike_id": "bae7865762d9b6c9e9bd1e3de8d24097", "lon": -76.98206133333333, "fusion_lat": 0.0, "rental_uris": {"android": "https://dc.lft.to/lastmile_qr_scan", "ios": "https://dc.lft.to/lastmile_qr_scan"}, "type": "electric_scooter"}, {"is_reserved": 0, "is_disabled": 0, "fusion_lon": 0.0, "lat": 38.9006265, "name": "857b09327d7ae41bf2718e7212a3aa53", "bike_id": "857b09327d7ae41bf2718e7212a3aa53", "lon": -77.0478995, "fusion_lat": 0.0, "rental_uris": {"android": "https://dc.lft.to/lastmile_qr_scan", "ios": "https://dc.lft.to/lastmile_qr_scan"}, "type": "electric_scooter"}, {"is_reserved": 0, "is_disabled": 0, "fusion_lon": 0.0, "lat": 38.89747, "name": "8cc86aecf48215da12f0ed5e55bc2093", "bike_id": "8cc86aecf48215da12f0ed5e55bc2093", "lon": -77.03171583333334, "fusion_lat": 0.0, "rental_uris": {"android": "https://dc.lft.to/lastmile_qr_scan", "ios": "https://dc.lft.to/lastmile_qr_scan"}, "type": "electric_scooter"}, {"is_reserved": 0, "is_disabled": 0, "fusion_lon": 0.0, "lat": 38.8775095, "name": "f9106f3a4439d00bdcabc94625b89de4", "bike_id": "f9106f3a4439d00bdcabc94625b89de4", "lon": -77.00841, "fusion_lat": 0.0, "rental_uris": {"android": "https://dc.lft.to/lastmile_qr_scan", "ios": "https://dc.lft.to/lastmile_qr_scan"}, "type": "electric_scooter"}, {"is_reserved": 0, "is_disabled": 0, "fusion_lon": 0.0, "lat": 38.9025065, "name": "9807f7558298a46d497128e6cd833db4", "bike_id": "9807f7558298a46d497128e6cd833db4", "lon": -77.061797, "fusion_lat": 0.0, "rental_uris": {"android": "https://dc.lft.to/lastmile_qr_scan", "ios": "https://dc.lft.to/lastmile_qr_scan"}, "type": "electric_scooter"}, {"is_reserved": 0, "is_disabled": 0, "fusion_lon": 0.0, "lat": 38.923852833333335, "name": "1da1c6c762adb40e4fa95a68a0768e7a", "bike_id": "1da1c6c762adb40e4fa95a68a0768e7a", "lon": -77.02655916666667, "fusion_lat": 0.0, "rental_uris": {"android": "https://dc.lft.to/lastmile_qr_scan", "ios": "https://dc.lft.to/lastmile_qr_scan"}, "type": "electric_scooter"}, {"is_reserved": 0, "is_disabled": 0, "fusion_lon": 0.0, "lat": 38.807334166666664, "name": "a3f5ab98bb8611e3fc6c3c7e5e9e72b5", "bike_id": "a3f5ab98bb8611e3fc6c3c7e5e9e72b5", "lon": -76.99259633333334, "fusion_lat": 0.0, "rental_uris": {"android": "https://dc.lft.to/lastmile_qr_scan", "ios": "https://dc.lft.to/lastmile_qr_scan"}, "type": "electric_bike"}, {"is_reserved": 0, "is_disabled": 0, "fusion_lon": 0.0, "lat": 38.926824, "name": "8b2d7d0e8c06e96e7d9b10083e6decac", "bike_id": "8b2d7d0e8c06e96e7d9b10083e6decac", "lon": -77.02958766666667, "fusion_lat": 0.0, "rental_uris": {"android": "https://dc.lft.to/lastmile_qr_scan", "ios": "https://dc.lft.to/lastmile_qr_scan"}, "type": "electric_scooter"}, {"is_reserved": 0, "is_disabled": 0, "fusion_lon": 0.0, "lat": 38.91803566666667, "name": "2eb42eebc8e11bb166bbafc3f2376af5", "bike_id": "2eb42eebc8e11bb166bbafc3f2376af5", "lon": -77.02490433333334, "fusion_lat": 0.0, "rental_uris": {"android": "https://dc.lft.to/lastmile_qr_scan", "ios": "https://dc.lft.to/lastmile_qr_scan"}, "type": "electric_scooter"}, {"is_reserved": 0, "is_disabled": 0, "fusion_lon": 0.0, "lat": 38.916528, "name": "66f906273152af3d5ce18b28aa29cae5", "bike_id": "66f906273152af3d5ce18b28aa29cae5", "lon": -77.02032816666667, "fusion_lat": 0.0, "rental_uris": {"android": "https://dc.lft.to/lastmile_qr_scan", "ios": "https://dc.lft.to/lastmile_qr_scan"}, "type": "electric_scooter"}, {"is_reserved": 0, "is_disabled": 0, "fusion_lon": 0.0, "lat": 38.91654533333333, "name": "a89769074c58386766827e28d1a63bde", "bike_id": "a89769074c58386766827e28d1a63bde", "lon": -77.031852, "fusion_lat": 0.0, "rental_uris": {"android": "https://dc.lft.to/lastmile_qr_scan", "ios": "https://dc.lft.to/lastmile_qr_scan"}, "type": "electric_scooter"}, {"is_reserved": 0, "is_disabled": 0, "fusion_lon": 0.0, "lat": 38.92366166666667, "name": "37ca62d7ad74ca3ca8330d78f2a633ca", "bike_id": "37ca62d7ad74ca3ca8330d78f2a633ca", "lon": -77.050259, "fusion_lat": 0.0, "rental_uris": {"android": "https://dc.lft.to/lastmile_qr_scan", "ios": "https://dc.lft.to/lastmile_qr_scan"}, "type": "electric_scooter"}, {"is_reserved": 0, "is_disabled": 0, "fusion_lon": 0.0, "lat": 38.89720966666667, "name": "79a35a9bc4ccad79611b8c836e7083a1", "bike_id": "79a35a9bc4ccad79611b8c836e7083a1", "lon": -77.0021005, "fusion_lat": 0.0, "rental_uris": {"android": "https://dc.lft.to/lastmile_qr_scan", "ios": "https://dc.lft.to/lastmile_qr_scan"}, "type": "electric_scooter"}, {"is_reserved": 0, "is_disabled": 0, "fusion_lon": 0.0, "lat": 38.8843325, "name": "69eba400aae9d2a54061450ea69122a6", "bike_id": "69eba400aae9d2a54061450ea69122a6", "lon": -76.95747716666666, "fusion_lat": 0.0, "rental_uris": {"android": "https://dc.lft.to/lastmile_qr_scan", "ios": "https://dc.lft.to/lastmile_qr_scan"}, "type": "electric_scooter"}, {"is_reserved": 0, "is_disabled": 0, "fusion_lon": 0.0, "lat": 38.9508555, "name": "06c70794461e56408127f3a9a132efa2", "bike_id": "06c70794461e56408127f3a9a132efa2", "lon": -76.99794483333334, "fusion_lat": 0.0, "rental_uris": {"android": "https://dc.lft.to/lastmile_qr_scan", "ios": "https://dc.lft.to/lastmile_qr_scan"}, "type": "electric_scooter"}, {"is_reserved": 0, "is_disabled": 0, "fusion_lon": 0.0, "lat": 38.9007245, "name": "54cae824006087cfb67136914a48f39d", "bike_id": "54cae824006087cfb67136914a48f39d", "lon": -77.048862, "fusion_lat": 0.0, "rental_uris": {"android": "https://dc.lft.to/lastmile_qr_scan", "ios": "https://dc.lft.to/lastmile_qr_scan"}, "type": "electric_scooter"}, {"is_reserved": 0, "is_disabled": 0, "fusion_lon": 0.0, "lat": 38.892264833333336, "name": "752a4b4599d4fb9221faa96cec1b9819", "bike_id": "752a4b4599d4fb9221faa96cec1b9819", "lon": -77.0437315, "fusion_lat": 0.0, "rental_uris": {"android": "https://dc.lft.to/lastmile_qr_scan", "ios": "https://dc.lft.to/lastmile_qr_scan"}, "type": "electric_scooter"}, {"is_reserved": 0, "is_disabled": 0, "fusion_lon": 0.0, "lat": 38.89968116666667, "name": "7a9c1a1a0a92131da9442b8a5af2ac26", "bike_id": "7a9c1a1a0a92131da9442b8a5af2ac26", "lon": -77.04718316666667, "fusion_lat": 0.0, "rental_uris": {"android": "https://dc.lft.to/lastmile_qr_scan", "ios": "https://dc.lft.to/lastmile_qr_scan"}, "type": "electric_scooter"}, {"is_reserved": 0, "is_disabled": 0, "fusion_lon": 0.0, "lat": 38.92001233333333, "name": "6b86a97ec512c795facf461825174876", "bike_id": "6b86a97ec512c795facf461825174876", "lon": -76.985056, "fusion_lat": 0.0, "rental_uris": {"android": "https://dc.lft.to/lastmile_qr_scan", "ios": "https://dc.lft.to/lastmile_qr_scan"}, "type": "electric_scooter"}, {"is_reserved": 0, "is_disabled": 0, "fusion_lon": 0.0, "lat": 38.93121466666667, "name": "1b8f40fdd01963ecf230570b07652333", "bike_id": "1b8f40fdd01963ecf230570b07652333", "lon": -77.02072883333334, "fusion_lat": 0.0, "rental_uris": {"android": "https://dc.lft.to/lastmile_qr_scan", "ios": "https://dc.lft.to/lastmile_qr_scan"}, "type": "electric_scooter"}, {"is_reserved": 0, "is_disabled": 0, "fusion_lon": 0.0, "lat": 38.94294433333334, "name": "0d8f7ef634c680b5625c1eac62e6fe46", "bike_id": "0d8f7ef634c680b5625c1eac62e6fe46", "lon": -77.02636966666667, "fusion_lat": 0.0, "rental_uris": {"android": "https://dc.lft.to/lastmile_qr_scan", "ios": "https://dc.lft.to/lastmile_qr_scan"}, "type": "electric_scooter"}, {"is_reserved": 0, "is_disabled": 0, "fusion_lon": 0.0, "lat": 38.91572433333333, "name": "f84e400ada0d77c0b6a7fd2792e38845", "bike_id": "f84e400ada0d77c0b6a7fd2792e38845", "lon": -77.02008666666667, "fusion_lat": 0.0, "rental_uris": {"android": "https://dc.lft.to/lastmile_qr_scan", "ios": "https://dc.lft.to/lastmile_qr_scan"}, "type": "electric_scooter"}, {"is_reserved": 0, "is_disabled": 0, "fusion_lon": 0.0, "lat": 38.924159, "name": "f1a0621721b58385d2593f2ee3f539d2", "bike_id": "f1a0621721b58385d2593f2ee3f539d2", "lon": -77.02128533333334, "fusion_lat": 0.0, "rental_uris": {"android": "https://dc.lft.to/lastmile_qr_scan", "ios": "https://dc.lft.to/lastmile_qr_scan"}, "type": "electric_scooter"}, {"is_reserved": 0, "is_disabled": 0, "fusion_lon": 0.0, "lat": 38.93527566666667, "name": "9721fc32393dfdc2ac854509dd950615", "bike_id": "9721fc32393dfdc2ac854509dd950615", "lon": -77.03490166666667, "fusion_lat": 0.0, "rental_uris": {"android": "https://dc.lft.to/lastmile_qr_scan", "ios": "https://dc.lft.to/lastmile_qr_scan"}, "type": "electric_scooter"}, {"is_reserved": 0, "is_disabled": 0, "fusion_lon": 0.0, "lat": 38.89686066666667, "name": "ee41cf6cf241346d92156d54bb602cac", "bike_id": "ee41cf6cf241346d92156d54bb602cac", "lon": -77.005942, "fusion_lat": 0.0, "rental_uris": {"android": "https://dc.lft.to/lastmile_qr_scan", "ios": "https://dc.lft.to/lastmile_qr_scan"}, "type": "electric_scooter"}, {"is_reserved": 0, "is_disabled": 0, "fusion_lon": 0.0, "lat": 38.927725333333335, "name": "6dc7a4f731db6edc0d1055f309284a63", "bike_id": "6dc7a4f731db6edc0d1055f309284a63", "lon": -77.03705883333333, "fusion_lat": 0.0, "rental_uris": {"android": "https://dc.lft.to/lastmile_qr_scan", "ios": "https://dc.lft.to/lastmile_qr_scan"}, "type": "electric_scooter"}, {"is_reserved": 0, "is_disabled": 0, "fusion_lon": 0.0, "lat": 38.916222, "name": "ca97d2309966117d3cd0bb99a67a19de", "bike_id": "ca97d2309966117d3cd0bb99a67a19de", "lon": -77.05060633333333, "fusion_lat": 0.0, "rental_uris": {"android": "https://dc.lft.to/lastmile_qr_scan", "ios": "https://dc.lft.to/lastmile_qr_scan"}, "type": "electric_scooter"}, {"is_reserved": 0, "is_disabled": 0, "fusion_lon": 0.0, "lat": 38.91399116666667, "name": "95a5819ebcf174998755bbbac026ec6f", "bike_id": "95a5819ebcf174998755bbbac026ec6f", "lon": -77.04889316666667, "fusion_lat": 0.0, "rental_uris": {"android": "https://dc.lft.to/lastmile_qr_scan", "ios": "https://dc.lft.to/lastmile_qr_scan"}, "type": "electric_scooter"}, {"is_reserved": 0, "is_disabled": 0, "fusion_lon": 0.0, "lat": 38.926531, "name": "15813918f8909394064793e4d027a81d", "bike_id": "15813918f8909394064793e4d027a81d", "lon": -77.02413333333334, "fusion_lat": 0.0, "rental_uris": {"android": "https://dc.lft.to/lastmile_qr_scan", "ios": "https://dc.lft.to/lastmile_qr_scan"}, "type": "electric_scooter"}, {"is_reserved": 0, "is_disabled": 0, "fusion_lon": 0.0, "lat": 38.91811783333333, "name": "e6582d30f7782f0d782937837fd480e2", "bike_id": "e6582d30f7782f0d782937837fd480e2", "lon": -77.037314, "fusion_lat": 0.0, "rental_uris": {"android": "https://dc.lft.to/lastmile_qr_scan", "ios": "https://dc.lft.to/lastmile_qr_scan"}, "type": "electric_scooter"}, {"is_reserved": 0, "is_disabled": 0, "fusion_lon": 0.0, "lat": 38.924565, "name": "53e805e3ceab08c630b6b6bef38d740a", "bike_id": "53e805e3ceab08c630b6b6bef38d740a", "lon": -76.9991445, "fusion_lat": 0.0, "rental_uris": {"android": "https://dc.lft.to/lastmile_qr_scan", "ios": "https://dc.lft.to/lastmile_qr_scan"}, "type": "electric_scooter"}, {"is_reserved": 0, "is_disabled": 0, "fusion_lon": 0.0, "lat": 38.92473866666667, "name": "49c483adfe0cbe0deb69d2bb52674416", "bike_id": "49c483adfe0cbe0deb69d2bb52674416", "lon": -77.021645, "fusion_lat": 0.0, "rental_uris": {"android": "https://dc.lft.to/lastmile_qr_scan", "ios": "https://dc.lft.to/lastmile_qr_scan"}, "type": "electric_scooter"}, {"is_reserved": 0, "is_disabled": 0, "fusion_lon": 0.0, "lat": 38.892877, "name": "865b7294bd34b3d9b12d42116ff85a80", "bike_id": "865b7294bd34b3d9b12d42116ff85a80", "lon": -76.97616716666667, "fusion_lat": 0.0, "rental_uris": {"android": "https://dc.lft.to/lastmile_qr_scan", "ios": "https://dc.lft.to/lastmile_qr_scan"}, "type": "electric_bike"}, {"is_reserved": 0, "is_disabled": 0, "fusion_lon": 0.0, "lat": 38.938551, "name": "c92183461730ef261274b4dd085eb912", "bike_id": "c92183461730ef261274b4dd085eb912", "lon": -77.0251795, "fusion_lat": 0.0, "rental_uris": {"android": "https://dc.lft.to/lastmile_qr_scan", "ios": "https://dc.lft.to/lastmile_qr_scan"}, "type": "electric_scooter"}, {"is_reserved": 0, "is_disabled": 0, "fusion_lon": 0.0, "lat": 38.929848166666666, "name": "25860ce2f2774102ff32f2ddf6fd0697", "bike_id": "25860ce2f2774102ff32f2ddf6fd0697", "lon": -77.0378515, "fusion_lat": 0.0, "rental_uris": {"android": "https://dc.lft.to/lastmile_qr_scan", "ios": "https://dc.lft.to/lastmile_qr_scan"}, "type": "electric_scooter"}, {"is_reserved": 0, "is_disabled": 0, "fusion_lon": 0.0, "lat": 38.935953166666664, "name": "28c7d0460735d4640ed7d1eca78308f3", "bike_id": "28c7d0460735d4640ed7d1eca78308f3", "lon": -77.035494, "fusion_lat": 0.0, "rental_uris": {"android": "https://dc.lft.to/lastmile_qr_scan", "ios": "https://dc.lft.to/lastmile_qr_scan"}, "type": "electric_scooter"}, {"is_reserved": 0, "is_disabled": 0, "fusion_lon": 0.0, "lat": 38.892227166666665, "name": "9d7255860ed6e2ecb7f99a4dec6783f2", "bike_id": "9d7255860ed6e2ecb7f99a4dec6783f2", "lon": -77.02162833333334, "fusion_lat": 0.0, "rental_uris": {"android": "https://dc.lft.to/lastmile_qr_scan", "ios": "https://dc.lft.to/lastmile_qr_scan"}, "type": "electric_scooter"}, {"is_reserved": 0, "is_disabled": 0, "fusion_lon": 0.0, "lat": 38.90975616666667, "name": "d2cfc3672ae89eddb4653381f36e1163", "bike_id": "d2cfc3672ae89eddb4653381f36e1163", "lon": -77.04264966666666, "fusion_lat": 0.0, "rental_uris": {"android": "https://dc.lft.to/lastmile_qr_scan", "ios": "https://dc.lft.to/lastmile_qr_scan"}, "type": "electric_scooter"}, {"is_reserved": 0, "is_disabled": 0, "fusion_lon": 0.0, "lat": 38.90578716666667, "name": "82c550011764bb5faf6bf42a17e8d7b7", "bike_id": "82c550011764bb5faf6bf42a17e8d7b7", "lon": -77.03444916666666, "fusion_lat": 0.0, "rental_uris": {"android": "https://dc.lft.to/lastmile_qr_scan", "ios": "https://dc.lft.to/lastmile_qr_scan"}, "type": "electric_scooter"}, {"is_reserved": 0, "is_disabled": 0, "fusion_lon": 0.0, "lat": 38.90032883333333, "name": "b248c05e9236be99a4f82e88c5491f47", "bike_id": "b248c05e9236be99a4f82e88c5491f47", "lon": -76.9883675, "fusion_lat": 0.0, "rental_uris": {"android": "https://dc.lft.to/lastmile_qr_scan", "ios": "https://dc.lft.to/lastmile_qr_scan"}, "type": "electric_scooter"}, {"is_reserved": 0, "is_disabled": 0, "fusion_lon": 0.0, "lat": 38.88783883333333, "name": "9213bf5e0f7682622fbb18d26a10ef9b", "bike_id": "9213bf5e0f7682622fbb18d26a10ef9b", "lon": -77.015936, "fusion_lat": 0.0, "rental_uris": {"android": "https://dc.lft.to/lastmile_qr_scan", "ios": "https://dc.lft.to/lastmile_qr_scan"}, "type": "electric_scooter"}, {"is_reserved": 0, "is_disabled": 0, "fusion_lon": 0.0, "lat": 38.881379, "name": "c6b54dd6804cdd5ca7ec732face6f783", "bike_id": "c6b54dd6804cdd5ca7ec732face6f783", "lon": -77.022701, "fusion_lat": 0.0, "rental_uris": {"android": "https://dc.lft.to/lastmile_qr_scan", "ios": "https://dc.lft.to/lastmile_qr_scan"}, "type": "electric_scooter"}, {"is_reserved": 0, "is_disabled": 0, "fusion_lon": 0.0, "lat": 38.92307866666667, "name": "0ecaea369645a1541810cbcd202b52ea", "bike_id": "0ecaea369645a1541810cbcd202b52ea", "lon": -77.0310855, "fusion_lat": 0.0, "rental_uris": {"android": "https://dc.lft.to/lastmile_qr_scan", "ios": "https://dc.lft.to/lastmile_qr_scan"}, "type": "electric_scooter"}, {"is_reserved": 0, "is_disabled": 0, "fusion_lon": 0.0, "lat": 38.88874166666667, "name": "8802aa8eb419cecbc56ac580b9034d98", "bike_id": "8802aa8eb419cecbc56ac580b9034d98", "lon": -76.98675266666666, "fusion_lat": 0.0, "rental_uris": {"android": "https://dc.lft.to/lastmile_qr_scan", "ios": "https://dc.lft.to/lastmile_qr_scan"}, "type": "electric_scooter"}, {"is_reserved": 0, "is_disabled": 0, "fusion_lon": 0.0, "lat": 38.93295583333333, "name": "9565ecf12bd17eb91d1fff3e5624adfd", "bike_id": "9565ecf12bd17eb91d1fff3e5624adfd", "lon": -77.03088866666667, "fusion_lat": 0.0, "rental_uris": {"android": "https://dc.lft.to/lastmile_qr_scan", "ios": "https://dc.lft.to/lastmile_qr_scan"}, "type": "electric_scooter"}, {"is_reserved": 0, "is_disabled": 0, "fusion_lon": 0.0, "lat": 38.902607333333336, "name": "37c28f46117363284de1b17ba20f1322", "bike_id": "37c28f46117363284de1b17ba20f1322", "lon": -77.06018216666666, "fusion_lat": 0.0, "rental_uris": {"android": "https://dc.lft.to/lastmile_qr_scan", "ios": "https://dc.lft.to/lastmile_qr_scan"}, "type": "electric_scooter"}, {"is_reserved": 0, "is_disabled": 0, "fusion_lon": 0.0, "lat": 38.924684, "name": "1bf06037366c59bf8be3476fe22fd008", "bike_id": "1bf06037366c59bf8be3476fe22fd008", "lon": -77.02718416666667, "fusion_lat": 0.0, "rental_uris": {"android": "https://dc.lft.to/lastmile_qr_scan", "ios": "https://dc.lft.to/lastmile_qr_scan"},