{"data": {"bikes": [{"is_reserved": 0, "lat": 38.924995, "rental_uris": {"android": "https://dc.lft.to/lastmile_qr_scan", "ios": "https://dc.lft.to/lastmile_qr_scan"}, "bike_id": "69bc52137e8d1481802b68783f6f07fa", "fusion_lon": 0.0, "fusion_lat": 0.0, "is_disabled": 0, "name": "69bc52137e8d1481802b68783f6f07fa", "type": "electric_scooter", "lon": -77.05233283333334}, {"is_reserved": 0, "lat": 38.94824333333333, "rental_uris": {"android": "https://dc.lft.to/lastmile_qr_scan", "ios": "https://dc.lft.to/lastmile_qr_scan"}, "bike_id": "4d4b22944a61f9cfb224051c4cb0e85d", "fusion_lon": 0.0, "fusion_lat": 0.0, "is_disabled": 0, "name": "4d4b22944a61f9cfb224051c4cb0e85d", "type": "electric_scooter", "lon": -76.9990465}, {"is_reserved": 0, "lat": 38.917423, "rental_uris": {"android": "https://dc.lft.to/lastmile_qr_scan", "ios": "https://dc.lft.to/lastmile_qr_scan"}, "bike_id": "8c4c036e6bc35d4cfeb4eefb84528ab7", "fusion_lon": 0.0, "fusion_lat": 0.0, "is_disabled": 0, "name": "8c4c036e6bc35d4cfeb4eefb84528ab7", "type": "electric_scooter", "lon": -77.031882}, {"is_reserved": 0, "lat": 38.94457883333333, "rental_uris": {"android": "https://dc.lft.to/lastmile_qr_scan", "ios": "https://dc.lft.to/lastmile_qr_scan"}, "bike_id": "2dde7c99ca6c37191997cc066febeec3", "fusion_lon": 0.0, "fusion_lat": 0.0, "is_disabled": 0, "name": "2dde7c99ca6c37191997cc066febeec3", "type": "electric_scooter", "lon": -77.0603355}, {"is_reserved": 0, "lat": 38.919865333333334, "rental_uris": {"android": "https://dc.lft.to/lastmile_qr_scan", "ios": "https://dc.lft.to/lastmile_qr_scan"}, "bike_id": "1e6b1a678ef17d01fa194c57459afe7a", "fusion_lon": 0.0, "fusion_lat": 0.0, "is_disabled": 0, "name": "1e6b1a678ef17d01fa194c57459afe7a", "type": "electric_scooter", "lon": -77.03238066666667}, {"is_reserved": 0, "lat": 38.90227333333333, "rental_uris": {"android": "https://dc.lft.to/lastmile_qr_scan", "ios": "https://dc.lft.to/lastmile_qr_scan"}, "bike_id": "d7a697f8963f6b14d7770c66aab18b5b", "fusion_lon": 0.0, "fusion_lat": 0.0, "is_disabled": 0, "name": "d7a697f8963f6b14d7770c66aab18b5b", "type": "electric_scooter", "lon": -77.06056}, {"is_reserved": 0, "lat": 38.896827, "rental_uris": {"android": "https://dc.lft.to/lastmile_qr_scan", "ios": "https://dc.lft.to/lastmile_qr_scan"}, "bike_id": "6d7a3896c1c08ca0834b18e03697aae1", "fusion_lon": 0.0, "fusion_lat": 0.0, "is_disabled": 0, "name": "6d7a3896c1c08ca0834b18e03697aae1", "type": "electric_scooter", "lon": -76.93605516666666}, {"is_reserved": 0, "lat": 38.884494833333335, "rental_uris": {"android": "https://dc.lft.to/lastmile_qr_scan", "ios": "https://dc.lft.to/lastmile_qr_scan"}, "bike_id": "8ad379ee069bd4b22260e6e91a821a60", "fusion_lon": 0.0, "fusion_lat": 0.0, "is_disabled": 0, "name": "8ad379ee069bd4b22260e6e91a821a60", "type": "electric_scooter", "lon": -76.9509415}, {"is_reserved": 0, "lat": 38.90151066666667, "rental_uris": {"android": "https://dc.lft.to/lastmile_qr_scan", "ios": "https://dc.lft.to/lastmile_qr_scan"}, "bike_id": "aad4941e32942018dac9185dc9a0f7e0", "fusion_lon": 0.0, "fusion_lat": 0.0, "is_disabled": 0, "name": "aad4941e32942018dac9185dc9a0f7e0", "type": "electric_scooter", "lon": -77.02714983333334}, {"is_reserved": 0, "lat": 38.9021025, "rental_uris": {"android": "https://dc.lft.to/lastmile_qr_scan", "ios": "https://dc.lft.to/lastmile_qr_scan"}, "bike_id": "6a7ab8b2cee9e824d36965527d93fe20", "fusion_lon": 0.0, "fusion_lat": 0.0, "is_disabled": 0, "name": "6a7ab8b2cee9e824d36965527d93fe20", "type": "electric_scooter", "lon": -77.0337585}, {"is_reserved": 0, "lat": 38.90585383333333, "rental_uris": {"android": "https://dc.lft.to/lastmile_qr_scan", "ios": "https://dc.lft.to/lastmile_qr_scan"}, "bike_id": "c73e276f923dbc2784fdbb7cae525592", "fusion_lon": 0.0, "fusion_lat": 0.0, "is_disabled": 0, "name": "c73e276f923dbc2784fdbb7cae525592", "type": "electric_scooter", "lon": -77.04190566666666}, {"is_reserved": 0, "lat": 38.813483166666664, "rental_uris": {"android": "https://dc.lft.to/lastmile_qr_scan", "ios": "https://dc.lft.to/lastmile_qr_scan"}, "bike_id": "459f1ea4fc99a239c361ab126fa1a079", "fusion_lon": 0.0, "fusion_lat": 0.0, "is_disabled": 0, "name": "459f1ea4fc99a239c361ab126fa1a079", "type": "electric_bike", "lon": -77.04926366666666}, {"is_reserved": 0, "lat": 38.91105116666667, "rental_uris": {"android": "https://dc.lft.to/lastmile_qr_scan", "ios": "https://dc.lft.to/lastmile_qr_scan"}, "bike_id": "46cedcf92957331dcb3becfb0087314f", "fusion_lon": 0.0, "fusion_lat": 0.0, "is_disabled": 0, "name": "46cedcf92957331dcb3becfb0087314f", "type": "electric_scooter", "lon": -77.04814383333333}, {"is_reserved": 0, "lat": 38.934173666666666, "rental_uris": {"android": "https://dc.lft.to/lastmile_qr_scan", "ios": "https://dc.lft.to/lastmile_qr_scan"}, "bike_id": "e38b77b8a5da3f5e4f33130787049eee", "fusion_lon": 0.0, "fusion_lat": 0.0, "is_disabled": 0, "name": "e38b77b8a5da3f5e4f33130787049eee", "type": "electric_scooter", "lon": -77.05546983333333}, {"is_reserved": 0, "lat": 38.908259, "rental_uris": {"android": "https://dc.lft.to/lastmile_qr_scan", "ios": "https://dc.lft.to/lastmile_qr_scan"}, "bike_id": "02ebd50b131a7639e3311d0625f4a82e", "fusion_lon": 0.0, "fusion_lat": 0.0, "is_disabled": 0, "name": "02ebd50b131a7639e3311d0625f4a82e", "type": "electric_scooter", "lon": -77.04341316666667}, {"is_reserved": 0, "lat": 38.911258333333336, "rental_uris": {"android": "https://dc.lft.to/lastmile_qr_scan", "ios": "https://dc.lft.to/lastmile_qr_scan"}, "bike_id": "52ffdbecaa40f283f47e76b734740782", "fusion_lon": 0.0, "fusion_lat": 0.0, "is_disabled": 0, "name": "52ffdbecaa40f283f47e76b734740782", "type": "electric_scooter", "lon": -77.02692666666667}, {"is_reserved": 0, "lat": 38.91143316666667, "rental_uris": {"android": "https://dc.lft.to/lastmile_qr_scan", "ios": "https://dc.lft.to/lastmile_qr_scan"}, "bike_id": "b0ad8f2904a3e3a911a0df274d464707", "fusion_lon": 0.0, "fusion_lat": 0.0, "is_disabled": 0, "name": "b0ad8f2904a3e3a911a0df274d464707", "type": "electric_scooter", "lon": -77.00474366666667}, {"is_reserved": 0, "lat": 38.920638833333335, "rental_uris": {"android": "https://dc.lft.to/lastmile_qr_scan", "ios": "https://dc.lft.to/lastmile_qr_scan"}, "bike_id": "1d2abfe50c3f7f80419cdd7024668a02", "fusion_lon": 0.0, "fusion_lat": 0.0, "is_disabled": 0, "name": "1d2abfe50c3f7f80419cdd7024668a02", "type": "electric_scooter", "lon": -77.02242033333333}, {"is_reserved": 0, "lat": 38.85519433333333, "rental_uris": {"android": "https://dc.lft.to/lastmile_qr_scan", "ios": "https://dc.lft.to/lastmile_qr_scan"}, "bike_id": "11c3214cd0776a17530702cbe104be9a", "fusion_lon": 0.0, "fusion_lat": 0.0, "is_disabled": 0, "name": "11c3214cd0776a17530702cbe104be9a", "type": "electric_bike", "lon": -76.98413733333334}, {"is_reserved": 0, "lat": 38.921717666666666, "rental_uris": {"android": "https://dc.lft.to/lastmile_qr_scan", "ios": "https://dc.lft.to/lastmile_qr_scan"}, "bike_id": "65a97a0532ea1d75c2ba9c5cc0778eab", "fusion_lon": 0.0, "fusion_lat": 0.0, "is_disabled": 0, "name": "65a97a0532ea1d75c2ba9c5cc0778eab", "type": "electric_scooter", "lon": -76.99753483333333}, {"is_reserved": 0, "lat": 38.91553566666666, "rental_uris": {"android": "https://dc.lft.to/lastmile_qr_scan", "ios": "https://dc.lft.to/lastmile_qr_scan"}, "bike_id": "c65be30abae90f3b808a8aec4db32ebd", "fusion_lon": 0.0, "fusion_lat": 0.0, "is_disabled": 0, "name": "c65be30abae90f3b808a8aec4db32ebd", "type": "electric_scooter", "lon": -77.03159666666667}, {"is_reserved": 0, "lat": 38.9073245, "rental_uris": {"android": "https://dc.lft.to/lastmile_qr_scan", "ios": "https://dc.lft.to/lastmile_qr_scan"}, "bike_id": "45643bf4c12cc7f04d6e38c1a0246963", "fusion_lon": 0.0, "fusion_lat": 0.0, "is_disabled": 0, "name": "45643bf4c12cc7f04d6e38c1a0246963", "type": "electric_scooter", "lon": -77.02765583333333}, {"is_reserved": 0, "lat": 38.918055833333334, "rental_uris": {"android": "https://dc.lft.to/lastmile_qr_scan", "ios": "https://dc.lft.to/lastmile_qr_scan"}, "bike_id": "28dcefcbaa0f690df2315267e9bec919", "fusion_lon": 0.0, "fusion_lat": 0.0, "is_disabled": 0, "name": "28dcefcbaa0f690df2315267e9bec919", "type": "electric_scooter", "lon": -77.03673933333333}, {"is_reserved": 0, "lat": 38.92466733333333, "rental_uris": {"android": "https://dc.lft.to/lastmile_qr_scan", "ios": "https://dc.lft.to/lastmile_qr_scan"}, "bike_id": "5660bdaf12103190e406d05a88566eab", "fusion_lon": 0.0, "fusion_lat": 0.0, "is_disabled": 0, "name": "5660bdaf12103190e406d05a88566eab", "type": "electric_scooter", "lon": -77.05233266666667}, {"is_reserved": 0, "lat": 38.91743133333333, "rental_uris": {"android": "https://dc.lft.to/lastmile_qr_scan", "ios": "https://dc.lft.to/lastmile_qr_scan"}, "bike_id": "f7973104f46d5778668f0728ecdfd31e", "fusion_lon": 0.0, "fusion_lat": 0.0, "is_disabled": 0, "name": "f7973104f46d5778668f0728ecdfd31e", "type": "electric_scooter", "lon": -77.02179766666667}, {"is_reserved": 0, "lat": 38.90324833333333, "rental_uris": {"android": "https://dc.lft.to/lastmile_qr_scan", "ios": "https://dc.lft.to/lastmile_qr_scan"}, "bike_id": "faa39015c1426330b3cf8108724b4028", "fusion_lon": 0.0, "fusion_lat": 0.0, "is_disabled": 0, "name": "faa39015c1426330b3cf8108724b4028", "type": "electric_scooter", "lon": -77.06301266666667}, {"is_reserved": 0, "lat": 38.933619, "rental_uris": {"android": "https://dc.lft.to/lastmile_qr_scan", "ios": "https://dc.lft.to/lastmile_qr_scan"}, "bike_id": "bf210b89d8c71944d531c3f21766144e", "fusion_lon": 0.0, "fusion_lat": 0.0, "is_disabled": 0, "name": "bf210b89d8c71944d531c3f21766144e", "type": "electric_scooter", "lon": -77.057404}, {"is_reserved": 0, "lat": 38.90547516666667, "rental_uris": {"android": "https://dc.lft.to/lastmile_qr_scan", "ios": "https://dc.lft.to/lastmile_qr_scan"}, "bike_id": "69d6f61a7f5703ef0edc7100cb3cade0", "fusion_lon": 0.0, "fusion_lat": 0.0, "is_disabled": 0, "name": "69d6f61a7f5703ef0edc7100cb3cade0", "type": "electric_scooter", "lon": -77.04964883333334}, {"is_reserved": 0, "lat": 38.902044833333335, "rental_uris": {"android": "https://dc.lft.to/lastmile_qr_scan", "ios": "https://dc.lft.to/lastmile_qr_scan"}, "bike_id": "84bcb903dc1cb26430d3e3c661ab80c3", "fusion_lon": 0.0, "fusion_lat": 0.0, "is_disabled": 0, "name": "84bcb903dc1cb26430d3e3c661ab80c3", "type": "electric_scooter", "lon": -77.019198}, {"is_reserved": 0, "lat": 38.895432, "rental_uris": {"android": "https://dc.lft.to/lastmile_qr_scan", "ios": "https://dc.lft.to/lastmile_qr_scan"}, "bike_id": "e91fb7266bc881b174335054215dc00c", "fusion_lon": 0.0, "fusion_lat": 0.0, "is_disabled": 0, "name": "e91fb7266bc881b174335054215dc00c", "type": "electric_scooter", "lon": -77.02790516666667}, {"is_reserved": 0, "lat": 38.921941833333335, "rental_uris": {"android": "https://dc.lft.to/lastmile_qr_scan", "ios": "https://dc.lft.to/lastmile_qr_scan"}, "bike_id": "5644263a52646c7300472d5e28ab0167", "fusion_lon": 0.0, "fusion_lat": 0.0, "is_disabled": 0, "name": "5644263a52646c7300472d5e28ab0167", "type": "electric_scooter", "lon": -77.04241433333334}, {"is_reserved": 0, "lat": 38.92550083333333, "rental_uris": {"android": "https://dc.lft.to/lastmile_qr_scan", "ios": "https://dc.lft.to/lastmile_qr_scan"}, "bike_id": "30b6baeb8cdaec7706db624eeb51b8a4", "fusion_lon": 0.0, "fusion_lat": 0.0, "is_disabled": 0, "name": "30b6baeb8cdaec7706db624eeb51b8a4", "type": "electric_scooter", "lon": -77.05262816666666}, {"is_reserved": 0, "lat": 38.91123533333333, "rental_uris": {"android": "https://dc.lft.to/lastmile_qr_scan", "ios": "https://dc.lft.to/lastmile_qr_scan"}, "bike_id": "26fc02d8b4294274080e374f703330d0", "fusion_lon": 0.0, "fusion_lat": 0.0, "is_disabled": 0, "name": "26fc02d8b4294274080e374f703330d0", "type": "electric_scooter", "lon": -77.02690866666667}, {"is_reserved": 0, "lat": 38.923608333333334, "rental_uris": {"android": "https://dc.lft.to/lastmile_qr_scan", "ios": "https://dc.lft.to/lastmile_qr_scan"}, "bike_id": "2839713838e1fb266d7446cc993c7062", "fusion_lon": 0.0, "fusion_lat": 0.0, "is_disabled": 0, "name": "2839713838e1fb266d7446cc993c7062", "type": "electric_scooter", "lon": -77.05126783333333}, {"is_reserved": 0, "lat": 38.88015933333333, "rental_uris": {"android": "https://dc.lft.to/lastmile_qr_scan", "ios": "https://dc.lft.to/lastmile_qr_scan"}, "bike_id": "d8e1cacc9b8333d7d358f7ac3f03a718", "fusion_lon": 0.0, "fusion_lat": 0.0, "is_disabled": 0, "name": "d8e1cacc9b8333d7d358f7ac3f03a718", "type": "electric_scooter", "lon": -76.96010216666667}, {"is_reserved": 0, "lat": 38.93862583333333, "rental_uris": {"android": "https://dc.lft.to/lastmile_qr_scan", "ios": "https://dc.lft.to/lastmile_qr_scan"}, "bike_id": "e44825c57f96beaa9dcfc584b83be396", "fusion_lon": 0.0, "fusion_lat": 0.0, "is_disabled": 0, "name": "e44825c57f96beaa9dcfc584b83be396", "type": "electric_scooter", "lon": -77.030836}, {"is_reserved": 0, "lat": 38.86655983333333, "rental_uris": {"android": "https://dc.lft.to/lastmile_qr_scan", "ios": "https://dc.lft.to/lastmile_qr_scan"}, "bike_id": "c134449d42a09d8131023a31ed1be970", "fusion_lon": 0.0, "fusion_lat": 0.0, "is_disabled": 0, "name": "c134449d42a09d8131023a31ed1be970", "type": "electric_scooter", "lon": -76.98881466666667}, {"is_reserved": 0, "lat": 38.93529816666667, "rental_uris": {"android": "https://dc.lft.to/lastmile_qr_scan", "ios": "https://dc.lft.to/lastmile_qr_scan"}, "bike_id": "e431ed5b63693d9b7b0081a4db7bad76", "fusion_lon": 0.0, "fusion_lat": 0.0, "is_disabled": 0, "name": "e431ed5b63693d9b7b0081a4db7bad76", "type": "electric_scooter", "lon": -77.0728855}, {"is_reserved": 0, "lat": 38.9036985, "rental_uris": {"android": "https://dc.lft.to/lastmile_qr_scan", "ios": "https://dc.lft.to/lastmile_qr_scan"}, "bike_id": "faeb7ed8bf7d7ffeaff2ec47f911dc0d", "fusion_lon": 0.0, "fusion_lat": 0.0, "is_disabled": 0, "name": "faeb7ed8bf7d7ffeaff2ec47f911dc0d", "type": "electric_scooter", "lon": -76.99236483333334}, {"is_reserved": 0, "lat": 38.898252, "rental_uris": {"android": "https://dc.lft.to/lastmile_qr_scan", "ios": "https://dc.lft.to/lastmile_qr_scan"}, "bike_id": "bfa9c9bd96dfbbd0cde041697a422c28", "fusion_lon": 0.0, "fusion_lat": 0.0, "is_disabled": 0, "name": "bfa9c9bd96dfbbd0cde041697a422c28", "type": "electric_bike", "lon": -76.9903965}, {"is_reserved": 0, "lat": 38.897527, "rental_uris": {"android": "https://dc.lft.to/lastmile_qr_scan", "ios": "https://dc.lft.to/lastmile_qr_scan"}, "bike_id": "8bb6aa6b8d1128fe7e923bc4b6182287", "fusion_lon": 0.0, "fusion_lat": 0.0, "is_disabled": 0, "name": "8bb6aa6b8d1128fe7e923bc4b6182287", "type": "electric_scooter", "lon": -77.02388833333333}, {"is_reserved": 0, "lat": 38.89552466666667, "rental_uris": {"android": "https://dc.lft.to/lastmile_qr_scan", "ios": "https://dc.lft.to/lastmile_qr_scan"}, "bike_id": "0a857986288f2929ee8bb0bb093887f7", "fusion_lon": 0.0, "fusion_lat": 0.0, "is_disabled": 0, "name": "0a857986288f2929ee8bb0bb093887f7", "type": "electric_scooter", "lon": -77.00917883333334}, {"is_reserved": 0, "lat": 38.935366, "rental_uris": {"android": "https://dc.lft.to/lastmile_qr_scan", "ios": "https://dc.lft.to/lastmile_qr_scan"}, "bike_id": "12a701dc55e0a0c17a9e267f2bb136a1", "fusion_lon": 0.0, "fusion_lat": 0.0, "is_disabled": 0, "name": "12a701dc55e0a0c17a9e267f2bb136a1", "type": "electric_scooter", "lon": -77.03265433333333}, {"is_reserved": 0, "lat": 38.918418333333335, "rental_uris": {"android": "https://dc.lft.to/lastmile_qr_scan", "ios": "https://dc.lft.to/lastmile_qr_scan"}, "bike_id": "a6b7bea698f0359cbc0f4db6ecaac8f4", "fusion_lon": 0.0, "fusion_lat": 0.0, "is_disabled": 0, "name": "a6b7bea698f0359cbc0f4db6ecaac8f4", "type": "electric_scooter", "lon": -77.02189916666667}, {"is_reserved": 0, "lat": 38.92416933333333, "rental_uris": {"android": "https://dc.lft.to/lastmile_qr_scan", "ios": "https://dc.lft.to/lastmile_qr_scan"}, "bike_id": "b1073e2cb6249f0043a05e8f043f11a3", "fusion_lon": 0.0, "fusion_lat": 0.0, "is_disabled": 0, "name": "b1073e2cb6249f0043a05e8f043f11a3", "type": "electric_scooter", "lon": -77.0444785}, {"is_reserved": 0, "lat": 38.907808, "rental_uris": {"android": "https://dc.lft.to/lastmile_qr_scan", "ios": "https://dc.lft.to/lastmile_qr_scan"}, "bike_id": "650a5d7192d14add8fca95d87c474f0d", "fusion_lon": 0.0, "fusion_lat": 0.0, "is_disabled": 0, "name": "650a5d7192d14add8fca95d87c474f0d", "type": "electric_scooter", "lon": -77.072517}, {"is_reserved": 0, "lat": 38.840787166666665, "rental_uris": {"android": "https://dc.lft.to/lastmile_qr_scan", "ios": "https://dc.lft.to/lastmile_qr_scan"}, "bike_id": "f0ce934394efedbfc3587f2f3f11f13b", "fusion_lon": 0.0, "fusion_lat": 0.0, "is_disabled": 0, "name": "f0ce934394efedbfc3587f2f3f11f13b", "type": "electric_scooter", "lon": -76.98924283333334}, {"is_reserved": 0, "lat": 38.9288005, "rental_uris": {"android": "https://dc.lft.to/lastmile_qr_scan", "ios": "https://dc.lft.to/lastmile_qr_scan"}, "bike_id": "e4fdf4b81aba3026ebbfe9c39953bd29", "fusion_lon": 0.0, "fusion_lat": 0.0, "is_disabled": 0, "name": "e4fdf4b81aba3026ebbfe9c39953bd29", "type": "electric_scooter", "lon": -77.02707116666667}, {"is_reserved": 0, "lat": 38.8973255, "rental_uris": {"android": "https://dc.lft.to/lastmile_qr_scan", "ios": "https://dc.lft.to/lastmile_qr_scan"}, "bike_id": "5c25b523dbeb0474bc6e5f5502c199f6", "fusion_lon": 0.0, "fusion_lat": 0.0, "is_disabled": 0, "name": "5c25b523dbeb0474bc6e5f5502c199f6", "type": "electric_scooter", "lon": -77.0275655}, {"is_reserved": 0, "lat": 38.910703166666664, "rental_uris": {"android": "https://dc.lft.to/lastmile_qr_scan", "ios": "https://dc.lft.to/lastmile_qr_scan"}, "bike_id": "4a31a6d0065edb22b4d7aede178d84cf", "fusion_lon": 0.0, "fusion_lat": 0.0, "is_disabled": 0, "name": "4a31a6d0065edb22b4d7aede178d84cf", "type": "electric_scooter", "lon": -77.00390483333334}, {"is_reserved": 0, "lat": 38.937428833333335, "rental_uris": {"android": "https://dc.lft.to/lastmile_qr_scan", "ios": "https://dc.lft.to/lastmile_qr_scan"}, "bike_id": "82996be1bc424804f07ba1bb220777a0", "fusion_lon": 0.0, "fusion_lat": 0.0, "is_disabled": 0, "name": "82996be1bc424804f07ba1bb220777a0", "type": "electric_scooter", "lon": -77.03279316666666}, {"is_reserved": 0, "lat": 38.9222095, "rental_uris": {"android": "https://dc.lft.to/lastmile_qr_scan", "ios": "https://dc.lft.to/lastmile_qr_scan"}, "bike_id": "d0a22d242e5e2869aa9b2c977b027264", "fusion_lon": 0.0, "fusion_lat": 0.0, "is_disabled": 0, "name": "d0a22d242e5e2869aa9b2c977b027264", "type": "electric_scooter", "lon": -77.0424145}, {"is_reserved": 0, "lat": 38.9073805, "rental_uris": {"android": "https://dc.lft.to/lastmile_qr_scan", "ios": "https://dc.lft.to/lastmile_qr_scan"}, "bike_id": "666a1696f392c85a64d3ba8887f8478c", "fusion_lon": 0.0, "fusion_lat": 0.0, "is_disabled": 0, "name": "666a1696f392c85a64d3ba8887f8478c", "type": "electric_scooter", "lon": -77.027138}, {"is_reserved": 0, "lat": 38.892259, "rental_uris": {"android": "https://dc.lft.to/lastmile_qr_scan", "ios": "https://dc.lft.to/lastmile_qr_scan"}, "bike_id": "994d0d0366358d65d040f2e81ae03838", "fusion_lon": 0.0, "fusion_lat": 0.0, "is_disabled": 0, "name": "994d0d0366358d65d040f2e81ae03838", "type": "electric_scooter", "lon": -77.04503533333333}, {"is_reserved": 0, "lat": 38.92672533333333, "rental_uris": {"android": "https://dc.lft.to/lastmile_qr_scan", "ios": "https://dc.lft.to/lastmile_qr_scan"}, "bike_id": "36cbfac926a276ed800a6242fa4dd882", "fusion_lon": 0.0, "fusion_lat": 0.0, "is_disabled": 0, "name": "36cbfac926a276ed800a6242fa4dd882", "type": "electric_scooter", "lon": -77.0147335}, {"is_reserved": 0, "lat": 38.909554, "rental_uris": {"android": "https://dc.lft.to/lastmile_qr_scan", "ios": "https://dc.lft.to/lastmile_qr_scan"}, "bike_id": "a38c234a066b488c0b004fa99620b28f", "fusion_lon": 0.0, "fusion_lat": 0.0, "is_disabled": 0, "name": "a38c234a066b488c0b004fa99620b28f", "type": "electric_scooter", "lon": -77.0337665}, {"is_reserved": 0, "lat": 38.877280999999996, "rental_uris": {"android": "https://dc.lft.to/lastmile_qr_scan", "ios": "https://dc.lft.to/lastmile_qr_scan"}, "bike_id": "1b344daf664cd7fb7583aba0171155e0", "fusion_lon": 0.0, "fusion_lat": 0.0, "is_disabled": 0, "name": "1b344daf664cd7fb7583aba0171155e0", "type": "electric_scooter", "lon": -77.0146235}, {"is_reserved": 0, "lat": 38.9553165, "rental_uris": {"android": "https://dc.lft.to/lastmile_qr_scan", "ios": "https://dc.lft.to/lastmile_qr_scan"}, "bike_id": "4b6cd3027b7098c55915a73b779d29a8", "fusion_lon": 0.0, "fusion_lat": 0.0, "is_disabled": 0, "name": "4b6cd3027b7098c55915a73b779d29a8", "type": "electric_bike", "lon": -76.9679955}, {"is_reserved": 0, "lat": 38.8022615, "rental_uris": {"android": "https://dc.lft.to/lastmile_qr_scan", "ios": "https://dc.lft.to/lastmile_qr_scan"}, "bike_id": "fb79c509614a8f3149a93014c447c1fe", "fusion_lon": 0.0, "fusion_lat": 0.0, "is_disabled": 0, "name": "fb79c509614a8f3149a93014c447c1fe", "type": "electric_bike", "lon": -77.07913883333333}, {"is_reserved": 0, "lat": 38.902283, "rental_uris": {"android": "https://dc.lft.to/lastmile_qr_scan", "ios": "https://dc.lft.to/lastmile_qr_scan"}, "bike_id": "9db5fe097b3928f6f37a495b1903fd9f", "fusion_lon": 0.0, "fusion_lat": 0.0, "is_disabled": 0, "name": "9db5fe097b3928f6f37a495b1903fd9f", "type": "electric_scooter", "lon": -77.04351083333333}, {"is_reserved": 0, "lat": 38.86368566666667, "rental_uris": {"android": "https://dc.lft.to/lastmile_qr_scan", "ios": "https://dc.lft.to/lastmile_qr_scan"}, "bike_id": "01ba0f3e525ae214833f5d55cce6f7db", "fusion_lon": 0.0, "fusion_lat": 0.0, "is_disabled": 0, "name": "01ba0f3e525ae214833f5d55cce6f7db", "type": "electric_scooter", "lon": -76.99025816666666}, {"is_reserved": 0, "lat": 38.93062833333333, "rental_uris": {"android": "https://dc.lft.to/lastmile_qr_scan", "ios": "https://dc.lft.to/lastmile_qr_scan"}, "bike_id": "fd53e6f327e619855ca0608b89252a78", "fusion_lon": 0.0, "fusion_lat": 0.0, "is_disabled": 0, "name": "fd53e6f327e619855ca0608b89252a78", "type": "electric_scooter", "lon": -77.02323316666667}, {"is_reserved": 0, "lat": 38.92238433333333, "rental_uris": {"android": "https://dc.lft.to/lastmile_qr_scan", "ios": "https://dc.lft.to/lastmile_qr_scan"}, "bike_id": "8004d53b4ca8d56309baea827734817c", "fusion_lon": 0.0, "fusion_lat": 0.0, "is_disabled": 0, "name": "8004d53b4ca8d56309baea827734817c", "type": "electric_scooter", "lon": -77.04354116666667}, {"is_reserved": 0, "lat": 38.919469, "rental_uris": {"android": "https://dc.lft.to/lastmile_qr_scan", "ios": "https://dc.lft.to/lastmile_qr_scan"}, "bike_id": "9e5aa6092a0debe38760a1b4265a502d", "fusion_lon": 0.0, "fusion_lat": 0.0, "is_disabled": 0, "name": "9e5aa6092a0debe38760a1b4265a502d", "type": "electric_scooter", "lon": -76.969778}, {"is_reserved": 0, "lat": 38.924480333333335, "rental_uris": {"android": "https://dc.lft.to/lastmile_qr_scan", "ios": "https://dc.lft.to/lastmile_qr_scan"}, "bike_id": "1f9d4a934df9e495613b7d11956d4bb3", "fusion_lon": 0.0, "fusion_lat": 0.0, "is_disabled": 0, "name": "1f9d4a934df9e495613b7d11956d4bb3", "type": "electric_scooter", "lon": -77.04019966666667}, {"is_reserved": 0, "lat": 38.91269833333333, "rental_uris": {"android": "https://dc.lft.to/lastmile_qr_scan", "ios": "https://dc.lft.to/lastmile_qr_scan"}, "bike_id": "3ae7a1b2b5ad5d9c45de54e0aed17acf", "fusion_lon": 0.0, "fusion_lat": 0.0, "is_disabled": 0, "name": "3ae7a1b2b5ad5d9c45de54e0aed17acf", "type": "electric_scooter", "lon": -77.03323466666667}, {"is_reserved": 0, "lat": 38.88484416666667, "rental_uris": {"android": "https://dc.lft.to/lastmile_qr_scan", "ios": "https://dc.lft.to/lastmile_qr_scan"}, "bike_id": "27350c6fa8e0155ec5f15711f2fe8373", "fusion_lon": 0.0, "fusion_lat": 0.0, "is_disabled": 0, "name": "27350c6fa8e0155ec5f15711f2fe8373", "type": "electric_scooter", "lon": -77.03473916666667}, {"is_reserved": 0, "lat": 38.89560766666666, "rental_uris": {"android": "https://dc.lft.to/lastmile_qr_scan", "ios": "https://dc.lft.to/lastmile_qr_scan"}, "bike_id": "27c62ac4b538fe393391b6c7c8ec4bdb", "fusion_lon": 0.0, "fusion_lat": 0.0, "is_disabled": 0, "name": "27c62ac4b538fe393391b6c7c8ec4bdb", "type": "electric_scooter", "lon": -77.02733066666667}, {"is_reserved": 0, "lat": 38.91125916666667, "rental_uris": {"android": "https://dc.lft.to/lastmile_qr_scan", "ios": "https://dc.lft.to/lastmile_qr_scan"}, "bike_id": "aea8a73e5bca4b331b552d5d56e8fc8e", "fusion_lon": 0.0, "fusion_lat": 0.0, "is_disabled": 0, "name": "aea8a73e5bca4b331b552d5d56e8fc8e", "type": "electric_scooter", "lon": -77.02694133333334}, {"is_reserved": 0, "lat": 38.91358366666667, "rental_uris": {"android": "https://dc.lft.to/lastmile_qr_scan", "ios": "https://dc.lft.to/lastmile_qr_scan"}, "bike_id": "e0f609a0dad0850e8deff6bf2e541bc7", "fusion_lon": 0.0, "fusion_lat": 0.0, "is_disabled": 0, "name": "e0f609a0dad0850e8deff6bf2e541bc7", "type": "electric_scooter", "lon": -77.04478566666667}, {"is_reserved": 0, "lat": 38.92222833333334, "rental_uris": {"android": "https://dc.lft.to/lastmile_qr_scan", "ios": "https://dc.lft.to/lastmile_qr_scan"}, "bike_id": "0e99a7fcb0497b202e66a3831aa6daf3", "fusion_lon": 0.0, "fusion_lat": 0.0, "is_disabled": 0, "name": "0e99a7fcb0497b202e66a3831aa6daf3", "type": "electric_scooter", "lon": -77.04243966666667}, {"is_reserved": 0, "lat": 38.865066666666664, "rental_uris": {"android": "https://dc.lft.to/lastmile_qr_scan", "ios": "https://dc.lft.to/lastmile_qr_scan"}, "bike_id": "8f257e8272b9f3ecca8348e354ccfe67", "fusion_lon": 0.0, "fusion_lat": 0.0, "is_disabled": 0, "name": "8f257e8272b9f3ecca8348e354ccfe67", "type": "electric_scooter", "lon": -76.990038}, {"is_reserved": 0, "lat": 38.86713316666667, "rental_uris": {"android": "https://dc.lft.to/lastmile_qr_scan", "ios": "https://dc.lft.to/lastmile_qr_scan"}, "bike_id": "a9742d9a7627c537340e70eb38018fac", "fusion_lon": 0.0, "fusion_lat": 0.0, "is_disabled": 0, "name": "a9742d9a7627c537340e70eb38018fac", "type": "electric_scooter", "lon": -76.98725216666666}, {"is_reserved": 0, "lat": 38.917041833333336, "rental_uris": {"android": "https://dc.lft.to/lastmile_qr_scan", "ios": "https://dc.lft.to/lastmile_qr_scan"}, "bike_id": "06db27a8ee76a7b37c7bd021cafc34b3", "fusion_lon": 0.0, "fusion_lat": 0.0, "is_disabled": 0, "name": "06db27a8ee76a7b37c7bd021cafc34b3", "type": "electric_scooter", "lon": -77.02661716666667}, {"is_reserved": 0, "lat": 38.90079983333333, "rental_uris": {"android": "https://dc.lft.to/lastmile_qr_scan", "ios": "https://dc.lft.to/lastmile_qr_scan"}, "bike_id": "34f25fc7a8f2c3affe18d2c6161ce968", "fusion_lon": 0.0, "fusion_lat": 0.0, "is_disabled": 0, "name": "34f25fc7a8f2c3affe18d2c6161ce968", "type": "electric_scooter", "lon": -77.025606}, {"is_reserved": 0, "lat": 38.8728665, "rental_uris": {"android": "https://dc.lft.to/lastmile_qr_scan", "ios": "https://dc.lft.to/lastmile_qr_scan"}, "bike_id": "c997f0a929d8773e76fab84fb5b9a559", "fusion_lon": 0.0, "fusion_lat": 0.0, "is_disabled": 0, "name": "c997f0a929d8773e76fab84fb5b9a559", "type": "electric_scooter", "lon": -77.00983683333334}, {"is_reserved": 0, "lat": 38.90561816666667, "rental_uris": {"android": "https://dc.lft.to/lastmile_qr_scan", "ios": "https://dc.lft.to/lastmile_qr_scan"}, "bike_id": "b67e94d9b62352034edbf963c48777e3", "fusion_lon": 0.0, "fusion_lat": 0.0, "is_disabled": 0, "name": "b67e94d9b62352034edbf963c48777e3", "type": "electric_scooter", "lon": -76.99873666666667}, {"is_reserved": 0, "lat": 38.91742083333333, "rental_uris": {"android": "https://dc.lft.to/lastmile_qr_scan", "ios": "https://dc.lft.to/lastmile_qr_scan"}, "bike_id": "bd7e9eb726472098755007fab72edd86", "fusion_lon": 0.0, "fusion_lat": 0.0, "is_disabled": 0, "name": "bd7e9eb726472098755007fab72edd86", "type": "electric_scooter", "lon": -77.03188116666666}, {"is_reserved": 0, "lat": 38.924822166666665, "rental_uris": {"android": "https://dc.lft.to/lastmile_qr_scan", "ios": "https://dc.lft.to/lastmile_qr_scan"}, "bike_id": "8988b182c9e708727aa3c92997353f22", "fusion_lon": 0.0, "fusion_lat": 0.0, "is_disabled": 0, "name": "8988b182c9e708727aa3c92997353f22", "type": "electric_scooter", "lon": -77.027208}, {"is_reserved": 0, "lat": 38.902442666666666, "rental_uris": {"android": "https://dc.lft.to/lastmile_qr_scan", "ios": "https://dc.lft.to/lastmile_qr_scan"}, "bike_id": "5fea088980773b7fb995e2419a3bef0b", "fusion_lon": 0.0, "fusion_lat": 0.0, "is_disabled": 0, "name": "5fea088980773b7fb995e2419a3bef0b", "type": "electric_scooter", "lon": -77.043632}, {"is_reserved": 0, "lat": 38.866941833333335, "rental_uris": {"android": "https://dc.lft.to/lastmile_qr_scan", "ios": "https://dc.lft.to/lastmile_qr_scan"}, "bike_id": "3be3fed6b16c735ffc6ebe488183f502", "fusion_lon": 0.0, "fusion_lat": 0.0, "is_disabled": 0, "name": "3be3fed6b16c735ffc6ebe488183f502", "type": "electric_scooter", "lon": -76.985463}, {"is_reserved": 0, "lat": 38.91707483333333, "rental_uris": {"android": "https://dc.lft.to/lastmile_qr_scan", "ios": "https://dc.lft.to/lastmile_qr_scan"}, "bike_id": "51cdc52247606c21084363f109940bef", "fusion_lon": 0.0, "fusion_lat": 0.0, "is_disabled": 0, "name": "51cdc52247606c21084363f109940bef", "type": "electric_scooter", "lon": -77.04686566666666}, {"is_reserved": 0, "lat": 38.91552983333333, "rental_uris": {"android": "https://dc.lft.to/lastmile_qr_scan", "ios": "https://dc.lft.to/lastmile_qr_scan"}, "bike_id": "6abb36103847ab5eedb5af57a21bae62", "fusion_lon": 0.0, "fusion_lat": 0.0, "is_disabled": 0, "name": "6abb36103847ab5eedb5af57a21bae62", "type": "electric_scooter", "lon": -77.03497683333333}, {"is_reserved": 0, "lat": 38.915659, "rental_uris": {"android": "https://dc.lft.to/lastmile_qr_scan", "ios": "https://dc.lft.to/lastmile_qr_scan"}, "bike_id": "2772d83a918fb4f762b2c0ab441c1418", "fusion_lon": 0.0, "fusion_lat": 0.0, "is_disabled": 0, "name": "2772d83a918fb4f762b2c0ab441c1418", "type": "electric_scooter", "lon": -77.0116925}, {"is_reserved": 0, "lat": 38.906355, "rental_uris": {"android": "https://dc.lft.to/lastmile_qr_scan", "ios": "https://dc.lft.to/lastmile_qr_scan"}, "bike_id": "7f834ae083de5f5dc4dffad9f9a991a0", "fusion_lon": 0.0, "fusion_lat": 0.0, "is_disabled": 0, "name": "7f834ae083de5f5dc4dffad9f9a991a0", "type": "electric_bike", "lon": -77.02070666666667}, {"is_reserved": 0, "lat": 38.9181375, "rental_uris": {"android": "https://dc.lft.to/lastmile_qr_scan", "ios": "https://dc.lft.to/lastmile_qr_scan"}, "bike_id": "bedd0b23d024f667de4480294bdbd138", "fusion_lon": 0.0, "fusion_lat": 0.0, "is_disabled": 0, "name": "bedd0b23d024f667de4480294bdbd138", "type": "electric_scooter", "lon": -77.0345925}, {"is_reserved": 0, "lat": 38.92323066666667, "rental_uris": {"android": "https://dc.lft.to/lastmile_qr_scan", "ios": "https://dc.lft.to/lastmile_qr_scan"}, "bike_id": "f4f9b2d613c744ca75ef65276e6d71af", "fusion_lon": 0.0, "fusion_lat": 0.0, "is_disabled": 0, "name": "f4f9b2d613c744ca75ef65276e6d71af", "type": "electric_scooter", "lon": -77.02977333333334}, {"is_reserved": 0, "lat": 38.9144905, "rental_uris": {"android": "https://dc.lft.to/lastmile_qr_scan", "ios": "https://dc.lft.to/lastmile_qr_scan"}, "bike_id": "bc22af8603d0b3541b9415f0e62bce63", "fusion_lon": 0.0, "fusion_lat": 0.0, "is_disabled": 0, "name": "bc22af8603d0b3541b9415f0e62bce63", "type": "electric_scooter", "lon": -77.0321315}, {"is_reserved": 0, "lat": 38.91694533333333, "rental_uris": {"android": "https://dc.lft.to/lastmile_qr_scan", "ios": "https://dc.lft.to/lastmile_qr_scan"}, "bike_id": "068a82b7747130daf245f8b2c8d77648", "fusion_lon": 0.0, "fusion_lat": 0.0, "is_disabled": 0, "name": "068a82b7747130daf245f8b2c8d77648", "type": "electric_scooter", "lon": -77.03767516666667}, {"is_reserved": 0, "lat": 38.895554, "rental_uris": {"android": "https://dc.lft.to/lastmile_qr_scan", "ios": "https://dc.lft.to/lastmile_qr_scan"}, "bike_id": "05a085516538a6a46a1d09496e57b3ca", "fusion_lon": 0.0, "fusion_lat": 0.0, "is_disabled": 0, "name": "05a085516538a6a46a1d09496e57b3ca", "type": "electric_scooter", "lon": -76.933692}, {"is_reserved": 0, "lat": 38.96475566666667, "rental_uris": {"android": "https://dc.lft.to/lastmile_qr_scan", "ios": "https://dc.lft.to/lastmile_qr_scan"}, "bike_id": "c69a5175b97dd71a9c323049317a7250", "fusion_lon": 0.0, "fusion_lat": 0.0, "is_disabled": 0, "name": "c69a5175b97dd71a9c323049317a7250", "type": "electric_bike", "lon": -76.93897183333333}, {"is_reserved": 0, "lat": 38.921199, "rental_uris": {"android": "https://dc.lft.to/lastmile_qr_scan", "ios": "https://dc.lft.to/lastmile_qr_scan"}, "bike_id": "2c3e49bf5fa583973890596cd4caa43c", "fusion_lon": 0.0, "fusion_lat": 0.0, "is_disabled": 0, "name": "2c3e49bf5fa583973890596cd4caa43c", "type": "electric_scooter", "lon": -77.03194966666666}, {"is_reserved": 0, "lat": 38.82871383333333, "rental_uris": {"android": "https://dc.lft.to/lastmile_qr_scan", "ios": "https://dc.lft.to/lastmile_qr_scan"}, "bike_id": "65c804ef6eecc96575f096b79eaa642b", "fusion_lon": 0.0, "fusion_lat": 0.0, "is_disabled": 0, "name": "65c804ef6eecc96575f096b79eaa642b", "type": "electric_bike", "lon": -77.112238}, {"is_reserved": 0, "lat": 38.88441366666667, "rental_uris": {"android": "https://dc.lft.to/lastmile_qr_scan", "ios": "https://dc.lft.to/lastmile_qr_scan"}, "bike_id": "14a463c786f82e141709de196d5ff46b", "fusion_lon": 0.0, "fusion_lat": 0.0, "is_disabled": 0, "name": "14a463c786f82e141709de196d5ff46b", "type": "electric_scooter", "lon": -76.99616416666667}, {"is_reserved": 0, "lat": 38.900831, "rental_uris": {"android": "https://dc.lft.to/lastmile_qr_scan", "ios": "https://dc.lft.to/lastmile_qr_scan"}, "bike_id": "85a1dd3a965782905b501bf9db0aa866", "fusion_lon": 0.0, "fusion_lat": 0.0, "is_disabled": 0, "name": "85a1dd3a965782905b501bf9db0aa866", "type": "electric_scooter", "lon": -77.04341383333333}, {"is_reserved": 0, "lat": 38.94437383333333, "rental_uris": {"android": "https://dc.lft.to/lastmile_qr_scan", "ios": "https://dc.lft.to/lastmile_qr_scan"}, "bike_id": "d360ffaea052991364bf590001d20d5e", "fusion_lon": 0.0, "fusion_lat": 0.0, "is_disabled": 0, "name": "d360ffaea052991364bf590001d20d5e", "type": "electric_scooter", "lon": -77.06397566666666}, {"is_reserved": 0, "lat": 38.930197166666666, "rental_uris": {"android": "https://dc.lft.to/lastmile_qr_scan", "ios": "https://dc.lft.to/lastmile_qr_scan"}, "bike_id": "5345f5268e329cbf7865e56cba5120e7", "fusion_lon": 0.0, "fusion_lat": 0.0, "is_disabled": 0, "name": "5345f5268e329cbf7865e56cba5120e7", "type": "electric_scooter", "lon": -77.04459616666666}, {"is_reserved": 0, "lat": 38.909899333333335, "rental_uris": {"android": "https://dc.lft.to/lastmile_qr_scan", "ios": "https://dc.lft.to/lastmile_qr_scan"}, "bike_id": "507aa0908d031dea319336cf1eaf7593", "fusion_lon": 0.0, "fusion_lat": 0.0, "is_disabled": 0, "name": "507aa0908d031dea319336cf1eaf7593", "type": "electric_scooter", "lon": -76.99735416666667}, {"is_reserved": 0, "lat": 38.898825333333335, "rental_uris": {"android": "https://dc.lft.to/lastmile_qr_scan", "ios": "https://dc.lft.to/lastmile_qr_scan"}, "bike_id": "c78b32fb03e1edaeb7c3190e3ddaebf7", "fusion_lon": 0.0, "fusion_lat": 0.0, "is_disabled": 0, "name": "c78b32fb03e1edaeb7c3190e3ddaebf7", "type": "electric_scooter", "lon": -76.9317215}, {"is_reserved": 0, "lat": 38.89220366666667, "rental_uris": {"android": "https://dc.lft.to/lastmile_qr_scan", "ios": "https://dc.lft.to/lastmile_qr_scan"}, "bike_id": "3bc357fee065956d81208f34ad50131c", "fusion_lon": 0.0, "fusion_lat": 0.0, "is_disabled": 0, "name": "3bc357fee065956d81208f34ad50131c", "type": "electric_scooter", "lon": -77.031675}, {"is_reserved": 0, "lat": 39.00474416666667, "rental_uris": {"android": "https://dc.lft.to/lastmile_qr_scan", "ios": "https://dc.lft.to/lastmile_qr_scan"}, "bike_id": "837878df81591ca5faf62779be6e24ca", "fusion_lon": 0.0, "fusion_lat": 0.0, "is_disabled": 0, "name": "837878df81591ca5faf62779be6e24ca", "type": "electric_bike", "lon": -76.90126466666666}, {"is_reserved": 0, "lat": 38.930602, "rental_uris": {"android": "https://dc.lft.to/lastmile_qr_scan", "ios": "https://dc.lft.to/lastmile_qr_scan"}, "bike_id": "a6f37570c562ebea587ad6b391170a7e", "fusion_lon": 0.0, "fusion_lat": 0.0, "is_disabled": 0, "name": "a6f37570c562ebea587ad6b391170a7e", "type": "electric_scooter", "lon": -77.0369615}, {"is_reserved": 0, "lat": 38.89220666666667, "rental_uris": {"android": "https://dc.lft.to/lastmile_qr_scan", "ios": "https://dc.lft.to/lastmile_qr_scan"}, "bike_id": "18e97518cf4387365bbb694d1f757d18", "fusion_lon": 0.0, "fusion_lat": 0.0, "is_disabled": 0, "name": "18e97518cf4387365bbb694d1f757d18", "type": "electric_scooter", "lon": -77.031662}, {"is_reserved": 0, "lat": 38.9135125, "rental_uris": {"android": "https://dc.lft.to/lastmile_qr_scan", "ios": "https://dc.lft.to/lastmile_qr_scan"}, "bike_id": "7f4159fb325947510cdfc98d03b5bd5f", "fusion_lon": 0.0, "fusion_lat": 0.0, "is_disabled": 0, "name": "7f4159fb325947510cdfc98d03b5bd5f", "type": "electric_scooter", "lon": -77.04353166666667}, {"is_reserved": 0, "lat": 38.9155295, "rental_uris": {"android": "https://dc.lft.to/lastmile_qr_scan", "ios": "https://dc.lft.to/lastmile_qr_scan"}, "bike_id": "337200c39bd97c51ea5c4191e3116d57", "fusion_lon": 0.0, "fusion_lat": 0.0, "is_disabled": 0, "name": "337200c39bd97c51ea5c4191e3116d57", "type": "electric_scooter", "lon": -77.04183183333333}, {"is_reserved": 0, "lat": 39.02933083333333, "rental_uris": {"android": "https://dc.lft.to/lastmile_qr_scan", "ios": "https://dc.lft.to/lastmile_qr_scan"}, "bike_id": "6cf97ab15594ac734442440774cffac6", "fusion_lon": 0.0, "fusion_lat": 0.0, "is_disabled": 0, "name": "6cf97ab15594ac734442440774cffac6", "type": "electric_bike", "lon": -77.04924983333333}, {"is_reserved": 0, "lat": 38.931097666666666, "rental_uris": {"android": "https://dc.lft.to/lastmile_qr_scan", "ios": "https://dc.lft.to/lastmile_qr_scan"}, "bike_id": "a43003198ce6216181ab0eab976a89ce", "fusion_lon": 0.0, "fusion_lat": 0.0, "is_disabled": 0, "name": "a43003198ce6216181ab0eab976a89ce", "type": "electric_scooter", "lon": -77.03839983333333}, {"is_reserved": 0, "lat": 38.9118355, "rental_uris": {"android": "https://dc.lft.to/lastmile_qr_scan", "ios": "https://dc.lft.to/lastmile_qr_scan"}, "bike_id": "3d805c0a789c47396fc158de3e7fe432", "fusion_lon": 0.0, "fusion_lat": 0.0, "is_disabled": 0, "name": "3d805c0a789c47396fc158de3e7fe432", "type": "electric_scooter", "lon": -77.04847916666667}, {"is_reserved": 0, "lat": 38.87435633333333, "rental_uris": {"android": "https://dc.lft.to/lastmile_qr_scan", "ios": "https://dc.lft.to/lastmile_qr_scan"}, "bike_id": "23875296790a275836bc94851c999e50", "fusion_lon": 0.0, "fusion_lat": 0.0, "is_disabled": 0, "name": "23875296790a275836bc94851c999e50", "type": "electric_scooter", "lon": -77.00060116666667}, {"is_reserved": 0, "lat": 38.902938166666665, "rental_uris": {"android": "https://dc.lft.to/lastmile_qr_scan", "ios": "https://dc.lft.to/lastmile_qr_scan"}, "bike_id": "e10a9350f9692c27311c6a5d9ea28cf4", "fusion_lon": 0.0, "fusion_lat": 0.0, "is_disabled": 0, "name": "e10a9350f9692c27311c6a5d9ea28cf4", "type": "electric_scooter", "lon": -77.0462785}, {"is_reserved": 0, "lat": 38.90692466666667, "rental_uris": {"android": "https://dc.lft.to/lastmile_qr_scan", "ios": "https://dc.lft.to/lastmile_qr_scan"}, "bike_id": "e1420f2e1154393d9af598cfcbba7a7d", "fusion_lon": 0.0, "fusion_lat": 0.0, "is_disabled": 0, "name": "e1420f2e1154393d9af598cfcbba7a7d", "type": "electric_scooter", "lon": -77.03836383333334}, {"is_reserved": 0, "lat": 38.910701833333334, "rental_uris": {"android": "https://dc.lft.to/lastmile_qr_scan", "ios": "https://dc.lft.to/lastmile_qr_scan"}, "bike_id": "864cd554593ec696e49b46b1b206726f", "fusion_lon": 0.0, "fusion_lat": 0.0, "is_disabled": 0, "name": "864cd554593ec696e49b46b1b206726f", "type": "electric_scooter", "lon": -77.02717333333334}, {"is_reserved": 0, "lat": 38.91416816666667, "rental_uris": {"android": "https://dc.lft.to/lastmile_qr_scan", "ios": "https://dc.lft.to/lastmile_qr_scan"}, "bike_id": "6ca2d3559a45a2031f7d4a32c56cddc0", "fusion_lon": 0.0, "fusion_lat": 0.0, "is_disabled": 0, "name": "6ca2d3559a45a2031f7d4a32c56cddc0", "type": "electric_scooter", "lon": -77.02115}, {"is_reserved": 0, "lat": 38.924787, "rental_uris": {"android": "https://dc.lft.to/lastmile_qr_scan", "ios": "https://dc.lft.to/lastmile_qr_scan"}, "bike_id": "49aff41b7d3b199a8bfd5d56a4ee4f06", "fusion_lon": 0.0, "fusion_lat": 0.0, "is_disabled": 0, "name": "49aff41b7d3b199a8bfd5d56a4ee4f06", "type": "electric_scooter", "lon": -77.0347975}, {"is_reserved": 0, "lat": 38.91846566666667, "rental_uris": {"android": "https://dc.lft.to/lastmile_qr_scan", "ios": "https://dc.lft.to/lastmile_qr_scan"}, "bike_id": "0a48a8a7b29393a01d34856b30f9eada", "fusion_lon": 0.0, "fusion_lat": 0.0, "is_disabled": 0, "name": "0a48a8a7b29393a01d34856b30f9eada", "type": "electric_scooter", "lon": -77.02437483333334}, {"is_reserved": 0, "lat": 38.91729566666667, "rental_uris": {"android": "https://dc.lft.to/lastmile_qr_scan", "ios": "https://dc.lft.to/lastmile_qr_scan"}, "bike_id": "cb5e8b7c1337c51e59beb1ce7f22601b", "fusion_lon": 0.0, "fusion_lat": 0.0, "is_disabled": 0, "name": "cb5e8b7c1337c51e59beb1ce7f22601b", "type": "electric_scooter", "lon": -77.03644866666667}, {"is_reserved": 0, "lat": 38.91549966666667, "rental_uris": {"android": "https://dc.lft.to/lastmile_qr_scan", "ios": "https://dc.lft.to/lastmile_qr_scan"}, "bike_id": "9ad877e20f7f5d884a30858326ec8db4", "fusion_lon": 0.0, "fusion_lat": 0.0, "is_disabled": 0, "name": "9ad877e20f7f5d884a30858326ec8db4", "type": "electric_scooter", "lon": -77.03155933333333}, {"is_reserved": 0, "lat": 38.91703833333333, "rental_uris": {"android": "https://dc.lft.to/lastmile_qr_scan", "ios": "https://dc.lft.to/lastmile_qr_scan"}, "bike_id": "29d67d95c44be656b45b9fcde1cb49d9", "fusion_lon": 0.0, "fusion_lat": 0.0, "is_disabled": 0, "name": "29d67d95c44be656b45b9fcde1cb49d9", "type": "electric_scooter", "lon": -77.03931066666667}, {"is_reserved": 0, "lat": 38.89483633333333, "rental_uris": {"android": "https://dc.lft.to/lastmile_qr_scan", "ios": "https://dc.lft.to/lastmile_qr_scan"}, "bike_id": "24b0c776690dd43e5e5398e351d33fa0", "fusion_lon": 0.0, "fusion_lat": 0.0, "is_disabled": 0, "name": "24b0c776690dd43e5e5398e351d33fa0", "type": "electric_scooter", "lon": -77.00227633333333}, {"is_reserved": 0, "lat": 38.910484333333336, "rental_uris": {"android": "https://dc.lft.to/lastmile_qr_scan", "ios": "https://dc.lft.to/lastmile_qr_scan"}, "bike_id": "9e1bfb03baed9b8c689a03ab30f6c50a", "fusion_lon": 0.0, "fusion_lat": 0.0, "is_disabled": 0, "name": "9e1bfb03baed9b8c689a03ab30f6c50a", "type": "electric_scooter", "lon": -77.043443}, {"is_reserved": 0, "lat": 38.896058, "rental_uris": {"android": "https://dc.lft.to/lastmile_qr_scan", "ios": "https://dc.lft.to/lastmile_qr_scan"}, "bike_id": "5326ddb41858a84c90a450e00b60365c", "fusion_lon": 0.0, "fusion_lat": 0.0, "is_disabled": 0, "name": "5326ddb41858a84c90a450e00b60365c", "type": "electric_scooter", "lon": -77.0546705}, {"is_reserved": 0, "lat": 38.93373316666667, "rental_uris": {"android": "https://dc.lft.to/lastmile_qr_scan", "ios": "https://dc.lft.to/lastmile_qr_scan"}, "bike_id": "119d52fd841ad5d67371fd79dae60281", "fusion_lon": 0.0, "fusion_lat": 0.0, "is_disabled": 0, "name": "119d52fd841ad5d67371fd79dae60281", "type": "electric_scooter", "lon": -77.057579}, {"is_reserved": 0, "lat": 38.910338833333334, "rental_uris": {"android": "https://dc.lft.to/lastmile_qr_scan", "ios": "https://dc.lft.to/lastmile_qr_scan"}, "bike_id": "78c1764d151a883203907f1991177f84", "fusion_lon": 0.0, "fusion_lat": 0.0, "is_disabled": 0, "name": "78c1764d151a883203907f1991177f84", "type": "electric_scooter", "lon": -77.03190716666667}, {"is_reserved": 0, "lat": 38.911729, "rental_uris": {"android": "https://dc.lft.to/lastmile_qr_scan", "ios": "https://dc.lft.to/lastmile_qr_scan"}, "bike_id": "478a9752d2069cc5453b8c3c8e0c49e9", "fusion_lon": 0.0, "fusion_lat": 0.0, "is_disabled": 0, "name": "478a9752d2069cc5453b8c3c8e0c49e9", "type": "electric_scooter", "lon": -77.03861566666667}, {"is_reserved": 0, "lat": 38.899641833333334, "rental_uris": {"android": "https://dc.lft.to/lastmile_qr_scan", "ios": "https://dc.lft.to/lastmile_qr_scan"}, "bike_id": "b77e8e7dc6b51dc01add4741e8bd2977", "fusion_lon": 0.0, "fusion_lat": 0.0, "is_disabled": 0, "name": "b77e8e7dc6b51dc01add4741e8bd2977", "type": "electric_scooter", "lon": -77.0256625}, {"is_reserved": 0, "lat": 38.91708166666667, "rental_uris": {"android": "https://dc.lft.to/lastmile_qr_scan", "ios": "https://dc.lft.to/lastmile_qr_scan"}, "bike_id": "ababd05e96d6abeb423fe6f61665ceed", "fusion_lon": 0.0, "fusion_lat": 0.0, "is_disabled": 0, "name": "ababd05e96d6abeb423fe6f61665ceed", "type": "electric_scooter", "lon": -77.04022483333334}, {"is_reserved": 0, "lat": 38.9103485, "rental_uris": {"android": "https://dc.lft.to/lastmile_qr_scan", "ios": "https://dc.lft.to/lastmile_qr_scan"}, "bike_id": "35b08896202540141ebdeccbd068b79d", "fusion_lon": 0.0, "fusion_lat": 0.0, "is_disabled": 0, "name": "35b08896202540141ebdeccbd068b79d", "type": "electric_scooter", "lon": -77.03863233333334}, {"is_reserved": 0, "lat": 38.90668333333333, "rental_uris": {"android": "https://dc.lft.to/lastmile_qr_scan", "ios": "https://dc.lft.to/lastmile_qr_scan"}, "bike_id": "394388ca38161abf6b599d16f9372daa", "fusion_lon": 0.0, "fusion_lat": 0.0, "is_disabled": 0, "name": "394388ca38161abf6b599d16f9372daa", "type": "electric_scooter", "lon": -77.05019}, {"is_reserved": 0, "lat": 38.91414566666667, "rental_uris": {"android": "https://dc.lft.to/lastmile_qr_scan", "ios": "https://dc.lft.to/lastmile_qr_scan"}, "bike_id": "8584f9bb2728fae4f2381bc64430501d", "fusion_lon": 0.0, "fusion_lat": 0.0, "is_disabled": 0, "name": "8584f9bb2728fae4f2381bc64430501d", "type": "electric_scooter", "lon": -77.02610933333334}, {"is_reserved": 0, "lat": 38.907296, "rental_uris": {"android": "https://dc.lft.to/lastmile_qr_scan", "ios": "https://dc.lft.to/lastmile_qr_scan"}, "bike_id": "bfd0b6a5d039bc7ef03211e1e1dd1946", "fusion_lon": 0.0, "fusion_lat": 0.0, "is_disabled": 0, "name": "bfd0b6a5d039bc7ef03211e1e1dd1946", "type": "electric_scooter", "lon": -77.03108666666667}, {"is_reserved": 0, "lat": 38.919921, "rental_uris": {"android": "https://dc.lft.to/lastmile_qr_scan", "ios": "https://dc.lft.to/lastmile_qr_scan"}, "bike_id": "736df5b11dbccc441ce8bffd0bb86b2e", "fusion_lon": 0.0, "fusion_lat": 0.0, "is_disabled": 0, "name": "736df5b11dbccc441ce8bffd0bb86b2e", "type": "electric_scooter", "lon": -77.02401383333333}, {"is_reserved": 0, "lat": 38.929735, "rental_uris": {"android": "https://dc.lft.to/lastmile_qr_scan", "ios": "https://dc.lft.to/lastmile_qr_scan"}, "bike_id": "14834d65d5a0963225aedc5477445d94", "fusion_lon": 0.0, "fusion_lat": 0.0, "is_disabled": 0, "name": "14834d65d5a0963225aedc5477445d94", "type": "electric_scooter", "lon": -77.0326945}, {"is_reserved": 0, "lat": 38.902783166666666, "rental_uris": {"android": "https://dc.lft.to/lastmile_qr_scan", "ios": "https://dc.lft.to/lastmile_qr_scan"}, "bike_id": "e0168a7d696b3260a35ef981d4b53f6d", "fusion_lon": 0.0, "fusion_lat": 0.0, "is_disabled": 0, "name": "e0168a7d696b3260a35ef981d4b53f6d", "type": "electric_scooter", "lon": -77.03667233333333}, {"is_reserved": 0, "lat": 38.91684133333333, "rental_uris": {"android": "https://dc.lft.to/lastmile_qr_scan", "ios": "https://dc.lft.to/lastmile_qr_scan"}, "bike_id": "e2834a19b53e25144789b1b1344ccaf4", "fusion_lon": 0.0, "fusion_lat": 0.0, "is_disabled": 0, "name": "e2834a19b53e25144789b1b1344ccaf4", "type": "electric_scooter", "lon": -77.03635483333333}, {"is_reserved": 0, "lat": 38.882685333333335, "rental_uris": {"android": "https://dc.lft.to/lastmile_qr_scan", "ios": "https://dc.lft.to/lastmile_qr_scan"}, "bike_id": "600c7c3894bcb74d066edf9e8e4e272b", "fusion_lon": 0.0, "fusion_lat": 0.0, "is_disabled": 0, "name": "600c7c3894bcb74d066edf9e8e4e272b", "type": "electric_bike", "lon": -76.93252133333333}, {"is_reserved": 0, "lat": 38.90238016666667, "rental_uris": {"android": "https://dc.lft.to/lastmile_qr_scan", "ios": "https://dc.lft.to/lastmile_qr_scan"}, "bike_id": "3212d6c591932f8b964a82a459c04c91", "fusion_lon": 0.0, "fusion_lat": 0.0, "is_disabled": 0, "name": "3212d6c591932f8b964a82a459c04c91", "type": "electric_scooter", "lon": -77.06027866666666}, {"is_reserved": 0, "lat": 38.9062225, "rental_uris": {"android": "https://dc.lft.to/lastmile_qr_scan", "ios": "https://dc.lft.to/lastmile_qr_scan"}, "bike_id": "4694daf2fee62b4649fdf95639ed36ba", "fusion_lon": 0.0, "fusion_lat": 0.0, "is_disabled": 0, "name": "4694daf2fee62b4649fdf95639ed36ba", "type": "electric_scooter", "lon": -77.021829}, {"is_reserved": 0, "lat": 38.92351766666667, "rental_uris": {"android": "https://dc.lft.to/lastmile_qr_scan", "ios": "https://dc.lft.to/lastmile_qr_scan"}, "bike_id": "8f3cb574f67f94fefa315392958876e0", "fusion_lon": 0.0, "fusion_lat": 0.0, "is_disabled": 0, "name": "8f3cb574f67f94fefa315392958876e0", "type": "electric_scooter", "lon": -77.05017433333333}, {"is_reserved": 0, "lat": 38.925534, "rental_uris": {"android": "https://dc.lft.to/lastmile_qr_scan", "ios": "https://dc.lft.to/lastmile_qr_scan"}, "bike_id": "ab4933a29415f9f5e23cddfcad480df7", "fusion_lon": 0.0, "fusion_lat": 0.0, "is_disabled": 0, "name": "ab4933a29415f9f5e23cddfcad480df7", "type": "electric_scooter", "lon": -77.05267533333334}, {"is_reserved": 0, "lat": 38.90284583333333, "rental_uris": {"android": "https://dc.lft.to/lastmile_qr_scan", "ios": "https://dc.lft.to/lastmile_qr_scan"}, "bike_id": "e4d82b1d5c3c0f5673c0f8fabedaf729", "fusion_lon": 0.0, "fusion_lat": 0.0, "is_disabled": 0, "name": "e4d82b1d5c3c0f5673c0f8fabedaf729", "type": "electric_scooter", "lon": -77.041469}, {"is_reserved": 0, "lat": 38.923678833333334, "rental_uris": {"android": "https://dc.lft.to/lastmile_qr_scan", "ios": "https://dc.lft.to/lastmile_qr_scan"}, "bike_id": "85a0a084fd681f52aba66de4f880dd90", "fusion_lon": 0.0, "fusion_lat": 0.0, "is_disabled": 0, "name": "85a0a084fd681f52aba66de4f880dd90", "type": "electric_scooter", "lon": -77.05058766666667}, {"is_reserved": 0, "lat": 38.86618133333333, "rental_uris": {"android": "https://dc.lft.to/lastmile_qr_scan", "ios": "https://dc.lft.to/lastmile_qr_scan"}, "bike_id": "b16855a3a5c34b555068b225fd6a9d9f", "fusion_lon": 0.0, "fusion_lat": 0.0, "is_disabled": 0, "name": "b16855a3a5c34b555068b225fd6a9d9f", "type": "electric_scooter", "lon": -76.98663316666666}, {"is_reserved": 0, "lat": 38.902360333333334, "rental_uris": {"android": "https://dc.lft.to/lastmile_qr_scan", "ios": "https://dc.lft.to/lastmile_qr_scan"}, "bike_id": "df8f5c616e2bb1a4e8190a9b8337467e", "fusion_lon": 0.0, "fusion_lat": 0.0, "is_disabled": 0, "name": "df8f5c616e2bb1a4e8190a9b8337467e", "type": "electric_scooter", "lon": -77.0626885}, {"is_reserved": 0, "lat": 38.935780666666666, "rental_uris": {"android": "https://dc.lft.to/lastmile_qr_scan", "ios": "https://dc.lft.to/lastmile_qr_scan"}, "bike_id": "c974f0703da2b5b1009671794ae5eeb9", "fusion_lon": 0.0, "fusion_lat": 0.0, "is_disabled": 0, "name": "c974f0703da2b5b1009671794ae5eeb9", "type": "electric_scooter", "lon": -77.037586}, {"is_reserved": 0, "lat": 38.93084366666667, "rental_uris": {"android": "https://dc.lft.to/lastmile_qr_scan", "ios": "https://dc.lft.to/lastmile_qr_scan"}, "bike_id": "55b1379ca4c78cc3c4f83e3bba4390f5", "fusion_lon": 0.0, "fusion_lat": 0.0, "is_disabled": 0, "name": "55b1379ca4c78cc3c4f83e3bba4390f5", "type": "electric_scooter", "lon": -77.02790266666666}, {"is_reserved": 0, "lat": 38.907871666666665, "rental_uris": {"android": "https://dc.lft.to/lastmile_qr_scan", "ios": "https://dc.lft.to/lastmile_qr_scan"}, "bike_id": "93440652e570828655a9db7ce6bd2992", "fusion_lon": 0.0, "fusion_lat": 0.0, "is_disabled": 0, "name": "93440652e570828655a9db7ce6bd2992", "type": "electric_scooter", "lon": -77.03186633333334}, {"is_reserved": 0, "lat": 38.91604133333333, "rental_uris": {"android": "https://dc.lft.to/lastmile_qr_scan", "ios": "https://dc.lft.to/lastmile_qr_scan"}, "bike_id": "875e3dc40a05e2158f27cce8bdd5014e", "fusion_lon": 0.0, "fusion_lat": 0.0, "is_disabled": 0, "name": "875e3dc40a05e2158f27cce8bdd5014e", "type": "electric_scooter", "lon": -77.01747283333333}, {"is_reserved": 0, "lat": 38.87083633333334, "rental_uris": {"android": "https://dc.lft.to/lastmile_qr_scan", "ios": "https://dc.lft.to/lastmile_qr_scan"}, "bike_id": "2d70c7a63c8d7fc358983c2a969e0e0c", "fusion_lon": 0.0, "fusion_lat": 0.0, "is_disabled": 0, "name": "2d70c7a63c8d7fc358983c2a969e0e0c", "type": "electric_bike", "lon": -77.01210866666666}, {"is_reserved": 0, "lat": 38.950817666666666, "rental_uris": {"android": "https://dc.lft.to/lastmile_qr_scan", "ios": "https://dc.lft.to/lastmile_qr_scan"}, "bike_id": "7c6603abf28683d173d88b3eb3af05fc", "fusion_lon": 0.0, "fusion_lat": 0.0, "is_disabled": 0, "name": "7c6603abf28683d173d88b3eb3af05fc", "type": "electric_bike", "lon": -77.01194383333333}, {"is_reserved": 0, "lat": 38.90138966666667, "rental_uris": {"android": "https://dc.lft.to/lastmile_qr_scan", "ios": "https://dc.lft.to/lastmile_qr_scan"}, "bike_id": "d4c2c2941c307c643a434a39a24c0918", "fusion_lon": 0.0, "fusion_lat": 0.0, "is_disabled": 0, "name": "d4c2c2941c307c643a434a39a24c0918", "type": "electric_scooter", "lon": -77.0031245}, {"is_reserved": 0, "lat": 38.930161, "rental_uris": {"android": "https://dc.lft.to/lastmile_qr_scan", "ios": "https://dc.lft.to/lastmile_qr_scan"}, "bike_id": "64fb6617ec90e659f9f9897f64edce60", "fusion_lon": 0.0, "fusion_lat": 0.0, "is_disabled": 0, "name": "64fb6617ec90e659f9f9897f64edce60", "type": "electric_scooter", "lon": -77.03250366666667}, {"is_reserved": 0, "lat": 38.9299755, "rental_uris": {"android": "https://dc.lft.to/lastmile_qr_scan", "ios": "https://dc.lft.to/lastmile_qr_scan"}, "bike_id": "ef9c8c337052dd24a63fc7bd8d51f72b", "fusion_lon": 0.0, "fusion_lat": 0.0, "is_disabled": 0, "name": "ef9c8c337052dd24a63fc7bd8d51f72b", "type": "electric_scooter", "lon": -77.055409}, {"is_reserved": 0, "lat": 38.901051, "rental_uris": {"android": "https://dc.lft.to/lastmile_qr_scan", "ios": "https://dc.lft.to/lastmile_qr_scan"}, "bike_id": "b77ea4c865b540b5aafea0cbe2bcdfc6", "fusion_lon": 0.0, "fusion_lat": 0.0, "is_disabled": 0, "name": "b77ea4c865b540b5aafea0cbe2bcdfc6", "type": "electric_scooter", "lon": -77.04924566666666}, {"is_reserved": 0, "lat": 38.90731666666667, "rental_uris": {"android": "https://dc.lft.to/lastmile_qr_scan", "ios": "https://dc.lft.to/lastmile_qr_scan"}, "bike_id": "6df389e164d4bfd143004efe3eda1b32", "fusion_lon": 0.0, "fusion_lat": 0.0, "is_disabled": 0, "name": "6df389e164d4bfd143004efe3eda1b32", "type": "electric_scooter", "lon": -77.03453833333333}, {"is_reserved": 0, "lat": 38.892182166666665, "rental_uris": {"android": "https://dc.lft.to/lastmile_qr_scan", "ios": "https://dc.lft.to/lastmile_qr_scan"}, "bike_id": "b0209eecc75f62530247ca49219c58b0", "fusion_lon": 0.0, "fusion_lat": 0.0, "is_disabled": 0, "name": "b0209eecc75f62530247ca49219c58b0", "type": "electric_scooter", "lon": -77.03222333333333}, {"is_reserved": 0, "lat": 38.90884033333333, "rental_uris": {"android": "https://dc.lft.to/lastmile_qr_scan", "ios": "https://dc.lft.to/lastmile_qr_scan"}, "bike_id": "bec41c93f394f486e8a55566a3b846d1", "fusion_lon": 0.0, "fusion_lat": 0.0, "is_disabled": 0, "name": "bec41c93f394f486e8a55566a3b846d1", "type": "electric_scooter", "lon": -77.04096283333334}, {"is_reserved": 0, "lat": 38.92283966666667, "rental_uris": {"android": "https://dc.lft.to/lastmile_qr_scan", "ios": "https://dc.lft.to/lastmile_qr_scan"}, "bike_id": "29bc465762e47405dcd50a9867ce3bfb", "fusion_lon": 0.0, "fusion_lat": 0.0, "is_disabled": 0, "name": "29bc465762e47405dcd50a9867ce3bfb", "type": "electric_scooter", "lon": -77.03657066666666}, {"is_reserved": 0, "lat": 38.957820166666664, "rental_uris": {"android": "https://dc.lft.to/lastmile_qr_scan", "ios": "https://dc.lft.to/lastmile_qr_scan"}, "bike_id": "f574d854840fbcf89b4e17d64a577bd0", "fusion_lon": 0.0, "fusion_lat": 0.0, "is_disabled": 0, "name": "f574d854840fbcf89b4e17d64a577bd0", "type": "electric_scooter", "lon": -77.02757883333334}, {"is_reserved": 0, "lat": 38.9447325, "rental_uris": {"android": "https://dc.lft.to/lastmile_qr_scan", "ios": "https://dc.lft.to/lastmile_qr_scan"}, "bike_id": "5073ca6ea665810020e804af78b32dda", "fusion_lon": 0.0, "fusion_lat": 0.0, "is_disabled": 0, "name": "5073ca6ea665810020e804af78b32dda", "type": "electric_bike", "lon": -76.98686883333333}, {"is_reserved": 0, "lat": 38.935309, "rental_uris": {"android": "https://dc.lft.to/lastmile_qr_scan", "ios": "https://dc.lft.to/lastmile_qr_scan"}, "bike_id": "a73f12d5e1d78142d4083a1ac4610164", "fusion_lon": 0.0, "fusion_lat": 0.0, "is_disabled": 0, "name": "a73f12d5e1d78142d4083a1ac4610164", "type": "electric_scooter", "lon": -77.02352316666666}, {"is_reserved": 0, "lat": 38.91984866666667, "rental_uris": {"android": "https://dc.lft.to/lastmile_qr_scan", "ios": "https://dc.lft.to/lastmile_qr_scan"}, "bike_id": "693d4efdd5f038d91c9925e16f4251f6", "fusion_lon": 0.0, "fusion_lat": 0.0, "is_disabled": 0, "name": "693d4efdd5f038d91c9925e16f4251f6", "type": "electric_scooter", "lon": -77.03266333333333}, {"is_reserved": 0, "lat": 38.884245666666665, "rental_uris": {"android": "https://dc.lft.to/lastmile_qr_scan", "ios": "https://dc.lft.to/lastmile_qr_scan"}, "bike_id": "dcf48a0536edeece3891dc9be4a60714", "fusion_lon": 0.0, "fusion_lat": 0.0, "is_disabled": 0, "name": "dcf48a0536edeece3891dc9be4a60714", "type": "electric_scooter", "lon": -76.95753183333333}, {"is_reserved": 0, "lat": 38.92751366666667, "rental_uris": {"android": "https://dc.lft.to/lastmile_qr_scan", "ios": "https://dc.lft.to/lastmile_qr_scan"}, "bike_id": "9a085cba4c260cd7a5fa608847877b54", "fusion_lon": 0.0, "fusion_lat": 0.0, "is_disabled": 0, "name": "9a085cba4c260cd7a5fa608847877b54", "type": "electric_scooter", "lon": -77.02432516666667}, {"is_reserved": 0, "lat": 38.92357483333333, "rental_uris": {"android": "https://dc.lft.to/lastmile_qr_scan", "ios": "https://dc.lft.to/lastmile_qr_scan"}, "bike_id": "17d05578bf1d10e3b6ed97edb2c3e827", "fusion_lon": 0.0, "fusion_lat": 0.0, "is_disabled": 0, "name": "17d05578bf1d10e3b6ed97edb2c3e827", "type": "electric_scooter", "lon": -77.0512385}, {"is_reserved": 0, "lat": 38.871067833333335, "rental_uris": {"android": "https://dc.lft.to/lastmile_qr_scan", "ios": "https://dc.lft.to/lastmile_qr_scan"}, "bike_id": "d9c7acf4c4406e83525a2dd9c9274162", "fusion_lon": 0.0, "fusion_lat": 0.0, "is_disabled": 0, "name": "d9c7acf4c4406e83525a2dd9c9274162", "type": "electric_bike", "lon": -76.923296}, {"is_reserved": 0, "lat": 38.9192815, "rental_uris": {"android": "https://dc.lft.to/lastmile_qr_scan", "ios": "https://dc.lft.to/lastmile_qr_scan"}, "bike_id": "186cdcf0b85f1655d457fcb6b22e38e2", "fusion_lon": 0.0, "fusion_lat": 0.0, "is_disabled": 0, "name": "186cdcf0b85f1655d457fcb6b22e38e2", "type": "electric_scooter", "lon": -77.03195266666667}, {"is_reserved": 0, "lat": 38.91839366666667, "rental_uris": {"android": "https://dc.lft.to/lastmile_qr_scan", "ios": "https://dc.lft.to/lastmile_qr_scan"}, "bike_id": "da53d6bd73e9a4d56abb3e5647edc05b", "fusion_lon": 0.0, "fusion_lat": 0.0, "is_disabled": 0, "name": "da53d6bd73e9a4d56abb3e5647edc05b", "type": "electric_scooter", "lon": -77.03443733333333}, {"is_reserved": 0, "lat": 38.898263, "rental_uris": {"android": "https://dc.lft.to/lastmile_qr_scan", "ios": "https://dc.lft.to/lastmile_qr_scan"}, "bike_id": "a20793bf053eb1ff025570be0f617940", "fusion_lon": 0.0, "fusion_lat": 0.0, "is_disabled": 0, "name": "a20793bf053eb1ff025570be0f617940", "type": "electric_scooter", "lon": -76.98781216666667}, {"is_reserved": 0, "lat": 38.93185166666667, "rental_uris": {"android": "https://dc.lft.to/lastmile_qr_scan", "ios": "https://dc.lft.to/lastmile_qr_scan"}, "bike_id": "2a04a26f9b4696c0ae500a1dae6d8462", "fusion_lon": 0.0, "fusion_lat": 0.0, "is_disabled": 0, "name": "2a04a26f9b4696c0ae500a1dae6d8462", "type": "electric_scooter", "lon": -77.02820033333333}, {"is_reserved": 0, "lat": 38.903547833333334, "rental_uris": {"android": "https://dc.lft.to/lastmile_qr_scan", "ios": "https://dc.lft.to/lastmile_qr_scan"}, "bike_id": "07f70f03806cd447099b0795da5f1a3b", "fusion_lon": 0.0, "fusion_lat": 0.0, "is_disabled": 0, "name": "07f70f03806cd447099b0795da5f1a3b", "type": "electric_scooter", "lon": -77.0453595}, {"is_reserved": 0, "lat": 38.91746116666667, "rental_uris": {"android": "https://dc.lft.to/lastmile_qr_scan", "ios": "https://dc.lft.to/lastmile_qr_scan"}, "bike_id": "019e044718be5df4423f619485e71b33", "fusion_lon": 0.0, "fusion_lat": 0.0, "is_disabled": 0, "name": "019e044718be5df4423f619485e71b33", "type": "electric_scooter", "lon": -77.02400783333333}, {"is_reserved": 0, "lat": 38.907409, "rental_uris": {"android": "https://dc.lft.to/lastmile_qr_scan", "ios": "https://dc.lft.to/lastmile_qr_scan"}, "bike_id": "08d36c686f309a97f93203d257b64584", "fusion_lon": 0.0, "fusion_lat": 0.0, "is_disabled": 0, "name": "08d36c686f309a97f93203d257b64584", "type": "electric_scooter", "lon": -77.03449933333333}, {"is_reserved": 0, "lat": 38.90392833333333, "rental_uris": {"android": "https://dc.lft.to/lastmile_qr_scan", "ios": "https://dc.lft.to/lastmile_qr_scan"}, "bike_id": "06a64a40e570ea594b538db34d89fa4b", "fusion_lon": 0.0, "fusion_lat": 0.0, "is_disabled": 0, "name": "06a64a40e570ea594b538db34d89fa4b", "type": "electric_scooter", "lon": -77.04297216666667}, {"is_reserved": 0, "lat": 38.923123, "rental_uris": {"android": "https://dc.lft.to/lastmile_qr_scan", "ios": "https://dc.lft.to/lastmile_qr_scan"}, "bike_id": "f43d08e75d94487b97491027b4d8bea8", "fusion_lon": 0.0, "fusion_lat": 0.0, "is_disabled": 0, "name": "f43d08e75d94487b97491027b4d8bea8", "type": "electric_scooter", "lon": -77.03839366666666}, {"is_reserved": 0, "lat": 38.89330316666667, "rental_uris": {"android": "https://dc.lft.to/lastmile_qr_scan", "ios": "https://dc.lft.to/lastmile_qr_scan"}, "bike_id": "fba71cba232e5cddbb3bd1c876d2fb8b", "fusion_lon": 0.0, "fusion_lat": 0.0, "is_disabled": 0, "name": "fba71cba232e5cddbb3bd1c876d2fb8b", "type": "electric_scooter", "lon": -77.01203183333334}, {"is_reserved": 0, "lat": 38.9036005, "rental_uris": {"android": "https://dc.lft.to/lastmile_qr_scan", "ios": "https://dc.lft.to/lastmile_qr_scan"}, "bike_id": "7daf6a5d739a229c81f41ab5c47f39f7", "fusion_lon": 0.0, "fusion_lat": 0.0, "is_disabled": 0, "name": "7daf6a5d739a229c81f41ab5c47f39f7", "type": "electric_scooter", "lon": -77.04469683333333}, {"is_reserved": 0, "lat": 38.933557, "rental_uris": {"android": "https://dc.lft.to/lastmile_qr_scan", "ios": "https://dc.lft.to/lastmile_qr_scan"}, "bike_id": "6ac607754b4dcda143aaa524096c6a76", "fusion_lon": 0.0, "fusion_lat": 0.0, "is_disabled": 0, "name": "6ac607754b4dcda143aaa524096c6a76", "type": "electric_bike", "lon": -77.09960483333333}, {"is_reserved": 0, "lat": 38.922023833333334, "rental_uris": {"android": "https://dc.lft.to/lastmile_qr_scan", "ios": "https://dc.lft.to/lastmile_qr_scan"}, "bike_id": "6775d030fa28d7e066de4ac72dafc069", "fusion_lon": 0.0, "fusion_lat": 0.0, "is_disabled": 0, "name": "6775d030fa28d7e066de4ac72dafc069", "type": "electric_scooter", "lon": -77.04249833333333}, {"is_reserved": 0, "lat": 38.92651933333333, "rental_uris": {"android": "https://dc.lft.to/lastmile_qr_scan", "ios": "https://dc.lft.to/lastmile_qr_scan"}, "bike_id": "76a0727cb784391c7b3131b721b174ca", "fusion_lon": 0.0, "fusion_lat": 0.0, "is_disabled": 0, "name": "76a0727cb784391c7b3131b721b174ca", "type": "electric_scooter", "lon": -77.04152883333333}, {"is_reserved": 0, "lat": 38.919113833333334, "rental_uris": {"android": "https://dc.lft.to/lastmile_qr_scan", "ios": "https://dc.lft.to/lastmile_qr_scan"}, "bike_id": "68248828f1bf090b187580bfc1e8be04", "fusion_lon": 0.0, "fusion_lat": 0.0, "is_disabled": 0, "name": "68248828f1bf090b187580bfc1e8be04", "type": "electric_scooter", "lon": -77.03131966666666}, {"is_reserved": 0, "lat": 38.892208333333336, "rental_uris": {"android": "https://dc.lft.to/lastmile_qr_scan", "ios": "https://dc.lft.to/lastmile_qr_scan"}, "bike_id": "c0ed57780646a6d7026eca928ab804bf", "fusion_lon": 0.0, "fusion_lat": 0.0, "is_disabled": 0, "name": "c0ed57780646a6d7026eca928ab804bf", "type": "electric_scooter", "lon": -77.0432795}, {"is_reserved": 0, "lat": 38.92024983333334, "rental_uris": {"android": "https://dc.lft.to/lastmile_qr_scan", "ios": "https://dc.lft.to/lastmile_qr_scan"}, "bike_id": "6e2acf2af265cd1ab00375f36e6bcac1", "fusion_lon": 0.0, "fusion_lat": 0.0, "is_disabled": 0, "name": "6e2acf2af265cd1ab00375f36e6bcac1", "type": "electric_scooter", "lon": -77.01118}, {"is_reserved": 0, "lat": 38.918005666666666, "rental_uris": {"android": "https://dc.lft.to/lastmile_qr_scan", "ios": "https://dc.lft.to/lastmile_qr_scan"}, "bike_id": "37c01736b83e8948d671c99790feb810", "fusion_lon": 0.0, "fusion_lat": 0.0, "is_disabled": 0, "name": "37c01736b83e8948d671c99790feb810", "type": "electric_bike", "lon": -77.223461}, {"is_reserved": 0, "lat": 38.88419116666667, "rental_uris": {"android": "https://dc.lft.to/lastmile_qr_scan", "ios": "https://dc.lft.to/lastmile_qr_scan"}, "bike_id": "88cbf8b940eb97ba1e712835f2d667b1", "fusion_lon": 0.0, "fusion_lat": 0.0, "is_disabled": 0, "name": "88cbf8b940eb97ba1e712835f2d667b1", "type": "electric_scooter", "lon": -76.942085}, {"is_reserved": 0, "lat": 38.911235, "rental_uris": {"android": "https://dc.lft.to/lastmile_qr_scan", "ios": "https://dc.lft.to/lastmile_qr_scan"}, "bike_id": "14ef5e63ced92c816b412fe6a973d0c3", "fusion_lon": 0.0, "fusion_lat": 0.0, "is_disabled": 0, "name": "14ef5e63ced92c816b412fe6a973d0c3", "type": "electric_scooter", "lon": -77.02692616666667}, {"is_reserved": 0, "lat": 38.902318666666666, "rental_uris": {"android": "https://dc.lft.to/lastmile_qr_scan", "ios": "https://dc.lft.to/lastmile_qr_scan"}, "bike_id": "e68476b6b129bf03a7982b2037ff117a", "fusion_lon": 0.0, "fusion_lat": 0.0, "is_disabled": 0, "name": "e68476b6b129bf03a7982b2037ff117a", "type": "electric_scooter", "lon": -77.06018466666667}, {"is_reserved": 0, "lat": 38.87657216666667, "rental_uris": {"android": "https://dc.lft.to/lastmile_qr_scan", "ios": "https://dc.lft.to/lastmile_qr_scan"}, "bike_id": "70df0e9a74ae89442c92c3dd21542354", "fusion_lon": 0.0, "fusion_lat": 0.0, "is_disabled": 0, "name": "70df0e9a74ae89442c92c3dd21542354", "type": "electric_scooter", "lon": -77.0041675}, {"is_reserved": 0, "lat": 38.91827833333333, "rental_uris": {"android": "https://dc.lft.to/lastmile_qr_scan", "ios": "https://dc.lft.to/lastmile_qr_scan"}, "bike_id": "75fbe123cf9516c28bb1c42ce870139b", "fusion_lon": 0.0, "fusion_lat": 0.0, "is_disabled": 0, "name": "75fbe123cf9516c28bb1c42ce870139b", "type": "electric_scooter", "lon": -77.03190483333333}, {"is_reserved": 0, "lat": 38.90235916666666, "rental_uris": {"android": "https://dc.lft.to/lastmile_qr_scan", "ios": "https://dc.lft.to/lastmile_qr_scan"}, "bike_id": "c9212afa2fd48d8d05928dfe01059177", "fusion_lon": 0.0, "fusion_lat": 0.0, "is_disabled": 0, "name": "c9212afa2fd48d8d05928dfe01059177", "type": "electric_scooter", "lon": -77.00562733333334}, {"is_reserved": 0, "lat": 38.913977, "rental_uris": {"android": "https://dc.lft.to/lastmile_qr_scan", "ios": "https://dc.lft.to/lastmile_qr_scan"}, "bike_id": "dc24f92567e1ae2ba0f74aa116fcd7cf", "fusion_lon": 0.0, "fusion_lat": 0.0, "is_disabled": 0, "name": "dc24f92567e1ae2ba0f74aa116fcd7cf", "type": "electric_scooter", "lon": -77.0140895}, {"is_reserved": 0, "lat": 38.923116, "rental_uris": {"android": "https://dc.lft.to/lastmile_qr_scan", "ios": "https://dc.lft.to/lastmile_qr_scan"}, "bike_id": "ee6b58114c65f116e945ea21bdbae2e6", "fusion_lon": 0.0, "fusion_lat": 0.0, "is_disabled": 0, "name": "ee6b58114c65f116e945ea21bdbae2e6", "type": "electric_scooter", "lon": -77.03655416666666}, {"is_reserved": 0, "lat": 38.9318865, "rental_uris": {"android": "https://dc.lft.to/lastmile_qr_scan", "ios": "https://dc.lft.to/lastmile_qr_scan"}, "bike_id": "b2e79406fec4292aed19f60c612d2c7d", "fusion_lon": 0.0, "fusion_lat": 0.0, "is_disabled": 0, "name": "b2e79406fec4292aed19f60c612d2c7d", "type": "electric_scooter", "lon": -77.0282995}, {"is_reserved": 0, "lat": 38.922811833333334, "rental_uris": {"android": "https://dc.lft.to/lastmile_qr_scan", "ios": "https://dc.lft.to/lastmile_qr_scan"}, "bike_id": "d0cb6f57121be79fce63f163788c15b0", "fusion_lon": 0.0, "fusion_lat": 0.0, "is_disabled": 0, "name": "d0cb6f57121be79fce63f163788c15b0", "type": "electric_scooter", "lon": -77.036546}, {"is_reserved": 0, "lat": 38.918174, "rental_uris": {"android": "https://dc.lft.to/lastmile_qr_scan", "ios": "https://dc.lft.to/lastmile_qr_scan"}, "bike_id": "990d10f01c82cbed6909b0eb763b63fa", "fusion_lon": 0.0, "fusion_lat": 0.0, "is_disabled": 0, "name": "990d10f01c82cbed6909b0eb763b63fa", "type": "electric_scooter", "lon": -77.04163083333333}, {"is_reserved": 0, "lat": 38.9181905, "rental_uris": {"android": "https://dc.lft.to/lastmile_qr_scan", "ios": "https://dc.lft.to/lastmile_qr_scan"}, "bike_id": "190c79a4331a2959e6b519ccf54102a3", "fusion_lon": 0.0, "fusion_lat": 0.0, "is_disabled": 0, "name": "190c79a4331a2959e6b519ccf54102a3", "type": "electric_scooter", "lon": -77.03167833333333}, {"is_reserved": 0, "lat": 38.916434, "rental_uris": {"android": "https://dc.lft.to/lastmile_qr_scan", "ios": "https://dc.lft.to/lastmile_qr_scan"}, "bike_id": "82d2aae8521eaefadf565bcd08a2772e", "fusion_lon": 0.0, "fusion_lat": 0.0, "is_disabled": 0, "name": "82d2aae8521eaefadf565bcd08a2772e", "type": "electric_scooter", "lon": -77.04773033333333}, {"is_reserved": 0, "lat": 38.93254966666667, "rental_uris": {"android": "https://dc.lft.to/lastmile_qr_scan", "ios": "https://dc.lft.to/lastmile_qr_scan"}, "bike_id": "a6e146d5ead3ac9c55a3b92e2b4e3eba", "fusion_lon": 0.0, "fusion_lat": 0.0, "is_disabled": 0, "name": "a6e146d5ead3ac9c55a3b92e2b4e3eba", "type": "electric_scooter", "lon": -77.0325605}, {"is_reserved": 0, "lat": 38.893537, "rental_uris": {"android": "https://dc.lft.to/lastmile_qr_scan", "ios": "https://dc.lft.to/lastmile_qr_scan"}, "bike_id": "e42791001006d25601ce9f909638f52e", "fusion_lon": 0.0, "fusion_lat": 0.0, "is_disabled": 0, "name": "e42791001006d25601ce9f909638f52e", "type": "electric_scooter", "lon": -77.041378}, {"is_reserved": 0, "lat": 38.91793933333334, "rental_uris": {"android": "https://dc.lft.to/lastmile_qr_scan", "ios": "https://dc.lft.to/lastmile_qr_scan"}, "bike_id": "d4a86e279d86ce79aeab48056bd57d93", "fusion_lon": 0.0, "fusion_lat": 0.0, "is_disabled": 0, "name": "d4a86e279d86ce79aeab48056bd57d93", "type": "electric_scooter", "lon": -77.04038183333333}, {"is_reserved": 0, "lat": 38.930820833333335, "rental_uris": {"android": "https://dc.lft.to/lastmile_qr_scan", "ios": "https://dc.lft.to/lastmile_qr_scan"}, "bike_id": "ea6a571b1dcd1559ea2a99b60c82de81", "fusion_lon": 0.0, "fusion_lat": 0.0, "is_disabled": 0, "name": "ea6a571b1dcd1559ea2a99b60c82de81", "type": "electric_scooter", "lon": -77.0374225}, {"is_reserved": 0, "lat": 38.937093833333336, "rental_uris": {"android": "https://dc.lft.to/lastmile_qr_scan", "ios": "https://dc.lft.to/lastmile_qr_scan"}, "bike_id": "b6fa876fbc68e5831ce0bd9d9afe9053", "fusion_lon": 0.0, "fusion_lat": 0.0, "is_disabled": 0, "name": "b6fa876fbc68e5831ce0bd9d9afe9053", "type": "electric_scooter", "lon": -77.0363945}, {"is_reserved": 0, "lat": 38.900388, "rental_uris": {"android": "https://dc.lft.to/lastmile_qr_scan", "ios": "https://dc.lft.to/lastmile_qr_scan"}, "bike_id": "c1cf83c35e49397ace767733e9d5fe83", "fusion_lon": 0.0, "fusion_lat": 0.0, "is_disabled": 0, "name": "c1cf83c35e49397ace767733e9d5fe83", "type": "electric_scooter", "lon": -76.99378033333333}, {"is_reserved": 0, "lat": 38.914192666666665, "rental_uris": {"android": "https://dc.lft.to/lastmile_qr_scan", "ios": "https://dc.lft.to/lastmile_qr_scan"}, "bike_id": "9f8ca84bae1c6c04aaceed2881de23df", "fusion_lon": 0.0, "fusion_lat": 0.0, "is_disabled": 0, "name": "9f8ca84bae1c6c04aaceed2881de23df", "type": "electric_scooter", "lon": -77.031723}, {"is_reserved": 0, "lat": 38.91790266666667, "rental_uris": {"android": "https://dc.lft.to/lastmile_qr_scan", "ios": "https://dc.lft.to/lastmile_qr_scan"}, "bike_id": "75a599d2de8d27e155495a2adae3ae33", "fusion_lon": 0.0, "fusion_lat": 0.0, "is_disabled": 0, "name": "75a599d2de8d27e155495a2adae3ae33", "type": "electric_scooter", "lon": -77.0231535}, {"is_reserved": 0, "lat": 38.915291333333336, "rental_uris": {"android": "https://dc.lft.to/lastmile_qr_scan", "ios": "https://dc.lft.to/lastmile_qr_scan"}, "bike_id": "9c556fdbc6d4b9dc899b0a145d83c484", "fusion_lon": 0.0, "fusion_lat": 0.0, "is_disabled": 0, "name": "9c556fdbc6d4b9dc899b0a145d83c484", "type": "electric_scooter", "lon": -77.0416665}, {"is_reserved": 0, "lat": 38.93508883333333, "rental_uris": {"android": "https://dc.lft.to/lastmile_qr_scan", "ios": "https://dc.lft.to/lastmile_qr_scan"}, "bike_id": "285a0e03c1d313d9b9a0e30816cacc29", "fusion_lon": 0.0, "fusion_lat": 0.0, "is_disabled": 0, "name": "285a0e03c1d313d9b9a0e30816cacc29", "type": "electric_scooter", "lon": -77.0326895}, {"is_reserved": 0, "lat": 38.93636266666667, "rental_uris": {"android": "https://dc.lft.to/lastmile_qr_scan", "ios": "https://dc.lft.to/lastmile_qr_scan"}, "bike_id": "607b5c3d4eca39931a24389b3f54d9d7", "fusion_lon": 0.0, "fusion_lat": 0.0, "is_disabled": 0, "name": "607b5c3d4eca39931a24389b3f54d9d7", "type": "electric_scooter", "lon": -77.02494316666667}, {"is_reserved": 0, "lat": 38.91805866666667, "rental_uris": {"android": "https://dc.lft.to/lastmile_qr_scan", "ios": "https://dc.lft.to/lastmile_qr_scan"}, "bike_id": "0d6199ecf38dc2d4936155cb001bb888", "fusion_lon": 0.0, "fusion_lat": 0.0, "is_disabled": 0, "name": "0d6199ecf38dc2d4936155cb001bb888", "type": "electric_scooter", "lon": -77.0249235}, {"is_reserved": 0, "lat": 38.92529433333333, "rental_uris": {"android": "https://dc.lft.to/lastmile_qr_scan", "ios": "https://dc.lft.to/lastmile_qr_scan"}, "bike_id": "ff9954f7850a80c27a000c9f5104a026", "fusion_lon": 0.0, "fusion_lat": 0.0, "is_disabled": 0, "name": "ff9954f7850a80c27a000c9f5104a026", "type": "electric_scooter", "lon": -77.04420133333333}, {"is_reserved": 0, "lat": 38.87714666666667, "rental_uris": {"android": "https://dc.lft.to/lastmile_qr_scan", "ios": "https://dc.lft.to/lastmile_qr_scan"}, "bike_id": "b7f570f9e8edfefd933b22f17323b795", "fusion_lon": 0.0, "fusion_lat": 0.0, "is_disabled": 0, "name": "b7f570f9e8edfefd933b22f17323b795", "type": "electric_scooter", "lon": -77.0175185}, {"is_reserved": 0, "lat": 38.91122683333333, "rental_uris": {"android": "https://dc.lft.to/lastmile_qr_scan", "ios": "https://dc.lft.to/lastmile_qr_scan"}, "bike_id": "301064878548518f26603c19e5e3fdae", "fusion_lon": 0.0, "fusion_lat": 0.0, "is_disabled": 0, "name": "301064878548518f26603c19e5e3fdae", "type": "electric_scooter", "lon": -77.03842816666666}, {"is_reserved": 0, "lat": 38.91053816666667, "rental_uris": {"android": "https://dc.lft.to/lastmile_qr_scan", "ios": "https://dc.lft.to/lastmile_qr_scan"}, "bike_id": "63c201f968e2a2c6183fb0d57e9afb57", "fusion_lon": 0.0, "fusion_lat": 0.0, "is_disabled": 0, "name": "63c201f968e2a2c6183fb0d57e9afb57", "type": "electric_scooter", "lon": -77.01651583333333}, {"is_reserved": 0, "lat": 38.885714, "rental_uris": {"android": "https://dc.lft.to/lastmile_qr_scan", "ios": "https://dc.lft.to/lastmile_qr_scan"}, "bike_id": "5a2d6fd538d808e4e175ec3cb6ffab0d", "fusion_lon": 0.0, "fusion_lat": 0.0, "is_disabled": 0, "name": "5a2d6fd538d808e4e175ec3cb6ffab0d", "type": "electric_bike", "lon": -77.08516483333334}, {"is_reserved": 0, "lat": 38.916686166666665, "rental_uris": {"android": "https://dc.lft.to/lastmile_qr_scan", "ios": "https://dc.lft.to/lastmile_qr_scan"}, "bike_id": "1c6faedeff6dd4cb173e85a32c641743", "fusion_lon": 0.0, "fusion_lat": 0.0, "is_disabled": 0, "name": "1c6faedeff6dd4cb173e85a32c641743", "type": "electric_scooter", "lon": -77.02266683333333}, {"is_reserved": 0, "lat": 38.881612833333335, "rental_uris": {"android": "https://dc.lft.to/lastmile_qr_scan", "ios": "https://dc.lft.to/lastmile_qr_scan"}, "bike_id": "95a2de0fe1fcf5658e6a8bde531a3d84", "fusion_lon": 0.0, "fusion_lat": 0.0, "is_disabled": 0, "name": "95a2de0fe1fcf5658e6a8bde531a3d84", "type": "electric_scooter", "lon": -77.02767333333334}, {"is_reserved": 0, "lat": 38.92897166666667, "rental_uris": {"android": "https://dc.lft.to/lastmile_qr_scan", "ios": "https://dc.lft.to/lastmile_qr_scan"}, "bike_id": "a9ccd53bddc941eda8690b877ead81af", "fusion_lon": 0.0, "fusion_lat": 0.0, "is_disabled": 0, "name": "a9ccd53bddc941eda8690b877ead81af", "type": "electric_scooter", "lon": -77.01634733333333}, {"is_reserved": 0, "lat": 38.907996, "rental_uris": {"android": "https://dc.lft.to/lastmile_qr_scan", "ios": "https://dc.lft.to/lastmile_qr_scan"}, "bike_id": "482683db0b4231e56f3b2f7a2a0b3da9", "fusion_lon": 0.0, "fusion_lat": 0.0, "is_disabled": 0, "name": "482683db0b4231e56f3b2f7a2a0b3da9", "type": "electric_scooter", "lon": -77.04004866666666}, {"is_reserved": 0, "lat": 38.931196166666666, "rental_uris": {"android": "https://dc.lft.to/lastmile_qr_scan", "ios": "https://dc.lft.to/lastmile_qr_scan"}, "bike_id": "c6a8adecf31957747472549d1905b551", "fusion_lon": 0.0, "fusion_lat": 0.0, "is_disabled": 0, "name": "c6a8adecf31957747472549d1905b551", "type": "electric_scooter", "lon": -77.03405966666666}, {"is_reserved": 0, "lat": 38.90998783333333, "rental_uris": {"android": "https://dc.lft.to/lastmile_qr_scan", "ios": "https://dc.lft.to/lastmile_qr_scan"}, "bike_id": "84784cc7c4fd8c6e2fa808d850f508ea", "fusion_lon": 0.0, "fusion_lat": 0.0, "is_disabled": 0, "name": "84784cc7c4fd8c6e2fa808d850f508ea", "type": "electric_scooter", "lon": -77.04007066666667}, {"is_reserved": 0, "lat": 38.929775, "rental_uris": {"android": "https://dc.lft.to/lastmile_qr_scan", "ios": "https://dc.lft.to/lastmile_qr_scan"}, "bike_id": "0bcc461bcfc0c90d2697bb2402ae34e8", "fusion_lon": 0.0, "fusion_lat": 0.0, "is_disabled": 0, "name": "0bcc461bcfc0c90d2697bb2402ae34e8", "type": "electric_scooter", "lon": -77.05504233333333}, {"is_reserved": 0, "lat": 38.89914516666666, "rental_uris": {"android": "https://dc.lft.to/lastmile_qr_scan", "ios": "https://dc.lft.to/lastmile_qr_scan"}, "bike_id": "b1ab9ad31b7111d62c88e36d1d0ea854", "fusion_lon": 0.0, "fusion_lat": 0.0, "is_disabled": 0, "name": "b1ab9ad31b7111d62c88e36d1d0ea854", "type": "electric_scooter", "lon": -76.93345983333333}, {"is_reserved": 0, "lat": 38.958087666666664, "rental_uris": {"android": "https://dc.lft.to/lastmile_qr_scan", "ios": "https://dc.lft.to/lastmile_qr_scan"}, "bike_id": "06fde64e1d05898f6ecdd8bcc3297ae7", "fusion_lon": 0.0, "fusion_lat": 0.0, "is_disabled": 0, "name": "06fde64e1d05898f6ecdd8bcc3297ae7", "type": "electric_bike", "lon": -76.97980433333333}, {"is_reserved": 0, "lat": 38.92285666666667, "rental_uris": {"android": "https://dc.lft.to/lastmile_qr_scan", "ios": "https://dc.lft.to/lastmile_qr_scan"}, "bike_id": "8ccd774a5afb7a4f3e978bc459ba5c04", "fusion_lon": 0.0, "fusion_lat": 0.0, "is_disabled": 0, "name": "8ccd774a5afb7a4f3e978bc459ba5c04", "type": "electric_scooter", "lon": -77.03655983333333}, {"is_reserved": 0, "lat": 38.90728566666667, "rental_uris": {"android": "https://dc.lft.to/lastmile_qr_scan", "ios": "https://dc.lft.to/lastmile_qr_scan"}, "bike_id": "df918266f93f6f3f6c99ddd60a573f85", "fusion_lon": 0.0, "fusion_lat": 0.0, "is_disabled": 0, "name": "df918266f93f6f3f6c99ddd60a573f85", "type": "electric_scooter", "lon": -77.0241015}, {"is_reserved": 0, "lat": 38.89855166666667, "rental_uris": {"android": "https://dc.lft.to/lastmile_qr_scan", "ios": "https://dc.lft.to/lastmile_qr_scan"}, "bike_id": "f5af04aecdef8f1b769110633ea7f731", "fusion_lon": 0.0, "fusion_lat": 0.0, "is_disabled": 0, "name": "f5af04aecdef8f1b769110633ea7f731", "type": "electric_scooter", "lon": -77.02007416666666}, {"is_reserved": 0, "lat": 38.9180675, "rental_uris": {"android": "https://dc.lft.to/lastmile_qr_scan", "ios": "https://dc.lft.to/lastmile_qr_scan"}, "bike_id": "0700d9d3d9b249cad62b643e3f1349bb", "fusion_lon": 0.0, "fusion_lat": 0.0, "is_disabled": 0, "name": "0700d9d3d9b249cad62b643e3f1349bb", "type": "electric_scooter", "lon": -77.02495133333333}, {"is_reserved": 0, "lat": 38.908031666666666, "rental_uris": {"android": "https://dc.lft.to/lastmile_qr_scan", "ios": "https://dc.lft.to/lastmile_qr_scan"}, "bike_id": "c9c055a570da6b867bca4707031fd1c8", "fusion_lon": 0.0, "fusion_lat": 0.0, "is_disabled": 0, "name": "c9c055a570da6b867bca4707031fd1c8", "type": "electric_scooter", "lon": -77.0434915}, {"is_reserved": 0, "lat": 38.958932, "rental_uris": {"android": "https://dc.lft.to/lastmile_qr_scan", "ios": "https://dc.lft.to/lastmile_qr_scan"}, "bike_id": "51802948fa82b7efa29b4586968fb9d8", "fusion_lon": 0.0, "fusion_lat": 0.0, "is_disabled": 0, "name": "51802948fa82b7efa29b4586968fb9d8", "type": "electric_bike", "lon": -76.92478633333333}, {"is_reserved": 0, "lat": 38.85302316666667, "rental_uris": {"android": "https://dc.lft.to/lastmile_qr_scan", "ios": "https://dc.lft.to/lastmile_qr_scan"}, "bike_id": "83b251e972a6543c4c07981f77063abd", "fusion_lon": 0.0, "fusion_lat": 0.0, "is_disabled": 0, "name": "83b251e972a6543c4c07981f77063abd", "type": "electric_bike", "lon": -77.1311805}, {"is_reserved": 0, "lat": 38.879324, "rental_uris": {"android": "https://dc.lft.to/lastmile_qr_scan", "ios": "https://dc.lft.to/lastmile_qr_scan"}, "bike_id": "fd9b3bb90f47a0cb03aeec7ada65a730", "fusion_lon": 0.0, "fusion_lat": 0.0, "is_disabled": 0, "name": "fd9b3bb90f47a0cb03aeec7ada65a730", "type": "electric_bike", "lon": -77.00408283333333}, {"is_reserved": 0, "lat": 38.9482105, "rental_uris": {"android": "https://dc.lft.to/lastmile_qr_scan", "ios": "https://dc.lft.to/lastmile_qr_scan"}, "bike_id": "997b532badb10a0e2eb0940a27e0ea26", "fusion_lon": 0.0, "fusion_lat": 0.0, "is_disabled": 0, "name": "997b532badb10a0e2eb0940a27e0ea26", "type": "electric_scooter", "lon": -77.02616183333333}, {"is_reserved": 0, "lat": 38.919584, "rental_uris": {"android": "https://dc.lft.to/lastmile_qr_scan", "ios": "https://dc.lft.to/lastmile_qr_scan"}, "bike_id": "08219e51e45b4ac12eb6b7b43143cacf", "fusion_lon": 0.0, "fusion_lat": 0.0, "is_disabled": 0, "name": "08219e51e45b4ac12eb6b7b43143cacf", "type": "electric_bike", "lon": -76.97272233333334}, {"is_reserved": 0, "lat": 38.94852083333333, "rental_uris": {"android": "https://dc.lft.to/lastmile_qr_scan", "ios": "https://dc.lft.to/lastmile_qr_scan"}, "bike_id": "12e53ce4b32f2e511f5793c297659a7f", "fusion_lon": 0.0, "fusion_lat": 0.0, "is_disabled": 0, "name": "12e53ce4b32f2e511f5793c297659a7f", "type": "electric_scooter", "lon": -77.019423}, {"is_reserved": 0, "lat": 38.918443333333336, "rental_uris": {"android": "https://dc.lft.to/lastmile_qr_scan", "ios": "https://dc.lft.to/lastmile_qr_scan"}, "bike_id": "1c11b3412e407fa0ae8589691fc02551", "fusion_lon": 0.0, "fusion_lat": 0.0, "is_disabled": 0, "name": "1c11b3412e407fa0ae8589691fc02551", "type": "electric_scooter", "lon": -77.024415}, {"is_reserved": 0, "lat": 38.93671466666667, "rental_uris": {"android": "https://dc.lft.to/lastmile_qr_scan", "ios": "https://dc.lft.to/lastmile_qr_scan"}, "bike_id": "d2094d7d6745e98881d0bc17ffb509aa", "fusion_lon": 0.0, "fusion_lat": 0.0, "is_disabled": 0, "name": "d2094d7d6745e98881d0bc17ffb509aa", "type": "electric_bike", "lon": -76.95205233333333}, {"is_reserved": 0, "lat": 38.89495383333333, "rental_uris": {"android": "https://dc.lft.to/lastmile_qr_scan", "ios": "https://dc.lft.to/lastmile_qr_scan"}, "bike_id": "018228f6e647f77705068500ea29df79", "fusion_lon": 0.0, "fusion_lat": 0.0, "is_disabled": 0, "name": "018228f6e647f77705068500ea29df79", "type": "electric_scooter", "lon": -77.02201516666666}, {"is_reserved": 0, "lat": 38.89909766666667, "rental_uris": {"android": "https://dc.lft.to/lastmile_qr_scan", "ios": "https://dc.lft.to/lastmile_qr_scan"}, "bike_id": "987f32c9da8b51bf29dd335af9f8192f", "fusion_lon": 0.0, "fusion_lat": 0.0, "is_disabled": 0, "name": "987f32c9da8b51bf29dd335af9f8192f", "type": "electric_scooter", "lon": -77.04127916666667}, {"is_reserved": 0, "lat": 38.899914333333335, "rental_uris": {"android": "https://dc.lft.to/lastmile_qr_scan", "ios": "https://dc.lft.to/lastmile_qr_scan"}, "bike_id": "06b1149d9684b283e1fb87c7375b7aab", "fusion_lon": 0.0, "fusion_lat": 0.0, "is_disabled": 0, "name": "06b1149d9684b283e1fb87c7375b7aab", "type": "electric_scooter", "lon": -77.006633}, {"is_reserved": 0, "lat": 38.93010833333334, "rental_uris": {"android": "https://dc.lft.to/lastmile_qr_scan", "ios": "https://dc.lft.to/lastmile_qr_scan"}, "bike_id": "3567a54172cc1bf2e2e98dc81f0d9e02", "fusion_lon": 0.0, "fusion_lat": 0.0, "is_disabled": 0, "name": "3567a54172cc1bf2e2e98dc81f0d9e02", "type": "electric_bike", "lon": -77.21649083333334}, {"is_reserved": 0, "lat": 38.994581, "rental_uris": {"android": "https://dc.lft.to/lastmile_qr_scan", "ios": "https://dc.lft.to/lastmile_qr_scan"}, "bike_id": "0bef3ea46cbe8d383d15d54bec7aeeb0", "fusion_lon": 0.0, "fusion_lat": 0.0, "is_disabled": 0, "name": "0bef3ea46cbe8d383d15d54bec7aeeb0", "type": "electric_bike", "lon": -77.0314}, {"is_reserved": 0, "lat": 38.915674, "rental_uris": {"android": "https://dc.lft.to/lastmile_qr_scan", "ios": "https://dc.lft.to/lastmile_qr_scan"}, "bike_id": "229bb85d16114186dbc727f0f5e3eb82", "fusion_lon": 0.0, "fusion_lat": 0.0, "is_disabled": 0, "name": "229bb85d16114186dbc727f0f5e3eb82", "type": "electric_scooter", "lon": -77.0218735}, {"is_reserved": 0, "lat": 38.903101166666666, "rental_uris": {"android": "https://dc.lft.to/lastmile_qr_scan", "ios": "https://dc.lft.to/lastmile_qr_scan"}, "bike_id": "7cf9fab966e9cfd56d05ae3883e95e88", "fusion_lon": 0.0, "fusion_lat": 0.0, "is_disabled": 0, "name": "7cf9fab966e9cfd56d05ae3883e95e88", "type": "electric_scooter", "lon": -77.03630416666667}, {"is_reserved": 0, "lat": 38.9307145, "rental_uris": {"android": "https://dc.lft.to/lastmile_qr_scan", "ios": "https://dc.lft.to/lastmile_qr_scan"}, "bike_id": "695f24a9fd632db85b2b5e8f1de37a71", "fusion_lon": 0.0, "fusion_lat": 0.0, "is_disabled": 0, "name": "695f24a9fd632db85b2b5e8f1de37a71", "type": "electric_scooter", "lon": -77.031971}, {"is_reserved": 0, "lat": 38.8935445, "rental_uris": {"android": "https://dc.lft.to/lastmile_qr_scan", "ios": "https://dc.lft.to/lastmile_qr_scan"}, "bike_id": "1727c8e8161f002692449f2de705591c", "fusion_lon": 0.0, "fusion_lat": 0.0, "is_disabled": 0, "name": "1727c8e8161f002692449f2de705591c", "type": "electric_scooter", "lon": -77.022066}, {"is_reserved": 0, "lat": 38.896143, "rental_uris": {"android": "https://dc.lft.to/lastmile_qr_scan", "ios": "https://dc.lft.to/lastmile_qr_scan"}, "bike_id": "5b731b7a4aaedf2faa1e25e1867456af", "fusion_lon": 0.0, "fusion_lat": 0.0, "is_disabled": 0, "name": "5b731b7a4aaedf2faa1e25e1867456af", "type": "electric_scooter", "lon": -77.0316955}, {"is_reserved": 0, "lat": 38.90629783333333, "rental_uris": {"android": "https://dc.lft.to/lastmile_qr_scan", "ios": "https://dc.lft.to/lastmile_qr_scan"}, "bike_id": "6788244680b53ff01eca594eea728fc6", "fusion_lon": 0.0, "fusion_lat": 0.0, "is_disabled": 0, "name": "6788244680b53ff01eca594eea728fc6", "type": "electric_scooter", "lon": -77.00624733333333}, {"is_reserved": 0, "lat": 38.903057833333335, "rental_uris": {"android": "https://dc.lft.to/lastmile_qr_scan", "ios": "https://dc.lft.to/lastmile_qr_scan"}, "bike_id": "b522071e550c3b4ece7755a9b4824e0c", "fusion_lon": 0.0, "fusion_lat": 0.0, "is_disabled": 0, "name": "b522071e550c3b4ece7755a9b4824e0c", "type": "electric_scooter", "lon": -77.01156883333333}, {"is_reserved": 0, "lat": 38.92201566666667, "rental_uris": {"android": "https://dc.lft.to/lastmile_qr_scan", "ios": "https://dc.lft.to/lastmile_qr_scan"}, "bike_id": "4e61a8e3935129d750699fec1ac79cd4", "fusion_lon": 0.0, "fusion_lat": 0.0, "is_disabled": 0, "name": "4e61a8e3935129d750699fec1ac79cd4", "type": "electric_scooter", "lon": -77.04251666666667}, {"is_reserved": 0, "lat": 38.86104483333333, "rental_uris": {"android": "https://dc.lft.to/lastmile_qr_scan", "ios": "https://dc.lft.to/lastmile_qr_scan"}, "bike_id": "a20ae104d47313d7bf7c86380dc31a9f", "fusion_lon": 0.0, "fusion_lat": 0.0, "is_disabled": 0, "name": "a20ae104d47313d7bf7c86380dc31a9f", "type": "electric_scooter", "lon": -76.98889283333334}, {"is_reserved": 0, "lat": 38.91992966666667, "rental_uris": {"android": "https://dc.lft.to/lastmile_qr_scan", "ios": "https://dc.lft.to/lastmile_qr_scan"}, "bike_id": "313b9ea2c6ca9d5b32b1d098375c233d", "fusion_lon": 0.0, "fusion_lat": 0.0, "is_disabled": 0, "name": "313b9ea2c6ca9d5b32b1d098375c233d", "type": "electric_scooter", "lon": -77.0416705}, {"is_reserved": 0, "lat": 38.9156315, "rental_uris": {"android": "https://dc.lft.to/lastmile_qr_scan", "ios": "https://dc.lft.to/lastmile_qr_scan"}, "bike_id": "ec0f0777e8df88c7d46c0e78cd20e7a7", "fusion_lon": 0.0, "fusion_lat": 0.0, "is_disabled": 0, "name": "ec0f0777e8df88c7d46c0e78cd20e7a7", "type": "electric_scooter", "lon": -77.031529}, {"is_reserved": 0, "lat": 38.92936783333333, "rental_uris": {"android": "https://dc.lft.to/lastmile_qr_scan", "ios": "https://dc.lft.to/lastmile_qr_scan"}, "bike_id": "3e0b1064e96a8b0bb0724c844c75bade", "fusion_lon": 0.0, "fusion_lat": 0.0, "is_disabled": 0, "name": "3e0b1064e96a8b0bb0724c844c75bade", "type": "electric_scooter", "lon": -77.03282933333334}, {"is_reserved": 0, "lat": 38.92604083333333, "rental_uris": {"android": "https://dc.lft.to/lastmile_qr_scan", "ios": "https://dc.lft.to/lastmile_qr_scan"}, "bike_id": "87669a7ff5b71207cbf957f4bbf73e83", "fusion_lon": 0.0, "fusion_lat": 0.0, "is_disabled": 0, "name": "87669a7ff5b71207cbf957f4bbf73e83", "type": "electric_scooter", "lon": -77.02150116666667}, {"is_reserved": 0, "lat": 38.90259566666667, "rental_uris": {"android": "https://dc.lft.to/lastmile_qr_scan", "ios": "https://dc.lft.to/lastmile_qr_scan"}, "bike_id": "d2a3ecafdce324e3532e98ce667f347b", "fusion_lon": 0.0, "fusion_lat": 0.0, "is_disabled": 0, "name": "d2a3ecafdce324e3532e98ce667f347b", "type": "electric_scooter", "lon": -77.03072783333333}, {"is_reserved": 0, "lat": 38.928356666666666, "rental_uris": {"android": "https://dc.lft.to/lastmile_qr_scan", "ios": "https://dc.lft.to/lastmile_qr_scan"}, "bike_id": "ca00e4bbc4f87c61f5b1a4afdff13962", "fusion_lon": 0.0, "fusion_lat": 0.0, "is_disabled": 0, "name": "ca00e4bbc4f87c61f5b1a4afdff13962", "type": "electric_scooter", "lon": -77.0138135}, {"is_reserved": 0, "lat": 38.9588135, "rental_uris": {"android": "https://dc.lft.to/lastmile_qr_scan", "ios": "https://dc.lft.to/lastmile_qr_scan"}, "bike_id": "472289fe5c30ab790d9a8d0988a5c52c", "fusion_lon": 0.0, "fusion_lat": 0.0, "is_disabled": 0, "name": "472289fe5c30ab790d9a8d0988a5c52c", "type": "electric_bike", "lon": -77.01034783333333}, {"is_reserved": 0, "lat": 38.90978966666667, "rental_uris": {"android": "https://dc.lft.to/lastmile_qr_scan", "ios": "https://dc.lft.to/lastmile_qr_scan"}, "bike_id": "ded6a91347b5e5bb79093cbb269dbbc1", "fusion_lon": 0.0, "fusion_lat": 0.0, "is_disabled": 0, "name": "ded6a91347b5e5bb79093cbb269dbbc1", "type": "electric_scooter", "lon": -77.021784}, {"is_reserved": 0, "lat": 38.95934533333333, "rental_uris": {"android": "https://dc.lft.to/lastmile_qr_scan", "ios": "https://dc.lft.to/lastmile_qr_scan"}, "bike_id": "c664a40544765cb96450783666d3d17d", "fusion_lon": 0.0, "fusion_lat": 0.0, "is_disabled": 0, "name": "c664a40544765cb96450783666d3d17d", "type": "electric_scooter", "lon": -77.03120866666667}, {"is_reserved": 0, "lat": 38.80573416666667, "rental_uris": {"android": "https://dc.lft.to/lastmile_qr_scan", "ios": "https://dc.lft.to/lastmile_qr_scan"}, "bike_id": "c6b669328a9bf2451c8963c49c16e322", "fusion_lon": 0.0, "fusion_lat": 0.0, "is_disabled": 0, "name": "c6b669328a9bf2451c8963c49c16e322", "type": "electric_bike", "lon": -77.06858383333334}, {"is_reserved": 0, "lat": 38.89451283333333, "rental_uris": {"android": "https://dc.lft.to/lastmile_qr_scan", "ios": "https://dc.lft.to/lastmile_qr_scan"}, "bike_id": "09ef3c5fd620f93ecc24a340c665225e", "fusion_lon": 0.0, "fusion_lat": 0.0, "is_disabled": 0, "name": "09ef3c5fd620f93ecc24a340c665225e", "type": "electric_scooter", "lon": -76.97809433333333}, {"is_reserved": 0, "lat": 38.8922085, "rental_uris": {"android": "https://dc.lft.to/lastmile_qr_scan", "ios": "https://dc.lft.to/lastmile_qr_scan"}, "bike_id": "76af99287985c6dec7be04bcd6e24824", "fusion_lon": 0.0, "fusion_lat": 0.0, "is_disabled": 0, "name": "76af99287985c6dec7be04bcd6e24824", "type": "electric_scooter", "lon": -77.0221025}, {"is_reserved": 0, "lat": 38.91848383333333, "rental_uris": {"android": "https://dc.lft.to/lastmile_qr_scan", "ios": "https://dc.lft.to/lastmile_qr_scan"}, "bike_id": "4860f3e1c40b91f585f9d06617483ca8", "fusion_lon": 0.0, "fusion_lat": 0.0, "is_disabled": 0, "name": "4860f3e1c40b91f585f9d06617483ca8", "type": "electric_scooter", "lon": -77.02432983333334}, {"is_reserved": 0, "lat": 38.98503616666667, "rental_uris": {"android": "https://dc.lft.to/lastmile_qr_scan", "ios": "https://dc.lft.to/lastmile_qr_scan"}, "bike_id": "661d89063a70ba0f1680bfd6b70e8026", "fusion_lon": 0.0, "fusion_lat": 0.0, "is_disabled": 0, "name": "661d89063a70ba0f1680bfd6b70e8026", "type": "electric_bike", "lon": -76.98206}, {"is_reserved": 0, "lat": 38.91674283333333, "rental_uris": {"android": "https://dc.lft.to/lastmile_qr_scan", "ios": "https://dc.lft.to/lastmile_qr_scan"}, "bike_id": "f6ff0e0354db18c9cfa1b474a490ed96", "fusion_lon": 0.0, "fusion_lat": 0.0, "is_disabled": 0, "name": "f6ff0e0354db18c9cfa1b474a490ed96", "type": "electric_scooter", "lon": -77.02299066666667}, {"is_reserved": 0, "lat": 38.83930983333333, "rental_uris": {"android": "https://dc.lft.to/lastmile_qr_scan", "ios": "https://dc.lft.to/lastmile_qr_scan"}, "bike_id": "d97ee8924e570dc1f9eedc6d3ff1a782", "fusion_lon": 0.0, "fusion_lat": 0.0, "is_disabled": 0, "name": "d97ee8924e570dc1f9eedc6d3ff1a782", "type": "electric_bike", "lon": -77.079028}, {"is_reserved": 0, "lat": 38.9827165, "rental_uris": {"android": "https://dc.lft.to/lastmile_qr_scan", "ios": "https://dc.lft.to/lastmile_qr_scan"}, "bike_id": "4584ff2e630a48039195c81642e82d0a", "fusion_lon": 0.0, "fusion_lat": 0.0, "is_disabled": 0, "name": "4584ff2e630a48039195c81642e82d0a", "type": "electric_bike", "lon": -77.01773466666667}, {"is_reserved": 0, "lat": 38.904881333333336, "rental_uris": {"android": "https://dc.lft.to/lastmile_qr_scan", "ios": "https://dc.lft.to/lastmile_qr_scan"}, "bike_id": "dafcd85b4c542fbfabd00a02c0289db6", "fusion_lon": 0.0, "fusion_lat": 0.0, "is_disabled": 0, "name": "dafcd85b4c542fbfabd00a02c0289db6", "type": "electric_scooter", "lon": -77.002068}, {"is_reserved": 0, "lat": 38.953496, "rental_uris": {"android": "https://dc.lft.to/lastmile_qr_scan", "ios": "https://dc.lft.to/lastmile_qr_scan"}, "bike_id": "46c8ce70bbfb3193791ef2012c3e440f", "fusion_lon": 0.0, "fusion_lat": 0.0, "is_disabled": 0, "name": "46c8ce70bbfb3193791ef2012c3e440f", "type": "electric_bike", "lon": -76.98099333333333}, {"is_reserved": 0, "lat": 38.86523183333333, "rental_uris": {"android": "https://dc.lft.to/lastmile_qr_scan", "ios": "https://dc.lft.to/lastmile_qr_scan"}, "bike_id": "7408598b118b0c8a4fc8fb32ade38334", "fusion_lon": 0.0, "fusion_lat": 0.0, "is_disabled": 0, "name": "7408598b118b0c8a4fc8fb32ade38334", "type": "electric_scooter", "lon": -76.99035433333333}, {"is_reserved": 0, "lat": 38.89220983333333, "rental_uris": {"android": "https://dc.lft.to/lastmile_qr_scan", "ios": "https://dc.lft.to/lastmile_qr_scan"}, "bike_id": "14fd720e2b0eb9ebf0777d00d58912ae", "fusion_lon": 0.0, "fusion_lat": 0.0, "is_disabled": 0, "name": "14fd720e2b0eb9ebf0777d00d58912ae", "type": "electric_scooter", "lon": -77.02622466666666}, {"is_reserved": 0, "lat": 38.93329833333333, "rental_uris": {"android": "https://dc.lft.to/lastmile_qr_scan", "ios": "https://dc.lft.to/lastmile_qr_scan"}, "bike_id": "46c9e8a0e29dca04b47503714ca9b34c", "fusion_lon": 0.0, "fusion_lat": 0.0, "is_disabled": 0, "name": "46c9e8a0e29dca04b47503714ca9b34c", "type": "electric_scooter", "lon": -77.043818}, {"is_reserved": 0, "lat": 38.9037285, "rental_uris": {"android": "https://dc.lft.to/lastmile_qr_scan", "ios": "https://dc.lft.to/lastmile_qr_scan"}, "bike_id": "c5dc677829c9d1e99f40a1ed5e76e996", "fusion_lon": 0.0, "fusion_lat": 0.0, "is_disabled": 0, "name": "c5dc677829c9d1e99f40a1ed5e76e996", "type": "electric_scooter", "lon": -77.04019233333334}, {"is_reserved": 0, "lat": 38.904387, "rental_uris": {"android": "https://dc.lft.to/lastmile_qr_scan", "ios": "https://dc.lft.to/lastmile_qr_scan"}, "bike_id": "322f234a7cb5f1d3cd2b741d95fc32f6", "fusion_lon": 0.0, "fusion_lat": 0.0, "is_disabled": 0, "name": "322f234a7cb5f1d3cd2b741d95fc32f6", "type": "electric_scooter", "lon": -77.04338416666667}, {"is_reserved": 0, "lat": 38.92449583333333, "rental_uris": {"android": "https://dc.lft.to/lastmile_qr_scan", "ios": "https://dc.lft.to/lastmile_qr_scan"}, "bike_id": "b56c8726f9f97a4bdc26fe838d200b94", "fusion_lon": 0.0, "fusion_lat": 0.0, "is_disabled": 0, "name": "b56c8726f9f97a4bdc26fe838d200b94", "type": "electric_scooter", "lon": -77.04019916666667}, {"is_reserved": 0, "lat": 38.88542533333333, "rental_uris": {"android": "https://dc.lft.to/lastmile_qr_scan", "ios": "https://dc.lft.to/lastmile_qr_scan"}, "bike_id": "7e92d7897ce2473007021ebde248bb39", "fusion_lon": 0.0, "fusion_lat": 0.0, "is_disabled": 0, "name": "7e92d7897ce2473007021ebde248bb39", "type": "electric_scooter", "lon": -77.01510216666667}, {"is_reserved": 0, "lat": 38.892166, "rental_uris": {"android": "https://dc.lft.to/lastmile_qr_scan", "ios": "https://dc.lft.to/lastmile_qr_scan"}, "bike_id": "d97dcab61cb6749fac2ba2ed5b154819", "fusion_lon": 0.0, "fusion_lat": 0.0, "is_disabled": 0, "name": "d97dcab61cb6749fac2ba2ed5b154819", "type": "electric_scooter", "lon": -77.02621466666666}, {"is_reserved": 0, "lat": 38.91941683333334, "rental_uris": {"android": "https://dc.lft.to/lastmile_qr_scan", "ios": "https://dc.lft.to/lastmile_qr_scan"}, "bike_id": "1dbc717b1a8c0c5ce2199b1b17430b99", "fusion_lon": 0.0, "fusion_lat": 0.0, "is_disabled": 0, "name": "1dbc717b1a8c0c5ce2199b1b17430b99", "type": "electric_scooter", "lon": -77.02509083333334}, {"is_reserved": 0, "lat": 38.91394283333333, "rental_uris": {"android": "https://dc.lft.to/lastmile_qr_scan", "ios": "https://dc.lft.to/lastmile_qr_scan"}, "bike_id": "e02a9512fc7a2433fe2a59dfa523105f", "fusion_lon": 0.0, "fusion_lat": 0.0, "is_disabled": 0, "name": "e02a9512fc7a2433fe2a59dfa523105f", "type": "electric_scooter", "lon": -77.03179266666666}, {"is_reserved": 0, "lat": 38.91601383333333, "rental_uris": {"android": "https://dc.lft.to/lastmile_qr_scan", "ios": "https://dc.lft.to/lastmile_qr_scan"}, "bike_id": "fa5624a6308427beb297b20d5f471eb6", "fusion_lon": 0.0, "fusion_lat": 0.0, "is_disabled": 0, "name": "fa5624a6308427beb297b20d5f471eb6", "type": "electric_scooter", "lon": -77.0384635}, {"is_reserved": 0, "lat": 38.852230666666664, "rental_uris": {"android": "https://dc.lft.to/lastmile_qr_scan", "ios": "https://dc.lft.to/lastmile_qr_scan"}, "bike_id": "97be80415b9f4b610e84660e1ba46726", "fusion_lon": 0.0, "fusion_lat": 0.0, "is_disabled": 0, "name": "97be80415b9f4b610e84660e1ba46726", "type": "electric_bike", "lon": -77.12956133333333}, {"is_reserved": 0, "lat": 38.86593416666667, "rental_uris": {"android": "https://dc.lft.to/lastmile_qr_scan", "ios": "https://dc.lft.to/lastmile_qr_scan"}, "bike_id": "4b5c3408d563865622b862eb1a2e8e48", "fusion_lon": 0.0, "fusion_lat": 0.0, "is_disabled": 0, "name": "4b5c3408d563865622b862eb1a2e8e48", "type": "electric_bike", "lon": -76.93222633333333}, {"is_reserved": 0, "lat": 38.91909966666667, "rental_uris": {"android": "https://dc.lft.to/lastmile_qr_scan", "ios": "https://dc.lft.to/lastmile_qr_scan"}, "bike_id": "d3ac4e0ff3e865dd3f3b5af6296eb847", "fusion_lon": 0.0, "fusion_lat": 0.0, "is_disabled": 0, "name": "d3ac4e0ff3e865dd3f3b5af6296eb847", "type": "electric_scooter", "lon": -77.03175766666666},