{"data": {"bikes": [{"type": "electric_scooter", "name": "9b2f4a0069b82bcd548e3f5c5b3620cf", "fusion_lat": 0.0, "fusion_lon": 0.0, "lon": -77.0350765, "is_disabled": 0, "bike_id": "9b2f4a0069b82bcd548e3f5c5b3620cf", "is_reserved": 0, "rental_uris": {"android": "https://dc.lft.to/lastmile_qr_scan", "ios": "https://dc.lft.to/lastmile_qr_scan"}, "lat": 38.9216135}, {"type": "electric_scooter", "name": "ab91aa1e2a4d6d65e7868d4f4c4ceb57", "fusion_lat": 0.0, "fusion_lon": 0.0, "lon": -77.032624, "is_disabled": 0, "bike_id": "ab91aa1e2a4d6d65e7868d4f4c4ceb57", "is_reserved": 0, "rental_uris": {"android": "https://dc.lft.to/lastmile_qr_scan", "ios": "https://dc.lft.to/lastmile_qr_scan"}, "lat": 38.933032}, {"type": "electric_scooter", "name": "150e65371243a17a207356f3b2b9a13a", "fusion_lat": 0.0, "fusion_lon": 0.0, "lon": -76.97653866666667, "is_disabled": 0, "bike_id": "150e65371243a17a207356f3b2b9a13a", "is_reserved": 0, "rental_uris": {"android": "https://dc.lft.to/lastmile_qr_scan", "ios": "https://dc.lft.to/lastmile_qr_scan"}, "lat": 38.903653166666665}, {"type": "electric_scooter", "name": "61ebd86dc1e0aeccf4318f96c851940a", "fusion_lat": 0.0, "fusion_lon": 0.0, "lon": -77.03495766666667, "is_disabled": 0, "bike_id": "61ebd86dc1e0aeccf4318f96c851940a", "is_reserved": 0, "rental_uris": {"android": "https://dc.lft.to/lastmile_qr_scan", "ios": "https://dc.lft.to/lastmile_qr_scan"}, "lat": 38.917094166666665}, {"type": "electric_scooter", "name": "d8ca36c3404ae872d91ef717be9bcb81", "fusion_lat": 0.0, "fusion_lon": 0.0, "lon": -77.04102383333333, "is_disabled": 0, "bike_id": "d8ca36c3404ae872d91ef717be9bcb81", "is_reserved": 0, "rental_uris": {"android": "https://dc.lft.to/lastmile_qr_scan", "ios": "https://dc.lft.to/lastmile_qr_scan"}, "lat": 38.920767166666664}, {"type": "electric_scooter", "name": "351232e14a513238cc2e8df9aab4a287", "fusion_lat": 0.0, "fusion_lon": 0.0, "lon": -77.03968333333333, "is_disabled": 0, "bike_id": "351232e14a513238cc2e8df9aab4a287", "is_reserved": 0, "rental_uris": {"android": "https://dc.lft.to/lastmile_qr_scan", "ios": "https://dc.lft.to/lastmile_qr_scan"}, "lat": 38.89901183333333}, {"type": "electric_scooter", "name": "a95c1a40e7051b7320297e2c5dbb1bac", "fusion_lat": 0.0, "fusion_lon": 0.0, "lon": -77.027731, "is_disabled": 0, "bike_id": "a95c1a40e7051b7320297e2c5dbb1bac", "is_reserved": 0, "rental_uris": {"android": "https://dc.lft.to/lastmile_qr_scan", "ios": "https://dc.lft.to/lastmile_qr_scan"}, "lat": 38.96584566666667}, {"type": "electric_bike", "name": "a50a30a5bd1d64093cc73f3cce7f9d1d", "fusion_lat": 0.0, "fusion_lon": 0.0, "lon": -77.09561066666667, "is_disabled": 0, "bike_id": "a50a30a5bd1d64093cc73f3cce7f9d1d", "is_reserved": 0, "rental_uris": {"android": "https://dc.lft.to/lastmile_qr_scan", "ios": "https://dc.lft.to/lastmile_qr_scan"}, "lat": 38.858794}, {"type": "electric_scooter", "name": "6f6cc9ff04aa688c2ad772ac75050d5c", "fusion_lat": 0.0, "fusion_lon": 0.0, "lon": -77.01333883333334, "is_disabled": 0, "bike_id": "6f6cc9ff04aa688c2ad772ac75050d5c", "is_reserved": 0, "rental_uris": {"android": "https://dc.lft.to/lastmile_qr_scan", "ios": "https://dc.lft.to/lastmile_qr_scan"}, "lat": 38.88121866666667}, {"type": "electric_scooter", "name": "f93db8906b226f368ff53d34f1591423", "fusion_lat": 0.0, "fusion_lon": 0.0, "lon": -77.02281816666667, "is_disabled": 0, "bike_id": "f93db8906b226f368ff53d34f1591423", "is_reserved": 0, "rental_uris": {"android": "https://dc.lft.to/lastmile_qr_scan", "ios": "https://dc.lft.to/lastmile_qr_scan"}, "lat": 38.92685683333333}, {"type": "electric_scooter", "name": "bfd772ecb829e1cde6b9d130d4aa5571", "fusion_lat": 0.0, "fusion_lon": 0.0, "lon": -77.04355683333333, "is_disabled": 0, "bike_id": "bfd772ecb829e1cde6b9d130d4aa5571", "is_reserved": 0, "rental_uris": {"android": "https://dc.lft.to/lastmile_qr_scan", "ios": "https://dc.lft.to/lastmile_qr_scan"}, "lat": 38.90480483333333}, {"type": "electric_scooter", "name": "0e700801c6cbb8b6e5a1014b6fbd04e2", "fusion_lat": 0.0, "fusion_lon": 0.0, "lon": -77.02193916666667, "is_disabled": 0, "bike_id": "0e700801c6cbb8b6e5a1014b6fbd04e2", "is_reserved": 0, "rental_uris": {"android": "https://dc.lft.to/lastmile_qr_scan", "ios": "https://dc.lft.to/lastmile_qr_scan"}, "lat": 38.92486016666667}, {"type": "electric_scooter", "name": "e207f3f781ce55e3279772260d443dec", "fusion_lat": 0.0, "fusion_lon": 0.0, "lon": -77.03480233333333, "is_disabled": 0, "bike_id": "e207f3f781ce55e3279772260d443dec", "is_reserved": 0, "rental_uris": {"android": "https://dc.lft.to/lastmile_qr_scan", "ios": "https://dc.lft.to/lastmile_qr_scan"}, "lat": 38.9077825}, {"type": "electric_scooter", "name": "69b2d4372aa49a0237b57bced69bf3be", "fusion_lat": 0.0, "fusion_lon": 0.0, "lon": -77.006201, "is_disabled": 0, "bike_id": "69b2d4372aa49a0237b57bced69bf3be", "is_reserved": 0, "rental_uris": {"android": "https://dc.lft.to/lastmile_qr_scan", "ios": "https://dc.lft.to/lastmile_qr_scan"}, "lat": 38.871943333333334}, {"type": "electric_scooter", "name": "c168595b22f5da70b456a5e74fe1c186", "fusion_lat": 0.0, "fusion_lon": 0.0, "lon": -77.0392595, "is_disabled": 0, "bike_id": "c168595b22f5da70b456a5e74fe1c186", "is_reserved": 0, "rental_uris": {"android": "https://dc.lft.to/lastmile_qr_scan", "ios": "https://dc.lft.to/lastmile_qr_scan"}, "lat": 38.913971333333336}, {"type": "electric_scooter", "name": "58021c0ffcd1dcb9851c1a6fd9061f0b", "fusion_lat": 0.0, "fusion_lon": 0.0, "lon": -77.05298566666667, "is_disabled": 0, "bike_id": "58021c0ffcd1dcb9851c1a6fd9061f0b", "is_reserved": 0, "rental_uris": {"android": "https://dc.lft.to/lastmile_qr_scan", "ios": "https://dc.lft.to/lastmile_qr_scan"}, "lat": 38.9026675}, {"type": "electric_bike", "name": "af283a63ac4ee552eb1204db8eea530e", "fusion_lat": 0.0, "fusion_lon": 0.0, "lon": -77.02029916666666, "is_disabled": 0, "bike_id": "af283a63ac4ee552eb1204db8eea530e", "is_reserved": 0, "rental_uris": {"android": "https://dc.lft.to/lastmile_qr_scan", "ios": "https://dc.lft.to/lastmile_qr_scan"}, "lat": 38.9656405}, {"type": "electric_scooter", "name": "07af2bb8e3be0b06c42ada9959bf10b0", "fusion_lat": 0.0, "fusion_lon": 0.0, "lon": -77.05121516666667, "is_disabled": 0, "bike_id": "07af2bb8e3be0b06c42ada9959bf10b0", "is_reserved": 0, "rental_uris": {"android": "https://dc.lft.to/lastmile_qr_scan", "ios": "https://dc.lft.to/lastmile_qr_scan"}, "lat": 38.9234145}, {"type": "electric_scooter", "name": "23c6d8228082db1fb07d573214dffac4", "fusion_lat": 0.0, "fusion_lon": 0.0, "lon": -77.02883533333333, "is_disabled": 0, "bike_id": "23c6d8228082db1fb07d573214dffac4", "is_reserved": 0, "rental_uris": {"android": "https://dc.lft.to/lastmile_qr_scan", "ios": "https://dc.lft.to/lastmile_qr_scan"}, "lat": 38.90318533333333}, {"type": "electric_bike", "name": "f4e8c07ff644d6dfd3d6da7956cf56b9", "fusion_lat": 0.0, "fusion_lon": 0.0, "lon": -76.988192, "is_disabled": 0, "bike_id": "f4e8c07ff644d6dfd3d6da7956cf56b9", "is_reserved": 0, "rental_uris": {"android": "https://dc.lft.to/lastmile_qr_scan", "ios": "https://dc.lft.to/lastmile_qr_scan"}, "lat": 38.842736}, {"type": "electric_scooter", "name": "f28cc494e72c4e47b3b617e7de4b18f3", "fusion_lat": 0.0, "fusion_lon": 0.0, "lon": -77.02182533333334, "is_disabled": 0, "bike_id": "f28cc494e72c4e47b3b617e7de4b18f3", "is_reserved": 0, "rental_uris": {"android": "https://dc.lft.to/lastmile_qr_scan", "ios": "https://dc.lft.to/lastmile_qr_scan"}, "lat": 38.909556333333335}, {"type": "electric_scooter", "name": "04a676f6f5de45e891aee894f462b60d", "fusion_lat": 0.0, "fusion_lon": 0.0, "lon": -77.0329855, "is_disabled": 0, "bike_id": "04a676f6f5de45e891aee894f462b60d", "is_reserved": 0, "rental_uris": {"android": "https://dc.lft.to/lastmile_qr_scan", "ios": "https://dc.lft.to/lastmile_qr_scan"}, "lat": 38.92871483333333}, {"type": "electric_scooter", "name": "e83d4932a83fbbea81bb294fd0745e56", "fusion_lat": 0.0, "fusion_lon": 0.0, "lon": -77.03957966666667, "is_disabled": 0, "bike_id": "e83d4932a83fbbea81bb294fd0745e56", "is_reserved": 0, "rental_uris": {"android": "https://dc.lft.to/lastmile_qr_scan", "ios": "https://dc.lft.to/lastmile_qr_scan"}, "lat": 38.926091}, {"type": "electric_bike", "name": "d4398ed0949987003583129fde69924f", "fusion_lat": 0.0, "fusion_lon": 0.0, "lon": -76.98719916666667, "is_disabled": 0, "bike_id": "d4398ed0949987003583129fde69924f", "is_reserved": 0, "rental_uris": {"android": "https://dc.lft.to/lastmile_qr_scan", "ios": "https://dc.lft.to/lastmile_qr_scan"}, "lat": 38.86331716666667}, {"type": "electric_bike", "name": "e91c2863bee612727e5d94aada12b259", "fusion_lat": 0.0, "fusion_lon": 0.0, "lon": -77.03273116666666, "is_disabled": 0, "bike_id": "e91c2863bee612727e5d94aada12b259", "is_reserved": 0, "rental_uris": {"android": "https://dc.lft.to/lastmile_qr_scan", "ios": "https://dc.lft.to/lastmile_qr_scan"}, "lat": 38.96128066666667}, {"type": "electric_scooter", "name": "2df007afe3ffa5b99835aaebf7e891c0", "fusion_lat": 0.0, "fusion_lon": 0.0, "lon": -77.01387266666667, "is_disabled": 0, "bike_id": "2df007afe3ffa5b99835aaebf7e891c0", "is_reserved": 0, "rental_uris": {"android": "https://dc.lft.to/lastmile_qr_scan", "ios": "https://dc.lft.to/lastmile_qr_scan"}, "lat": 38.87892983333333}, {"type": "electric_bike", "name": "bf7db30221da7dd9ccb02d583ea1a8d2", "fusion_lat": 0.0, "fusion_lon": 0.0, "lon": -77.00208566666667, "is_disabled": 0, "bike_id": "bf7db30221da7dd9ccb02d583ea1a8d2", "is_reserved": 0, "rental_uris": {"android": "https://dc.lft.to/lastmile_qr_scan", "ios": "https://dc.lft.to/lastmile_qr_scan"}, "lat": 38.9885095}, {"type": "electric_scooter", "name": "3a253c1dd047d0ad0a2abcedc500373f", "fusion_lat": 0.0, "fusion_lon": 0.0, "lon": -77.03378133333334, "is_disabled": 0, "bike_id": "3a253c1dd047d0ad0a2abcedc500373f", "is_reserved": 0, "rental_uris": {"android": "https://dc.lft.to/lastmile_qr_scan", "ios": "https://dc.lft.to/lastmile_qr_scan"}, "lat": 38.910449}, {"type": "electric_scooter", "name": "2ea1b2b40a07fcfb88f3750c272c2943", "fusion_lat": 0.0, "fusion_lon": 0.0, "lon": -77.0330495, "is_disabled": 0, "bike_id": "2ea1b2b40a07fcfb88f3750c272c2943", "is_reserved": 0, "rental_uris": {"android": "https://dc.lft.to/lastmile_qr_scan", "ios": "https://dc.lft.to/lastmile_qr_scan"}, "lat": 38.92643133333333}, {"type": "electric_scooter", "name": "c2e22fe05f0518be2ef483c59bb91fdc", "fusion_lat": 0.0, "fusion_lon": 0.0, "lon": -77.03871816666667, "is_disabled": 0, "bike_id": "c2e22fe05f0518be2ef483c59bb91fdc", "is_reserved": 0, "rental_uris": {"android": "https://dc.lft.to/lastmile_qr_scan", "ios": "https://dc.lft.to/lastmile_qr_scan"}, "lat": 38.91255266666667}, {"type": "electric_scooter", "name": "5daa7aa77f848781b16692f6d6a8cc05", "fusion_lat": 0.0, "fusion_lon": 0.0, "lon": -77.03244116666667, "is_disabled": 0, "bike_id": "5daa7aa77f848781b16692f6d6a8cc05", "is_reserved": 0, "rental_uris": {"android": "https://dc.lft.to/lastmile_qr_scan", "ios": "https://dc.lft.to/lastmile_qr_scan"}, "lat": 38.9373205}, {"type": "electric_scooter", "name": "34d94d17a838bf84eb908c26b70f66ae", "fusion_lat": 0.0, "fusion_lon": 0.0, "lon": -77.0536285, "is_disabled": 0, "bike_id": "34d94d17a838bf84eb908c26b70f66ae", "is_reserved": 0, "rental_uris": {"android": "https://dc.lft.to/lastmile_qr_scan", "ios": "https://dc.lft.to/lastmile_qr_scan"}, "lat": 38.9037465}, {"type": "electric_scooter", "name": "cde6be36bcb8f05a516d01f644cec5f3", "fusion_lat": 0.0, "fusion_lon": 0.0, "lon": -77.03991016666667, "is_disabled": 0, "bike_id": "cde6be36bcb8f05a516d01f644cec5f3", "is_reserved": 0, "rental_uris": {"android": "https://dc.lft.to/lastmile_qr_scan", "ios": "https://dc.lft.to/lastmile_qr_scan"}, "lat": 38.900363}, {"type": "electric_bike", "name": "736ca00e5950050e5ac90dcb7cc27535", "fusion_lat": 0.0, "fusion_lon": 0.0, "lon": -77.03707233333333, "is_disabled": 0, "bike_id": "736ca00e5950050e5ac90dcb7cc27535", "is_reserved": 0, "rental_uris": {"android": "https://dc.lft.to/lastmile_qr_scan", "ios": "https://dc.lft.to/lastmile_qr_scan"}, "lat": 38.935673666666666}, {"type": "electric_scooter", "name": "f7a8b7e4e55d132166f1cba6295d2e40", "fusion_lat": 0.0, "fusion_lon": 0.0, "lon": -77.0217395, "is_disabled": 0, "bike_id": "f7a8b7e4e55d132166f1cba6295d2e40", "is_reserved": 0, "rental_uris": {"android": "https://dc.lft.to/lastmile_qr_scan", "ios": "https://dc.lft.to/lastmile_qr_scan"}, "lat": 38.91113083333333}, {"type": "electric_scooter", "name": "f97c8d505a20683f5d9efdd620e4e425", "fusion_lat": 0.0, "fusion_lon": 0.0, "lon": -77.0294605, "is_disabled": 0, "bike_id": "f97c8d505a20683f5d9efdd620e4e425", "is_reserved": 0, "rental_uris": {"android": "https://dc.lft.to/lastmile_qr_scan", "ios": "https://dc.lft.to/lastmile_qr_scan"}, "lat": 38.90410683333333}, {"type": "electric_scooter", "name": "9270f86cbc903c5363c36397a1aac9ad", "fusion_lat": 0.0, "fusion_lon": 0.0, "lon": -77.00101533333333, "is_disabled": 0, "bike_id": "9270f86cbc903c5363c36397a1aac9ad", "is_reserved": 0, "rental_uris": {"android": "https://dc.lft.to/lastmile_qr_scan", "ios": "https://dc.lft.to/lastmile_qr_scan"}, "lat": 38.87659983333333}, {"type": "electric_scooter", "name": "37f3c25a8ecc31091893fff42a80211f", "fusion_lat": 0.0, "fusion_lon": 0.0, "lon": -77.00597133333333, "is_disabled": 0, "bike_id": "37f3c25a8ecc31091893fff42a80211f", "is_reserved": 0, "rental_uris": {"android": "https://dc.lft.to/lastmile_qr_scan", "ios": "https://dc.lft.to/lastmile_qr_scan"}, "lat": 38.875684}, {"type": "electric_scooter", "name": "b746f082ab5b48d8c56f17b5a4068222", "fusion_lat": 0.0, "fusion_lon": 0.0, "lon": -77.02799366666666, "is_disabled": 0, "bike_id": "b746f082ab5b48d8c56f17b5a4068222", "is_reserved": 0, "rental_uris": {"android": "https://dc.lft.to/lastmile_qr_scan", "ios": "https://dc.lft.to/lastmile_qr_scan"}, "lat": 38.923221}, {"type": "electric_scooter", "name": "7270e918e0c008c6f742780dfbb7c081", "fusion_lat": 0.0, "fusion_lon": 0.0, "lon": -77.02300033333333, "is_disabled": 0, "bike_id": "7270e918e0c008c6f742780dfbb7c081", "is_reserved": 0, "rental_uris": {"android": "https://dc.lft.to/lastmile_qr_scan", "ios": "https://dc.lft.to/lastmile_qr_scan"}, "lat": 38.96129783333333}, {"type": "electric_scooter", "name": "6e86aa1bda07206f68da7e8f0070a9b4", "fusion_lat": 0.0, "fusion_lon": 0.0, "lon": -76.9362515, "is_disabled": 0, "bike_id": "6e86aa1bda07206f68da7e8f0070a9b4", "is_reserved": 0, "rental_uris": {"android": "https://dc.lft.to/lastmile_qr_scan", "ios": "https://dc.lft.to/lastmile_qr_scan"}, "lat": 38.883503166666664}, {"type": "electric_scooter", "name": "385fd0c97f20d4bb2bb7fa30a7dbc6ae", "fusion_lat": 0.0, "fusion_lon": 0.0, "lon": -77.01438733333333, "is_disabled": 0, "bike_id": "385fd0c97f20d4bb2bb7fa30a7dbc6ae", "is_reserved": 0, "rental_uris": {"android": "https://dc.lft.to/lastmile_qr_scan", "ios": "https://dc.lft.to/lastmile_qr_scan"}, "lat": 38.90957933333333}, {"type": "electric_scooter", "name": "cb4d4251ee16d917691bd087ca2876f1", "fusion_lat": 0.0, "fusion_lon": 0.0, "lon": -77.03638333333333, "is_disabled": 0, "bike_id": "cb4d4251ee16d917691bd087ca2876f1", "is_reserved": 0, "rental_uris": {"android": "https://dc.lft.to/lastmile_qr_scan", "ios": "https://dc.lft.to/lastmile_qr_scan"}, "lat": 38.930594666666664}, {"type": "electric_scooter", "name": "eb0d082b591e00b84c07d9410e3437cd", "fusion_lat": 0.0, "fusion_lon": 0.0, "lon": -77.02495233333333, "is_disabled": 0, "bike_id": "eb0d082b591e00b84c07d9410e3437cd", "is_reserved": 0, "rental_uris": {"android": "https://dc.lft.to/lastmile_qr_scan", "ios": "https://dc.lft.to/lastmile_qr_scan"}, "lat": 38.935657666666664}, {"type": "electric_scooter", "name": "ab97c90b8488e844dce64feb61ee80c2", "fusion_lat": 0.0, "fusion_lon": 0.0, "lon": -77.002024, "is_disabled": 0, "bike_id": "ab97c90b8488e844dce64feb61ee80c2", "is_reserved": 0, "rental_uris": {"android": "https://dc.lft.to/lastmile_qr_scan", "ios": "https://dc.lft.to/lastmile_qr_scan"}, "lat": 38.90236266666667}, {"type": "electric_scooter", "name": "5a4ed42001a33de79b88ff1db4d8fc76", "fusion_lat": 0.0, "fusion_lon": 0.0, "lon": -77.02780833333334, "is_disabled": 0, "bike_id": "5a4ed42001a33de79b88ff1db4d8fc76", "is_reserved": 0, "rental_uris": {"android": "https://dc.lft.to/lastmile_qr_scan", "ios": "https://dc.lft.to/lastmile_qr_scan"}, "lat": 38.95612633333333}, {"type": "electric_scooter", "name": "9d38870289448aed8dd1a0f324db1bba", "fusion_lat": 0.0, "fusion_lon": 0.0, "lon": -76.9702945, "is_disabled": 0, "bike_id": "9d38870289448aed8dd1a0f324db1bba", "is_reserved": 0, "rental_uris": {"android": "https://dc.lft.to/lastmile_qr_scan", "ios": "https://dc.lft.to/lastmile_qr_scan"}, "lat": 38.873183}, {"type": "electric_scooter", "name": "9adfa0cf9f56a26824f6070bc009a98b", "fusion_lat": 0.0, "fusion_lon": 0.0, "lon": -76.99773316666666, "is_disabled": 0, "bike_id": "9adfa0cf9f56a26824f6070bc009a98b", "is_reserved": 0, "rental_uris": {"android": "https://dc.lft.to/lastmile_qr_scan", "ios": "https://dc.lft.to/lastmile_qr_scan"}, "lat": 38.92295983333333}, {"type": "electric_scooter", "name": "3dc8a7d6b6dc102dec5fad64810562d1", "fusion_lat": 0.0, "fusion_lon": 0.0, "lon": -77.020764, "is_disabled": 0, "bike_id": "3dc8a7d6b6dc102dec5fad64810562d1", "is_reserved": 0, "rental_uris": {"android": "https://dc.lft.to/lastmile_qr_scan", "ios": "https://dc.lft.to/lastmile_qr_scan"}, "lat": 38.88190516666667}, {"type": "electric_bike", "name": "314bf93d2c282e6c283c7ce41468a0e9", "fusion_lat": 0.0, "fusion_lon": 0.0, "lon": -76.94223966666667, "is_disabled": 0, "bike_id": "314bf93d2c282e6c283c7ce41468a0e9", "is_reserved": 0, "rental_uris": {"android": "https://dc.lft.to/lastmile_qr_scan", "ios": "https://dc.lft.to/lastmile_qr_scan"}, "lat": 38.8904985}, {"type": "electric_bike", "name": "f44ae15ed0631094f8c329a25cc5fb89", "fusion_lat": 0.0, "fusion_lon": 0.0, "lon": -76.99373566666667, "is_disabled": 0, "bike_id": "f44ae15ed0631094f8c329a25cc5fb89", "is_reserved": 0, "rental_uris": {"android": "https://dc.lft.to/lastmile_qr_scan", "ios": "https://dc.lft.to/lastmile_qr_scan"}, "lat": 38.991011}, {"type": "electric_scooter", "name": "cf878b77efcf5b84662e5783e84114a3", "fusion_lat": 0.0, "fusion_lon": 0.0, "lon": -77.007458, "is_disabled": 0, "bike_id": "cf878b77efcf5b84662e5783e84114a3", "is_reserved": 0, "rental_uris": {"android": "https://dc.lft.to/lastmile_qr_scan", "ios": "https://dc.lft.to/lastmile_qr_scan"}, "lat": 38.87582533333333}, {"type": "electric_scooter", "name": "143a4f76f986ed9f6afabd728d669cbe", "fusion_lat": 0.0, "fusion_lon": 0.0, "lon": -77.036091, "is_disabled": 0, "bike_id": "143a4f76f986ed9f6afabd728d669cbe", "is_reserved": 0, "rental_uris": {"android": "https://dc.lft.to/lastmile_qr_scan", "ios": "https://dc.lft.to/lastmile_qr_scan"}, "lat": 38.93290016666667}, {"type": "electric_scooter", "name": "8aeb142b67661212f0d16e2a102128f7", "fusion_lat": 0.0, "fusion_lon": 0.0, "lon": -77.03841216666666, "is_disabled": 0, "bike_id": "8aeb142b67661212f0d16e2a102128f7", "is_reserved": 0, "rental_uris": {"android": "https://dc.lft.to/lastmile_qr_scan", "ios": "https://dc.lft.to/lastmile_qr_scan"}, "lat": 38.909923666666664}, {"type": "electric_scooter", "name": "6a91db6975bee0bc3506e8964df361c3", "fusion_lat": 0.0, "fusion_lon": 0.0, "lon": -77.01761683333334, "is_disabled": 0, "bike_id": "6a91db6975bee0bc3506e8964df361c3", "is_reserved": 0, "rental_uris": {"android": "https://dc.lft.to/lastmile_qr_scan", "ios": "https://dc.lft.to/lastmile_qr_scan"}, "lat": 38.876894666666665}, {"type": "electric_bike", "name": "9ca44ba5db3e2d4b5e63a55f2c69415b", "fusion_lat": 0.0, "fusion_lon": 0.0, "lon": -77.0669985, "is_disabled": 0, "bike_id": "9ca44ba5db3e2d4b5e63a55f2c69415b", "is_reserved": 0, "rental_uris": {"android": "https://dc.lft.to/lastmile_qr_scan", "ios": "https://dc.lft.to/lastmile_qr_scan"}, "lat": 38.83174133333333}, {"type": "electric_scooter", "name": "eff3a861145985d319c20aea96dfdf7d", "fusion_lat": 0.0, "fusion_lon": 0.0, "lon": -77.0417935, "is_disabled": 0, "bike_id": "eff3a861145985d319c20aea96dfdf7d", "is_reserved": 0, "rental_uris": {"android": "https://dc.lft.to/lastmile_qr_scan", "ios": "https://dc.lft.to/lastmile_qr_scan"}, "lat": 38.9204775}, {"type": "electric_scooter", "name": "8bb3f64317f15a36258ff1ea59e7296d", "fusion_lat": 0.0, "fusion_lon": 0.0, "lon": -77.03360583333334, "is_disabled": 0, "bike_id": "8bb3f64317f15a36258ff1ea59e7296d", "is_reserved": 0, "rental_uris": {"android": "https://dc.lft.to/lastmile_qr_scan", "ios": "https://dc.lft.to/lastmile_qr_scan"}, "lat": 38.9082955}, {"type": "electric_scooter", "name": "5cc1bb3f46c65a5f5bba0c3ae72f8642", "fusion_lat": 0.0, "fusion_lon": 0.0, "lon": -77.02163016666667, "is_disabled": 0, "bike_id": "5cc1bb3f46c65a5f5bba0c3ae72f8642", "is_reserved": 0, "rental_uris": {"android": "https://dc.lft.to/lastmile_qr_scan", "ios": "https://dc.lft.to/lastmile_qr_scan"}, "lat": 38.8973065}, {"type": "electric_scooter", "name": "cbdc3d509716f18dafdef6c855b3e171", "fusion_lat": 0.0, "fusion_lon": 0.0, "lon": -77.03835633333334, "is_disabled": 0, "bike_id": "cbdc3d509716f18dafdef6c855b3e171", "is_reserved": 0, "rental_uris": {"android": "https://dc.lft.to/lastmile_qr_scan", "ios": "https://dc.lft.to/lastmile_qr_scan"}, "lat": 38.907316333333334}, {"type": "electric_scooter", "name": "97feec1643e095409ad4d67bff7f2b9f", "fusion_lat": 0.0, "fusion_lon": 0.0, "lon": -77.0074175, "is_disabled": 0, "bike_id": "97feec1643e095409ad4d67bff7f2b9f", "is_reserved": 0, "rental_uris": {"android": "https://dc.lft.to/lastmile_qr_scan", "ios": "https://dc.lft.to/lastmile_qr_scan"}, "lat": 38.92529583333334}, {"type": "electric_scooter", "name": "7efad0d387e11779069cdea6e9843436", "fusion_lat": 0.0, "fusion_lon": 0.0, "lon": -77.048818, "is_disabled": 0, "bike_id": "7efad0d387e11779069cdea6e9843436", "is_reserved": 0, "rental_uris": {"android": "https://dc.lft.to/lastmile_qr_scan", "ios": "https://dc.lft.to/lastmile_qr_scan"}, "lat": 38.91612816666667}, {"type": "electric_scooter", "name": "afaa16d58f6a260b0e012a34485411c5", "fusion_lat": 0.0, "fusion_lon": 0.0, "lon": -77.02726466666667, "is_disabled": 0, "bike_id": "afaa16d58f6a260b0e012a34485411c5", "is_reserved": 0, "rental_uris": {"android": "https://dc.lft.to/lastmile_qr_scan", "ios": "https://dc.lft.to/lastmile_qr_scan"}, "lat": 38.92397183333333}, {"type": "electric_scooter", "name": "e939710c4474189b51a45e048bbaa5de", "fusion_lat": 0.0, "fusion_lon": 0.0, "lon": -77.03534833333333, "is_disabled": 0, "bike_id": "e939710c4474189b51a45e048bbaa5de", "is_reserved": 0, "rental_uris": {"android": "https://dc.lft.to/lastmile_qr_scan", "ios": "https://dc.lft.to/lastmile_qr_scan"}, "lat": 38.92472016666667}, {"type": "electric_scooter", "name": "3f8317a63e2188764199272161cb6f84", "fusion_lat": 0.0, "fusion_lon": 0.0, "lon": -77.02179683333334, "is_disabled": 0, "bike_id": "3f8317a63e2188764199272161cb6f84", "is_reserved": 0, "rental_uris": {"android": "https://dc.lft.to/lastmile_qr_scan", "ios": "https://dc.lft.to/lastmile_qr_scan"}, "lat": 38.90954816666667}, {"type": "electric_scooter", "name": "a853411f096642160d2aa6e12c2f1907", "fusion_lat": 0.0, "fusion_lon": 0.0, "lon": -77.047558, "is_disabled": 0, "bike_id": "a853411f096642160d2aa6e12c2f1907", "is_reserved": 0, "rental_uris": {"android": "https://dc.lft.to/lastmile_qr_scan", "ios": "https://dc.lft.to/lastmile_qr_scan"}, "lat": 38.9409605}, {"type": "electric_scooter", "name": "4d5e4df82c7f4b01c25141cee958cd83", "fusion_lat": 0.0, "fusion_lon": 0.0, "lon": -77.03211783333333, "is_disabled": 0, "bike_id": "4d5e4df82c7f4b01c25141cee958cd83", "is_reserved": 0, "rental_uris": {"android": "https://dc.lft.to/lastmile_qr_scan", "ios": "https://dc.lft.to/lastmile_qr_scan"}, "lat": 38.8847295}, {"type": "electric_scooter", "name": "b3e79ab97ec5733f43586dc05f7c1f87", "fusion_lat": 0.0, "fusion_lon": 0.0, "lon": -77.024685, "is_disabled": 0, "bike_id": "b3e79ab97ec5733f43586dc05f7c1f87", "is_reserved": 0, "rental_uris": {"android": "https://dc.lft.to/lastmile_qr_scan", "ios": "https://dc.lft.to/lastmile_qr_scan"}, "lat": 38.938615666666664}, {"type": "electric_scooter", "name": "e36dfaf153f8f9a51208b7c69e159a79", "fusion_lat": 0.0, "fusion_lon": 0.0, "lon": -77.0318265, "is_disabled": 0, "bike_id": "e36dfaf153f8f9a51208b7c69e159a79", "is_reserved": 0, "rental_uris": {"android": "https://dc.lft.to/lastmile_qr_scan", "ios": "https://dc.lft.to/lastmile_qr_scan"}, "lat": 38.91421716666667}, {"type": "electric_scooter", "name": "5c0008e16389dbe295fc6fcec1161499", "fusion_lat": 0.0, "fusion_lon": 0.0, "lon": -77.02064366666667, "is_disabled": 0, "bike_id": "5c0008e16389dbe295fc6fcec1161499", "is_reserved": 0, "rental_uris": {"android": "https://dc.lft.to/lastmile_qr_scan", "ios": "https://dc.lft.to/lastmile_qr_scan"}, "lat": 38.90846233333333}, {"type": "electric_bike", "name": "bf4fa0e942aeb3a2fdc87bb0fc1f0bb5", "fusion_lat": 0.0, "fusion_lon": 0.0, "lon": -76.90737766666666, "is_disabled": 0, "bike_id": "bf4fa0e942aeb3a2fdc87bb0fc1f0bb5", "is_reserved": 0, "rental_uris": {"android": "https://dc.lft.to/lastmile_qr_scan", "ios": "https://dc.lft.to/lastmile_qr_scan"}, "lat": 38.896198166666665}, {"type": "electric_scooter", "name": "4ad011e61fdef9f96056f5d2839da0fa", "fusion_lat": 0.0, "fusion_lon": 0.0, "lon": -77.0280235, "is_disabled": 0, "bike_id": "4ad011e61fdef9f96056f5d2839da0fa", "is_reserved": 0, "rental_uris": {"android": "https://dc.lft.to/lastmile_qr_scan", "ios": "https://dc.lft.to/lastmile_qr_scan"}, "lat": 38.93079683333333}, {"type": "electric_scooter", "name": "654b0d1ac099480a1cca56fe710364a0", "fusion_lat": 0.0, "fusion_lon": 0.0, "lon": -77.0082525, "is_disabled": 0, "bike_id": "654b0d1ac099480a1cca56fe710364a0", "is_reserved": 0, "rental_uris": {"android": "https://dc.lft.to/lastmile_qr_scan", "ios": "https://dc.lft.to/lastmile_qr_scan"}, "lat": 38.91370283333333}, {"type": "electric_scooter", "name": "947b799084b09f4090ce2c08e11d8235", "fusion_lat": 0.0, "fusion_lon": 0.0, "lon": -77.00535816666667, "is_disabled": 0, "bike_id": "947b799084b09f4090ce2c08e11d8235", "is_reserved": 0, "rental_uris": {"android": "https://dc.lft.to/lastmile_qr_scan", "ios": "https://dc.lft.to/lastmile_qr_scan"}, "lat": 38.87481566666666}, {"type": "electric_scooter", "name": "64c972a8e14a03f195da444668f2593d", "fusion_lat": 0.0, "fusion_lon": 0.0, "lon": -77.0054885, "is_disabled": 0, "bike_id": "64c972a8e14a03f195da444668f2593d", "is_reserved": 0, "rental_uris": {"android": "https://dc.lft.to/lastmile_qr_scan", "ios": "https://dc.lft.to/lastmile_qr_scan"}, "lat": 38.879131666666666}, {"type": "electric_scooter", "name": "1b1754b8572220f5325637b29ad5a987", "fusion_lat": 0.0, "fusion_lon": 0.0, "lon": -77.02252233333333, "is_disabled": 0, "bike_id": "1b1754b8572220f5325637b29ad5a987", "is_reserved": 0, "rental_uris": {"android": "https://dc.lft.to/lastmile_qr_scan", "ios": "https://dc.lft.to/lastmile_qr_scan"}, "lat": 38.894744333333335}, {"type": "electric_scooter", "name": "7f1ca9640d0c9ae85dd9b1263b137ba3", "fusion_lat": 0.0, "fusion_lon": 0.0, "lon": -77.04866866666667, "is_disabled": 0, "bike_id": "7f1ca9640d0c9ae85dd9b1263b137ba3", "is_reserved": 0, "rental_uris": {"android": "https://dc.lft.to/lastmile_qr_scan", "ios": "https://dc.lft.to/lastmile_qr_scan"}, "lat": 38.911017}, {"type": "electric_scooter", "name": "5bb0997ba9c9ae770445a02580be477b", "fusion_lat": 0.0, "fusion_lon": 0.0, "lon": -77.02319666666666, "is_disabled": 0, "bike_id": "5bb0997ba9c9ae770445a02580be477b", "is_reserved": 0, "rental_uris": {"android": "https://dc.lft.to/lastmile_qr_scan", "ios": "https://dc.lft.to/lastmile_qr_scan"}, "lat": 38.93061616666667}, {"type": "electric_scooter", "name": "9724f6dfbc8390964b97d70351771a2a", "fusion_lat": 0.0, "fusion_lon": 0.0, "lon": -77.03461266666666, "is_disabled": 0, "bike_id": "9724f6dfbc8390964b97d70351771a2a", "is_reserved": 0, "rental_uris": {"android": "https://dc.lft.to/lastmile_qr_scan", "ios": "https://dc.lft.to/lastmile_qr_scan"}, "lat": 38.91723433333333}, {"type": "electric_scooter", "name": "1308aebc3dfcfc2516d639e59130d2ed", "fusion_lat": 0.0, "fusion_lon": 0.0, "lon": -77.04867866666666, "is_disabled": 0, "bike_id": "1308aebc3dfcfc2516d639e59130d2ed", "is_reserved": 0, "rental_uris": {"android": "https://dc.lft.to/lastmile_qr_scan", "ios": "https://dc.lft.to/lastmile_qr_scan"}, "lat": 38.909099499999996}, {"type": "electric_scooter", "name": "55f23c5fa610c74d885b6dc0d638e481", "fusion_lat": 0.0, "fusion_lon": 0.0, "lon": -77.04161316666666, "is_disabled": 0, "bike_id": "55f23c5fa610c74d885b6dc0d638e481", "is_reserved": 0, "rental_uris": {"android": "https://dc.lft.to/lastmile_qr_scan", "ios": "https://dc.lft.to/lastmile_qr_scan"}, "lat": 38.920157833333334}, {"type": "electric_scooter", "name": "cea16cf698700d358b7b3508922b277b", "fusion_lat": 0.0, "fusion_lon": 0.0, "lon": -77.02226883333333, "is_disabled": 0, "bike_id": "cea16cf698700d358b7b3508922b277b", "is_reserved": 0, "rental_uris": {"android": "https://dc.lft.to/lastmile_qr_scan", "ios": "https://dc.lft.to/lastmile_qr_scan"}, "lat": 38.9127175}, {"type": "electric_scooter", "name": "e135e66ea914f1f3d2ba7b4d36283aa8", "fusion_lat": 0.0, "fusion_lon": 0.0, "lon": -76.99908716666667, "is_disabled": 0, "bike_id": "e135e66ea914f1f3d2ba7b4d36283aa8", "is_reserved": 0, "rental_uris": {"android": "https://dc.lft.to/lastmile_qr_scan", "ios": "https://dc.lft.to/lastmile_qr_scan"}, "lat": 38.93746683333333}, {"type": "electric_scooter", "name": "3750fdc7aa126459d53816eac2cd98fe", "fusion_lat": 0.0, "fusion_lon": 0.0, "lon": -76.98354166666667, "is_disabled": 0, "bike_id": "3750fdc7aa126459d53816eac2cd98fe", "is_reserved": 0, "rental_uris": {"android": "https://dc.lft.to/lastmile_qr_scan", "ios": "https://dc.lft.to/lastmile_qr_scan"}, "lat": 38.88745816666667}, {"type": "electric_scooter", "name": "a0e5770986ed5e6cd5dadb631e27ba60", "fusion_lat": 0.0, "fusion_lon": 0.0, "lon": -77.03387716666667, "is_disabled": 0, "bike_id": "a0e5770986ed5e6cd5dadb631e27ba60", "is_reserved": 0, "rental_uris": {"android": "https://dc.lft.to/lastmile_qr_scan", "ios": "https://dc.lft.to/lastmile_qr_scan"}, "lat": 38.901435666666664}, {"type": "electric_bike", "name": "b7c35b6a57efd55dca09e04ed214773b", "fusion_lat": 0.0, "fusion_lon": 0.0, "lon": -76.98689633333333, "is_disabled": 0, "bike_id": "b7c35b6a57efd55dca09e04ed214773b", "is_reserved": 0, "rental_uris": {"android": "https://dc.lft.to/lastmile_qr_scan", "ios": "https://dc.lft.to/lastmile_qr_scan"}, "lat": 38.944776166666664}, {"type": "electric_scooter", "name": "8438a0648d22f128912dd1a45744fdd1", "fusion_lat": 0.0, "fusion_lon": 0.0, "lon": -77.01080583333334, "is_disabled": 0, "bike_id": "8438a0648d22f128912dd1a45744fdd1", "is_reserved": 0, "rental_uris": {"android": "https://dc.lft.to/lastmile_qr_scan", "ios": "https://dc.lft.to/lastmile_qr_scan"}, "lat": 38.903329}, {"type": "electric_scooter", "name": "f996801d0cc745fcdfdffa719b16be18", "fusion_lat": 0.0, "fusion_lon": 0.0, "lon": -77.036222, "is_disabled": 0, "bike_id": "f996801d0cc745fcdfdffa719b16be18", "is_reserved": 0, "rental_uris": {"android": "https://dc.lft.to/lastmile_qr_scan", "ios": "https://dc.lft.to/lastmile_qr_scan"}, "lat": 38.90342866666667}, {"type": "electric_scooter", "name": "56602e92c04f1f2b2cec6bcba442849b", "fusion_lat": 0.0, "fusion_lon": 0.0, "lon": -77.03655433333333, "is_disabled": 0, "bike_id": "56602e92c04f1f2b2cec6bcba442849b", "is_reserved": 0, "rental_uris": {"android": "https://dc.lft.to/lastmile_qr_scan", "ios": "https://dc.lft.to/lastmile_qr_scan"}, "lat": 38.920469}, {"type": "electric_scooter", "name": "cc8b1a95092b0735d18b1ee7c794f3bc", "fusion_lat": 0.0, "fusion_lon": 0.0, "lon": -77.02174733333334, "is_disabled": 0, "bike_id": "cc8b1a95092b0735d18b1ee7c794f3bc", "is_reserved": 0, "rental_uris": {"android": "https://dc.lft.to/lastmile_qr_scan", "ios": "https://dc.lft.to/lastmile_qr_scan"}, "lat": 38.911108166666665}, {"type": "electric_scooter", "name": "53f261f7a03323df974c73691a017fc3", "fusion_lat": 0.0, "fusion_lon": 0.0, "lon": -77.03417533333334, "is_disabled": 0, "bike_id": "53f261f7a03323df974c73691a017fc3", "is_reserved": 0, "rental_uris": {"android": "https://dc.lft.to/lastmile_qr_scan", "ios": "https://dc.lft.to/lastmile_qr_scan"}, "lat": 38.91927316666667}, {"type": "electric_scooter", "name": "d58db069049ba1f730a4ebf2ec1edf27", "fusion_lat": 0.0, "fusion_lon": 0.0, "lon": -77.02274616666666, "is_disabled": 0, "bike_id": "d58db069049ba1f730a4ebf2ec1edf27", "is_reserved": 0, "rental_uris": {"android": "https://dc.lft.to/lastmile_qr_scan", "ios": "https://dc.lft.to/lastmile_qr_scan"}, "lat": 38.898411833333334}, {"type": "electric_scooter", "name": "d9053cb694078cdbad68e3fc6287cdcd", "fusion_lat": 0.0, "fusion_lon": 0.0, "lon": -77.02888216666666, "is_disabled": 0, "bike_id": "d9053cb694078cdbad68e3fc6287cdcd", "is_reserved": 0, "rental_uris": {"android": "https://dc.lft.to/lastmile_qr_scan", "ios": "https://dc.lft.to/lastmile_qr_scan"}, "lat": 38.936075833333334}, {"type": "electric_scooter", "name": "65bdc5f89862279cddbe3be4cb4dc9d3", "fusion_lat": 0.0, "fusion_lon": 0.0, "lon": -77.02943866666666, "is_disabled": 0, "bike_id": "65bdc5f89862279cddbe3be4cb4dc9d3", "is_reserved": 0, "rental_uris": {"android": "https://dc.lft.to/lastmile_qr_scan", "ios": "https://dc.lft.to/lastmile_qr_scan"}, "lat": 38.9072645}, {"type": "electric_bike", "name": "c5a2f578a12ea6e9add818ccbf3d18f6", "fusion_lat": 0.0, "fusion_lon": 0.0, "lon": -77.030173, "is_disabled": 0, "bike_id": "c5a2f578a12ea6e9add818ccbf3d18f6", "is_reserved": 0, "rental_uris": {"android": "https://dc.lft.to/lastmile_qr_scan", "ios": "https://dc.lft.to/lastmile_qr_scan"}, "lat": 38.90019366666667}, {"type": "electric_scooter", "name": "aa435c1a2c02156e18ee86fa27041240", "fusion_lat": 0.0, "fusion_lon": 0.0, "lon": -76.98083666666666, "is_disabled": 0, "bike_id": "aa435c1a2c02156e18ee86fa27041240", "is_reserved": 0, "rental_uris": {"android": "https://dc.lft.to/lastmile_qr_scan", "ios": "https://dc.lft.to/lastmile_qr_scan"}, "lat": 38.894426833333334}, {"type": "electric_scooter", "name": "06fe8f2a7a94d5398e7f75e684742227", "fusion_lat": 0.0, "fusion_lon": 0.0, "lon": -77.0344745, "is_disabled": 0, "bike_id": "06fe8f2a7a94d5398e7f75e684742227", "is_reserved": 0, "rental_uris": {"android": "https://dc.lft.to/lastmile_qr_scan", "ios": "https://dc.lft.to/lastmile_qr_scan"}, "lat": 38.91403416666667}, {"type": "electric_scooter", "name": "11d473bcfb8b138b6a57a2da9adaac8a", "fusion_lat": 0.0, "fusion_lon": 0.0, "lon": -77.0336955, "is_disabled": 0, "bike_id": "11d473bcfb8b138b6a57a2da9adaac8a", "is_reserved": 0, "rental_uris": {"android": "https://dc.lft.to/lastmile_qr_scan", "ios": "https://dc.lft.to/lastmile_qr_scan"}, "lat": 38.900484}, {"type": "electric_bike", "name": "535b7d18341c4ae156965a7508e5d3c5", "fusion_lat": 0.0, "fusion_lon": 0.0, "lon": -76.98347566666666, "is_disabled": 0, "bike_id": "535b7d18341c4ae156965a7508e5d3c5", "is_reserved": 0, "rental_uris": {"android": "https://dc.lft.to/lastmile_qr_scan", "ios": "https://dc.lft.to/lastmile_qr_scan"}, "lat": 38.8625915}, {"type": "electric_scooter", "name": "ffa4c8a0fb105740b49f712b9113acad", "fusion_lat": 0.0, "fusion_lon": 0.0, "lon": -76.98003433333334, "is_disabled": 0, "bike_id": "ffa4c8a0fb105740b49f712b9113acad", "is_reserved": 0, "rental_uris": {"android": "https://dc.lft.to/lastmile_qr_scan", "ios": "https://dc.lft.to/lastmile_qr_scan"}, "lat": 38.90239483333333}, {"type": "electric_scooter", "name": "ed69736f61a3e206a0f6f1c135d9ccff", "fusion_lat": 0.0, "fusion_lon": 0.0, "lon": -77.04234083333333, "is_disabled": 0, "bike_id": "ed69736f61a3e206a0f6f1c135d9ccff", "is_reserved": 0, "rental_uris": {"android": "https://dc.lft.to/lastmile_qr_scan", "ios": "https://dc.lft.to/lastmile_qr_scan"}, "lat": 38.911214}, {"type": "electric_scooter", "name": "8f6b1779b789652114c3d50f47991c3d", "fusion_lat": 0.0, "fusion_lon": 0.0, "lon": -77.0384805, "is_disabled": 0, "bike_id": "8f6b1779b789652114c3d50f47991c3d", "is_reserved": 0, "rental_uris": {"android": "https://dc.lft.to/lastmile_qr_scan", "ios": "https://dc.lft.to/lastmile_qr_scan"}, "lat": 38.923170166666665}, {"type": "electric_scooter", "name": "70dd8614b99c35a975a7692c0a7b3342", "fusion_lat": 0.0, "fusion_lon": 0.0, "lon": -77.01625333333334, "is_disabled": 0, "bike_id": "70dd8614b99c35a975a7692c0a7b3342", "is_reserved": 0, "rental_uris": {"android": "https://dc.lft.to/lastmile_qr_scan", "ios": "https://dc.lft.to/lastmile_qr_scan"}, "lat": 38.8873385}, {"type": "electric_scooter", "name": "ad84e3ea9e60dfe816644c7c1ceba337", "fusion_lat": 0.0, "fusion_lon": 0.0, "lon": -77.04171666666667, "is_disabled": 0, "bike_id": "ad84e3ea9e60dfe816644c7c1ceba337", "is_reserved": 0, "rental_uris": {"android": "https://dc.lft.to/lastmile_qr_scan", "ios": "https://dc.lft.to/lastmile_qr_scan"}, "lat": 38.918171}, {"type": "electric_scooter", "name": "e24a0195e22f50e58f0aa67bc62c291b", "fusion_lat": 0.0, "fusion_lon": 0.0, "lon": -77.0590385, "is_disabled": 0, "bike_id": "e24a0195e22f50e58f0aa67bc62c291b", "is_reserved": 0, "rental_uris": {"android": "https://dc.lft.to/lastmile_qr_scan", "ios": "https://dc.lft.to/lastmile_qr_scan"}, "lat": 38.90154}, {"type": "electric_scooter", "name": "7482a491fd3fab88b4ec53d303f78837", "fusion_lat": 0.0, "fusion_lon": 0.0, "lon": -76.983362, "is_disabled": 0, "bike_id": "7482a491fd3fab88b4ec53d303f78837", "is_reserved": 0, "rental_uris": {"android": "https://dc.lft.to/lastmile_qr_scan", "ios": "https://dc.lft.to/lastmile_qr_scan"}, "lat": 38.89542083333333}, {"type": "electric_scooter", "name": "3934c8bd599495775ae9f2974a4b18d8", "fusion_lat": 0.0, "fusion_lon": 0.0, "lon": -77.04571466666667, "is_disabled": 0, "bike_id": "3934c8bd599495775ae9f2974a4b18d8", "is_reserved": 0, "rental_uris": {"android": "https://dc.lft.to/lastmile_qr_scan", "ios": "https://dc.lft.to/lastmile_qr_scan"}, "lat": 38.90378583333333}, {"type": "electric_scooter", "name": "7395756fa1500f0c97ae1baaff55e40e", "fusion_lat": 0.0, "fusion_lon": 0.0, "lon": -77.0005415, "is_disabled": 0, "bike_id": "7395756fa1500f0c97ae1baaff55e40e", "is_reserved": 0, "rental_uris": {"android": "https://dc.lft.to/lastmile_qr_scan", "ios": "https://dc.lft.to/lastmile_qr_scan"}, "lat": 38.878845}, {"type": "electric_scooter", "name": "5f307d75d493df657a5fb5240df07b22", "fusion_lat": 0.0, "fusion_lon": 0.0, "lon": -77.03663033333333, "is_disabled": 0, "bike_id": "5f307d75d493df657a5fb5240df07b22", "is_reserved": 0, "rental_uris": {"android": "https://dc.lft.to/lastmile_qr_scan", "ios": "https://dc.lft.to/lastmile_qr_scan"}, "lat": 38.918139333333336}, {"type": "electric_scooter", "name": "a6eecb674038ef688a7b3189f2e77bf3", "fusion_lat": 0.0, "fusion_lon": 0.0, "lon": -76.9834155, "is_disabled": 0, "bike_id": "a6eecb674038ef688a7b3189f2e77bf3", "is_reserved": 0, "rental_uris": {"android": "https://dc.lft.to/lastmile_qr_scan", "ios": "https://dc.lft.to/lastmile_qr_scan"}, "lat": 38.900924833333335}, {"type": "electric_scooter", "name": "87cb72f06aab6f8e7bb6ffaf12604987", "fusion_lat": 0.0, "fusion_lon": 0.0, "lon": -77.02598183333333, "is_disabled": 0, "bike_id": "87cb72f06aab6f8e7bb6ffaf12604987", "is_reserved": 0, "rental_uris": {"android": "https://dc.lft.to/lastmile_qr_scan", "ios": "https://dc.lft.to/lastmile_qr_scan"}, "lat": 38.90339383333333}, {"type": "electric_scooter", "name": "ac894210917824df33fd1581bdcb4471", "fusion_lat": 0.0, "fusion_lon": 0.0, "lon": -77.024934, "is_disabled": 0, "bike_id": "ac894210917824df33fd1581bdcb4471", "is_reserved": 0, "rental_uris": {"android": "https://dc.lft.to/lastmile_qr_scan", "ios": "https://dc.lft.to/lastmile_qr_scan"}, "lat": 38.905708}, {"type": "electric_scooter", "name": "49ae4dedc47f1fede7201ae667bbcfbf", "fusion_lat": 0.0, "fusion_lon": 0.0, "lon": -77.010655, "is_disabled": 0, "bike_id": "49ae4dedc47f1fede7201ae667bbcfbf", "is_reserved": 0, "rental_uris": {"android": "https://dc.lft.to/lastmile_qr_scan", "ios": "https://dc.lft.to/lastmile_qr_scan"}, "lat": 38.91811366666667}, {"type": "electric_bike", "name": "12377dc40a49758a0e9231bba4a787d0", "fusion_lat": 0.0, "fusion_lon": 0.0, "lon": -76.994847, "is_disabled": 0, "bike_id": "12377dc40a49758a0e9231bba4a787d0", "is_reserved": 0, "rental_uris": {"android": "https://dc.lft.to/lastmile_qr_scan", "ios": "https://dc.lft.to/lastmile_qr_scan"}, "lat": 38.93834366666667}, {"type": "electric_scooter", "name": "6181e8cca0fd8e52dee248704b2d30de", "fusion_lat": 0.0, "fusion_lon": 0.0, "lon": -77.04767116666666, "is_disabled": 0, "bike_id": "6181e8cca0fd8e52dee248704b2d30de", "is_reserved": 0, "rental_uris": {"android": "https://dc.lft.to/lastmile_qr_scan", "ios": "https://dc.lft.to/lastmile_qr_scan"}, "lat": 38.917577333333334}, {"type": "electric_scooter", "name": "9636b8f3daf37d7ccfce9e41e077049f", "fusion_lat": 0.0, "fusion_lon": 0.0, "lon": -77.060363, "is_disabled": 0, "bike_id": "9636b8f3daf37d7ccfce9e41e077049f", "is_reserved": 0, "rental_uris": {"android": "https://dc.lft.to/lastmile_qr_scan", "ios": "https://dc.lft.to/lastmile_qr_scan"}, "lat": 38.902441}, {"type": "electric_scooter", "name": "95b0f9bd0160c1dd4a0bdb225b6b353b", "fusion_lat": 0.0, "fusion_lon": 0.0, "lon": -77.040472, "is_disabled": 0, "bike_id": "95b0f9bd0160c1dd4a0bdb225b6b353b", "is_reserved": 0, "rental_uris": {"android": "https://dc.lft.to/lastmile_qr_scan", "ios": "https://dc.lft.to/lastmile_qr_scan"}, "lat": 38.899222333333334}, {"type": "electric_scooter", "name": "64c270fa74b084486f68d7657842998d", "fusion_lat": 0.0, "fusion_lon": 0.0, "lon": -77.04150416666667, "is_disabled": 0, "bike_id": "64c270fa74b084486f68d7657842998d", "is_reserved": 0, "rental_uris": {"android": "https://dc.lft.to/lastmile_qr_scan", "ios": "https://dc.lft.to/lastmile_qr_scan"}, "lat": 38.90144266666667}, {"type": "electric_scooter", "name": "39d267ab045fcefef09cc75bf7a8bf8c", "fusion_lat": 0.0, "fusion_lon": 0.0, "lon": -77.02944033333333, "is_disabled": 0, "bike_id": "39d267ab045fcefef09cc75bf7a8bf8c", "is_reserved": 0, "rental_uris": {"android": "https://dc.lft.to/lastmile_qr_scan", "ios": "https://dc.lft.to/lastmile_qr_scan"}, "lat": 38.91680483333333}, {"type": "electric_scooter", "name": "ce3ba0dc562d2106124964d3d6549a03", "fusion_lat": 0.0, "fusion_lon": 0.0, "lon": -77.05078283333333, "is_disabled": 0, "bike_id": "ce3ba0dc562d2106124964d3d6549a03", "is_reserved": 0, "rental_uris": {"android": "https://dc.lft.to/lastmile_qr_scan", "ios": "https://dc.lft.to/lastmile_qr_scan"}, "lat": 38.90374716666667}, {"type": "electric_scooter", "name": "485043e52048cd24b2c60130576f9b4f", "fusion_lat": 0.0, "fusion_lon": 0.0, "lon": -77.037861, "is_disabled": 0, "bike_id": "485043e52048cd24b2c60130576f9b4f", "is_reserved": 0, "rental_uris": {"android": "https://dc.lft.to/lastmile_qr_scan", "ios": "https://dc.lft.to/lastmile_qr_scan"}, "lat": 38.92506183333333}, {"type": "electric_scooter", "name": "f0e82810357ba94a12533eceefadcd34", "fusion_lat": 0.0, "fusion_lon": 0.0, "lon": -77.0461415, "is_disabled": 0, "bike_id": "f0e82810357ba94a12533eceefadcd34", "is_reserved": 0, "rental_uris": {"android": "https://dc.lft.to/lastmile_qr_scan", "ios": "https://dc.lft.to/lastmile_qr_scan"}, "lat": 38.92235516666667}, {"type": "electric_scooter", "name": "227d28a99aacd2aaaec6447eedaecd26", "fusion_lat": 0.0, "fusion_lon": 0.0, "lon": -77.034579, "is_disabled": 0, "bike_id": "227d28a99aacd2aaaec6447eedaecd26", "is_reserved": 0, "rental_uris": {"android": "https://dc.lft.to/lastmile_qr_scan", "ios": "https://dc.lft.to/lastmile_qr_scan"}, "lat": 38.909308833333334}, {"type": "electric_scooter", "name": "62cbfcc5c7809ea1b8d9317d6d75b947", "fusion_lat": 0.0, "fusion_lon": 0.0, "lon": -77.04029833333334, "is_disabled": 0, "bike_id": "62cbfcc5c7809ea1b8d9317d6d75b947", "is_reserved": 0, "rental_uris": {"android": "https://dc.lft.to/lastmile_qr_scan", "ios": "https://dc.lft.to/lastmile_qr_scan"}, "lat": 38.91807433333334}, {"type": "electric_scooter", "name": "c4b5e5889a3319c1a2d54901ea55265c", "fusion_lat": 0.0, "fusion_lon": 0.0, "lon": -77.04214316666666, "is_disabled": 0, "bike_id": "c4b5e5889a3319c1a2d54901ea55265c", "is_reserved": 0, "rental_uris": {"android": "https://dc.lft.to/lastmile_qr_scan", "ios": "https://dc.lft.to/lastmile_qr_scan"}, "lat": 38.92132983333333}, {"type": "electric_bike", "name": "ddeebe131b89765806c10f0e5e37b44a", "fusion_lat": 0.0, "fusion_lon": 0.0, "lon": -76.98012983333334, "is_disabled": 0, "bike_id": "ddeebe131b89765806c10f0e5e37b44a", "is_reserved": 0, "rental_uris": {"android": "https://dc.lft.to/lastmile_qr_scan", "ios": "https://dc.lft.to/lastmile_qr_scan"}, "lat": 38.853246666666664}, {"type": "electric_scooter", "name": "a8082e3c1f2e5bcdb4cce5560f1c24cc", "fusion_lat": 0.0, "fusion_lon": 0.0, "lon": -77.02192033333333, "is_disabled": 0, "bike_id": "a8082e3c1f2e5bcdb4cce5560f1c24cc", "is_reserved": 0, "rental_uris": {"android": "https://dc.lft.to/lastmile_qr_scan", "ios": "https://dc.lft.to/lastmile_qr_scan"}, "lat": 38.90189066666667}, {"type": "electric_scooter", "name": "1b6087a29790555bf607a4bc6d52151a", "fusion_lat": 0.0, "fusion_lon": 0.0, "lon": -77.00578566666667, "is_disabled": 0, "bike_id": "1b6087a29790555bf607a4bc6d52151a", "is_reserved": 0, "rental_uris": {"android": "https://dc.lft.to/lastmile_qr_scan", "ios": "https://dc.lft.to/lastmile_qr_scan"}, "lat": 38.90269933333333}, {"type": "electric_scooter", "name": "af15f55994d223b26cb769319693be3f", "fusion_lat": 0.0, "fusion_lon": 0.0, "lon": -77.04168416666667, "is_disabled": 0, "bike_id": "af15f55994d223b26cb769319693be3f", "is_reserved": 0, "rental_uris": {"android": "https://dc.lft.to/lastmile_qr_scan", "ios": "https://dc.lft.to/lastmile_qr_scan"}, "lat": 38.913965}, {"type": "electric_scooter", "name": "4e69378796852eec99e7fbba216deec5", "fusion_lat": 0.0, "fusion_lon": 0.0, "lon": -76.98151566666667, "is_disabled": 0, "bike_id": "4e69378796852eec99e7fbba216deec5", "is_reserved": 0, "rental_uris": {"android": "https://dc.lft.to/lastmile_qr_scan", "ios": "https://dc.lft.to/lastmile_qr_scan"}, "lat": 38.89937883333333}, {"type": "electric_bike", "name": "4969cd55f07c75620fa172b3cce8f5cc", "fusion_lat": 0.0, "fusion_lon": 0.0, "lon": -76.98244083333333, "is_disabled": 0, "bike_id": "4969cd55f07c75620fa172b3cce8f5cc", "is_reserved": 0, "rental_uris": {"android": "https://dc.lft.to/lastmile_qr_scan", "ios": "https://dc.lft.to/lastmile_qr_scan"}, "lat": 38.95240883333334}, {"type": "electric_scooter", "name": "e8bc3686cf5b62f3a3727b070b63f00b", "fusion_lat": 0.0, "fusion_lon": 0.0, "lon": -77.00526833333333, "is_disabled": 0, "bike_id": "e8bc3686cf5b62f3a3727b070b63f00b", "is_reserved": 0, "rental_uris": {"android": "https://dc.lft.to/lastmile_qr_scan", "ios": "https://dc.lft.to/lastmile_qr_scan"}, "lat": 38.8764075}, {"type": "electric_scooter", "name": "4773d155f9740c10b2516fd64134a3e1", "fusion_lat": 0.0, "fusion_lon": 0.0, "lon": -77.0297925, "is_disabled": 0, "bike_id": "4773d155f9740c10b2516fd64134a3e1", "is_reserved": 0, "rental_uris": {"android": "https://dc.lft.to/lastmile_qr_scan", "ios": "https://dc.lft.to/lastmile_qr_scan"}, "lat": 38.9305875}, {"type": "electric_scooter", "name": "918d64dcf7dcfe0cee6e480098f78bb9", "fusion_lat": 0.0, "fusion_lon": 0.0, "lon": -77.04504633333333, "is_disabled": 0, "bike_id": "918d64dcf7dcfe0cee6e480098f78bb9", "is_reserved": 0, "rental_uris": {"android": "https://dc.lft.to/lastmile_qr_scan", "ios": "https://dc.lft.to/lastmile_qr_scan"}, "lat": 38.9127445}, {"type": "electric_scooter", "name": "2f920a315359a1381578c0f3adb572a4", "fusion_lat": 0.0, "fusion_lon": 0.0, "lon": -77.03329466666666, "is_disabled": 0, "bike_id": "2f920a315359a1381578c0f3adb572a4", "is_reserved": 0, "rental_uris": {"android": "https://dc.lft.to/lastmile_qr_scan", "ios": "https://dc.lft.to/lastmile_qr_scan"}, "lat": 38.90040616666667}, {"type": "electric_scooter", "name": "af89a7c66ab2cca943e61424c65ef9c5", "fusion_lat": 0.0, "fusion_lon": 0.0, "lon": -77.02149916666667, "is_disabled": 0, "bike_id": "af89a7c66ab2cca943e61424c65ef9c5", "is_reserved": 0, "rental_uris": {"android": "https://dc.lft.to/lastmile_qr_scan", "ios": "https://dc.lft.to/lastmile_qr_scan"}, "lat": 38.9030615}, {"type": "electric_scooter", "name": "7902a1729484a8286b5e477f4b88fd8d", "fusion_lat": 0.0, "fusion_lon": 0.0, "lon": -77.0449915, "is_disabled": 0, "bike_id": "7902a1729484a8286b5e477f4b88fd8d", "is_reserved": 0, "rental_uris": {"android": "https://dc.lft.to/lastmile_qr_scan", "ios": "https://dc.lft.to/lastmile_qr_scan"}, "lat": 38.912735166666664}, {"type": "electric_scooter", "name": "1f2d6dfa1284510b15ceec5ee02dc9d4", "fusion_lat": 0.0, "fusion_lon": 0.0, "lon": -77.03051783333333, "is_disabled": 0, "bike_id": "1f2d6dfa1284510b15ceec5ee02dc9d4", "is_reserved": 0, "rental_uris": {"android": "https://dc.lft.to/lastmile_qr_scan", "ios": "https://dc.lft.to/lastmile_qr_scan"}, "lat": 38.91935566666667}, {"type": "electric_bike", "name": "71e6aeb70a5f76233039addd63011fdd", "fusion_lat": 0.0, "fusion_lon": 0.0, "lon": -77.234096, "is_disabled": 0, "bike_id": "71e6aeb70a5f76233039addd63011fdd", "is_reserved": 0, "rental_uris": {"android": "https://dc.lft.to/lastmile_qr_scan", "ios": "https://dc.lft.to/lastmile_qr_scan"}, "lat": 38.87582366666667}, {"type": "electric_scooter", "name": "a3c3dc67a7587edd6eefae2e74c37c5d", "fusion_lat": 0.0, "fusion_lon": 0.0, "lon": -77.03609433333334, "is_disabled": 0, "bike_id": "a3c3dc67a7587edd6eefae2e74c37c5d", "is_reserved": 0, "rental_uris": {"android": "https://dc.lft.to/lastmile_qr_scan", "ios": "https://dc.lft.to/lastmile_qr_scan"}, "lat": 38.93488116666666}, {"type": "electric_scooter", "name": "8004f7e579c5894b9df4c39a198843cb", "fusion_lat": 0.0, "fusion_lon": 0.0, "lon": -77.0217355, "is_disabled": 0, "bike_id": "8004f7e579c5894b9df4c39a198843cb", "is_reserved": 0, "rental_uris": {"android": "https://dc.lft.to/lastmile_qr_scan", "ios": "https://dc.lft.to/lastmile_qr_scan"}, "lat": 38.911112}, {"type": "electric_scooter", "name": "e7307478262f43c94f2018f6dd8a2556", "fusion_lat": 0.0, "fusion_lon": 0.0, "lon": -77.03265366666666, "is_disabled": 0, "bike_id": "e7307478262f43c94f2018f6dd8a2556", "is_reserved": 0, "rental_uris": {"android": "https://dc.lft.to/lastmile_qr_scan", "ios": "https://dc.lft.to/lastmile_qr_scan"}, "lat": 38.933105166666664}, {"type": "electric_scooter", "name": "4234e1cac0d8310732ad543eb4dad695", "fusion_lat": 0.0, "fusion_lon": 0.0, "lon": -77.07343816666666, "is_disabled": 0, "bike_id": "4234e1cac0d8310732ad543eb4dad695", "is_reserved": 0, "rental_uris": {"android": "https://dc.lft.to/lastmile_qr_scan", "ios": "https://dc.lft.to/lastmile_qr_scan"}, "lat": 38.943242833333336}, {"type": "electric_scooter", "name": "1567777ab61440b1fcf7ab61986c068f", "fusion_lat": 0.0, "fusion_lon": 0.0, "lon": -77.021804, "is_disabled": 0, "bike_id": "1567777ab61440b1fcf7ab61986c068f", "is_reserved": 0, "rental_uris": {"android": "https://dc.lft.to/lastmile_qr_scan", "ios": "https://dc.lft.to/lastmile_qr_scan"}, "lat": 38.914842}, {"type": "electric_scooter", "name": "e3a1b4520b3ea12710a39da870fa13f2", "fusion_lat": 0.0, "fusion_lon": 0.0, "lon": -77.066466, "is_disabled": 0, "bike_id": "e3a1b4520b3ea12710a39da870fa13f2", "is_reserved": 0, "rental_uris": {"android": "https://dc.lft.to/lastmile_qr_scan", "ios": "https://dc.lft.to/lastmile_qr_scan"}, "lat": 38.95067733333333}, {"type": "electric_scooter", "name": "22cbf61870449585d5f990771bf0678d", "fusion_lat": 0.0, "fusion_lon": 0.0, "lon": -77.038542, "is_disabled": 0, "bike_id": "22cbf61870449585d5f990771bf0678d", "is_reserved": 0, "rental_uris": {"android": "https://dc.lft.to/lastmile_qr_scan", "ios": "https://dc.lft.to/lastmile_qr_scan"}, "lat": 38.91548983333333}, {"type": "electric_scooter", "name": "89442b83abf1e29331bda021af291ab4", "fusion_lat": 0.0, "fusion_lon": 0.0, "lon": -76.97993783333334, "is_disabled": 0, "bike_id": "89442b83abf1e29331bda021af291ab4", "is_reserved": 0, "rental_uris": {"android": "https://dc.lft.to/lastmile_qr_scan", "ios": "https://dc.lft.to/lastmile_qr_scan"}, "lat": 38.89442783333333}, {"type": "electric_scooter", "name": "dc86687e5d1a92b6553b24a82ff95020", "fusion_lat": 0.0, "fusion_lon": 0.0, "lon": -77.02648016666667, "is_disabled": 0, "bike_id": "dc86687e5d1a92b6553b24a82ff95020", "is_reserved": 0, "rental_uris": {"android": "https://dc.lft.to/lastmile_qr_scan", "ios": "https://dc.lft.to/lastmile_qr_scan"}, "lat": 38.902642}, {"type": "electric_bike", "name": "4234a18c228e2e1e6ac00de1af46f7d9", "fusion_lat": 0.0, "fusion_lon": 0.0, "lon": -77.02817833333333, "is_disabled": 0, "bike_id": "4234a18c228e2e1e6ac00de1af46f7d9", "is_reserved": 0, "rental_uris": {"android": "https://dc.lft.to/lastmile_qr_scan", "ios": "https://dc.lft.to/lastmile_qr_scan"}, "lat": 38.9451035}, {"type": "electric_bike", "name": "50d5ceacb1fcc011c2075fd29e0e2ff9", "fusion_lat": 0.0, "fusion_lon": 0.0, "lon": -77.0464265, "is_disabled": 0, "bike_id": "50d5ceacb1fcc011c2075fd29e0e2ff9", "is_reserved": 0, "rental_uris": {"android": "https://dc.lft.to/lastmile_qr_scan", "ios": "https://dc.lft.to/lastmile_qr_scan"}, "lat": 38.81543933333333}, {"type": "electric_scooter", "name": "8715f020f1629180bc6cc1ae875b52a0", "fusion_lat": 0.0, "fusion_lon": 0.0, "lon": -77.0445275, "is_disabled": 0, "bike_id": "8715f020f1629180bc6cc1ae875b52a0", "is_reserved": 0, "rental_uris": {"android": "https://dc.lft.to/lastmile_qr_scan", "ios": "https://dc.lft.to/lastmile_qr_scan"}, "lat": 38.9233545}, {"type": "electric_scooter", "name": "5c57e85724d3f923e2d7530decc15af5", "fusion_lat": 0.0, "fusion_lon": 0.0, "lon": -77.03066916666667, "is_disabled": 0, "bike_id": "5c57e85724d3f923e2d7530decc15af5", "is_reserved": 0, "rental_uris": {"android": "https://dc.lft.to/lastmile_qr_scan", "ios": "https://dc.lft.to/lastmile_qr_scan"}, "lat": 38.905751}, {"type": "electric_scooter", "name": "a85292d8a4ca17b18a35645f3003a168", "fusion_lat": 0.0, "fusion_lon": 0.0, "lon": -77.01387133333333, "is_disabled": 0, "bike_id": "a85292d8a4ca17b18a35645f3003a168", "is_reserved": 0, "rental_uris": {"android": "https://dc.lft.to/lastmile_qr_scan", "ios": "https://dc.lft.to/lastmile_qr_scan"}, "lat": 38.911078}, {"type": "electric_bike", "name": "3ff1f68b6f7e3e80680b17683cd3a9d2", "fusion_lat": 0.0, "fusion_lon": 0.0, "lon": -77.12973966666667, "is_disabled": 0, "bike_id": "3ff1f68b6f7e3e80680b17683cd3a9d2", "is_reserved": 0, "rental_uris": {"android": "https://dc.lft.to/lastmile_qr_scan", "ios": "https://dc.lft.to/lastmile_qr_scan"}, "lat": 38.79988816666667}, {"type": "electric_scooter", "name": "6e042f5ce7832dbe26ec3248caf9374d", "fusion_lat": 0.0, "fusion_lon": 0.0, "lon": -77.00624916666666, "is_disabled": 0, "bike_id": "6e042f5ce7832dbe26ec3248caf9374d", "is_reserved": 0, "rental_uris": {"android": "https://dc.lft.to/lastmile_qr_scan", "ios": "https://dc.lft.to/lastmile_qr_scan"}, "lat": 38.8717375}, {"type": "electric_scooter", "name": "e39c48bdabd48ac194fd4f934db79e31", "fusion_lat": 0.0, "fusion_lon": 0.0, "lon": -77.03201766666666, "is_disabled": 0, "bike_id": "e39c48bdabd48ac194fd4f934db79e31", "is_reserved": 0, "rental_uris": {"android": "https://dc.lft.to/lastmile_qr_scan", "ios": "https://dc.lft.to/lastmile_qr_scan"}, "lat": 38.9206595}, {"type": "electric_bike", "name": "c3ca36cd819f8492b90ff109cb947bf2", "fusion_lat": 0.0, "fusion_lon": 0.0, "lon": -76.95250766666666, "is_disabled": 0, "bike_id": "c3ca36cd819f8492b90ff109cb947bf2", "is_reserved": 0, "rental_uris": {"android": "https://dc.lft.to/lastmile_qr_scan", "ios": "https://dc.lft.to/lastmile_qr_scan"}, "lat": 38.907015666666666}, {"type": "electric_scooter", "name": "4e403c951352df5b320d2908255b6f99", "fusion_lat": 0.0, "fusion_lon": 0.0, "lon": -76.98806716666667, "is_disabled": 0, "bike_id": "4e403c951352df5b320d2908255b6f99", "is_reserved": 0, "rental_uris": {"android": "https://dc.lft.to/lastmile_qr_scan", "ios": "https://dc.lft.to/lastmile_qr_scan"}, "lat": 38.89366616666667}, {"type": "electric_scooter", "name": "a9bcc746885c9c24aae61857a4e7d53a", "fusion_lat": 0.0, "fusion_lon": 0.0, "lon": -77.022453, "is_disabled": 0, "bike_id": "a9bcc746885c9c24aae61857a4e7d53a", "is_reserved": 0, "rental_uris": {"android": "https://dc.lft.to/lastmile_qr_scan", "ios": "https://dc.lft.to/lastmile_qr_scan"}, "lat": 38.899824833333334}, {"type": "electric_scooter", "name": "ab1f6c030aacc66e1f44a8f3aa29b912", "fusion_lat": 0.0, "fusion_lon": 0.0, "lon": -76.97957666666667, "is_disabled": 0, "bike_id": "ab1f6c030aacc66e1f44a8f3aa29b912", "is_reserved": 0, "rental_uris": {"android": "https://dc.lft.to/lastmile_qr_scan", "ios": "https://dc.lft.to/lastmile_qr_scan"}, "lat": 38.897906666666664}, {"type": "electric_scooter", "name": "ed5a694d933a24df6656d18a9794249c", "fusion_lat": 0.0, "fusion_lon": 0.0, "lon": -77.039138, "is_disabled": 0, "bike_id": "ed5a694d933a24df6656d18a9794249c", "is_reserved": 0, "rental_uris": {"android": "https://dc.lft.to/lastmile_qr_scan", "ios": "https://dc.lft.to/lastmile_qr_scan"}, "lat": 38.925813833333336}, {"type": "electric_bike", "name": "92670240a102a40d3168202b4192e9a9", "fusion_lat": 0.0, "fusion_lon": 0.0, "lon": -77.0686855, "is_disabled": 0, "bike_id": "92670240a102a40d3168202b4192e9a9", "is_reserved": 0, "rental_uris": {"android": "https://dc.lft.to/lastmile_qr_scan", "ios": "https://dc.lft.to/lastmile_qr_scan"}, "lat": 38.952865}, {"type": "electric_scooter", "name": "1cfa9915ffcfdb9cd467f7e8711effe2", "fusion_lat": 0.0, "fusion_lon": 0.0, "lon": -77.01326283333333, "is_disabled": 0, "bike_id": "1cfa9915ffcfdb9cd467f7e8711effe2", "is_reserved": 0, "rental_uris": {"android": "https://dc.lft.to/lastmile_qr_scan", "ios": "https://dc.lft.to/lastmile_qr_scan"}, "lat": 38.8961965}, {"type": "electric_scooter", "name": "2d88a0948ffd1152ead4514675bdefde", "fusion_lat": 0.0, "fusion_lon": 0.0, "lon": -77.0467015, "is_disabled": 0, "bike_id": "2d88a0948ffd1152ead4514675bdefde", "is_reserved": 0, "rental_uris": {"android": "https://dc.lft.to/lastmile_qr_scan", "ios": "https://dc.lft.to/lastmile_qr_scan"}, "lat": 38.906479}, {"type": "electric_scooter", "name": "3c41961fa75d275df67496fcea043334", "fusion_lat": 0.0, "fusion_lon": 0.0, "lon": -76.99740866666667, "is_disabled": 0, "bike_id": "3c41961fa75d275df67496fcea043334", "is_reserved": 0, "rental_uris": {"android": "https://dc.lft.to/lastmile_qr_scan", "ios": "https://dc.lft.to/lastmile_qr_scan"}, "lat": 38.896172666666665}, {"type": "electric_bike", "name": "e516defb8000e6a3209a93839f3324c4", "fusion_lat": 0.0, "fusion_lon": 0.0, "lon": -76.99404066666666, "is_disabled": 0, "bike_id": "e516defb8000e6a3209a93839f3324c4", "is_reserved": 0, "rental_uris": {"android": "https://dc.lft.to/lastmile_qr_scan", "ios": "https://dc.lft.to/lastmile_qr_scan"}, "lat": 38.83144716666666}, {"type": "electric_scooter", "name": "0727569e7f4d6cad0f7a933da45e5c41", "fusion_lat": 0.0, "fusion_lon": 0.0, "lon": -77.01886033333334, "is_disabled": 0, "bike_id": "0727569e7f4d6cad0f7a933da45e5c41", "is_reserved": 0, "rental_uris": {"android": "https://dc.lft.to/lastmile_qr_scan", "ios": "https://dc.lft.to/lastmile_qr_scan"}, "lat": 38.906174666666665}, {"type": "electric_bike", "name": "0bb06387361f3f2de67d5d355ee19352", "fusion_lat": 0.0, "fusion_lon": 0.0, "lon": -77.00409883333333, "is_disabled": 0, "bike_id": "0bb06387361f3f2de67d5d355ee19352", "is_reserved": 0, "rental_uris": {"android": "https://dc.lft.to/lastmile_qr_scan", "ios": "https://dc.lft.to/lastmile_qr_scan"}, "lat": 38.98548066666667}, {"type": "electric_scooter", "name": "b59fdb4d1b15949256629e1645b54a81", "fusion_lat": 0.0, "fusion_lon": 0.0, "lon": -76.9993675, "is_disabled": 0, "bike_id": "b59fdb4d1b15949256629e1645b54a81", "is_reserved": 0, "rental_uris": {"android": "https://dc.lft.to/lastmile_qr_scan", "ios": "https://dc.lft.to/lastmile_qr_scan"}, "lat": 38.89168933333333}, {"type": "electric_scooter", "name": "4b2f80a7e27604f832348e3fb8b88375", "fusion_lat": 0.0, "fusion_lon": 0.0, "lon": -77.03359666666667, "is_disabled": 0, "bike_id": "4b2f80a7e27604f832348e3fb8b88375", "is_reserved": 0, "rental_uris": {"android": "https://dc.lft.to/lastmile_qr_scan", "ios": "https://dc.lft.to/lastmile_qr_scan"}, "lat": 38.92149416666667}, {"type": "electric_scooter", "name": "a1e923863370104ab07ba5413bb954ca", "fusion_lat": 0.0, "fusion_lon": 0.0, "lon": -77.04262883333334, "is_disabled": 0, "bike_id": "a1e923863370104ab07ba5413bb954ca", "is_reserved": 0, "rental_uris": {"android": "https://dc.lft.to/lastmile_qr_scan", "ios": "https://dc.lft.to/lastmile_qr_scan"}, "lat": 38.904164333333334}, {"type": "electric_scooter", "name": "045d8fc8d239e5462b826762613b8530", "fusion_lat": 0.0, "fusion_lon": 0.0, "lon": -77.02481516666667, "is_disabled": 0, "bike_id": "045d8fc8d239e5462b826762613b8530", "is_reserved": 0, "rental_uris": {"android": "https://dc.lft.to/lastmile_qr_scan", "ios": "https://dc.lft.to/lastmile_qr_scan"}, "lat": 38.9309875}, {"type": "electric_scooter", "name": "3d85191f44579461846a137a46effadf", "fusion_lat": 0.0, "fusion_lon": 0.0, "lon": -76.938166, "is_disabled": 0, "bike_id": "3d85191f44579461846a137a46effadf", "is_reserved": 0, "rental_uris": {"android": "https://dc.lft.to/lastmile_qr_scan", "ios": "https://dc.lft.to/lastmile_qr_scan"}, "lat": 38.898487333333335}, {"type": "electric_bike", "name": "0590d08a9a99ec0ceb4552c7808fb387", "fusion_lat": 0.0, "fusion_lon": 0.0, "lon": -77.098226, "is_disabled": 0, "bike_id": "0590d08a9a99ec0ceb4552c7808fb387", "is_reserved": 0, "rental_uris": {"android": "https://dc.lft.to/lastmile_qr_scan", "ios": "https://dc.lft.to/lastmile_qr_scan"}, "lat": 38.85015933333333}, {"type": "electric_scooter", "name": "53e4d1d6c3a293f44690c315c970b781", "fusion_lat": 0.0, "fusion_lon": 0.0, "lon": -77.01297416666667, "is_disabled": 0, "bike_id": "53e4d1d6c3a293f44690c315c970b781", "is_reserved": 0, "rental_uris": {"android": "https://dc.lft.to/lastmile_qr_scan", "ios": "https://dc.lft.to/lastmile_qr_scan"}, "lat": 38.877764}, {"type": "electric_scooter", "name": "a6a6ab9674b630827b88b3e569d33bb7", "fusion_lat": 0.0, "fusion_lon": 0.0, "lon": -77.01883316666667, "is_disabled": 0, "bike_id": "a6a6ab9674b630827b88b3e569d33bb7", "is_reserved": 0, "rental_uris": {"android": "https://dc.lft.to/lastmile_qr_scan", "ios": "https://dc.lft.to/lastmile_qr_scan"}, "lat": 38.89750083333333}, {"type": "electric_scooter", "name": "896502915e4b89cb497e2ef2de6e820f", "fusion_lat": 0.0, "fusion_lon": 0.0, "lon": -77.02076983333333, "is_disabled": 0, "bike_id": "896502915e4b89cb497e2ef2de6e820f", "is_reserved": 0, "rental_uris": {"android": "https://dc.lft.to/lastmile_qr_scan", "ios": "https://dc.lft.to/lastmile_qr_scan"}, "lat": 38.92717116666667}, {"type": "electric_scooter", "name": "7820a378f8b4a5375b28c593a00f27e3", "fusion_lat": 0.0, "fusion_lon": 0.0, "lon": -76.99722916666667, "is_disabled": 0, "bike_id": "7820a378f8b4a5375b28c593a00f27e3", "is_reserved": 0, "rental_uris": {"android": "https://dc.lft.to/lastmile_qr_scan", "ios": "https://dc.lft.to/lastmile_qr_scan"}, "lat": 38.845443833333334}, {"type": "electric_scooter", "name": "64f266e636a770d2c39cd678f3588d71", "fusion_lat": 0.0, "fusion_lon": 0.0, "lon": -77.02157616666666, "is_disabled": 0, "bike_id": "64f266e636a770d2c39cd678f3588d71", "is_reserved": 0, "rental_uris": {"android": "https://dc.lft.to/lastmile_qr_scan", "ios": "https://dc.lft.to/lastmile_qr_scan"}, "lat": 38.9249685}, {"type": "electric_scooter", "name": "33bde6a2c6185dde20ad4cd622fa70b1", "fusion_lat": 0.0, "fusion_lon": 0.0, "lon": -77.05808583333334, "is_disabled": 0, "bike_id": "33bde6a2c6185dde20ad4cd622fa70b1", "is_reserved": 0, "rental_uris": {"android": "https://dc.lft.to/lastmile_qr_scan", "ios": "https://dc.lft.to/lastmile_qr_scan"}, "lat": 38.92905}, {"type": "electric_scooter", "name": "c7ddc7f0ddf10d7b137e3c8fd2f05f97", "fusion_lat": 0.0, "fusion_lon": 0.0, "lon": -77.00300216666666, "is_disabled": 0, "bike_id": "c7ddc7f0ddf10d7b137e3c8fd2f05f97", "is_reserved": 0, "rental_uris": {"android": "https://dc.lft.to/lastmile_qr_scan", "ios": "https://dc.lft.to/lastmile_qr_scan"}, "lat": 38.8772895}, {"type": "electric_scooter", "name": "ad7be2ef3d1fff73be25216f3826a169", "fusion_lat": 0.0, "fusion_lon": 0.0, "lon": -77.02040283333334, "is_disabled": 0, "bike_id": "ad7be2ef3d1fff73be25216f3826a169", "is_reserved": 0, "rental_uris": {"android": "https://dc.lft.to/lastmile_qr_scan", "ios": "https://dc.lft.to/lastmile_qr_scan"}, "lat": 38.92338733333333}, {"type": "electric_bike", "name": "110447589502869b4ec8d95a879667ba", "fusion_lat": 0.0, "fusion_lon": 0.0, "lon": -77.04076033333334, "is_disabled": 0, "bike_id": "110447589502869b4ec8d95a879667ba", "is_reserved": 0, "rental_uris": {"android": "https://dc.lft.to/lastmile_qr_scan", "ios": "https://dc.lft.to/lastmile_qr_scan"}, "lat": 38.830672}, {"type": "electric_scooter", "name": "02a01b512e668e5ed349c79da258eba7", "fusion_lat": 0.0, "fusion_lon": 0.0, "lon": -77.0329385, "is_disabled": 0, "bike_id": "02a01b512e668e5ed349c79da258eba7", "is_reserved": 0, "rental_uris": {"android": "https://dc.lft.to/lastmile_qr_scan", "ios": "https://dc.lft.to/lastmile_qr_scan"}, "lat": 38.92757}, {"type": "electric_scooter", "name": "46cb998c990ed0153bf245852bc25fac", "fusion_lat": 0.0, "fusion_lon": 0.0, "lon": -77.04876183333333, "is_disabled": 0, "bike_id": "46cb998c990ed0153bf245852bc25fac", "is_reserved": 0, "rental_uris": {"android": "https://dc.lft.to/lastmile_qr_scan", "ios": "https://dc.lft.to/lastmile_qr_scan"}, "lat": 38.90650683333333}, {"type": "electric_scooter", "name": "b37afd231b3734e356d578ee016e5084", "fusion_lat": 0.0, "fusion_lon": 0.0, "lon": -77.01746366666667, "is_disabled": 0, "bike_id": "b37afd231b3734e356d578ee016e5084", "is_reserved": 0, "rental_uris": {"android": "https://dc.lft.to/lastmile_qr_scan", "ios": "https://dc.lft.to/lastmile_qr_scan"}, "lat": 38.90031316666666}, {"type": "electric_scooter", "name": "11c0c49ecdb7d6ee3d09f580deddb4b1", "fusion_lat": 0.0, "fusion_lon": 0.0, "lon": -77.0820725, "is_disabled": 0, "bike_id": "11c0c49ecdb7d6ee3d09f580deddb4b1", "is_reserved": 0, "rental_uris": {"android": "https://dc.lft.to/lastmile_qr_scan", "ios": "https://dc.lft.to/lastmile_qr_scan"}, "lat": 38.89145716666667}, {"type": "electric_scooter", "name": "c8f630bf8597143a1ae165377719adc9", "fusion_lat": 0.0, "fusion_lon": 0.0, "lon": -77.03439216666666, "is_disabled": 0, "bike_id": "c8f630bf8597143a1ae165377719adc9", "is_reserved": 0, "rental_uris": {"android": "https://dc.lft.to/lastmile_qr_scan", "ios": "https://dc.lft.to/lastmile_qr_scan"}, "lat": 38.9102615}, {"type": "electric_scooter", "name": "debb756293a7e1cd6592bec266506999", "fusion_lat": 0.0, "fusion_lon": 0.0, "lon": -77.030209, "is_disabled": 0, "bike_id": "debb756293a7e1cd6592bec266506999", "is_reserved": 0, "rental_uris": {"android": "https://dc.lft.to/lastmile_qr_scan", "ios": "https://dc.lft.to/lastmile_qr_scan"}, "lat": 38.9287605}, {"type": "electric_scooter", "name": "08dabf2688f41e810a8a1d636e466a37", "fusion_lat": 0.0, "fusion_lon": 0.0, "lon": -77.024467, "is_disabled": 0, "bike_id": "08dabf2688f41e810a8a1d636e466a37", "is_reserved": 0, "rental_uris": {"android": "https://dc.lft.to/lastmile_qr_scan", "ios": "https://dc.lft.to/lastmile_qr_scan"}, "lat": 38.9497925}, {"type": "electric_scooter", "name": "4da547910f2d3befea0f88cbed0d9812", "fusion_lat": 0.0, "fusion_lon": 0.0, "lon": -76.946615, "is_disabled": 0, "bike_id": "4da547910f2d3befea0f88cbed0d9812", "is_reserved": 0, "rental_uris": {"android": "https://dc.lft.to/lastmile_qr_scan", "ios": "https://dc.lft.to/lastmile_qr_scan"}, "lat": 38.8986635}, {"type": "electric_bike", "name": "a986f761f99415679c13954e1e8c9742", "fusion_lat": 0.0, "fusion_lon": 0.0, "lon": -77.03285033333333, "is_disabled": 0, "bike_id": "a986f761f99415679c13954e1e8c9742", "is_reserved": 0, "rental_uris": {"android": "https://dc.lft.to/lastmile_qr_scan", "ios": "https://dc.lft.to/lastmile_qr_scan"}, "lat": 38.926295833333334}, {"type": "electric_scooter", "name": "a581f7e08263dfa7c35ae36540c0fd72", "fusion_lat": 0.0, "fusion_lon": 0.0, "lon": -76.93261466666667, "is_disabled": 0, "bike_id": "a581f7e08263dfa7c35ae36540c0fd72", "is_reserved": 0, "rental_uris": {"android": "https://dc.lft.to/lastmile_qr_scan", "ios": "https://dc.lft.to/lastmile_qr_scan"}, "lat": 38.887438833333334}, {"type": "electric_scooter", "name": "87fd923c25938ca238fdbc4ce69609cb", "fusion_lat": 0.0, "fusion_lon": 0.0, "lon": -77.0385505, "is_disabled": 0, "bike_id": "87fd923c25938ca238fdbc4ce69609cb", "is_reserved": 0, "rental_uris": {"android": "https://dc.lft.to/lastmile_qr_scan", "ios": "https://dc.lft.to/lastmile_qr_scan"}, "lat": 38.911711}, {"type": "electric_scooter", "name": "510675d44d3c3921741a4a120cb65d06", "fusion_lat": 0.0, "fusion_lon": 0.0, "lon": -77.03904916666667, "is_disabled": 0, "bike_id": "510675d44d3c3921741a4a120cb65d06", "is_reserved": 0, "rental_uris": {"android": "https://dc.lft.to/lastmile_qr_scan", "ios": "https://dc.lft.to/lastmile_qr_scan"}, "lat": 38.9141955}, {"type": "electric_scooter", "name": "ec85744c2f5f3866729062567bb83e39", "fusion_lat": 0.0, "fusion_lon": 0.0, "lon": -77.00897483333334, "is_disabled": 0, "bike_id": "ec85744c2f5f3866729062567bb83e39", "is_reserved": 0, "rental_uris": {"android": "https://dc.lft.to/lastmile_qr_scan", "ios": "https://dc.lft.to/lastmile_qr_scan"}, "lat": 38.895987}, {"type": "electric_scooter", "name": "02c1c98454a0d20d215e9a8e3ab5f74f", "fusion_lat": 0.0, "fusion_lon": 0.0, "lon": -77.02404066666666, "is_disabled": 0, "bike_id": "02c1c98454a0d20d215e9a8e3ab5f74f", "is_reserved": 0, "rental_uris": {"android": "https://dc.lft.to/lastmile_qr_scan", "ios": "https://dc.lft.to/lastmile_qr_scan"}, "lat": 38.8972235}, {"type": "electric_scooter", "name": "01b407ec2fedce8c1b5189f7daea5f44", "fusion_lat": 0.0, "fusion_lon": 0.0, "lon": -77.03316633333333, "is_disabled": 0, "bike_id": "01b407ec2fedce8c1b5189f7daea5f44", "is_reserved": 0, "rental_uris": {"android": "https://dc.lft.to/lastmile_qr_scan", "ios": "https://dc.lft.to/lastmile_qr_scan"}, "lat": 38.9156125}, {"type": "electric_scooter", "name": "3203105c1199f97ecd2571be5f5b8127", "fusion_lat": 0.0, "fusion_lon": 0.0, "lon": -77.01996316666667, "is_disabled": 0, "bike_id": "3203105c1199f97ecd2571be5f5b8127", "is_reserved": 0, "rental_uris": {"android": "https://dc.lft.to/lastmile_qr_scan", "ios": "https://dc.lft.to/lastmile_qr_scan"}, "lat": 38.91176983333333}, {"type": "electric_scooter", "name": "e0868100f158509f11035498267ae667", "fusion_lat": 0.0, "fusion_lon": 0.0, "lon": -77.04003616666667, "is_disabled": 0, "bike_id": "e0868100f158509f11035498267ae667", "is_reserved": 0, "rental_uris": {"android": "https://dc.lft.to/lastmile_qr_scan", "ios": "https://dc.lft.to/lastmile_qr_scan"}, "lat": 38.922335333333336}, {"type": "electric_scooter", "name": "77efb26c5ae856b1381b82301777f761", "fusion_lat": 0.0, "fusion_lon": 0.0, "lon": -77.027723, "is_disabled": 0, "bike_id": "77efb26c5ae856b1381b82301777f761", "is_reserved": 0, "rental_uris": {"android": "https://dc.lft.to/lastmile_qr_scan", "ios": "https://dc.lft.to/lastmile_qr_scan"}, "lat": 38.93069466666667}, {"type": "electric_scooter", "name": "78c66b03e2faca2fdea0ccf7d95bcb48", "fusion_lat": 0.0, "fusion_lon": 0.0, "lon": -77.040794, "is_disabled": 0, "bike_id": "78c66b03e2faca2fdea0ccf7d95bcb48", "is_reserved": 0, "rental_uris": {"android": "https://dc.lft.to/lastmile_qr_scan", "ios": "https://dc.lft.to/lastmile_qr_scan"}, "lat": 38.92027383333333}, {"type": "electric_scooter", "name": "c89dc33afff04df19ddf548388bf2abf", "fusion_lat": 0.0, "fusion_lon": 0.0, "lon": -77.01105233333334, "is_disabled": 0, "bike_id": "c89dc33afff04df19ddf548388bf2abf", "is_reserved": 0, "rental_uris": {"android": "https://dc.lft.to/lastmile_qr_scan", "ios": "https://dc.lft.to/lastmile_qr_scan"}, "lat": 38.89538233333333}, {"type": "electric_scooter", "name": "3fd4722a70acc00704283fd98f0fa22d", "fusion_lat": 0.0, "fusion_lon": 0.0, "lon": -77.03658733333333, "is_disabled": 0, "bike_id": "3fd4722a70acc00704283fd98f0fa22d", "is_reserved": 0, "rental_uris": {"android": "https://dc.lft.to/lastmile_qr_scan", "ios": "https://dc.lft.to/lastmile_qr_scan"}, "lat": 38.9228335}, {"type": "electric_scooter", "name": "cc322d430cd78e41aa75f67134d6dea2", "fusion_lat": 0.0, "fusion_lon": 0.0, "lon": -77.06274816666667, "is_disabled": 0, "bike_id": "cc322d430cd78e41aa75f67134d6dea2", "is_reserved": 0, "rental_uris": {"android": "https://dc.lft.to/lastmile_qr_scan", "ios": "https://dc.lft.to/lastmile_qr_scan"}, "lat": 38.90314016666667}, {"type": "electric_scooter", "name": "d4a0d3cc1e856a291386f006ff62f0b0", "fusion_lat": 0.0, "fusion_lon": 0.0, "lon": -76.94184966666667, "is_disabled": 0, "bike_id": "d4a0d3cc1e856a291386f006ff62f0b0", "is_reserved": 0, "rental_uris": {"android": "https://dc.lft.to/lastmile_qr_scan", "ios": "https://dc.lft.to/lastmile_qr_scan"}, "lat": 38.89760833333333}, {"type": "electric_scooter", "name": "cd68c027b95a8dc4ed0af344df34f787", "fusion_lat": 0.0, "fusion_lon": 0.0, "lon": -77.03379516666666, "is_disabled": 0, "bike_id": "cd68c027b95a8dc4ed0af344df34f787", "is_reserved": 0, "rental_uris": {"android": "https://dc.lft.to/lastmile_qr_scan", "ios": "https://dc.lft.to/lastmile_qr_scan"}, "lat": 38.901402833333336}, {"type": "electric_scooter", "name": "64f8229058c51570b3acbe5773f14739", "fusion_lat": 0.0, "fusion_lon": 0.0, "lon": -77.03552866666666, "is_disabled": 0, "bike_id": "64f8229058c51570b3acbe5773f14739", "is_reserved": 0, "rental_uris": {"android": "https://dc.lft.to/lastmile_qr_scan", "ios": "https://dc.lft.to/lastmile_qr_scan"}, "lat": 38.92478083333334}, {"type": "electric_scooter", "name": "4c864449c5cb83f64fe7bf9c3633ec0e", "fusion_lat": 0.0, "fusion_lon": 0.0, "lon": -77.014383, "is_disabled": 0, "bike_id": "4c864449c5cb83f64fe7bf9c3633ec0e", "is_reserved": 0, "rental_uris": {"android": "https://dc.lft.to/lastmile_qr_scan", "ios": "https://dc.lft.to/lastmile_qr_scan"}, "lat": 38.91314966666667}, {"type": "electric_scooter", "name": "5353a039de34a876b3dcf5378e24239b", "fusion_lat": 0.0, "fusion_lon": 0.0, "lon": -76.97712783333333, "is_disabled": 0, "bike_id": "5353a039de34a876b3dcf5378e24239b", "is_reserved": 0, "rental_uris": {"android": "https://dc.lft.to/lastmile_qr_scan", "ios": "https://dc.lft.to/lastmile_qr_scan"}, "lat": 38.9005825}, {"type": "electric_bike", "name": "6940a28c561835080091dc02ae0218fd", "fusion_lat": 0.0, "fusion_lon": 0.0, "lon": -77.07659416666667, "is_disabled": 0, "bike_id": "6940a28c561835080091dc02ae0218fd", "is_reserved": 0, "rental_uris": {"android": "https://dc.lft.to/lastmile_qr_scan", "ios": "https://dc.lft.to/lastmile_qr_scan"}, "lat": 38.809793666666664}, {"type": "electric_scooter", "name": "e0bd23b5a4cc7bfaf5bcba54a012b42d", "fusion_lat": 0.0, "fusion_lon": 0.0, "lon": -76.99206033333333, "is_disabled": 0, "bike_id": "e0bd23b5a4cc7bfaf5bcba54a012b42d", "is_reserved": 0, "rental_uris": {"android": "https://dc.lft.to/lastmile_qr_scan", "ios": "https://dc.lft.to/lastmile_qr_scan"}, "lat": 38.90475633333333}, {"type": "electric_scooter", "name": "4f573fa1402a36a18f2b88e51f0e4429", "fusion_lat": 0.0, "fusion_lon": 0.0, "lon": -77.017268, "is_disabled": 0, "bike_id": "4f573fa1402a36a18f2b88e51f0e4429", "is_reserved": 0, "rental_uris": {"android": "https://dc.lft.to/lastmile_qr_scan", "ios": "https://dc.lft.to/lastmile_qr_scan"}, "lat": 38.9056195}, {"type": "electric_bike", "name": "9f5ea243c7862c6592e3913cea7e299a", "fusion_lat": 0.0, "fusion_lon": 0.0, "lon": -77.0207205, "is_disabled": 0, "bike_id": "9f5ea243c7862c6592e3913cea7e299a", "is_reserved": 0, "rental_uris": {"android": "https://dc.lft.to/lastmile_qr_scan", "ios": "https://dc.lft.to/lastmile_qr_scan"}, "lat": 38.964426833333334}, {"type": "electric_scooter", "name": "71597c2add349ee9f0881d4cd53cc1f6", "fusion_lat": 0.0, "fusion_lon": 0.0, "lon": -76.990338, "is_disabled": 0, "bike_id": "71597c2add349ee9f0881d4cd53cc1f6", "is_reserved": 0, "rental_uris": {"android": "https://dc.lft.to/lastmile_qr_scan", "ios": "https://dc.lft.to/lastmile_qr_scan"}, "lat": 38.888805166666664}, {"type": "electric_scooter", "name": "f0d5ffec1ae1d53da5da7e4ad863a0c4", "fusion_lat": 0.0, "fusion_lon": 0.0, "lon": -77.03012233333334, "is_disabled": 0, "bike_id": "f0d5ffec1ae1d53da5da7e4ad863a0c4", "is_reserved": 0, "rental_uris": {"android": "https://dc.lft.to/lastmile_qr_scan", "ios": "https://dc.lft.to/lastmile_qr_scan"}, "lat": 38.928687333333336}, {"type": "electric_bike", "name": "71e38ac062d905fc430b0a2b43069187", "fusion_lat": 0.0, "fusion_lon": 0.0, "lon": -77.02805866666667, "is_disabled": 0, "bike_id": "71e38ac062d905fc430b0a2b43069187", "is_reserved": 0, "rental_uris": {"android": "https://dc.lft.to/lastmile_qr_scan", "ios": "https://dc.lft.to/lastmile_qr_scan"}, "lat": 38.96595416666667}, {"type": "electric_scooter", "name": "8e65d17560fcbf53b93a6048da5ce1af", "fusion_lat": 0.0, "fusion_lon": 0.0, "lon": -76.94886083333333, "is_disabled": 0, "bike_id": "8e65d17560fcbf53b93a6048da5ce1af", "is_reserved": 0, "rental_uris": {"android": "https://dc.lft.to/lastmile_qr_scan", "ios": "https://dc.lft.to/lastmile_qr_scan"}, "lat": 38.89535466666667}, {"type": "electric_scooter", "name": "c84a7665586d7d9c39ca462f3d72a31e", "fusion_lat": 0.0, "fusion_lon": 0.0, "lon": -77.01996683333333, "is_disabled": 0, "bike_id": "c84a7665586d7d9c39ca462f3d72a31e", "is_reserved": 0, "rental_uris": {"android": "https://dc.lft.to/lastmile_qr_scan", "ios": "https://dc.lft.to/lastmile_qr_scan"}, "lat": 38.91158583333333}, {"type": "electric_scooter", "name": "b0ca93a155ed06cfae80178b2162600a", "fusion_lat": 0.0, "fusion_lon": 0.0, "lon": -77.07449716666666, "is_disabled": 0, "bike_id": "b0ca93a155ed06cfae80178b2162600a", "is_reserved": 0, "rental_uris": {"android": "https://dc.lft.to/lastmile_qr_scan", "ios": "https://dc.lft.to/lastmile_qr_scan"}, "lat": 38.9378035}, {"type": "electric_scooter", "name": "13b55e0b496aa516522f7c9434f7152e", "fusion_lat": 0.0, "fusion_lon": 0.0, "lon": -77.02907466666667, "is_disabled": 0, "bike_id": "13b55e0b496aa516522f7c9434f7152e", "is_reserved": 0, "rental_uris": {"android": "https://dc.lft.to/lastmile_qr_scan", "ios": "https://dc.lft.to/lastmile_qr_scan"}, "lat": 38.9529595}, {"type": "electric_scooter", "name": "f744346d1a7e48b6f98ecaa05dd7ba36", "fusion_lat": 0.0, "fusion_lon": 0.0, "lon": -77.0738045, "is_disabled": 0, "bike_id": "f744346d1a7e48b6f98ecaa05dd7ba36", "is_reserved": 0, "rental_uris": {"android": "https://dc.lft.to/lastmile_qr_scan", "ios": "https://dc.lft.to/lastmile_qr_scan"}, "lat": 38.89591883333333}, {"type": "electric_scooter", "name": "9fb16d3ad1fd9b8e9bdfa7f375f43fb3", "fusion_lat": 0.0, "fusion_lon": 0.0, "lon": -76.98565166666667, "is_disabled": 0, "bike_id": "9fb16d3ad1fd9b8e9bdfa7f375f43fb3", "is_reserved": 0, "rental_uris": {"android": "https://dc.lft.to/lastmile_qr_scan", "ios": "https://dc.lft.to/lastmile_qr_scan"}, "lat": 38.89622516666667}, {"type": "electric_scooter", "name": "1727062619c213c397874aa5f8c75a24", "fusion_lat": 0.0, "fusion_lon": 0.0, "lon": -77.03629366666667, "is_disabled": 0, "bike_id": "1727062619c213c397874aa5f8c75a24", "is_reserved": 0, "rental_uris": {"android": "https://dc.lft.to/lastmile_qr_scan", "ios": "https://dc.lft.to/lastmile_qr_scan"}, "lat": 38.9038145}, {"type": "electric_scooter", "name": "e34dc01dbec716875b27478c0161cc56", "fusion_lat": 0.0, "fusion_lon": 0.0, "lon": -76.98371416666667, "is_disabled": 0, "bike_id": "e34dc01dbec716875b27478c0161cc56", "is_reserved": 0, "rental_uris": {"android": "https://dc.lft.to/lastmile_qr_scan", "ios": "https://dc.lft.to/lastmile_qr_scan"}, "lat": 38.89266033333333}, {"type": "electric_scooter", "name": "2dceff8c0281458dd955ddff272a1259", "fusion_lat": 0.0, "fusion_lon": 0.0, "lon": -77.03828016666667, "is_disabled": 0, "bike_id": "2dceff8c0281458dd955ddff272a1259", "is_reserved": 0, "rental_uris": {"android": "https://dc.lft.to/lastmile_qr_scan", "ios": "https://dc.lft.to/lastmile_qr_scan"}, "lat": 38.9119295}, {"type": "electric_bike", "name": "6f1d5bb9ed57dc47a1e91938b7ee50f7", "fusion_lat": 0.0, "fusion_lon": 0.0, "lon": -77.231773, "is_disabled": 0, "bike_id": "6f1d5bb9ed57dc47a1e91938b7ee50f7", "is_reserved": 0, "rental_uris": {"android": "https://dc.lft.to/lastmile_qr_scan", "ios": "https://dc.lft.to/lastmile_qr_scan"}, "lat": 38.92895766666667}, {"type": "electric_scooter", "name": "96b9bde49d81342efd8291333af83854", "fusion_lat": 0.0, "fusion_lon": 0.0, "lon": -77.02975316666667, "is_disabled": 0, "bike_id": "96b9bde49d81342efd8291333af83854", "is_reserved": 0, "rental_uris": {"android": "https://dc.lft.to/lastmile_qr_scan", "ios": "https://dc.lft.to/lastmile_qr_scan"}, "lat": 38.924479166666664}, {"type": "electric_scooter", "name": "3699d628e90a4dd854e563bd100485a9", "fusion_lat": 0.0, "fusion_lon": 0.0, "lon": -76.94637083333333, "is_disabled": 0, "bike_id": "3699d628e90a4dd854e563bd100485a9", "is_reserved": 0, "rental_uris": {"android": "https://dc.lft.to/lastmile_qr_scan", "ios": "https://dc.lft.to/lastmile_qr_scan"}, "lat": 38.89867183333333}, {"type": "electric_scooter", "name": "dfe32aa1b47feeab70a95101138a8246", "fusion_lat": 0.0, "fusion_lon": 0.0, "lon": -77.01494833333334, "is_disabled": 0, "bike_id": "dfe32aa1b47feeab70a95101138a8246", "is_reserved": 0, "rental_uris": {"android": "https://dc.lft.to/lastmile_qr_scan", "ios": "https://dc.lft.to/lastmile_qr_scan"}, "lat": 38.90654816666667}, {"type": "electric_scooter", "name": "ccf7e82c66e9981c2634ce81f64a0903", "fusion_lat": 0.0, "fusion_lon": 0.0, "lon": -77.02574066666666, "is_disabled": 0, "bike_id": "ccf7e82c66e9981c2634ce81f64a0903", "is_reserved": 0, "rental_uris": {"android": "https://dc.lft.to/lastmile_qr_scan", "ios": "https://dc.lft.to/lastmile_qr_scan"}, "lat": 38.948521}, {"type": "electric_scooter", "name": "f8dfd04768e03593cbb57b4b1de7226d", "fusion_lat": 0.0, "fusion_lon": 0.0, "lon": -77.024439, "is_disabled": 0, "bike_id": "f8dfd04768e03593cbb57b4b1de7226d", "is_reserved": 0, "rental_uris": {"android": "https://dc.lft.to/lastmile_qr_scan", "ios": "https://dc.lft.to/lastmile_qr_scan"}, "lat": 38.949791166666664}, {"type": "electric_scooter", "name": "654f1cb8836bf6542f8d74ee166b260d", "fusion_lat": 0.0, "fusion_lon": 0.0, "lon": -77.010529, "is_disabled": 0, "bike_id": "654f1cb8836bf6542f8d74ee166b260d", "is_reserved": 0, "rental_uris": {"android": "https://dc.lft.to/lastmile_qr_scan", "ios": "https://dc.lft.to/lastmile_qr_scan"}, "lat": 38.92984916666666}, {"type": "electric_scooter", "name": "28718465879c40262a3c1e34d29b4b19", "fusion_lat": 0.0, "fusion_lon": 0.0, "lon": -77.03159566666666, "is_disabled": 0, "bike_id": "28718465879c40262a3c1e34d29b4b19", "is_reserved": 0, "rental_uris": {"android": "https://dc.lft.to/lastmile_qr_scan", "ios": "https://dc.lft.to/lastmile_qr_scan"}, "lat": 38.920914833333335}, {"type": "electric_scooter", "name": "7a73035c65b1216e24c3b82416bc7cb8", "fusion_lat": 0.0, "fusion_lon": 0.0, "lon": -77.0200535, "is_disabled": 0, "bike_id": "7a73035c65b1216e24c3b82416bc7cb8", "is_reserved": 0, "rental_uris": {"android": "https://dc.lft.to/lastmile_qr_scan", "ios": "https://dc.lft.to/lastmile_qr_scan"}, "lat": 38.92806383333333}, {"type": "electric_scooter", "name": "aec76e161dc57248f8a7baf968907a10", "fusion_lat": 0.0, "fusion_lon": 0.0, "lon": -76.92303583333333, "is_disabled": 0, "bike_id": "aec76e161dc57248f8a7baf968907a10", "is_reserved": 0, "rental_uris": {"android": "https://dc.lft.to/lastmile_qr_scan", "ios": "https://dc.lft.to/lastmile_qr_scan"}, "lat": 38.89389583333333}, {"type": "electric_bike", "name": "7a3979573a1bed229872b42a24f6a241", "fusion_lat": 0.0, "fusion_lon": 0.0, "lon": -76.97956483333333, "is_disabled": 0, "bike_id": "7a3979573a1bed229872b42a24f6a241", "is_reserved": 0, "rental_uris": {"android": "https://dc.lft.to/lastmile_qr_scan", "ios": "https://dc.lft.to/lastmile_qr_scan"}, "lat": 38.92037416666667}, {"type": "electric_scooter", "name": "e14d1167f96a7bcaa6077f1fda69831b", "fusion_lat": 0.0, "fusion_lon": 0.0, "lon": -77.00567216666667, "is_disabled": 0, "bike_id": "e14d1167f96a7bcaa6077f1fda69831b", "is_reserved": 0, "rental_uris": {"android": "https://dc.lft.to/lastmile_qr_scan", "ios": "https://dc.lft.to/lastmile_qr_scan"}, "lat": 38.876557166666665}, {"type": "electric_scooter", "name": "af9c1c21700a07253e2842025cd21da5", "fusion_lat": 0.0, "fusion_lon": 0.0, "lon": -77.0277625, "is_disabled": 0, "bike_id": "af9c1c21700a07253e2842025cd21da5", "is_reserved": 0, "rental_uris": {"android": "https://dc.lft.to/lastmile_qr_scan", "ios": "https://dc.lft.to/lastmile_qr_scan"}, "lat": 38.92687683333333}, {"type": "electric_scooter", "name": "552d14187d4dd78f1f6fe2b9ec3b17e0", "fusion_lat": 0.0, "fusion_lon": 0.0, "lon": -77.00076333333334, "is_disabled": 0, "bike_id": "552d14187d4dd78f1f6fe2b9ec3b17e0", "is_reserved": 0, "rental_uris": {"android": "https://dc.lft.to/lastmile_qr_scan", "ios": "https://dc.lft.to/lastmile_qr_scan"}, "lat": 38.90144683333333}, {"type": "electric_scooter", "name": "ec653660643804c74d753b4099537962", "fusion_lat": 0.0, "fusion_lon": 0.0, "lon": -76.98357383333334, "is_disabled": 0, "bike_id": "ec653660643804c74d753b4099537962", "is_reserved": 0, "rental_uris": {"android": "https://dc.lft.to/lastmile_qr_scan", "ios": "https://dc.lft.to/lastmile_qr_scan"}, "lat": 38.88734383333333}, {"type": "electric_scooter", "name": "b52df1cbc40d43aee3fbe6ef7bd04fb7", "fusion_lat": 0.0, "fusion_lon": 0.0, "lon": -77.01637516666666, "is_disabled": 0, "bike_id": "b52df1cbc40d43aee3fbe6ef7bd04fb7", "is_reserved": 0, "rental_uris": {"android": "https://dc.lft.to/lastmile_qr_scan", "ios": "https://dc.lft.to/lastmile_qr_scan"}, "lat": 38.92940083333333}, {"type": "electric_bike", "name": "623a96139529c4e740193b73f463fe5b", "fusion_lat": 0.0, "fusion_lon": 0.0, "lon": -77.07903216666666, "is_disabled": 0, "bike_id": "623a96139529c4e740193b73f463fe5b", "is_reserved": 0, "rental_uris": {"android": "https://dc.lft.to/lastmile_qr_scan", "ios": "https://dc.lft.to/lastmile_qr_scan"}, "lat": 38.83934383333333}, {"type": "electric_scooter", "name": "9e1a4da39cad7445e6bb2851d04caa65", "fusion_lat": 0.0, "fusion_lon": 0.0, "lon": -77.06381716666667, "is_disabled": 0, "bike_id": "9e1a4da39cad7445e6bb2851d04caa65", "is_reserved": 0, "rental_uris": {"android": "https://dc.lft.to/lastmile_qr_scan", "ios": "https://dc.lft.to/lastmile_qr_scan"}, "lat": 38.905282}, {"type": "electric_scooter", "name": "c11715b9e022d0245582feede822bff4", "fusion_lat": 0.0, "fusion_lon": 0.0, "lon": -77.04489866666667, "is_disabled": 0, "bike_id": "c11715b9e022d0245582feede822bff4", "is_reserved": 0, "rental_uris": {"android": "https://dc.lft.to/lastmile_qr_scan", "ios": "https://dc.lft.to/lastmile_qr_scan"}, "lat": 38.91359933333333}, {"type": "electric_bike", "name": "31e54fbd4ff2c70d75f10e278f453b8c", "fusion_lat": 0.0, "fusion_lon": 0.0, "lon": -77.10290133333334, "is_disabled": 0, "bike_id": "31e54fbd4ff2c70d75f10e278f453b8c", "is_reserved": 0, "rental_uris": {"android": "https://dc.lft.to/lastmile_qr_scan", "ios": "https://dc.lft.to/lastmile_qr_scan"}, "lat": 38.85252883333333}, {"type": "electric_scooter", "name": "544dee935898f11a32289349291e1948", "fusion_lat": 0.0, "fusion_lon": 0.0, "lon": -77.03406433333333, "is_disabled": 0, "bike_id": "544dee935898f11a32289349291e1948", "is_reserved": 0, "rental_uris": {"android": "https://dc.lft.to/lastmile_qr_scan", "ios": "https://dc.lft.to/lastmile_qr_scan"}, "lat": 38.901285}, {"type": "electric_bike", "name": "3e6999ad063704b94db872ef6ed7cbfa", "fusion_lat": 0.0, "fusion_lon": 0.0, "lon": -76.98089333333333, "is_disabled": 0, "bike_id": "3e6999ad063704b94db872ef6ed7cbfa", "is_reserved": 0, "rental_uris": {"android": "https://dc.lft.to/lastmile_qr_scan", "ios": "https://dc.lft.to/lastmile_qr_scan"}, "lat": 38.953568833333335}, {"type": "electric_scooter", "name": "c0de1d1922d2ee91b2f6fa9e0378154c", "fusion_lat": 0.0, "fusion_lon": 0.0, "lon": -77.06477333333333, "is_disabled": 0, "bike_id": "c0de1d1922d2ee91b2f6fa9e0378154c", "is_reserved": 0, "rental_uris": {"android": "https://dc.lft.to/lastmile_qr_scan", "ios": "https://dc.lft.to/lastmile_qr_scan"}, "lat": 38.927019333333334}, {"type": "electric_scooter", "name": "45fe2c2de53b6ee24b0ca827136e324f", "fusion_lat": 0.0, "fusion_lon": 0.0, "lon": -76.9916375, "is_disabled": 0, "bike_id": "45fe2c2de53b6ee24b0ca827136e324f", "is_reserved": 0, "rental_uris": {"android": "https://dc.lft.to/lastmile_qr_scan", "ios": "https://dc.lft.to/lastmile_qr_scan"}, "lat": 38.888184833333334}, {"type": "electric_scooter", "name": "78ddc3476653467d79651f130f279fa6", "fusion_lat": 0.0, "fusion_lon": 0.0, "lon": -77.03181783333333, "is_disabled": 0, "bike_id": "78ddc3476653467d79651f130f279fa6", "is_reserved": 0, "rental_uris": {"android": "https://dc.lft.to/lastmile_qr_scan", "ios": "https://dc.lft.to/lastmile_qr_scan"}, "lat": 38.914230333333336}, {"type": "electric_scooter", "name": "b54576ae35f5622a9f21044ae1402ca1", "fusion_lat": 0.0, "fusion_lon": 0.0, "lon": -77.00254533333333, "is_disabled": 0, "bike_id": "b54576ae35f5622a9f21044ae1402ca1", "is_reserved": 0, "rental_uris": {"android": "https://dc.lft.to/lastmile_qr_scan", "ios": "https://dc.lft.to/lastmile_qr_scan"}, "lat": 38.89475483333333}, {"type": "electric_scooter", "name": "7feb711b53d41293e32931051e942aee", "fusion_lat": 0.0, "fusion_lon": 0.0, "lon": -77.00046966666666, "is_disabled": 0, "bike_id": "7feb711b53d41293e32931051e942aee", "is_reserved": 0, "rental_uris": {"android": "https://dc.lft.to/lastmile_qr_scan", "ios": "https://dc.lft.to/lastmile_qr_scan"}, "lat": 38.87435833333333}, {"type": "electric_scooter", "name": "6889ba8de826ddbb132794aca6265c33", "fusion_lat": 0.0, "fusion_lon": 0.0, "lon": -76.99378766666666, "is_disabled": 0, "bike_id": "6889ba8de826ddbb132794aca6265c33", "is_reserved": 0, "rental_uris": {"android": "https://dc.lft.to/lastmile_qr_scan", "ios": "https://dc.lft.to/lastmile_qr_scan"}, "lat": 38.8933835}, {"type": "electric_scooter", "name": "cc25d71ff490df429768fa6ebb619f5e", "fusion_lat": 0.0, "fusion_lon": 0.0, "lon": -77.05358766666667, "is_disabled": 0, "bike_id": "cc25d71ff490df429768fa6ebb619f5e", "is_reserved": 0, "rental_uris": {"android": "https://dc.lft.to/lastmile_qr_scan", "ios": "https://dc.lft.to/lastmile_qr_scan"}, "lat": 38.89882466666667}, {"type": "electric_scooter", "name": "7aa85143844b62f4f399a3fbe3f3e395", "fusion_lat": 0.0, "fusion_lon": 0.0, "lon": -77.01022166666667, "is_disabled": 0, "bike_id": "7aa85143844b62f4f399a3fbe3f3e395", "is_reserved": 0, "rental_uris": {"android": "https://dc.lft.to/lastmile_qr_scan", "ios": "https://dc.lft.to/lastmile_qr_scan"}, "lat": 38.9140465}, {"type": "electric_scooter", "name": "3e5c3858f9270dbbd2b05dc654f54781", "fusion_lat": 0.0, "fusion_lon": 0.0, "lon": -77.02814133333334, "is_disabled": 0, "bike_id": "3e5c3858f9270dbbd2b05dc654f54781", "is_reserved": 0, "rental_uris": {"android": "https://dc.lft.to/lastmile_qr_scan", "ios": "https://dc.lft.to/lastmile_qr_scan"}, "lat": 38.95085516666666}, {"type": "electric_scooter", "name": "d365f6852ebf3fc118a18979a872137b", "fusion_lat": 0.0, "fusion_lon": 0.0, "lon": -77.0330525, "is_disabled": 0, "bike_id": "d365f6852ebf3fc118a18979a872137b", "is_reserved": 0, "rental_uris": {"android": "https://dc.lft.to/lastmile_qr_scan", "ios": "https://dc.lft.to/lastmile_qr_scan"}, "lat": 38.92871816666667}, {"type": "electric_scooter", "name": "d5d26042d988992ac042708a2845d4ba", "fusion_lat": 0.0, "fusion_lon": 0.0, "lon": -77.01980666666667, "is_disabled": 0, "bike_id": "d5d26042d988992ac042708a2845d4ba", "is_reserved": 0, "rental_uris": {"android": "https://dc.lft.to/lastmile_qr_scan", "ios": "https://dc.lft.to/lastmile_qr_scan"}, "lat": 38.9050885}, {"type": "electric_scooter", "name": "f47bc12802471e8d474ccae07a26dd12", "fusion_lat": 0.0, "fusion_lon": 0.0, "lon": -77.02284166666666, "is_disabled": 0, "bike_id": "f47bc12802471e8d474ccae07a26dd12", "is_reserved": 0, "rental_uris": {"android": "https://dc.lft.to/lastmile_qr_scan", "ios": "https://dc.lft.to/lastmile_qr_scan"}, "lat": 38.89665083333333}, {"type": "electric_scooter", "name": "df0d9d165a73eff34b1a0755c49e9b11", "fusion_lat": 0.0, "fusion_lon": 0.0, "lon": -77.03589566666666, "is_disabled": 0, "bike_id": "df0d9d165a73eff34b1a0755c49e9b11", "is_reserved": 0, "rental_uris": {"android": "https://dc.lft.to/lastmile_qr_scan", "ios": "https://dc.lft.to/lastmile_qr_scan"}, "lat": 38.90696066666667}, {"type": "electric_scooter", "name": "49babe1b82ef1ebacd2b9d0beea2d4c7", "fusion_lat": 0.0, "fusion_lon": 0.0, "lon": -77.0316145, "is_disabled": 0, "bike_id": "49babe1b82ef1ebacd2b9d0beea2d4c7", "is_reserved": 0, "rental_uris": {"android": "https://dc.lft.to/lastmile_qr_scan", "ios": "https://dc.lft.to/lastmile_qr_scan"}, "lat": 38.91564066666667}, {"type": "electric_scooter", "name": "ca94b50ef75d30070d60feae1eb2aae1", "fusion_lat": 0.0, "fusion_lon": 0.0, "lon": -77.02204766666667, "is_disabled": 0, "bike_id": "ca94b50ef75d30070d60feae1eb2aae1", "is_reserved": 0, "rental_uris": {"android": "https://dc.lft.to/lastmile_qr_scan", "ios": "https://dc.lft.to/lastmile_qr_scan"}, "lat": 38.914386666666665}, {"type": "electric_scooter", "name": "ac2b70f3c080596ca59bba62ceb64612", "fusion_lat": 0.0, "fusion_lon": 0.0, "lon": -77.03022116666666, "is_disabled": 0, "bike_id": "ac2b70f3c080596ca59bba62ceb64612", "is_reserved": 0, "rental_uris": {"android": "https://dc.lft.to/lastmile_qr_scan", "ios": "https://dc.lft.to/lastmile_qr_scan"}, "lat": 38.8784965}, {"type": "electric_bike", "name": "c9ad9d668f9d10060e1b99fd36ecea1d", "fusion_lat": 0.0, "fusion_lon": 0.0, "lon": -76.90738033333334, "is_disabled": 0, "bike_id": "c9ad9d668f9d10060e1b99fd36ecea1d", "is_reserved": 0, "rental_uris": {"android": "https://dc.lft.to/lastmile_qr_scan", "ios": "https://dc.lft.to/lastmile_qr_scan"}, "lat": 38.896188333333335}, {"type": "electric_scooter", "name": "00fa0dbcfa953512573831ccc18a7e6a", "fusion_lat": 0.0, "fusion_lon": 0.0, "lon": -77.02276133333334, "is_disabled": 0, "bike_id": "00fa0dbcfa953512573831ccc18a7e6a", "is_reserved": 0, "rental_uris": {"android": "https://dc.lft.to/lastmile_qr_scan", "ios": "https://dc.lft.to/lastmile_qr_scan"}, "lat": 38.898409666666666}, {"type": "electric_bike", "name": "e3816e13b98f62add3b130e1ec36c493", "fusion_lat": 0.0, "fusion_lon": 0.0, "lon": -77.02981116666666, "is_disabled": 0, "bike_id": "e3816e13b98f62add3b130e1ec36c493", "is_reserved": 0, "rental_uris": {"android": "https://dc.lft.to/lastmile_qr_scan", "ios": "https://dc.lft.to/lastmile_qr_scan"}, "lat": 38.934992}, {"type": "electric_scooter", "name": "6cbf99a1c15d7ea92b281f36f829e8b2", "fusion_lat": 0.0, "fusion_lon": 0.0, "lon": -77.01743166666667, "is_disabled": 0, "bike_id": "6cbf99a1c15d7ea92b281f36f829e8b2", "is_reserved": 0, "rental_uris": {"android": "https://dc.lft.to/lastmile_qr_scan", "ios": "https://dc.lft.to/lastmile_qr_scan"}, "lat": 38.912459166666665}, {"type": "electric_scooter", "name": "e201c053bd39c54dc31d5eac67871b33", "fusion_lat": 0.0, "fusion_lon": 0.0, "lon": -77.0183565, "is_disabled": 0, "bike_id": "e201c053bd39c54dc31d5eac67871b33", "is_reserved": 0, "rental_uris": {"android": "https://dc.lft.to/lastmile_qr_scan", "ios": "https://dc.lft.to/lastmile_qr_scan"}, "lat": 38.90959316666667}, {"type": "electric_scooter", "name": "08c825d98b95a5ead0b08ef875476bdc", "fusion_lat": 0.0, "fusion_lon": 0.0, "lon": -77.03262983333333, "is_disabled": 0, "bike_id": "08c825d98b95a5ead0b08ef875476bdc", "is_reserved": 0, "rental_uris": {"android": "https://dc.lft.to/lastmile_qr_scan", "ios": "https://dc.lft.to/lastmile_qr_scan"}, "lat": 38.933060166666664}, {"type": "electric_scooter", "name": "43932ff709c84ef87fffdeeffabdf496", "fusion_lat": 0.0, "fusion_lon": 0.0, "lon": -77.03448183333333, "is_disabled": 0, "bike_id": "43932ff709c84ef87fffdeeffabdf496", "is_reserved": 0, "rental_uris": {"android": "https://dc.lft.to/lastmile_qr_scan", "ios": "https://dc.lft.to/lastmile_qr_scan"}, "lat": 38.9222075}, {"type": "electric_bike", "name": "82b7666a72acadda7e3d8bd4a50cd28d", "fusion_lat": 0.0, "fusion_lon": 0.0, "lon": -77.10610233333334, "is_disabled": 0, "bike_id": "82b7666a72acadda7e3d8bd4a50cd28d", "is_reserved": 0, "rental_uris": {"android": "https://dc.lft.to/lastmile_qr_scan", "ios": "https://dc.lft.to/lastmile_qr_scan"}, "lat": 38.8372855}, {"type": "electric_scooter", "name": "28bc11e026525bf6740bc497994d4994", "fusion_lat": 0.0, "fusion_lon": 0.0, "lon": -77.00984533333333, "is_disabled": 0, "bike_id": "28bc11e026525bf6740bc497994d4994", "is_reserved": 0, "rental_uris": {"android": "https://dc.lft.to/lastmile_qr_scan", "ios": "https://dc.lft.to/lastmile_qr_scan"}, "lat": 38.87291166666667}, {"type": "electric_scooter", "name": "d74f766326f367476c0a7359cd9694e4", "fusion_lat": 0.0, "fusion_lon": 0.0, "lon": -77.04182, "is_disabled": 0, "bike_id": "d74f766326f367476c0a7359cd9694e4", "is_reserved": 0, "rental_uris": {"android": "https://dc.lft.to/lastmile_qr_scan", "ios": "https://dc.lft.to/lastmile_qr_scan"}, "lat": 38.919795666666666}, {"type": "electric_scooter", "name": "a69f6946b386a79b6ad702fe96db8fad", "fusion_lat": 0.0, "fusion_lon": 0.0, "lon": -77.05219466666667, "is_disabled": 0, "bike_id": "a69f6946b386a79b6ad702fe96db8fad", "is_reserved": 0, "rental_uris": {"android": "https://dc.lft.to/lastmile_qr_scan", "ios": "https://dc.lft.to/lastmile_qr_scan"}, "lat": 38.89951833333333}, {"type": "electric_bike", "name": "7613893982b21623a6f9ae4c0a248944", "fusion_lat": 0.0, "fusion_lon": 0.0, "lon": -77.03479283333333, "is_disabled": 0, "bike_id": "7613893982b21623a6f9ae4c0a248944", "is_reserved": 0, "rental_uris": {"android": "https://dc.lft.to/lastmile_qr_scan", "ios": "https://dc.lft.to/lastmile_qr_scan"}, "lat": 38.93667683333334}, {"type": "electric_scooter", "name": "ef2af625edfd215f3c52864098a8af91", "fusion_lat": 0.0, "fusion_lon": 0.0, "lon": -77.03518833333334, "is_disabled": 0, "bike_id": "ef2af625edfd215f3c52864098a8af91", "is_reserved": 0, "rental_uris": {"android": "https://dc.lft.to/lastmile_qr_scan", "ios": "https://dc.lft.to/lastmile_qr_scan"}, "lat": 38.9235635}, {"type": "electric_scooter", "name": "b5df14eab15caf49c1a55a0187b0d0b4", "fusion_lat": 0.0, "fusion_lon": 0.0, "lon": -77.0345555, "is_disabled": 0, "bike_id": "b5df14eab15caf49c1a55a0187b0d0b4", "is_reserved": 0, "rental_uris": {"android": "https://dc.lft.to/lastmile_qr_scan", "ios": "https://dc.lft.to/lastmile_qr_scan"}, "lat": 38.9205835}, {"type": "electric_bike", "name": "fd89d45b2b2701777ecbfcc09008470c", "fusion_lat": 0.0, "fusion_lon": 0.0, "lon": -76.94163383333333, "is_disabled": 0, "bike_id": "fd89d45b2b2701777ecbfcc09008470c", "is_reserved": 0, "rental_uris": {"android": "https://dc.lft.to/lastmile_qr_scan", "ios": "https://dc.lft.to/lastmile_qr_scan"}, "lat": 38.865555}, {"type": "electric_bike", "name": "ea05256673ea98a5cd84215880f86135", "fusion_lat": 0.0, "fusion_lon": 0.0, "lon": -77.00000016666667, "is_disabled": 0, "bike_id": "ea05256673ea98a5cd84215880f86135", "is_reserved": 0, "rental_uris": {"android": "https://dc.lft.to/lastmile_qr_scan", "ios": "https://dc.lft.to/lastmile_qr_scan"}, "lat": 38.923904}, {"type": "electric_scooter", "name": "5d8f93f45d0edf9daa1e5bf2c6dfb416", "fusion_lat": 0.0, "fusion_lon": 0.0, "lon": -77.036548, "is_disabled": 0, "bike_id": "5d8f93f45d0edf9daa1e5bf2c6dfb416", "is_reserved": 0, "rental_uris": {"android": "https://dc.lft.to/lastmile_qr_scan", "ios": "https://dc.lft.to/lastmile_qr_scan"}, "lat": 38.921195166666664}, {"type": "electric_scooter", "name": "4a51546fce44e341792ea579156a0591", "fusion_lat": 0.0, "fusion_lon": 0.0, "lon": -76.985414, "is_disabled": 0, "bike_id": "4a51546fce44e341792ea579156a0591", "is_reserved": 0, "rental_uris": {"android": "https://dc.lft.to/lastmile_qr_scan", "ios": "https://dc.lft.to/lastmile_qr_scan"}, "lat": 38.90699766666667},