{"data": {"bikes": [{"rental_uris": {"ios": "https://dc.lft.to/lastmile_qr_scan", "android": "https://dc.lft.to/lastmile_qr_scan"}, "lon": -77.05512683333333, "type": "electric_scooter", "fusion_lat": 0.0, "lat": 38.928396666666664, "name": "0ed2f2e85fd9eefc779dea7607f432d6", "fusion_lon": 0.0, "bike_id": "0ed2f2e85fd9eefc779dea7607f432d6", "is_disabled": 0, "is_reserved": 0}, {"rental_uris": {"ios": "https://dc.lft.to/lastmile_qr_scan", "android": "https://dc.lft.to/lastmile_qr_scan"}, "lon": -77.0336655, "type": "electric_scooter", "fusion_lat": 0.0, "lat": 38.928857, "name": "c5a3ec778387c86e5723c7182f3ae77d", "fusion_lon": 0.0, "bike_id": "c5a3ec778387c86e5723c7182f3ae77d", "is_disabled": 0, "is_reserved": 0}, {"rental_uris": {"ios": "https://dc.lft.to/lastmile_qr_scan", "android": "https://dc.lft.to/lastmile_qr_scan"}, "lon": -77.025735, "type": "electric_scooter", "fusion_lat": 0.0, "lat": 38.887459166666666, "name": "d3e1a2f91f830870fe2573ceef89d7be", "fusion_lon": 0.0, "bike_id": "d3e1a2f91f830870fe2573ceef89d7be", "is_disabled": 0, "is_reserved": 0}, {"rental_uris": {"ios": "https://dc.lft.to/lastmile_qr_scan", "android": "https://dc.lft.to/lastmile_qr_scan"}, "lon": -77.03525916666666, "type": "electric_scooter", "fusion_lat": 0.0, "lat": 38.923342, "name": "d508960a66a5124bfc9e81519af222a7", "fusion_lon": 0.0, "bike_id": "d508960a66a5124bfc9e81519af222a7", "is_disabled": 0, "is_reserved": 0}, {"rental_uris": {"ios": "https://dc.lft.to/lastmile_qr_scan", "android": "https://dc.lft.to/lastmile_qr_scan"}, "lon": -77.05755, "type": "electric_scooter", "fusion_lat": 0.0, "lat": 38.93417866666667, "name": "255e2101b9806de76bb312ee3fd353cb", "fusion_lon": 0.0, "bike_id": "255e2101b9806de76bb312ee3fd353cb", "is_disabled": 0, "is_reserved": 0}, {"rental_uris": {"ios": "https://dc.lft.to/lastmile_qr_scan", "android": "https://dc.lft.to/lastmile_qr_scan"}, "lon": -77.021663, "type": "electric_scooter", "fusion_lat": 0.0, "lat": 38.89735266666667, "name": "c1de66843538016f80845a10545a3da6", "fusion_lon": 0.0, "bike_id": "c1de66843538016f80845a10545a3da6", "is_disabled": 0, "is_reserved": 0}, {"rental_uris": {"ios": "https://dc.lft.to/lastmile_qr_scan", "android": "https://dc.lft.to/lastmile_qr_scan"}, "lon": -77.04621216666666, "type": "electric_scooter", "fusion_lat": 0.0, "lat": 38.91636716666667, "name": "312082429f68f2cbf0a1a448d96795dd", "fusion_lon": 0.0, "bike_id": "312082429f68f2cbf0a1a448d96795dd", "is_disabled": 0, "is_reserved": 0}, {"rental_uris": {"ios": "https://dc.lft.to/lastmile_qr_scan", "android": "https://dc.lft.to/lastmile_qr_scan"}, "lon": -77.07190633333333, "type": "electric_scooter", "fusion_lat": 0.0, "lat": 38.91994666666667, "name": "89a88cef65061d28a7df18d1f6d051d3", "fusion_lon": 0.0, "bike_id": "89a88cef65061d28a7df18d1f6d051d3", "is_disabled": 0, "is_reserved": 0}, {"rental_uris": {"ios": "https://dc.lft.to/lastmile_qr_scan", "android": "https://dc.lft.to/lastmile_qr_scan"}, "lon": -77.02614216666667, "type": "electric_scooter", "fusion_lat": 0.0, "lat": 38.9167215, "name": "8bbacd291ca3b708f5edd48d28ec0fc2", "fusion_lon": 0.0, "bike_id": "8bbacd291ca3b708f5edd48d28ec0fc2", "is_disabled": 0, "is_reserved": 0}, {"rental_uris": {"ios": "https://dc.lft.to/lastmile_qr_scan", "android": "https://dc.lft.to/lastmile_qr_scan"}, "lon": -76.98023333333333, "type": "electric_scooter", "fusion_lat": 0.0, "lat": 38.88769716666667, "name": "2aa757f9a96297469b14a704e6bd5e46", "fusion_lon": 0.0, "bike_id": "2aa757f9a96297469b14a704e6bd5e46", "is_disabled": 0, "is_reserved": 0}, {"rental_uris": {"ios": "https://dc.lft.to/lastmile_qr_scan", "android": "https://dc.lft.to/lastmile_qr_scan"}, "lon": -76.99927566666666, "type": "electric_scooter", "fusion_lat": 0.0, "lat": 38.90911533333333, "name": "2b155ed3a883709dea966f70b6337b59", "fusion_lon": 0.0, "bike_id": "2b155ed3a883709dea966f70b6337b59", "is_disabled": 0, "is_reserved": 0}, {"rental_uris": {"ios": "https://dc.lft.to/lastmile_qr_scan", "android": "https://dc.lft.to/lastmile_qr_scan"}, "lon": -76.98231766666666, "type": "electric_scooter", "fusion_lat": 0.0, "lat": 38.867633833333336, "name": "b25e69964768b85d6249c00acc9cc007", "fusion_lon": 0.0, "bike_id": "b25e69964768b85d6249c00acc9cc007", "is_disabled": 0, "is_reserved": 0}, {"rental_uris": {"ios": "https://dc.lft.to/lastmile_qr_scan", "android": "https://dc.lft.to/lastmile_qr_scan"}, "lon": -77.035093, "type": "electric_scooter", "fusion_lat": 0.0, "lat": 38.91880833333333, "name": "5bc0daee60964b85bb4f26247cef68f6", "fusion_lon": 0.0, "bike_id": "5bc0daee60964b85bb4f26247cef68f6", "is_disabled": 0, "is_reserved": 0}, {"rental_uris": {"ios": "https://dc.lft.to/lastmile_qr_scan", "android": "https://dc.lft.to/lastmile_qr_scan"}, "lon": -77.00887783333333, "type": "electric_scooter", "fusion_lat": 0.0, "lat": 38.924155999999996, "name": "ca01bb43a76cd0f8c836ed10e58eb112", "fusion_lon": 0.0, "bike_id": "ca01bb43a76cd0f8c836ed10e58eb112", "is_disabled": 0, "is_reserved": 0}, {"rental_uris": {"ios": "https://dc.lft.to/lastmile_qr_scan", "android": "https://dc.lft.to/lastmile_qr_scan"}, "lon": -77.00779116666666, "type": "electric_scooter", "fusion_lat": 0.0, "lat": 38.90749116666667, "name": "9d89f0a0c1ca3ff5259b3c53dbd07999", "fusion_lon": 0.0, "bike_id": "9d89f0a0c1ca3ff5259b3c53dbd07999", "is_disabled": 0, "is_reserved": 0}, {"rental_uris": {"ios": "https://dc.lft.to/lastmile_qr_scan", "android": "https://dc.lft.to/lastmile_qr_scan"}, "lon": -77.03206033333333, "type": "electric_scooter", "fusion_lat": 0.0, "lat": 38.92006116666667, "name": "221916bde2603589eaaf23d3880dee92", "fusion_lon": 0.0, "bike_id": "221916bde2603589eaaf23d3880dee92", "is_disabled": 0, "is_reserved": 0}, {"rental_uris": {"ios": "https://dc.lft.to/lastmile_qr_scan", "android": "https://dc.lft.to/lastmile_qr_scan"}, "lon": -76.935367, "type": "electric_scooter", "fusion_lat": 0.0, "lat": 38.89677966666667, "name": "2892592b791baf7d1af9695ebb8932a5", "fusion_lon": 0.0, "bike_id": "2892592b791baf7d1af9695ebb8932a5", "is_disabled": 0, "is_reserved": 0}, {"rental_uris": {"ios": "https://dc.lft.to/lastmile_qr_scan", "android": "https://dc.lft.to/lastmile_qr_scan"}, "lon": -77.0610185, "type": "electric_scooter", "fusion_lat": 0.0, "lat": 38.912204, "name": "9890159fda69533788114340798ee21d", "fusion_lon": 0.0, "bike_id": "9890159fda69533788114340798ee21d", "is_disabled": 0, "is_reserved": 0}, {"rental_uris": {"ios": "https://dc.lft.to/lastmile_qr_scan", "android": "https://dc.lft.to/lastmile_qr_scan"}, "lon": -77.00562533333333, "type": "electric_scooter", "fusion_lat": 0.0, "lat": 38.90565683333333, "name": "b9a29b4c8535dfbfe11d073340fccb70", "fusion_lon": 0.0, "bike_id": "b9a29b4c8535dfbfe11d073340fccb70", "is_disabled": 0, "is_reserved": 0}, {"rental_uris": {"ios": "https://dc.lft.to/lastmile_qr_scan", "android": "https://dc.lft.to/lastmile_qr_scan"}, "lon": -77.04542466666666, "type": "electric_scooter", "fusion_lat": 0.0, "lat": 38.919397833333335, "name": "aac35d6675cdc50152ed6e19dca36071", "fusion_lon": 0.0, "bike_id": "aac35d6675cdc50152ed6e19dca36071", "is_disabled": 0, "is_reserved": 0}, {"rental_uris": {"ios": "https://dc.lft.to/lastmile_qr_scan", "android": "https://dc.lft.to/lastmile_qr_scan"}, "lon": -77.02620333333333, "type": "electric_scooter", "fusion_lat": 0.0, "lat": 38.88408883333334, "name": "d33e46d946e14a0ee3f1c9ddd7004fca", "fusion_lon": 0.0, "bike_id": "d33e46d946e14a0ee3f1c9ddd7004fca", "is_disabled": 0, "is_reserved": 0}, {"rental_uris": {"ios": "https://dc.lft.to/lastmile_qr_scan", "android": "https://dc.lft.to/lastmile_qr_scan"}, "lon": -77.05268033333333, "type": "electric_scooter", "fusion_lat": 0.0, "lat": 38.9102945, "name": "f22d0e4eebc57a40742063151f3cc63d", "fusion_lon": 0.0, "bike_id": "f22d0e4eebc57a40742063151f3cc63d", "is_disabled": 0, "is_reserved": 0}, {"rental_uris": {"ios": "https://dc.lft.to/lastmile_qr_scan", "android": "https://dc.lft.to/lastmile_qr_scan"}, "lon": -76.97333333333333, "type": "electric_bike", "fusion_lat": 0.0, "lat": 38.850645666666665, "name": "0728ca33647626babb4cf3935c0febf9", "fusion_lon": 0.0, "bike_id": "0728ca33647626babb4cf3935c0febf9", "is_disabled": 0, "is_reserved": 0}, {"rental_uris": {"ios": "https://dc.lft.to/lastmile_qr_scan", "android": "https://dc.lft.to/lastmile_qr_scan"}, "lon": -77.03962866666667, "type": "electric_scooter", "fusion_lat": 0.0, "lat": 38.902466, "name": "7ada0c5b69ea8dddcd031a3260f00d23", "fusion_lon": 0.0, "bike_id": "7ada0c5b69ea8dddcd031a3260f00d23", "is_disabled": 0, "is_reserved": 0}, {"rental_uris": {"ios": "https://dc.lft.to/lastmile_qr_scan", "android": "https://dc.lft.to/lastmile_qr_scan"}, "lon": -77.02725933333333, "type": "electric_scooter", "fusion_lat": 0.0, "lat": 38.92479933333333, "name": "a5609b4c05059e6c595906ac546e3824", "fusion_lon": 0.0, "bike_id": "a5609b4c05059e6c595906ac546e3824", "is_disabled": 0, "is_reserved": 0}, {"rental_uris": {"ios": "https://dc.lft.to/lastmile_qr_scan", "android": "https://dc.lft.to/lastmile_qr_scan"}, "lon": -77.031809, "type": "electric_scooter", "fusion_lat": 0.0, "lat": 38.91735083333333, "name": "9b420804bccf4214395760996f35151e", "fusion_lon": 0.0, "bike_id": "9b420804bccf4214395760996f35151e", "is_disabled": 0, "is_reserved": 0}, {"rental_uris": {"ios": "https://dc.lft.to/lastmile_qr_scan", "android": "https://dc.lft.to/lastmile_qr_scan"}, "lon": -77.04736666666666, "type": "electric_scooter", "fusion_lat": 0.0, "lat": 38.90716916666667, "name": "641f489dec118362d02683804a3cc8db", "fusion_lon": 0.0, "bike_id": "641f489dec118362d02683804a3cc8db", "is_disabled": 0, "is_reserved": 0}, {"rental_uris": {"ios": "https://dc.lft.to/lastmile_qr_scan", "android": "https://dc.lft.to/lastmile_qr_scan"}, "lon": -77.03333433333333, "type": "electric_scooter", "fusion_lat": 0.0, "lat": 38.898623666666666, "name": "485cac7f887ab1350ad424992c218d22", "fusion_lon": 0.0, "bike_id": "485cac7f887ab1350ad424992c218d22", "is_disabled": 0, "is_reserved": 0}, {"rental_uris": {"ios": "https://dc.lft.to/lastmile_qr_scan", "android": "https://dc.lft.to/lastmile_qr_scan"}, "lon": -77.01933766666667, "type": "electric_scooter", "fusion_lat": 0.0, "lat": 38.94928266666667, "name": "fded5891d682457d00d5cd332a67055c", "fusion_lon": 0.0, "bike_id": "fded5891d682457d00d5cd332a67055c", "is_disabled": 0, "is_reserved": 0}, {"rental_uris": {"ios": "https://dc.lft.to/lastmile_qr_scan", "android": "https://dc.lft.to/lastmile_qr_scan"}, "lon": -77.0639045, "type": "electric_scooter", "fusion_lat": 0.0, "lat": 38.908375166666666, "name": "bb0b6106ef3f9827ec589e76c033a2da", "fusion_lon": 0.0, "bike_id": "bb0b6106ef3f9827ec589e76c033a2da", "is_disabled": 0, "is_reserved": 0}, {"rental_uris": {"ios": "https://dc.lft.to/lastmile_qr_scan", "android": "https://dc.lft.to/lastmile_qr_scan"}, "lon": -77.0273025, "type": "electric_scooter", "fusion_lat": 0.0, "lat": 38.937954500000004, "name": "426e1fce1497ea23d168127e0b7f9124", "fusion_lon": 0.0, "bike_id": "426e1fce1497ea23d168127e0b7f9124", "is_disabled": 0, "is_reserved": 0}, {"rental_uris": {"ios": "https://dc.lft.to/lastmile_qr_scan", "android": "https://dc.lft.to/lastmile_qr_scan"}, "lon": -77.03079616666666, "type": "electric_scooter", "fusion_lat": 0.0, "lat": 38.899825166666666, "name": "a6b6f0389188446f2edc1ec538976396", "fusion_lon": 0.0, "bike_id": "a6b6f0389188446f2edc1ec538976396", "is_disabled": 0, "is_reserved": 0}, {"rental_uris": {"ios": "https://dc.lft.to/lastmile_qr_scan", "android": "https://dc.lft.to/lastmile_qr_scan"}, "lon": -77.03855533333333, "type": "electric_scooter", "fusion_lat": 0.0, "lat": 38.913319666666666, "name": "d2c3cd593b9adfa3ffb1e57dbd771bd5", "fusion_lon": 0.0, "bike_id": "d2c3cd593b9adfa3ffb1e57dbd771bd5", "is_disabled": 0, "is_reserved": 0}, {"rental_uris": {"ios": "https://dc.lft.to/lastmile_qr_scan", "android": "https://dc.lft.to/lastmile_qr_scan"}, "lon": -77.0379555, "type": "electric_scooter", "fusion_lat": 0.0, "lat": 38.9122475, "name": "50cd92857e711e75a89598362ce678db", "fusion_lon": 0.0, "bike_id": "50cd92857e711e75a89598362ce678db", "is_disabled": 0, "is_reserved": 0}, {"rental_uris": {"ios": "https://dc.lft.to/lastmile_qr_scan", "android": "https://dc.lft.to/lastmile_qr_scan"}, "lon": -77.05140983333334, "type": "electric_scooter", "fusion_lat": 0.0, "lat": 38.90537166666667, "name": "538af76b7f540dd4c4b8b1357840fb1e", "fusion_lon": 0.0, "bike_id": "538af76b7f540dd4c4b8b1357840fb1e", "is_disabled": 0, "is_reserved": 0}, {"rental_uris": {"ios": "https://dc.lft.to/lastmile_qr_scan", "android": "https://dc.lft.to/lastmile_qr_scan"}, "lon": -77.03818783333334, "type": "electric_scooter", "fusion_lat": 0.0, "lat": 38.9068255, "name": "dad68e339fb7a76e975d20d11a68187a", "fusion_lon": 0.0, "bike_id": "dad68e339fb7a76e975d20d11a68187a", "is_disabled": 0, "is_reserved": 0}, {"rental_uris": {"ios": "https://dc.lft.to/lastmile_qr_scan", "android": "https://dc.lft.to/lastmile_qr_scan"}, "lon": -77.03843666666667, "type": "electric_scooter", "fusion_lat": 0.0, "lat": 38.9124625, "name": "e0654cbe2b30790684ff4c91c6f8b239", "fusion_lon": 0.0, "bike_id": "e0654cbe2b30790684ff4c91c6f8b239", "is_disabled": 0, "is_reserved": 0}, {"rental_uris": {"ios": "https://dc.lft.to/lastmile_qr_scan", "android": "https://dc.lft.to/lastmile_qr_scan"}, "lon": -77.040322, "type": "electric_scooter", "fusion_lat": 0.0, "lat": 38.92431066666666, "name": "e1a9ce483d5c0e97daf44e94829e22c5", "fusion_lon": 0.0, "bike_id": "e1a9ce483d5c0e97daf44e94829e22c5", "is_disabled": 0, "is_reserved": 0}, {"rental_uris": {"ios": "https://dc.lft.to/lastmile_qr_scan", "android": "https://dc.lft.to/lastmile_qr_scan"}, "lon": -77.04337016666666, "type": "electric_scooter", "fusion_lat": 0.0, "lat": 38.896652, "name": "26613f370c03f4d7345dfbb55440c4b1", "fusion_lon": 0.0, "bike_id": "26613f370c03f4d7345dfbb55440c4b1", "is_disabled": 0, "is_reserved": 0}, {"rental_uris": {"ios": "https://dc.lft.to/lastmile_qr_scan", "android": "https://dc.lft.to/lastmile_qr_scan"}, "lon": -77.04404316666667, "type": "electric_scooter", "fusion_lat": 0.0, "lat": 38.90911883333333, "name": "9cc53b46053d85ac03d7508fa8970cc6", "fusion_lon": 0.0, "bike_id": "9cc53b46053d85ac03d7508fa8970cc6", "is_disabled": 0, "is_reserved": 0}, {"rental_uris": {"ios": "https://dc.lft.to/lastmile_qr_scan", "android": "https://dc.lft.to/lastmile_qr_scan"}, "lon": -77.01441283333334, "type": "electric_scooter", "fusion_lat": 0.0, "lat": 38.877701, "name": "12f86e79d804a2c57de56c35c38820d0", "fusion_lon": 0.0, "bike_id": "12f86e79d804a2c57de56c35c38820d0", "is_disabled": 0, "is_reserved": 0}, {"rental_uris": {"ios": "https://dc.lft.to/lastmile_qr_scan", "android": "https://dc.lft.to/lastmile_qr_scan"}, "lon": -77.0362885, "type": "electric_scooter", "fusion_lat": 0.0, "lat": 38.913048333333336, "name": "ffb614c49a39d9c8f2efa8a6d7fe0848", "fusion_lon": 0.0, "bike_id": "ffb614c49a39d9c8f2efa8a6d7fe0848", "is_disabled": 0, "is_reserved": 0}, {"rental_uris": {"ios": "https://dc.lft.to/lastmile_qr_scan", "android": "https://dc.lft.to/lastmile_qr_scan"}, "lon": -76.948716, "type": "electric_scooter", "fusion_lat": 0.0, "lat": 38.89462416666667, "name": "ac2264eafcee9b03ac2bfb8f028af864", "fusion_lon": 0.0, "bike_id": "ac2264eafcee9b03ac2bfb8f028af864", "is_disabled": 0, "is_reserved": 0}, {"rental_uris": {"ios": "https://dc.lft.to/lastmile_qr_scan", "android": "https://dc.lft.to/lastmile_qr_scan"}, "lon": -77.04307233333333, "type": "electric_scooter", "fusion_lat": 0.0, "lat": 38.922563, "name": "aeab70bfe2973d7c2047ecb3a3e0e078", "fusion_lon": 0.0, "bike_id": "aeab70bfe2973d7c2047ecb3a3e0e078", "is_disabled": 0, "is_reserved": 0}, {"rental_uris": {"ios": "https://dc.lft.to/lastmile_qr_scan", "android": "https://dc.lft.to/lastmile_qr_scan"}, "lon": -77.13595266666667, "type": "electric_bike", "fusion_lat": 0.0, "lat": 39.053470833333336, "name": "b5e17203f7ac6fa9e1a6738810dc17f8", "fusion_lon": 0.0, "bike_id": "b5e17203f7ac6fa9e1a6738810dc17f8", "is_disabled": 0, "is_reserved": 0}, {"rental_uris": {"ios": "https://dc.lft.to/lastmile_qr_scan", "android": "https://dc.lft.to/lastmile_qr_scan"}, "lon": -77.01145583333333, "type": "electric_scooter", "fusion_lat": 0.0, "lat": 38.897133833333335, "name": "c703d38844fc1b817f53bdabeb75671a", "fusion_lon": 0.0, "bike_id": "c703d38844fc1b817f53bdabeb75671a", "is_disabled": 0, "is_reserved": 0}, {"rental_uris": {"ios": "https://dc.lft.to/lastmile_qr_scan", "android": "https://dc.lft.to/lastmile_qr_scan"}, "lon": -77.0362635, "type": "electric_scooter", "fusion_lat": 0.0, "lat": 38.929156166666665, "name": "46ae248d5637b5f4be9d5824650df6ee", "fusion_lon": 0.0, "bike_id": "46ae248d5637b5f4be9d5824650df6ee", "is_disabled": 0, "is_reserved": 0}, {"rental_uris": {"ios": "https://dc.lft.to/lastmile_qr_scan", "android": "https://dc.lft.to/lastmile_qr_scan"}, "lon": -77.04479833333333, "type": "electric_scooter", "fusion_lat": 0.0, "lat": 38.9065965, "name": "c8d5788fe60fed148f184f419bf387cc", "fusion_lon": 0.0, "bike_id": "c8d5788fe60fed148f184f419bf387cc", "is_disabled": 0, "is_reserved": 0}, {"rental_uris": {"ios": "https://dc.lft.to/lastmile_qr_scan", "android": "https://dc.lft.to/lastmile_qr_scan"}, "lon": -77.05246683333333, "type": "electric_scooter", "fusion_lat": 0.0, "lat": 38.923806166666665, "name": "c80ce178c1f98745614094c807ddb384", "fusion_lon": 0.0, "bike_id": "c80ce178c1f98745614094c807ddb384", "is_disabled": 0, "is_reserved": 0}, {"rental_uris": {"ios": "https://dc.lft.to/lastmile_qr_scan", "android": "https://dc.lft.to/lastmile_qr_scan"}, "lon": -76.98620966666667, "type": "electric_scooter", "fusion_lat": 0.0, "lat": 38.8682055, "name": "372566bec883cd02b7f00b09b7225652", "fusion_lon": 0.0, "bike_id": "372566bec883cd02b7f00b09b7225652", "is_disabled": 0, "is_reserved": 0}, {"rental_uris": {"ios": "https://dc.lft.to/lastmile_qr_scan", "android": "https://dc.lft.to/lastmile_qr_scan"}, "lon": -77.01268283333333, "type": "electric_scooter", "fusion_lat": 0.0, "lat": 38.89972683333333, "name": "09b1506976a251b3e343be189d84f196", "fusion_lon": 0.0, "bike_id": "09b1506976a251b3e343be189d84f196", "is_disabled": 0, "is_reserved": 0}, {"rental_uris": {"ios": "https://dc.lft.to/lastmile_qr_scan", "android": "https://dc.lft.to/lastmile_qr_scan"}, "lon": -77.032649, "type": "electric_scooter", "fusion_lat": 0.0, "lat": 38.932342, "name": "1ae9a5d12da7a0f1cda611e3730412e4", "fusion_lon": 0.0, "bike_id": "1ae9a5d12da7a0f1cda611e3730412e4", "is_disabled": 0, "is_reserved": 0}, {"rental_uris": {"ios": "https://dc.lft.to/lastmile_qr_scan", "android": "https://dc.lft.to/lastmile_qr_scan"}, "lon": -77.0235025, "type": "electric_scooter", "fusion_lat": 0.0, "lat": 38.92276783333333, "name": "d60bfe3cbe2c65d3b5d5b23a6b312b33", "fusion_lon": 0.0, "bike_id": "d60bfe3cbe2c65d3b5d5b23a6b312b33", "is_disabled": 0, "is_reserved": 0}, {"rental_uris": {"ios": "https://dc.lft.to/lastmile_qr_scan", "android": "https://dc.lft.to/lastmile_qr_scan"}, "lon": -77.035022, "type": "electric_scooter", "fusion_lat": 0.0, "lat": 38.902771, "name": "047b6349c8659aa52c3b040f6841e873", "fusion_lon": 0.0, "bike_id": "047b6349c8659aa52c3b040f6841e873", "is_disabled": 0, "is_reserved": 0}, {"rental_uris": {"ios": "https://dc.lft.to/lastmile_qr_scan", "android": "https://dc.lft.to/lastmile_qr_scan"}, "lon": -77.0212785, "type": "electric_scooter", "fusion_lat": 0.0, "lat": 38.90974416666667, "name": "619bf4ea5838b005fe57b6533b8bedad", "fusion_lon": 0.0, "bike_id": "619bf4ea5838b005fe57b6533b8bedad", "is_disabled": 0, "is_reserved": 0}, {"rental_uris": {"ios": "https://dc.lft.to/lastmile_qr_scan", "android": "https://dc.lft.to/lastmile_qr_scan"}, "lon": -77.06790233333334, "type": "electric_scooter", "fusion_lat": 0.0, "lat": 38.952027, "name": "86c02500d2fd88248efa4596a561c6f2", "fusion_lon": 0.0, "bike_id": "86c02500d2fd88248efa4596a561c6f2", "is_disabled": 0, "is_reserved": 0}, {"rental_uris": {"ios": "https://dc.lft.to/lastmile_qr_scan", "android": "https://dc.lft.to/lastmile_qr_scan"}, "lon": -77.0021095, "type": "electric_scooter", "fusion_lat": 0.0, "lat": 38.902204, "name": "48b93ede8e1f4ceefda27c33d3ec6978", "fusion_lon": 0.0, "bike_id": "48b93ede8e1f4ceefda27c33d3ec6978", "is_disabled": 0, "is_reserved": 0}, {"rental_uris": {"ios": "https://dc.lft.to/lastmile_qr_scan", "android": "https://dc.lft.to/lastmile_qr_scan"}, "lon": -77.00738733333333, "type": "electric_scooter", "fusion_lat": 0.0, "lat": 38.955223833333335, "name": "2a99c407bf15318a1f3501e9f034697a", "fusion_lon": 0.0, "bike_id": "2a99c407bf15318a1f3501e9f034697a", "is_disabled": 0, "is_reserved": 0}, {"rental_uris": {"ios": "https://dc.lft.to/lastmile_qr_scan", "android": "https://dc.lft.to/lastmile_qr_scan"}, "lon": -77.02505, "type": "electric_scooter", "fusion_lat": 0.0, "lat": 38.9182015, "name": "b4005800f56ee8f4acea51d309821e02", "fusion_lon": 0.0, "bike_id": "b4005800f56ee8f4acea51d309821e02", "is_disabled": 0, "is_reserved": 0}, {"rental_uris": {"ios": "https://dc.lft.to/lastmile_qr_scan", "android": "https://dc.lft.to/lastmile_qr_scan"}, "lon": -77.0416855, "type": "electric_scooter", "fusion_lat": 0.0, "lat": 38.91929233333333, "name": "96ee65ac89bd7a7b6a24e7ede2cba0c8", "fusion_lon": 0.0, "bike_id": "96ee65ac89bd7a7b6a24e7ede2cba0c8", "is_disabled": 0, "is_reserved": 0}, {"rental_uris": {"ios": "https://dc.lft.to/lastmile_qr_scan", "android": "https://dc.lft.to/lastmile_qr_scan"}, "lon": -77.029972, "type": "electric_scooter", "fusion_lat": 0.0, "lat": 38.910219, "name": "0de33fa2fe587762c758dd13f597a95a", "fusion_lon": 0.0, "bike_id": "0de33fa2fe587762c758dd13f597a95a", "is_disabled": 0, "is_reserved": 0}, {"rental_uris": {"ios": "https://dc.lft.to/lastmile_qr_scan", "android": "https://dc.lft.to/lastmile_qr_scan"}, "lon": -77.1526965, "type": "electric_bike", "fusion_lat": 0.0, "lat": 39.10567116666667, "name": "5db4c9d43fca2cdd20eac16fa62b6b6d", "fusion_lon": 0.0, "bike_id": "5db4c9d43fca2cdd20eac16fa62b6b6d", "is_disabled": 0, "is_reserved": 0}, {"rental_uris": {"ios": "https://dc.lft.to/lastmile_qr_scan", "android": "https://dc.lft.to/lastmile_qr_scan"}, "lon": -76.9575475, "type": "electric_scooter", "fusion_lat": 0.0, "lat": 38.884279666666664, "name": "791539d322fce1b522e05c0912016aba", "fusion_lon": 0.0, "bike_id": "791539d322fce1b522e05c0912016aba", "is_disabled": 0, "is_reserved": 0}, {"rental_uris": {"ios": "https://dc.lft.to/lastmile_qr_scan", "android": "https://dc.lft.to/lastmile_qr_scan"}, "lon": -77.0139585, "type": "electric_scooter", "fusion_lat": 0.0, "lat": 38.92841383333333, "name": "53a91a340672660701ed5ba579f55028", "fusion_lon": 0.0, "bike_id": "53a91a340672660701ed5ba579f55028", "is_disabled": 0, "is_reserved": 0}, {"rental_uris": {"ios": "https://dc.lft.to/lastmile_qr_scan", "android": "https://dc.lft.to/lastmile_qr_scan"}, "lon": -76.983264, "type": "electric_scooter", "fusion_lat": 0.0, "lat": 38.86172783333333, "name": "bdfd62a0e45a1adaf70c26bb41f00827", "fusion_lon": 0.0, "bike_id": "bdfd62a0e45a1adaf70c26bb41f00827", "is_disabled": 0, "is_reserved": 0}, {"rental_uris": {"ios": "https://dc.lft.to/lastmile_qr_scan", "android": "https://dc.lft.to/lastmile_qr_scan"}, "lon": -77.02416683333334, "type": "electric_scooter", "fusion_lat": 0.0, "lat": 38.9170875, "name": "cad4f7464f7ec38c43000d59f28b38da", "fusion_lon": 0.0, "bike_id": "cad4f7464f7ec38c43000d59f28b38da", "is_disabled": 0, "is_reserved": 0}, {"rental_uris": {"ios": "https://dc.lft.to/lastmile_qr_scan", "android": "https://dc.lft.to/lastmile_qr_scan"}, "lon": -77.0026295, "type": "electric_scooter", "fusion_lat": 0.0, "lat": 38.87753683333333, "name": "4fd01877d836bb83e799fa2631f290fd", "fusion_lon": 0.0, "bike_id": "4fd01877d836bb83e799fa2631f290fd", "is_disabled": 0, "is_reserved": 0}, {"rental_uris": {"ios": "https://dc.lft.to/lastmile_qr_scan", "android": "https://dc.lft.to/lastmile_qr_scan"}, "lon": -77.02961616666667, "type": "electric_scooter", "fusion_lat": 0.0, "lat": 38.92254166666667, "name": "763dd7cd829aad37bd90bae4cce072fe", "fusion_lon": 0.0, "bike_id": "763dd7cd829aad37bd90bae4cce072fe", "is_disabled": 0, "is_reserved": 0}, {"rental_uris": {"ios": "https://dc.lft.to/lastmile_qr_scan", "android": "https://dc.lft.to/lastmile_qr_scan"}, "lon": -77.0235545, "type": "electric_scooter", "fusion_lat": 0.0, "lat": 38.92515783333333, "name": "0d430d433245bbaa9f14f9763b00572e", "fusion_lon": 0.0, "bike_id": "0d430d433245bbaa9f14f9763b00572e", "is_disabled": 0, "is_reserved": 0}, {"rental_uris": {"ios": "https://dc.lft.to/lastmile_qr_scan", "android": "https://dc.lft.to/lastmile_qr_scan"}, "lon": -77.04173883333333, "type": "electric_scooter", "fusion_lat": 0.0, "lat": 38.90305083333333, "name": "852d8657e491f617b26cf92087a2f759", "fusion_lon": 0.0, "bike_id": "852d8657e491f617b26cf92087a2f759", "is_disabled": 0, "is_reserved": 0}, {"rental_uris": {"ios": "https://dc.lft.to/lastmile_qr_scan", "android": "https://dc.lft.to/lastmile_qr_scan"}, "lon": -77.02530566666667, "type": "electric_scooter", "fusion_lat": 0.0, "lat": 38.91817916666667, "name": "6105b3f9177613ae93aabd6711d8a24b", "fusion_lon": 0.0, "bike_id": "6105b3f9177613ae93aabd6711d8a24b", "is_disabled": 0, "is_reserved": 0}, {"rental_uris": {"ios": "https://dc.lft.to/lastmile_qr_scan", "android": "https://dc.lft.to/lastmile_qr_scan"}, "lon": -77.02594616666667, "type": "electric_scooter", "fusion_lat": 0.0, "lat": 38.892335, "name": "5953183d0ba110bc91aa6226ff6ad1c9", "fusion_lon": 0.0, "bike_id": "5953183d0ba110bc91aa6226ff6ad1c9", "is_disabled": 0, "is_reserved": 0}, {"rental_uris": {"ios": "https://dc.lft.to/lastmile_qr_scan", "android": "https://dc.lft.to/lastmile_qr_scan"}, "lon": -77.03192266666667, "type": "electric_scooter", "fusion_lat": 0.0, "lat": 38.916203833333334, "name": "0123c4f7d89a12918ca8da20c0b35d53", "fusion_lon": 0.0, "bike_id": "0123c4f7d89a12918ca8da20c0b35d53", "is_disabled": 0, "is_reserved": 0}, {"rental_uris": {"ios": "https://dc.lft.to/lastmile_qr_scan", "android": "https://dc.lft.to/lastmile_qr_scan"}, "lon": -77.07909466666666, "type": "electric_scooter", "fusion_lat": 0.0, "lat": 38.9480725, "name": "6a65189d01e3b3d4b35080b6273827c2", "fusion_lon": 0.0, "bike_id": "6a65189d01e3b3d4b35080b6273827c2", "is_disabled": 0, "is_reserved": 0}, {"rental_uris": {"ios": "https://dc.lft.to/lastmile_qr_scan", "android": "https://dc.lft.to/lastmile_qr_scan"}, "lon": -77.009937, "type": "electric_scooter", "fusion_lat": 0.0, "lat": 38.896099, "name": "d311b30b0ad1980dda18ee90edf5e5be", "fusion_lon": 0.0, "bike_id": "d311b30b0ad1980dda18ee90edf5e5be", "is_disabled": 0, "is_reserved": 0}, {"rental_uris": {"ios": "https://dc.lft.to/lastmile_qr_scan", "android": "https://dc.lft.to/lastmile_qr_scan"}, "lon": -76.94889466666666, "type": "electric_scooter", "fusion_lat": 0.0, "lat": 38.895285, "name": "53de844427afc5e319c5433b5c10d83a", "fusion_lon": 0.0, "bike_id": "53de844427afc5e319c5433b5c10d83a", "is_disabled": 0, "is_reserved": 0}, {"rental_uris": {"ios": "https://dc.lft.to/lastmile_qr_scan", "android": "https://dc.lft.to/lastmile_qr_scan"}, "lon": -77.04708216666667, "type": "electric_scooter", "fusion_lat": 0.0, "lat": 38.9223505, "name": "53bd21f84a4feb1cf47e8b3826e7194f", "fusion_lon": 0.0, "bike_id": "53bd21f84a4feb1cf47e8b3826e7194f", "is_disabled": 0, "is_reserved": 0}, {"rental_uris": {"ios": "https://dc.lft.to/lastmile_qr_scan", "android": "https://dc.lft.to/lastmile_qr_scan"}, "lon": -77.00375116666666, "type": "electric_scooter", "fusion_lat": 0.0, "lat": 38.87665283333333, "name": "3276225fcd4457bcb53c9f19cdadee73", "fusion_lon": 0.0, "bike_id": "3276225fcd4457bcb53c9f19cdadee73", "is_disabled": 0, "is_reserved": 0}, {"rental_uris": {"ios": "https://dc.lft.to/lastmile_qr_scan", "android": "https://dc.lft.to/lastmile_qr_scan"}, "lon": -77.03211433333334, "type": "electric_scooter", "fusion_lat": 0.0, "lat": 38.92577133333333, "name": "800083aaca6dd6b4ced6ba1a35e95d53", "fusion_lon": 0.0, "bike_id": "800083aaca6dd6b4ced6ba1a35e95d53", "is_disabled": 0, "is_reserved": 0}, {"rental_uris": {"ios": "https://dc.lft.to/lastmile_qr_scan", "android": "https://dc.lft.to/lastmile_qr_scan"}, "lon": -77.04978283333334, "type": "electric_scooter", "fusion_lat": 0.0, "lat": 38.901074333333334, "name": "3049dae95cae5eb595949be0c6f44bed", "fusion_lon": 0.0, "bike_id": "3049dae95cae5eb595949be0c6f44bed", "is_disabled": 0, "is_reserved": 0}, {"rental_uris": {"ios": "https://dc.lft.to/lastmile_qr_scan", "android": "https://dc.lft.to/lastmile_qr_scan"}, "lon": -77.02577766666667, "type": "electric_scooter", "fusion_lat": 0.0, "lat": 38.90364666666667, "name": "b2ee1de76039f4ed37c5a2d1b5196a70", "fusion_lon": 0.0, "bike_id": "b2ee1de76039f4ed37c5a2d1b5196a70", "is_disabled": 0, "is_reserved": 0}, {"rental_uris": {"ios": "https://dc.lft.to/lastmile_qr_scan", "android": "https://dc.lft.to/lastmile_qr_scan"}, "lon": -77.0317845, "type": "electric_scooter", "fusion_lat": 0.0, "lat": 38.90160133333333, "name": "3e09e9c8c2e2a3a2c03ce9bb5e9fec8a", "fusion_lon": 0.0, "bike_id": "3e09e9c8c2e2a3a2c03ce9bb5e9fec8a", "is_disabled": 0, "is_reserved": 0}, {"rental_uris": {"ios": "https://dc.lft.to/lastmile_qr_scan", "android": "https://dc.lft.to/lastmile_qr_scan"}, "lon": -77.00859583333333, "type": "electric_bike", "fusion_lat": 0.0, "lat": 38.827237, "name": "3213dbad6ee35d3be9826fef9dd3b9a9", "fusion_lon": 0.0, "bike_id": "3213dbad6ee35d3be9826fef9dd3b9a9", "is_disabled": 0, "is_reserved": 0}, {"rental_uris": {"ios": "https://dc.lft.to/lastmile_qr_scan", "android": "https://dc.lft.to/lastmile_qr_scan"}, "lon": -77.0194485, "type": "electric_scooter", "fusion_lat": 0.0, "lat": 38.92415716666667, "name": "031dfec52f875bfdd469c3f2ad392875", "fusion_lon": 0.0, "bike_id": "031dfec52f875bfdd469c3f2ad392875", "is_disabled": 0, "is_reserved": 0}, {"rental_uris": {"ios": "https://dc.lft.to/lastmile_qr_scan", "android": "https://dc.lft.to/lastmile_qr_scan"}, "lon": -77.04493883333333, "type": "electric_scooter", "fusion_lat": 0.0, "lat": 38.9195295, "name": "1ce2aefb30c5a27717da9183e06750d7", "fusion_lon": 0.0, "bike_id": "1ce2aefb30c5a27717da9183e06750d7", "is_disabled": 0, "is_reserved": 0}, {"rental_uris": {"ios": "https://dc.lft.to/lastmile_qr_scan", "android": "https://dc.lft.to/lastmile_qr_scan"}, "lon": -76.98573233333333, "type": "electric_scooter", "fusion_lat": 0.0, "lat": 38.855859, "name": "2f20c88debdd6aa1b36d3ba277dcb1b3", "fusion_lon": 0.0, "bike_id": "2f20c88debdd6aa1b36d3ba277dcb1b3", "is_disabled": 0, "is_reserved": 0}, {"rental_uris": {"ios": "https://dc.lft.to/lastmile_qr_scan", "android": "https://dc.lft.to/lastmile_qr_scan"}, "lon": -77.03169366666667, "type": "electric_scooter", "fusion_lat": 0.0, "lat": 38.921077, "name": "2f7411dfab2b402abddb310e27368115", "fusion_lon": 0.0, "bike_id": "2f7411dfab2b402abddb310e27368115", "is_disabled": 0, "is_reserved": 0}, {"rental_uris": {"ios": "https://dc.lft.to/lastmile_qr_scan", "android": "https://dc.lft.to/lastmile_qr_scan"}, "lon": -77.04155683333333, "type": "electric_scooter", "fusion_lat": 0.0, "lat": 38.90313833333333, "name": "5ee1deacf0d19b93d2654d693e4c9fbb", "fusion_lon": 0.0, "bike_id": "5ee1deacf0d19b93d2654d693e4c9fbb", "is_disabled": 0, "is_reserved": 0}, {"rental_uris": {"ios": "https://dc.lft.to/lastmile_qr_scan", "android": "https://dc.lft.to/lastmile_qr_scan"}, "lon": -77.00035283333334, "type": "electric_scooter", "fusion_lat": 0.0, "lat": 38.876398, "name": "09ef99f05e22a09a130c5a00dba78277", "fusion_lon": 0.0, "bike_id": "09ef99f05e22a09a130c5a00dba78277", "is_disabled": 0, "is_reserved": 0}, {"rental_uris": {"ios": "https://dc.lft.to/lastmile_qr_scan", "android": "https://dc.lft.to/lastmile_qr_scan"}, "lon": -77.04158916666667, "type": "electric_scooter", "fusion_lat": 0.0, "lat": 38.914846, "name": "6181f7a88df1ef1715c0c907519d11b0", "fusion_lon": 0.0, "bike_id": "6181f7a88df1ef1715c0c907519d11b0", "is_disabled": 0, "is_reserved": 0}, {"rental_uris": {"ios": "https://dc.lft.to/lastmile_qr_scan", "android": "https://dc.lft.to/lastmile_qr_scan"}, "lon": -77.03783883333334, "type": "electric_scooter", "fusion_lat": 0.0, "lat": 38.930252, "name": "513d9cc529fb20fd06c9aea944878ddc", "fusion_lon": 0.0, "bike_id": "513d9cc529fb20fd06c9aea944878ddc", "is_disabled": 0, "is_reserved": 0}, {"rental_uris": {"ios": "https://dc.lft.to/lastmile_qr_scan", "android": "https://dc.lft.to/lastmile_qr_scan"}, "lon": -77.03960266666667, "type": "electric_scooter", "fusion_lat": 0.0, "lat": 38.89854916666667, "name": "83f67b5149eea6fdf930c3550496c32b", "fusion_lon": 0.0, "bike_id": "83f67b5149eea6fdf930c3550496c32b", "is_disabled": 0, "is_reserved": 0}, {"rental_uris": {"ios": "https://dc.lft.to/lastmile_qr_scan", "android": "https://dc.lft.to/lastmile_qr_scan"}, "lon": -77.02658516666666, "type": "electric_scooter", "fusion_lat": 0.0, "lat": 38.88103683333333, "name": "faad4f6a47d62df8bfe1d240718b56e7", "fusion_lon": 0.0, "bike_id": "faad4f6a47d62df8bfe1d240718b56e7", "is_disabled": 0, "is_reserved": 0}, {"rental_uris": {"ios": "https://dc.lft.to/lastmile_qr_scan", "android": "https://dc.lft.to/lastmile_qr_scan"}, "lon": -77.01609816666667, "type": "electric_scooter", "fusion_lat": 0.0, "lat": 38.911319166666665, "name": "2a4b5a8c554351fc73fd0579b2a34174", "fusion_lon": 0.0, "bike_id": "2a4b5a8c554351fc73fd0579b2a34174", "is_disabled": 0, "is_reserved": 0}, {"rental_uris": {"ios": "https://dc.lft.to/lastmile_qr_scan", "android": "https://dc.lft.to/lastmile_qr_scan"}, "lon": -76.931752, "type": "electric_scooter", "fusion_lat": 0.0, "lat": 38.898865666666666, "name": "81014486b996c7d1c3165923fcd0a766", "fusion_lon": 0.0, "bike_id": "81014486b996c7d1c3165923fcd0a766", "is_disabled": 0, "is_reserved": 0}, {"rental_uris": {"ios": "https://dc.lft.to/lastmile_qr_scan", "android": "https://dc.lft.to/lastmile_qr_scan"}, "lon": -76.93737183333333, "type": "electric_scooter", "fusion_lat": 0.0, "lat": 38.89016316666667, "name": "b766343cbf24ee593ae16d3d11623ffe", "fusion_lon": 0.0, "bike_id": "b766343cbf24ee593ae16d3d11623ffe", "is_disabled": 0, "is_reserved": 0}, {"rental_uris": {"ios": "https://dc.lft.to/lastmile_qr_scan", "android": "https://dc.lft.to/lastmile_qr_scan"}, "lon": -77.07162783333334, "type": "electric_scooter", "fusion_lat": 0.0, "lat": 38.907788, "name": "e1dab9033f9253657b311e44cec82e3b", "fusion_lon": 0.0, "bike_id": "e1dab9033f9253657b311e44cec82e3b", "is_disabled": 0, "is_reserved": 0}, {"rental_uris": {"ios": "https://dc.lft.to/lastmile_qr_scan", "android": "https://dc.lft.to/lastmile_qr_scan"}, "lon": -77.03138733333333, "type": "electric_scooter", "fusion_lat": 0.0, "lat": 38.910371833333336, "name": "7d9180286554639ddee34c45b149fca8", "fusion_lon": 0.0, "bike_id": "7d9180286554639ddee34c45b149fca8", "is_disabled": 0, "is_reserved": 0}, {"rental_uris": {"ios": "https://dc.lft.to/lastmile_qr_scan", "android": "https://dc.lft.to/lastmile_qr_scan"}, "lon": -77.0433065, "type": "electric_scooter", "fusion_lat": 0.0, "lat": 38.903594166666664, "name": "f59279d1b4cda16f5da991605af7b1f1", "fusion_lon": 0.0, "bike_id": "f59279d1b4cda16f5da991605af7b1f1", "is_disabled": 0, "is_reserved": 0}, {"rental_uris": {"ios": "https://dc.lft.to/lastmile_qr_scan", "android": "https://dc.lft.to/lastmile_qr_scan"}, "lon": -77.02013483333333, "type": "electric_scooter", "fusion_lat": 0.0, "lat": 38.8974725, "name": "5a46c110fe5048cd0597204eb2cfb539", "fusion_lon": 0.0, "bike_id": "5a46c110fe5048cd0597204eb2cfb539", "is_disabled": 0, "is_reserved": 0}, {"rental_uris": {"ios": "https://dc.lft.to/lastmile_qr_scan", "android": "https://dc.lft.to/lastmile_qr_scan"}, "lon": -77.0320125, "type": "electric_scooter", "fusion_lat": 0.0, "lat": 38.92898983333333, "name": "87357c40e46840dfa4dade59f2fe4822", "fusion_lon": 0.0, "bike_id": "87357c40e46840dfa4dade59f2fe4822", "is_disabled": 0, "is_reserved": 0}, {"rental_uris": {"ios": "https://dc.lft.to/lastmile_qr_scan", "android": "https://dc.lft.to/lastmile_qr_scan"}, "lon": -76.978323, "type": "electric_bike", "fusion_lat": 0.0, "lat": 38.84611116666667, "name": "a17d7d5469426e3a3183a21b98d84b1e", "fusion_lon": 0.0, "bike_id": "a17d7d5469426e3a3183a21b98d84b1e", "is_disabled": 0, "is_reserved": 0}, {"rental_uris": {"ios": "https://dc.lft.to/lastmile_qr_scan", "android": "https://dc.lft.to/lastmile_qr_scan"}, "lon": -77.12627083333334, "type": "electric_bike", "fusion_lat": 0.0, "lat": 39.058137333333335, "name": "95c2e7f4dfd18a0335e929efa55e3546", "fusion_lon": 0.0, "bike_id": "95c2e7f4dfd18a0335e929efa55e3546", "is_disabled": 0, "is_reserved": 0}, {"rental_uris": {"ios": "https://dc.lft.to/lastmile_qr_scan", "android": "https://dc.lft.to/lastmile_qr_scan"}, "lon": -77.0487875, "type": "electric_scooter", "fusion_lat": 0.0, "lat": 38.905800666666664, "name": "2f9de8ec1adbc6e18f0ddc7566f48e52", "fusion_lon": 0.0, "bike_id": "2f9de8ec1adbc6e18f0ddc7566f48e52", "is_disabled": 0, "is_reserved": 0}, {"rental_uris": {"ios": "https://dc.lft.to/lastmile_qr_scan", "android": "https://dc.lft.to/lastmile_qr_scan"}, "lon": -77.03218533333333, "type": "electric_scooter", "fusion_lat": 0.0, "lat": 38.89223066666667, "name": "98274ccc58503188ca97d371a11d8679", "fusion_lon": 0.0, "bike_id": "98274ccc58503188ca97d371a11d8679", "is_disabled": 0, "is_reserved": 0}, {"rental_uris": {"ios": "https://dc.lft.to/lastmile_qr_scan", "android": "https://dc.lft.to/lastmile_qr_scan"}, "lon": -77.03330433333333, "type": "electric_scooter", "fusion_lat": 0.0, "lat": 38.899016833333334, "name": "650e6eb8dfbde99010274a9b7c739106", "fusion_lon": 0.0, "bike_id": "650e6eb8dfbde99010274a9b7c739106", "is_disabled": 0, "is_reserved": 0}, {"rental_uris": {"ios": "https://dc.lft.to/lastmile_qr_scan", "android": "https://dc.lft.to/lastmile_qr_scan"}, "lon": -76.98397366666667, "type": "electric_bike", "fusion_lat": 0.0, "lat": 38.92203816666667, "name": "40eea17d9d78cb278a0deb73b4a24e74", "fusion_lon": 0.0, "bike_id": "40eea17d9d78cb278a0deb73b4a24e74", "is_disabled": 0, "is_reserved": 0}, {"rental_uris": {"ios": "https://dc.lft.to/lastmile_qr_scan", "android": "https://dc.lft.to/lastmile_qr_scan"}, "lon": -77.0296285, "type": "electric_scooter", "fusion_lat": 0.0, "lat": 38.892204166666666, "name": "ffd718afd5d3a361d294074b59eb0764", "fusion_lon": 0.0, "bike_id": "ffd718afd5d3a361d294074b59eb0764", "is_disabled": 0, "is_reserved": 0}, {"rental_uris": {"ios": "https://dc.lft.to/lastmile_qr_scan", "android": "https://dc.lft.to/lastmile_qr_scan"}, "lon": -77.034159, "type": "electric_scooter", "fusion_lat": 0.0, "lat": 38.93536816666666, "name": "93483e97706b685d7b03b76de64c86fd", "fusion_lon": 0.0, "bike_id": "93483e97706b685d7b03b76de64c86fd", "is_disabled": 0, "is_reserved": 0}, {"rental_uris": {"ios": "https://dc.lft.to/lastmile_qr_scan", "android": "https://dc.lft.to/lastmile_qr_scan"}, "lon": -77.033494, "type": "electric_scooter", "fusion_lat": 0.0, "lat": 38.89952866666667, "name": "6cd7635af4ca05b111ca1d918f59bbdd", "fusion_lon": 0.0, "bike_id": "6cd7635af4ca05b111ca1d918f59bbdd", "is_disabled": 0, "is_reserved": 0}, {"rental_uris": {"ios": "https://dc.lft.to/lastmile_qr_scan", "android": "https://dc.lft.to/lastmile_qr_scan"}, "lon": -77.03669166666667, "type": "electric_scooter", "fusion_lat": 0.0, "lat": 38.91814333333333, "name": "e452bdf275052007b73b19f3d5e80922", "fusion_lon": 0.0, "bike_id": "e452bdf275052007b73b19f3d5e80922", "is_disabled": 0, "is_reserved": 0}, {"rental_uris": {"ios": "https://dc.lft.to/lastmile_qr_scan", "android": "https://dc.lft.to/lastmile_qr_scan"}, "lon": -77.03857183333334, "type": "electric_scooter", "fusion_lat": 0.0, "lat": 38.91210516666666, "name": "5a33087e200ce77bb01d4bb7a751f1dd", "fusion_lon": 0.0, "bike_id": "5a33087e200ce77bb01d4bb7a751f1dd", "is_disabled": 0, "is_reserved": 0}, {"rental_uris": {"ios": "https://dc.lft.to/lastmile_qr_scan", "android": "https://dc.lft.to/lastmile_qr_scan"}, "lon": -77.11317683333333, "type": "electric_bike", "fusion_lat": 0.0, "lat": 38.85565583333333, "name": "9ed8d5abe1f295dbcb76635b91c1112e", "fusion_lon": 0.0, "bike_id": "9ed8d5abe1f295dbcb76635b91c1112e", "is_disabled": 0, "is_reserved": 0}, {"rental_uris": {"ios": "https://dc.lft.to/lastmile_qr_scan", "android": "https://dc.lft.to/lastmile_qr_scan"}, "lon": -76.9869585, "type": "electric_scooter", "fusion_lat": 0.0, "lat": 38.9129175, "name": "eacfa63a39192fb17167c05058ddc45a", "fusion_lon": 0.0, "bike_id": "eacfa63a39192fb17167c05058ddc45a", "is_disabled": 0, "is_reserved": 0}, {"rental_uris": {"ios": "https://dc.lft.to/lastmile_qr_scan", "android": "https://dc.lft.to/lastmile_qr_scan"}, "lon": -77.03211616666667, "type": "electric_scooter", "fusion_lat": 0.0, "lat": 38.92583616666667, "name": "9c24d094eb72982cb6347de8ff8fd3c9", "fusion_lon": 0.0, "bike_id": "9c24d094eb72982cb6347de8ff8fd3c9", "is_disabled": 0, "is_reserved": 0}, {"rental_uris": {"ios": "https://dc.lft.to/lastmile_qr_scan", "android": "https://dc.lft.to/lastmile_qr_scan"}, "lon": -77.06880633333333, "type": "electric_scooter", "fusion_lat": 0.0, "lat": 38.90514616666667, "name": "0eb43a3dbc55b5613f77fccae95be3ff", "fusion_lon": 0.0, "bike_id": "0eb43a3dbc55b5613f77fccae95be3ff", "is_disabled": 0, "is_reserved": 0}, {"rental_uris": {"ios": "https://dc.lft.to/lastmile_qr_scan", "android": "https://dc.lft.to/lastmile_qr_scan"}, "lon": -77.01089816666666, "type": "electric_scooter", "fusion_lat": 0.0, "lat": 38.893991166666666, "name": "409ac444aba56abe5092aa6740590a31", "fusion_lon": 0.0, "bike_id": "409ac444aba56abe5092aa6740590a31", "is_disabled": 0, "is_reserved": 0}, {"rental_uris": {"ios": "https://dc.lft.to/lastmile_qr_scan", "android": "https://dc.lft.to/lastmile_qr_scan"}, "lon": -77.04463866666667, "type": "electric_scooter", "fusion_lat": 0.0, "lat": 38.906653, "name": "3e71099a89e35080dce0f857b4c80e1b", "fusion_lon": 0.0, "bike_id": "3e71099a89e35080dce0f857b4c80e1b", "is_disabled": 0, "is_reserved": 0}, {"rental_uris": {"ios": "https://dc.lft.to/lastmile_qr_scan", "android": "https://dc.lft.to/lastmile_qr_scan"}, "lon": -77.03255566666667, "type": "electric_scooter", "fusion_lat": 0.0, "lat": 38.92165816666667, "name": "8bf5ad6c3582dd3bd0086a88bbfa286f", "fusion_lon": 0.0, "bike_id": "8bf5ad6c3582dd3bd0086a88bbfa286f", "is_disabled": 0, "is_reserved": 0}, {"rental_uris": {"ios": "https://dc.lft.to/lastmile_qr_scan", "android": "https://dc.lft.to/lastmile_qr_scan"}, "lon": -76.988233, "type": "electric_scooter", "fusion_lat": 0.0, "lat": 38.880252666666664, "name": "c2a193800d0eaf6ee833deb29afbec79", "fusion_lon": 0.0, "bike_id": "c2a193800d0eaf6ee833deb29afbec79", "is_disabled": 0, "is_reserved": 0}, {"rental_uris": {"ios": "https://dc.lft.to/lastmile_qr_scan", "android": "https://dc.lft.to/lastmile_qr_scan"}, "lon": -77.032081, "type": "electric_scooter", "fusion_lat": 0.0, "lat": 38.88698633333333, "name": "787fae32baa035108e074c019084c2a2", "fusion_lon": 0.0, "bike_id": "787fae32baa035108e074c019084c2a2", "is_disabled": 0, "is_reserved": 0}, {"rental_uris": {"ios": "https://dc.lft.to/lastmile_qr_scan", "android": "https://dc.lft.to/lastmile_qr_scan"}, "lon": -77.02425133333334, "type": "electric_scooter", "fusion_lat": 0.0, "lat": 38.88490766666666, "name": "6b8fb8ae490bb13d2b2cdb7be12c352c", "fusion_lon": 0.0, "bike_id": "6b8fb8ae490bb13d2b2cdb7be12c352c", "is_disabled": 0, "is_reserved": 0}, {"rental_uris": {"ios": "https://dc.lft.to/lastmile_qr_scan", "android": "https://dc.lft.to/lastmile_qr_scan"}, "lon": -76.99602033333333, "type": "electric_scooter", "fusion_lat": 0.0, "lat": 38.90025583333333, "name": "b41283948508b34ad2a557a6136b68d6", "fusion_lon": 0.0, "bike_id": "b41283948508b34ad2a557a6136b68d6", "is_disabled": 0, "is_reserved": 0}, {"rental_uris": {"ios": "https://dc.lft.to/lastmile_qr_scan", "android": "https://dc.lft.to/lastmile_qr_scan"}, "lon": -77.0468385, "type": "electric_scooter", "fusion_lat": 0.0, "lat": 38.892247166666664, "name": "6dbd5ec1ac36a06f11bbd293b8e2a10b", "fusion_lon": 0.0, "bike_id": "6dbd5ec1ac36a06f11bbd293b8e2a10b", "is_disabled": 0, "is_reserved": 0}, {"rental_uris": {"ios": "https://dc.lft.to/lastmile_qr_scan", "android": "https://dc.lft.to/lastmile_qr_scan"}, "lon": -77.03214016666666, "type": "electric_scooter", "fusion_lat": 0.0, "lat": 38.962423, "name": "e385cbff67fad2b81e6837e2b1cc8094", "fusion_lon": 0.0, "bike_id": "e385cbff67fad2b81e6837e2b1cc8094", "is_disabled": 0, "is_reserved": 0}, {"rental_uris": {"ios": "https://dc.lft.to/lastmile_qr_scan", "android": "https://dc.lft.to/lastmile_qr_scan"}, "lon": -76.9856975, "type": "electric_scooter", "fusion_lat": 0.0, "lat": 38.8988755, "name": "03b42990cff47c0fd9321e02ff9a8cd7", "fusion_lon": 0.0, "bike_id": "03b42990cff47c0fd9321e02ff9a8cd7", "is_disabled": 0, "is_reserved": 0}, {"rental_uris": {"ios": "https://dc.lft.to/lastmile_qr_scan", "android": "https://dc.lft.to/lastmile_qr_scan"}, "lon": -77.01810516666667, "type": "electric_scooter", "fusion_lat": 0.0, "lat": 38.911932, "name": "2d9c0f23215729ff517fe3d8b7ffe25f", "fusion_lon": 0.0, "bike_id": "2d9c0f23215729ff517fe3d8b7ffe25f", "is_disabled": 0, "is_reserved": 0}, {"rental_uris": {"ios": "https://dc.lft.to/lastmile_qr_scan", "android": "https://dc.lft.to/lastmile_qr_scan"}, "lon": -77.04005033333334, "type": "electric_scooter", "fusion_lat": 0.0, "lat": 38.9133765, "name": "0ddca6158d96226f75185547e3126689", "fusion_lon": 0.0, "bike_id": "0ddca6158d96226f75185547e3126689", "is_disabled": 0, "is_reserved": 0}, {"rental_uris": {"ios": "https://dc.lft.to/lastmile_qr_scan", "android": "https://dc.lft.to/lastmile_qr_scan"}, "lon": -76.94655883333333, "type": "electric_scooter", "fusion_lat": 0.0, "lat": 38.89827533333333, "name": "56879f7686e241c5a3ca45bdbfc4ef04", "fusion_lon": 0.0, "bike_id": "56879f7686e241c5a3ca45bdbfc4ef04", "is_disabled": 0, "is_reserved": 0}, {"rental_uris": {"ios": "https://dc.lft.to/lastmile_qr_scan", "android": "https://dc.lft.to/lastmile_qr_scan"}, "lon": -77.06277, "type": "electric_scooter", "fusion_lat": 0.0, "lat": 38.906875666666664, "name": "b07018f0aaa653b419179955a0f50353", "fusion_lon": 0.0, "bike_id": "b07018f0aaa653b419179955a0f50353", "is_disabled": 0, "is_reserved": 0}, {"rental_uris": {"ios": "https://dc.lft.to/lastmile_qr_scan", "android": "https://dc.lft.to/lastmile_qr_scan"}, "lon": -77.02414883333333, "type": "electric_scooter", "fusion_lat": 0.0, "lat": 38.9182475, "name": "aa22d468a2e8c6077b7cef0593152fa7", "fusion_lon": 0.0, "bike_id": "aa22d468a2e8c6077b7cef0593152fa7", "is_disabled": 0, "is_reserved": 0}, {"rental_uris": {"ios": "https://dc.lft.to/lastmile_qr_scan", "android": "https://dc.lft.to/lastmile_qr_scan"}, "lon": -77.039995, "type": "electric_scooter", "fusion_lat": 0.0, "lat": 38.9141585, "name": "39bab3fbff48fe3a839f84e08b80f57d", "fusion_lon": 0.0, "bike_id": "39bab3fbff48fe3a839f84e08b80f57d", "is_disabled": 0, "is_reserved": 0}, {"rental_uris": {"ios": "https://dc.lft.to/lastmile_qr_scan", "android": "https://dc.lft.to/lastmile_qr_scan"}, "lon": -77.01613866666666, "type": "electric_scooter", "fusion_lat": 0.0, "lat": 38.87685966666667, "name": "c0430d5e2a5a85a4b0001ad190747138", "fusion_lon": 0.0, "bike_id": "c0430d5e2a5a85a4b0001ad190747138", "is_disabled": 0, "is_reserved": 0}, {"rental_uris": {"ios": "https://dc.lft.to/lastmile_qr_scan", "android": "https://dc.lft.to/lastmile_qr_scan"}, "lon": -77.03421416666667, "type": "electric_scooter", "fusion_lat": 0.0, "lat": 38.93972766666667, "name": "ad8902fad2d6db3aa730d5ab04e95281", "fusion_lon": 0.0, "bike_id": "ad8902fad2d6db3aa730d5ab04e95281", "is_disabled": 0, "is_reserved": 0}, {"rental_uris": {"ios": "https://dc.lft.to/lastmile_qr_scan", "android": "https://dc.lft.to/lastmile_qr_scan"}, "lon": -77.100286, "type": "electric_bike", "fusion_lat": 0.0, "lat": 38.9906295, "name": "bb64c5ab0f275de279fccbfa4b02a0e3", "fusion_lon": 0.0, "bike_id": "bb64c5ab0f275de279fccbfa4b02a0e3", "is_disabled": 0, "is_reserved": 0}, {"rental_uris": {"ios": "https://dc.lft.to/lastmile_qr_scan", "android": "https://dc.lft.to/lastmile_qr_scan"}, "lon": -77.04897433333333, "type": "electric_bike", "fusion_lat": 0.0, "lat": 38.874943333333334, "name": "b050bf36d434ae4fb6fdbc7cf62036c8", "fusion_lon": 0.0, "bike_id": "b050bf36d434ae4fb6fdbc7cf62036c8", "is_disabled": 0, "is_reserved": 0}, {"rental_uris": {"ios": "https://dc.lft.to/lastmile_qr_scan", "android": "https://dc.lft.to/lastmile_qr_scan"}, "lon": -77.032185, "type": "electric_scooter", "fusion_lat": 0.0, "lat": 38.90734916666667, "name": "e8ad5c10264a9dfede81476364ba81db", "fusion_lon": 0.0, "bike_id": "e8ad5c10264a9dfede81476364ba81db", "is_disabled": 0, "is_reserved": 0}, {"rental_uris": {"ios": "https://dc.lft.to/lastmile_qr_scan", "android": "https://dc.lft.to/lastmile_qr_scan"}, "lon": -77.0489695, "type": "electric_scooter", "fusion_lat": 0.0, "lat": 38.9037955, "name": "a9e4e9256e4d90a60985dd79b7c67416", "fusion_lon": 0.0, "bike_id": "a9e4e9256e4d90a60985dd79b7c67416", "is_disabled": 0, "is_reserved": 0}, {"rental_uris": {"ios": "https://dc.lft.to/lastmile_qr_scan", "android": "https://dc.lft.to/lastmile_qr_scan"}, "lon": -77.03837133333333, "type": "electric_scooter", "fusion_lat": 0.0, "lat": 38.907517166666665, "name": "183aea9433627abe10ee7d6f794b6ea1", "fusion_lon": 0.0, "bike_id": "183aea9433627abe10ee7d6f794b6ea1", "is_disabled": 0, "is_reserved": 0}, {"rental_uris": {"ios": "https://dc.lft.to/lastmile_qr_scan", "android": "https://dc.lft.to/lastmile_qr_scan"}, "lon": -77.0326795, "type": "electric_scooter", "fusion_lat": 0.0, "lat": 38.9163055, "name": "f544d92374c5e16a35d020c00c29dd2c", "fusion_lon": 0.0, "bike_id": "f544d92374c5e16a35d020c00c29dd2c", "is_disabled": 0, "is_reserved": 0}, {"rental_uris": {"ios": "https://dc.lft.to/lastmile_qr_scan", "android": "https://dc.lft.to/lastmile_qr_scan"}, "lon": -76.9491435, "type": "electric_scooter", "fusion_lat": 0.0, "lat": 38.895571833333335, "name": "0dc34a11e6270442a17b75f9e3674fe7", "fusion_lon": 0.0, "bike_id": "0dc34a11e6270442a17b75f9e3674fe7", "is_disabled": 0, "is_reserved": 0}, {"rental_uris": {"ios": "https://dc.lft.to/lastmile_qr_scan", "android": "https://dc.lft.to/lastmile_qr_scan"}, "lon": -77.10332683333333, "type": "electric_bike", "fusion_lat": 0.0, "lat": 38.96509016666667, "name": "bb5d672c51c6536535a49b70f2334517", "fusion_lon": 0.0, "bike_id": "bb5d672c51c6536535a49b70f2334517", "is_disabled": 0, "is_reserved": 0}, {"rental_uris": {"ios": "https://dc.lft.to/lastmile_qr_scan", "android": "https://dc.lft.to/lastmile_qr_scan"}, "lon": -77.0550435, "type": "electric_scooter", "fusion_lat": 0.0, "lat": 38.89967266666667, "name": "099dcd824c0d813894735a3809734f7d", "fusion_lon": 0.0, "bike_id": "099dcd824c0d813894735a3809734f7d", "is_disabled": 0, "is_reserved": 0}, {"rental_uris": {"ios": "https://dc.lft.to/lastmile_qr_scan", "android": "https://dc.lft.to/lastmile_qr_scan"}, "lon": -77.02927733333334, "type": "electric_scooter", "fusion_lat": 0.0, "lat": 38.933339, "name": "e778068021ae316d9d1b57eb4751d184", "fusion_lon": 0.0, "bike_id": "e778068021ae316d9d1b57eb4751d184", "is_disabled": 0, "is_reserved": 0}, {"rental_uris": {"ios": "https://dc.lft.to/lastmile_qr_scan", "android": "https://dc.lft.to/lastmile_qr_scan"}, "lon": -77.0403635, "type": "electric_scooter", "fusion_lat": 0.0, "lat": 38.92433883333333, "name": "73ee6d4f6bb76cb1dfa58a53a736ffbf", "fusion_lon": 0.0, "bike_id": "73ee6d4f6bb76cb1dfa58a53a736ffbf", "is_disabled": 0, "is_reserved": 0}, {"rental_uris": {"ios": "https://dc.lft.to/lastmile_qr_scan", "android": "https://dc.lft.to/lastmile_qr_scan"}, "lon": -77.0354245, "type": "electric_scooter", "fusion_lat": 0.0, "lat": 38.92342033333333, "name": "326e7840e78458564534295d6de1c96f", "fusion_lon": 0.0, "bike_id": "326e7840e78458564534295d6de1c96f", "is_disabled": 0, "is_reserved": 0}, {"rental_uris": {"ios": "https://dc.lft.to/lastmile_qr_scan", "android": "https://dc.lft.to/lastmile_qr_scan"}, "lon": -77.04907466666667, "type": "electric_scooter", "fusion_lat": 0.0, "lat": 38.900734666666665, "name": "433103f6b9890f14af35ef1f9881af48", "fusion_lon": 0.0, "bike_id": "433103f6b9890f14af35ef1f9881af48", "is_disabled": 0, "is_reserved": 0}, {"rental_uris": {"ios": "https://dc.lft.to/lastmile_qr_scan", "android": "https://dc.lft.to/lastmile_qr_scan"}, "lon": -76.9518405, "type": "electric_scooter", "fusion_lat": 0.0, "lat": 38.89134416666667, "name": "6d9387fb221dceca9ab60dc4e4222c35", "fusion_lon": 0.0, "bike_id": "6d9387fb221dceca9ab60dc4e4222c35", "is_disabled": 0, "is_reserved": 0}, {"rental_uris": {"ios": "https://dc.lft.to/lastmile_qr_scan", "android": "https://dc.lft.to/lastmile_qr_scan"}, "lon": -77.00892516666667, "type": "electric_scooter", "fusion_lat": 0.0, "lat": 38.905161, "name": "8164513eef930c440e178ba7556e1de8", "fusion_lon": 0.0, "bike_id": "8164513eef930c440e178ba7556e1de8", "is_disabled": 0, "is_reserved": 0}, {"rental_uris": {"ios": "https://dc.lft.to/lastmile_qr_scan", "android": "https://dc.lft.to/lastmile_qr_scan"}, "lon": -77.016393, "type": "electric_scooter", "fusion_lat": 0.0, "lat": 38.929381, "name": "ed58ddf72b4125c37100947342d45b80", "fusion_lon": 0.0, "bike_id": "ed58ddf72b4125c37100947342d45b80", "is_disabled": 0, "is_reserved": 0}, {"rental_uris": {"ios": "https://dc.lft.to/lastmile_qr_scan", "android": "https://dc.lft.to/lastmile_qr_scan"}, "lon": -77.025846, "type": "electric_scooter", "fusion_lat": 0.0, "lat": 38.915051, "name": "477d25da55483c51889da28ab3a8a686", "fusion_lon": 0.0, "bike_id": "477d25da55483c51889da28ab3a8a686", "is_disabled": 0, "is_reserved": 0}, {"rental_uris": {"ios": "https://dc.lft.to/lastmile_qr_scan", "android": "https://dc.lft.to/lastmile_qr_scan"}, "lon": -77.03603, "type": "electric_scooter", "fusion_lat": 0.0, "lat": 38.9349315, "name": "32a5e0735e65c6bf35817c3839e71e83", "fusion_lon": 0.0, "bike_id": "32a5e0735e65c6bf35817c3839e71e83", "is_disabled": 0, "is_reserved": 0}, {"rental_uris": {"ios": "https://dc.lft.to/lastmile_qr_scan", "android": "https://dc.lft.to/lastmile_qr_scan"}, "lon": -77.02005333333334, "type": "electric_scooter", "fusion_lat": 0.0, "lat": 38.91310083333333, "name": "bd3c065e547ed7c4a9df2d6baad4361d", "fusion_lon": 0.0, "bike_id": "bd3c065e547ed7c4a9df2d6baad4361d", "is_disabled": 0, "is_reserved": 0}, {"rental_uris": {"ios": "https://dc.lft.to/lastmile_qr_scan", "android": "https://dc.lft.to/lastmile_qr_scan"}, "lon": -77.04553683333333, "type": "electric_scooter", "fusion_lat": 0.0, "lat": 38.93402583333334, "name": "ec019c1ad00d568aecfa3867da1fba49", "fusion_lon": 0.0, "bike_id": "ec019c1ad00d568aecfa3867da1fba49", "is_disabled": 0, "is_reserved": 0}, {"rental_uris": {"ios": "https://dc.lft.to/lastmile_qr_scan", "android": "https://dc.lft.to/lastmile_qr_scan"}, "lon": -77.0270605, "type": "electric_scooter", "fusion_lat": 0.0, "lat": 38.950005, "name": "49e2f297c7aa27ddd22ad1ee31bc6c36", "fusion_lon": 0.0, "bike_id": "49e2f297c7aa27ddd22ad1ee31bc6c36", "is_disabled": 0, "is_reserved": 0}, {"rental_uris": {"ios": "https://dc.lft.to/lastmile_qr_scan", "android": "https://dc.lft.to/lastmile_qr_scan"}, "lon": -77.006308, "type": "electric_scooter", "fusion_lat": 0.0, "lat": 38.902842666666665, "name": "79898b9aca809b26248517154cea5c9e", "fusion_lon": 0.0, "bike_id": "79898b9aca809b26248517154cea5c9e", "is_disabled": 0, "is_reserved": 0}, {"rental_uris": {"ios": "https://dc.lft.to/lastmile_qr_scan", "android": "https://dc.lft.to/lastmile_qr_scan"}, "lon": -76.9896715, "type": "electric_scooter", "fusion_lat": 0.0, "lat": 38.902468999999996, "name": "5952e9b7c4ff350d39a9f0745744a6f1", "fusion_lon": 0.0, "bike_id": "5952e9b7c4ff350d39a9f0745744a6f1", "is_disabled": 0, "is_reserved": 0}, {"rental_uris": {"ios": "https://dc.lft.to/lastmile_qr_scan", "android": "https://dc.lft.to/lastmile_qr_scan"}, "lon": -76.99923866666667, "type": "electric_scooter", "fusion_lat": 0.0, "lat": 38.909056666666665, "name": "e9ece6164e7d48c753a12ee7c1f6a268", "fusion_lon": 0.0, "bike_id": "e9ece6164e7d48c753a12ee7c1f6a268", "is_disabled": 0, "is_reserved": 0}, {"rental_uris": {"ios": "https://dc.lft.to/lastmile_qr_scan", "android": "https://dc.lft.to/lastmile_qr_scan"}, "lon": -77.03189066666667, "type": "electric_scooter", "fusion_lat": 0.0, "lat": 38.914638333333336, "name": "b90beaafda64274e8a71e66a98ee67e9", "fusion_lon": 0.0, "bike_id": "b90beaafda64274e8a71e66a98ee67e9", "is_disabled": 0, "is_reserved": 0}, {"rental_uris": {"ios": "https://dc.lft.to/lastmile_qr_scan", "android": "https://dc.lft.to/lastmile_qr_scan"}, "lon": -76.94635566666666, "type": "electric_scooter", "fusion_lat": 0.0, "lat": 38.8983495, "name": "70606c6dceeaada482bb9ba35433ba98", "fusion_lon": 0.0, "bike_id": "70606c6dceeaada482bb9ba35433ba98", "is_disabled": 0, "is_reserved": 0}, {"rental_uris": {"ios": "https://dc.lft.to/lastmile_qr_scan", "android": "https://dc.lft.to/lastmile_qr_scan"}, "lon": -77.01376133333333, "type": "electric_scooter", "fusion_lat": 0.0, "lat": 38.9288475, "name": "ab792d230e0f6c2224936d8406ff7680", "fusion_lon": 0.0, "bike_id": "ab792d230e0f6c2224936d8406ff7680", "is_disabled": 0, "is_reserved": 0}, {"rental_uris": {"ios": "https://dc.lft.to/lastmile_qr_scan", "android": "https://dc.lft.to/lastmile_qr_scan"}, "lon": -77.02839233333333, "type": "electric_scooter", "fusion_lat": 0.0, "lat": 38.93413666666667, "name": "f1d0c78eea5cb0517b2978db99a54cff", "fusion_lon": 0.0, "bike_id": "f1d0c78eea5cb0517b2978db99a54cff", "is_disabled": 0, "is_reserved": 0}, {"rental_uris": {"ios": "https://dc.lft.to/lastmile_qr_scan", "android": "https://dc.lft.to/lastmile_qr_scan"}, "lon": -77.0118975, "type": "electric_scooter", "fusion_lat": 0.0, "lat": 38.9155505, "name": "5154581362cd59dfd2c9446c30b93cb1", "fusion_lon": 0.0, "bike_id": "5154581362cd59dfd2c9446c30b93cb1", "is_disabled": 0, "is_reserved": 0}, {"rental_uris": {"ios": "https://dc.lft.to/lastmile_qr_scan", "android": "https://dc.lft.to/lastmile_qr_scan"}, "lon": -76.99830566666667, "type": "electric_bike", "fusion_lat": 0.0, "lat": 38.8445255, "name": "b6ba2e6439d8c934cf5800405a48886d", "fusion_lon": 0.0, "bike_id": "b6ba2e6439d8c934cf5800405a48886d", "is_disabled": 0, "is_reserved": 0}, {"rental_uris": {"ios": "https://dc.lft.to/lastmile_qr_scan", "android": "https://dc.lft.to/lastmile_qr_scan"}, "lon": -76.94663716666666, "type": "electric_scooter", "fusion_lat": 0.0, "lat": 38.898687333333335, "name": "8aa126bd660d0f5edb2d27eb96ccf5a7", "fusion_lon": 0.0, "bike_id": "8aa126bd660d0f5edb2d27eb96ccf5a7", "is_disabled": 0, "is_reserved": 0}, {"rental_uris": {"ios": "https://dc.lft.to/lastmile_qr_scan", "android": "https://dc.lft.to/lastmile_qr_scan"}, "lon": -77.00068983333334, "type": "electric_scooter", "fusion_lat": 0.0, "lat": 38.92551666666667, "name": "8b0875f6a5b0a79be931aeccda23f2a6", "fusion_lon": 0.0, "bike_id": "8b0875f6a5b0a79be931aeccda23f2a6", "is_disabled": 0, "is_reserved": 0}, {"rental_uris": {"ios": "https://dc.lft.to/lastmile_qr_scan", "android": "https://dc.lft.to/lastmile_qr_scan"}, "lon": -77.048288, "type": "electric_scooter", "fusion_lat": 0.0, "lat": 38.920433333333335, "name": "4d37aead438015e8c799b25f95f04f2e", "fusion_lon": 0.0, "bike_id": "4d37aead438015e8c799b25f95f04f2e", "is_disabled": 0, "is_reserved": 0}, {"rental_uris": {"ios": "https://dc.lft.to/lastmile_qr_scan", "android": "https://dc.lft.to/lastmile_qr_scan"}, "lon": -77.04489316666667, "type": "electric_scooter", "fusion_lat": 0.0, "lat": 38.9111075, "name": "f40825df6e60f9eb03504662c526a587", "fusion_lon": 0.0, "bike_id": "f40825df6e60f9eb03504662c526a587", "is_disabled": 0, "is_reserved": 0}, {"rental_uris": {"ios": "https://dc.lft.to/lastmile_qr_scan", "android": "https://dc.lft.to/lastmile_qr_scan"}, "lon": -76.9757285, "type": "electric_bike", "fusion_lat": 0.0, "lat": 38.92508516666667, "name": "c82b89c37cea416f2b06f5fa010c138d", "fusion_lon": 0.0, "bike_id": "c82b89c37cea416f2b06f5fa010c138d", "is_disabled": 0, "is_reserved": 0}, {"rental_uris": {"ios": "https://dc.lft.to/lastmile_qr_scan", "android": "https://dc.lft.to/lastmile_qr_scan"}, "lon": -77.03277133333333, "type": "electric_bike", "fusion_lat": 0.0, "lat": 38.9330705, "name": "d5c04a747c9d78331ff25b11886d165b", "fusion_lon": 0.0, "bike_id": "d5c04a747c9d78331ff25b11886d165b", "is_disabled": 0, "is_reserved": 0}, {"rental_uris": {"ios": "https://dc.lft.to/lastmile_qr_scan", "android": "https://dc.lft.to/lastmile_qr_scan"}, "lon": -77.05021283333333, "type": "electric_scooter", "fusion_lat": 0.0, "lat": 38.9235495, "name": "3a0daac53e6ecfdc495740bd2dad4f01", "fusion_lon": 0.0, "bike_id": "3a0daac53e6ecfdc495740bd2dad4f01", "is_disabled": 0, "is_reserved": 0}, {"rental_uris": {"ios": "https://dc.lft.to/lastmile_qr_scan", "android": "https://dc.lft.to/lastmile_qr_scan"}, "lon": -77.04177733333333, "type": "electric_scooter", "fusion_lat": 0.0, "lat": 38.91192483333333, "name": "b4ebdb7f98b2791c433574df3ac4e88d", "fusion_lon": 0.0, "bike_id": "b4ebdb7f98b2791c433574df3ac4e88d", "is_disabled": 0, "is_reserved": 0}, {"rental_uris": {"ios": "https://dc.lft.to/lastmile_qr_scan", "android": "https://dc.lft.to/lastmile_qr_scan"}, "lon": -77.0276385, "type": "electric_scooter", "fusion_lat": 0.0, "lat": 38.91347116666667, "name": "4072eb66b287f43dd57670b088e0f5ef", "fusion_lon": 0.0, "bike_id": "4072eb66b287f43dd57670b088e0f5ef", "is_disabled": 0, "is_reserved": 0}, {"rental_uris": {"ios": "https://dc.lft.to/lastmile_qr_scan", "android": "https://dc.lft.to/lastmile_qr_scan"}, "lon": -77.02429083333334, "type": "electric_scooter", "fusion_lat": 0.0, "lat": 38.9205055, "name": "341af573595e97af59abcd1b7e907c2d", "fusion_lon": 0.0, "bike_id": "341af573595e97af59abcd1b7e907c2d", "is_disabled": 0, "is_reserved": 0}, {"rental_uris": {"ios": "https://dc.lft.to/lastmile_qr_scan", "android": "https://dc.lft.to/lastmile_qr_scan"}, "lon": -77.073922, "type": "electric_bike", "fusion_lat": 0.0, "lat": 38.96177133333333, "name": "d6ff216c6b8719616a065262689124ca", "fusion_lon": 0.0, "bike_id": "d6ff216c6b8719616a065262689124ca", "is_disabled": 0, "is_reserved": 0}, {"rental_uris": {"ios": "https://dc.lft.to/lastmile_qr_scan", "android": "https://dc.lft.to/lastmile_qr_scan"}, "lon": -76.93175683333334, "type": "electric_scooter", "fusion_lat": 0.0, "lat": 38.8988875, "name": "bfcf6927cf761347aa4f0736751521d3", "fusion_lon": 0.0, "bike_id": "bfcf6927cf761347aa4f0736751521d3", "is_disabled": 0, "is_reserved": 0}, {"rental_uris": {"ios": "https://dc.lft.to/lastmile_qr_scan", "android": "https://dc.lft.to/lastmile_qr_scan"}, "lon": -77.038189, "type": "electric_scooter", "fusion_lat": 0.0, "lat": 38.920659666666666, "name": "ca5930088229003a968b3987043df33e", "fusion_lon": 0.0, "bike_id": "ca5930088229003a968b3987043df33e", "is_disabled": 0, "is_reserved": 0}, {"rental_uris": {"ios": "https://dc.lft.to/lastmile_qr_scan", "android": "https://dc.lft.to/lastmile_qr_scan"}, "lon": -77.00257466666666, "type": "electric_scooter", "fusion_lat": 0.0, "lat": 38.9119875, "name": "2d94fabbd63841cc7a761e7120e10e1c", "fusion_lon": 0.0, "bike_id": "2d94fabbd63841cc7a761e7120e10e1c", "is_disabled": 0, "is_reserved": 0}, {"rental_uris": {"ios": "https://dc.lft.to/lastmile_qr_scan", "android": "https://dc.lft.to/lastmile_qr_scan"}, "lon": -77.03049916666667, "type": "electric_scooter", "fusion_lat": 0.0, "lat": 38.884133166666665, "name": "b89ded46928387e359e36d2a82a62fc5", "fusion_lon": 0.0, "bike_id": "b89ded46928387e359e36d2a82a62fc5", "is_disabled": 0, "is_reserved": 0}, {"rental_uris": {"ios": "https://dc.lft.to/lastmile_qr_scan", "android": "https://dc.lft.to/lastmile_qr_scan"}, "lon": -77.04194183333334, "type": "electric_scooter", "fusion_lat": 0.0, "lat": 38.9187125, "name": "856892d097bccb670d64ae663b4f4c3d", "fusion_lon": 0.0, "bike_id": "856892d097bccb670d64ae663b4f4c3d", "is_disabled": 0, "is_reserved": 0}, {"rental_uris": {"ios": "https://dc.lft.to/lastmile_qr_scan", "android": "https://dc.lft.to/lastmile_qr_scan"}, "lon": -77.04786683333333, "type": "electric_scooter", "fusion_lat": 0.0, "lat": 38.893693666666664, "name": "dc7167e27b0709cb1eb3f2161b446167", "fusion_lon": 0.0, "bike_id": "dc7167e27b0709cb1eb3f2161b446167", "is_disabled": 0, "is_reserved": 0}, {"rental_uris": {"ios": "https://dc.lft.to/lastmile_qr_scan", "android": "https://dc.lft.to/lastmile_qr_scan"}, "lon": -77.023602, "type": "electric_scooter", "fusion_lat": 0.0, "lat": 38.9206615, "name": "d33e5539b272b192520ebaa2109bd29a", "fusion_lon": 0.0, "bike_id": "d33e5539b272b192520ebaa2109bd29a", "is_disabled": 0, "is_reserved": 0}, {"rental_uris": {"ios": "https://dc.lft.to/lastmile_qr_scan", "android": "https://dc.lft.to/lastmile_qr_scan"}, "lon": -77.04471833333334, "type": "electric_scooter", "fusion_lat": 0.0, "lat": 38.9031595, "name": "3ae1f793fa9753fe01fc88081a1d979f", "fusion_lon": 0.0, "bike_id": "3ae1f793fa9753fe01fc88081a1d979f", "is_disabled": 0, "is_reserved": 0}, {"rental_uris": {"ios": "https://dc.lft.to/lastmile_qr_scan", "android": "https://dc.lft.to/lastmile_qr_scan"}, "lon": -76.99574083333333, "type": "electric_scooter", "fusion_lat": 0.0, "lat": 38.900323666666665, "name": "8352b616fa3e133093b8b6f91acadaec", "fusion_lon": 0.0, "bike_id": "8352b616fa3e133093b8b6f91acadaec", "is_disabled": 0, "is_reserved": 0}, {"rental_uris": {"ios": "https://dc.lft.to/lastmile_qr_scan", "android": "https://dc.lft.to/lastmile_qr_scan"}, "lon": -76.9237235, "type": "electric_bike", "fusion_lat": 0.0, "lat": 38.88376866666667, "name": "82af1f6362da16b98b3d17a450b07a9e", "fusion_lon": 0.0, "bike_id": "82af1f6362da16b98b3d17a450b07a9e", "is_disabled": 0, "is_reserved": 0}, {"rental_uris": {"ios": "https://dc.lft.to/lastmile_qr_scan", "android": "https://dc.lft.to/lastmile_qr_scan"}, "lon": -77.09880216666667, "type": "electric_bike", "fusion_lat": 0.0, "lat": 38.9478995, "name": "b664af56fd3786c7bce0eb8a979fe855", "fusion_lon": 0.0, "bike_id": "b664af56fd3786c7bce0eb8a979fe855", "is_disabled": 0, "is_reserved": 0}, {"rental_uris": {"ios": "https://dc.lft.to/lastmile_qr_scan", "android": "https://dc.lft.to/lastmile_qr_scan"}, "lon": -77.00834566666667, "type": "electric_scooter", "fusion_lat": 0.0, "lat": 38.9056755, "name": "394d1846131c51cad3b95f4c1ff328bc", "fusion_lon": 0.0, "bike_id": "394d1846131c51cad3b95f4c1ff328bc", "is_disabled": 0, "is_reserved": 0}, {"rental_uris": {"ios": "https://dc.lft.to/lastmile_qr_scan", "android": "https://dc.lft.to/lastmile_qr_scan"}, "lon": -77.04222616666667, "type": "electric_scooter", "fusion_lat": 0.0, "lat": 38.911163333333334, "name": "16467fbd1c3f7129d6ab93e91302a6a7", "fusion_lon": 0.0, "bike_id": "16467fbd1c3f7129d6ab93e91302a6a7", "is_disabled": 0, "is_reserved": 0}, {"rental_uris": {"ios": "https://dc.lft.to/lastmile_qr_scan", "android": "https://dc.lft.to/lastmile_qr_scan"}, "lon": -77.04308616666667, "type": "electric_scooter", "fusion_lat": 0.0, "lat": 38.908784, "name": "a49444a3e47194161e46ba2023d82a8e", "fusion_lon": 0.0, "bike_id": "a49444a3e47194161e46ba2023d82a8e", "is_disabled": 0, "is_reserved": 0}, {"rental_uris": {"ios": "https://dc.lft.to/lastmile_qr_scan", "android": "https://dc.lft.to/lastmile_qr_scan"}, "lon": -76.9958635, "type": "electric_scooter", "fusion_lat": 0.0, "lat": 38.955011, "name": "f04c8926c9a33ad58ba629cb0b7ab3bc", "fusion_lon": 0.0, "bike_id": "f04c8926c9a33ad58ba629cb0b7ab3bc", "is_disabled": 0, "is_reserved": 0}, {"rental_uris": {"ios": "https://dc.lft.to/lastmile_qr_scan", "android": "https://dc.lft.to/lastmile_qr_scan"}, "lon": -77.05117966666667, "type": "electric_bike", "fusion_lat": 0.0, "lat": 38.99963183333333, "name": "f7e6aa46cd33e72832255ae4e696978e", "fusion_lon": 0.0, "bike_id": "f7e6aa46cd33e72832255ae4e696978e", "is_disabled": 0, "is_reserved": 0}, {"rental_uris": {"ios": "https://dc.lft.to/lastmile_qr_scan", "android": "https://dc.lft.to/lastmile_qr_scan"}, "lon": -77.02420016666666, "type": "electric_scooter", "fusion_lat": 0.0, "lat": 38.91827466666667, "name": "90b08bddf6e7eb9a8aab67cf00af0cf5", "fusion_lon": 0.0, "bike_id": "90b08bddf6e7eb9a8aab67cf00af0cf5", "is_disabled": 0, "is_reserved": 0}, {"rental_uris": {"ios": "https://dc.lft.to/lastmile_qr_scan", "android": "https://dc.lft.to/lastmile_qr_scan"}, "lon": -76.986127, "type": "electric_bike", "fusion_lat": 0.0, "lat": 38.906263, "name": "9a1aab3005891cfe26349b9a714ef3d9", "fusion_lon": 0.0, "bike_id": "9a1aab3005891cfe26349b9a714ef3d9", "is_disabled": 0, "is_reserved": 0}, {"rental_uris": {"ios": "https://dc.lft.to/lastmile_qr_scan", "android": "https://dc.lft.to/lastmile_qr_scan"}, "lon": -76.98889333333334, "type": "electric_scooter", "fusion_lat": 0.0, "lat": 38.86660633333334, "name": "d9ad4dcecb4ccf26c74a4222c1755adb", "fusion_lon": 0.0, "bike_id": "d9ad4dcecb4ccf26c74a4222c1755adb", "is_disabled": 0, "is_reserved": 0}, {"rental_uris": {"ios": "https://dc.lft.to/lastmile_qr_scan", "android": "https://dc.lft.to/lastmile_qr_scan"}, "lon": -77.02437316666666, "type": "electric_scooter", "fusion_lat": 0.0, "lat": 38.918468, "name": "1d8dc86f875c291c7c5c26f6f9633d8e", "fusion_lon": 0.0, "bike_id": "1d8dc86f875c291c7c5c26f6f9633d8e", "is_disabled": 0, "is_reserved": 0}, {"rental_uris": {"ios": "https://dc.lft.to/lastmile_qr_scan", "android": "https://dc.lft.to/lastmile_qr_scan"}, "lon": -77.08829016666667, "type": "electric_bike", "fusion_lat": 0.0, "lat": 38.909741, "name": "4122ea2c24326af1a156fc7b563eff84", "fusion_lon": 0.0, "bike_id": "4122ea2c24326af1a156fc7b563eff84", "is_disabled": 0, "is_reserved": 0}, {"rental_uris": {"ios": "https://dc.lft.to/lastmile_qr_scan", "android": "https://dc.lft.to/lastmile_qr_scan"}, "lon": -77.01599983333334, "type": "electric_scooter", "fusion_lat": 0.0, "lat": 38.90305, "name": "630c022261f80e5f3b68b79618d125ff", "fusion_lon": 0.0, "bike_id": "630c022261f80e5f3b68b79618d125ff", "is_disabled": 0, "is_reserved": 0}, {"rental_uris": {"ios": "https://dc.lft.to/lastmile_qr_scan", "android": "https://dc.lft.to/lastmile_qr_scan"}, "lon": -77.03438116666666, "type": "electric_scooter", "fusion_lat": 0.0, "lat": 38.918376, "name": "389c7a3ee53d8766632baf0874efff06", "fusion_lon": 0.0, "bike_id": "389c7a3ee53d8766632baf0874efff06", "is_disabled": 0, "is_reserved": 0}, {"rental_uris": {"ios": "https://dc.lft.to/lastmile_qr_scan", "android": "https://dc.lft.to/lastmile_qr_scan"}, "lon": -77.02466966666667, "type": "electric_scooter", "fusion_lat": 0.0, "lat": 38.897319, "name": "42dd5d9e19cb7289b89e99ce507906ea", "fusion_lon": 0.0, "bike_id": "42dd5d9e19cb7289b89e99ce507906ea", "is_disabled": 0, "is_reserved": 0}, {"rental_uris": {"ios": "https://dc.lft.to/lastmile_qr_scan", "android": "https://dc.lft.to/lastmile_qr_scan"}, "lon": -76.931819, "type": "electric_scooter", "fusion_lat": 0.0, "lat": 38.89877083333333, "name": "1331770dff0ff0aed28a230f4c682607", "fusion_lon": 0.0, "bike_id": "1331770dff0ff0aed28a230f4c682607", "is_disabled": 0, "is_reserved": 0}, {"rental_uris": {"ios": "https://dc.lft.to/lastmile_qr_scan", "android": "https://dc.lft.to/lastmile_qr_scan"}, "lon": -77.00867883333333, "type": "electric_scooter", "fusion_lat": 0.0, "lat": 38.9117955, "name": "cca4286a85dca18a4daec34caa469b5b", "fusion_lon": 0.0, "bike_id": "cca4286a85dca18a4daec34caa469b5b", "is_disabled": 0, "is_reserved": 0}, {"rental_uris": {"ios": "https://dc.lft.to/lastmile_qr_scan", "android": "https://dc.lft.to/lastmile_qr_scan"}, "lon": -77.03850216666666, "type": "electric_scooter", "fusion_lat": 0.0, "lat": 38.913403333333335, "name": "ad0d17282413c069c47e72a44529f80b", "fusion_lon": 0.0, "bike_id": "ad0d17282413c069c47e72a44529f80b", "is_disabled": 0, "is_reserved": 0}, {"rental_uris": {"ios": "https://dc.lft.to/lastmile_qr_scan", "android": "https://dc.lft.to/lastmile_qr_scan"}, "lon": -77.044582, "type": "electric_scooter", "fusion_lat": 0.0, "lat": 38.9056945, "name": "abfa697a3d9e83296996aaff232c165f", "fusion_lon": 0.0, "bike_id": "abfa697a3d9e83296996aaff232c165f", "is_disabled": 0, "is_reserved": 0}, {"rental_uris": {"ios": "https://dc.lft.to/lastmile_qr_scan", "android": "https://dc.lft.to/lastmile_qr_scan"}, "lon": -77.03188183333333, "type": "electric_scooter", "fusion_lat": 0.0, "lat": 38.90773466666667, "name": "f7be8c040f440ebebab54fc125421f70", "fusion_lon": 0.0, "bike_id": "f7be8c040f440ebebab54fc125421f70", "is_disabled": 0, "is_reserved": 0}, {"rental_uris": {"ios": "https://dc.lft.to/lastmile_qr_scan", "android": "https://dc.lft.to/lastmile_qr_scan"}, "lon": -76.989776, "type": "electric_scooter", "fusion_lat": 0.0, "lat": 38.890495, "name": "02617070b45353882675168ff0b4cf68", "fusion_lon": 0.0, "bike_id": "02617070b45353882675168ff0b4cf68", "is_disabled": 0, "is_reserved": 0}, {"rental_uris": {"ios": "https://dc.lft.to/lastmile_qr_scan", "android": "https://dc.lft.to/lastmile_qr_scan"}, "lon": -77.0387675, "type": "electric_scooter", "fusion_lat": 0.0, "lat": 38.923210833333336, "name": "12bd9cdbfd055d63e8e6b17623f5bf39", "fusion_lon": 0.0, "bike_id": "12bd9cdbfd055d63e8e6b17623f5bf39", "is_disabled": 0, "is_reserved": 0}, {"rental_uris": {"ios": "https://dc.lft.to/lastmile_qr_scan", "android": "https://dc.lft.to/lastmile_qr_scan"}, "lon": -76.96495166666666, "type": "electric_bike", "fusion_lat": 0.0, "lat": 38.87553483333333, "name": "8e430ede42f7a7198f656488d866c328", "fusion_lon": 0.0, "bike_id": "8e430ede42f7a7198f656488d866c328", "is_disabled": 0, "is_reserved": 0}, {"rental_uris": {"ios": "https://dc.lft.to/lastmile_qr_scan", "android": "https://dc.lft.to/lastmile_qr_scan"}, "lon": -76.99870516666667, "type": "electric_scooter", "fusion_lat": 0.0, "lat": 38.90026183333333, "name": "e6c8a38c6d01b0b383ce6e71b69d55e6", "fusion_lon": 0.0, "bike_id": "e6c8a38c6d01b0b383ce6e71b69d55e6", "is_disabled": 0, "is_reserved": 0}, {"rental_uris": {"ios": "https://dc.lft.to/lastmile_qr_scan", "android": "https://dc.lft.to/lastmile_qr_scan"}, "lon": -77.05119766666667, "type": "electric_scooter", "fusion_lat": 0.0, "lat": 38.92359833333333, "name": "38d81c235f3ec71a611b17c7beaed8cb", "fusion_lon": 0.0, "bike_id": "38d81c235f3ec71a611b17c7beaed8cb", "is_disabled": 0, "is_reserved": 0}, {"rental_uris": {"ios": "https://dc.lft.to/lastmile_qr_scan", "android": "https://dc.lft.to/lastmile_qr_scan"}, "lon": -77.02283416666667, "type": "electric_scooter", "fusion_lat": 0.0, "lat": 38.909624, "name": "b8f274b130f8ee57d89a0f597e4db515", "fusion_lon": 0.0, "bike_id": "b8f274b130f8ee57d89a0f597e4db515", "is_disabled": 0, "is_reserved": 0}, {"rental_uris": {"ios": "https://dc.lft.to/lastmile_qr_scan", "android": "https://dc.lft.to/lastmile_qr_scan"}, "lon": -77.001363, "type": "electric_scooter", "fusion_lat": 0.0, "lat": 38.904043, "name": "19deb670a95259aa2109c84b57c35f08", "fusion_lon": 0.0, "bike_id": "19deb670a95259aa2109c84b57c35f08", "is_disabled": 0, "is_reserved": 0}, {"rental_uris": {"ios": "https://dc.lft.to/lastmile_qr_scan", "android": "https://dc.lft.to/lastmile_qr_scan"}, "lon": -77.02561233333333, "type": "electric_scooter", "fusion_lat": 0.0, "lat": 38.93981766666667, "name": "e957cd5a5f354ef07e5307afb8b5d4c6", "fusion_lon": 0.0, "bike_id": "e957cd5a5f354ef07e5307afb8b5d4c6", "is_disabled": 0, "is_reserved": 0}, {"rental_uris": {"ios": "https://dc.lft.to/lastmile_qr_scan", "android": "https://dc.lft.to/lastmile_qr_scan"}, "lon": -77.00587916666667, "type": "electric_scooter", "fusion_lat": 0.0, "lat": 38.90549566666667, "name": "22f753f9efcb1d9338b8f32e909b72b2", "fusion_lon": 0.0, "bike_id": "22f753f9efcb1d9338b8f32e909b72b2", "is_disabled": 0, "is_reserved": 0}, {"rental_uris": {"ios": "https://dc.lft.to/lastmile_qr_scan", "android": "https://dc.lft.to/lastmile_qr_scan"}, "lon": -77.01970066666667, "type": "electric_scooter", "fusion_lat": 0.0, "lat": 38.878415, "name": "0a1def8ab5dff42e98e0a23190513a7c", "fusion_lon": 0.0, "bike_id": "0a1def8ab5dff42e98e0a23190513a7c", "is_disabled": 0, "is_reserved": 0}, {"rental_uris": {"ios": "https://dc.lft.to/lastmile_qr_scan", "android": "https://dc.lft.to/lastmile_qr_scan"}, "lon": -77.04729366666666, "type": "electric_scooter", "fusion_lat": 0.0, "lat": 38.909831833333335, "name": "a2ba9ca3db5dcef722f230d74bded549", "fusion_lon": 0.0, "bike_id": "a2ba9ca3db5dcef722f230d74bded549", "is_disabled": 0, "is_reserved": 0}, {"rental_uris": {"ios": "https://dc.lft.to/lastmile_qr_scan", "android": "https://dc.lft.to/lastmile_qr_scan"}, "lon": -76.95202766666667, "type": "electric_bike", "fusion_lat": 0.0, "lat": 38.93670183333333, "name": "77825416f4fdd5ad661207ba3c095659", "fusion_lon": 0.0, "bike_id": "77825416f4fdd5ad661207ba3c095659", "is_disabled": 0, "is_reserved": 0}, {"rental_uris": {"ios": "https://dc.lft.to/lastmile_qr_scan", "android": "https://dc.lft.to/lastmile_qr_scan"}, "lon": -77.0250685, "type": "electric_scooter", "fusion_lat": 0.0, "lat": 38.907295833333336, "name": "c2db9ae30dd629a471161e5fb08483ae", "fusion_lon": 0.0, "bike_id": "c2db9ae30dd629a471161e5fb08483ae", "is_disabled": 0, "is_reserved": 0}, {"rental_uris": {"ios": "https://dc.lft.to/lastmile_qr_scan", "android": "https://dc.lft.to/lastmile_qr_scan"}, "lon": -77.07152733333334, "type": "electric_scooter", "fusion_lat": 0.0, "lat": 38.907368, "name": "e18e5d1af3d3c3e2e949b3fe94535870", "fusion_lon": 0.0, "bike_id": "e18e5d1af3d3c3e2e949b3fe94535870", "is_disabled": 0, "is_reserved": 0}, {"rental_uris": {"ios": "https://dc.lft.to/lastmile_qr_scan", "android": "https://dc.lft.to/lastmile_qr_scan"}, "lon": -77.02799233333333, "type": "electric_scooter", "fusion_lat": 0.0, "lat": 38.8989935, "name": "a050a55cd535345a96754f090312bde0", "fusion_lon": 0.0, "bike_id": "a050a55cd535345a96754f090312bde0", "is_disabled": 0, "is_reserved": 0}, {"rental_uris": {"ios": "https://dc.lft.to/lastmile_qr_scan", "android": "https://dc.lft.to/lastmile_qr_scan"}, "lon": -77.02716466666666, "type": "electric_scooter", "fusion_lat": 0.0, "lat": 38.91183733333333, "name": "b157523979278d3eaf032baf426ed22d", "fusion_lon": 0.0, "bike_id": "b157523979278d3eaf032baf426ed22d", "is_disabled": 0, "is_reserved": 0}, {"rental_uris": {"ios": "https://dc.lft.to/lastmile_qr_scan", "android": "https://dc.lft.to/lastmile_qr_scan"}, "lon": -76.96527683333333, "type": "electric_scooter", "fusion_lat": 0.0, "lat": 38.876293833333335, "name": "3f0de83c0c766a1e147ba2cd18b2fedb", "fusion_lon": 0.0, "bike_id": "3f0de83c0c766a1e147ba2cd18b2fedb", "is_disabled": 0, "is_reserved": 0}, {"rental_uris": {"ios": "https://dc.lft.to/lastmile_qr_scan", "android": "https://dc.lft.to/lastmile_qr_scan"}, "lon": -77.04007516666667, "type": "electric_scooter", "fusion_lat": 0.0, "lat": 38.92181016666667, "name": "a626a3af24d37ea23384cdbc244103fd", "fusion_lon": 0.0, "bike_id": "a626a3af24d37ea23384cdbc244103fd", "is_disabled": 0, "is_reserved": 0}, {"rental_uris": {"ios": "https://dc.lft.to/lastmile_qr_scan", "android": "https://dc.lft.to/lastmile_qr_scan"}, "lon": -77.04189716666667, "type": "electric_scooter", "fusion_lat": 0.0, "lat": 38.91264233333333, "name": "56183c8c952dd176ca8e113839a11a75", "fusion_lon": 0.0, "bike_id": "56183c8c952dd176ca8e113839a11a75", "is_disabled": 0, "is_reserved": 0}, {"rental_uris": {"ios": "https://dc.lft.to/lastmile_qr_scan", "android": "https://dc.lft.to/lastmile_qr_scan"}, "lon": -77.03298116666667, "type": "electric_scooter", "fusion_lat": 0.0, "lat": 38.911144166666666, "name": "7d03c97d6314466053f492ab905077ba", "fusion_lon": 0.0, "bike_id": "7d03c97d6314466053f492ab905077ba", "is_disabled": 0, "is_reserved": 0}, {"rental_uris": {"ios": "https://dc.lft.to/lastmile_qr_scan", "android": "https://dc.lft.to/lastmile_qr_scan"}, "lon": -77.01609433333333, "type": "electric_scooter", "fusion_lat": 0.0, "lat": 38.8997535, "name": "5c43b0e9105a5cd40a0e89706b9f3741", "fusion_lon": 0.0, "bike_id": "5c43b0e9105a5cd40a0e89706b9f3741", "is_disabled": 0, "is_reserved": 0}, {"rental_uris": {"ios": "https://dc.lft.to/lastmile_qr_scan", "android": "https://dc.lft.to/lastmile_qr_scan"}, "lon": -77.01111833333333, "type": "electric_scooter", "fusion_lat": 0.0, "lat": 38.9035345, "name": "19fd437f7ddcf9d38caee27074b755a0", "fusion_lon": 0.0, "bike_id": "19fd437f7ddcf9d38caee27074b755a0", "is_disabled": 0, "is_reserved": 0}, {"rental_uris": {"ios": "https://dc.lft.to/lastmile_qr_scan", "android": "https://dc.lft.to/lastmile_qr_scan"}, "lon": -77.0150985, "type": "electric_scooter", "fusion_lat": 0.0, "lat": 38.91604866666667, "name": "cb9a64d1a2e1fad2c93b84e83a1104ec", "fusion_lon": 0.0, "bike_id": "cb9a64d1a2e1fad2c93b84e83a1104ec", "is_disabled": 0, "is_reserved": 0}, {"rental_uris": {"ios": "https://dc.lft.to/lastmile_qr_scan", "android": "https://dc.lft.to/lastmile_qr_scan"}, "lon": -77.04420133333333, "type": "electric_scooter", "fusion_lat": 0.0, "lat": 38.921422, "name": "5589b81fcdcf0c5697928b23c8f98ea3", "fusion_lon": 0.0, "bike_id": "5589b81fcdcf0c5697928b23c8f98ea3", "is_disabled": 0, "is_reserved": 0}, {"rental_uris": {"ios": "https://dc.lft.to/lastmile_qr_scan", "android": "https://dc.lft.to/lastmile_qr_scan"}, "lon": -77.034178, "type": "electric_scooter", "fusion_lat": 0.0, "lat": 38.9192505, "name": "b1c28ca5863c323779b51fa299c80a5e", "fusion_lon": 0.0, "bike_id": "b1c28ca5863c323779b51fa299c80a5e", "is_disabled": 0, "is_reserved": 0}, {"rental_uris": {"ios": "https://dc.lft.to/lastmile_qr_scan", "android": "https://dc.lft.to/lastmile_qr_scan"}, "lon": -77.03539483333333, "type": "electric_scooter", "fusion_lat": 0.0, "lat": 38.92423933333333, "name": "09b1782b1f988962957907be67c68c03", "fusion_lon": 0.0, "bike_id": "09b1782b1f988962957907be67c68c03", "is_disabled": 0, "is_reserved": 0}, {"rental_uris": {"ios": "https://dc.lft.to/lastmile_qr_scan", "android": "https://dc.lft.to/lastmile_qr_scan"}, "lon": -77.027191, "type": "electric_scooter", "fusion_lat": 0.0, "lat": 38.892225333333336, "name": "861aa4f61a55bcd45198db6a026412e9", "fusion_lon": 0.0, "bike_id": "861aa4f61a55bcd45198db6a026412e9", "is_disabled": 0, "is_reserved": 0}, {"rental_uris": {"ios": "https://dc.lft.to/lastmile_qr_scan", "android": "https://dc.lft.to/lastmile_qr_scan"}, "lon": -76.99486616666667, "type": "electric_scooter", "fusion_lat": 0.0, "lat": 38.93202016666667, "name": "cb091b3f2310d75e6e2806d45ae99391", "fusion_lon": 0.0, "bike_id": "cb091b3f2310d75e6e2806d45ae99391", "is_disabled": 0, "is_reserved": 0}, {"rental_uris": {"ios": "https://dc.lft.to/lastmile_qr_scan", "android": "https://dc.lft.to/lastmile_qr_scan"}, "lon": -77.0221975, "type": "electric_scooter", "fusion_lat": 0.0, "lat": 38.90577116666667, "name": "b7f4129ebf45f4ec212275b6787dc38e", "fusion_lon": 0.0, "bike_id": "b7f4129ebf45f4ec212275b6787dc38e", "is_disabled": 0, "is_reserved": 0}, {"rental_uris": {"ios": "https://dc.lft.to/lastmile_qr_scan", "android": "https://dc.lft.to/lastmile_qr_scan"}, "lon": -77.03957516666667, "type": "electric_scooter", "fusion_lat": 0.0, "lat": 38.898541, "name": "725eea7bb18b3c487530449e4758dde8", "fusion_lon": 0.0, "bike_id": "725eea7bb18b3c487530449e4758dde8", "is_disabled": 0, "is_reserved": 0}, {"rental_uris": {"ios": "https://dc.lft.to/lastmile_qr_scan", "android": "https://dc.lft.to/lastmile_qr_scan"}, "lon": -77.024132, "type": "electric_scooter", "fusion_lat": 0.0, "lat": 38.91711, "name": "36319ae33a7db0546c8649f090fb4e06", "fusion_lon": 0.0, "bike_id": "36319ae33a7db0546c8649f090fb4e06", "is_disabled": 0, "is_reserved": 0}, {"rental_uris": {"ios": "https://dc.lft.to/lastmile_qr_scan", "android": "https://dc.lft.to/lastmile_qr_scan"}, "lon": -77.025187, "type": "electric_scooter", "fusion_lat": 0.0, "lat": 38.930951666666665, "name": "3d0095fa82b50bc89c584b4e405aaa89", "fusion_lon": 0.0, "bike_id": "3d0095fa82b50bc89c584b4e405aaa89", "is_disabled": 0, "is_reserved": 0}, {"rental_uris": {"ios": "https://dc.lft.to/lastmile_qr_scan", "android": "https://dc.lft.to/lastmile_qr_scan"}, "lon": -77.03130633333333, "type": "electric_scooter", "fusion_lat": 0.0, "lat": 38.92372983333333, "name": "a1eda57025ce6b3d28b558718fdae648", "fusion_lon": 0.0, "bike_id": "a1eda57025ce6b3d28b558718fdae648", "is_disabled": 0, "is_reserved": 0}, {"rental_uris": {"ios": "https://dc.lft.to/lastmile_qr_scan", "android": "https://dc.lft.to/lastmile_qr_scan"}, "lon": -76.93828266666667, "type": "electric_scooter", "fusion_lat": 0.0, "lat": 38.89766316666667, "name": "eb58a4f41f23f6460d763636fded1551", "fusion_lon": 0.0, "bike_id": "eb58a4f41f23f6460d763636fded1551", "is_disabled": 0, "is_reserved": 0}, {"rental_uris": {"ios": "https://dc.lft.to/lastmile_qr_scan", "android": "https://dc.lft.to/lastmile_qr_scan"}, "lon": -77.050044, "type": "electric_scooter", "fusion_lat": 0.0, "lat": 38.892330333333334, "name": "73533399ceadca4db734d6411bdd0e75", "fusion_lon": 0.0, "bike_id": "73533399ceadca4db734d6411bdd0e75", "is_disabled": 0, "is_reserved": 0}, {"rental_uris": {"ios": "https://dc.lft.to/lastmile_qr_scan", "android": "https://dc.lft.to/lastmile_qr_scan"}, "lon": -77.00113216666666, "type": "electric_scooter", "fusion_lat": 0.0, "lat": 38.89431716666667, "name": "32541dbb09901195fcb8ae903c9423ef", "fusion_lon": 0.0, "bike_id": "32541dbb09901195fcb8ae903c9423ef", "is_disabled": 0, "is_reserved": 0}, {"rental_uris": {"ios": "https://dc.lft.to/lastmile_qr_scan", "android": "https://dc.lft.to/lastmile_qr_scan"}, "lon": -77.03422083333334, "type": "electric_scooter", "fusion_lat": 0.0, "lat": 38.91918533333333, "name": "5dcca1a2fe547e96a97906f212b62dc9", "fusion_lon": 0.0, "bike_id": "5dcca1a2fe547e96a97906f212b62dc9", "is_disabled": 0, "is_reserved": 0}, {"rental_uris": {"ios": "https://dc.lft.to/lastmile_qr_scan", "android": "https://dc.lft.to/lastmile_qr_scan"}, "lon": -77.035572, "type": "electric_bike", "fusion_lat": 0.0, "lat": 38.96469533333333, "name": "3a98e04ac5c612a79aa5ad15d083f096", "fusion_lon": 0.0, "bike_id": "3a98e04ac5c612a79aa5ad15d083f096", "is_disabled": 0, "is_reserved": 0}, {"rental_uris": {"ios": "https://dc.lft.to/lastmile_qr_scan", "android": "https://dc.lft.to/lastmile_qr_scan"}, "lon": -77.0435845, "type": "electric_scooter", "fusion_lat": 0.0, "lat": 38.89655183333333, "name": "5d3c122e58eb5408a550eba5daecf273", "fusion_lon": 0.0, "bike_id": "5d3c122e58eb5408a550eba5daecf273", "is_disabled": 0, "is_reserved": 0}, {"rental_uris": {"ios": "https://dc.lft.to/lastmile_qr_scan", "android": "https://dc.lft.to/lastmile_qr_scan"}, "lon": -77.0162985, "type": "electric_scooter", "fusion_lat": 0.0, "lat": 38.90714216666667, "name": "e0a97be1161f7ff26c8d0bcf846305f8", "fusion_lon": 0.0, "bike_id": "e0a97be1161f7ff26c8d0bcf846305f8", "is_disabled": 0, "is_reserved": 0}, {"rental_uris": {"ios": "https://dc.lft.to/lastmile_qr_scan", "android": "https://dc.lft.to/lastmile_qr_scan"}, "lon": -77.01877916666666, "type": "electric_scooter", "fusion_lat": 0.0, "lat": 38.912027333333334, "name": "0fdede029b5baa9f77f7e626a14e744a", "fusion_lon": 0.0, "bike_id": "0fdede029b5baa9f77f7e626a14e744a", "is_disabled": 0, "is_reserved": 0}, {"rental_uris": {"ios": "https://dc.lft.to/lastmile_qr_scan", "android": "https://dc.lft.to/lastmile_qr_scan"}, "lon": -77.0437105, "type": "electric_scooter", "fusion_lat": 0.0, "lat": 38.917827, "name": "847d43921349c8464e1f3811c7e10d69", "fusion_lon": 0.0, "bike_id": "847d43921349c8464e1f3811c7e10d69", "is_disabled": 0, "is_reserved": 0}, {"rental_uris": {"ios": "https://dc.lft.to/lastmile_qr_scan", "android": "https://dc.lft.to/lastmile_qr_scan"}, "lon": -77.0257415, "type": "electric_scooter", "fusion_lat": 0.0, "lat": 38.88436183333334, "name": "1febd360cb27270223fc0fd9a234ba70", "fusion_lon": 0.0, "bike_id": "1febd360cb27270223fc0fd9a234ba70", "is_disabled": 0, "is_reserved": 0}, {"rental_uris": {"ios": "https://dc.lft.to/lastmile_qr_scan", "android": "https://dc.lft.to/lastmile_qr_scan"}, "lon": -76.98516283333333, "type": "electric_scooter", "fusion_lat": 0.0, "lat": 38.9061065, "name": "e1262bfbcf652c0f22ff115cbfcc9aaf", "fusion_lon": 0.0, "bike_id": "e1262bfbcf652c0f22ff115cbfcc9aaf", "is_disabled": 0, "is_reserved": 0}, {"rental_uris": {"ios": "https://dc.lft.to/lastmile_qr_scan", "android": "https://dc.lft.to/lastmile_qr_scan"}, "lon": -76.999668, "type": "electric_scooter", "fusion_lat": 0.0, "lat": 38.909231166666665, "name": "814dca5a52fa6749d16d10b9e433a641", "fusion_lon": 0.0, "bike_id": "814dca5a52fa6749d16d10b9e433a641", "is_disabled": 0, "is_reserved": 0}, {"rental_uris": {"ios": "https://dc.lft.to/lastmile_qr_scan", "android": "https://dc.lft.to/lastmile_qr_scan"}, "lon": -77.01885466666667, "type": "electric_scooter", "fusion_lat": 0.0, "lat": 38.906104, "name": "c581f25d60a751e8decdf339dfb192ef", "fusion_lon": 0.0, "bike_id": "c581f25d60a751e8decdf339dfb192ef", "is_disabled": 0, "is_reserved": 0}, {"rental_uris": {"ios": "https://dc.lft.to/lastmile_qr_scan", "android": "https://dc.lft.to/lastmile_qr_scan"}, "lon": -77.005862, "type": "electric_scooter", "fusion_lat": 0.0, "lat": 38.87692083333334, "name": "bfcfd4d2f3d975b87a5c83cb3698031d", "fusion_lon": 0.0, "bike_id": "bfcfd4d2f3d975b87a5c83cb3698031d", "is_disabled": 0, "is_reserved": 0}, {"rental_uris": {"ios": "https://dc.lft.to/lastmile_qr_scan", "android": "https://dc.lft.to/lastmile_qr_scan"}, "lon": -77.00205633333333, "type": "electric_scooter", "fusion_lat": 0.0, "lat": 38.900255666666666, "name": "75d8fea98688a0fb37dc22546233c636", "fusion_lon": 0.0, "bike_id": "75d8fea98688a0fb37dc22546233c636", "is_disabled": 0, "is_reserved": 0}, {"rental_uris": {"ios": "https://dc.lft.to/lastmile_qr_scan", "android": "https://dc.lft.to/lastmile_qr_scan"}, "lon": -77.035254, "type": "electric_scooter", "fusion_lat": 0.0, "lat": 38.922184333333334, "name": "7f0f798c2cc498d63447d9281e5c53e9", "fusion_lon": 0.0, "bike_id": "7f0f798c2cc498d63447d9281e5c53e9", "is_disabled": 0, "is_reserved": 0}, {"rental_uris": {"ios": "https://dc.lft.to/lastmile_qr_scan", "android": "https://dc.lft.to/lastmile_qr_scan"}, "lon": -77.04128766666666, "type": "electric_scooter", "fusion_lat": 0.0, "lat": 38.9216915, "name": "c2d6af68a83b519a32d89dd4f3e40cea", "fusion_lon": 0.0, "bike_id": "c2d6af68a83b519a32d89dd4f3e40cea", "is_disabled": 0, "is_reserved": 0}, {"rental_uris": {"ios": "https://dc.lft.to/lastmile_qr_scan", "android": "https://dc.lft.to/lastmile_qr_scan"}, "lon": -76.99829666666666, "type": "electric_scooter", "fusion_lat": 0.0, "lat": 38.888691333333334, "name": "49040687a53e49366d40e4aca6dc69e2", "fusion_lon": 0.0, "bike_id": "49040687a53e49366d40e4aca6dc69e2", "is_disabled": 0, "is_reserved": 0}, {"rental_uris": {"ios": "https://dc.lft.to/lastmile_qr_scan", "android": "https://dc.lft.to/lastmile_qr_scan"}, "lon": -77.02983416666666, "type": "electric_scooter", "fusion_lat": 0.0, "lat": 38.9247225, "name": "a274cabee706c4df964c208614af12c5", "fusion_lon": 0.0, "bike_id": "a274cabee706c4df964c208614af12c5", "is_disabled": 0, "is_reserved": 0}, {"rental_uris": {"ios": "https://dc.lft.to/lastmile_qr_scan", "android": "https://dc.lft.to/lastmile_qr_scan"}, "lon": -77.01503916666667, "type": "electric_scooter", "fusion_lat": 0.0, "lat": 38.9014815, "name": "11a66fa01540f6622382f695e137065a", "fusion_lon": 0.0, "bike_id": "11a66fa01540f6622382f695e137065a", "is_disabled": 0, "is_reserved": 0}, {"rental_uris": {"ios": "https://dc.lft.to/lastmile_qr_scan", "android": "https://dc.lft.to/lastmile_qr_scan"}, "lon": -77.00567516666666, "type": "electric_scooter", "fusion_lat": 0.0, "lat": 38.906295666666665, "name": "119a299e3b41c17c44958746a48e3a27", "fusion_lon": 0.0, "bike_id": "119a299e3b41c17c44958746a48e3a27", "is_disabled": 0, "is_reserved": 0}, {"rental_uris": {"ios": "https://dc.lft.to/lastmile_qr_scan", "android": "https://dc.lft.to/lastmile_qr_scan"}, "lon": -77.03657483333333, "type": "electric_scooter", "fusion_lat": 0.0, "lat": 38.92301033333333, "name": "1c60219c36dff94790c649fbea6fb3d2", "fusion_lon": 0.0, "bike_id": "1c60219c36dff94790c649fbea6fb3d2", "is_disabled": 0, "is_reserved": 0}, {"rental_uris": {"ios": "https://dc.lft.to/lastmile_qr_scan", "android": "https://dc.lft.to/lastmile_qr_scan"}, "lon": -77.008754, "type": "electric_scooter", "fusion_lat": 0.0, "lat": 38.905762, "name": "cc83c64e113b8c496907dc2396ac1168", "fusion_lon": 0.0, "bike_id": "cc83c64e113b8c496907dc2396ac1168", "is_disabled": 0, "is_reserved": 0}, {"rental_uris": {"ios": "https://dc.lft.to/lastmile_qr_scan", "android": "https://dc.lft.to/lastmile_qr_scan"}, "lon": -76.98704366666666, "type": "electric_scooter", "fusion_lat": 0.0, "lat": 38.90153266666667, "name": "46a0d0cfcdb9407d1dc86d1f2773af26", "fusion_lon": 0.0, "bike_id": "46a0d0cfcdb9407d1dc86d1f2773af26", "is_disabled": 0, "is_reserved": 0}, {"rental_uris": {"ios": "https://dc.lft.to/lastmile_qr_scan", "android": "https://dc.lft.to/lastmile_qr_scan"}, "lon": -77.02176166666666, "type": "electric_scooter", "fusion_lat": 0.0, "lat": 38.8925465, "name": "004068d7402d724932e9b285ca118dd4", "fusion_lon": 0.0, "bike_id": "004068d7402d724932e9b285ca118dd4", "is_disabled": 0, "is_reserved": 0}, {"rental_uris": {"ios": "https://dc.lft.to/lastmile_qr_scan", "android": "https://dc.lft.to/lastmile_qr_scan"}, "lon": -77.03859866666667, "type": "electric_scooter", "fusion_lat": 0.0, "lat": 38.9154695, "name": "e6607e9cd63ab68e4c8c50f80b2baa62", "fusion_lon": 0.0, "bike_id": "e6607e9cd63ab68e4c8c50f80b2baa62", "is_disabled": 0, "is_reserved": 0}, {"rental_uris": {"ios": "https://dc.lft.to/lastmile_qr_scan", "android": "https://dc.lft.to/lastmile_qr_scan"}, "lon": -77.04510833333333, "type": "electric_scooter", "fusion_lat": 0.0, "lat": 38.907900166666664, "name": "510549ef841fda98a53ffde4bc02aafc", "fusion_lon": 0.0, "bike_id": "510549ef841fda98a53ffde4bc02aafc", "is_disabled": 0, "is_reserved": 0}, {"rental_uris": {"ios": "https://dc.lft.to/lastmile_qr_scan", "android": "https://dc.lft.to/lastmile_qr_scan"}, "lon": -77.036965, "type": "electric_scooter", "fusion_lat": 0.0, "lat": 38.93525866666667, "name": "d17bfadda8177adbc8643c2fc4dbe8d1", "fusion_lon": 0.0, "bike_id": "d17bfadda8177adbc8643c2fc4dbe8d1", "is_disabled": 0, "is_reserved": 0}, {"rental_uris": {"ios": "https://dc.lft.to/lastmile_qr_scan", "android": "https://dc.lft.to/lastmile_qr_scan"}, "lon": -76.93192833333333, "type": "electric_scooter", "fusion_lat": 0.0, "lat": 38.889934833333335, "name": "a7a0c39bb830fa5a45b8bb00ae2fb69c", "fusion_lon": 0.0, "bike_id": "a7a0c39bb830fa5a45b8bb00ae2fb69c", "is_disabled": 0, "is_reserved": 0}, {"rental_uris": {"ios": "https://dc.lft.to/lastmile_qr_scan", "android": "https://dc.lft.to/lastmile_qr_scan"}, "lon": -76.97345783333333, "type": "electric_scooter", "fusion_lat": 0.0, "lat": 38.865086, "name": "96f151d8f39863816043e60c30e02717", "fusion_lon": 0.0, "bike_id": "96f151d8f39863816043e60c30e02717", "is_disabled": 0, "is_reserved": 0}, {"rental_uris": {"ios": "https://dc.lft.to/lastmile_qr_scan", "android": "https://dc.lft.to/lastmile_qr_scan"}, "lon": -77.01794133333334, "type": "electric_scooter", "fusion_lat": 0.0, "lat": 38.904247166666664, "name": "3ce8da86bcc9b009673e56ddc96e7cf3", "fusion_lon": 0.0, "bike_id": "3ce8da86bcc9b009673e56ddc96e7cf3", "is_disabled": 0, "is_reserved": 0}, {"rental_uris": {"ios": "https://dc.lft.to/lastmile_qr_scan", "android": "https://dc.lft.to/lastmile_qr_scan"}, "lon": -77.02200166666667, "type": "electric_scooter", "fusion_lat": 0.0, "lat": 38.915372166666664, "name": "62de92d009798de30cac157dab223e5d", "fusion_lon": 0.0, "bike_id": "62de92d009798de30cac157dab223e5d", "is_disabled": 0, "is_reserved": 0}, {"rental_uris": {"ios": "https://dc.lft.to/lastmile_qr_scan", "android": "https://dc.lft.to/lastmile_qr_scan"}, "lon": -77.039556, "type": "electric_scooter", "fusion_lat": 0.0, "lat": 38.892433833333335, "name": "4ea7f3f9e9ee80c31e1eda726d37f370", "fusion_lon": 0.0, "bike_id": "4ea7f3f9e9ee80c31e1eda726d37f370", "is_disabled": 0, "is_reserved": 0}, {"rental_uris": {"ios": "https://dc.lft.to/lastmile_qr_scan", "android": "https://dc.lft.to/lastmile_qr_scan"}, "lon": -76.95518883333334, "type": "electric_scooter", "fusion_lat": 0.0, "lat": 38.89054483333334, "name": "e63b5c975f3114383fd9a0609746d9a3", "fusion_lon": 0.0, "bike_id": "e63b5c975f3114383fd9a0609746d9a3", "is_disabled": 0, "is_reserved": 0}, {"rental_uris": {"ios": "https://dc.lft.to/lastmile_qr_scan", "android": "https://dc.lft.to/lastmile_qr_scan"}, "lon": -77.05136433333334, "type": "electric_scooter", "fusion_lat": 0.0, "lat": 38.90576633333333, "name": "13fbce6b9dfe43ea209682289489a0bb", "fusion_lon": 0.0, "bike_id": "13fbce6b9dfe43ea209682289489a0bb", "is_disabled": 0, "is_reserved": 0}, {"rental_uris": {"ios": "https://dc.lft.to/lastmile_qr_scan", "android": "https://dc.lft.to/lastmile_qr_scan"}, "lon": -77.05078833333333, "type": "electric_scooter", "fusion_lat": 0.0, "lat": 38.896105, "name": "5c06f394c0dfead24277a460a19e66f6", "fusion_lon": 0.0, "bike_id": "5c06f394c0dfead24277a460a19e66f6", "is_disabled": 0, "is_reserved": 0}, {"rental_uris": {"ios": "https://dc.lft.to/lastmile_qr_scan", "android": "https://dc.lft.to/lastmile_qr_scan"}, "lon": -76.97211383333334, "type": "electric_scooter", "fusion_lat": 0.0, "lat": 38.8549375, "name": "1fb5b94b03745f0d23fef7bb3d46eb9d", "fusion_lon": 0.0, "bike_id": "1fb5b94b03745f0d23fef7bb3d46eb9d", "is_disabled": 0, "is_reserved": 0}, {"rental_uris": {"ios": "https://dc.lft.to/lastmile_qr_scan", "android": "https://dc.lft.to/lastmile_qr_scan"}, "lon": -76.99884566666667, "type": "electric_scooter", "fusion_lat": 0.0, "lat": 38.907490833333334, "name": "9bf68b0c0c1b2d30a0cd614cb8181ff0", "fusion_lon": 0.0, "bike_id": "9bf68b0c0c1b2d30a0cd614cb8181ff0", "is_disabled": 0, "is_reserved": 0}, {"rental_uris": {"ios": "https://dc.lft.to/lastmile_qr_scan", "android": "https://dc.lft.to/lastmile_qr_scan"}, "lon": -77.03446316666667, "type": "electric_scooter", "fusion_lat": 0.0, "lat": 38.9075855, "name": "78fd363d27b2aaf5af3f5a1c9d74a46e", "fusion_lon": 0.0, "bike_id": "78fd363d27b2aaf5af3f5a1c9d74a46e", "is_disabled": 0, "is_reserved": 0}, {"rental_uris": {"ios": "https://dc.lft.to/lastmile_qr_scan", "android": "https://dc.lft.to/lastmile_qr_scan"}, "lon": -76.985591, "type": "electric_bike", "fusion_lat": 0.0, "lat": 38.868944, "name": "f91f06f97cd2d03b89bf483e32944898", "fusion_lon": 0.0, "bike_id": "f91f06f97cd2d03b89bf483e32944898", "is_disabled": 0, "is_reserved": 0}, {"rental_uris": {"ios": "https://dc.lft.to/lastmile_qr_scan", "android": "https://dc.lft.to/lastmile_qr_scan"}, "lon": -77.03282066666667, "type": "electric_scooter", "fusion_lat": 0.0, "lat": 38.932023666666666, "name": "c878647468919d0db223416e56ef7ec7", "fusion_lon": 0.0, "bike_id": "c878647468919d0db223416e56ef7ec7", "is_disabled": 0, "is_reserved": 0}, {"rental_uris": {"ios": "https://dc.lft.to/lastmile_qr_scan", "android": "https://dc.lft.to/lastmile_qr_scan"}, "lon": -77.0363695, "type": "electric_scooter", "fusion_lat": 0.0, "lat": 38.937151, "name": "5d369e9e6efeccd54b8a74c203d6272d", "fusion_lon": 0.0, "bike_id": "5d369e9e6efeccd54b8a74c203d6272d", "is_disabled": 0, "is_reserved": 0}, {"rental_uris": {"ios": "https://dc.lft.to/lastmile_qr_scan", "android": "https://dc.lft.to/lastmile_qr_scan"}, "lon": -76.99145983333334, "type": "electric_scooter", "fusion_lat": 0.0, "lat": 38.88593933333333, "name": "e5f0067c413dba286e7eb12ddc429357", "fusion_lon": 0.0, "bike_id": "e5f0067c413dba286e7eb12ddc429357", "is_disabled": 0, "is_reserved": 0}, {"rental_uris": {"ios": "https://dc.lft.to/lastmile_qr_scan", "android": "https://dc.lft.to/lastmile_qr_scan"}, "lon": -77.071646, "type": "electric_scooter", "fusion_lat": 0.0, "lat": 38.907497, "name": "5de0bd9c711c413dea7ec3dd4a421fd8", "fusion_lon": 0.0, "bike_id": "5de0bd9c711c413dea7ec3dd4a421fd8", "is_disabled": 0, "is_reserved": 0}, {"rental_uris": {"ios": "https://dc.lft.to/lastmile_qr_scan", "android": "https://dc.lft.to/lastmile_qr_scan"}, "lon": -77.02197216666667, "type": "electric_scooter", "fusion_lat": 0.0, "lat": 38.90780566666667, "name": "769cc95fb94a3b7a544318ab85536d33", "fusion_lon": 0.0, "bike_id": "769cc95fb94a3b7a544318ab85536d33", "is_disabled": 0, "is_reserved": 0}, {"rental_uris": {"ios": "https://dc.lft.to/lastmile_qr_scan", "android": "https://dc.lft.to/lastmile_qr_scan"},