{"data": {"bikes": [{"is_disabled": 0, "fusion_lat": 0.0, "lat": 38.8804295, "type": "electric_scooter", "lon": -76.98629183333334, "is_reserved": 0, "fusion_lon": 0.0, "bike_id": "cb6cb2f9e2e0e0ee6d0c32189cd7704b", "name": "cb6cb2f9e2e0e0ee6d0c32189cd7704b", "rental_uris": {"ios": "https://dc.lft.to/lastmile_qr_scan", "android": "https://dc.lft.to/lastmile_qr_scan"}}, {"is_disabled": 0, "fusion_lat": 0.0, "lat": 38.8968875, "type": "electric_scooter", "lon": -76.99624716666666, "is_reserved": 0, "fusion_lon": 0.0, "bike_id": "e98281cbc538c65947410b26c1ba6d9f", "name": "e98281cbc538c65947410b26c1ba6d9f", "rental_uris": {"ios": "https://dc.lft.to/lastmile_qr_scan", "android": "https://dc.lft.to/lastmile_qr_scan"}}, {"is_disabled": 0, "fusion_lat": 0.0, "lat": 38.884521166666666, "type": "electric_scooter", "lon": -76.9509585, "is_reserved": 0, "fusion_lon": 0.0, "bike_id": "5625e146314907adf3dda59813b9ac36", "name": "5625e146314907adf3dda59813b9ac36", "rental_uris": {"ios": "https://dc.lft.to/lastmile_qr_scan", "android": "https://dc.lft.to/lastmile_qr_scan"}}, {"is_disabled": 0, "fusion_lat": 0.0, "lat": 38.92857633333333, "type": "electric_scooter", "lon": -77.013831, "is_reserved": 0, "fusion_lon": 0.0, "bike_id": "e2ff27693bc3ae09fcbddba3517f207e", "name": "e2ff27693bc3ae09fcbddba3517f207e", "rental_uris": {"ios": "https://dc.lft.to/lastmile_qr_scan", "android": "https://dc.lft.to/lastmile_qr_scan"}}, {"is_disabled": 0, "fusion_lat": 0.0, "lat": 38.8708785, "type": "electric_bike", "lon": -77.0120975, "is_reserved": 0, "fusion_lon": 0.0, "bike_id": "227938aeb38d7a31e37c051a8f57b24a", "name": "227938aeb38d7a31e37c051a8f57b24a", "rental_uris": {"ios": "https://dc.lft.to/lastmile_qr_scan", "android": "https://dc.lft.to/lastmile_qr_scan"}}, {"is_disabled": 0, "fusion_lat": 0.0, "lat": 38.92239466666667, "type": "electric_scooter", "lon": -77.03088083333333, "is_reserved": 0, "fusion_lon": 0.0, "bike_id": "daa748a42da39cd90d831554911d8ce5", "name": "daa748a42da39cd90d831554911d8ce5", "rental_uris": {"ios": "https://dc.lft.to/lastmile_qr_scan", "android": "https://dc.lft.to/lastmile_qr_scan"}}, {"is_disabled": 0, "fusion_lat": 0.0, "lat": 38.89221633333333, "type": "electric_scooter", "lon": -77.04191266666666, "is_reserved": 0, "fusion_lon": 0.0, "bike_id": "e0dbe4ce042dbd2bb0706841bfd703b4", "name": "e0dbe4ce042dbd2bb0706841bfd703b4", "rental_uris": {"ios": "https://dc.lft.to/lastmile_qr_scan", "android": "https://dc.lft.to/lastmile_qr_scan"}}, {"is_disabled": 0, "fusion_lat": 0.0, "lat": 38.89608583333333, "type": "electric_scooter", "lon": -77.00920216666667, "is_reserved": 0, "fusion_lon": 0.0, "bike_id": "18d59e5be92c0a6f16e4ad6e7666ef80", "name": "18d59e5be92c0a6f16e4ad6e7666ef80", "rental_uris": {"ios": "https://dc.lft.to/lastmile_qr_scan", "android": "https://dc.lft.to/lastmile_qr_scan"}}, {"is_disabled": 0, "fusion_lat": 0.0, "lat": 38.924155999999996, "type": "electric_scooter", "lon": -77.03634766666667, "is_reserved": 0, "fusion_lon": 0.0, "bike_id": "fd7273cbf1df61128b7c90c8735fbad7", "name": "fd7273cbf1df61128b7c90c8735fbad7", "rental_uris": {"ios": "https://dc.lft.to/lastmile_qr_scan", "android": "https://dc.lft.to/lastmile_qr_scan"}}, {"is_disabled": 0, "fusion_lat": 0.0, "lat": 38.917653333333334, "type": "electric_scooter", "lon": -77.03653966666667, "is_reserved": 0, "fusion_lon": 0.0, "bike_id": "0448d7be99eedbe7ceea18cf180cec74", "name": "0448d7be99eedbe7ceea18cf180cec74", "rental_uris": {"ios": "https://dc.lft.to/lastmile_qr_scan", "android": "https://dc.lft.to/lastmile_qr_scan"}}, {"is_disabled": 0, "fusion_lat": 0.0, "lat": 38.91556166666667, "type": "electric_scooter", "lon": -77.03030333333334, "is_reserved": 0, "fusion_lon": 0.0, "bike_id": "3ef42ec8d284165fb777ed102381d394", "name": "3ef42ec8d284165fb777ed102381d394", "rental_uris": {"ios": "https://dc.lft.to/lastmile_qr_scan", "android": "https://dc.lft.to/lastmile_qr_scan"}}, {"is_disabled": 0, "fusion_lat": 0.0, "lat": 38.920727666666664, "type": "electric_scooter", "lon": -77.04380666666667, "is_reserved": 0, "fusion_lon": 0.0, "bike_id": "4c5107089d1549ef5aff99fd695eba16", "name": "4c5107089d1549ef5aff99fd695eba16", "rental_uris": {"ios": "https://dc.lft.to/lastmile_qr_scan", "android": "https://dc.lft.to/lastmile_qr_scan"}}, {"is_disabled": 0, "fusion_lat": 0.0, "lat": 38.914615, "type": "electric_scooter", "lon": -77.04602966666667, "is_reserved": 0, "fusion_lon": 0.0, "bike_id": "63df8fb9096b89c06dd611ee3479a814", "name": "63df8fb9096b89c06dd611ee3479a814", "rental_uris": {"ios": "https://dc.lft.to/lastmile_qr_scan", "android": "https://dc.lft.to/lastmile_qr_scan"}}, {"is_disabled": 0, "fusion_lat": 0.0, "lat": 38.92553933333333, "type": "electric_bike", "lon": -77.00134983333334, "is_reserved": 0, "fusion_lon": 0.0, "bike_id": "060de68ace52e88c7d3b3ae127f35c25", "name": "060de68ace52e88c7d3b3ae127f35c25", "rental_uris": {"ios": "https://dc.lft.to/lastmile_qr_scan", "android": "https://dc.lft.to/lastmile_qr_scan"}}, {"is_disabled": 0, "fusion_lat": 0.0, "lat": 38.940230166666666, "type": "electric_scooter", "lon": -77.0716795, "is_reserved": 0, "fusion_lon": 0.0, "bike_id": "6a881f641afae72622db651c64e473f5", "name": "6a881f641afae72622db651c64e473f5", "rental_uris": {"ios": "https://dc.lft.to/lastmile_qr_scan", "android": "https://dc.lft.to/lastmile_qr_scan"}}, {"is_disabled": 0, "fusion_lat": 0.0, "lat": 38.90606416666667, "type": "electric_scooter", "lon": -77.041074, "is_reserved": 0, "fusion_lon": 0.0, "bike_id": "a0b40544c57969e2fabf7f52d974ebd8", "name": "a0b40544c57969e2fabf7f52d974ebd8", "rental_uris": {"ios": "https://dc.lft.to/lastmile_qr_scan", "android": "https://dc.lft.to/lastmile_qr_scan"}}, {"is_disabled": 0, "fusion_lat": 0.0, "lat": 38.90186666666666, "type": "electric_scooter", "lon": -77.04631866666666, "is_reserved": 0, "fusion_lon": 0.0, "bike_id": "7b20681dd3dd48a133a6169bc298f5b3", "name": "7b20681dd3dd48a133a6169bc298f5b3", "rental_uris": {"ios": "https://dc.lft.to/lastmile_qr_scan", "android": "https://dc.lft.to/lastmile_qr_scan"}}, {"is_disabled": 0, "fusion_lat": 0.0, "lat": 38.92567616666667, "type": "electric_scooter", "lon": -77.05260333333334, "is_reserved": 0, "fusion_lon": 0.0, "bike_id": "9be8bde1c123c97e57e2f08ba420b141", "name": "9be8bde1c123c97e57e2f08ba420b141", "rental_uris": {"ios": "https://dc.lft.to/lastmile_qr_scan", "android": "https://dc.lft.to/lastmile_qr_scan"}}, {"is_disabled": 0, "fusion_lat": 0.0, "lat": 38.86369416666667, "type": "electric_bike", "lon": -76.97008366666667, "is_reserved": 0, "fusion_lon": 0.0, "bike_id": "c703d5387a70a01f8b2095e13e64b0ab", "name": "c703d5387a70a01f8b2095e13e64b0ab", "rental_uris": {"ios": "https://dc.lft.to/lastmile_qr_scan", "android": "https://dc.lft.to/lastmile_qr_scan"}}, {"is_disabled": 0, "fusion_lat": 0.0, "lat": 38.850598166666664, "type": "electric_bike", "lon": -76.97326333333334, "is_reserved": 0, "fusion_lon": 0.0, "bike_id": "6742eca634c57f38d08a65e01dd8e200", "name": "6742eca634c57f38d08a65e01dd8e200", "rental_uris": {"ios": "https://dc.lft.to/lastmile_qr_scan", "android": "https://dc.lft.to/lastmile_qr_scan"}}, {"is_disabled": 0, "fusion_lat": 0.0, "lat": 38.921279166666665, "type": "electric_scooter", "lon": -77.0366985, "is_reserved": 0, "fusion_lon": 0.0, "bike_id": "74dc1faaa6326d2f9482917ee56e82ca", "name": "74dc1faaa6326d2f9482917ee56e82ca", "rental_uris": {"ios": "https://dc.lft.to/lastmile_qr_scan", "android": "https://dc.lft.to/lastmile_qr_scan"}}, {"is_disabled": 0, "fusion_lat": 0.0, "lat": 38.87499833333333, "type": "electric_scooter", "lon": -77.00181516666666, "is_reserved": 0, "fusion_lon": 0.0, "bike_id": "a251f3c53a77ea80b049ced5bdd7b14f", "name": "a251f3c53a77ea80b049ced5bdd7b14f", "rental_uris": {"ios": "https://dc.lft.to/lastmile_qr_scan", "android": "https://dc.lft.to/lastmile_qr_scan"}}, {"is_disabled": 0, "fusion_lat": 0.0, "lat": 38.892089666666664, "type": "electric_scooter", "lon": -77.03165683333333, "is_reserved": 0, "fusion_lon": 0.0, "bike_id": "e383fb8e00ff8a84f7576f8ee4d0a7f2", "name": "e383fb8e00ff8a84f7576f8ee4d0a7f2", "rental_uris": {"ios": "https://dc.lft.to/lastmile_qr_scan", "android": "https://dc.lft.to/lastmile_qr_scan"}}, {"is_disabled": 0, "fusion_lat": 0.0, "lat": 38.911865, "type": "electric_scooter", "lon": -77.03859516666667, "is_reserved": 0, "fusion_lon": 0.0, "bike_id": "2849b8f1ab5ef9ebe43941955858c355", "name": "2849b8f1ab5ef9ebe43941955858c355", "rental_uris": {"ios": "https://dc.lft.to/lastmile_qr_scan", "android": "https://dc.lft.to/lastmile_qr_scan"}}, {"is_disabled": 0, "fusion_lat": 0.0, "lat": 38.9257875, "type": "electric_scooter", "lon": -77.0256535, "is_reserved": 0, "fusion_lon": 0.0, "bike_id": "5306216604e1495d3bb61692fb5e3dcb", "name": "5306216604e1495d3bb61692fb5e3dcb", "rental_uris": {"ios": "https://dc.lft.to/lastmile_qr_scan", "android": "https://dc.lft.to/lastmile_qr_scan"}}, {"is_disabled": 0, "fusion_lat": 0.0, "lat": 38.9081705, "type": "electric_scooter", "lon": -76.98401333333334, "is_reserved": 0, "fusion_lon": 0.0, "bike_id": "4f261d7850fde81b7c08f410867d981b", "name": "4f261d7850fde81b7c08f410867d981b", "rental_uris": {"ios": "https://dc.lft.to/lastmile_qr_scan", "android": "https://dc.lft.to/lastmile_qr_scan"}}, {"is_disabled": 0, "fusion_lat": 0.0, "lat": 38.905180666666666, "type": "electric_scooter", "lon": -77.06462666666667, "is_reserved": 0, "fusion_lon": 0.0, "bike_id": "84768962dfa91af20c8043249ae6b2a4", "name": "84768962dfa91af20c8043249ae6b2a4", "rental_uris": {"ios": "https://dc.lft.to/lastmile_qr_scan", "android": "https://dc.lft.to/lastmile_qr_scan"}}, {"is_disabled": 0, "fusion_lat": 0.0, "lat": 38.922177833333336, "type": "electric_scooter", "lon": -77.042598, "is_reserved": 0, "fusion_lon": 0.0, "bike_id": "d69e3656423e5908e31d56eb5ea1fe5c", "name": "d69e3656423e5908e31d56eb5ea1fe5c", "rental_uris": {"ios": "https://dc.lft.to/lastmile_qr_scan", "android": "https://dc.lft.to/lastmile_qr_scan"}}, {"is_disabled": 0, "fusion_lat": 0.0, "lat": 38.92081016666667, "type": "electric_scooter", "lon": -77.04218983333334, "is_reserved": 0, "fusion_lon": 0.0, "bike_id": "2510a806b8bf686592f0b3d2be605ce5", "name": "2510a806b8bf686592f0b3d2be605ce5", "rental_uris": {"ios": "https://dc.lft.to/lastmile_qr_scan", "android": "https://dc.lft.to/lastmile_qr_scan"}}, {"is_disabled": 0, "fusion_lat": 0.0, "lat": 38.9195005, "type": "electric_scooter", "lon": -77.0320225, "is_reserved": 0, "fusion_lon": 0.0, "bike_id": "f0cc7222c4d87fb9760829c5bf107946", "name": "f0cc7222c4d87fb9760829c5bf107946", "rental_uris": {"ios": "https://dc.lft.to/lastmile_qr_scan", "android": "https://dc.lft.to/lastmile_qr_scan"}}, {"is_disabled": 0, "fusion_lat": 0.0, "lat": 38.919632166666666, "type": "electric_scooter", "lon": -77.0321055, "is_reserved": 0, "fusion_lon": 0.0, "bike_id": "b860bfb74e67d5684b01e511561d495f", "name": "b860bfb74e67d5684b01e511561d495f", "rental_uris": {"ios": "https://dc.lft.to/lastmile_qr_scan", "android": "https://dc.lft.to/lastmile_qr_scan"}}, {"is_disabled": 0, "fusion_lat": 0.0, "lat": 38.952708666666666, "type": "electric_bike", "lon": -77.06976766666666, "is_reserved": 0, "fusion_lon": 0.0, "bike_id": "f33bfa86dbe188efdfd102076a7132b1", "name": "f33bfa86dbe188efdfd102076a7132b1", "rental_uris": {"ios": "https://dc.lft.to/lastmile_qr_scan", "android": "https://dc.lft.to/lastmile_qr_scan"}}, {"is_disabled": 0, "fusion_lat": 0.0, "lat": 38.906731666666666, "type": "electric_scooter", "lon": -77.027238, "is_reserved": 0, "fusion_lon": 0.0, "bike_id": "5523d20cce19ec6033308b280b41010e", "name": "5523d20cce19ec6033308b280b41010e", "rental_uris": {"ios": "https://dc.lft.to/lastmile_qr_scan", "android": "https://dc.lft.to/lastmile_qr_scan"}}, {"is_disabled": 0, "fusion_lat": 0.0, "lat": 38.935354333333336, "type": "electric_scooter", "lon": -77.02346566666667, "is_reserved": 0, "fusion_lon": 0.0, "bike_id": "b5f692c4acf06c434e70dc83e31a66c9", "name": "b5f692c4acf06c434e70dc83e31a66c9", "rental_uris": {"ios": "https://dc.lft.to/lastmile_qr_scan", "android": "https://dc.lft.to/lastmile_qr_scan"}}, {"is_disabled": 0, "fusion_lat": 0.0, "lat": 38.926398, "type": "electric_scooter", "lon": -77.013404, "is_reserved": 0, "fusion_lon": 0.0, "bike_id": "1e93ea75b2c99875e0f87c2d4990184a", "name": "1e93ea75b2c99875e0f87c2d4990184a", "rental_uris": {"ios": "https://dc.lft.to/lastmile_qr_scan", "android": "https://dc.lft.to/lastmile_qr_scan"}}, {"is_disabled": 0, "fusion_lat": 0.0, "lat": 38.90791433333333, "type": "electric_scooter", "lon": -77.0443295, "is_reserved": 0, "fusion_lon": 0.0, "bike_id": "a1ca03c43ddb31423574c1c57cefd329", "name": "a1ca03c43ddb31423574c1c57cefd329", "rental_uris": {"ios": "https://dc.lft.to/lastmile_qr_scan", "android": "https://dc.lft.to/lastmile_qr_scan"}}, {"is_disabled": 0, "fusion_lat": 0.0, "lat": 38.89908533333333, "type": "electric_scooter", "lon": -77.00720933333334, "is_reserved": 0, "fusion_lon": 0.0, "bike_id": "58c64d11b0efcf3d880898852648cc8d", "name": "58c64d11b0efcf3d880898852648cc8d", "rental_uris": {"ios": "https://dc.lft.to/lastmile_qr_scan", "android": "https://dc.lft.to/lastmile_qr_scan"}}, {"is_disabled": 0, "fusion_lat": 0.0, "lat": 38.94090716666667, "type": "electric_scooter", "lon": -77.0271475, "is_reserved": 0, "fusion_lon": 0.0, "bike_id": "4e0c44f995d35905f2633d390b4fcee1", "name": "4e0c44f995d35905f2633d390b4fcee1", "rental_uris": {"ios": "https://dc.lft.to/lastmile_qr_scan", "android": "https://dc.lft.to/lastmile_qr_scan"}}, {"is_disabled": 0, "fusion_lat": 0.0, "lat": 38.926077, "type": "electric_scooter", "lon": -77.05690066666666, "is_reserved": 0, "fusion_lon": 0.0, "bike_id": "ca314c8ff8c5dab17c64965d300600b3", "name": "ca314c8ff8c5dab17c64965d300600b3", "rental_uris": {"ios": "https://dc.lft.to/lastmile_qr_scan", "android": "https://dc.lft.to/lastmile_qr_scan"}}, {"is_disabled": 0, "fusion_lat": 0.0, "lat": 38.937673333333336, "type": "electric_scooter", "lon": -77.02110216666667, "is_reserved": 0, "fusion_lon": 0.0, "bike_id": "451ec408be79e327d582deb5da1bab79", "name": "451ec408be79e327d582deb5da1bab79", "rental_uris": {"ios": "https://dc.lft.to/lastmile_qr_scan", "android": "https://dc.lft.to/lastmile_qr_scan"}}, {"is_disabled": 0, "fusion_lat": 0.0, "lat": 38.923256, "type": "electric_scooter", "lon": -77.03889833333334, "is_reserved": 0, "fusion_lon": 0.0, "bike_id": "0ab6979b8da4cb01afad553e77786878", "name": "0ab6979b8da4cb01afad553e77786878", "rental_uris": {"ios": "https://dc.lft.to/lastmile_qr_scan", "android": "https://dc.lft.to/lastmile_qr_scan"}}, {"is_disabled": 0, "fusion_lat": 0.0, "lat": 38.91823383333333, "type": "electric_scooter", "lon": -77.035252, "is_reserved": 0, "fusion_lon": 0.0, "bike_id": "1cf18f27b66d73896e315e138ff02b90", "name": "1cf18f27b66d73896e315e138ff02b90", "rental_uris": {"ios": "https://dc.lft.to/lastmile_qr_scan", "android": "https://dc.lft.to/lastmile_qr_scan"}}, {"is_disabled": 0, "fusion_lat": 0.0, "lat": 38.90387666666667, "type": "electric_scooter", "lon": -77.01841516666667, "is_reserved": 0, "fusion_lon": 0.0, "bike_id": "2347434cf9af2d60e02477c2cd2b5107", "name": "2347434cf9af2d60e02477c2cd2b5107", "rental_uris": {"ios": "https://dc.lft.to/lastmile_qr_scan", "android": "https://dc.lft.to/lastmile_qr_scan"}}, {"is_disabled": 0, "fusion_lat": 0.0, "lat": 38.82092766666667, "type": "electric_bike", "lon": -77.053628, "is_reserved": 0, "fusion_lon": 0.0, "bike_id": "b3e30defc26687380ec52f3793a68716", "name": "b3e30defc26687380ec52f3793a68716", "rental_uris": {"ios": "https://dc.lft.to/lastmile_qr_scan", "android": "https://dc.lft.to/lastmile_qr_scan"}}, {"is_disabled": 0, "fusion_lat": 0.0, "lat": 38.9508795, "type": "electric_scooter", "lon": -77.02830333333333, "is_reserved": 0, "fusion_lon": 0.0, "bike_id": "4b5ba2b65d8621ed6f8f36632f64520c", "name": "4b5ba2b65d8621ed6f8f36632f64520c", "rental_uris": {"ios": "https://dc.lft.to/lastmile_qr_scan", "android": "https://dc.lft.to/lastmile_qr_scan"}}, {"is_disabled": 0, "fusion_lat": 0.0, "lat": 38.91548433333333, "type": "electric_scooter", "lon": -77.01990433333333, "is_reserved": 0, "fusion_lon": 0.0, "bike_id": "bb5bae4fb6ef9156f5e58210d62428eb", "name": "bb5bae4fb6ef9156f5e58210d62428eb", "rental_uris": {"ios": "https://dc.lft.to/lastmile_qr_scan", "android": "https://dc.lft.to/lastmile_qr_scan"}}, {"is_disabled": 0, "fusion_lat": 0.0, "lat": 38.8927705, "type": "electric_scooter", "lon": -77.02605333333334, "is_reserved": 0, "fusion_lon": 0.0, "bike_id": "89b379844e502dffd1fe801d61c7805b", "name": "89b379844e502dffd1fe801d61c7805b", "rental_uris": {"ios": "https://dc.lft.to/lastmile_qr_scan", "android": "https://dc.lft.to/lastmile_qr_scan"}}, {"is_disabled": 0, "fusion_lat": 0.0, "lat": 38.897502833333334, "type": "electric_scooter", "lon": -77.04614333333333, "is_reserved": 0, "fusion_lon": 0.0, "bike_id": "ae60a21164b5eb375e35ae2991abcfae", "name": "ae60a21164b5eb375e35ae2991abcfae", "rental_uris": {"ios": "https://dc.lft.to/lastmile_qr_scan", "android": "https://dc.lft.to/lastmile_qr_scan"}}, {"is_disabled": 0, "fusion_lat": 0.0, "lat": 38.914472333333336, "type": "electric_bike", "lon": -76.97271033333334, "is_reserved": 0, "fusion_lon": 0.0, "bike_id": "efdce1e14adc4dac768088df034a2172", "name": "efdce1e14adc4dac768088df034a2172", "rental_uris": {"ios": "https://dc.lft.to/lastmile_qr_scan", "android": "https://dc.lft.to/lastmile_qr_scan"}}, {"is_disabled": 0, "fusion_lat": 0.0, "lat": 38.900807, "type": "electric_scooter", "lon": -77.05090583333333, "is_reserved": 0, "fusion_lon": 0.0, "bike_id": "e61b0496950d0bd937643391236051db", "name": "e61b0496950d0bd937643391236051db", "rental_uris": {"ios": "https://dc.lft.to/lastmile_qr_scan", "android": "https://dc.lft.to/lastmile_qr_scan"}}, {"is_disabled": 0, "fusion_lat": 0.0, "lat": 38.90203733333333, "type": "electric_scooter", "lon": -77.02423883333333, "is_reserved": 0, "fusion_lon": 0.0, "bike_id": "f309ca1cda6745fb12c1a0417791e767", "name": "f309ca1cda6745fb12c1a0417791e767", "rental_uris": {"ios": "https://dc.lft.to/lastmile_qr_scan", "android": "https://dc.lft.to/lastmile_qr_scan"}}, {"is_disabled": 0, "fusion_lat": 0.0, "lat": 38.9394, "type": "electric_scooter", "lon": -77.06111766666666, "is_reserved": 0, "fusion_lon": 0.0, "bike_id": "fc01edd7ec38444ea42415bcec3fd49e", "name": "fc01edd7ec38444ea42415bcec3fd49e", "rental_uris": {"ios": "https://dc.lft.to/lastmile_qr_scan", "android": "https://dc.lft.to/lastmile_qr_scan"}}, {"is_disabled": 0, "fusion_lat": 0.0, "lat": 38.91618783333333, "type": "electric_scooter", "lon": -77.045721, "is_reserved": 0, "fusion_lon": 0.0, "bike_id": "3e0ebe6a970cb15b9b18fd29cfc8fa2a", "name": "3e0ebe6a970cb15b9b18fd29cfc8fa2a", "rental_uris": {"ios": "https://dc.lft.to/lastmile_qr_scan", "android": "https://dc.lft.to/lastmile_qr_scan"}}, {"is_disabled": 0, "fusion_lat": 0.0, "lat": 38.892246166666666, "type": "electric_scooter", "lon": -77.0486695, "is_reserved": 0, "fusion_lon": 0.0, "bike_id": "3bc945f4ba3203801f300f458a01c20e", "name": "3bc945f4ba3203801f300f458a01c20e", "rental_uris": {"ios": "https://dc.lft.to/lastmile_qr_scan", "android": "https://dc.lft.to/lastmile_qr_scan"}}, {"is_disabled": 0, "fusion_lat": 0.0, "lat": 38.86184, "type": "electric_scooter", "lon": -76.99426166666667, "is_reserved": 0, "fusion_lon": 0.0, "bike_id": "54795ea902bbde097ed9a74cb47d1d4f", "name": "54795ea902bbde097ed9a74cb47d1d4f", "rental_uris": {"ios": "https://dc.lft.to/lastmile_qr_scan", "android": "https://dc.lft.to/lastmile_qr_scan"}}, {"is_disabled": 0, "fusion_lat": 0.0, "lat": 38.86524566666667, "type": "electric_scooter", "lon": -76.99034466666667, "is_reserved": 0, "fusion_lon": 0.0, "bike_id": "35ca28ecbfbf6d7fb2469dd3e2a5dea0", "name": "35ca28ecbfbf6d7fb2469dd3e2a5dea0", "rental_uris": {"ios": "https://dc.lft.to/lastmile_qr_scan", "android": "https://dc.lft.to/lastmile_qr_scan"}}, {"is_disabled": 0, "fusion_lat": 0.0, "lat": 38.938687333333334, "type": "electric_bike", "lon": -77.02632283333334, "is_reserved": 0, "fusion_lon": 0.0, "bike_id": "872ba882d40c52f4ec53e5d41e250c1e", "name": "872ba882d40c52f4ec53e5d41e250c1e", "rental_uris": {"ios": "https://dc.lft.to/lastmile_qr_scan", "android": "https://dc.lft.to/lastmile_qr_scan"}}, {"is_disabled": 0, "fusion_lat": 0.0, "lat": 38.90467666666667, "type": "electric_scooter", "lon": -77.048511, "is_reserved": 0, "fusion_lon": 0.0, "bike_id": "ec381114c019d8f2889a04d46b9496a2", "name": "ec381114c019d8f2889a04d46b9496a2", "rental_uris": {"ios": "https://dc.lft.to/lastmile_qr_scan", "android": "https://dc.lft.to/lastmile_qr_scan"}}, {"is_disabled": 0, "fusion_lat": 0.0, "lat": 38.89742966666667, "type": "electric_scooter", "lon": -77.00033433333333, "is_reserved": 0, "fusion_lon": 0.0, "bike_id": "92591a4453520d8aad4faadd8171e669", "name": "92591a4453520d8aad4faadd8171e669", "rental_uris": {"ios": "https://dc.lft.to/lastmile_qr_scan", "android": "https://dc.lft.to/lastmile_qr_scan"}}, {"is_disabled": 0, "fusion_lat": 0.0, "lat": 38.896279666666665, "type": "electric_scooter", "lon": -76.98498216666667, "is_reserved": 0, "fusion_lon": 0.0, "bike_id": "b6182ec8a0b2d0b33abc34bdfdd66aa7", "name": "b6182ec8a0b2d0b33abc34bdfdd66aa7", "rental_uris": {"ios": "https://dc.lft.to/lastmile_qr_scan", "android": "https://dc.lft.to/lastmile_qr_scan"}}, {"is_disabled": 0, "fusion_lat": 0.0, "lat": 38.9170755, "type": "electric_scooter", "lon": -77.00108383333334, "is_reserved": 0, "fusion_lon": 0.0, "bike_id": "87577a173ee399483329a99cc33379fc", "name": "87577a173ee399483329a99cc33379fc", "rental_uris": {"ios": "https://dc.lft.to/lastmile_qr_scan", "android": "https://dc.lft.to/lastmile_qr_scan"}}, {"is_disabled": 0, "fusion_lat": 0.0, "lat": 38.903621, "type": "electric_scooter", "lon": -77.04410116666666, "is_reserved": 0, "fusion_lon": 0.0, "bike_id": "51c457f92e4404e301cb5b9a09f0029f", "name": "51c457f92e4404e301cb5b9a09f0029f", "rental_uris": {"ios": "https://dc.lft.to/lastmile_qr_scan", "android": "https://dc.lft.to/lastmile_qr_scan"}}, {"is_disabled": 0, "fusion_lat": 0.0, "lat": 38.90042233333333, "type": "electric_scooter", "lon": -76.98830716666667, "is_reserved": 0, "fusion_lon": 0.0, "bike_id": "0fd30dff766c6df27e390ad2211d98cc", "name": "0fd30dff766c6df27e390ad2211d98cc", "rental_uris": {"ios": "https://dc.lft.to/lastmile_qr_scan", "android": "https://dc.lft.to/lastmile_qr_scan"}}, {"is_disabled": 0, "fusion_lat": 0.0, "lat": 38.959589666666666, "type": "electric_bike", "lon": -77.10089066666667, "is_reserved": 0, "fusion_lon": 0.0, "bike_id": "041482711ba69e14525dc95cd92ba63d", "name": "041482711ba69e14525dc95cd92ba63d", "rental_uris": {"ios": "https://dc.lft.to/lastmile_qr_scan", "android": "https://dc.lft.to/lastmile_qr_scan"}}, {"is_disabled": 0, "fusion_lat": 0.0, "lat": 38.9141535, "type": "electric_scooter", "lon": -77.02173566666667, "is_reserved": 0, "fusion_lon": 0.0, "bike_id": "70d051ccba6e54dbcbdf626a4cdb305e", "name": "70d051ccba6e54dbcbdf626a4cdb305e", "rental_uris": {"ios": "https://dc.lft.to/lastmile_qr_scan", "android": "https://dc.lft.to/lastmile_qr_scan"}}, {"is_disabled": 0, "fusion_lat": 0.0, "lat": 38.88437316666667, "type": "electric_scooter", "lon": -77.03032716666667, "is_reserved": 0, "fusion_lon": 0.0, "bike_id": "37c4337e72da572f041719d16f9e4a12", "name": "37c4337e72da572f041719d16f9e4a12", "rental_uris": {"ios": "https://dc.lft.to/lastmile_qr_scan", "android": "https://dc.lft.to/lastmile_qr_scan"}}, {"is_disabled": 0, "fusion_lat": 0.0, "lat": 38.87951533333333, "type": "electric_scooter", "lon": -77.00494466666666, "is_reserved": 0, "fusion_lon": 0.0, "bike_id": "9914204c615b0fc97bcf2ecafa7ba32c", "name": "9914204c615b0fc97bcf2ecafa7ba32c", "rental_uris": {"ios": "https://dc.lft.to/lastmile_qr_scan", "android": "https://dc.lft.to/lastmile_qr_scan"}}, {"is_disabled": 0, "fusion_lat": 0.0, "lat": 38.9085425, "type": "electric_scooter", "lon": -77.023414, "is_reserved": 0, "fusion_lon": 0.0, "bike_id": "ad9b3b61be6b1fb9fe950d1582b144c7", "name": "ad9b3b61be6b1fb9fe950d1582b144c7", "rental_uris": {"ios": "https://dc.lft.to/lastmile_qr_scan", "android": "https://dc.lft.to/lastmile_qr_scan"}}, {"is_disabled": 0, "fusion_lat": 0.0, "lat": 38.89215, "type": "electric_scooter", "lon": -77.00048583333333, "is_reserved": 0, "fusion_lon": 0.0, "bike_id": "e589a6f31bac766963babbca51531978", "name": "e589a6f31bac766963babbca51531978", "rental_uris": {"ios": "https://dc.lft.to/lastmile_qr_scan", "android": "https://dc.lft.to/lastmile_qr_scan"}}, {"is_disabled": 0, "fusion_lat": 0.0, "lat": 38.917081833333334, "type": "electric_scooter", "lon": -77.023401, "is_reserved": 0, "fusion_lon": 0.0, "bike_id": "4d8985922d62ee458d80dcbb0f154fff", "name": "4d8985922d62ee458d80dcbb0f154fff", "rental_uris": {"ios": "https://dc.lft.to/lastmile_qr_scan", "android": "https://dc.lft.to/lastmile_qr_scan"}}, {"is_disabled": 0, "fusion_lat": 0.0, "lat": 38.91196033333333, "type": "electric_scooter", "lon": -77.06089366666667, "is_reserved": 0, "fusion_lon": 0.0, "bike_id": "54cb9aca426bd7ffa5139a04e43a2c8b", "name": "54cb9aca426bd7ffa5139a04e43a2c8b", "rental_uris": {"ios": "https://dc.lft.to/lastmile_qr_scan", "android": "https://dc.lft.to/lastmile_qr_scan"}}, {"is_disabled": 0, "fusion_lat": 0.0, "lat": 38.84465616666667, "type": "electric_scooter", "lon": -76.998615, "is_reserved": 0, "fusion_lon": 0.0, "bike_id": "754738a507470941427152beb259acee", "name": "754738a507470941427152beb259acee", "rental_uris": {"ios": "https://dc.lft.to/lastmile_qr_scan", "android": "https://dc.lft.to/lastmile_qr_scan"}}, {"is_disabled": 0, "fusion_lat": 0.0, "lat": 38.860649333333335, "type": "electric_bike", "lon": -77.05644033333333, "is_reserved": 0, "fusion_lon": 0.0, "bike_id": "4f588de115ffb9ea14adccd2a6c222d1", "name": "4f588de115ffb9ea14adccd2a6c222d1", "rental_uris": {"ios": "https://dc.lft.to/lastmile_qr_scan", "android": "https://dc.lft.to/lastmile_qr_scan"}}, {"is_disabled": 0, "fusion_lat": 0.0, "lat": 38.90261066666667, "type": "electric_scooter", "lon": -77.0334735, "is_reserved": 0, "fusion_lon": 0.0, "bike_id": "a90d504844eaa4d79d7dd6c211dff1f8", "name": "a90d504844eaa4d79d7dd6c211dff1f8", "rental_uris": {"ios": "https://dc.lft.to/lastmile_qr_scan", "android": "https://dc.lft.to/lastmile_qr_scan"}}, {"is_disabled": 0, "fusion_lat": 0.0, "lat": 38.90420683333333, "type": "electric_scooter", "lon": -77.02075383333333, "is_reserved": 0, "fusion_lon": 0.0, "bike_id": "a8ce6cf27b5044a7e5fa87287211a3eb", "name": "a8ce6cf27b5044a7e5fa87287211a3eb", "rental_uris": {"ios": "https://dc.lft.to/lastmile_qr_scan", "android": "https://dc.lft.to/lastmile_qr_scan"}}, {"is_disabled": 0, "fusion_lat": 0.0, "lat": 38.915526666666665, "type": "electric_scooter", "lon": -77.03373816666667, "is_reserved": 0, "fusion_lon": 0.0, "bike_id": "c69602da59d162b0ecd769e0f525588c", "name": "c69602da59d162b0ecd769e0f525588c", "rental_uris": {"ios": "https://dc.lft.to/lastmile_qr_scan", "android": "https://dc.lft.to/lastmile_qr_scan"}}, {"is_disabled": 0, "fusion_lat": 0.0, "lat": 38.905558666666664, "type": "electric_scooter", "lon": -77.04669466666667, "is_reserved": 0, "fusion_lon": 0.0, "bike_id": "99fb3836e9e805da940755a9582f57c7", "name": "99fb3836e9e805da940755a9582f57c7", "rental_uris": {"ios": "https://dc.lft.to/lastmile_qr_scan", "android": "https://dc.lft.to/lastmile_qr_scan"}}, {"is_disabled": 0, "fusion_lat": 0.0, "lat": 38.920768, "type": "electric_scooter", "lon": -77.032127, "is_reserved": 0, "fusion_lon": 0.0, "bike_id": "51be71224c359a31d7af7914600da0b5", "name": "51be71224c359a31d7af7914600da0b5", "rental_uris": {"ios": "https://dc.lft.to/lastmile_qr_scan", "android": "https://dc.lft.to/lastmile_qr_scan"}}, {"is_disabled": 0, "fusion_lat": 0.0, "lat": 38.874795166666665, "type": "electric_bike", "lon": -76.96519983333333, "is_reserved": 0, "fusion_lon": 0.0, "bike_id": "ee3d5e177708c80bfa5046e3197df104", "name": "ee3d5e177708c80bfa5046e3197df104", "rental_uris": {"ios": "https://dc.lft.to/lastmile_qr_scan", "android": "https://dc.lft.to/lastmile_qr_scan"}}, {"is_disabled": 0, "fusion_lat": 0.0, "lat": 38.90793983333333, "type": "electric_scooter", "lon": -77.03481733333334, "is_reserved": 0, "fusion_lon": 0.0, "bike_id": "b5904f4782c66c04f0a35991ebcb52ab", "name": "b5904f4782c66c04f0a35991ebcb52ab", "rental_uris": {"ios": "https://dc.lft.to/lastmile_qr_scan", "android": "https://dc.lft.to/lastmile_qr_scan"}}, {"is_disabled": 0, "fusion_lat": 0.0, "lat": 38.9100565, "type": "electric_scooter", "lon": -77.02090516666667, "is_reserved": 0, "fusion_lon": 0.0, "bike_id": "c717acc4e15c51427b73002b7ab0b2c5", "name": "c717acc4e15c51427b73002b7ab0b2c5", "rental_uris": {"ios": "https://dc.lft.to/lastmile_qr_scan", "android": "https://dc.lft.to/lastmile_qr_scan"}}, {"is_disabled": 0, "fusion_lat": 0.0, "lat": 38.92315, "type": "electric_scooter", "lon": -77.04129483333334, "is_reserved": 0, "fusion_lon": 0.0, "bike_id": "5b41d705e291db5b102818e9744d7a16", "name": "5b41d705e291db5b102818e9744d7a16", "rental_uris": {"ios": "https://dc.lft.to/lastmile_qr_scan", "android": "https://dc.lft.to/lastmile_qr_scan"}}, {"is_disabled": 0, "fusion_lat": 0.0, "lat": 38.904705, "type": "electric_scooter", "lon": -76.98914383333333, "is_reserved": 0, "fusion_lon": 0.0, "bike_id": "8b4196d37a40d0c08fd173137e6ef588", "name": "8b4196d37a40d0c08fd173137e6ef588", "rental_uris": {"ios": "https://dc.lft.to/lastmile_qr_scan", "android": "https://dc.lft.to/lastmile_qr_scan"}}, {"is_disabled": 0, "fusion_lat": 0.0, "lat": 38.88598733333333, "type": "electric_scooter", "lon": -77.0199155, "is_reserved": 0, "fusion_lon": 0.0, "bike_id": "b64c6b35b1ab3a541ba6dd4205364bb1", "name": "b64c6b35b1ab3a541ba6dd4205364bb1", "rental_uris": {"ios": "https://dc.lft.to/lastmile_qr_scan", "android": "https://dc.lft.to/lastmile_qr_scan"}}, {"is_disabled": 0, "fusion_lat": 0.0, "lat": 38.926701333333334, "type": "electric_scooter", "lon": -77.01499583333333, "is_reserved": 0, "fusion_lon": 0.0, "bike_id": "cb8acf87ae2fc9746604b13467146bc1", "name": "cb8acf87ae2fc9746604b13467146bc1", "rental_uris": {"ios": "https://dc.lft.to/lastmile_qr_scan", "android": "https://dc.lft.to/lastmile_qr_scan"}}, {"is_disabled": 0, "fusion_lat": 0.0, "lat": 38.966197666666666, "type": "electric_bike", "lon": -77.0342685, "is_reserved": 0, "fusion_lon": 0.0, "bike_id": "7f691f59e2a7b84deb0984a6ff4197bb", "name": "7f691f59e2a7b84deb0984a6ff4197bb", "rental_uris": {"ios": "https://dc.lft.to/lastmile_qr_scan", "android": "https://dc.lft.to/lastmile_qr_scan"}}, {"is_disabled": 0, "fusion_lat": 0.0, "lat": 38.89273033333333, "type": "electric_scooter", "lon": -76.94918983333334, "is_reserved": 0, "fusion_lon": 0.0, "bike_id": "c9c19e8f08d5897cfac01b80d10ee5f5", "name": "c9c19e8f08d5897cfac01b80d10ee5f5", "rental_uris": {"ios": "https://dc.lft.to/lastmile_qr_scan", "android": "https://dc.lft.to/lastmile_qr_scan"}}, {"is_disabled": 0, "fusion_lat": 0.0, "lat": 38.96029266666667, "type": "electric_bike", "lon": -77.03392266666667, "is_reserved": 0, "fusion_lon": 0.0, "bike_id": "a38162f8181fd6fb0e1584cf1a1c8c3e", "name": "a38162f8181fd6fb0e1584cf1a1c8c3e", "rental_uris": {"ios": "https://dc.lft.to/lastmile_qr_scan", "android": "https://dc.lft.to/lastmile_qr_scan"}}, {"is_disabled": 0, "fusion_lat": 0.0, "lat": 38.915411, "type": "electric_scooter", "lon": -77.037917, "is_reserved": 0, "fusion_lon": 0.0, "bike_id": "7de3cc3692c6abb93ce91a4e78ad6d82", "name": "7de3cc3692c6abb93ce91a4e78ad6d82", "rental_uris": {"ios": "https://dc.lft.to/lastmile_qr_scan", "android": "https://dc.lft.to/lastmile_qr_scan"}}, {"is_disabled": 0, "fusion_lat": 0.0, "lat": 38.905736833333336, "type": "electric_scooter", "lon": -77.04851283333333, "is_reserved": 0, "fusion_lon": 0.0, "bike_id": "f781f321df0ae4bfb79a317bb71c7f03", "name": "f781f321df0ae4bfb79a317bb71c7f03", "rental_uris": {"ios": "https://dc.lft.to/lastmile_qr_scan", "android": "https://dc.lft.to/lastmile_qr_scan"}}, {"is_disabled": 0, "fusion_lat": 0.0, "lat": 38.90806966666667, "type": "electric_scooter", "lon": -76.99853366666666, "is_reserved": 0, "fusion_lon": 0.0, "bike_id": "002e4f23c53a18ca9279e3afe18aa68e", "name": "002e4f23c53a18ca9279e3afe18aa68e", "rental_uris": {"ios": "https://dc.lft.to/lastmile_qr_scan", "android": "https://dc.lft.to/lastmile_qr_scan"}}, {"is_disabled": 0, "fusion_lat": 0.0, "lat": 38.90407366666667, "type": "electric_scooter", "lon": -77.04003083333333, "is_reserved": 0, "fusion_lon": 0.0, "bike_id": "32a17ff9319b8b18d76b8d9b13ff3e44", "name": "32a17ff9319b8b18d76b8d9b13ff3e44", "rental_uris": {"ios": "https://dc.lft.to/lastmile_qr_scan", "android": "https://dc.lft.to/lastmile_qr_scan"}}, {"is_disabled": 0, "fusion_lat": 0.0, "lat": 38.920705166666664, "type": "electric_scooter", "lon": -77.04553216666666, "is_reserved": 0, "fusion_lon": 0.0, "bike_id": "5ec60e8bd8b3875dbebbeb7e2cc1b465", "name": "5ec60e8bd8b3875dbebbeb7e2cc1b465", "rental_uris": {"ios": "https://dc.lft.to/lastmile_qr_scan", "android": "https://dc.lft.to/lastmile_qr_scan"}}, {"is_disabled": 0, "fusion_lat": 0.0, "lat": 38.9242085, "type": "electric_scooter", "lon": -77.03541316666667, "is_reserved": 0, "fusion_lon": 0.0, "bike_id": "821f4d72caf5fb98579e62ca5a26fbf6", "name": "821f4d72caf5fb98579e62ca5a26fbf6", "rental_uris": {"ios": "https://dc.lft.to/lastmile_qr_scan", "android": "https://dc.lft.to/lastmile_qr_scan"}}, {"is_disabled": 0, "fusion_lat": 0.0, "lat": 38.916947666666665, "type": "electric_scooter", "lon": -77.03490883333333, "is_reserved": 0, "fusion_lon": 0.0, "bike_id": "901bbcc344a7d80cd6ccd2da1875507d", "name": "901bbcc344a7d80cd6ccd2da1875507d", "rental_uris": {"ios": "https://dc.lft.to/lastmile_qr_scan", "android": "https://dc.lft.to/lastmile_qr_scan"}}, {"is_disabled": 0, "fusion_lat": 0.0, "lat": 38.923613, "type": "electric_scooter", "lon": -77.05081133333333, "is_reserved": 0, "fusion_lon": 0.0, "bike_id": "8e5e7af882a789f8c26b211f8408e4a0", "name": "8e5e7af882a789f8c26b211f8408e4a0", "rental_uris": {"ios": "https://dc.lft.to/lastmile_qr_scan", "android": "https://dc.lft.to/lastmile_qr_scan"}}, {"is_disabled": 0, "fusion_lat": 0.0, "lat": 38.90488466666667, "type": "electric_scooter", "lon": -76.979256, "is_reserved": 0, "fusion_lon": 0.0, "bike_id": "babb96f6a7dfa204f293c22efee853a0", "name": "babb96f6a7dfa204f293c22efee853a0", "rental_uris": {"ios": "https://dc.lft.to/lastmile_qr_scan", "android": "https://dc.lft.to/lastmile_qr_scan"}}, {"is_disabled": 0, "fusion_lat": 0.0, "lat": 38.9349815, "type": "electric_scooter", "lon": -77.05802383333334, "is_reserved": 0, "fusion_lon": 0.0, "bike_id": "e5237f34d09ed9c7a855254f641a5fb4", "name": "e5237f34d09ed9c7a855254f641a5fb4", "rental_uris": {"ios": "https://dc.lft.to/lastmile_qr_scan", "android": "https://dc.lft.to/lastmile_qr_scan"}}, {"is_disabled": 0, "fusion_lat": 0.0, "lat": 38.88040016666667, "type": "electric_scooter", "lon": -77.01924616666666, "is_reserved": 0, "fusion_lon": 0.0, "bike_id": "6b556d1d17bfed099fc548c5eb0de3d8", "name": "6b556d1d17bfed099fc548c5eb0de3d8", "rental_uris": {"ios": "https://dc.lft.to/lastmile_qr_scan", "android": "https://dc.lft.to/lastmile_qr_scan"}}, {"is_disabled": 0, "fusion_lat": 0.0, "lat": 38.902791666666666, "type": "electric_scooter", "lon": -77.01785383333333, "is_reserved": 0, "fusion_lon": 0.0, "bike_id": "20e80ac48c199bab5d41e8b4c6f673ea", "name": "20e80ac48c199bab5d41e8b4c6f673ea", "rental_uris": {"ios": "https://dc.lft.to/lastmile_qr_scan", "android": "https://dc.lft.to/lastmile_qr_scan"}}, {"is_disabled": 0, "fusion_lat": 0.0, "lat": 38.9175745, "type": "electric_scooter", "lon": -77.03208366666667, "is_reserved": 0, "fusion_lon": 0.0, "bike_id": "fe8f9105c1699435f63427c9466b5e93", "name": "fe8f9105c1699435f63427c9466b5e93", "rental_uris": {"ios": "https://dc.lft.to/lastmile_qr_scan", "android": "https://dc.lft.to/lastmile_qr_scan"}}, {"is_disabled": 0, "fusion_lat": 0.0, "lat": 38.92771966666667, "type": "electric_scooter", "lon": -77.02715133333334, "is_reserved": 0, "fusion_lon": 0.0, "bike_id": "8a43cd1b09fd39480ff9a2f2b25ee9cb", "name": "8a43cd1b09fd39480ff9a2f2b25ee9cb", "rental_uris": {"ios": "https://dc.lft.to/lastmile_qr_scan", "android": "https://dc.lft.to/lastmile_qr_scan"}}, {"is_disabled": 0, "fusion_lat": 0.0, "lat": 38.83684916666667, "type": "electric_scooter", "lon": -77.005916, "is_reserved": 0, "fusion_lon": 0.0, "bike_id": "a557f6211981c6cb224e804e48ae6a40", "name": "a557f6211981c6cb224e804e48ae6a40", "rental_uris": {"ios": "https://dc.lft.to/lastmile_qr_scan", "android": "https://dc.lft.to/lastmile_qr_scan"}}, {"is_disabled": 0, "fusion_lat": 0.0, "lat": 38.90030083333333, "type": "electric_scooter", "lon": -76.99758033333333, "is_reserved": 0, "fusion_lon": 0.0, "bike_id": "6042dfb7ff7b1dc51f4bde6f73425c67", "name": "6042dfb7ff7b1dc51f4bde6f73425c67", "rental_uris": {"ios": "https://dc.lft.to/lastmile_qr_scan", "android": "https://dc.lft.to/lastmile_qr_scan"}}, {"is_disabled": 0, "fusion_lat": 0.0, "lat": 38.916542, "type": "electric_scooter", "lon": -77.02367833333334, "is_reserved": 0, "fusion_lon": 0.0, "bike_id": "71cc82c3cb34f2855ca4303259a4baea", "name": "71cc82c3cb34f2855ca4303259a4baea", "rental_uris": {"ios": "https://dc.lft.to/lastmile_qr_scan", "android": "https://dc.lft.to/lastmile_qr_scan"}}, {"is_disabled": 0, "fusion_lat": 0.0, "lat": 38.936251666666664, "type": "electric_scooter", "lon": -77.08157433333334, "is_reserved": 0, "fusion_lon": 0.0, "bike_id": "2fa401bc94f9d118ff0c99e98d8808d8", "name": "2fa401bc94f9d118ff0c99e98d8808d8", "rental_uris": {"ios": "https://dc.lft.to/lastmile_qr_scan", "android": "https://dc.lft.to/lastmile_qr_scan"}}, {"is_disabled": 0, "fusion_lat": 0.0, "lat": 38.9367405, "type": "electric_bike", "lon": -76.95223616666667, "is_reserved": 0, "fusion_lon": 0.0, "bike_id": "3af6cf42df551581614c12c64300e310", "name": "3af6cf42df551581614c12c64300e310", "rental_uris": {"ios": "https://dc.lft.to/lastmile_qr_scan", "android": "https://dc.lft.to/lastmile_qr_scan"}}, {"is_disabled": 0, "fusion_lat": 0.0, "lat": 38.93853383333333, "type": "electric_scooter", "lon": -77.03392733333334, "is_reserved": 0, "fusion_lon": 0.0, "bike_id": "5dacf04ed7c5590123887c3cd8511ccd", "name": "5dacf04ed7c5590123887c3cd8511ccd", "rental_uris": {"ios": "https://dc.lft.to/lastmile_qr_scan", "android": "https://dc.lft.to/lastmile_qr_scan"}}, {"is_disabled": 0, "fusion_lat": 0.0, "lat": 38.87012466666667, "type": "electric_bike", "lon": -76.96012516666667, "is_reserved": 0, "fusion_lon": 0.0, "bike_id": "5085733689f2d03552f92e9c0adeebe3", "name": "5085733689f2d03552f92e9c0adeebe3", "rental_uris": {"ios": "https://dc.lft.to/lastmile_qr_scan", "android": "https://dc.lft.to/lastmile_qr_scan"}}, {"is_disabled": 0, "fusion_lat": 0.0, "lat": 38.892495833333335, "type": "electric_bike", "lon": -76.98546416666667, "is_reserved": 0, "fusion_lon": 0.0, "bike_id": "89706ef4c945a9ea172046402696ebf7", "name": "89706ef4c945a9ea172046402696ebf7", "rental_uris": {"ios": "https://dc.lft.to/lastmile_qr_scan", "android": "https://dc.lft.to/lastmile_qr_scan"}}, {"is_disabled": 0, "fusion_lat": 0.0, "lat": 38.917776, "type": "electric_scooter", "lon": -76.97328483333334, "is_reserved": 0, "fusion_lon": 0.0, "bike_id": "d92f1c14e8e6f96b9a944eadb499dbc1", "name": "d92f1c14e8e6f96b9a944eadb499dbc1", "rental_uris": {"ios": "https://dc.lft.to/lastmile_qr_scan", "android": "https://dc.lft.to/lastmile_qr_scan"}}, {"is_disabled": 0, "fusion_lat": 0.0, "lat": 38.917074166666666, "type": "electric_scooter", "lon": -77.0289315, "is_reserved": 0, "fusion_lon": 0.0, "bike_id": "79e1977ee4fa68532c31675d2f4d1b63", "name": "79e1977ee4fa68532c31675d2f4d1b63", "rental_uris": {"ios": "https://dc.lft.to/lastmile_qr_scan", "android": "https://dc.lft.to/lastmile_qr_scan"}}, {"is_disabled": 0, "fusion_lat": 0.0, "lat": 38.9050605, "type": "electric_scooter", "lon": -77.06275266666667, "is_reserved": 0, "fusion_lon": 0.0, "bike_id": "6af4f4b557601a35a335b01301b584b5", "name": "6af4f4b557601a35a335b01301b584b5", "rental_uris": {"ios": "https://dc.lft.to/lastmile_qr_scan", "android": "https://dc.lft.to/lastmile_qr_scan"}}, {"is_disabled": 0, "fusion_lat": 0.0, "lat": 38.9154925, "type": "electric_scooter", "lon": -77.03514083333333, "is_reserved": 0, "fusion_lon": 0.0, "bike_id": "9326a23eaa7574d1111582bb64b56ed6", "name": "9326a23eaa7574d1111582bb64b56ed6", "rental_uris": {"ios": "https://dc.lft.to/lastmile_qr_scan", "android": "https://dc.lft.to/lastmile_qr_scan"}}, {"is_disabled": 0, "fusion_lat": 0.0, "lat": 38.9071825, "type": "electric_scooter", "lon": -77.0331695, "is_reserved": 0, "fusion_lon": 0.0, "bike_id": "1817190de7afdd1b57eb84a47f9d59c0", "name": "1817190de7afdd1b57eb84a47f9d59c0", "rental_uris": {"ios": "https://dc.lft.to/lastmile_qr_scan", "android": "https://dc.lft.to/lastmile_qr_scan"}}, {"is_disabled": 0, "fusion_lat": 0.0, "lat": 38.89776066666667, "type": "electric_scooter", "lon": -76.9772515, "is_reserved": 0, "fusion_lon": 0.0, "bike_id": "ce01facbc8931b9f44e3af28efbb77d8", "name": "ce01facbc8931b9f44e3af28efbb77d8", "rental_uris": {"ios": "https://dc.lft.to/lastmile_qr_scan", "android": "https://dc.lft.to/lastmile_qr_scan"}}, {"is_disabled": 0, "fusion_lat": 0.0, "lat": 38.92183683333333, "type": "electric_scooter", "lon": -77.042297, "is_reserved": 0, "fusion_lon": 0.0, "bike_id": "dd997ee35f8bbf6bd923460792b18742", "name": "dd997ee35f8bbf6bd923460792b18742", "rental_uris": {"ios": "https://dc.lft.to/lastmile_qr_scan", "android": "https://dc.lft.to/lastmile_qr_scan"}}, {"is_disabled": 0, "fusion_lat": 0.0, "lat": 38.923287, "type": "electric_scooter", "lon": -77.03903383333333, "is_reserved": 0, "fusion_lon": 0.0, "bike_id": "032eac9678a97c080dcb4bb6c26c406e", "name": "032eac9678a97c080dcb4bb6c26c406e", "rental_uris": {"ios": "https://dc.lft.to/lastmile_qr_scan", "android": "https://dc.lft.to/lastmile_qr_scan"}}, {"is_disabled": 0, "fusion_lat": 0.0, "lat": 38.9231215, "type": "electric_scooter", "lon": -77.02114966666667, "is_reserved": 0, "fusion_lon": 0.0, "bike_id": "6f00b146a78a059099706a7aa75fd3af", "name": "6f00b146a78a059099706a7aa75fd3af", "rental_uris": {"ios": "https://dc.lft.to/lastmile_qr_scan", "android": "https://dc.lft.to/lastmile_qr_scan"}}, {"is_disabled": 0, "fusion_lat": 0.0, "lat": 38.903309166666666, "type": "electric_scooter", "lon": -76.98015616666666, "is_reserved": 0, "fusion_lon": 0.0, "bike_id": "ae4bf154725301de05d4334d9c484ffd", "name": "ae4bf154725301de05d4334d9c484ffd", "rental_uris": {"ios": "https://dc.lft.to/lastmile_qr_scan", "android": "https://dc.lft.to/lastmile_qr_scan"}}, {"is_disabled": 0, "fusion_lat": 0.0, "lat": 38.8870805, "type": "electric_scooter", "lon": -77.00149, "is_reserved": 0, "fusion_lon": 0.0, "bike_id": "769b4791e0dfe76240337aa8507e5a0e", "name": "769b4791e0dfe76240337aa8507e5a0e", "rental_uris": {"ios": "https://dc.lft.to/lastmile_qr_scan", "android": "https://dc.lft.to/lastmile_qr_scan"}}, {"is_disabled": 0, "fusion_lat": 0.0, "lat": 38.89468266666667, "type": "electric_scooter", "lon": -76.99385, "is_reserved": 0, "fusion_lon": 0.0, "bike_id": "bfa339c0740a70d330be3cd3023a97fb", "name": "bfa339c0740a70d330be3cd3023a97fb", "rental_uris": {"ios": "https://dc.lft.to/lastmile_qr_scan", "android": "https://dc.lft.to/lastmile_qr_scan"}}, {"is_disabled": 0, "fusion_lat": 0.0, "lat": 39.03052133333333, "type": "electric_bike", "lon": -77.09481733333334, "is_reserved": 0, "fusion_lon": 0.0, "bike_id": "46c2eb09ddfed914d3026e44ccc5cab3", "name": "46c2eb09ddfed914d3026e44ccc5cab3", "rental_uris": {"ios": "https://dc.lft.to/lastmile_qr_scan", "android": "https://dc.lft.to/lastmile_qr_scan"}}, {"is_disabled": 0, "fusion_lat": 0.0, "lat": 38.921750833333334, "type": "electric_scooter", "lon": -77.04226433333334, "is_reserved": 0, "fusion_lon": 0.0, "bike_id": "444771291251d5143b62e75f50d8ca35", "name": "444771291251d5143b62e75f50d8ca35", "rental_uris": {"ios": "https://dc.lft.to/lastmile_qr_scan", "android": "https://dc.lft.to/lastmile_qr_scan"}}, {"is_disabled": 0, "fusion_lat": 0.0, "lat": 38.924819666666664, "type": "electric_scooter", "lon": -77.028411, "is_reserved": 0, "fusion_lon": 0.0, "bike_id": "e4f8716a611e8760940294d15d5d6016", "name": "e4f8716a611e8760940294d15d5d6016", "rental_uris": {"ios": "https://dc.lft.to/lastmile_qr_scan", "android": "https://dc.lft.to/lastmile_qr_scan"}}, {"is_disabled": 0, "fusion_lat": 0.0, "lat": 38.92014666666667, "type": "electric_scooter", "lon": -77.07119566666667, "is_reserved": 0, "fusion_lon": 0.0, "bike_id": "9fec6e77d612978d3dc925fd5c852bce", "name": "9fec6e77d612978d3dc925fd5c852bce", "rental_uris": {"ios": "https://dc.lft.to/lastmile_qr_scan", "android": "https://dc.lft.to/lastmile_qr_scan"}}, {"is_disabled": 0, "fusion_lat": 0.0, "lat": 38.92563616666666, "type": "electric_scooter", "lon": -77.03920066666667, "is_reserved": 0, "fusion_lon": 0.0, "bike_id": "aed612ea90c6f622a8f3c9e71fe15254", "name": "aed612ea90c6f622a8f3c9e71fe15254", "rental_uris": {"ios": "https://dc.lft.to/lastmile_qr_scan", "android": "https://dc.lft.to/lastmile_qr_scan"}}, {"is_disabled": 0, "fusion_lat": 0.0, "lat": 38.92788866666667, "type": "electric_scooter", "lon": -77.027127, "is_reserved": 0, "fusion_lon": 0.0, "bike_id": "f5a39891d512adfe7ff4613128410d93", "name": "f5a39891d512adfe7ff4613128410d93", "rental_uris": {"ios": "https://dc.lft.to/lastmile_qr_scan", "android": "https://dc.lft.to/lastmile_qr_scan"}}, {"is_disabled": 0, "fusion_lat": 0.0, "lat": 38.88593316666667, "type": "electric_scooter", "lon": -77.01509433333334, "is_reserved": 0, "fusion_lon": 0.0, "bike_id": "4edb6e3a645e5ac3c42c71c85829c48b", "name": "4edb6e3a645e5ac3c42c71c85829c48b", "rental_uris": {"ios": "https://dc.lft.to/lastmile_qr_scan", "android": "https://dc.lft.to/lastmile_qr_scan"}}, {"is_disabled": 0, "fusion_lat": 0.0, "lat": 38.89785883333333, "type": "electric_scooter", "lon": -77.0316965, "is_reserved": 0, "fusion_lon": 0.0, "bike_id": "c530e791275f9cc3916bbbecb26f7d5a", "name": "c530e791275f9cc3916bbbecb26f7d5a", "rental_uris": {"ios": "https://dc.lft.to/lastmile_qr_scan", "android": "https://dc.lft.to/lastmile_qr_scan"}}, {"is_disabled": 0, "fusion_lat": 0.0, "lat": 38.917195, "type": "electric_scooter", "lon": -77.03100166666667, "is_reserved": 0, "fusion_lon": 0.0, "bike_id": "f9c674f080b1b11d57c215b1c9e4d872", "name": "f9c674f080b1b11d57c215b1c9e4d872", "rental_uris": {"ios": "https://dc.lft.to/lastmile_qr_scan", "android": "https://dc.lft.to/lastmile_qr_scan"}}, {"is_disabled": 0, "fusion_lat": 0.0, "lat": 38.9001, "type": "electric_scooter", "lon": -77.03358366666667, "is_reserved": 0, "fusion_lon": 0.0, "bike_id": "d14330f9b34e31dd7b5277dd73ad4158", "name": "d14330f9b34e31dd7b5277dd73ad4158", "rental_uris": {"ios": "https://dc.lft.to/lastmile_qr_scan", "android": "https://dc.lft.to/lastmile_qr_scan"}}, {"is_disabled": 0, "fusion_lat": 0.0, "lat": 38.92844183333333, "type": "electric_scooter", "lon": -77.05509866666667, "is_reserved": 0, "fusion_lon": 0.0, "bike_id": "548985547928ae5aa511c98d5eab5b7d", "name": "548985547928ae5aa511c98d5eab5b7d", "rental_uris": {"ios": "https://dc.lft.to/lastmile_qr_scan", "android": "https://dc.lft.to/lastmile_qr_scan"}}, {"is_disabled": 0, "fusion_lat": 0.0, "lat": 38.884293, "type": "electric_scooter", "lon": -77.02558783333333, "is_reserved": 0, "fusion_lon": 0.0, "bike_id": "755f073c33a0c1ac4335a8f93277e25d", "name": "755f073c33a0c1ac4335a8f93277e25d", "rental_uris": {"ios": "https://dc.lft.to/lastmile_qr_scan", "android": "https://dc.lft.to/lastmile_qr_scan"}}, {"is_disabled": 0, "fusion_lat": 0.0, "lat": 38.900971166666665, "type": "electric_scooter", "lon": -77.04315816666667, "is_reserved": 0, "fusion_lon": 0.0, "bike_id": "badd77fc83c174bff7a29bf7ed8eaf0e", "name": "badd77fc83c174bff7a29bf7ed8eaf0e", "rental_uris": {"ios": "https://dc.lft.to/lastmile_qr_scan", "android": "https://dc.lft.to/lastmile_qr_scan"}}, {"is_disabled": 0, "fusion_lat": 0.0, "lat": 38.916552833333334, "type": "electric_scooter", "lon": -77.03191483333333, "is_reserved": 0, "fusion_lon": 0.0, "bike_id": "83779fe641d2f7b89eb1cae2a8384201", "name": "83779fe641d2f7b89eb1cae2a8384201", "rental_uris": {"ios": "https://dc.lft.to/lastmile_qr_scan", "android": "https://dc.lft.to/lastmile_qr_scan"}}, {"is_disabled": 0, "fusion_lat": 0.0, "lat": 38.896219, "type": "electric_scooter", "lon": -76.99570533333333, "is_reserved": 0, "fusion_lon": 0.0, "bike_id": "db6b33d0985bdac52dab0a409d87bbd5", "name": "db6b33d0985bdac52dab0a409d87bbd5", "rental_uris": {"ios": "https://dc.lft.to/lastmile_qr_scan", "android": "https://dc.lft.to/lastmile_qr_scan"}}, {"is_disabled": 0, "fusion_lat": 0.0, "lat": 38.919842833333334, "type": "electric_scooter", "lon": -77.04162716666667, "is_reserved": 0, "fusion_lon": 0.0, "bike_id": "dbf20b88f6ff4a01fdfa0d3f4637da8f", "name": "dbf20b88f6ff4a01fdfa0d3f4637da8f", "rental_uris": {"ios": "https://dc.lft.to/lastmile_qr_scan", "android": "https://dc.lft.to/lastmile_qr_scan"}}, {"is_disabled": 0, "fusion_lat": 0.0, "lat": 38.89750316666667, "type": "electric_scooter", "lon": -77.0268415, "is_reserved": 0, "fusion_lon": 0.0, "bike_id": "27e284c48ca40e9462482cc0ad441e29", "name": "27e284c48ca40e9462482cc0ad441e29", "rental_uris": {"ios": "https://dc.lft.to/lastmile_qr_scan", "android": "https://dc.lft.to/lastmile_qr_scan"}}, {"is_disabled": 0, "fusion_lat": 0.0, "lat": 38.8952155, "type": "electric_scooter", "lon": -76.98086433333333, "is_reserved": 0, "fusion_lon": 0.0, "bike_id": "fab7473cb54973138609d30a19b21ab5", "name": "fab7473cb54973138609d30a19b21ab5", "rental_uris": {"ios": "https://dc.lft.to/lastmile_qr_scan", "android": "https://dc.lft.to/lastmile_qr_scan"}}, {"is_disabled": 0, "fusion_lat": 0.0, "lat": 38.90369883333334, "type": "electric_scooter", "lon": -77.041924, "is_reserved": 0, "fusion_lon": 0.0, "bike_id": "a01a57066e179b28602627c08f10f63e", "name": "a01a57066e179b28602627c08f10f63e", "rental_uris": {"ios": "https://dc.lft.to/lastmile_qr_scan", "android": "https://dc.lft.to/lastmile_qr_scan"}}, {"is_disabled": 0, "fusion_lat": 0.0, "lat": 38.9211295, "type": "electric_scooter", "lon": -77.042172, "is_reserved": 0, "fusion_lon": 0.0, "bike_id": "9a08690fa93e32f59b0170e03a6a5890", "name": "9a08690fa93e32f59b0170e03a6a5890", "rental_uris": {"ios": "https://dc.lft.to/lastmile_qr_scan", "android": "https://dc.lft.to/lastmile_qr_scan"}}, {"is_disabled": 0, "fusion_lat": 0.0, "lat": 38.86163716666667, "type": "electric_bike", "lon": -77.13093216666667, "is_reserved": 0, "fusion_lon": 0.0, "bike_id": "9c8b1e2e02fb43aaab0aca1b1941679f", "name": "9c8b1e2e02fb43aaab0aca1b1941679f", "rental_uris": {"ios": "https://dc.lft.to/lastmile_qr_scan", "android": "https://dc.lft.to/lastmile_qr_scan"}}, {"is_disabled": 0, "fusion_lat": 0.0, "lat": 38.914061333333336, "type": "electric_scooter", "lon": -77.020461, "is_reserved": 0, "fusion_lon": 0.0, "bike_id": "7d8c46c7bac4e11c562fd8fc14a93bba", "name": "7d8c46c7bac4e11c562fd8fc14a93bba", "rental_uris": {"ios": "https://dc.lft.to/lastmile_qr_scan", "android": "https://dc.lft.to/lastmile_qr_scan"}}, {"is_disabled": 0, "fusion_lat": 0.0, "lat": 38.967038333333335, "type": "electric_bike", "lon": -77.10219566666666, "is_reserved": 0, "fusion_lon": 0.0, "bike_id": "e6e8df6b5712e0b5adb99b026a9aee37", "name": "e6e8df6b5712e0b5adb99b026a9aee37", "rental_uris": {"ios": "https://dc.lft.to/lastmile_qr_scan", "android": "https://dc.lft.to/lastmile_qr_scan"}}, {"is_disabled": 0, "fusion_lat": 0.0, "lat": 38.9011805, "type": "electric_scooter", "lon": -77.043426, "is_reserved": 0, "fusion_lon": 0.0, "bike_id": "189bdf8b040953cac7bae955a7d5f501", "name": "189bdf8b040953cac7bae955a7d5f501", "rental_uris": {"ios": "https://dc.lft.to/lastmile_qr_scan", "android": "https://dc.lft.to/lastmile_qr_scan"}}, {"is_disabled": 0, "fusion_lat": 0.0, "lat": 38.909701166666665, "type": "electric_scooter", "lon": -77.03388233333334, "is_reserved": 0, "fusion_lon": 0.0, "bike_id": "f8eefda7799f071abf838cb4923645fa", "name": "f8eefda7799f071abf838cb4923645fa", "rental_uris": {"ios": "https://dc.lft.to/lastmile_qr_scan", "android": "https://dc.lft.to/lastmile_qr_scan"}}, {"is_disabled": 0, "fusion_lat": 0.0, "lat": 38.923660166666664, "type": "electric_scooter", "lon": -77.05042616666667, "is_reserved": 0, "fusion_lon": 0.0, "bike_id": "c90d2f9eeee3ae89bf7e713a02b02021", "name": "c90d2f9eeee3ae89bf7e713a02b02021", "rental_uris": {"ios": "https://dc.lft.to/lastmile_qr_scan", "android": "https://dc.lft.to/lastmile_qr_scan"}}, {"is_disabled": 0, "fusion_lat": 0.0, "lat": 38.920678333333335, "type": "electric_scooter", "lon": -77.03169566666666, "is_reserved": 0, "fusion_lon": 0.0, "bike_id": "c107eddfbcc28f9268fdd041dc4bb586", "name": "c107eddfbcc28f9268fdd041dc4bb586", "rental_uris": {"ios": "https://dc.lft.to/lastmile_qr_scan", "android": "https://dc.lft.to/lastmile_qr_scan"}}, {"is_disabled": 0, "fusion_lat": 0.0, "lat": 38.90423766666667, "type": "electric_scooter", "lon": -77.01874733333334, "is_reserved": 0, "fusion_lon": 0.0, "bike_id": "5d068483266bb2eb63bd197a86ec2b13", "name": "5d068483266bb2eb63bd197a86ec2b13", "rental_uris": {"ios": "https://dc.lft.to/lastmile_qr_scan", "android": "https://dc.lft.to/lastmile_qr_scan"}}, {"is_disabled": 0, "fusion_lat": 0.0, "lat": 38.910494166666666, "type": "electric_scooter", "lon": -77.0150825, "is_reserved": 0, "fusion_lon": 0.0, "bike_id": "a74131b40077f06c0eb0de2a7e1571e5", "name": "a74131b40077f06c0eb0de2a7e1571e5", "rental_uris": {"ios": "https://dc.lft.to/lastmile_qr_scan", "android": "https://dc.lft.to/lastmile_qr_scan"}}, {"is_disabled": 0, "fusion_lat": 0.0, "lat": 38.928341, "type": "electric_scooter", "lon": -77.03269583333334, "is_reserved": 0, "fusion_lon": 0.0, "bike_id": "6ffd7e480be4a4cd83fc9922200e2db0", "name": "6ffd7e480be4a4cd83fc9922200e2db0", "rental_uris": {"ios": "https://dc.lft.to/lastmile_qr_scan", "android": "https://dc.lft.to/lastmile_qr_scan"}}, {"is_disabled": 0, "fusion_lat": 0.0, "lat": 38.93353166666667, "type": "electric_scooter", "lon": -77.05857616666667, "is_reserved": 0, "fusion_lon": 0.0, "bike_id": "a702dced27bd88e1df7573d8b9cc233a", "name": "a702dced27bd88e1df7573d8b9cc233a", "rental_uris": {"ios": "https://dc.lft.to/lastmile_qr_scan", "android": "https://dc.lft.to/lastmile_qr_scan"}}, {"is_disabled": 0, "fusion_lat": 0.0, "lat": 38.934203333333336, "type": "electric_scooter", "lon": -77.04414883333334, "is_reserved": 0, "fusion_lon": 0.0, "bike_id": "27b6c0946928dd4f588590e33335a7b5", "name": "27b6c0946928dd4f588590e33335a7b5", "rental_uris": {"ios": "https://dc.lft.to/lastmile_qr_scan", "android": "https://dc.lft.to/lastmile_qr_scan"}}, {"is_disabled": 0, "fusion_lat": 0.0, "lat": 38.9315, "type": "electric_scooter", "lon": -77.03092083333334, "is_reserved": 0, "fusion_lon": 0.0, "bike_id": "78940166aa7927d16e110ad64453da67", "name": "78940166aa7927d16e110ad64453da67", "rental_uris": {"ios": "https://dc.lft.to/lastmile_qr_scan", "android": "https://dc.lft.to/lastmile_qr_scan"}}, {"is_disabled": 0, "fusion_lat": 0.0, "lat": 38.898762, "type": "electric_scooter", "lon": -76.9316525, "is_reserved": 0, "fusion_lon": 0.0, "bike_id": "fdbef472f4a092547841aa482a4ade9d", "name": "fdbef472f4a092547841aa482a4ade9d", "rental_uris": {"ios": "https://dc.lft.to/lastmile_qr_scan", "android": "https://dc.lft.to/lastmile_qr_scan"}}, {"is_disabled": 0, "fusion_lat": 0.0, "lat": 38.91882533333333, "type": "electric_scooter", "lon": -77.03507516666667, "is_reserved": 0, "fusion_lon": 0.0, "bike_id": "837bf47a624a575f216d3939ec9768c1", "name": "837bf47a624a575f216d3939ec9768c1", "rental_uris": {"ios": "https://dc.lft.to/lastmile_qr_scan", "android": "https://dc.lft.to/lastmile_qr_scan"}}, {"is_disabled": 0, "fusion_lat": 0.0, "lat": 38.916999833333335, "type": "electric_scooter", "lon": -77.0341165, "is_reserved": 0, "fusion_lon": 0.0, "bike_id": "1a0db6aab05ea664db8a717b8143b729", "name": "1a0db6aab05ea664db8a717b8143b729", "rental_uris": {"ios": "https://dc.lft.to/lastmile_qr_scan", "android": "https://dc.lft.to/lastmile_qr_scan"}}, {"is_disabled": 0, "fusion_lat": 0.0, "lat": 38.90608733333333, "type": "electric_scooter", "lon": -77.065194, "is_reserved": 0, "fusion_lon": 0.0, "bike_id": "b49e84b764b15e13e8e41967f8ed9e2e", "name": "b49e84b764b15e13e8e41967f8ed9e2e", "rental_uris": {"ios": "https://dc.lft.to/lastmile_qr_scan", "android": "https://dc.lft.to/lastmile_qr_scan"}}, {"is_disabled": 0, "fusion_lat": 0.0, "lat": 38.9285335, "type": "electric_bike", "lon": -77.10677366666667, "is_reserved": 0, "fusion_lon": 0.0, "bike_id": "d676a641678356d6de98c1a6cd88e8a7", "name": "d676a641678356d6de98c1a6cd88e8a7", "rental_uris": {"ios": "https://dc.lft.to/lastmile_qr_scan", "android": "https://dc.lft.to/lastmile_qr_scan"}}, {"is_disabled": 0, "fusion_lat": 0.0, "lat": 38.92544316666667, "type": "electric_scooter", "lon": -77.0408725, "is_reserved": 0, "fusion_lon": 0.0, "bike_id": "95200272dcfa184f90484ec8ebbdcb4c", "name": "95200272dcfa184f90484ec8ebbdcb4c", "rental_uris": {"ios": "https://dc.lft.to/lastmile_qr_scan", "android": "https://dc.lft.to/lastmile_qr_scan"}}, {"is_disabled": 0, "fusion_lat": 0.0, "lat": 38.924664666666665, "type": "electric_scooter", "lon": -77.03294133333333, "is_reserved": 0, "fusion_lon": 0.0, "bike_id": "e7f0583f9e17e6896a4b12c451b07a9a", "name": "e7f0583f9e17e6896a4b12c451b07a9a", "rental_uris": {"ios": "https://dc.lft.to/lastmile_qr_scan", "android": "https://dc.lft.to/lastmile_qr_scan"}}, {"is_disabled": 0, "fusion_lat": 0.0, "lat": 38.93010866666667, "type": "electric_scooter", "lon": -77.04436833333334, "is_reserved": 0, "fusion_lon": 0.0, "bike_id": "bdc2990bf39e3618d25c16d165acd5e0", "name": "bdc2990bf39e3618d25c16d165acd5e0", "rental_uris": {"ios": "https://dc.lft.to/lastmile_qr_scan", "android": "https://dc.lft.to/lastmile_qr_scan"}}, {"is_disabled": 0, "fusion_lat": 0.0, "lat": 38.88728366666667, "type": "electric_scooter", "lon": -77.032183, "is_reserved": 0, "fusion_lon": 0.0, "bike_id": "b0632aff2369b30c922fb4ac03a311e6", "name": "b0632aff2369b30c922fb4ac03a311e6", "rental_uris": {"ios": "https://dc.lft.to/lastmile_qr_scan", "android": "https://dc.lft.to/lastmile_qr_scan"}}, {"is_disabled": 0, "fusion_lat": 0.0, "lat": 38.807471666666665, "type": "electric_bike", "lon": -77.094256, "is_reserved": 0, "fusion_lon": 0.0, "bike_id": "f6217da00842059b16a244b49b62d5fe", "name": "f6217da00842059b16a244b49b62d5fe", "rental_uris": {"ios": "https://dc.lft.to/lastmile_qr_scan", "android": "https://dc.lft.to/lastmile_qr_scan"}}, {"is_disabled": 0, "fusion_lat": 0.0, "lat": 38.92914416666667, "type": "electric_bike", "lon": -77.02388183333333, "is_reserved": 0, "fusion_lon": 0.0, "bike_id": "8eae56e80d5bb848e4adfd65bec91b3d", "name": "8eae56e80d5bb848e4adfd65bec91b3d", "rental_uris": {"ios": "https://dc.lft.to/lastmile_qr_scan", "android": "https://dc.lft.to/lastmile_qr_scan"}}, {"is_disabled": 0, "fusion_lat": 0.0, "lat": 38.921254833333336, "type": "electric_scooter", "lon": -77.04583416666667, "is_reserved": 0, "fusion_lon": 0.0, "bike_id": "4e96e8d2e32dafcaab18af79e9fd9df0", "name": "4e96e8d2e32dafcaab18af79e9fd9df0", "rental_uris": {"ios": "https://dc.lft.to/lastmile_qr_scan", "android": "https://dc.lft.to/lastmile_qr_scan"}}, {"is_disabled": 0, "fusion_lat": 0.0, "lat": 38.948326333333334, "type": "electric_scooter", "lon": -77.02422566666667, "is_reserved": 0, "fusion_lon": 0.0, "bike_id": "59fc810cd52bfc1caddf9b20ea3417a4", "name": "59fc810cd52bfc1caddf9b20ea3417a4", "rental_uris": {"ios": "https://dc.lft.to/lastmile_qr_scan", "android": "https://dc.lft.to/lastmile_qr_scan"}}, {"is_disabled": 0, "fusion_lat": 0.0, "lat": 38.910566833333334, "type": "electric_scooter", "lon": -77.04582033333334, "is_reserved": 0, "fusion_lon": 0.0, "bike_id": "c0e0a5434cd7d839bd258819e575ef79", "name": "c0e0a5434cd7d839bd258819e575ef79", "rental_uris": {"ios": "https://dc.lft.to/lastmile_qr_scan", "android": "https://dc.lft.to/lastmile_qr_scan"}}, {"is_disabled": 0, "fusion_lat": 0.0, "lat": 38.91965016666666, "type": "electric_scooter", "lon": -77.04148916666666, "is_reserved": 0, "fusion_lon": 0.0, "bike_id": "bd3894a34d904736b849155abbc1a801", "name": "bd3894a34d904736b849155abbc1a801", "rental_uris": {"ios": "https://dc.lft.to/lastmile_qr_scan", "android": "https://dc.lft.to/lastmile_qr_scan"}}, {"is_disabled": 0, "fusion_lat": 0.0, "lat": 38.900114333333335, "type": "electric_scooter", "lon": -76.99988483333334, "is_reserved": 0, "fusion_lon": 0.0, "bike_id": "e3c1b19a0d5f57543f5342c667a25b2a", "name": "e3c1b19a0d5f57543f5342c667a25b2a", "rental_uris": {"ios": "https://dc.lft.to/lastmile_qr_scan", "android": "https://dc.lft.to/lastmile_qr_scan"}}, {"is_disabled": 0, "fusion_lat": 0.0, "lat": 38.91302316666667, "type": "electric_bike", "lon": -77.08284833333333, "is_reserved": 0, "fusion_lon": 0.0, "bike_id": "598efa795912d6fb77da40e0d09fed96", "name": "598efa795912d6fb77da40e0d09fed96", "rental_uris": {"ios": "https://dc.lft.to/lastmile_qr_scan", "android": "https://dc.lft.to/lastmile_qr_scan"}}, {"is_disabled": 0, "fusion_lat": 0.0, "lat": 38.93774, "type": "electric_scooter", "lon": -77.02110133333333, "is_reserved": 0, "fusion_lon": 0.0, "bike_id": "8aaf080e6a6ac574675fb85082b7b811", "name": "8aaf080e6a6ac574675fb85082b7b811", "rental_uris": {"ios": "https://dc.lft.to/lastmile_qr_scan", "android": "https://dc.lft.to/lastmile_qr_scan"}}, {"is_disabled": 0, "fusion_lat": 0.0, "lat": 38.923185333333336, "type": "electric_scooter", "lon": -77.0412075, "is_reserved": 0, "fusion_lon": 0.0, "bike_id": "f91e6bfa3f38b5cdf1e4c3c8f9d13cb8", "name": "f91e6bfa3f38b5cdf1e4c3c8f9d13cb8", "rental_uris": {"ios": "https://dc.lft.to/lastmile_qr_scan", "android": "https://dc.lft.to/lastmile_qr_scan"}}, {"is_disabled": 0, "fusion_lat": 0.0, "lat": 38.900578833333334, "type": "electric_scooter", "lon": -77.00222816666667, "is_reserved": 0, "fusion_lon": 0.0, "bike_id": "8ea661580ae505c343e326b420db6bff", "name": "8ea661580ae505c343e326b420db6bff", "rental_uris": {"ios": "https://dc.lft.to/lastmile_qr_scan", "android": "https://dc.lft.to/lastmile_qr_scan"}}, {"is_disabled": 0, "fusion_lat": 0.0, "lat": 38.879244166666666, "type": "electric_scooter", "lon": -76.9924835, "is_reserved": 0, "fusion_lon": 0.0, "bike_id": "d4a9e30dadff406978c3543811053e5f", "name": "d4a9e30dadff406978c3543811053e5f", "rental_uris": {"ios": "https://dc.lft.to/lastmile_qr_scan", "android": "https://dc.lft.to/lastmile_qr_scan"}}, {"is_disabled": 0, "fusion_lat": 0.0, "lat": 38.9229565, "type": "electric_scooter", "lon": -77.04129833333333, "is_reserved": 0, "fusion_lon": 0.0, "bike_id": "926ef4163d7c1db94a7c383954f1cea6", "name": "926ef4163d7c1db94a7c383954f1cea6", "rental_uris": {"ios": "https://dc.lft.to/lastmile_qr_scan", "android": "https://dc.lft.to/lastmile_qr_scan"}}, {"is_disabled": 0, "fusion_lat": 0.0, "lat": 38.91697466666667, "type": "electric_scooter", "lon": -77.01235766666667, "is_reserved": 0, "fusion_lon": 0.0, "bike_id": "231517d3dda56f76efe3336366fa840a", "name": "231517d3dda56f76efe3336366fa840a", "rental_uris": {"ios": "https://dc.lft.to/lastmile_qr_scan", "android": "https://dc.lft.to/lastmile_qr_scan"}}, {"is_disabled": 0, "fusion_lat": 0.0, "lat": 38.912595333333336, "type": "electric_scooter", "lon": -77.02226033333334, "is_reserved": 0, "fusion_lon": 0.0, "bike_id": "92dc675d6300a55f8bba690c44ce32e0", "name": "92dc675d6300a55f8bba690c44ce32e0", "rental_uris": {"ios": "https://dc.lft.to/lastmile_qr_scan", "android": "https://dc.lft.to/lastmile_qr_scan"}}, {"is_disabled": 0, "fusion_lat": 0.0, "lat": 38.937994, "type": "electric_scooter", "lon": -77.05999766666666, "is_reserved": 0, "fusion_lon": 0.0, "bike_id": "8de6e7303bc39a763d22e9cac9e27d4c", "name": "8de6e7303bc39a763d22e9cac9e27d4c", "rental_uris": {"ios": "https://dc.lft.to/lastmile_qr_scan", "android": "https://dc.lft.to/lastmile_qr_scan"}}, {"is_disabled": 0, "fusion_lat": 0.0, "lat": 38.91335733333333, "type": "electric_scooter", "lon": -77.04813366666667, "is_reserved": 0, "fusion_lon": 0.0, "bike_id": "1f219f652dc7ed3f5ab6557f29b86a27", "name": "1f219f652dc7ed3f5ab6557f29b86a27", "rental_uris": {"ios": "https://dc.lft.to/lastmile_qr_scan", "android": "https://dc.lft.to/lastmile_qr_scan"}}, {"is_disabled": 0, "fusion_lat": 0.0, "lat": 38.9092145, "type": "electric_scooter", "lon": -77.080018, "is_reserved": 0, "fusion_lon": 0.0, "bike_id": "e02f77e25b74c3469d6a4938b2b44121", "name": "e02f77e25b74c3469d6a4938b2b44121", "rental_uris": {"ios": "https://dc.lft.to/lastmile_qr_scan", "android": "https://dc.lft.to/lastmile_qr_scan"}}, {"is_disabled": 0, "fusion_lat": 0.0, "lat": 38.887415, "type": "electric_scooter", "lon": -77.01536016666667, "is_reserved": 0, "fusion_lon": 0.0, "bike_id": "795eea2def86d1f5def481b8237ca9f2", "name": "795eea2def86d1f5def481b8237ca9f2", "rental_uris": {"ios": "https://dc.lft.to/lastmile_qr_scan", "android": "https://dc.lft.to/lastmile_qr_scan"}}, {"is_disabled": 0, "fusion_lat": 0.0, "lat": 38.92028283333333, "type": "electric_scooter", "lon": -77.02792483333333, "is_reserved": 0, "fusion_lon": 0.0, "bike_id": "4b69fc69a2c6d10e2b5aef853e7e26b5", "name": "4b69fc69a2c6d10e2b5aef853e7e26b5", "rental_uris": {"ios": "https://dc.lft.to/lastmile_qr_scan", "android": "https://dc.lft.to/lastmile_qr_scan"}}, {"is_disabled": 0, "fusion_lat": 0.0, "lat": 38.914133, "type": "electric_scooter", "lon": -77.03998433333334, "is_reserved": 0, "fusion_lon": 0.0, "bike_id": "b0272ad652a9aa52a0c02f4b2a0fa884", "name": "b0272ad652a9aa52a0c02f4b2a0fa884", "rental_uris": {"ios": "https://dc.lft.to/lastmile_qr_scan", "android": "https://dc.lft.to/lastmile_qr_scan"}}, {"is_disabled": 0, "fusion_lat": 0.0, "lat": 38.916864333333336, "type": "electric_scooter", "lon": -77.0121915, "is_reserved": 0, "fusion_lon": 0.0, "bike_id": "1994af6242132e0a3c2493aacef5228b", "name": "1994af6242132e0a3c2493aacef5228b", "rental_uris": {"ios": "https://dc.lft.to/lastmile_qr_scan", "android": "https://dc.lft.to/lastmile_qr_scan"}}, {"is_disabled": 0, "fusion_lat": 0.0, "lat": 38.8812095, "type": "electric_scooter", "lon": -77.0166515, "is_reserved": 0, "fusion_lon": 0.0, "bike_id": "7e328a2504479d6955e173eb7f35f387", "name": "7e328a2504479d6955e173eb7f35f387", "rental_uris": {"ios": "https://dc.lft.to/lastmile_qr_scan", "android": "https://dc.lft.to/lastmile_qr_scan"}}, {"is_disabled": 0, "fusion_lat": 0.0, "lat": 38.892205833333335, "type": "electric_bike", "lon": -77.10779166666667, "is_reserved": 0, "fusion_lon": 0.0, "bike_id": "9afe7bce764ceef5321dba2a97b98e1b", "name": "9afe7bce764ceef5321dba2a97b98e1b", "rental_uris": {"ios": "https://dc.lft.to/lastmile_qr_scan", "android": "https://dc.lft.to/lastmile_qr_scan"}}, {"is_disabled": 0, "fusion_lat": 0.0, "lat": 38.90591166666667, "type": "electric_scooter", "lon": -76.98623133333334, "is_reserved": 0, "fusion_lon": 0.0, "bike_id": "91a6fe0113a085bc72fd32edcb1dceb0", "name": "91a6fe0113a085bc72fd32edcb1dceb0", "rental_uris": {"ios": "https://dc.lft.to/lastmile_qr_scan", "android": "https://dc.lft.to/lastmile_qr_scan"}}, {"is_disabled": 0, "fusion_lat": 0.0, "lat": 38.9086405, "type": "electric_scooter", "lon": -77.02846266666667, "is_reserved": 0, "fusion_lon": 0.0, "bike_id": "073532bc3efa18ec9cc91dac518fa234", "name": "073532bc3efa18ec9cc91dac518fa234", "rental_uris": {"ios": "https://dc.lft.to/lastmile_qr_scan", "android": "https://dc.lft.to/lastmile_qr_scan"}}, {"is_disabled": 0, "fusion_lat": 0.0, "lat": 38.8972945, "type": "electric_scooter", "lon": -77.04884433333334, "is_reserved": 0, "fusion_lon": 0.0, "bike_id": "f84e2c2cd071d0ceb02a533ade1c0774", "name": "f84e2c2cd071d0ceb02a533ade1c0774", "rental_uris": {"ios": "https://dc.lft.to/lastmile_qr_scan", "android": "https://dc.lft.to/lastmile_qr_scan"}}, {"is_disabled": 0, "fusion_lat": 0.0, "lat": 38.898116, "type": "electric_scooter", "lon": -77.03328616666667, "is_reserved": 0, "fusion_lon": 0.0, "bike_id": "617c2e485bc9e79287497040ec3ce917", "name": "617c2e485bc9e79287497040ec3ce917", "rental_uris": {"ios": "https://dc.lft.to/lastmile_qr_scan", "android": "https://dc.lft.to/lastmile_qr_scan"}}, {"is_disabled": 0, "fusion_lat": 0.0, "lat": 38.896218833333336, "type": "electric_scooter", "lon": -76.99847233333334, "is_reserved": 0, "fusion_lon": 0.0, "bike_id": "c3d88848823f57b3f1dd2919ff308baa", "name": "c3d88848823f57b3f1dd2919ff308baa", "rental_uris": {"ios": "https://dc.lft.to/lastmile_qr_scan", "android": "https://dc.lft.to/lastmile_qr_scan"}}, {"is_disabled": 0, "fusion_lat": 0.0, "lat": 38.892249666666665, "type": "electric_scooter", "lon": -77.04642083333333, "is_reserved": 0, "fusion_lon": 0.0, "bike_id": "bb22c6f93c878b552ad3abe740ff7185", "name": "bb22c6f93c878b552ad3abe740ff7185", "rental_uris": {"ios": "https://dc.lft.to/lastmile_qr_scan", "android": "https://dc.lft.to/lastmile_qr_scan"}}, {"is_disabled": 0, "fusion_lat": 0.0, "lat": 38.90571533333333, "type": "electric_scooter", "lon": -77.03069116666667, "is_reserved": 0, "fusion_lon": 0.0, "bike_id": "fe6cf217267f2eba0fa98664904b1709", "name": "fe6cf217267f2eba0fa98664904b1709", "rental_uris": {"ios": "https://dc.lft.to/lastmile_qr_scan", "android": "https://dc.lft.to/lastmile_qr_scan"}}, {"is_disabled": 0, "fusion_lat": 0.0, "lat": 38.91673216666667, "type": "electric_scooter", "lon": -77.0270745, "is_reserved": 0, "fusion_lon": 0.0, "bike_id": "753647d0ea3211c321ddf3442ac2dd1d", "name": "753647d0ea3211c321ddf3442ac2dd1d", "rental_uris": {"ios": "https://dc.lft.to/lastmile_qr_scan", "android": "https://dc.lft.to/lastmile_qr_scan"}}, {"is_disabled": 0, "fusion_lat": 0.0, "lat": 38.941498333333335, "type": "electric_scooter", "lon": -77.029818, "is_reserved": 0, "fusion_lon": 0.0, "bike_id": "63afd7dea01f0028bce48935b9381674", "name": "63afd7dea01f0028bce48935b9381674", "rental_uris": {"ios": "https://dc.lft.to/lastmile_qr_scan", "android": "https://dc.lft.to/lastmile_qr_scan"}}, {"is_disabled": 0, "fusion_lat": 0.0, "lat": 38.89870483333333, "type": "electric_scooter", "lon": -77.0332995, "is_reserved": 0, "fusion_lon": 0.0, "bike_id": "130e75b7246bc69aa26cf37949798de4", "name": "130e75b7246bc69aa26cf37949798de4", "rental_uris": {"ios": "https://dc.lft.to/lastmile_qr_scan", "android": "https://dc.lft.to/lastmile_qr_scan"}}, {"is_disabled": 0, "fusion_lat": 0.0, "lat": 38.89366666666667, "type": "electric_scooter", "lon": -76.9496205, "is_reserved": 0, "fusion_lon": 0.0, "bike_id": "cbd63ce327494e4ac44b90ecfb8370bc", "name": "cbd63ce327494e4ac44b90ecfb8370bc", "rental_uris": {"ios": "https://dc.lft.to/lastmile_qr_scan", "android": "https://dc.lft.to/lastmile_qr_scan"}}, {"is_disabled": 0, "fusion_lat": 0.0, "lat": 38.93245916666667, "type": "electric_scooter", "lon": -77.03107416666667, "is_reserved": 0, "fusion_lon": 0.0, "bike_id": "73d3dcb0134209a0ae2ed3be08821693", "name": "73d3dcb0134209a0ae2ed3be08821693", "rental_uris": {"ios": "https://dc.lft.to/lastmile_qr_scan", "android": "https://dc.lft.to/lastmile_qr_scan"}}, {"is_disabled": 0, "fusion_lat": 0.0, "lat": 38.9290535, "type": "electric_scooter", "lon": -77.0318105, "is_reserved": 0, "fusion_lon": 0.0, "bike_id": "afe850357973d190a18200f9e1dafa33", "name": "afe850357973d190a18200f9e1dafa33", "rental_uris": {"ios": "https://dc.lft.to/lastmile_qr_scan", "android": "https://dc.lft.to/lastmile_qr_scan"}}, {"is_disabled": 0, "fusion_lat": 0.0, "lat": 38.9272775, "type": "electric_scooter", "lon": -77.02067333333333, "is_reserved": 0, "fusion_lon": 0.0, "bike_id": "2b9725169f3aa5289d57c9c2f73809cc", "name": "2b9725169f3aa5289d57c9c2f73809cc", "rental_uris": {"ios": "https://dc.lft.to/lastmile_qr_scan", "android": "https://dc.lft.to/lastmile_qr_scan"}}, {"is_disabled": 0, "fusion_lat": 0.0, "lat": 38.90960233333333, "type": "electric_scooter", "lon": -77.04044083333334, "is_reserved": 0, "fusion_lon": 0.0, "bike_id": "9a62803bea5f52c565627ee79e24555d", "name": "9a62803bea5f52c565627ee79e24555d", "rental_uris": {"ios": "https://dc.lft.to/lastmile_qr_scan", "android": "https://dc.lft.to/lastmile_qr_scan"}}, {"is_disabled": 0, "fusion_lat": 0.0, "lat": 38.92773116666667, "type": "electric_scooter", "lon": -77.0271375, "is_reserved": 0, "fusion_lon": 0.0, "bike_id": "e6f88bb6c3230c6da22c31f00fbc6559", "name": "e6f88bb6c3230c6da22c31f00fbc6559", "rental_uris": {"ios": "https://dc.lft.to/lastmile_qr_scan", "android": "https://dc.lft.to/lastmile_qr_scan"}}, {"is_disabled": 0, "fusion_lat": 0.0, "lat": 38.932374333333335, "type": "electric_scooter", "lon": -77.032815, "is_reserved": 0, "fusion_lon": 0.0, "bike_id": "36b179648be626fb80e73b982d3465e8", "name": "36b179648be626fb80e73b982d3465e8", "rental_uris": {"ios": "https://dc.lft.to/lastmile_qr_scan", "android": "https://dc.lft.to/lastmile_qr_scan"}}, {"is_disabled": 0, "fusion_lat": 0.0, "lat": 38.933093166666666, "type": "electric_scooter", "lon": -77.03269216666666, "is_reserved": 0, "fusion_lon": 0.0, "bike_id": "53cff32c9bcf1dd5e6df476c52fb3f08", "name": "53cff32c9bcf1dd5e6df476c52fb3f08", "rental_uris": {"ios": "https://dc.lft.to/lastmile_qr_scan", "android": "https://dc.lft.to/lastmile_qr_scan"}}, {"is_disabled": 0, "fusion_lat": 0.0, "lat": 38.92849433333333, "type": "electric_scooter", "lon": -77.05422216666666, "is_reserved": 0, "fusion_lon": 0.0, "bike_id": "d0e0da28dcd098f2526be5c5728a4985", "name": "d0e0da28dcd098f2526be5c5728a4985", "rental_uris": {"ios": "https://dc.lft.to/lastmile_qr_scan", "android": "https://dc.lft.to/lastmile_qr_scan"}}, {"is_disabled": 0, "fusion_lat": 0.0, "lat": 38.86908366666667, "type": "electric_bike", "lon": -77.13182166666667, "is_reserved": 0, "fusion_lon": 0.0, "bike_id": "d60054c38515c0c93ec5d9189e6cbf42", "name": "d60054c38515c0c93ec5d9189e6cbf42", "rental_uris": {"ios": "https://dc.lft.to/lastmile_qr_scan", "android": "https://dc.lft.to/lastmile_qr_scan"}}, {"is_disabled": 0, "fusion_lat": 0.0, "lat": 38.87186883333333, "type": "electric_bike", "lon": -77.08404333333333, "is_reserved": 0, "fusion_lon": 0.0, "bike_id": "0fa3bc6f0e6130a063a1b45a22f7c8e6", "name": "0fa3bc6f0e6130a063a1b45a22f7c8e6", "rental_uris": {"ios": "https://dc.lft.to/lastmile_qr_scan", "android": "https://dc.lft.to/lastmile_qr_scan"}}, {"is_disabled": 0, "fusion_lat": 0.0, "lat": 38.89734266666667, "type": "electric_scooter", "lon": -77.0557085, "is_reserved": 0, "fusion_lon": 0.0, "bike_id": "210c7267d17ffcc7326f974e39243719", "name": "210c7267d17ffcc7326f974e39243719", "rental_uris": {"ios": "https://dc.lft.to/lastmile_qr_scan", "android": "https://dc.lft.to/lastmile_qr_scan"}}, {"is_disabled": 0, "fusion_lat": 0.0, "lat": 38.81992983333333, "type": "electric_bike", "lon": -76.99806583333333, "is_reserved": 0, "fusion_lon": 0.0, "bike_id": "53e044ea83be23594808e9ae864c8f7e", "name": "53e044ea83be23594808e9ae864c8f7e", "rental_uris": {"ios": "https://dc.lft.to/lastmile_qr_scan", "android": "https://dc.lft.to/lastmile_qr_scan"}}, {"is_disabled": 0, "fusion_lat": 0.0, "lat": 38.892223333333334, "type": "electric_scooter", "lon": -77.046394, "is_reserved": 0, "fusion_lon": 0.0, "bike_id": "d2206ba26948f7e7edac79dde679bf16", "name": "d2206ba26948f7e7edac79dde679bf16", "rental_uris": {"ios": "https://dc.lft.to/lastmile_qr_scan", "android": "https://dc.lft.to/lastmile_qr_scan"}}, {"is_disabled": 0, "fusion_lat": 0.0, "lat": 38.925453833333336, "type": "electric_scooter", "lon": -76.98123766666667, "is_reserved": 0, "fusion_lon": 0.0, "bike_id": "86f0365fef206409afb90959446c6e1e", "name": "86f0365fef206409afb90959446c6e1e", "rental_uris": {"ios": "https://dc.lft.to/lastmile_qr_scan", "android": "https://dc.lft.to/lastmile_qr_scan"}}, {"is_disabled": 0, "fusion_lat": 0.0, "lat": 38.927541, "type": "electric_scooter", "lon": -77.02298833333333, "is_reserved": 0, "fusion_lon": 0.0, "bike_id": "2106b2ef75508c43054a40b9dac4b516", "name": "2106b2ef75508c43054a40b9dac4b516", "rental_uris": {"ios": "https://dc.lft.to/lastmile_qr_scan", "android": "https://dc.lft.to/lastmile_qr_scan"}}, {"is_disabled": 0, "fusion_lat": 0.0, "lat": 38.9589, "type": "electric_bike", "lon": -76.92481733333334, "is_reserved": 0, "fusion_lon": 0.0, "bike_id": "2abd85d743ff9c528ceb115784f3b378", "name": "2abd85d743ff9c528ceb115784f3b378", "rental_uris": {"ios": "https://dc.lft.to/lastmile_qr_scan", "android": "https://dc.lft.to/lastmile_qr_scan"}}, {"is_disabled": 0, "fusion_lat": 0.0, "lat": 38.97327883333333, "type": "electric_bike", "lon": -77.02149533333333, "is_reserved": 0, "fusion_lon": 0.0, "bike_id": "6c6ad7b70d3d1ad228085b9f6ba671b8", "name": "6c6ad7b70d3d1ad228085b9f6ba671b8", "rental_uris": {"ios": "https://dc.lft.to/lastmile_qr_scan", "android": "https://dc.lft.to/lastmile_qr_scan"}}, {"is_disabled": 0, "fusion_lat": 0.0, "lat": 38.900791166666664, "type": "electric_scooter", "lon": -76.99840433333334, "is_reserved": 0, "fusion_lon": 0.0, "bike_id": "53786169e484c412a6c56af37dd1cf97", "name": "53786169e484c412a6c56af37dd1cf97", "rental_uris": {"ios": "https://dc.lft.to/lastmile_qr_scan", "android": "https://dc.lft.to/lastmile_qr_scan"}}, {"is_disabled": 0, "fusion_lat": 0.0, "lat": 38.88184966666667, "type": "electric_scooter", "lon": -77.02809033333334, "is_reserved": 0, "fusion_lon": 0.0, "bike_id": "45cd3134249018bcedade84c1bba3c23", "name": "45cd3134249018bcedade84c1bba3c23", "rental_uris": {"ios": "https://dc.lft.to/lastmile_qr_scan", "android": "https://dc.lft.to/lastmile_qr_scan"}}, {"is_disabled": 0, "fusion_lat": 0.0, "lat": 38.90309, "type": "electric_scooter", "lon": -77.03810216666666, "is_reserved": 0, "fusion_lon": 0.0, "bike_id": "e1ff00426a9d592e1e05ccf41fd444c0", "name": "e1ff00426a9d592e1e05ccf41fd444c0", "rental_uris": {"ios": "https://dc.lft.to/lastmile_qr_scan", "android": "https://dc.lft.to/lastmile_qr_scan"}}, {"is_disabled": 0, "fusion_lat": 0.0, "lat": 38.9101395, "type": "electric_scooter", "lon": -77.02912533333334, "is_reserved": 0, "fusion_lon": 0.0, "bike_id": "beda8b1c5df3d662fd58369386902f49", "name": "beda8b1c5df3d662fd58369386902f49", "rental_uris": {"ios": "https://dc.lft.to/lastmile_qr_scan", "android": "https://dc.lft.to/lastmile_qr_scan"}}, {"is_disabled": 0, "fusion_lat": 0.0, "lat": 38.903738, "type": "electric_scooter", "lon": -77.04350516666666, "is_reserved": 0, "fusion_lon": 0.0, "bike_id": "6a0a949e1ecd8bed5fddb37afc3a44e3", "name": "6a0a949e1ecd8bed5fddb37afc3a44e3", "rental_uris": {"ios": "https://dc.lft.to/lastmile_qr_scan", "android": "https://dc.lft.to/lastmile_qr_scan"}}, {"is_disabled": 0, "fusion_lat": 0.0, "lat": 38.921883333333334, "type": "electric_scooter", "lon": -77.03202766666666, "is_reserved": 0, "fusion_lon": 0.0, "bike_id": "3aeb624dd9c1fa083ec91c400ffa7593", "name": "3aeb624dd9c1fa083ec91c400ffa7593", "rental_uris": {"ios": "https://dc.lft.to/lastmile_qr_scan", "android": "https://dc.lft.to/lastmile_qr_scan"}}, {"is_disabled": 0, "fusion_lat": 0.0, "lat": 38.905196833333335, "type": "electric_scooter", "lon": -76.98832866666666, "is_reserved": 0, "fusion_lon": 0.0, "bike_id": "27f3673f2afb54229583bff4f387b608", "name": "27f3673f2afb54229583bff4f387b608", "rental_uris": {"ios": "https://dc.lft.to/lastmile_qr_scan", "android": "https://dc.lft.to/lastmile_qr_scan"}}, {"is_disabled": 0, "fusion_lat": 0.0, "lat": 38.893337333333335, "type": "electric_scooter", "lon": -76.92990483333334, "is_reserved": 0, "fusion_lon": 0.0, "bike_id": "cc277db67dd1e97f5102eee5ae2541c6", "name": "cc277db67dd1e97f5102eee5ae2541c6", "rental_uris": {"ios": "https://dc.lft.to/lastmile_qr_scan", "android": "https://dc.lft.to/lastmile_qr_scan"}}, {"is_disabled": 0, "fusion_lat": 0.0, "lat": 38.9031135, "type": "electric_scooter", "lon": -77.05181116666667, "is_reserved": 0, "fusion_lon": 0.0, "bike_id": "42ba8351176db112a0a8ee8587445ef6", "name": "42ba8351176db112a0a8ee8587445ef6", "rental_uris": {"ios": "https://dc.lft.to/lastmile_qr_scan", "android": "https://dc.lft.to/lastmile_qr_scan"}}, {"is_disabled": 0, "fusion_lat": 0.0, "lat": 38.91927, "type": "electric_scooter", "lon": -77.02475233333334, "is_reserved": 0, "fusion_lon": 0.0, "bike_id": "e2ce10e52b8345d550a5b773b516fc7e", "name": "e2ce10e52b8345d550a5b773b516fc7e", "rental_uris": {"ios": "https://dc.lft.to/lastmile_qr_scan", "android": "https://dc.lft.to/lastmile_qr_scan"}}, {"is_disabled": 0, "fusion_lat": 0.0, "lat": 38.9051625, "type": "electric_scooter", "lon": -77.0514205, "is_reserved": 0, "fusion_lon": 0.0, "bike_id": "11063ce3d8ea6cdf16d7e89036534dd1", "name": "11063ce3d8ea6cdf16d7e89036534dd1", "rental_uris": {"ios": "https://dc.lft.to/lastmile_qr_scan", "android": "https://dc.lft.to/lastmile_qr_scan"}}, {"is_disabled": 0, "fusion_lat": 0.0, "lat": 38.8762785, "type": "electric_scooter", "lon": -76.96525816666667, "is_reserved": 0, "fusion_lon": 0.0, "bike_id": "6963855a304280bc1fd035bbe33876af", "name": "6963855a304280bc1fd035bbe33876af", "rental_uris": {"ios": "https://dc.lft.to/lastmile_qr_scan", "android": "https://dc.lft.to/lastmile_qr_scan"}}, {"is_disabled": 0, "fusion_lat": 0.0, "lat": 38.92665366666667, "type": "electric_scooter", "lon": -76.99558533333334, "is_reserved": 0, "fusion_lon": 0.0, "bike_id": "17563a3243fe2119bb173cbf2dd9ab8e", "name": "17563a3243fe2119bb173cbf2dd9ab8e", "rental_uris": {"ios": "https://dc.lft.to/lastmile_qr_scan", "android": "https://dc.lft.to/lastmile_qr_scan"}}, {"is_disabled": 0, "fusion_lat": 0.0, "lat": 38.9168385, "type": "electric_scooter", "lon": -77.03682683333334, "is_reserved": 0, "fusion_lon": 0.0, "bike_id": "5b1d1be418405fdce9f93d3b6d3c8e99", "name": "5b1d1be418405fdce9f93d3b6d3c8e99", "rental_uris": {"ios": "https://dc.lft.to/lastmile_qr_scan", "android": "https://dc.lft.to/lastmile_qr_scan"}}, {"is_disabled": 0, "fusion_lat": 0.0, "lat": 38.8737425, "type": "electric_scooter", "lon": -77.00092883333333, "is_reserved": 0, "fusion_lon": 0.0, "bike_id": "e0802a3d1721a69d77cfff64625efa45", "name": "e0802a3d1721a69d77cfff64625efa45", "rental_uris": {"ios": "https://dc.lft.to/lastmile_qr_scan", "android": "https://dc.lft.to/lastmile_qr_scan"}}, {"is_disabled": 0, "fusion_lat": 0.0, "lat": 38.861057833333334, "type": "electric_scooter", "lon": -76.9835625, "is_reserved": 0, "fusion_lon": 0.0, "bike_id": "35717b28ac06e1d9da80dabf2c699d6d", "name": "35717b28ac06e1d9da80dabf2c699d6d", "rental_uris": {"ios": "https://dc.lft.to/lastmile_qr_scan", "android": "https://dc.lft.to/lastmile_qr_scan"}}, {"is_disabled": 0, "fusion_lat": 0.0, "lat": 38.9279805, "type": "electric_bike", "lon": -77.03247366666666, "is_reserved": 0, "fusion_lon": 0.0, "bike_id": "715feab15d6c14373abc9190ee7538fb", "name": "715feab15d6c14373abc9190ee7538fb", "rental_uris": {"ios": "https://dc.lft.to/lastmile_qr_scan", "android": "https://dc.lft.to/lastmile_qr_scan"}}, {"is_disabled": 0, "fusion_lat": 0.0, "lat": 38.90955916666667, "type": "electric_scooter", "lon": -77.0405575, "is_reserved": 0, "fusion_lon": 0.0, "bike_id": "a2372139a58a6ab036a9ede8f1428a2e", "name": "a2372139a58a6ab036a9ede8f1428a2e", "rental_uris": {"ios": "https://dc.lft.to/lastmile_qr_scan", "android": "https://dc.lft.to/lastmile_qr_scan"}}, {"is_disabled": 0, "fusion_lat": 0.0, "lat": 38.8977045, "type": "electric_scooter", "lon": -77.03161766666666, "is_reserved": 0, "fusion_lon": 0.0, "bike_id": "79b4f31d89001891d20130740799f5f2", "name": "79b4f31d89001891d20130740799f5f2", "rental_uris": {"ios": "https://dc.lft.to/lastmile_qr_scan", "android": "https://dc.lft.to/lastmile_qr_scan"}}, {"is_disabled": 0, "fusion_lat": 0.0, "lat": 38.89080533333333, "type": "electric_scooter", "lon": -76.983553, "is_reserved": 0, "fusion_lon": 0.0, "bike_id": "d98d604473dad05337d3feb4717fcca8", "name": "d98d604473dad05337d3feb4717fcca8", "rental_uris": {"ios": "https://dc.lft.to/lastmile_qr_scan", "android": "https://dc.lft.to/lastmile_qr_scan"}}, {"is_disabled": 0, "fusion_lat": 0.0, "lat": 38.93687633333333, "type": "electric_scooter", "lon": -77.03628283333333, "is_reserved": 0, "fusion_lon": 0.0, "bike_id": "f68be5dd7c7d5ad37df9c51ae661bb29", "name": "f68be5dd7c7d5ad37df9c51ae661bb29", "rental_uris": {"ios": "https://dc.lft.to/lastmile_qr_scan", "android": "https://dc.lft.to/lastmile_qr_scan"}}, {"is_disabled": 0, "fusion_lat": 0.0, "lat": 38.9055845, "type": "electric_scooter", "lon": -77.02490716666667, "is_reserved": 0, "fusion_lon": 0.0, "bike_id": "969f88a4e4297c8092b86fa884e078b8", "name": "969f88a4e4297c8092b86fa884e078b8", "rental_uris": {"ios": "https://dc.lft.to/lastmile_qr_scan", "android": "https://dc.lft.to/lastmile_qr_scan"}}, {"is_disabled": 0, "fusion_lat": 0.0, "lat": 38.898898, "type": "electric_scooter", "lon": -77.0405355, "is_reserved": 0, "fusion_lon": 0.0, "bike_id": "80f556636318a92111631a898abf6555", "name": "80f556636318a92111631a898abf6555", "rental_uris": {"ios": "https://dc.lft.to/lastmile_qr_scan", "android": "https://dc.lft.to/lastmile_qr_scan"}}, {"is_disabled": 0, "fusion_lat": 0.0, "lat": 38.918828166666664, "type": "electric_scooter", "lon": -77.04184416666666, "is_reserved": 0, "fusion_lon": 0.0, "bike_id": "a7e92f6baa8f2a3ef44db361df605298", "name": "a7e92f6baa8f2a3ef44db361df605298", "rental_uris": {"ios": "https://dc.lft.to/lastmile_qr_scan", "android": "https://dc.lft.to/lastmile_qr_scan"}}, {"is_disabled": 0, "fusion_lat": 0.0, "lat": 38.92343483333333, "type": "electric_scooter", "lon": -77.01902483333333, "is_reserved": 0, "fusion_lon": 0.0, "bike_id": "fd93e32f3ccae538f3b209e0f6f39996", "name": "fd93e32f3ccae538f3b209e0f6f39996", "rental_uris": {"ios": "https://dc.lft.to/lastmile_qr_scan", "android": "https://dc.lft.to/lastmile_qr_scan"}}, {"is_disabled": 0, "fusion_lat": 0.0, "lat": 38.87101033333333, "type": "electric_scooter", "lon": -77.01203133333334, "is_reserved": 0, "fusion_lon": 0.0, "bike_id": "2c8c293e9d1cc1fe8fe9b230af70dd51", "name": "2c8c293e9d1cc1fe8fe9b230af70dd51", "rental_uris": {"ios": "https://dc.lft.to/lastmile_qr_scan", "android": "https://dc.lft.to/lastmile_qr_scan"}}, {"is_disabled": 0, "fusion_lat": 0.0, "lat": 38.883411833333334, "type": "electric_scooter", "lon": -77.03131066666667, "is_reserved": 0, "fusion_lon": 0.0, "bike_id": "fef4de749f12df11df8263b38c308b83", "name": "fef4de749f12df11df8263b38c308b83", "rental_uris": {"ios": "https://dc.lft.to/lastmile_qr_scan", "android": "https://dc.lft.to/lastmile_qr_scan"}}, {"is_disabled": 0, "fusion_lat": 0.0, "lat": 38.91013483333333, "type": "electric_scooter", "lon": -76.993841, "is_reserved": 0, "fusion_lon": 0.0, "bike_id": "17864d66890028637f4601478868d40f", "name": "17864d66890028637f4601478868d40f", "rental_uris": {"ios": "https://dc.lft.to/lastmile_qr_scan", "android": "https://dc.lft.to/lastmile_qr_scan"}}, {"is_disabled": 0, "fusion_lat": 0.0, "lat": 38.915213, "type": "electric_scooter", "lon": -77.01222283333334, "is_reserved": 0, "fusion_lon": 0.0, "bike_id": "0aae3d6644e0ab1518860fa37738cc12", "name": "0aae3d6644e0ab1518860fa37738cc12", "rental_uris": {"ios": "https://dc.lft.to/lastmile_qr_scan", "android": "https://dc.lft.to/lastmile_qr_scan"}}, {"is_disabled": 0, "fusion_lat": 0.0, "lat": 38.9058215, "type": "electric_scooter", "lon": -77.062788, "is_reserved": 0, "fusion_lon": 0.0, "bike_id": "867824db10373e53e2848e6c3d7b7fba", "name": "867824db10373e53e2848e6c3d7b7fba", "rental_uris": {"ios": "https://dc.lft.to/lastmile_qr_scan", "android": "https://dc.lft.to/lastmile_qr_scan"}}, {"is_disabled": 0, "fusion_lat": 0.0, "lat": 38.90588266666666, "type": "electric_scooter", "lon": -77.06515483333334, "is_reserved": 0, "fusion_lon": 0.0, "bike_id": "0824098252bc5f27c1827726b052fe52", "name": "0824098252bc5f27c1827726b052fe52", "rental_uris": {"ios": "https://dc.lft.to/lastmile_qr_scan", "android": "https://dc.lft.to/lastmile_qr_scan"}}, {"is_disabled": 0, "fusion_lat": 0.0, "lat": 38.9169885, "type": "electric_scooter", "lon": -77.03763833333333, "is_reserved": 0, "fusion_lon": 0.0, "bike_id": "ffe10f240f4ef37bc2cc9f691865b316", "name": "ffe10f240f4ef37bc2cc9f691865b316", "rental_uris": {"ios": "https://dc.lft.to/lastmile_qr_scan", "android": "https://dc.lft.to/lastmile_qr_scan"}}, {"is_disabled": 0, "fusion_lat": 0.0, "lat": 38.91410183333333, "type": "electric_scooter", "lon": -77.01846033333334, "is_reserved": 0, "fusion_lon": 0.0, "bike_id": "459b215dfa9b51d96f739da2fc7f51ab", "name": "459b215dfa9b51d96f739da2fc7f51ab", "rental_uris": {"ios": "https://dc.lft.to/lastmile_qr_scan", "android": "https://dc.lft.to/lastmile_qr_scan"}}, {"is_disabled": 0, "fusion_lat": 0.0, "lat": 38.90948483333333, "type": "electric_scooter", "lon": -77.0449625, "is_reserved": 0, "fusion_lon": 0.0, "bike_id": "4346f7ef9912bf6e1fe1e299a4d36a00", "name": "4346f7ef9912bf6e1fe1e299a4d36a00", "rental_uris": {"ios": "https://dc.lft.to/lastmile_qr_scan", "android": "https://dc.lft.to/lastmile_qr_scan"}}, {"is_disabled": 0, "fusion_lat": 0.0, "lat": 38.9061455, "type": "electric_scooter", "lon": -77.039593, "is_reserved": 0, "fusion_lon": 0.0, "bike_id": "bd428eceffeb52ba195deec8792074ac", "name": "bd428eceffeb52ba195deec8792074ac", "rental_uris": {"ios": "https://dc.lft.to/lastmile_qr_scan", "android": "https://dc.lft.to/lastmile_qr_scan"}}, {"is_disabled": 0, "fusion_lat": 0.0, "lat": 38.902470666666666, "type": "electric_scooter", "lon": -77.0383625, "is_reserved": 0, "fusion_lon": 0.0, "bike_id": "018493b2717f3636fb0d63b25fd8baa0", "name": "018493b2717f3636fb0d63b25fd8baa0", "rental_uris": {"ios": "https://dc.lft.to/lastmile_qr_scan", "android": "https://dc.lft.to/lastmile_qr_scan"}}, {"is_disabled": 0, "fusion_lat": 0.0, "lat": 38.921644666666666, "type": "electric_scooter", "lon": -77.0354945, "is_reserved": 0, "fusion_lon": 0.0, "bike_id": "aaf9ec6265bcc7dbae2d4605da7d9522", "name": "aaf9ec6265bcc7dbae2d4605da7d9522", "rental_uris": {"ios": "https://dc.lft.to/lastmile_qr_scan", "android": "https://dc.lft.to/lastmile_qr_scan"}}, {"is_disabled": 0, "fusion_lat": 0.0, "lat": 38.903389, "type": "electric_scooter", "lon": -77.03783966666667, "is_reserved": 0, "fusion_lon": 0.0, "bike_id": "856a1982c709417001117c2517a24c5e", "name": "856a1982c709417001117c2517a24c5e", "rental_uris": {"ios": "https://dc.lft.to/lastmile_qr_scan", "android": "https://dc.lft.to/lastmile_qr_scan"}}, {"is_disabled": 0, "fusion_lat": 0.0, "lat": 38.922437, "type": "electric_scooter", "lon": -77.03659133333333, "is_reserved": 0, "fusion_lon": 0.0, "bike_id": "a1088aab2bd5e55745af7e2687f15528", "name": "a1088aab2bd5e55745af7e2687f15528", "rental_uris": {"ios": "https://dc.lft.to/lastmile_qr_scan", "android": "https://dc.lft.to/lastmile_qr_scan"}}, {"is_disabled": 0, "fusion_lat": 0.0, "lat": 38.920395666666664, "type": "electric_scooter", "lon": -76.979031, "is_reserved": 0, "fusion_lon": 0.0, "bike_id": "0f5ddc7447ca97c4b214d72042dcb189", "name": "0f5ddc7447ca97c4b214d72042dcb189", "rental_uris": {"ios": "https://dc.lft.to/lastmile_qr_scan", "android": "https://dc.lft.to/lastmile_qr_scan"}}, {"is_disabled": 0, "fusion_lat": 0.0, "lat": 38.9319005, "type": "electric_scooter", "lon": -77.02830583333333, "is_reserved": 0, "fusion_lon": 0.0, "bike_id": "23b67ad34ad3dcabea115ac0abce1616", "name": "23b67ad34ad3dcabea115ac0abce1616", "rental_uris": {"ios": "https://dc.lft.to/lastmile_qr_scan", "android": "https://dc.lft.to/lastmile_qr_scan"}}, {"is_disabled": 0, "fusion_lat": 0.0, "lat": 38.887676666666664, "type": "electric_scooter", "lon": -77.02229166666666, "is_reserved": 0, "fusion_lon": 0.0, "bike_id": "ae11a5b56bb8171f86775707671ba15a", "name": "ae11a5b56bb8171f86775707671ba15a", "rental_uris": {"ios": "https://dc.lft.to/lastmile_qr_scan", "android": "https://dc.lft.to/lastmile_qr_scan"}}, {"is_disabled": 0, "fusion_lat": 0.0, "lat": 38.884275833333334, "type": "electric_scooter", "lon": -76.95752516666667, "is_reserved": 0, "fusion_lon": 0.0, "bike_id": "52b2a4af5b96a1c8086bedf28e1f86f7", "name": "52b2a4af5b96a1c8086bedf28e1f86f7", "rental_uris": {"ios": "https://dc.lft.to/lastmile_qr_scan", "android": "https://dc.lft.to/lastmile_qr_scan"}}, {"is_disabled": 0, "fusion_lat": 0.0, "lat": 38.91557, "type": "electric_scooter", "lon": -77.03070116666666, "is_reserved": 0, "fusion_lon": 0.0, "bike_id": "17e8691707488df0e74f7f26272cb956", "name": "17e8691707488df0e74f7f26272cb956", "rental_uris": {"ios": "https://dc.lft.to/lastmile_qr_scan", "android": "https://dc.lft.to/lastmile_qr_scan"}}, {"is_disabled": 0, "fusion_lat": 0.0, "lat": 38.900664, "type": "electric_scooter", "lon": -76.933867, "is_reserved": 0, "fusion_lon": 0.0, "bike_id": "a7dd2f34aed1dd99bdbb23cb9e200eeb", "name": "a7dd2f34aed1dd99bdbb23cb9e200eeb", "rental_uris": {"ios": "https://dc.lft.to/lastmile_qr_scan", "android": "https://dc.lft.to/lastmile_qr_scan"}}, {"is_disabled": 0, "fusion_lat": 0.0, "lat": 38.922898333333336, "type": "electric_scooter", "lon": -77.02067383333333, "is_reserved": 0, "fusion_lon": 0.0, "bike_id": "49e20e5f098ba5e9c739a6c3bdb40a1a", "name": "49e20e5f098ba5e9c739a6c3bdb40a1a", "rental_uris": {"ios": "https://dc.lft.to/lastmile_qr_scan", "android": "https://dc.lft.to/lastmile_qr_scan"}}, {"is_disabled": 0, "fusion_lat": 0.0, "lat": 38.907977333333335, "type": "electric_scooter", "lon": -77.02395583333333, "is_reserved": 0, "fusion_lon": 0.0, "bike_id": "e5d8c3daf6887224445929596134d75d", "name": "e5d8c3daf6887224445929596134d75d", "rental_uris": {"ios": "https://dc.lft.to/lastmile_qr_scan", "android": "https://dc.lft.to/lastmile_qr_scan"}}, {"is_disabled": 0, "fusion_lat": 0.0, "lat": 38.9193385, "type": "electric_scooter", "lon": -77.081361, "is_reserved": 0, "fusion_lon": 0.0, "bike_id": "ba4db12ad7e1466792ee4ea05f096316", "name": "ba4db12ad7e1466792ee4ea05f096316", "rental_uris": {"ios": "https://dc.lft.to/lastmile_qr_scan", "android": "https://dc.lft.to/lastmile_qr_scan"}}, {"is_disabled": 0, "fusion_lat": 0.0, "lat": 38.861072166666666, "type": "electric_scooter", "lon": -76.9833655, "is_reserved": 0, "fusion_lon": 0.0, "bike_id": "6124cdfa3898d2cee85a05d1c468af81", "name": "6124cdfa3898d2cee85a05d1c468af81", "rental_uris": {"ios": "https://dc.lft.to/lastmile_qr_scan", "android": "https://dc.lft.to/lastmile_qr_scan"}}, {"is_disabled": 0, "fusion_lat": 0.0, "lat": 38.990751833333334, "type": "electric_bike", "lon": -76.87468966666667, "is_reserved": 0, "fusion_lon": 0.0, "bike_id": "5550a04e44c8f1ddcbbfd96fa58ebde1", "name": "5550a04e44c8f1ddcbbfd96fa58ebde1", "rental_uris": {"ios": "https://dc.lft.to/lastmile_qr_scan", "android": "https://dc.lft.to/lastmile_qr_scan"}}, {"is_disabled": 0, "fusion_lat": 0.0, "lat": 38.87162283333333, "type": "electric_scooter", "lon": -77.0134955, "is_reserved": 0, "fusion_lon": 0.0, "bike_id": "73916586c983bb3687900e9de11c3dbe", "name": "73916586c983bb3687900e9de11c3dbe", "rental_uris": {"ios": "https://dc.lft.to/lastmile_qr_scan", "android": "https://dc.lft.to/lastmile_qr_scan"}}, {"is_disabled": 0, "fusion_lat": 0.0, "lat": 38.90389566666666, "type": "electric_scooter", "lon": -77.05335366666667, "is_reserved": 0, "fusion_lon": 0.0, "bike_id": "d99bc4f0588a9462dc7ba463ff4d007c", "name": "d99bc4f0588a9462dc7ba463ff4d007c", "rental_uris": {"ios": "https://dc.lft.to/lastmile_qr_scan", "android": "https://dc.lft.to/lastmile_qr_scan"}}, {"is_disabled": 0, "fusion_lat": 0.0, "lat": 38.90347083333333, "type": "electric_scooter", "lon": -77.06574033333334, "is_reserved": 0, "fusion_lon": 0.0, "bike_id": "dcd3a9a0b6ee55f72e84f0636ccbf3ca", "name": "dcd3a9a0b6ee55f72e84f0636ccbf3ca", "rental_uris": {"ios": "https://dc.lft.to/lastmile_qr_scan", "android": "https://dc.lft.to/lastmile_qr_scan"}}, {"is_disabled": 0, "fusion_lat": 0.0, "lat": 38.917773333333336, "type": "electric_scooter", "lon": -77.0343265, "is_reserved": 0, "fusion_lon": 0.0, "bike_id": "0e450a1d2460191d3c597509d1fdcac7", "name": "0e450a1d2460191d3c597509d1fdcac7", "rental_uris": {"ios": "https://dc.lft.to/lastmile_qr_scan", "android": "https://dc.lft.to/lastmile_qr_scan"}}, {"is_disabled": 0, "fusion_lat": 0.0, "lat": 38.909187333333335, "type": "electric_scooter", "lon": -76.9926615, "is_reserved": 0, "fusion_lon": 0.0, "bike_id": "fcd4993e4023796f464c2a1c319812c0", "name": "fcd4993e4023796f464c2a1c319812c0", "rental_uris": {"ios": "https://dc.lft.to/lastmile_qr_scan", "android": "https://dc.lft.to/lastmile_qr_scan"}}, {"is_disabled": 0, "fusion_lat": 0.0, "lat": 38.87370633333333, "type": "electric_bike", "lon": -77.10557266666666, "is_reserved": 0, "fusion_lon": 0.0, "bike_id": "5a07829401fccdde7811b66e873ad6e5", "name": "5a07829401fccdde7811b66e873ad6e5", "rental_uris": {"ios": "https://dc.lft.to/lastmile_qr_scan", "android": "https://dc.lft.to/lastmile_qr_scan"}}, {"is_disabled": 0, "fusion_lat": 0.0, "lat": 38.908508833333336, "type": "electric_scooter", "lon": -77.03303383333333, "is_reserved": 0, "fusion_lon": 0.0, "bike_id": "855091aea96ec1ad015015dd57399829", "name": "855091aea96ec1ad015015dd57399829", "rental_uris": {"ios": "https://dc.lft.to/lastmile_qr_scan", "android": "https://dc.lft.to/lastmile_qr_scan"}}, {"is_disabled": 0, "fusion_lat": 0.0, "lat": 38.8457185, "type": "electric_bike", "lon": -77.0962215, "is_reserved": 0, "fusion_lon": 0.0, "bike_id": "3c1343f39779394edee37065d7e74a04", "name": "3c1343f39779394edee37065d7e74a04", "rental_uris": {"ios": "https://dc.lft.to/lastmile_qr_scan", "android": "https://dc.lft.to/lastmile_qr_scan"}}, {"is_disabled": 0, "fusion_lat": 0.0, "lat": 38.924115, "type": "electric_bike", "lon": -77.20813016666666, "is_reserved": 0, "fusion_lon": 0.0, "bike_id": "6e89551b347153a988527ccbfa6b4e61", "name": "6e89551b347153a988527ccbfa6b4e61", "rental_uris": {"ios": "https://dc.lft.to/lastmile_qr_scan", "android": "https://dc.lft.to/lastmile_qr_scan"}}, {"is_disabled": 0, "fusion_lat": 0.0, "lat": 38.91991266666667, "type": "electric_scooter", "lon": -77.041616, "is_reserved": 0, "fusion_lon": 0.0, "bike_id": "667c653a8581b9a1a4ba44d894818e86", "name": "667c653a8581b9a1a4ba44d894818e86", "rental_uris": {"ios": "https://dc.lft.to/lastmile_qr_scan", "android": "https://dc.lft.to/lastmile_qr_scan"}}, {"is_disabled": 0, "fusion_lat": 0.0, "lat": 38.90154883333334, "type": "electric_scooter", "lon": -77.042065, "is_reserved": 0, "fusion_lon": 0.0, "bike_id": "f97e1b473ba209e5ac2717c897454d7b", "name": "f97e1b473ba209e5ac2717c897454d7b", "rental_uris": {"ios": "https://dc.lft.to/lastmile_qr_scan", "android": "https://dc.lft.to/lastmile_qr_scan"}}, {"is_disabled": 0, "fusion_lat": 0.0, "lat": 38.917851166666665, "type": "electric_scooter", "lon": -77.02287, "is_reserved": 0, "fusion_lon": 0.0, "bike_id": "23118f69efea53a424a42586267b36be", "name": "23118f69efea53a424a42586267b36be", "rental_uris": {"ios": "https://dc.lft.to/lastmile_qr_scan", "android": "https://dc.lft.to/lastmile_qr_scan"}}, {"is_disabled": 0, "fusion_lat": 0.0, "lat": 38.905022, "type": "electric_scooter", "lon": -77.04058083333334, "is_reserved": 0, "fusion_lon": 0.0, "bike_id": "cefc974c24d8eb62f9841e3268bfc81f", "name": "cefc974c24d8eb62f9841e3268bfc81f", "rental_uris": {"ios": "https://dc.lft.to/lastmile_qr_scan", "android": "https://dc.lft.to/lastmile_qr_scan"}}, {"is_disabled": 0, "fusion_lat": 0.0, "lat": 38.92900866666667, "type": "electric_scooter", "lon": -77.03177383333333, "is_reserved": 0, "fusion_lon": 0.0, "bike_id": "a4ea0cc1621b918e4107c2b6a2c92693", "name": "a4ea0cc1621b918e4107c2b6a2c92693", "rental_uris": {"ios": "https://dc.lft.to/lastmile_qr_scan", "android": "https://dc.lft.to/lastmile_qr_scan"}}, {"is_disabled": 0, "fusion_lat": 0.0, "lat": 38.934032, "type": "electric_scooter", "lon": -77.0388825, "is_reserved": 0, "fusion_lon": 0.0, "bike_id": "1ffa3cac3e9669e9ab1247721d465fc5", "name": "1ffa3cac3e9669e9ab1247721d465fc5", "rental_uris": {"ios": "https://dc.lft.to/lastmile_qr_scan", "android": "https://dc.lft.to/lastmile_qr_scan"}}, {"is_disabled": 0, "fusion_lat": 0.0, "lat": 38.89820183333333, "type": "electric_scooter", "lon": -77.009017, "is_reserved": 0, "fusion_lon": 0.0, "bike_id": "98cfa3d45c1ebf79ec05cd682caa71d3", "name": "98cfa3d45c1ebf79ec05cd682caa71d3", "rental_uris": {"ios": "https://dc.lft.to/lastmile_qr_scan", "android": "https://dc.lft.to/lastmile_qr_scan"}},