{"data": {"bikes": [{"bike_id": "fa1faa1fa6bf4a83ad7fa44f2a296e82", "type": "electric_scooter", "is_disabled": 0, "lat": 38.874234666666666, "rental_uris": {"ios": "https://dc.lft.to/lastmile_qr_scan", "android": "https://dc.lft.to/lastmile_qr_scan"}, "is_reserved": 0, "fusion_lon": 0.0, "fusion_lat": 0.0, "lon": -76.96909116666667, "name": "fa1faa1fa6bf4a83ad7fa44f2a296e82"}, {"bike_id": "9fca20a89f258468adf4fd36f59122ac", "type": "electric_scooter", "is_disabled": 0, "lat": 38.8637575, "rental_uris": {"ios": "https://dc.lft.to/lastmile_qr_scan", "android": "https://dc.lft.to/lastmile_qr_scan"}, "is_reserved": 0, "fusion_lon": 0.0, "fusion_lat": 0.0, "lon": -76.99062666666667, "name": "9fca20a89f258468adf4fd36f59122ac"}, {"bike_id": "883549e421f6b4ddde277ebef3c17ace", "type": "electric_bike", "is_disabled": 0, "lat": 38.897373333333334, "rental_uris": {"ios": "https://dc.lft.to/lastmile_qr_scan", "android": "https://dc.lft.to/lastmile_qr_scan"}, "is_reserved": 0, "fusion_lon": 0.0, "fusion_lat": 0.0, "lon": -76.99213816666666, "name": "883549e421f6b4ddde277ebef3c17ace"}, {"bike_id": "0268742c4c1e9348fbd9b5d8c51efe4e", "type": "electric_scooter", "is_disabled": 0, "lat": 38.9078195, "rental_uris": {"ios": "https://dc.lft.to/lastmile_qr_scan", "android": "https://dc.lft.to/lastmile_qr_scan"}, "is_reserved": 0, "fusion_lon": 0.0, "fusion_lat": 0.0, "lon": -77.0450535, "name": "0268742c4c1e9348fbd9b5d8c51efe4e"}, {"bike_id": "7f0496e28b7795aba0598dd6e614a9f4", "type": "electric_scooter", "is_disabled": 0, "lat": 38.942731333333334, "rental_uris": {"ios": "https://dc.lft.to/lastmile_qr_scan", "android": "https://dc.lft.to/lastmile_qr_scan"}, "is_reserved": 0, "fusion_lon": 0.0, "fusion_lat": 0.0, "lon": -77.03258966666667, "name": "7f0496e28b7795aba0598dd6e614a9f4"}, {"bike_id": "9ea808938fdce05d13902810b963391a", "type": "electric_scooter", "is_disabled": 0, "lat": 38.87867583333333, "rental_uris": {"ios": "https://dc.lft.to/lastmile_qr_scan", "android": "https://dc.lft.to/lastmile_qr_scan"}, "is_reserved": 0, "fusion_lon": 0.0, "fusion_lat": 0.0, "lon": -76.96979383333333, "name": "9ea808938fdce05d13902810b963391a"}, {"bike_id": "f67e60ee3486dc35c114a0243036bd73", "type": "electric_scooter", "is_disabled": 0, "lat": 38.95476333333333, "rental_uris": {"ios": "https://dc.lft.to/lastmile_qr_scan", "android": "https://dc.lft.to/lastmile_qr_scan"}, "is_reserved": 0, "fusion_lon": 0.0, "fusion_lat": 0.0, "lon": -77.08219716666666, "name": "f67e60ee3486dc35c114a0243036bd73"}, {"bike_id": "a5ff9d7ab707fccbadb386fad211dde1", "type": "electric_scooter", "is_disabled": 0, "lat": 38.895296333333334, "rental_uris": {"ios": "https://dc.lft.to/lastmile_qr_scan", "android": "https://dc.lft.to/lastmile_qr_scan"}, "is_reserved": 0, "fusion_lon": 0.0, "fusion_lat": 0.0, "lon": -77.0109985, "name": "a5ff9d7ab707fccbadb386fad211dde1"}, {"bike_id": "c6b84fe15a258fb2d238cb67e613c4ef", "type": "electric_scooter", "is_disabled": 0, "lat": 38.8900735, "rental_uris": {"ios": "https://dc.lft.to/lastmile_qr_scan", "android": "https://dc.lft.to/lastmile_qr_scan"}, "is_reserved": 0, "fusion_lon": 0.0, "fusion_lat": 0.0, "lon": -76.93745516666667, "name": "c6b84fe15a258fb2d238cb67e613c4ef"}, {"bike_id": "274bf478e70b57fe319cb715f1904418", "type": "electric_scooter", "is_disabled": 0, "lat": 38.91557666666667, "rental_uris": {"ios": "https://dc.lft.to/lastmile_qr_scan", "android": "https://dc.lft.to/lastmile_qr_scan"}, "is_reserved": 0, "fusion_lon": 0.0, "fusion_lat": 0.0, "lon": -77.0206335, "name": "274bf478e70b57fe319cb715f1904418"}, {"bike_id": "eadb0a8800f411ed31ea0eeb82024b61", "type": "electric_scooter", "is_disabled": 0, "lat": 38.91709383333333, "rental_uris": {"ios": "https://dc.lft.to/lastmile_qr_scan", "android": "https://dc.lft.to/lastmile_qr_scan"}, "is_reserved": 0, "fusion_lon": 0.0, "fusion_lat": 0.0, "lon": -77.02882166666667, "name": "eadb0a8800f411ed31ea0eeb82024b61"}, {"bike_id": "474bd27bcca289e14ea5e41899e9db33", "type": "electric_scooter", "is_disabled": 0, "lat": 38.956902, "rental_uris": {"ios": "https://dc.lft.to/lastmile_qr_scan", "android": "https://dc.lft.to/lastmile_qr_scan"}, "is_reserved": 0, "fusion_lon": 0.0, "fusion_lat": 0.0, "lon": -77.02401983333333, "name": "474bd27bcca289e14ea5e41899e9db33"}, {"bike_id": "9559a2c8c4a737fc1d981648d8102c22", "type": "electric_scooter", "is_disabled": 0, "lat": 38.9072985, "rental_uris": {"ios": "https://dc.lft.to/lastmile_qr_scan", "android": "https://dc.lft.to/lastmile_qr_scan"}, "is_reserved": 0, "fusion_lon": 0.0, "fusion_lat": 0.0, "lon": -77.05326816666667, "name": "9559a2c8c4a737fc1d981648d8102c22"}, {"bike_id": "f87e75c3dc56686eec929a149b456a51", "type": "electric_scooter", "is_disabled": 0, "lat": 38.914259333333334, "rental_uris": {"ios": "https://dc.lft.to/lastmile_qr_scan", "android": "https://dc.lft.to/lastmile_qr_scan"}, "is_reserved": 0, "fusion_lon": 0.0, "fusion_lat": 0.0, "lon": -77.01892, "name": "f87e75c3dc56686eec929a149b456a51"}, {"bike_id": "5dd978ae92ce19a7dce624adaa076bb7", "type": "electric_scooter", "is_disabled": 0, "lat": 38.926875833333334, "rental_uris": {"ios": "https://dc.lft.to/lastmile_qr_scan", "android": "https://dc.lft.to/lastmile_qr_scan"}, "is_reserved": 0, "fusion_lon": 0.0, "fusion_lat": 0.0, "lon": -77.02156, "name": "5dd978ae92ce19a7dce624adaa076bb7"}, {"bike_id": "4f86c406b0a02b75184d35a11b013531", "type": "electric_scooter", "is_disabled": 0, "lat": 38.88485166666667, "rental_uris": {"ios": "https://dc.lft.to/lastmile_qr_scan", "android": "https://dc.lft.to/lastmile_qr_scan"}, "is_reserved": 0, "fusion_lon": 0.0, "fusion_lat": 0.0, "lon": -77.01507566666666, "name": "4f86c406b0a02b75184d35a11b013531"}, {"bike_id": "fc4018e1205ff729ee274709809de17f", "type": "electric_scooter", "is_disabled": 0, "lat": 38.932429166666665, "rental_uris": {"ios": "https://dc.lft.to/lastmile_qr_scan", "android": "https://dc.lft.to/lastmile_qr_scan"}, "is_reserved": 0, "fusion_lon": 0.0, "fusion_lat": 0.0, "lon": -77.03593916666667, "name": "fc4018e1205ff729ee274709809de17f"}, {"bike_id": "b17321152e6d67b34e271b4ca8673042", "type": "electric_scooter", "is_disabled": 0, "lat": 38.92057366666667, "rental_uris": {"ios": "https://dc.lft.to/lastmile_qr_scan", "android": "https://dc.lft.to/lastmile_qr_scan"}, "is_reserved": 0, "fusion_lon": 0.0, "fusion_lat": 0.0, "lon": -77.03478216666667, "name": "b17321152e6d67b34e271b4ca8673042"}, {"bike_id": "c1da0ed9ebb150177c6b6e8adc364b2f", "type": "electric_scooter", "is_disabled": 0, "lat": 38.91709066666667, "rental_uris": {"ios": "https://dc.lft.to/lastmile_qr_scan", "android": "https://dc.lft.to/lastmile_qr_scan"}, "is_reserved": 0, "fusion_lon": 0.0, "fusion_lat": 0.0, "lon": -77.04121766666667, "name": "c1da0ed9ebb150177c6b6e8adc364b2f"}, {"bike_id": "bc8d31a726bae4ce8d9f0dd04b013400", "type": "electric_scooter", "is_disabled": 0, "lat": 38.911015666666664, "rental_uris": {"ios": "https://dc.lft.to/lastmile_qr_scan", "android": "https://dc.lft.to/lastmile_qr_scan"}, "is_reserved": 0, "fusion_lon": 0.0, "fusion_lat": 0.0, "lon": -77.04483416666666, "name": "bc8d31a726bae4ce8d9f0dd04b013400"}, {"bike_id": "aee6272d7eb33257c5bebcbefc7d74c2", "type": "electric_scooter", "is_disabled": 0, "lat": 38.91572, "rental_uris": {"ios": "https://dc.lft.to/lastmile_qr_scan", "android": "https://dc.lft.to/lastmile_qr_scan"}, "is_reserved": 0, "fusion_lon": 0.0, "fusion_lat": 0.0, "lon": -77.03185566666667, "name": "aee6272d7eb33257c5bebcbefc7d74c2"}, {"bike_id": "30b044eff3c0df716926f88c887923ee", "type": "electric_scooter", "is_disabled": 0, "lat": 38.8985825, "rental_uris": {"ios": "https://dc.lft.to/lastmile_qr_scan", "android": "https://dc.lft.to/lastmile_qr_scan"}, "is_reserved": 0, "fusion_lon": 0.0, "fusion_lat": 0.0, "lon": -77.0487795, "name": "30b044eff3c0df716926f88c887923ee"}, {"bike_id": "54908181cc6d99e15c2391bcb1c1b3fc", "type": "electric_scooter", "is_disabled": 0, "lat": 38.88502833333333, "rental_uris": {"ios": "https://dc.lft.to/lastmile_qr_scan", "android": "https://dc.lft.to/lastmile_qr_scan"}, "is_reserved": 0, "fusion_lon": 0.0, "fusion_lat": 0.0, "lon": -77.015511, "name": "54908181cc6d99e15c2391bcb1c1b3fc"}, {"bike_id": "7bd002e06019c747206ecb1d449be1b1", "type": "electric_scooter", "is_disabled": 0, "lat": 38.8967035, "rental_uris": {"ios": "https://dc.lft.to/lastmile_qr_scan", "android": "https://dc.lft.to/lastmile_qr_scan"}, "is_reserved": 0, "fusion_lon": 0.0, "fusion_lat": 0.0, "lon": -76.9881205, "name": "7bd002e06019c747206ecb1d449be1b1"}, {"bike_id": "6330ca7219a24fd989461fc83b896c56", "type": "electric_scooter", "is_disabled": 0, "lat": 38.897353333333335, "rental_uris": {"ios": "https://dc.lft.to/lastmile_qr_scan", "android": "https://dc.lft.to/lastmile_qr_scan"}, "is_reserved": 0, "fusion_lon": 0.0, "fusion_lat": 0.0, "lon": -77.00756866666667, "name": "6330ca7219a24fd989461fc83b896c56"}, {"bike_id": "b98f6c59a0aee6b31b5bf12dc944d3b4", "type": "electric_scooter", "is_disabled": 0, "lat": 38.90028066666667, "rental_uris": {"ios": "https://dc.lft.to/lastmile_qr_scan", "android": "https://dc.lft.to/lastmile_qr_scan"}, "is_reserved": 0, "fusion_lon": 0.0, "fusion_lat": 0.0, "lon": -76.99895766666667, "name": "b98f6c59a0aee6b31b5bf12dc944d3b4"}, {"bike_id": "a78cc60223668719785574405964ada0", "type": "electric_scooter", "is_disabled": 0, "lat": 38.93232716666667, "rental_uris": {"ios": "https://dc.lft.to/lastmile_qr_scan", "android": "https://dc.lft.to/lastmile_qr_scan"}, "is_reserved": 0, "fusion_lon": 0.0, "fusion_lat": 0.0, "lon": -77.03394466666667, "name": "a78cc60223668719785574405964ada0"}, {"bike_id": "1aaaa50cf3a201b41de1075611aba002", "type": "electric_scooter", "is_disabled": 0, "lat": 38.91352666666667, "rental_uris": {"ios": "https://dc.lft.to/lastmile_qr_scan", "android": "https://dc.lft.to/lastmile_qr_scan"}, "is_reserved": 0, "fusion_lon": 0.0, "fusion_lat": 0.0, "lon": -77.031831, "name": "1aaaa50cf3a201b41de1075611aba002"}, {"bike_id": "db626a56975843e47b20930ed9ce0ff9", "type": "electric_scooter", "is_disabled": 0, "lat": 38.920946, "rental_uris": {"ios": "https://dc.lft.to/lastmile_qr_scan", "android": "https://dc.lft.to/lastmile_qr_scan"}, "is_reserved": 0, "fusion_lon": 0.0, "fusion_lat": 0.0, "lon": -77.02531666666667, "name": "db626a56975843e47b20930ed9ce0ff9"}, {"bike_id": "dc155fed9376813df11e1c85d043c9a6", "type": "electric_scooter", "is_disabled": 0, "lat": 38.8974015, "rental_uris": {"ios": "https://dc.lft.to/lastmile_qr_scan", "android": "https://dc.lft.to/lastmile_qr_scan"}, "is_reserved": 0, "fusion_lon": 0.0, "fusion_lat": 0.0, "lon": -77.0332085, "name": "dc155fed9376813df11e1c85d043c9a6"}, {"bike_id": "13a8bd2456840aa195e3f10f2c698f87", "type": "electric_scooter", "is_disabled": 0, "lat": 38.906720166666666, "rental_uris": {"ios": "https://dc.lft.to/lastmile_qr_scan", "android": "https://dc.lft.to/lastmile_qr_scan"}, "is_reserved": 0, "fusion_lon": 0.0, "fusion_lat": 0.0, "lon": -77.07189866666667, "name": "13a8bd2456840aa195e3f10f2c698f87"}, {"bike_id": "4d146edb99ea53042c787938d882ed30", "type": "electric_scooter", "is_disabled": 0, "lat": 38.903056666666664, "rental_uris": {"ios": "https://dc.lft.to/lastmile_qr_scan", "android": "https://dc.lft.to/lastmile_qr_scan"}, "is_reserved": 0, "fusion_lon": 0.0, "fusion_lat": 0.0, "lon": -76.98341916666666, "name": "4d146edb99ea53042c787938d882ed30"}, {"bike_id": "da7afd40be6f93d751207f2a26c0fbe5", "type": "electric_scooter", "is_disabled": 0, "lat": 38.91478166666667, "rental_uris": {"ios": "https://dc.lft.to/lastmile_qr_scan", "android": "https://dc.lft.to/lastmile_qr_scan"}, "is_reserved": 0, "fusion_lon": 0.0, "fusion_lat": 0.0, "lon": -77.03915933333333, "name": "da7afd40be6f93d751207f2a26c0fbe5"}, {"bike_id": "a38cd5f8430f533e824af139acb310ba", "type": "electric_scooter", "is_disabled": 0, "lat": 38.92613016666667, "rental_uris": {"ios": "https://dc.lft.to/lastmile_qr_scan", "android": "https://dc.lft.to/lastmile_qr_scan"}, "is_reserved": 0, "fusion_lon": 0.0, "fusion_lat": 0.0, "lon": -77.021653, "name": "a38cd5f8430f533e824af139acb310ba"}, {"bike_id": "1f4310ee7528845f0f6283f96750479c", "type": "electric_scooter", "is_disabled": 0, "lat": 38.934551666666664, "rental_uris": {"ios": "https://dc.lft.to/lastmile_qr_scan", "android": "https://dc.lft.to/lastmile_qr_scan"}, "is_reserved": 0, "fusion_lon": 0.0, "fusion_lat": 0.0, "lon": -77.03047683333334, "name": "1f4310ee7528845f0f6283f96750479c"}, {"bike_id": "c93cb772e69b78e8be64f5fdbd08f54b", "type": "electric_scooter", "is_disabled": 0, "lat": 38.8920355, "rental_uris": {"ios": "https://dc.lft.to/lastmile_qr_scan", "android": "https://dc.lft.to/lastmile_qr_scan"}, "is_reserved": 0, "fusion_lon": 0.0, "fusion_lat": 0.0, "lon": -77.00228533333333, "name": "c93cb772e69b78e8be64f5fdbd08f54b"}, {"bike_id": "7287c4e2a595d7cc59f7c599866b1bb1", "type": "electric_scooter", "is_disabled": 0, "lat": 38.9205645, "rental_uris": {"ios": "https://dc.lft.to/lastmile_qr_scan", "android": "https://dc.lft.to/lastmile_qr_scan"}, "is_reserved": 0, "fusion_lon": 0.0, "fusion_lat": 0.0, "lon": -77.034632, "name": "7287c4e2a595d7cc59f7c599866b1bb1"}, {"bike_id": "1b72810e0e609cc06e8a5c7b47cb61ba", "type": "electric_scooter", "is_disabled": 0, "lat": 38.92939883333333, "rental_uris": {"ios": "https://dc.lft.to/lastmile_qr_scan", "android": "https://dc.lft.to/lastmile_qr_scan"}, "is_reserved": 0, "fusion_lon": 0.0, "fusion_lat": 0.0, "lon": -77.02312833333333, "name": "1b72810e0e609cc06e8a5c7b47cb61ba"}, {"bike_id": "18a34d665f8d60727de6b12f10ce6969", "type": "electric_scooter", "is_disabled": 0, "lat": 38.91606083333333, "rental_uris": {"ios": "https://dc.lft.to/lastmile_qr_scan", "android": "https://dc.lft.to/lastmile_qr_scan"}, "is_reserved": 0, "fusion_lon": 0.0, "fusion_lat": 0.0, "lon": -77.0228465, "name": "18a34d665f8d60727de6b12f10ce6969"}, {"bike_id": "55e811b500a5e0e476787939ca789d77", "type": "electric_bike", "is_disabled": 0, "lat": 38.8693935, "rental_uris": {"ios": "https://dc.lft.to/lastmile_qr_scan", "android": "https://dc.lft.to/lastmile_qr_scan"}, "is_reserved": 0, "fusion_lon": 0.0, "fusion_lat": 0.0, "lon": -77.09465816666666, "name": "55e811b500a5e0e476787939ca789d77"}, {"bike_id": "79e8aae263fc26878a1d3f5e7bafdd3b", "type": "electric_scooter", "is_disabled": 0, "lat": 38.90653666666667, "rental_uris": {"ios": "https://dc.lft.to/lastmile_qr_scan", "android": "https://dc.lft.to/lastmile_qr_scan"}, "is_reserved": 0, "fusion_lon": 0.0, "fusion_lat": 0.0, "lon": -77.02485466666667, "name": "79e8aae263fc26878a1d3f5e7bafdd3b"}, {"bike_id": "fc965e6817f6b78bdf2d3a481c604f92", "type": "electric_scooter", "is_disabled": 0, "lat": 38.92679966666667, "rental_uris": {"ios": "https://dc.lft.to/lastmile_qr_scan", "android": "https://dc.lft.to/lastmile_qr_scan"}, "is_reserved": 0, "fusion_lon": 0.0, "fusion_lat": 0.0, "lon": -77.02790583333334, "name": "fc965e6817f6b78bdf2d3a481c604f92"}, {"bike_id": "c2703caf485cc443c7c727705b9ba360", "type": "electric_scooter", "is_disabled": 0, "lat": 38.909795333333335, "rental_uris": {"ios": "https://dc.lft.to/lastmile_qr_scan", "android": "https://dc.lft.to/lastmile_qr_scan"}, "is_reserved": 0, "fusion_lon": 0.0, "fusion_lat": 0.0, "lon": -77.0280725, "name": "c2703caf485cc443c7c727705b9ba360"}, {"bike_id": "0b4ba4d6277267cb197ec22bfef551e6", "type": "electric_scooter", "is_disabled": 0, "lat": 38.87475633333333, "rental_uris": {"ios": "https://dc.lft.to/lastmile_qr_scan", "android": "https://dc.lft.to/lastmile_qr_scan"}, "is_reserved": 0, "fusion_lon": 0.0, "fusion_lat": 0.0, "lon": -77.01069383333333, "name": "0b4ba4d6277267cb197ec22bfef551e6"}, {"bike_id": "fd2784fca26507f9864ff714e2063d67", "type": "electric_scooter", "is_disabled": 0, "lat": 38.89042833333333, "rental_uris": {"ios": "https://dc.lft.to/lastmile_qr_scan", "android": "https://dc.lft.to/lastmile_qr_scan"}, "is_reserved": 0, "fusion_lon": 0.0, "fusion_lat": 0.0, "lon": -77.02574883333334, "name": "fd2784fca26507f9864ff714e2063d67"}, {"bike_id": "b4d12118d1d0e40e52dd4aedd70e83b3", "type": "electric_scooter", "is_disabled": 0, "lat": 38.8843445, "rental_uris": {"ios": "https://dc.lft.to/lastmile_qr_scan", "android": "https://dc.lft.to/lastmile_qr_scan"}, "is_reserved": 0, "fusion_lon": 0.0, "fusion_lat": 0.0, "lon": -76.95752266666666, "name": "b4d12118d1d0e40e52dd4aedd70e83b3"}, {"bike_id": "83565c4845d70d291ba9489c19a09e09", "type": "electric_scooter", "is_disabled": 0, "lat": 38.9365405, "rental_uris": {"ios": "https://dc.lft.to/lastmile_qr_scan", "android": "https://dc.lft.to/lastmile_qr_scan"}, "is_reserved": 0, "fusion_lon": 0.0, "fusion_lat": 0.0, "lon": -77.026443, "name": "83565c4845d70d291ba9489c19a09e09"}, {"bike_id": "c3fda6ff1be7d7fae10bf7dccfd522c7", "type": "electric_scooter", "is_disabled": 0, "lat": 38.918275333333334, "rental_uris": {"ios": "https://dc.lft.to/lastmile_qr_scan", "android": "https://dc.lft.to/lastmile_qr_scan"}, "is_reserved": 0, "fusion_lon": 0.0, "fusion_lat": 0.0, "lon": -77.02420783333334, "name": "c3fda6ff1be7d7fae10bf7dccfd522c7"}, {"bike_id": "b714dfa7ee871c021796ef0686004d01", "type": "electric_scooter", "is_disabled": 0, "lat": 38.90379933333333, "rental_uris": {"ios": "https://dc.lft.to/lastmile_qr_scan", "android": "https://dc.lft.to/lastmile_qr_scan"}, "is_reserved": 0, "fusion_lon": 0.0, "fusion_lat": 0.0, "lon": -76.98195, "name": "b714dfa7ee871c021796ef0686004d01"}, {"bike_id": "19c0565bd959842a52dad314dfe8fb95", "type": "electric_scooter", "is_disabled": 0, "lat": 38.92856866666666, "rental_uris": {"ios": "https://dc.lft.to/lastmile_qr_scan", "android": "https://dc.lft.to/lastmile_qr_scan"}, "is_reserved": 0, "fusion_lon": 0.0, "fusion_lat": 0.0, "lon": -77.03732966666666, "name": "19c0565bd959842a52dad314dfe8fb95"}, {"bike_id": "c0f3d67352619723d0281f6478f89465", "type": "electric_scooter", "is_disabled": 0, "lat": 38.92272883333333, "rental_uris": {"ios": "https://dc.lft.to/lastmile_qr_scan", "android": "https://dc.lft.to/lastmile_qr_scan"}, "is_reserved": 0, "fusion_lon": 0.0, "fusion_lat": 0.0, "lon": -77.03668166666667, "name": "c0f3d67352619723d0281f6478f89465"}, {"bike_id": "44480cab3bcc9faa3d16cd6b1a2a0be0", "type": "electric_scooter", "is_disabled": 0, "lat": 38.888488333333335, "rental_uris": {"ios": "https://dc.lft.to/lastmile_qr_scan", "android": "https://dc.lft.to/lastmile_qr_scan"}, "is_reserved": 0, "fusion_lon": 0.0, "fusion_lat": 0.0, "lon": -76.92681466666667, "name": "44480cab3bcc9faa3d16cd6b1a2a0be0"}, {"bike_id": "339ae06301e80c7a6a597e2efbbc764e", "type": "electric_scooter", "is_disabled": 0, "lat": 38.957385333333335, "rental_uris": {"ios": "https://dc.lft.to/lastmile_qr_scan", "android": "https://dc.lft.to/lastmile_qr_scan"}, "is_reserved": 0, "fusion_lon": 0.0, "fusion_lat": 0.0, "lon": -77.0242035, "name": "339ae06301e80c7a6a597e2efbbc764e"}, {"bike_id": "98eeb579c6400c9395d13489f4d23c41", "type": "electric_scooter", "is_disabled": 0, "lat": 38.918255, "rental_uris": {"ios": "https://dc.lft.to/lastmile_qr_scan", "android": "https://dc.lft.to/lastmile_qr_scan"}, "is_reserved": 0, "fusion_lon": 0.0, "fusion_lat": 0.0, "lon": -77.0242215, "name": "98eeb579c6400c9395d13489f4d23c41"}, {"bike_id": "774b68e636394f6b6d13b6033f13e51d", "type": "electric_scooter", "is_disabled": 0, "lat": 38.9275115, "rental_uris": {"ios": "https://dc.lft.to/lastmile_qr_scan", "android": "https://dc.lft.to/lastmile_qr_scan"}, "is_reserved": 0, "fusion_lon": 0.0, "fusion_lat": 0.0, "lon": -77.0253965, "name": "774b68e636394f6b6d13b6033f13e51d"}, {"bike_id": "a42ecdf20932940ea571176d479e2dbe", "type": "electric_bike", "is_disabled": 0, "lat": 38.9837435, "rental_uris": {"ios": "https://dc.lft.to/lastmile_qr_scan", "android": "https://dc.lft.to/lastmile_qr_scan"}, "is_reserved": 0, "fusion_lon": 0.0, "fusion_lat": 0.0, "lon": -76.97213966666666, "name": "a42ecdf20932940ea571176d479e2dbe"}, {"bike_id": "b5693deabd7a6309d4b0ba82368c82c2", "type": "electric_bike", "is_disabled": 0, "lat": 38.9436655, "rental_uris": {"ios": "https://dc.lft.to/lastmile_qr_scan", "android": "https://dc.lft.to/lastmile_qr_scan"}, "is_reserved": 0, "fusion_lon": 0.0, "fusion_lat": 0.0, "lon": -76.96780016666666, "name": "b5693deabd7a6309d4b0ba82368c82c2"}, {"bike_id": "1be49d02fe6cbc3d7023a18076e90d31", "type": "electric_bike", "is_disabled": 0, "lat": 38.92354433333333, "rental_uris": {"ios": "https://dc.lft.to/lastmile_qr_scan", "android": "https://dc.lft.to/lastmile_qr_scan"}, "is_reserved": 0, "fusion_lon": 0.0, "fusion_lat": 0.0, "lon": -76.9713035, "name": "1be49d02fe6cbc3d7023a18076e90d31"}, {"bike_id": "d6ea7de8e851643b7297d22f518608fa", "type": "electric_scooter", "is_disabled": 0, "lat": 38.89298216666667, "rental_uris": {"ios": "https://dc.lft.to/lastmile_qr_scan", "android": "https://dc.lft.to/lastmile_qr_scan"}, "is_reserved": 0, "fusion_lon": 0.0, "fusion_lat": 0.0, "lon": -77.01222766666666, "name": "d6ea7de8e851643b7297d22f518608fa"}, {"bike_id": "d92003f103732b0b4735feb73e01f1ee", "type": "electric_scooter", "is_disabled": 0, "lat": 38.936727, "rental_uris": {"ios": "https://dc.lft.to/lastmile_qr_scan", "android": "https://dc.lft.to/lastmile_qr_scan"}, "is_reserved": 0, "fusion_lon": 0.0, "fusion_lat": 0.0, "lon": -77.03570583333334, "name": "d92003f103732b0b4735feb73e01f1ee"}, {"bike_id": "7dfe7a870ce0a59622a44dcedbd64869", "type": "electric_scooter", "is_disabled": 0, "lat": 38.850197, "rental_uris": {"ios": "https://dc.lft.to/lastmile_qr_scan", "android": "https://dc.lft.to/lastmile_qr_scan"}, "is_reserved": 0, "fusion_lon": 0.0, "fusion_lat": 0.0, "lon": -76.9753385, "name": "7dfe7a870ce0a59622a44dcedbd64869"}, {"bike_id": "52eb00b01e9f5ce346bd2f62c7f08763", "type": "electric_scooter", "is_disabled": 0, "lat": 38.8624895, "rental_uris": {"ios": "https://dc.lft.to/lastmile_qr_scan", "android": "https://dc.lft.to/lastmile_qr_scan"}, "is_reserved": 0, "fusion_lon": 0.0, "fusion_lat": 0.0, "lon": -76.9950505, "name": "52eb00b01e9f5ce346bd2f62c7f08763"}, {"bike_id": "efb62f6b2bc8309a36d30876d8067b2d", "type": "electric_scooter", "is_disabled": 0, "lat": 38.90525566666667, "rental_uris": {"ios": "https://dc.lft.to/lastmile_qr_scan", "android": "https://dc.lft.to/lastmile_qr_scan"}, "is_reserved": 0, "fusion_lon": 0.0, "fusion_lat": 0.0, "lon": -77.0629455, "name": "efb62f6b2bc8309a36d30876d8067b2d"}, {"bike_id": "bd4c6c875f3849685db0c089daff6388", "type": "electric_scooter", "is_disabled": 0, "lat": 38.96204316666667, "rental_uris": {"ios": "https://dc.lft.to/lastmile_qr_scan", "android": "https://dc.lft.to/lastmile_qr_scan"}, "is_reserved": 0, "fusion_lon": 0.0, "fusion_lat": 0.0, "lon": -77.02234816666666, "name": "bd4c6c875f3849685db0c089daff6388"}, {"bike_id": "706220cbebe34bd4bb43fcb6d540817c", "type": "electric_scooter", "is_disabled": 0, "lat": 38.904203333333335, "rental_uris": {"ios": "https://dc.lft.to/lastmile_qr_scan", "android": "https://dc.lft.to/lastmile_qr_scan"}, "is_reserved": 0, "fusion_lon": 0.0, "fusion_lat": 0.0, "lon": -77.05453483333334, "name": "706220cbebe34bd4bb43fcb6d540817c"}, {"bike_id": "35a4a77225143a2c8b64967fe50dc886", "type": "electric_bike", "is_disabled": 0, "lat": 38.93494466666667, "rental_uris": {"ios": "https://dc.lft.to/lastmile_qr_scan", "android": "https://dc.lft.to/lastmile_qr_scan"}, "is_reserved": 0, "fusion_lon": 0.0, "fusion_lat": 0.0, "lon": -76.991375, "name": "35a4a77225143a2c8b64967fe50dc886"}, {"bike_id": "495986905cc02c3e720fa842543ea1dc", "type": "electric_scooter", "is_disabled": 0, "lat": 38.900569833333336, "rental_uris": {"ios": "https://dc.lft.to/lastmile_qr_scan", "android": "https://dc.lft.to/lastmile_qr_scan"}, "is_reserved": 0, "fusion_lon": 0.0, "fusion_lat": 0.0, "lon": -77.03499483333333, "name": "495986905cc02c3e720fa842543ea1dc"}, {"bike_id": "26fe31505e7a309bc73dc3da58057a07", "type": "electric_scooter", "is_disabled": 0, "lat": 38.90649366666667, "rental_uris": {"ios": "https://dc.lft.to/lastmile_qr_scan", "android": "https://dc.lft.to/lastmile_qr_scan"}, "is_reserved": 0, "fusion_lon": 0.0, "fusion_lat": 0.0, "lon": -77.01461933333333, "name": "26fe31505e7a309bc73dc3da58057a07"}, {"bike_id": "6dffd0cc8035e4793b274fc5c36111a5", "type": "electric_scooter", "is_disabled": 0, "lat": 38.876495166666665, "rental_uris": {"ios": "https://dc.lft.to/lastmile_qr_scan", "android": "https://dc.lft.to/lastmile_qr_scan"}, "is_reserved": 0, "fusion_lon": 0.0, "fusion_lat": 0.0, "lon": -76.965038, "name": "6dffd0cc8035e4793b274fc5c36111a5"}, {"bike_id": "3ff3d752c8bad9b092689efb638b35a5", "type": "electric_scooter", "is_disabled": 0, "lat": 38.91436783333333, "rental_uris": {"ios": "https://dc.lft.to/lastmile_qr_scan", "android": "https://dc.lft.to/lastmile_qr_scan"}, "is_reserved": 0, "fusion_lon": 0.0, "fusion_lat": 0.0, "lon": -77.01216883333333, "name": "3ff3d752c8bad9b092689efb638b35a5"}, {"bike_id": "a456092a4498de4ebda4f2ad89f04efb", "type": "electric_scooter", "is_disabled": 0, "lat": 38.91684816666667, "rental_uris": {"ios": "https://dc.lft.to/lastmile_qr_scan", "android": "https://dc.lft.to/lastmile_qr_scan"}, "is_reserved": 0, "fusion_lon": 0.0, "fusion_lat": 0.0, "lon": -77.02327016666666, "name": "a456092a4498de4ebda4f2ad89f04efb"}, {"bike_id": "289daf7928b97e702d29768bab96985b", "type": "electric_scooter", "is_disabled": 0, "lat": 38.92751483333333, "rental_uris": {"ios": "https://dc.lft.to/lastmile_qr_scan", "android": "https://dc.lft.to/lastmile_qr_scan"}, "is_reserved": 0, "fusion_lon": 0.0, "fusion_lat": 0.0, "lon": -77.00598083333334, "name": "289daf7928b97e702d29768bab96985b"}, {"bike_id": "dba52497b532d89d2aece1c7ad684b00", "type": "electric_scooter", "is_disabled": 0, "lat": 38.90663683333333, "rental_uris": {"ios": "https://dc.lft.to/lastmile_qr_scan", "android": "https://dc.lft.to/lastmile_qr_scan"}, "is_reserved": 0, "fusion_lon": 0.0, "fusion_lat": 0.0, "lon": -77.07184666666667, "name": "dba52497b532d89d2aece1c7ad684b00"}, {"bike_id": "b2ea6083cb9e8af25e06647b9e433472", "type": "electric_scooter", "is_disabled": 0, "lat": 38.907329, "rental_uris": {"ios": "https://dc.lft.to/lastmile_qr_scan", "android": "https://dc.lft.to/lastmile_qr_scan"}, "is_reserved": 0, "fusion_lon": 0.0, "fusion_lat": 0.0, "lon": -77.029548, "name": "b2ea6083cb9e8af25e06647b9e433472"}, {"bike_id": "8b2381b31ec9dbfe1127efa60d455adb", "type": "electric_scooter", "is_disabled": 0, "lat": 38.965676333333334, "rental_uris": {"ios": "https://dc.lft.to/lastmile_qr_scan", "android": "https://dc.lft.to/lastmile_qr_scan"}, "is_reserved": 0, "fusion_lon": 0.0, "fusion_lat": 0.0, "lon": -77.02782716666667, "name": "8b2381b31ec9dbfe1127efa60d455adb"}, {"bike_id": "d440834be0433aab4d7cf7f7acf38940", "type": "electric_scooter", "is_disabled": 0, "lat": 38.903342, "rental_uris": {"ios": "https://dc.lft.to/lastmile_qr_scan", "android": "https://dc.lft.to/lastmile_qr_scan"}, "is_reserved": 0, "fusion_lon": 0.0, "fusion_lat": 0.0, "lon": -77.06928266666667, "name": "d440834be0433aab4d7cf7f7acf38940"}, {"bike_id": "db4d4cc2e0a365748b1c9080f48cfd67", "type": "electric_scooter", "is_disabled": 0, "lat": 38.862462, "rental_uris": {"ios": "https://dc.lft.to/lastmile_qr_scan", "android": "https://dc.lft.to/lastmile_qr_scan"}, "is_reserved": 0, "fusion_lon": 0.0, "fusion_lat": 0.0, "lon": -76.99503016666667, "name": "db4d4cc2e0a365748b1c9080f48cfd67"}, {"bike_id": "185652ed024872ce25a9e55de49f18dc", "type": "electric_scooter", "is_disabled": 0, "lat": 38.98434366666667, "rental_uris": {"ios": "https://dc.lft.to/lastmile_qr_scan", "android": "https://dc.lft.to/lastmile_qr_scan"}, "is_reserved": 0, "fusion_lon": 0.0, "fusion_lat": 0.0, "lon": -77.02670866666666, "name": "185652ed024872ce25a9e55de49f18dc"}, {"bike_id": "1398cb8e032b063612d0fc9736796f4d", "type": "electric_scooter", "is_disabled": 0, "lat": 38.8826175, "rental_uris": {"ios": "https://dc.lft.to/lastmile_qr_scan", "android": "https://dc.lft.to/lastmile_qr_scan"}, "is_reserved": 0, "fusion_lon": 0.0, "fusion_lat": 0.0, "lon": -76.99505016666667, "name": "1398cb8e032b063612d0fc9736796f4d"}, {"bike_id": "e01100a0e981903a935d40b45663a3cd", "type": "electric_scooter", "is_disabled": 0, "lat": 38.866556, "rental_uris": {"ios": "https://dc.lft.to/lastmile_qr_scan", "android": "https://dc.lft.to/lastmile_qr_scan"}, "is_reserved": 0, "fusion_lon": 0.0, "fusion_lat": 0.0, "lon": -76.98889533333333, "name": "e01100a0e981903a935d40b45663a3cd"}, {"bike_id": "69420d2809b4a94a52d486e9745d479e", "type": "electric_scooter", "is_disabled": 0, "lat": 38.9364025, "rental_uris": {"ios": "https://dc.lft.to/lastmile_qr_scan", "android": "https://dc.lft.to/lastmile_qr_scan"}, "is_reserved": 0, "fusion_lon": 0.0, "fusion_lat": 0.0, "lon": -77.0588625, "name": "69420d2809b4a94a52d486e9745d479e"}, {"bike_id": "b093dd3b750db57f671a3a3c6479a66e", "type": "electric_scooter", "is_disabled": 0, "lat": 38.9056575, "rental_uris": {"ios": "https://dc.lft.to/lastmile_qr_scan", "android": "https://dc.lft.to/lastmile_qr_scan"}, "is_reserved": 0, "fusion_lon": 0.0, "fusion_lat": 0.0, "lon": -77.03817833333333, "name": "b093dd3b750db57f671a3a3c6479a66e"}, {"bike_id": "e10946e6ec6900d243ef616e448da417", "type": "electric_scooter", "is_disabled": 0, "lat": 38.90530966666667, "rental_uris": {"ios": "https://dc.lft.to/lastmile_qr_scan", "android": "https://dc.lft.to/lastmile_qr_scan"}, "is_reserved": 0, "fusion_lon": 0.0, "fusion_lat": 0.0, "lon": -77.0568545, "name": "e10946e6ec6900d243ef616e448da417"}, {"bike_id": "217aa7ba6f57720404505e4e28bef1ed", "type": "electric_scooter", "is_disabled": 0, "lat": 38.906925333333334, "rental_uris": {"ios": "https://dc.lft.to/lastmile_qr_scan", "android": "https://dc.lft.to/lastmile_qr_scan"}, "is_reserved": 0, "fusion_lon": 0.0, "fusion_lat": 0.0, "lon": -77.06364633333334, "name": "217aa7ba6f57720404505e4e28bef1ed"}, {"bike_id": "858102d845a09a7013947e0f7dce8fe4", "type": "electric_scooter", "is_disabled": 0, "lat": 38.9421105, "rental_uris": {"ios": "https://dc.lft.to/lastmile_qr_scan", "android": "https://dc.lft.to/lastmile_qr_scan"}, "is_reserved": 0, "fusion_lon": 0.0, "fusion_lat": 0.0, "lon": -77.02584433333334, "name": "858102d845a09a7013947e0f7dce8fe4"}, {"bike_id": "bb17c8fd53acc2748e498ace4814f5db", "type": "electric_scooter", "is_disabled": 0, "lat": 38.89876, "rental_uris": {"ios": "https://dc.lft.to/lastmile_qr_scan", "android": "https://dc.lft.to/lastmile_qr_scan"}, "is_reserved": 0, "fusion_lon": 0.0, "fusion_lat": 0.0, "lon": -76.931905, "name": "bb17c8fd53acc2748e498ace4814f5db"}, {"bike_id": "563776e9a3e86f70aa977f706d7f2a9c", "type": "electric_scooter", "is_disabled": 0, "lat": 38.91178133333333, "rental_uris": {"ios": "https://dc.lft.to/lastmile_qr_scan", "android": "https://dc.lft.to/lastmile_qr_scan"}, "is_reserved": 0, "fusion_lon": 0.0, "fusion_lat": 0.0, "lon": -77.02953966666666, "name": "563776e9a3e86f70aa977f706d7f2a9c"}, {"bike_id": "c200c287acdfafd1cc1e9e67619b1023", "type": "electric_scooter", "is_disabled": 0, "lat": 38.9353735, "rental_uris": {"ios": "https://dc.lft.to/lastmile_qr_scan", "android": "https://dc.lft.to/lastmile_qr_scan"}, "is_reserved": 0, "fusion_lon": 0.0, "fusion_lat": 0.0, "lon": -77.034228, "name": "c200c287acdfafd1cc1e9e67619b1023"}, {"bike_id": "5e9acf771c79988ca96451d10fafa4c1", "type": "electric_scooter", "is_disabled": 0, "lat": 38.92489066666667, "rental_uris": {"ios": "https://dc.lft.to/lastmile_qr_scan", "android": "https://dc.lft.to/lastmile_qr_scan"}, "is_reserved": 0, "fusion_lon": 0.0, "fusion_lat": 0.0, "lon": -77.05761766666667, "name": "5e9acf771c79988ca96451d10fafa4c1"}, {"bike_id": "1954d84853240030e6ab0cc19b9310b8", "type": "electric_scooter", "is_disabled": 0, "lat": 38.90885983333333, "rental_uris": {"ios": "https://dc.lft.to/lastmile_qr_scan", "android": "https://dc.lft.to/lastmile_qr_scan"}, "is_reserved": 0, "fusion_lon": 0.0, "fusion_lat": 0.0, "lon": -77.0432595, "name": "1954d84853240030e6ab0cc19b9310b8"}, {"bike_id": "2f4a8bba25f7a13d1deab222b8ec946f", "type": "electric_scooter", "is_disabled": 0, "lat": 38.9091675, "rental_uris": {"ios": "https://dc.lft.to/lastmile_qr_scan", "android": "https://dc.lft.to/lastmile_qr_scan"}, "is_reserved": 0, "fusion_lon": 0.0, "fusion_lat": 0.0, "lon": -77.04487516666667, "name": "2f4a8bba25f7a13d1deab222b8ec946f"}, {"bike_id": "59d4872ca744dca95b38f4df47ca10ec", "type": "electric_scooter", "is_disabled": 0, "lat": 38.922696, "rental_uris": {"ios": "https://dc.lft.to/lastmile_qr_scan", "android": "https://dc.lft.to/lastmile_qr_scan"}, "is_reserved": 0, "fusion_lon": 0.0, "fusion_lat": 0.0, "lon": -77.03281433333333, "name": "59d4872ca744dca95b38f4df47ca10ec"}, {"bike_id": "6b8a8e9326d9d509f0d3fabd99057b84", "type": "electric_bike", "is_disabled": 0, "lat": 38.9083795, "rental_uris": {"ios": "https://dc.lft.to/lastmile_qr_scan", "android": "https://dc.lft.to/lastmile_qr_scan"}, "is_reserved": 0, "fusion_lon": 0.0, "fusion_lat": 0.0, "lon": -76.9330705, "name": "6b8a8e9326d9d509f0d3fabd99057b84"}, {"bike_id": "dc14cbc825213d80cb7fd8fee5761b05", "type": "electric_scooter", "is_disabled": 0, "lat": 38.9053235, "rental_uris": {"ios": "https://dc.lft.to/lastmile_qr_scan", "android": "https://dc.lft.to/lastmile_qr_scan"}, "is_reserved": 0, "fusion_lon": 0.0, "fusion_lat": 0.0, "lon": -77.05016483333333, "name": "dc14cbc825213d80cb7fd8fee5761b05"}, {"bike_id": "4bf27f13ddf30debc8a54ceea3b0572c", "type": "electric_scooter", "is_disabled": 0, "lat": 38.870892833333336, "rental_uris": {"ios": "https://dc.lft.to/lastmile_qr_scan", "android": "https://dc.lft.to/lastmile_qr_scan"}, "is_reserved": 0, "fusion_lon": 0.0, "fusion_lat": 0.0, "lon": -77.01215133333334, "name": "4bf27f13ddf30debc8a54ceea3b0572c"}, {"bike_id": "4f23f4d804593ac3445206e7ef9f16c2", "type": "electric_scooter", "is_disabled": 0, "lat": 38.88407266666667, "rental_uris": {"ios": "https://dc.lft.to/lastmile_qr_scan", "android": "https://dc.lft.to/lastmile_qr_scan"}, "is_reserved": 0, "fusion_lon": 0.0, "fusion_lat": 0.0, "lon": -76.95400916666667, "name": "4f23f4d804593ac3445206e7ef9f16c2"}, {"bike_id": "f83942e6f1332dfc46a7c1bb780173de", "type": "electric_scooter", "is_disabled": 0, "lat": 38.910648, "rental_uris": {"ios": "https://dc.lft.to/lastmile_qr_scan", "android": "https://dc.lft.to/lastmile_qr_scan"}, "is_reserved": 0, "fusion_lon": 0.0, "fusion_lat": 0.0, "lon": -77.03730266666666, "name": "f83942e6f1332dfc46a7c1bb780173de"}, {"bike_id": "c99fa588b32371217c94fa6227933253", "type": "electric_scooter", "is_disabled": 0, "lat": 38.90571, "rental_uris": {"ios": "https://dc.lft.to/lastmile_qr_scan", "android": "https://dc.lft.to/lastmile_qr_scan"}, "is_reserved": 0, "fusion_lon": 0.0, "fusion_lat": 0.0, "lon": -76.97631666666666, "name": "c99fa588b32371217c94fa6227933253"}, {"bike_id": "94fc7869e81188ee58b66ef2cd11be75", "type": "electric_scooter", "is_disabled": 0, "lat": 38.9286045, "rental_uris": {"ios": "https://dc.lft.to/lastmile_qr_scan", "android": "https://dc.lft.to/lastmile_qr_scan"}, "is_reserved": 0, "fusion_lon": 0.0, "fusion_lat": 0.0, "lon": -77.054364, "name": "94fc7869e81188ee58b66ef2cd11be75"}, {"bike_id": "0e664ccccebb48cbc80810bd211867ba", "type": "electric_scooter", "is_disabled": 0, "lat": 38.8996265, "rental_uris": {"ios": "https://dc.lft.to/lastmile_qr_scan", "android": "https://dc.lft.to/lastmile_qr_scan"}, "is_reserved": 0, "fusion_lon": 0.0, "fusion_lat": 0.0, "lon": -76.92627866666666, "name": "0e664ccccebb48cbc80810bd211867ba"}, {"bike_id": "a5742bbb4454300819ec0c884786cbfa", "type": "electric_scooter", "is_disabled": 0, "lat": 38.89222616666667, "rental_uris": {"ios": "https://dc.lft.to/lastmile_qr_scan", "android": "https://dc.lft.to/lastmile_qr_scan"}, "is_reserved": 0, "fusion_lon": 0.0, "fusion_lat": 0.0, "lon": -77.03217466666666, "name": "a5742bbb4454300819ec0c884786cbfa"}, {"bike_id": "3943f2610bb9cec3e9a3702fb0dac256", "type": "electric_scooter", "is_disabled": 0, "lat": 38.924853, "rental_uris": {"ios": "https://dc.lft.to/lastmile_qr_scan", "android": "https://dc.lft.to/lastmile_qr_scan"}, "is_reserved": 0, "fusion_lon": 0.0, "fusion_lat": 0.0, "lon": -77.05751966666666, "name": "3943f2610bb9cec3e9a3702fb0dac256"}, {"bike_id": "617e80dfa3b2febb9d4a16be2a3d8cc3", "type": "electric_scooter", "is_disabled": 0, "lat": 38.9282635, "rental_uris": {"ios": "https://dc.lft.to/lastmile_qr_scan", "android": "https://dc.lft.to/lastmile_qr_scan"}, "is_reserved": 0, "fusion_lon": 0.0, "fusion_lat": 0.0, "lon": -77.04358916666666, "name": "617e80dfa3b2febb9d4a16be2a3d8cc3"}, {"bike_id": "983828889eb1a3c7b31c87067937e91c", "type": "electric_scooter", "is_disabled": 0, "lat": 38.8662725, "rental_uris": {"ios": "https://dc.lft.to/lastmile_qr_scan", "android": "https://dc.lft.to/lastmile_qr_scan"}, "is_reserved": 0, "fusion_lon": 0.0, "fusion_lat": 0.0, "lon": -76.98717966666666, "name": "983828889eb1a3c7b31c87067937e91c"}, {"bike_id": "a20e48adb6b94ff52c88773bbc436640", "type": "electric_scooter", "is_disabled": 0, "lat": 38.9147585, "rental_uris": {"ios": "https://dc.lft.to/lastmile_qr_scan", "android": "https://dc.lft.to/lastmile_qr_scan"}, "is_reserved": 0, "fusion_lon": 0.0, "fusion_lat": 0.0, "lon": -77.03205433333333, "name": "a20e48adb6b94ff52c88773bbc436640"}, {"bike_id": "ede1f50ceee5c7d733c397f1c8447825", "type": "electric_scooter", "is_disabled": 0, "lat": 38.91110783333333, "rental_uris": {"ios": "https://dc.lft.to/lastmile_qr_scan", "android": "https://dc.lft.to/lastmile_qr_scan"}, "is_reserved": 0, "fusion_lon": 0.0, "fusion_lat": 0.0, "lon": -77.0218215, "name": "ede1f50ceee5c7d733c397f1c8447825"}, {"bike_id": "dc3ac3953190d24bf76bada31a00a9fd", "type": "electric_scooter", "is_disabled": 0, "lat": 38.91593666666667, "rental_uris": {"ios": "https://dc.lft.to/lastmile_qr_scan", "android": "https://dc.lft.to/lastmile_qr_scan"}, "is_reserved": 0, "fusion_lon": 0.0, "fusion_lat": 0.0, "lon": -77.04525833333334, "name": "dc3ac3953190d24bf76bada31a00a9fd"}, {"bike_id": "d85765079fec2c1b47cbabc6019dc4a0", "type": "electric_scooter", "is_disabled": 0, "lat": 38.92703516666667, "rental_uris": {"ios": "https://dc.lft.to/lastmile_qr_scan", "android": "https://dc.lft.to/lastmile_qr_scan"}, "is_reserved": 0, "fusion_lon": 0.0, "fusion_lat": 0.0, "lon": -77.037366, "name": "d85765079fec2c1b47cbabc6019dc4a0"}, {"bike_id": "9814c70b6e482d139791eb1adb4931c0", "type": "electric_scooter", "is_disabled": 0, "lat": 38.90974533333333, "rental_uris": {"ios": "https://dc.lft.to/lastmile_qr_scan", "android": "https://dc.lft.to/lastmile_qr_scan"}, "is_reserved": 0, "fusion_lon": 0.0, "fusion_lat": 0.0, "lon": -77.033781, "name": "9814c70b6e482d139791eb1adb4931c0"}, {"bike_id": "df0c24ae028935f8cdd9b3dd7e94e0f3", "type": "electric_scooter", "is_disabled": 0, "lat": 38.8923635, "rental_uris": {"ios": "https://dc.lft.to/lastmile_qr_scan", "android": "https://dc.lft.to/lastmile_qr_scan"}, "is_reserved": 0, "fusion_lon": 0.0, "fusion_lat": 0.0, "lon": -77.02921383333333, "name": "df0c24ae028935f8cdd9b3dd7e94e0f3"}, {"bike_id": "7561c6621dc4f0ee99b5deafa4bef8f6", "type": "electric_scooter", "is_disabled": 0, "lat": 38.90531983333333, "rental_uris": {"ios": "https://dc.lft.to/lastmile_qr_scan", "android": "https://dc.lft.to/lastmile_qr_scan"}, "is_reserved": 0, "fusion_lon": 0.0, "fusion_lat": 0.0, "lon": -77.05680316666667, "name": "7561c6621dc4f0ee99b5deafa4bef8f6"}, {"bike_id": "64eda8e5f75c0e8820b3c9fea03729ea", "type": "electric_scooter", "is_disabled": 0, "lat": 38.9003275, "rental_uris": {"ios": "https://dc.lft.to/lastmile_qr_scan", "android": "https://dc.lft.to/lastmile_qr_scan"}, "is_reserved": 0, "fusion_lon": 0.0, "fusion_lat": 0.0, "lon": -77.001992, "name": "64eda8e5f75c0e8820b3c9fea03729ea"}, {"bike_id": "f12a15b4e02700d4a8471b96a39da245", "type": "electric_scooter", "is_disabled": 0, "lat": 38.89223066666667, "rental_uris": {"ios": "https://dc.lft.to/lastmile_qr_scan", "android": "https://dc.lft.to/lastmile_qr_scan"}, "is_reserved": 0, "fusion_lon": 0.0, "fusion_lat": 0.0, "lon": -77.04867116666667, "name": "f12a15b4e02700d4a8471b96a39da245"}, {"bike_id": "809f9b6db1faa45c0219e76f177e7c24", "type": "electric_scooter", "is_disabled": 0, "lat": 38.917556, "rental_uris": {"ios": "https://dc.lft.to/lastmile_qr_scan", "android": "https://dc.lft.to/lastmile_qr_scan"}, "is_reserved": 0, "fusion_lon": 0.0, "fusion_lat": 0.0, "lon": -77.03190116666667, "name": "809f9b6db1faa45c0219e76f177e7c24"}, {"bike_id": "96f30a5590d8472303ac38e4409e8560", "type": "electric_scooter", "is_disabled": 0, "lat": 38.92449833333333, "rental_uris": {"ios": "https://dc.lft.to/lastmile_qr_scan", "android": "https://dc.lft.to/lastmile_qr_scan"}, "is_reserved": 0, "fusion_lon": 0.0, "fusion_lat": 0.0, "lon": -77.03338666666667, "name": "96f30a5590d8472303ac38e4409e8560"}, {"bike_id": "23a884c91233884fbbee404dfd42a520", "type": "electric_bike", "is_disabled": 0, "lat": 38.7961185, "rental_uris": {"ios": "https://dc.lft.to/lastmile_qr_scan", "android": "https://dc.lft.to/lastmile_qr_scan"}, "is_reserved": 0, "fusion_lon": 0.0, "fusion_lat": 0.0, "lon": -76.99744183333334, "name": "23a884c91233884fbbee404dfd42a520"}, {"bike_id": "d02e4014f4ed001f4464489280a276ea", "type": "electric_scooter", "is_disabled": 0, "lat": 38.886784666666664, "rental_uris": {"ios": "https://dc.lft.to/lastmile_qr_scan", "android": "https://dc.lft.to/lastmile_qr_scan"}, "is_reserved": 0, "fusion_lon": 0.0, "fusion_lat": 0.0, "lon": -76.99136833333333, "name": "d02e4014f4ed001f4464489280a276ea"}, {"bike_id": "1bdbb5b9b076247646ee1dd28737e40a", "type": "electric_scooter", "is_disabled": 0, "lat": 38.86547816666667, "rental_uris": {"ios": "https://dc.lft.to/lastmile_qr_scan", "android": "https://dc.lft.to/lastmile_qr_scan"}, "is_reserved": 0, "fusion_lon": 0.0, "fusion_lat": 0.0, "lon": -76.970312, "name": "1bdbb5b9b076247646ee1dd28737e40a"}, {"bike_id": "4c19ffcae9fce257d3b41c70d761ba64", "type": "electric_bike", "is_disabled": 0, "lat": 39.039899, "rental_uris": {"ios": "https://dc.lft.to/lastmile_qr_scan", "android": "https://dc.lft.to/lastmile_qr_scan"}, "is_reserved": 0, "fusion_lon": 0.0, "fusion_lat": 0.0, "lon": -76.99921583333334, "name": "4c19ffcae9fce257d3b41c70d761ba64"}, {"bike_id": "1a721e7f9eeefbbb0bacb4f7a86ba935", "type": "electric_scooter", "is_disabled": 0, "lat": 38.9025755, "rental_uris": {"ios": "https://dc.lft.to/lastmile_qr_scan", "android": "https://dc.lft.to/lastmile_qr_scan"}, "is_reserved": 0, "fusion_lon": 0.0, "fusion_lat": 0.0, "lon": -76.97552083333333, "name": "1a721e7f9eeefbbb0bacb4f7a86ba935"}, {"bike_id": "2cca0f9b9ac1f4c1e7be8b5dc380ed6e", "type": "electric_scooter", "is_disabled": 0, "lat": 38.90065216666667, "rental_uris": {"ios": "https://dc.lft.to/lastmile_qr_scan", "android": "https://dc.lft.to/lastmile_qr_scan"}, "is_reserved": 0, "fusion_lon": 0.0, "fusion_lat": 0.0, "lon": -77.03643666666666, "name": "2cca0f9b9ac1f4c1e7be8b5dc380ed6e"}, {"bike_id": "1409fb967a116f323279c78969784f04", "type": "electric_scooter", "is_disabled": 0, "lat": 38.898324333333335, "rental_uris": {"ios": "https://dc.lft.to/lastmile_qr_scan", "android": "https://dc.lft.to/lastmile_qr_scan"}, "is_reserved": 0, "fusion_lon": 0.0, "fusion_lat": 0.0, "lon": -77.02809683333334, "name": "1409fb967a116f323279c78969784f04"}, {"bike_id": "187ca648cf765cfc314a9d2742e0b9aa", "type": "electric_scooter", "is_disabled": 0, "lat": 38.922168666666664, "rental_uris": {"ios": "https://dc.lft.to/lastmile_qr_scan", "android": "https://dc.lft.to/lastmile_qr_scan"}, "is_reserved": 0, "fusion_lon": 0.0, "fusion_lat": 0.0, "lon": -77.0346815, "name": "187ca648cf765cfc314a9d2742e0b9aa"}, {"bike_id": "ff00531509fd782d4dba8355fafb356e", "type": "electric_scooter", "is_disabled": 0, "lat": 38.908333, "rental_uris": {"ios": "https://dc.lft.to/lastmile_qr_scan", "android": "https://dc.lft.to/lastmile_qr_scan"}, "is_reserved": 0, "fusion_lon": 0.0, "fusion_lat": 0.0, "lon": -77.043516, "name": "ff00531509fd782d4dba8355fafb356e"}, {"bike_id": "b44baf8cb712a4da2102405d2740ae75", "type": "electric_scooter", "is_disabled": 0, "lat": 38.9049215, "rental_uris": {"ios": "https://dc.lft.to/lastmile_qr_scan", "android": "https://dc.lft.to/lastmile_qr_scan"}, "is_reserved": 0, "fusion_lon": 0.0, "fusion_lat": 0.0, "lon": -76.98688183333333, "name": "b44baf8cb712a4da2102405d2740ae75"}, {"bike_id": "3f1628c8a5b3c41094493934e3e13605", "type": "electric_scooter", "is_disabled": 0, "lat": 38.89731233333333, "rental_uris": {"ios": "https://dc.lft.to/lastmile_qr_scan", "android": "https://dc.lft.to/lastmile_qr_scan"}, "is_reserved": 0, "fusion_lon": 0.0, "fusion_lat": 0.0, "lon": -77.05474733333334, "name": "3f1628c8a5b3c41094493934e3e13605"}, {"bike_id": "d1525fc6a3d5ac600aad8ef16a71f145", "type": "electric_bike", "is_disabled": 0, "lat": 38.929167, "rental_uris": {"ios": "https://dc.lft.to/lastmile_qr_scan", "android": "https://dc.lft.to/lastmile_qr_scan"}, "is_reserved": 0, "fusion_lon": 0.0, "fusion_lat": 0.0, "lon": -77.03262483333333, "name": "d1525fc6a3d5ac600aad8ef16a71f145"}, {"bike_id": "70a307646aba5ce88e51c7a8ad691bcf", "type": "electric_scooter", "is_disabled": 0, "lat": 38.8998675, "rental_uris": {"ios": "https://dc.lft.to/lastmile_qr_scan", "android": "https://dc.lft.to/lastmile_qr_scan"}, "is_reserved": 0, "fusion_lon": 0.0, "fusion_lat": 0.0, "lon": -76.9881685, "name": "70a307646aba5ce88e51c7a8ad691bcf"}, {"bike_id": "d6b6fc06349b317cda5088597513e5dc", "type": "electric_scooter", "is_disabled": 0, "lat": 38.9614155, "rental_uris": {"ios": "https://dc.lft.to/lastmile_qr_scan", "android": "https://dc.lft.to/lastmile_qr_scan"}, "is_reserved": 0, "fusion_lon": 0.0, "fusion_lat": 0.0, "lon": -77.02991116666666, "name": "d6b6fc06349b317cda5088597513e5dc"}, {"bike_id": "8da457f5bd47e088005b651ddcef7b68", "type": "electric_scooter", "is_disabled": 0, "lat": 38.909584, "rental_uris": {"ios": "https://dc.lft.to/lastmile_qr_scan", "android": "https://dc.lft.to/lastmile_qr_scan"}, "is_reserved": 0, "fusion_lon": 0.0, "fusion_lat": 0.0, "lon": -77.026847, "name": "8da457f5bd47e088005b651ddcef7b68"}, {"bike_id": "78514c9e66f2ccf1b5e0ec1b0fd85393", "type": "electric_bike", "is_disabled": 0, "lat": 38.94475683333334, "rental_uris": {"ios": "https://dc.lft.to/lastmile_qr_scan", "android": "https://dc.lft.to/lastmile_qr_scan"}, "is_reserved": 0, "fusion_lon": 0.0, "fusion_lat": 0.0, "lon": -76.98688133333333, "name": "78514c9e66f2ccf1b5e0ec1b0fd85393"}, {"bike_id": "a0ebbd78d4ef298b74ad827f509b87bb", "type": "electric_scooter", "is_disabled": 0, "lat": 38.90412666666667, "rental_uris": {"ios": "https://dc.lft.to/lastmile_qr_scan", "android": "https://dc.lft.to/lastmile_qr_scan"}, "is_reserved": 0, "fusion_lon": 0.0, "fusion_lat": 0.0, "lon": -77.06889, "name": "a0ebbd78d4ef298b74ad827f509b87bb"}, {"bike_id": "bfd298adc8b11e313cc122d8bd4f7e52", "type": "electric_scooter", "is_disabled": 0, "lat": 38.91030216666667, "rental_uris": {"ios": "https://dc.lft.to/lastmile_qr_scan", "android": "https://dc.lft.to/lastmile_qr_scan"}, "is_reserved": 0, "fusion_lon": 0.0, "fusion_lat": 0.0, "lon": -76.98662316666666, "name": "bfd298adc8b11e313cc122d8bd4f7e52"}, {"bike_id": "1fdb8ae437f131fd1c75e408aa5ece39", "type": "electric_scooter", "is_disabled": 0, "lat": 38.909596666666665, "rental_uris": {"ios": "https://dc.lft.to/lastmile_qr_scan", "android": "https://dc.lft.to/lastmile_qr_scan"}, "is_reserved": 0, "fusion_lon": 0.0, "fusion_lat": 0.0, "lon": -77.04477566666667, "name": "1fdb8ae437f131fd1c75e408aa5ece39"}, {"bike_id": "5b639fee606239a2021f6a23a609931e", "type": "electric_scooter", "is_disabled": 0, "lat": 38.93439016666667, "rental_uris": {"ios": "https://dc.lft.to/lastmile_qr_scan", "android": "https://dc.lft.to/lastmile_qr_scan"}, "is_reserved": 0, "fusion_lon": 0.0, "fusion_lat": 0.0, "lon": -77.0725345, "name": "5b639fee606239a2021f6a23a609931e"}, {"bike_id": "bddf522074d64ada93818956e3250f96", "type": "electric_scooter", "is_disabled": 0, "lat": 38.923375, "rental_uris": {"ios": "https://dc.lft.to/lastmile_qr_scan", "android": "https://dc.lft.to/lastmile_qr_scan"}, "is_reserved": 0, "fusion_lon": 0.0, "fusion_lat": 0.0, "lon": -77.0361345, "name": "bddf522074d64ada93818956e3250f96"}, {"bike_id": "c3b408686a2b97c88c14a844ef7e688a", "type": "electric_scooter", "is_disabled": 0, "lat": 38.9136365, "rental_uris": {"ios": "https://dc.lft.to/lastmile_qr_scan", "android": "https://dc.lft.to/lastmile_qr_scan"}, "is_reserved": 0, "fusion_lon": 0.0, "fusion_lat": 0.0, "lon": -77.04569266666667, "name": "c3b408686a2b97c88c14a844ef7e688a"}, {"bike_id": "0cab20ed40ed5cdff4781febc108b8fd", "type": "electric_scooter", "is_disabled": 0, "lat": 38.8665935, "rental_uris": {"ios": "https://dc.lft.to/lastmile_qr_scan", "android": "https://dc.lft.to/lastmile_qr_scan"}, "is_reserved": 0, "fusion_lon": 0.0, "fusion_lat": 0.0, "lon": -76.98879166666667, "name": "0cab20ed40ed5cdff4781febc108b8fd"}, {"bike_id": "1d4f5e032ee21cac58b59469435aa891", "type": "electric_scooter", "is_disabled": 0, "lat": 38.929075833333336, "rental_uris": {"ios": "https://dc.lft.to/lastmile_qr_scan", "android": "https://dc.lft.to/lastmile_qr_scan"}, "is_reserved": 0, "fusion_lon": 0.0, "fusion_lat": 0.0, "lon": -77.02271233333333, "name": "1d4f5e032ee21cac58b59469435aa891"}, {"bike_id": "69d46ad6074516a532418650da0b6829", "type": "electric_scooter", "is_disabled": 0, "lat": 38.9004445, "rental_uris": {"ios": "https://dc.lft.to/lastmile_qr_scan", "android": "https://dc.lft.to/lastmile_qr_scan"}, "is_reserved": 0, "fusion_lon": 0.0, "fusion_lat": 0.0, "lon": -77.00739916666667, "name": "69d46ad6074516a532418650da0b6829"}, {"bike_id": "7af047dd09d19f9e0b82a8504e230473", "type": "electric_scooter", "is_disabled": 0, "lat": 38.90584283333333, "rental_uris": {"ios": "https://dc.lft.to/lastmile_qr_scan", "android": "https://dc.lft.to/lastmile_qr_scan"}, "is_reserved": 0, "fusion_lon": 0.0, "fusion_lat": 0.0, "lon": -77.06295716666666, "name": "7af047dd09d19f9e0b82a8504e230473"}, {"bike_id": "a4cf9ef0601faed4f1d1e7fabc4997a1", "type": "electric_scooter", "is_disabled": 0, "lat": 38.91694283333333, "rental_uris": {"ios": "https://dc.lft.to/lastmile_qr_scan", "android": "https://dc.lft.to/lastmile_qr_scan"}, "is_reserved": 0, "fusion_lon": 0.0, "fusion_lat": 0.0, "lon": -77.0349755, "name": "a4cf9ef0601faed4f1d1e7fabc4997a1"}, {"bike_id": "2153965f83f11402524ee5ecac9cf5f8", "type": "electric_scooter", "is_disabled": 0, "lat": 38.88412683333333, "rental_uris": {"ios": "https://dc.lft.to/lastmile_qr_scan", "android": "https://dc.lft.to/lastmile_qr_scan"}, "is_reserved": 0, "fusion_lon": 0.0, "fusion_lat": 0.0, "lon": -77.02580166666667, "name": "2153965f83f11402524ee5ecac9cf5f8"}, {"bike_id": "51ca4abdebf1c5d58a17feca8f1e57b8", "type": "electric_scooter", "is_disabled": 0, "lat": 38.9137455, "rental_uris": {"ios": "https://dc.lft.to/lastmile_qr_scan", "android": "https://dc.lft.to/lastmile_qr_scan"}, "is_reserved": 0, "fusion_lon": 0.0, "fusion_lat": 0.0, "lon": -77.03011166666667, "name": "51ca4abdebf1c5d58a17feca8f1e57b8"}, {"bike_id": "f680641ef38414f59920906e09ee4fd6", "type": "electric_scooter", "is_disabled": 0, "lat": 38.906020166666664, "rental_uris": {"ios": "https://dc.lft.to/lastmile_qr_scan", "android": "https://dc.lft.to/lastmile_qr_scan"}, "is_reserved": 0, "fusion_lon": 0.0, "fusion_lat": 0.0, "lon": -77.0629585, "name": "f680641ef38414f59920906e09ee4fd6"}, {"bike_id": "314e936580d4a0ffb42a299a7891e7a8", "type": "electric_scooter", "is_disabled": 0, "lat": 38.88855866666667, "rental_uris": {"ios": "https://dc.lft.to/lastmile_qr_scan", "android": "https://dc.lft.to/lastmile_qr_scan"}, "is_reserved": 0, "fusion_lon": 0.0, "fusion_lat": 0.0, "lon": -77.000533, "name": "314e936580d4a0ffb42a299a7891e7a8"}, {"bike_id": "e882341a932201bf7c45538a5bb721e1", "type": "electric_scooter", "is_disabled": 0, "lat": 38.84432233333333, "rental_uris": {"ios": "https://dc.lft.to/lastmile_qr_scan", "android": "https://dc.lft.to/lastmile_qr_scan"}, "is_reserved": 0, "fusion_lon": 0.0, "fusion_lat": 0.0, "lon": -76.99780183333333, "name": "e882341a932201bf7c45538a5bb721e1"}, {"bike_id": "289a6b8372433dc089c6dc917c71801e", "type": "electric_scooter", "is_disabled": 0, "lat": 38.90597016666667, "rental_uris": {"ios": "https://dc.lft.to/lastmile_qr_scan", "android": "https://dc.lft.to/lastmile_qr_scan"}, "is_reserved": 0, "fusion_lon": 0.0, "fusion_lat": 0.0, "lon": -77.03482783333334, "name": "289a6b8372433dc089c6dc917c71801e"}, {"bike_id": "6fdaf0423f9264d427017d522726245f", "type": "electric_bike", "is_disabled": 0, "lat": 39.04316716666667, "rental_uris": {"ios": "https://dc.lft.to/lastmile_qr_scan", "android": "https://dc.lft.to/lastmile_qr_scan"}, "is_reserved": 0, "fusion_lon": 0.0, "fusion_lat": 0.0, "lon": -77.05157166666666, "name": "6fdaf0423f9264d427017d522726245f"}, {"bike_id": "87b21925839457221621180bbd5f3835", "type": "electric_scooter", "is_disabled": 0, "lat": 38.932926333333334, "rental_uris": {"ios": "https://dc.lft.to/lastmile_qr_scan", "android": "https://dc.lft.to/lastmile_qr_scan"}, "is_reserved": 0, "fusion_lon": 0.0, "fusion_lat": 0.0, "lon": -77.03546383333334, "name": "87b21925839457221621180bbd5f3835"}, {"bike_id": "63c0571096550394511bb5a9bc948b09", "type": "electric_scooter", "is_disabled": 0, "lat": 38.92362516666667, "rental_uris": {"ios": "https://dc.lft.to/lastmile_qr_scan", "android": "https://dc.lft.to/lastmile_qr_scan"}, "is_reserved": 0, "fusion_lon": 0.0, "fusion_lat": 0.0, "lon": -77.052786, "name": "63c0571096550394511bb5a9bc948b09"}, {"bike_id": "03384ea6e556b7a1c308bc98e162c3df", "type": "electric_scooter", "is_disabled": 0, "lat": 38.871622333333335, "rental_uris": {"ios": "https://dc.lft.to/lastmile_qr_scan", "android": "https://dc.lft.to/lastmile_qr_scan"}, "is_reserved": 0, "fusion_lon": 0.0, "fusion_lat": 0.0, "lon": -77.0135035, "name": "03384ea6e556b7a1c308bc98e162c3df"}, {"bike_id": "a3d7632abc68763977496728937957e0", "type": "electric_bike", "is_disabled": 0, "lat": 38.82379433333333, "rental_uris": {"ios": "https://dc.lft.to/lastmile_qr_scan", "android": "https://dc.lft.to/lastmile_qr_scan"}, "is_reserved": 0, "fusion_lon": 0.0, "fusion_lat": 0.0, "lon": -77.002268, "name": "a3d7632abc68763977496728937957e0"}, {"bike_id": "66d79d9c2a205154d4aaed1112faa293", "type": "electric_scooter", "is_disabled": 0, "lat": 38.89358166666667, "rental_uris": {"ios": "https://dc.lft.to/lastmile_qr_scan", "android": "https://dc.lft.to/lastmile_qr_scan"}, "is_reserved": 0, "fusion_lon": 0.0, "fusion_lat": 0.0, "lon": -76.949343, "name": "66d79d9c2a205154d4aaed1112faa293"}, {"bike_id": "3086660330fc00507f6a31d5c5390434", "type": "electric_scooter", "is_disabled": 0, "lat": 38.89770583333333, "rental_uris": {"ios": "https://dc.lft.to/lastmile_qr_scan", "android": "https://dc.lft.to/lastmile_qr_scan"}, "is_reserved": 0, "fusion_lon": 0.0, "fusion_lat": 0.0, "lon": -77.0222175, "name": "3086660330fc00507f6a31d5c5390434"}, {"bike_id": "2aab228841d789f3ddf39ef150656b04", "type": "electric_scooter", "is_disabled": 0, "lat": 38.902398, "rental_uris": {"ios": "https://dc.lft.to/lastmile_qr_scan", "android": "https://dc.lft.to/lastmile_qr_scan"}, "is_reserved": 0, "fusion_lon": 0.0, "fusion_lat": 0.0, "lon": -77.04589266666666, "name": "2aab228841d789f3ddf39ef150656b04"}, {"bike_id": "c0ad6e955b71a7ab7d49b9c43dba46ca", "type": "electric_scooter", "is_disabled": 0, "lat": 38.8960645, "rental_uris": {"ios": "https://dc.lft.to/lastmile_qr_scan", "android": "https://dc.lft.to/lastmile_qr_scan"}, "is_reserved": 0, "fusion_lon": 0.0, "fusion_lat": 0.0, "lon": -77.0544175, "name": "c0ad6e955b71a7ab7d49b9c43dba46ca"}, {"bike_id": "11c6b8abee1d83065390f5f7dc4bd3d6", "type": "electric_scooter", "is_disabled": 0, "lat": 38.92006416666667, "rental_uris": {"ios": "https://dc.lft.to/lastmile_qr_scan", "android": "https://dc.lft.to/lastmile_qr_scan"}, "is_reserved": 0, "fusion_lon": 0.0, "fusion_lat": 0.0, "lon": -77.04177433333334, "name": "11c6b8abee1d83065390f5f7dc4bd3d6"}, {"bike_id": "91bb4d192a7c95c8b9a6468cb19a5f83", "type": "electric_scooter", "is_disabled": 0, "lat": 38.927997166666664, "rental_uris": {"ios": "https://dc.lft.to/lastmile_qr_scan", "android": "https://dc.lft.to/lastmile_qr_scan"}, "is_reserved": 0, "fusion_lon": 0.0, "fusion_lat": 0.0, "lon": -77.031951, "name": "91bb4d192a7c95c8b9a6468cb19a5f83"}, {"bike_id": "9989d7fbdcfe645cdab74e65042e9a72", "type": "electric_scooter", "is_disabled": 0, "lat": 38.9036255, "rental_uris": {"ios": "https://dc.lft.to/lastmile_qr_scan", "android": "https://dc.lft.to/lastmile_qr_scan"}, "is_reserved": 0, "fusion_lon": 0.0, "fusion_lat": 0.0, "lon": -76.99949433333333, "name": "9989d7fbdcfe645cdab74e65042e9a72"}, {"bike_id": "e16fc6a4b848ab1cdcffb5db62a96d96", "type": "electric_scooter", "is_disabled": 0, "lat": 38.91574133333334, "rental_uris": {"ios": "https://dc.lft.to/lastmile_qr_scan", "android": "https://dc.lft.to/lastmile_qr_scan"}, "is_reserved": 0, "fusion_lon": 0.0, "fusion_lat": 0.0, "lon": -77.05003683333334, "name": "e16fc6a4b848ab1cdcffb5db62a96d96"}, {"bike_id": "736ffbb9613d6ed547f691fafcff40d6", "type": "electric_scooter", "is_disabled": 0, "lat": 38.91406933333333, "rental_uris": {"ios": "https://dc.lft.to/lastmile_qr_scan", "android": "https://dc.lft.to/lastmile_qr_scan"}, "is_reserved": 0, "fusion_lon": 0.0, "fusion_lat": 0.0, "lon": -77.03174816666667, "name": "736ffbb9613d6ed547f691fafcff40d6"}, {"bike_id": "0f32f314fe90dcd713c137ac7dbd8533", "type": "electric_scooter", "is_disabled": 0, "lat": 38.889295833333335, "rental_uris": {"ios": "https://dc.lft.to/lastmile_qr_scan", "android": "https://dc.lft.to/lastmile_qr_scan"}, "is_reserved": 0, "fusion_lon": 0.0, "fusion_lat": 0.0, "lon": -76.9357505, "name": "0f32f314fe90dcd713c137ac7dbd8533"}, {"bike_id": "4554ec4bc711bb7e53c3f509432661f3", "type": "electric_scooter", "is_disabled": 0, "lat": 38.910592333333334, "rental_uris": {"ios": "https://dc.lft.to/lastmile_qr_scan", "android": "https://dc.lft.to/lastmile_qr_scan"}, "is_reserved": 0, "fusion_lon": 0.0, "fusion_lat": 0.0, "lon": -77.0415805, "name": "4554ec4bc711bb7e53c3f509432661f3"}, {"bike_id": "d5856b7d4c849a0c519cc2c4dda2a575", "type": "electric_scooter", "is_disabled": 0, "lat": 38.912807, "rental_uris": {"ios": "https://dc.lft.to/lastmile_qr_scan", "android": "https://dc.lft.to/lastmile_qr_scan"}, "is_reserved": 0, "fusion_lon": 0.0, "fusion_lat": 0.0, "lon": -77.02717066666666, "name": "d5856b7d4c849a0c519cc2c4dda2a575"}, {"bike_id": "0f922d92282be606c81198598bb01ca4", "type": "electric_scooter", "is_disabled": 0, "lat": 38.9157785, "rental_uris": {"ios": "https://dc.lft.to/lastmile_qr_scan", "android": "https://dc.lft.to/lastmile_qr_scan"}, "is_reserved": 0, "fusion_lon": 0.0, "fusion_lat": 0.0, "lon": -77.04504116666666, "name": "0f922d92282be606c81198598bb01ca4"}, {"bike_id": "1346cdada54f2ff00596938c31664468", "type": "electric_scooter", "is_disabled": 0, "lat": 38.86468716666667, "rental_uris": {"ios": "https://dc.lft.to/lastmile_qr_scan", "android": "https://dc.lft.to/lastmile_qr_scan"}, "is_reserved": 0, "fusion_lon": 0.0, "fusion_lat": 0.0, "lon": -76.97742483333333, "name": "1346cdada54f2ff00596938c31664468"}, {"bike_id": "00e9a240e582a6fd54972c81f3f0c054", "type": "electric_bike", "is_disabled": 0, "lat": 38.96958383333333, "rental_uris": {"ios": "https://dc.lft.to/lastmile_qr_scan", "android": "https://dc.lft.to/lastmile_qr_scan"}, "is_reserved": 0, "fusion_lon": 0.0, "fusion_lat": 0.0, "lon": -76.95749416666666, "name": "00e9a240e582a6fd54972c81f3f0c054"}, {"bike_id": "4d7f45cbe4d1dfb5e1b4c18d28ac589f", "type": "electric_scooter", "is_disabled": 0, "lat": 38.89223633333334, "rental_uris": {"ios": "https://dc.lft.to/lastmile_qr_scan", "android": "https://dc.lft.to/lastmile_qr_scan"}, "is_reserved": 0, "fusion_lon": 0.0, "fusion_lat": 0.0, "lon": -77.03221016666667, "name": "4d7f45cbe4d1dfb5e1b4c18d28ac589f"}, {"bike_id": "47f5dc7cd27121d0808b5dbc687d2e28", "type": "electric_scooter", "is_disabled": 0, "lat": 38.935460666666664, "rental_uris": {"ios": "https://dc.lft.to/lastmile_qr_scan", "android": "https://dc.lft.to/lastmile_qr_scan"}, "is_reserved": 0, "fusion_lon": 0.0, "fusion_lat": 0.0, "lon": -77.05855483333333, "name": "47f5dc7cd27121d0808b5dbc687d2e28"}, {"bike_id": "bb18c25e48d46305a40c6900768b9585", "type": "electric_scooter", "is_disabled": 0, "lat": 38.883027, "rental_uris": {"ios": "https://dc.lft.to/lastmile_qr_scan", "android": "https://dc.lft.to/lastmile_qr_scan"}, "is_reserved": 0, "fusion_lon": 0.0, "fusion_lat": 0.0, "lon": -76.948545, "name": "bb18c25e48d46305a40c6900768b9585"}, {"bike_id": "aec516bf26a93e154d1eca08bdde73f3", "type": "electric_scooter", "is_disabled": 0, "lat": 38.924673, "rental_uris": {"ios": "https://dc.lft.to/lastmile_qr_scan", "android": "https://dc.lft.to/lastmile_qr_scan"}, "is_reserved": 0, "fusion_lon": 0.0, "fusion_lat": 0.0, "lon": -77.0283765, "name": "aec516bf26a93e154d1eca08bdde73f3"}, {"bike_id": "2b4eae4603a42ec77f144b9f160b7069", "type": "electric_scooter", "is_disabled": 0, "lat": 38.902382, "rental_uris": {"ios": "https://dc.lft.to/lastmile_qr_scan", "android": "https://dc.lft.to/lastmile_qr_scan"}, "is_reserved": 0, "fusion_lon": 0.0, "fusion_lat": 0.0, "lon": -77.00197966666667, "name": "2b4eae4603a42ec77f144b9f160b7069"}, {"bike_id": "a7e04ab651873474702350eac2687def", "type": "electric_scooter", "is_disabled": 0, "lat": 38.923338666666666, "rental_uris": {"ios": "https://dc.lft.to/lastmile_qr_scan", "android": "https://dc.lft.to/lastmile_qr_scan"}, "is_reserved": 0, "fusion_lon": 0.0, "fusion_lat": 0.0, "lon": -77.0561155, "name": "a7e04ab651873474702350eac2687def"}, {"bike_id": "4d00684137165ffcf8b43835c73e0ef9", "type": "electric_scooter", "is_disabled": 0, "lat": 38.923418166666664, "rental_uris": {"ios": "https://dc.lft.to/lastmile_qr_scan", "android": "https://dc.lft.to/lastmile_qr_scan"}, "is_reserved": 0, "fusion_lon": 0.0, "fusion_lat": 0.0, "lon": -77.001933, "name": "4d00684137165ffcf8b43835c73e0ef9"}, {"bike_id": "56b50c7941fe2afbafc88f075b69e374", "type": "electric_scooter", "is_disabled": 0, "lat": 38.928390666666665, "rental_uris": {"ios": "https://dc.lft.to/lastmile_qr_scan", "android": "https://dc.lft.to/lastmile_qr_scan"}, "is_reserved": 0, "fusion_lon": 0.0, "fusion_lat": 0.0, "lon": -77.02752883333334, "name": "56b50c7941fe2afbafc88f075b69e374"}, {"bike_id": "3fa3f46ac238c04305b862505b5e1bfd", "type": "electric_scooter", "is_disabled": 0, "lat": 38.92913383333333, "rental_uris": {"ios": "https://dc.lft.to/lastmile_qr_scan", "android": "https://dc.lft.to/lastmile_qr_scan"}, "is_reserved": 0, "fusion_lon": 0.0, "fusion_lat": 0.0, "lon": -77.03759333333333, "name": "3fa3f46ac238c04305b862505b5e1bfd"}, {"bike_id": "beddc8d920a9fb39d82e73c0f6f4ba22", "type": "electric_bike", "is_disabled": 0, "lat": 38.8360845, "rental_uris": {"ios": "https://dc.lft.to/lastmile_qr_scan", "android": "https://dc.lft.to/lastmile_qr_scan"}, "is_reserved": 0, "fusion_lon": 0.0, "fusion_lat": 0.0, "lon": -77.00383583333333, "name": "beddc8d920a9fb39d82e73c0f6f4ba22"}, {"bike_id": "3d9b28ba399d5d2149bf9d3a5340d5db", "type": "electric_scooter", "is_disabled": 0, "lat": 38.889383, "rental_uris": {"ios": "https://dc.lft.to/lastmile_qr_scan", "android": "https://dc.lft.to/lastmile_qr_scan"}, "is_reserved": 0, "fusion_lon": 0.0, "fusion_lat": 0.0, "lon": -77.01505533333334, "name": "3d9b28ba399d5d2149bf9d3a5340d5db"}, {"bike_id": "1da3ed0243c45765b4e9e99ce72cbf26", "type": "electric_bike", "is_disabled": 0, "lat": 38.94895783333333, "rental_uris": {"ios": "https://dc.lft.to/lastmile_qr_scan", "android": "https://dc.lft.to/lastmile_qr_scan"}, "is_reserved": 0, "fusion_lon": 0.0, "fusion_lat": 0.0, "lon": -76.96379733333333, "name": "1da3ed0243c45765b4e9e99ce72cbf26"}, {"bike_id": "d22615d6518089c0a280273876f02ebb", "type": "electric_scooter", "is_disabled": 0, "lat": 38.905511833333335, "rental_uris": {"ios": "https://dc.lft.to/lastmile_qr_scan", "android": "https://dc.lft.to/lastmile_qr_scan"}, "is_reserved": 0, "fusion_lon": 0.0, "fusion_lat": 0.0, "lon": -76.99616966666666, "name": "d22615d6518089c0a280273876f02ebb"}, {"bike_id": "61c9acd8160082b23460cf5a24608187", "type": "electric_scooter", "is_disabled": 0, "lat": 38.91680616666667, "rental_uris": {"ios": "https://dc.lft.to/lastmile_qr_scan", "android": "https://dc.lft.to/lastmile_qr_scan"}, "is_reserved": 0, "fusion_lon": 0.0, "fusion_lat": 0.0, "lon": -77.02362483333333, "name": "61c9acd8160082b23460cf5a24608187"}, {"bike_id": "ced96b250578d98ee9135684b2df1775", "type": "electric_scooter", "is_disabled": 0, "lat": 38.90496566666667, "rental_uris": {"ios": "https://dc.lft.to/lastmile_qr_scan", "android": "https://dc.lft.to/lastmile_qr_scan"}, "is_reserved": 0, "fusion_lon": 0.0, "fusion_lat": 0.0, "lon": -77.02003016666667, "name": "ced96b250578d98ee9135684b2df1775"}, {"bike_id": "9e9f04c7eaebd23a39208b42c735a51a", "type": "electric_bike", "is_disabled": 0, "lat": 38.80414583333334, "rental_uris": {"ios": "https://dc.lft.to/lastmile_qr_scan", "android": "https://dc.lft.to/lastmile_qr_scan"}, "is_reserved": 0, "fusion_lon": 0.0, "fusion_lat": 0.0, "lon": -77.055528, "name": "9e9f04c7eaebd23a39208b42c735a51a"}, {"bike_id": "bbe9af0d9b032c193cbc779443298a28", "type": "electric_bike", "is_disabled": 0, "lat": 38.807074666666665, "rental_uris": {"ios": "https://dc.lft.to/lastmile_qr_scan", "android": "https://dc.lft.to/lastmile_qr_scan"}, "is_reserved": 0, "fusion_lon": 0.0, "fusion_lat": 0.0, "lon": -77.06178633333333, "name": "bbe9af0d9b032c193cbc779443298a28"}, {"bike_id": "ad119a8120f9ba4738e3dcb18fb61db5", "type": "electric_scooter", "is_disabled": 0, "lat": 38.9225425, "rental_uris": {"ios": "https://dc.lft.to/lastmile_qr_scan", "android": "https://dc.lft.to/lastmile_qr_scan"}, "is_reserved": 0, "fusion_lon": 0.0, "fusion_lat": 0.0, "lon": -77.03919483333334, "name": "ad119a8120f9ba4738e3dcb18fb61db5"}, {"bike_id": "5b4f7ffcbf2b8fc58b65a68c4260df15", "type": "electric_scooter", "is_disabled": 0, "lat": 38.89548033333333, "rental_uris": {"ios": "https://dc.lft.to/lastmile_qr_scan", "android": "https://dc.lft.to/lastmile_qr_scan"}, "is_reserved": 0, "fusion_lon": 0.0, "fusion_lat": 0.0, "lon": -77.011003, "name": "5b4f7ffcbf2b8fc58b65a68c4260df15"}, {"bike_id": "088e5c4192b9e8f305c5b0d175746ae9", "type": "electric_scooter", "is_disabled": 0, "lat": 38.88432016666667, "rental_uris": {"ios": "https://dc.lft.to/lastmile_qr_scan", "android": "https://dc.lft.to/lastmile_qr_scan"}, "is_reserved": 0, "fusion_lon": 0.0, "fusion_lat": 0.0, "lon": -76.95754833333334, "name": "088e5c4192b9e8f305c5b0d175746ae9"}, {"bike_id": "9162085b90ec12b0c8d8b5a1d9754c64", "type": "electric_scooter", "is_disabled": 0, "lat": 38.92287433333333, "rental_uris": {"ios": "https://dc.lft.to/lastmile_qr_scan", "android": "https://dc.lft.to/lastmile_qr_scan"}, "is_reserved": 0, "fusion_lon": 0.0, "fusion_lat": 0.0, "lon": -76.994569, "name": "9162085b90ec12b0c8d8b5a1d9754c64"}, {"bike_id": "9513306b7a4bdc82114aafcfd017a5ce", "type": "electric_bike", "is_disabled": 0, "lat": 38.956407, "rental_uris": {"ios": "https://dc.lft.to/lastmile_qr_scan", "android": "https://dc.lft.to/lastmile_qr_scan"}, "is_reserved": 0, "fusion_lon": 0.0, "fusion_lat": 0.0, "lon": -76.99796916666666, "name": "9513306b7a4bdc82114aafcfd017a5ce"}, {"bike_id": "aa93c7b06f4f4ed4924859309c8a3d1c", "type": "electric_scooter", "is_disabled": 0, "lat": 38.929117166666664, "rental_uris": {"ios": "https://dc.lft.to/lastmile_qr_scan", "android": "https://dc.lft.to/lastmile_qr_scan"}, "is_reserved": 0, "fusion_lon": 0.0, "fusion_lat": 0.0, "lon": -77.03262033333333, "name": "aa93c7b06f4f4ed4924859309c8a3d1c"}, {"bike_id": "fab46d22b0ae641662042bbdcb738aca", "type": "electric_scooter", "is_disabled": 0, "lat": 38.896307166666666, "rental_uris": {"ios": "https://dc.lft.to/lastmile_qr_scan", "android": "https://dc.lft.to/lastmile_qr_scan"}, "is_reserved": 0, "fusion_lon": 0.0, "fusion_lat": 0.0, "lon": -77.0329195, "name": "fab46d22b0ae641662042bbdcb738aca"}, {"bike_id": "985c9f475196922b67ca65c2783b980c", "type": "electric_scooter", "is_disabled": 0, "lat": 38.9051355, "rental_uris": {"ios": "https://dc.lft.to/lastmile_qr_scan", "android": "https://dc.lft.to/lastmile_qr_scan"}, "is_reserved": 0, "fusion_lon": 0.0, "fusion_lat": 0.0, "lon": -77.04346766666667, "name": "985c9f475196922b67ca65c2783b980c"}, {"bike_id": "5ad6ac5b80278a705fc8d760d132de1f", "type": "electric_scooter", "is_disabled": 0, "lat": 38.9009595, "rental_uris": {"ios": "https://dc.lft.to/lastmile_qr_scan", "android": "https://dc.lft.to/lastmile_qr_scan"}, "is_reserved": 0, "fusion_lon": 0.0, "fusion_lat": 0.0, "lon": -77.02470283333334, "name": "5ad6ac5b80278a705fc8d760d132de1f"}, {"bike_id": "b063140a28c0835050fa21dac2c9c0b2", "type": "electric_scooter", "is_disabled": 0, "lat": 38.91566433333333, "rental_uris": {"ios": "https://dc.lft.to/lastmile_qr_scan", "android": "https://dc.lft.to/lastmile_qr_scan"}, "is_reserved": 0, "fusion_lon": 0.0, "fusion_lat": 0.0, "lon": -77.03164283333334, "name": "b063140a28c0835050fa21dac2c9c0b2"}, {"bike_id": "8f4942cd9275076e33d97aa8d7747a98", "type": "electric_scooter", "is_disabled": 0, "lat": 38.92356516666667, "rental_uris": {"ios": "https://dc.lft.to/lastmile_qr_scan", "android": "https://dc.lft.to/lastmile_qr_scan"}, "is_reserved": 0, "fusion_lon": 0.0, "fusion_lat": 0.0, "lon": -77.041392, "name": "8f4942cd9275076e33d97aa8d7747a98"}, {"bike_id": "88c14ba7cc708f2046a337cb0c5fb3c8", "type": "electric_bike", "is_disabled": 0, "lat": 39.0137385, "rental_uris": {"ios": "https://dc.lft.to/lastmile_qr_scan", "android": "https://dc.lft.to/lastmile_qr_scan"}, "is_reserved": 0, "fusion_lon": 0.0, "fusion_lat": 0.0, "lon": -76.9213755, "name": "88c14ba7cc708f2046a337cb0c5fb3c8"}, {"bike_id": "9a1eb1a72deb331d4b845e2103d3dce8", "type": "electric_scooter", "is_disabled": 0, "lat": 38.91015816666667, "rental_uris": {"ios": "https://dc.lft.to/lastmile_qr_scan", "android": "https://dc.lft.to/lastmile_qr_scan"}, "is_reserved": 0, "fusion_lon": 0.0, "fusion_lat": 0.0, "lon": -77.03444716666667, "name": "9a1eb1a72deb331d4b845e2103d3dce8"}, {"bike_id": "59fa23caa18943adff890f0f381e8093", "type": "electric_scooter", "is_disabled": 0, "lat": 38.92282333333333, "rental_uris": {"ios": "https://dc.lft.to/lastmile_qr_scan", "android": "https://dc.lft.to/lastmile_qr_scan"}, "is_reserved": 0, "fusion_lon": 0.0, "fusion_lat": 0.0, "lon": -77.02245316666666, "name": "59fa23caa18943adff890f0f381e8093"}, {"bike_id": "6a34d7d0b87a3d038303cdedaea71c21", "type": "electric_scooter", "is_disabled": 0, "lat": 38.924510833333336, "rental_uris": {"ios": "https://dc.lft.to/lastmile_qr_scan", "android": "https://dc.lft.to/lastmile_qr_scan"}, "is_reserved": 0, "fusion_lon": 0.0, "fusion_lat": 0.0, "lon": -77.0397725, "name": "6a34d7d0b87a3d038303cdedaea71c21"}, {"bike_id": "99daa230c4a4139c4c9db77ebc589717", "type": "electric_scooter", "is_disabled": 0, "lat": 38.9066495, "rental_uris": {"ios": "https://dc.lft.to/lastmile_qr_scan", "android": "https://dc.lft.to/lastmile_qr_scan"}, "is_reserved": 0, "fusion_lon": 0.0, "fusion_lat": 0.0, "lon": -77.00564383333334, "name": "99daa230c4a4139c4c9db77ebc589717"}, {"bike_id": "7238620caf3db863ebda8790f7cbfbda", "type": "electric_scooter", "is_disabled": 0, "lat": 38.866775833333335, "rental_uris": {"ios": "https://dc.lft.to/lastmile_qr_scan", "android": "https://dc.lft.to/lastmile_qr_scan"}, "is_reserved": 0, "fusion_lon": 0.0, "fusion_lat": 0.0, "lon": -76.9852685, "name": "7238620caf3db863ebda8790f7cbfbda"}, {"bike_id": "2d9e5206f706ec11f8a965b60fb05f11", "type": "electric_scooter", "is_disabled": 0, "lat": 38.92402416666667, "rental_uris": {"ios": "https://dc.lft.to/lastmile_qr_scan", "android": "https://dc.lft.to/lastmile_qr_scan"}, "is_reserved": 0, "fusion_lon": 0.0, "fusion_lat": 0.0, "lon": -77.05065466666667, "name": "2d9e5206f706ec11f8a965b60fb05f11"}, {"bike_id": "7cabe244a0a929ece61da558570356eb", "type": "electric_scooter", "is_disabled": 0, "lat": 38.882658166666666, "rental_uris": {"ios": "https://dc.lft.to/lastmile_qr_scan", "android": "https://dc.lft.to/lastmile_qr_scan"}, "is_reserved": 0, "fusion_lon": 0.0, "fusion_lat": 0.0, "lon": -76.99502016666666, "name": "7cabe244a0a929ece61da558570356eb"}, {"bike_id": "6bc52abc328e71d5a1949c3c084e665b", "type": "electric_scooter", "is_disabled": 0, "lat": 38.947426666666665, "rental_uris": {"ios": "https://dc.lft.to/lastmile_qr_scan", "android": "https://dc.lft.to/lastmile_qr_scan"}, "is_reserved": 0, "fusion_lon": 0.0, "fusion_lat": 0.0, "lon": -77.06524416666667, "name": "6bc52abc328e71d5a1949c3c084e665b"}, {"bike_id": "7b231f0ccac4fc2b973382fa986602a9", "type": "electric_scooter", "is_disabled": 0, "lat": 38.925271333333335, "rental_uris": {"ios": "https://dc.lft.to/lastmile_qr_scan", "android": "https://dc.lft.to/lastmile_qr_scan"}, "is_reserved": 0, "fusion_lon": 0.0, "fusion_lat": 0.0, "lon": -77.04134116666667, "name": "7b231f0ccac4fc2b973382fa986602a9"}, {"bike_id": "158c5fbea77a7328c45fba79b989eae9", "type": "electric_scooter", "is_disabled": 0, "lat": 38.91110033333333, "rental_uris": {"ios": "https://dc.lft.to/lastmile_qr_scan", "android": "https://dc.lft.to/lastmile_qr_scan"}, "is_reserved": 0, "fusion_lon": 0.0, "fusion_lat": 0.0, "lon": -77.02445916666667, "name": "158c5fbea77a7328c45fba79b989eae9"}, {"bike_id": "40ebf8e201e6bf7f755be4e8324f885b", "type": "electric_scooter", "is_disabled": 0, "lat": 38.92783516666667, "rental_uris": {"ios": "https://dc.lft.to/lastmile_qr_scan", "android": "https://dc.lft.to/lastmile_qr_scan"}, "is_reserved": 0, "fusion_lon": 0.0, "fusion_lat": 0.0, "lon": -77.05267216666667, "name": "40ebf8e201e6bf7f755be4e8324f885b"}, {"bike_id": "bab5712a5b8aa1bfd99ef16aec341dc6", "type": "electric_scooter", "is_disabled": 0, "lat": 38.94712166666667, "rental_uris": {"ios": "https://dc.lft.to/lastmile_qr_scan", "android": "https://dc.lft.to/lastmile_qr_scan"}, "is_reserved": 0, "fusion_lon": 0.0, "fusion_lat": 0.0, "lon": -77.0277945, "name": "bab5712a5b8aa1bfd99ef16aec341dc6"}, {"bike_id": "62447a5419b6a8f9cef1a4737cfaa7eb", "type": "electric_scooter", "is_disabled": 0, "lat": 38.903777, "rental_uris": {"ios": "https://dc.lft.to/lastmile_qr_scan", "android": "https://dc.lft.to/lastmile_qr_scan"}, "is_reserved": 0, "fusion_lon": 0.0, "fusion_lat": 0.0, "lon": -77.008821, "name": "62447a5419b6a8f9cef1a4737cfaa7eb"}, {"bike_id": "ac0dd9cd8a8fe4d131c4c9b81ada0a2b", "type": "electric_scooter", "is_disabled": 0, "lat": 38.8620885, "rental_uris": {"ios": "https://dc.lft.to/lastmile_qr_scan", "android": "https://dc.lft.to/lastmile_qr_scan"}, "is_reserved": 0, "fusion_lon": 0.0, "fusion_lat": 0.0, "lon": -76.994679, "name": "ac0dd9cd8a8fe4d131c4c9b81ada0a2b"}, {"bike_id": "b5d41778bb9d831b9f7f236e6f190c30", "type": "electric_scooter", "is_disabled": 0, "lat": 38.866971666666664, "rental_uris": {"ios": "https://dc.lft.to/lastmile_qr_scan", "android": "https://dc.lft.to/lastmile_qr_scan"}, "is_reserved": 0, "fusion_lon": 0.0, "fusion_lat": 0.0, "lon": -76.98711666666667, "name": "b5d41778bb9d831b9f7f236e6f190c30"}, {"bike_id": "0c1000deafaac610cee03a5975a6bd22", "type": "electric_scooter", "is_disabled": 0, "lat": 38.918333833333335, "rental_uris": {"ios": "https://dc.lft.to/lastmile_qr_scan", "android": "https://dc.lft.to/lastmile_qr_scan"}, "is_reserved": 0, "fusion_lon": 0.0, "fusion_lat": 0.0, "lon": -77.04561433333333, "name": "0c1000deafaac610cee03a5975a6bd22"}, {"bike_id": "c6cad730e93a39fae7a6823821fe8004", "type": "electric_scooter", "is_disabled": 0, "lat": 38.92511733333333, "rental_uris": {"ios": "https://dc.lft.to/lastmile_qr_scan", "android": "https://dc.lft.to/lastmile_qr_scan"}, "is_reserved": 0, "fusion_lon": 0.0, "fusion_lat": 0.0, "lon": -77.00885833333334, "name": "c6cad730e93a39fae7a6823821fe8004"}, {"bike_id": "fd252db351ac04c6d4b24b4af62dd06e", "type": "electric_scooter", "is_disabled": 0, "lat": 38.9133415, "rental_uris": {"ios": "https://dc.lft.to/lastmile_qr_scan", "android": "https://dc.lft.to/lastmile_qr_scan"}, "is_reserved": 0, "fusion_lon": 0.0, "fusion_lat": 0.0, "lon": -77.03175416666667, "name": "fd252db351ac04c6d4b24b4af62dd06e"}, {"bike_id": "e9199fda6f1ba8c547b1f8b823673bfe", "type": "electric_scooter", "is_disabled": 0, "lat": 38.908501, "rental_uris": {"ios": "https://dc.lft.to/lastmile_qr_scan", "android": "https://dc.lft.to/lastmile_qr_scan"}, "is_reserved": 0, "fusion_lon": 0.0, "fusion_lat": 0.0, "lon": -76.99963033333333, "name": "e9199fda6f1ba8c547b1f8b823673bfe"}, {"bike_id": "6b4ee49dad57702c08b00319f60dc75c", "type": "electric_scooter", "is_disabled": 0, "lat": 38.926729, "rental_uris": {"ios": "https://dc.lft.to/lastmile_qr_scan", "android": "https://dc.lft.to/lastmile_qr_scan"}, "is_reserved": 0, "fusion_lon": 0.0, "fusion_lat": 0.0, "lon": -77.04360166666666, "name": "6b4ee49dad57702c08b00319f60dc75c"}, {"bike_id": "48754bebb4886b76a775d95e800db297", "type": "electric_scooter", "is_disabled": 0, "lat": 38.8954895, "rental_uris": {"ios": "https://dc.lft.to/lastmile_qr_scan", "android": "https://dc.lft.to/lastmile_qr_scan"}, "is_reserved": 0, "fusion_lon": 0.0, "fusion_lat": 0.0, "lon": -76.9294895, "name": "48754bebb4886b76a775d95e800db297"}, {"bike_id": "721d362e064e0bcd8c54c59ac3f89500", "type": "electric_scooter", "is_disabled": 0, "lat": 38.92050533333333, "rental_uris": {"ios": "https://dc.lft.to/lastmile_qr_scan", "android": "https://dc.lft.to/lastmile_qr_scan"}, "is_reserved": 0, "fusion_lon": 0.0, "fusion_lat": 0.0, "lon": -77.03385916666667, "name": "721d362e064e0bcd8c54c59ac3f89500"}, {"bike_id": "62a4341bb3fd2dfe1fa93e784f73930d", "type": "electric_scooter", "is_disabled": 0, "lat": 38.872930833333335, "rental_uris": {"ios": "https://dc.lft.to/lastmile_qr_scan", "android": "https://dc.lft.to/lastmile_qr_scan"}, "is_reserved": 0, "fusion_lon": 0.0, "fusion_lat": 0.0, "lon": -76.97731866666666, "name": "62a4341bb3fd2dfe1fa93e784f73930d"}, {"bike_id": "c975b45f09c91649c213cc7fd511ef3c", "type": "electric_scooter", "is_disabled": 0, "lat": 38.905679666666664, "rental_uris": {"ios": "https://dc.lft.to/lastmile_qr_scan", "android": "https://dc.lft.to/lastmile_qr_scan"}, "is_reserved": 0, "fusion_lon": 0.0, "fusion_lat": 0.0, "lon": -76.98147666666667, "name": "c975b45f09c91649c213cc7fd511ef3c"}, {"bike_id": "f96dd5bb77ec38deea0d5c7487be880c", "type": "electric_scooter", "is_disabled": 0, "lat": 38.8949895, "rental_uris": {"ios": "https://dc.lft.to/lastmile_qr_scan", "android": "https://dc.lft.to/lastmile_qr_scan"}, "is_reserved": 0, "fusion_lon": 0.0, "fusion_lat": 0.0, "lon": -77.00059333333333, "name": "f96dd5bb77ec38deea0d5c7487be880c"}, {"bike_id": "5277f3a1127b60c26f077f87f749d549", "type": "electric_scooter", "is_disabled": 0, "lat": 38.91139016666666, "rental_uris": {"ios": "https://dc.lft.to/lastmile_qr_scan", "android": "https://dc.lft.to/lastmile_qr_scan"}, "is_reserved": 0, "fusion_lon": 0.0, "fusion_lat": 0.0, "lon": -77.06526666666667, "name": "5277f3a1127b60c26f077f87f749d549"}, {"bike_id": "3d7115d8de68bcd8af6fbf027f9215dd", "type": "electric_bike", "is_disabled": 0, "lat": 38.857892166666666, "rental_uris": {"ios": "https://dc.lft.to/lastmile_qr_scan", "android": "https://dc.lft.to/lastmile_qr_scan"}, "is_reserved": 0, "fusion_lon": 0.0, "fusion_lat": 0.0, "lon": -77.12017183333333, "name": "3d7115d8de68bcd8af6fbf027f9215dd"}, {"bike_id": "62863a6e62426e706475ab0b00463059", "type": "electric_scooter", "is_disabled": 0, "lat": 38.88401783333333, "rental_uris": {"ios": "https://dc.lft.to/lastmile_qr_scan", "android": "https://dc.lft.to/lastmile_qr_scan"}, "is_reserved": 0, "fusion_lon": 0.0, "fusion_lat": 0.0, "lon": -77.0321065, "name": "62863a6e62426e706475ab0b00463059"}, {"bike_id": "eb5e6e8e5d30d9d78f04968b5a055b12", "type": "electric_scooter", "is_disabled": 0, "lat": 38.93291133333334, "rental_uris": {"ios": "https://dc.lft.to/lastmile_qr_scan", "android": "https://dc.lft.to/lastmile_qr_scan"}, "is_reserved": 0, "fusion_lon": 0.0, "fusion_lat": 0.0, "lon": -77.04126366666667, "name": "eb5e6e8e5d30d9d78f04968b5a055b12"}, {"bike_id": "1481bb3d251ff177fc44c3e8edd444aa", "type": "electric_scooter", "is_disabled": 0, "lat": 38.922322333333334, "rental_uris": {"ios": "https://dc.lft.to/lastmile_qr_scan", "android": "https://dc.lft.to/lastmile_qr_scan"}, "is_reserved": 0, "fusion_lon": 0.0, "fusion_lat": 0.0, "lon": -76.97531816666667, "name": "1481bb3d251ff177fc44c3e8edd444aa"}, {"bike_id": "9594b6407becc2ded0ec6c79ec74581c", "type": "electric_bike", "is_disabled": 0, "lat": 39.051073833333334, "rental_uris": {"ios": "https://dc.lft.to/lastmile_qr_scan", "android": "https://dc.lft.to/lastmile_qr_scan"}, "is_reserved": 0, "fusion_lon": 0.0, "fusion_lat": 0.0, "lon": -77.11743783333333, "name": "9594b6407becc2ded0ec6c79ec74581c"}, {"bike_id": "abdf18d3637d0829f6181d5837f0be73", "type": "electric_scooter", "is_disabled": 0, "lat": 38.876604, "rental_uris": {"ios": "https://dc.lft.to/lastmile_qr_scan", "android": "https://dc.lft.to/lastmile_qr_scan"}, "is_reserved": 0, "fusion_lon": 0.0, "fusion_lat": 0.0, "lon": -76.99641183333334, "name": "abdf18d3637d0829f6181d5837f0be73"}, {"bike_id": "c95d6112da133c9d973580bba2cc5b76", "type": "electric_scooter", "is_disabled": 0, "lat": 38.880058, "rental_uris": {"ios": "https://dc.lft.to/lastmile_qr_scan", "android": "https://dc.lft.to/lastmile_qr_scan"}, "is_reserved": 0, "fusion_lon": 0.0, "fusion_lat": 0.0, "lon": -76.996141, "name": "c95d6112da133c9d973580bba2cc5b76"}, {"bike_id": "6810cf6be5648c0105be6fa30a28e2c6", "type": "electric_scooter", "is_disabled": 0, "lat": 38.9332285, "rental_uris": {"ios": "https://dc.lft.to/lastmile_qr_scan", "android": "https://dc.lft.to/lastmile_qr_scan"}, "is_reserved": 0, "fusion_lon": 0.0, "fusion_lat": 0.0, "lon": -77.02757633333333, "name": "6810cf6be5648c0105be6fa30a28e2c6"}, {"bike_id": "dc0b20659216c2dc803448a868d86dd7", "type": "electric_scooter", "is_disabled": 0, "lat": 38.91977883333333, "rental_uris": {"ios": "https://dc.lft.to/lastmile_qr_scan", "android": "https://dc.lft.to/lastmile_qr_scan"}, "is_reserved": 0, "fusion_lon": 0.0, "fusion_lat": 0.0, "lon": -77.04235133333333, "name": "dc0b20659216c2dc803448a868d86dd7"}, {"bike_id": "d89f643834f730837a6e2aaf87e6ebf8", "type": "electric_scooter", "is_disabled": 0, "lat": 38.92095066666667, "rental_uris": {"ios": "https://dc.lft.to/lastmile_qr_scan", "android": "https://dc.lft.to/lastmile_qr_scan"}, "is_reserved": 0, "fusion_lon": 0.0, "fusion_lat": 0.0, "lon": -77.01684933333334, "name": "d89f643834f730837a6e2aaf87e6ebf8"}, {"bike_id": "7a4a56b10fafe4ffc8c6fad48c2bd459", "type": "electric_scooter", "is_disabled": 0, "lat": 38.8997005, "rental_uris": {"ios": "https://dc.lft.to/lastmile_qr_scan", "android": "https://dc.lft.to/lastmile_qr_scan"}, "is_reserved": 0, "fusion_lon": 0.0, "fusion_lat": 0.0, "lon": -77.02070416666666, "name": "7a4a56b10fafe4ffc8c6fad48c2bd459"}, {"bike_id": "6a1fa1fec7dbfde7d40f0ded9091b231", "type": "electric_scooter", "is_disabled": 0, "lat": 38.8972335, "rental_uris": {"ios": "https://dc.lft.to/lastmile_qr_scan", "android": "https://dc.lft.to/lastmile_qr_scan"}, "is_reserved": 0, "fusion_lon": 0.0, "fusion_lat": 0.0, "lon": -77.00921483333333, "name": "6a1fa1fec7dbfde7d40f0ded9091b231"}, {"bike_id": "53c3a9a72e0bf1b5d6da9a6ee6e018a5", "type": "electric_scooter", "is_disabled": 0, "lat": 38.930925, "rental_uris": {"ios": "https://dc.lft.to/lastmile_qr_scan", "android": "https://dc.lft.to/lastmile_qr_scan"}, "is_reserved": 0, "fusion_lon": 0.0, "fusion_lat": 0.0, "lon": -77.0344215, "name": "53c3a9a72e0bf1b5d6da9a6ee6e018a5"}, {"bike_id": "f0a47a6d189ed02c19056e959c5ba448", "type": "electric_scooter", "is_disabled": 0, "lat": 38.9050405, "rental_uris": {"ios": "https://dc.lft.to/lastmile_qr_scan", "android": "https://dc.lft.to/lastmile_qr_scan"}, "is_reserved": 0, "fusion_lon": 0.0, "fusion_lat": 0.0, "lon": -77.01982616666666, "name": "f0a47a6d189ed02c19056e959c5ba448"}, {"bike_id": "da8c72aa7392a08c48c11b0604e2b068", "type": "electric_scooter", "is_disabled": 0, "lat": 38.915764, "rental_uris": {"ios": "https://dc.lft.to/lastmile_qr_scan", "android": "https://dc.lft.to/lastmile_qr_scan"}, "is_reserved": 0, "fusion_lon": 0.0, "fusion_lat": 0.0, "lon": -77.02000783333334, "name": "da8c72aa7392a08c48c11b0604e2b068"}, {"bike_id": "4346dc750a899bfe880483d99bb67d83", "type": "electric_scooter", "is_disabled": 0, "lat": 38.91030133333334, "rental_uris": {"ios": "https://dc.lft.to/lastmile_qr_scan", "android": "https://dc.lft.to/lastmile_qr_scan"}, "is_reserved": 0, "fusion_lon": 0.0, "fusion_lat": 0.0, "lon": -77.0383725, "name": "4346dc750a899bfe880483d99bb67d83"}, {"bike_id": "673b948372b01f84fe9911138d683c4f", "type": "electric_scooter", "is_disabled": 0, "lat": 38.92904466666667, "rental_uris": {"ios": "https://dc.lft.to/lastmile_qr_scan", "android": "https://dc.lft.to/lastmile_qr_scan"}, "is_reserved": 0, "fusion_lon": 0.0, "fusion_lat": 0.0, "lon": -77.03263033333333, "name": "673b948372b01f84fe9911138d683c4f"}, {"bike_id": "9309332b025ae265d06adeed8cbd95ff", "type": "electric_scooter", "is_disabled": 0, "lat": 38.917526333333335, "rental_uris": {"ios": "https://dc.lft.to/lastmile_qr_scan", "android": "https://dc.lft.to/lastmile_qr_scan"}, "is_reserved": 0, "fusion_lon": 0.0, "fusion_lat": 0.0, "lon": -77.02813116666667, "name": "9309332b025ae265d06adeed8cbd95ff"}, {"bike_id": "777e67b78322606abed4ed72fd395632", "type": "electric_scooter", "is_disabled": 0, "lat": 38.90039633333333, "rental_uris": {"ios": "https://dc.lft.to/lastmile_qr_scan", "android": "https://dc.lft.to/lastmile_qr_scan"}, "is_reserved": 0, "fusion_lon": 0.0, "fusion_lat": 0.0, "lon": -77.0331155, "name": "777e67b78322606abed4ed72fd395632"}, {"bike_id": "dfe6b7bec8c677991502bb8aef26603e", "type": "electric_bike", "is_disabled": 0, "lat": 38.87882783333333, "rental_uris": {"ios": "https://dc.lft.to/lastmile_qr_scan", "android": "https://dc.lft.to/lastmile_qr_scan"}, "is_reserved": 0, "fusion_lon": 0.0, "fusion_lat": 0.0, "lon": -77.09609183333333, "name": "dfe6b7bec8c677991502bb8aef26603e"}, {"bike_id": "f054e894b36ccf04376d46b73716e9a0", "type": "electric_scooter", "is_disabled": 0, "lat": 38.91538533333333, "rental_uris": {"ios": "https://dc.lft.to/lastmile_qr_scan", "android": "https://dc.lft.to/lastmile_qr_scan"}, "is_reserved": 0, "fusion_lon": 0.0, "fusion_lat": 0.0, "lon": -77.04603016666667, "name": "f054e894b36ccf04376d46b73716e9a0"}, {"bike_id": "5c5362bf92adf0c6ec31faec32560143", "type": "electric_scooter", "is_disabled": 0, "lat": 38.906862, "rental_uris": {"ios": "https://dc.lft.to/lastmile_qr_scan", "android": "https://dc.lft.to/lastmile_qr_scan"}, "is_reserved": 0, "fusion_lon": 0.0, "fusion_lat": 0.0, "lon": -77.06335583333333, "name": "5c5362bf92adf0c6ec31faec32560143"}, {"bike_id": "b52857fe4d3de9f3b93adbcb98efed18", "type": "electric_scooter", "is_disabled": 0, "lat": 38.908541666666665, "rental_uris": {"ios": "https://dc.lft.to/lastmile_qr_scan", "android": "https://dc.lft.to/lastmile_qr_scan"}, "is_reserved": 0, "fusion_lon": 0.0, "fusion_lat": 0.0, "lon": -77.05567216666667, "name": "b52857fe4d3de9f3b93adbcb98efed18"}, {"bike_id": "fa9ed080dbb4b008d0e766375450815c", "type": "electric_scooter", "is_disabled": 0, "lat": 38.91530916666667, "rental_uris": {"ios": "https://dc.lft.to/lastmile_qr_scan", "android": "https://dc.lft.to/lastmile_qr_scan"}, "is_reserved": 0, "fusion_lon": 0.0, "fusion_lat": 0.0, "lon": -77.02002483333334, "name": "fa9ed080dbb4b008d0e766375450815c"}, {"bike_id": "fc5ba8be8e3a5e1ee333361574cca57e", "type": "electric_scooter", "is_disabled": 0, "lat": 38.90821733333333, "rental_uris": {"ios": "https://dc.lft.to/lastmile_qr_scan", "android": "https://dc.lft.to/lastmile_qr_scan"}, "is_reserved": 0, "fusion_lon": 0.0, "fusion_lat": 0.0, "lon": -77.0238, "name": "fc5ba8be8e3a5e1ee333361574cca57e"}, {"bike_id": "3f765f28c724134e6c81f8b1d3fdbc15", "type": "electric_scooter", "is_disabled": 0, "lat": 38.94328316666667, "rental_uris": {"ios": "https://dc.lft.to/lastmile_qr_scan", "android": "https://dc.lft.to/lastmile_qr_scan"}, "is_reserved": 0, "fusion_lon": 0.0, "fusion_lat": 0.0, "lon": -77.01483233333333, "name": "3f765f28c724134e6c81f8b1d3fdbc15"}, {"bike_id": "2472cbf5478d4718a836ff869de1a2bf", "type": "electric_scooter", "is_disabled": 0, "lat": 38.923835833333335, "rental_uris": {"ios": "https://dc.lft.to/lastmile_qr_scan", "android": "https://dc.lft.to/lastmile_qr_scan"}, "is_reserved": 0, "fusion_lon": 0.0, "fusion_lat": 0.0, "lon": -77.040735, "name": "2472cbf5478d4718a836ff869de1a2bf"}, {"bike_id": "f91da1f83690060db5539de499b8c60e", "type": "electric_scooter", "is_disabled": 0, "lat": 38.9214875, "rental_uris": {"ios": "https://dc.lft.to/lastmile_qr_scan", "android": "https://dc.lft.to/lastmile_qr_scan"}, "is_reserved": 0, "fusion_lon": 0.0, "fusion_lat": 0.0, "lon": -77.04345616666667, "name": "f91da1f83690060db5539de499b8c60e"}, {"bike_id": "94ac4f5b44ab49eb25c3ca43425aaab2", "type": "electric_scooter", "is_disabled": 0, "lat": 38.919194833333336, "rental_uris": {"ios": "https://dc.lft.to/lastmile_qr_scan", "android": "https://dc.lft.to/lastmile_qr_scan"}, "is_reserved": 0, "fusion_lon": 0.0, "fusion_lat": 0.0, "lon": -77.03424966666667, "name": "94ac4f5b44ab49eb25c3ca43425aaab2"}, {"bike_id": "abb4bd284dc04b7f6c88cc27c7bd5b12", "type": "electric_scooter", "is_disabled": 0, "lat": 38.92401066666667, "rental_uris": {"ios": "https://dc.lft.to/lastmile_qr_scan", "android": "https://dc.lft.to/lastmile_qr_scan"}, "is_reserved": 0, "fusion_lon": 0.0, "fusion_lat": 0.0, "lon": -77.020204, "name": "abb4bd284dc04b7f6c88cc27c7bd5b12"}, {"bike_id": "a0dd577123a7972f58ee2fe3015f9ab7", "type": "electric_scooter", "is_disabled": 0, "lat": 38.90512783333333, "rental_uris": {"ios": "https://dc.lft.to/lastmile_qr_scan", "android": "https://dc.lft.to/lastmile_qr_scan"}, "is_reserved": 0, "fusion_lon": 0.0, "fusion_lat": 0.0, "lon": -77.0637805, "name": "a0dd577123a7972f58ee2fe3015f9ab7"}, {"bike_id": "525920b6c7a37ec1cf5cc94a36fb771b", "type": "electric_scooter", "is_disabled": 0, "lat": 38.882702, "rental_uris": {"ios": "https://dc.lft.to/lastmile_qr_scan", "android": "https://dc.lft.to/lastmile_qr_scan"}, "is_reserved": 0, "fusion_lon": 0.0, "fusion_lat": 0.0, "lon": -76.99260033333333, "name": "525920b6c7a37ec1cf5cc94a36fb771b"}, {"bike_id": "1f8634c3e093c39bbf64982d00ba94ac", "type": "electric_scooter", "is_disabled": 0, "lat": 38.914039833333334, "rental_uris": {"ios": "https://dc.lft.to/lastmile_qr_scan", "android": "https://dc.lft.to/lastmile_qr_scan"}, "is_reserved": 0, "fusion_lon": 0.0, "fusion_lat": 0.0, "lon": -77.01233033333334, "name": "1f8634c3e093c39bbf64982d00ba94ac"}, {"bike_id": "491b076fc17b1337b6ce1ab389f1d777", "type": "electric_scooter", "is_disabled": 0, "lat": 38.917713666666664, "rental_uris": {"ios": "https://dc.lft.to/lastmile_qr_scan", "android": "https://dc.lft.to/lastmile_qr_scan"}, "is_reserved": 0, "fusion_lon": 0.0, "fusion_lat": 0.0, "lon": -77.04767883333334, "name": "491b076fc17b1337b6ce1ab389f1d777"}, {"bike_id": "8057c9098982fd265c6b0c8adec7138d", "type": "electric_scooter", "is_disabled": 0, "lat": 38.89666, "rental_uris": {"ios": "https://dc.lft.to/lastmile_qr_scan", "android": "https://dc.lft.to/lastmile_qr_scan"}, "is_reserved": 0, "fusion_lon": 0.0, "fusion_lat": 0.0, "lon": -77.02382366666667, "name": "8057c9098982fd265c6b0c8adec7138d"}, {"bike_id": "b13046130f93165ad7d4dc726222ce9e", "type": "electric_scooter", "is_disabled": 0, "lat": 38.870627999999996, "rental_uris": {"ios": "https://dc.lft.to/lastmile_qr_scan", "android": "https://dc.lft.to/lastmile_qr_scan"}, "is_reserved": 0, "fusion_lon": 0.0, "fusion_lat": 0.0, "lon": -77.007438, "name": "b13046130f93165ad7d4dc726222ce9e"}, {"bike_id": "eb5e0748c726cfef5a3384d965f97579", "type": "electric_scooter", "is_disabled": 0, "lat": 38.9021915, "rental_uris": {"ios": "https://dc.lft.to/lastmile_qr_scan", "android": "https://dc.lft.to/lastmile_qr_scan"}, "is_reserved": 0, "fusion_lon": 0.0, "fusion_lat": 0.0, "lon": -77.025615, "name": "eb5e0748c726cfef5a3384d965f97579"}, {"bike_id": "630688dfc3e4f4f3119f83871515e043", "type": "electric_scooter", "is_disabled": 0, "lat": 38.90078033333333, "rental_uris": {"ios": "https://dc.lft.to/lastmile_qr_scan", "android": "https://dc.lft.to/lastmile_qr_scan"}, "is_reserved": 0, "fusion_lon": 0.0, "fusion_lat": 0.0, "lon": -77.02426816666667, "name": "630688dfc3e4f4f3119f83871515e043"}, {"bike_id": "deb1c1402199c857f0d9dd47980dac64", "type": "electric_scooter", "is_disabled": 0, "lat": 38.9283675, "rental_uris": {"ios": "https://dc.lft.to/lastmile_qr_scan", "android": "https://dc.lft.to/lastmile_qr_scan"}, "is_reserved": 0, "fusion_lon": 0.0, "fusion_lat": 0.0, "lon": -77.02321416666666, "name": "deb1c1402199c857f0d9dd47980dac64"}, {"bike_id": "288e75f7f9df41fae815b435203c35da", "type": "electric_bike", "is_disabled": 0, "lat": 38.9563495, "rental_uris": {"ios": "https://dc.lft.to/lastmile_qr_scan", "android": "https://dc.lft.to/lastmile_qr_scan"}, "is_reserved": 0, "fusion_lon": 0.0, "fusion_lat": 0.0, "lon": -76.93875333333334, "name": "288e75f7f9df41fae815b435203c35da"}, {"bike_id": "3814f71132835b4f9331d4bdb1273eb4", "type": "electric_scooter", "is_disabled": 0, "lat": 38.9297455, "rental_uris": {"ios": "https://dc.lft.to/lastmile_qr_scan", "android": "https://dc.lft.to/lastmile_qr_scan"}, "is_reserved": 0, "fusion_lon": 0.0, "fusion_lat": 0.0, "lon": -77.02821166666666, "name": "3814f71132835b4f9331d4bdb1273eb4"}, {"bike_id": "c0253de7d0612ff276906c8663654e12", "type": "electric_scooter", "is_disabled": 0, "lat": 38.88417716666667, "rental_uris": {"ios": "https://dc.lft.to/lastmile_qr_scan", "android": "https://dc.lft.to/lastmile_qr_scan"}, "is_reserved": 0, "fusion_lon": 0.0, "fusion_lat": 0.0, "lon": -77.00740416666666, "name": "c0253de7d0612ff276906c8663654e12"}, {"bike_id": "db80a1472890a647880f789aabbde07b", "type": "electric_bike", "is_disabled": 0, "lat": 38.94021583333333, "rental_uris": {"ios": "https://dc.lft.to/lastmile_qr_scan", "android": "https://dc.lft.to/lastmile_qr_scan"}, "is_reserved": 0, "fusion_lon": 0.0, "fusion_lat": 0.0, "lon": -76.9761025, "name": "db80a1472890a647880f789aabbde07b"}, {"bike_id": "9f39b17e666513f1644f02e231d05da2", "type": "electric_scooter", "is_disabled": 0, "lat": 38.863769833333336, "rental_uris": {"ios": "https://dc.lft.to/lastmile_qr_scan", "android": "https://dc.lft.to/lastmile_qr_scan"}, "is_reserved": 0, "fusion_lon": 0.0, "fusion_lat": 0.0, "lon": -76.99060416666667, "name": "9f39b17e666513f1644f02e231d05da2"}, {"bike_id": "98a0d4ce15c09104fe1f385ccc8d0edc", "type": "electric_scooter", "is_disabled": 0, "lat": 38.984345166666664, "rental_uris": {"ios": "https://dc.lft.to/lastmile_qr_scan", "android": "https://dc.lft.to/lastmile_qr_scan"}, "is_reserved": 0, "fusion_lon": 0.0, "fusion_lat": 0.0, "lon": -77.02670783333333, "name": "98a0d4ce15c09104fe1f385ccc8d0edc"}, {"bike_id": "5b67b268da80c86fed80048f3e8bf860", "type": "electric_scooter", "is_disabled": 0, "lat": 38.92825633333333, "rental_uris": {"ios": "https://dc.lft.to/lastmile_qr_scan", "android": "https://dc.lft.to/lastmile_qr_scan"}, "is_reserved": 0, "fusion_lon": 0.0, "fusion_lat": 0.0, "lon": -77.0226005, "name": "5b67b268da80c86fed80048f3e8bf860"}, {"bike_id": "06dd6080cf6b39ccb9c7f1a07ebd2ae5", "type": "electric_scooter", "is_disabled": 0, "lat": 38.899762333333335, "rental_uris": {"ios": "https://dc.lft.to/lastmile_qr_scan", "android": "https://dc.lft.to/lastmile_qr_scan"}, "is_reserved": 0, "fusion_lon": 0.0, "fusion_lat": 0.0, "lon": -77.0159995, "name": "06dd6080cf6b39ccb9c7f1a07ebd2ae5"}, {"bike_id": "a9bc0179cfcb786707a02526edadae6c", "type": "electric_scooter", "is_disabled": 0, "lat": 38.90247316666667, "rental_uris": {"ios": "https://dc.lft.to/lastmile_qr_scan", "android": "https://dc.lft.to/lastmile_qr_scan"}, "is_reserved": 0, "fusion_lon": 0.0, "fusion_lat": 0.0, "lon": -77.04454516666667, "name": "a9bc0179cfcb786707a02526edadae6c"}, {"bike_id": "e87b4576466484aa3c6812170a2d3aae", "type": "electric_scooter", "is_disabled": 0, "lat": 38.89223466666667, "rental_uris": {"ios": "https://dc.lft.to/lastmile_qr_scan", "android": "https://dc.lft.to/lastmile_qr_scan"}, "is_reserved": 0, "fusion_lon": 0.0, "fusion_lat": 0.0, "lon": -77.05002766666667, "name": "e87b4576466484aa3c6812170a2d3aae"}, {"bike_id": "e7da30fde68b52af66b9e087a018e9e2", "type": "electric_scooter", "is_disabled": 0, "lat": 38.92836166666667, "rental_uris": {"ios": "https://dc.lft.to/lastmile_qr_scan", "android": "https://dc.lft.to/lastmile_qr_scan"}, "is_reserved": 0, "fusion_lon": 0.0, "fusion_lat": 0.0, "lon": -77.055165, "name": "e7da30fde68b52af66b9e087a018e9e2"}, {"bike_id": "90c372df3de127438bc55d83f7ba180a", "type": "electric_scooter", "is_disabled": 0, "lat": 38.891703166666666, "rental_uris": {"ios": "https://dc.lft.to/lastmile_qr_scan", "android": "https://dc.lft.to/lastmile_qr_scan"}, "is_reserved": 0, "fusion_lon": 0.0, "fusion_lat": 0.0, "lon": -77.01533766666667, "name": "90c372df3de127438bc55d83f7ba180a"}, {"bike_id": "c8cb81a27479760db1a6cd783881073a", "type": "electric_scooter", "is_disabled": 0, "lat": 38.91041083333333, "rental_uris": {"ios": "https://dc.lft.to/lastmile_qr_scan", "android": "https://dc.lft.to/lastmile_qr_scan"}, "is_reserved": 0, "fusion_lon": 0.0, "fusion_lat": 0.0, "lon": -77.04352716666666, "name": "c8cb81a27479760db1a6cd783881073a"}, {"bike_id": "e9a8d15a1645dca159ea2a7dba2686fb", "type": "electric_bike", "is_disabled": 0, "lat": 38.911188333333335, "rental_uris": {"ios": "https://dc.lft.to/lastmile_qr_scan", "android": "https://dc.lft.to/lastmile_qr_scan"}, "is_reserved": 0, "fusion_lon": 0.0, "fusion_lat": 0.0, "lon": -77.065249, "name": "e9a8d15a1645dca159ea2a7dba2686fb"}, {"bike_id": "356c86ddaeafca141ca776dde4bc08af", "type": "electric_scooter", "is_disabled": 0, "lat": 38.92901416666667, "rental_uris": {"ios": "https://dc.lft.to/lastmile_qr_scan", "android": "https://dc.lft.to/lastmile_qr_scan"}, "is_reserved": 0, "fusion_lon": 0.0, "fusion_lat": 0.0, "lon": -77.01651183333334, "name": "356c86ddaeafca141ca776dde4bc08af"}, {"bike_id": "30feb4996e7a2128b47929bd9665b63d", "type": "electric_scooter", "is_disabled": 0, "lat": 38.882582166666666, "rental_uris": {"ios": "https://dc.lft.to/lastmile_qr_scan", "android": "https://dc.lft.to/lastmile_qr_scan"}, "is_reserved": 0, "fusion_lon": 0.0, "fusion_lat": 0.0, "lon": -76.995122, "name": "30feb4996e7a2128b47929bd9665b63d"}, {"bike_id": "73d46e487aed940b7d9bc313820e762d", "type": "electric_bike", "is_disabled": 0, "lat": 39.014813, "rental_uris": {"ios": "https://dc.lft.to/lastmile_qr_scan", "android": "https://dc.lft.to/lastmile_qr_scan"}, "is_reserved": 0, "fusion_lon": 0.0, "fusion_lat": 0.0, "lon": -77.05495133333334, "name": "73d46e487aed940b7d9bc313820e762d"}, {"bike_id": "35f1aaf17790f3404b2ac72727b42028", "type": "electric_scooter", "is_disabled": 0, "lat": 38.901990833333336, "rental_uris": {"ios": "https://dc.lft.to/lastmile_qr_scan", "android": "https://dc.lft.to/lastmile_qr_scan"}, "is_reserved": 0, "fusion_lon": 0.0, "fusion_lat": 0.0, "lon": -77.01290666666667, "name": "35f1aaf17790f3404b2ac72727b42028"}, {"bike_id": "e01d4516989644a8fe09d7f2cb685d83", "type": "electric_scooter", "is_disabled": 0, "lat": 38.903573333333334, "rental_uris": {"ios": "https://dc.lft.to/lastmile_qr_scan", "android": "https://dc.lft.to/lastmile_qr_scan"}, "is_reserved": 0, "fusion_lon": 0.0, "fusion_lat": 0.0, "lon": -77.06027466666667, "name": "e01d4516989644a8fe09d7f2cb685d83"}, {"bike_id": "6648e603aceb9eaf9ded983a30acd8df", "type": "electric_scooter", "is_disabled": 0, "lat": 38.866859833333336, "rental_uris": {"ios": "https://dc.lft.to/lastmile_qr_scan", "android": "https://dc.lft.to/lastmile_qr_scan"}, "is_reserved": 0, "fusion_lon": 0.0, "fusion_lat": 0.0, "lon": -76.9855575, "name": "6648e603aceb9eaf9ded983a30acd8df"},