{"data": {"bikes": [{"fusion_lat": 0.0, "lon": -77.03484766666666, "is_reserved": 0, "bike_id": "fdb124f651fb37304a94a3ebd8a62371", "fusion_lon": 0.0, "rental_uris": {"android": "https://dc.lft.to/lastmile_qr_scan", "ios": "https://dc.lft.to/lastmile_qr_scan"}, "name": "fdb124f651fb37304a94a3ebd8a62371", "type": "electric_scooter", "lat": 38.92148616666667, "is_disabled": 0}, {"fusion_lat": 0.0, "lon": -77.03262666666667, "is_reserved": 0, "bike_id": "d29e0a766e09fd007384c2bcfc2adea2", "fusion_lon": 0.0, "rental_uris": {"android": "https://dc.lft.to/lastmile_qr_scan", "ios": "https://dc.lft.to/lastmile_qr_scan"}, "name": "d29e0a766e09fd007384c2bcfc2adea2", "type": "electric_scooter", "lat": 38.934015, "is_disabled": 0}, {"fusion_lat": 0.0, "lon": -77.0061795, "is_reserved": 0, "bike_id": "60135040ba969d58ad13e4ae2c2c83f2", "fusion_lon": 0.0, "rental_uris": {"android": "https://dc.lft.to/lastmile_qr_scan", "ios": "https://dc.lft.to/lastmile_qr_scan"}, "name": "60135040ba969d58ad13e4ae2c2c83f2", "type": "electric_scooter", "lat": 38.8716665, "is_disabled": 0}, {"fusion_lat": 0.0, "lon": -77.04335066666667, "is_reserved": 0, "bike_id": "2f7aca67c610f9bb196006805f42c4bc", "fusion_lon": 0.0, "rental_uris": {"android": "https://dc.lft.to/lastmile_qr_scan", "ios": "https://dc.lft.to/lastmile_qr_scan"}, "name": "2f7aca67c610f9bb196006805f42c4bc", "type": "electric_scooter", "lat": 38.89227483333333, "is_disabled": 0}, {"fusion_lat": 0.0, "lon": -76.98384983333334, "is_reserved": 0, "bike_id": "6c6f0763ad16cfeab538614768a536f8", "fusion_lon": 0.0, "rental_uris": {"android": "https://dc.lft.to/lastmile_qr_scan", "ios": "https://dc.lft.to/lastmile_qr_scan"}, "name": "6c6f0763ad16cfeab538614768a536f8", "type": "electric_scooter", "lat": 38.92693916666666, "is_disabled": 0}, {"fusion_lat": 0.0, "lon": -77.04498566666666, "is_reserved": 0, "bike_id": "ab5113bb0b6c52cdffe1da2d63a1fcd1", "fusion_lon": 0.0, "rental_uris": {"android": "https://dc.lft.to/lastmile_qr_scan", "ios": "https://dc.lft.to/lastmile_qr_scan"}, "name": "ab5113bb0b6c52cdffe1da2d63a1fcd1", "type": "electric_scooter", "lat": 38.911069166666664, "is_disabled": 0}, {"fusion_lat": 0.0, "lon": -77.03192133333333, "is_reserved": 0, "bike_id": "3ee05329ab69e6fa686b35199181f217", "fusion_lon": 0.0, "rental_uris": {"android": "https://dc.lft.to/lastmile_qr_scan", "ios": "https://dc.lft.to/lastmile_qr_scan"}, "name": "3ee05329ab69e6fa686b35199181f217", "type": "electric_scooter", "lat": 38.913281833333336, "is_disabled": 0}, {"fusion_lat": 0.0, "lon": -77.02038083333333, "is_reserved": 0, "bike_id": "186046860c7d0849a8bdcf655fdbb456", "fusion_lon": 0.0, "rental_uris": {"android": "https://dc.lft.to/lastmile_qr_scan", "ios": "https://dc.lft.to/lastmile_qr_scan"}, "name": "186046860c7d0849a8bdcf655fdbb456", "type": "electric_scooter", "lat": 38.9219035, "is_disabled": 0}, {"fusion_lat": 0.0, "lon": -76.976112, "is_reserved": 0, "bike_id": "91e64886e789a45a78cb3c7c9d30c94f", "fusion_lon": 0.0, "rental_uris": {"android": "https://dc.lft.to/lastmile_qr_scan", "ios": "https://dc.lft.to/lastmile_qr_scan"}, "name": "91e64886e789a45a78cb3c7c9d30c94f", "type": "electric_scooter", "lat": 38.912935166666664, "is_disabled": 0}, {"fusion_lat": 0.0, "lon": -77.0781875, "is_reserved": 0, "bike_id": "00cd047aed10fd96cad4f88edc209937", "fusion_lon": 0.0, "rental_uris": {"android": "https://dc.lft.to/lastmile_qr_scan", "ios": "https://dc.lft.to/lastmile_qr_scan"}, "name": "00cd047aed10fd96cad4f88edc209937", "type": "electric_bike", "lat": 38.936384, "is_disabled": 0}, {"fusion_lat": 0.0, "lon": -77.02699883333334, "is_reserved": 0, "bike_id": "841c07705caa4dbb7da838c7d57fe252", "fusion_lon": 0.0, "rental_uris": {"android": "https://dc.lft.to/lastmile_qr_scan", "ios": "https://dc.lft.to/lastmile_qr_scan"}, "name": "841c07705caa4dbb7da838c7d57fe252", "type": "electric_scooter", "lat": 38.9157835, "is_disabled": 0}, {"fusion_lat": 0.0, "lon": -77.03612666666666, "is_reserved": 0, "bike_id": "607b2a2ec0abfb5765d74bd091d47584", "fusion_lon": 0.0, "rental_uris": {"android": "https://dc.lft.to/lastmile_qr_scan", "ios": "https://dc.lft.to/lastmile_qr_scan"}, "name": "607b2a2ec0abfb5765d74bd091d47584", "type": "electric_scooter", "lat": 38.930419, "is_disabled": 0}, {"fusion_lat": 0.0, "lon": -77.02577883333333, "is_reserved": 0, "bike_id": "e753b580c2b6a5e4ce6ec754666145e6", "fusion_lon": 0.0, "rental_uris": {"android": "https://dc.lft.to/lastmile_qr_scan", "ios": "https://dc.lft.to/lastmile_qr_scan"}, "name": "e753b580c2b6a5e4ce6ec754666145e6", "type": "electric_scooter", "lat": 38.89429033333333, "is_disabled": 0}, {"fusion_lat": 0.0, "lon": -76.98073183333334, "is_reserved": 0, "bike_id": "78f24b565db72fac25e2e4458334fd32", "fusion_lon": 0.0, "rental_uris": {"android": "https://dc.lft.to/lastmile_qr_scan", "ios": "https://dc.lft.to/lastmile_qr_scan"}, "name": "78f24b565db72fac25e2e4458334fd32", "type": "electric_scooter", "lat": 38.901673833333334, "is_disabled": 0}, {"fusion_lat": 0.0, "lon": -77.04221666666666, "is_reserved": 0, "bike_id": "4c62fd7bb0a0c20ae6330b1d231f4bbb", "fusion_lon": 0.0, "rental_uris": {"android": "https://dc.lft.to/lastmile_qr_scan", "ios": "https://dc.lft.to/lastmile_qr_scan"}, "name": "4c62fd7bb0a0c20ae6330b1d231f4bbb", "type": "electric_scooter", "lat": 38.93147233333333, "is_disabled": 0}, {"fusion_lat": 0.0, "lon": -77.04567266666666, "is_reserved": 0, "bike_id": "1b644e18b8a20b3dac3cb4f6c36a129f", "fusion_lon": 0.0, "rental_uris": {"android": "https://dc.lft.to/lastmile_qr_scan", "ios": "https://dc.lft.to/lastmile_qr_scan"}, "name": "1b644e18b8a20b3dac3cb4f6c36a129f", "type": "electric_scooter", "lat": 38.921248166666665, "is_disabled": 0}, {"fusion_lat": 0.0, "lon": -76.9884245, "is_reserved": 0, "bike_id": "761c24b5597a0661cb24da1db046d086", "fusion_lon": 0.0, "rental_uris": {"android": "https://dc.lft.to/lastmile_qr_scan", "ios": "https://dc.lft.to/lastmile_qr_scan"}, "name": "761c24b5597a0661cb24da1db046d086", "type": "electric_bike", "lat": 38.842762666666665, "is_disabled": 0}, {"fusion_lat": 0.0, "lon": -77.02229916666667, "is_reserved": 0, "bike_id": "909238bfa61afc56193470913d0896c0", "fusion_lon": 0.0, "rental_uris": {"android": "https://dc.lft.to/lastmile_qr_scan", "ios": "https://dc.lft.to/lastmile_qr_scan"}, "name": "909238bfa61afc56193470913d0896c0", "type": "electric_scooter", "lat": 38.892193666666664, "is_disabled": 0}, {"fusion_lat": 0.0, "lon": -77.0342675, "is_reserved": 0, "bike_id": "70f080356be77591612e8dde3192f441", "fusion_lon": 0.0, "rental_uris": {"android": "https://dc.lft.to/lastmile_qr_scan", "ios": "https://dc.lft.to/lastmile_qr_scan"}, "name": "70f080356be77591612e8dde3192f441", "type": "electric_scooter", "lat": 38.919360833333336, "is_disabled": 0}, {"fusion_lat": 0.0, "lon": -77.0326295, "is_reserved": 0, "bike_id": "2c6fa177f13b3c9fe4a61f454a72742a", "fusion_lon": 0.0, "rental_uris": {"android": "https://dc.lft.to/lastmile_qr_scan", "ios": "https://dc.lft.to/lastmile_qr_scan"}, "name": "2c6fa177f13b3c9fe4a61f454a72742a", "type": "electric_scooter", "lat": 38.918078, "is_disabled": 0}, {"fusion_lat": 0.0, "lon": -77.0271175, "is_reserved": 0, "bike_id": "e8b687b810427660c058f47643e83178", "fusion_lon": 0.0, "rental_uris": {"android": "https://dc.lft.to/lastmile_qr_scan", "ios": "https://dc.lft.to/lastmile_qr_scan"}, "name": "e8b687b810427660c058f47643e83178", "type": "electric_scooter", "lat": 38.936893833333336, "is_disabled": 0}, {"fusion_lat": 0.0, "lon": -77.08457783333333, "is_reserved": 0, "bike_id": "1934778b5d383416ae8c9dae740983a1", "fusion_lon": 0.0, "rental_uris": {"android": "https://dc.lft.to/lastmile_qr_scan", "ios": "https://dc.lft.to/lastmile_qr_scan"}, "name": "1934778b5d383416ae8c9dae740983a1", "type": "electric_bike", "lat": 38.84817833333334, "is_disabled": 0}, {"fusion_lat": 0.0, "lon": -77.013281, "is_reserved": 0, "bike_id": "0d82915d30e83820ce9d33b2de9bc5e6", "fusion_lon": 0.0, "rental_uris": {"android": "https://dc.lft.to/lastmile_qr_scan", "ios": "https://dc.lft.to/lastmile_qr_scan"}, "name": "0d82915d30e83820ce9d33b2de9bc5e6", "type": "electric_scooter", "lat": 38.87921733333334, "is_disabled": 0}, {"fusion_lat": 0.0, "lon": -77.02959283333334, "is_reserved": 0, "bike_id": "fa09e8834fd7948ff67e36e8f81dd20f", "fusion_lon": 0.0, "rental_uris": {"android": "https://dc.lft.to/lastmile_qr_scan", "ios": "https://dc.lft.to/lastmile_qr_scan"}, "name": "fa09e8834fd7948ff67e36e8f81dd20f", "type": "electric_scooter", "lat": 38.93990516666667, "is_disabled": 0}, {"fusion_lat": 0.0, "lon": -77.04372, "is_reserved": 0, "bike_id": "6bfcea3a36897264229ffbabd1bf6a34", "fusion_lon": 0.0, "rental_uris": {"android": "https://dc.lft.to/lastmile_qr_scan", "ios": "https://dc.lft.to/lastmile_qr_scan"}, "name": "6bfcea3a36897264229ffbabd1bf6a34", "type": "electric_scooter", "lat": 38.892226666666666, "is_disabled": 0}, {"fusion_lat": 0.0, "lon": -77.034071, "is_reserved": 0, "bike_id": "af8440c7b6a1d2f91b980fca2c0c0fd3", "fusion_lon": 0.0, "rental_uris": {"android": "https://dc.lft.to/lastmile_qr_scan", "ios": "https://dc.lft.to/lastmile_qr_scan"}, "name": "af8440c7b6a1d2f91b980fca2c0c0fd3", "type": "electric_scooter", "lat": 38.922550666666666, "is_disabled": 0}, {"fusion_lat": 0.0, "lon": -77.04235016666667, "is_reserved": 0, "bike_id": "4ca64ded9e110b31d0a019aa280e1968", "fusion_lon": 0.0, "rental_uris": {"android": "https://dc.lft.to/lastmile_qr_scan", "ios": "https://dc.lft.to/lastmile_qr_scan"}, "name": "4ca64ded9e110b31d0a019aa280e1968", "type": "electric_scooter", "lat": 38.914107666666666, "is_disabled": 0}, {"fusion_lat": 0.0, "lon": -77.02998283333334, "is_reserved": 0, "bike_id": "04771d262cb4de1a9ff31d08d7067352", "fusion_lon": 0.0, "rental_uris": {"android": "https://dc.lft.to/lastmile_qr_scan", "ios": "https://dc.lft.to/lastmile_qr_scan"}, "name": "04771d262cb4de1a9ff31d08d7067352", "type": "electric_scooter", "lat": 38.90744816666667, "is_disabled": 0}, {"fusion_lat": 0.0, "lon": -76.99059516666667, "is_reserved": 0, "bike_id": "af5adbffe7da43e8b41ec8a20fc6df2e", "fusion_lon": 0.0, "rental_uris": {"android": "https://dc.lft.to/lastmile_qr_scan", "ios": "https://dc.lft.to/lastmile_qr_scan"}, "name": "af5adbffe7da43e8b41ec8a20fc6df2e", "type": "electric_bike", "lat": 38.89808983333333, "is_disabled": 0}, {"fusion_lat": 0.0, "lon": -77.0226645, "is_reserved": 0, "bike_id": "bdbf7a510bc28c2e4458195347c827d3", "fusion_lon": 0.0, "rental_uris": {"android": "https://dc.lft.to/lastmile_qr_scan", "ios": "https://dc.lft.to/lastmile_qr_scan"}, "name": "bdbf7a510bc28c2e4458195347c827d3", "type": "electric_scooter", "lat": 38.91634333333333, "is_disabled": 0}, {"fusion_lat": 0.0, "lon": -77.03693666666666, "is_reserved": 0, "bike_id": "9c7b1f0652f4f2bb7397f6e534095bd7", "fusion_lon": 0.0, "rental_uris": {"android": "https://dc.lft.to/lastmile_qr_scan", "ios": "https://dc.lft.to/lastmile_qr_scan"}, "name": "9c7b1f0652f4f2bb7397f6e534095bd7", "type": "electric_scooter", "lat": 38.926096, "is_disabled": 0}, {"fusion_lat": 0.0, "lon": -77.02986716666666, "is_reserved": 0, "bike_id": "061e57d2432a03a2ef598f626a3e95fd", "fusion_lon": 0.0, "rental_uris": {"android": "https://dc.lft.to/lastmile_qr_scan", "ios": "https://dc.lft.to/lastmile_qr_scan"}, "name": "061e57d2432a03a2ef598f626a3e95fd", "type": "electric_scooter", "lat": 38.90737383333333, "is_disabled": 0}, {"fusion_lat": 0.0, "lon": -77.037564, "is_reserved": 0, "bike_id": "75f296f152499e3356ec07818e2b9f5a", "fusion_lon": 0.0, "rental_uris": {"android": "https://dc.lft.to/lastmile_qr_scan", "ios": "https://dc.lft.to/lastmile_qr_scan"}, "name": "75f296f152499e3356ec07818e2b9f5a", "type": "electric_scooter", "lat": 38.917297166666664, "is_disabled": 0}, {"fusion_lat": 0.0, "lon": -77.10727516666667, "is_reserved": 0, "bike_id": "8b98c67d09bb8694ab4419d782cd915e", "fusion_lon": 0.0, "rental_uris": {"android": "https://dc.lft.to/lastmile_qr_scan", "ios": "https://dc.lft.to/lastmile_qr_scan"}, "name": "8b98c67d09bb8694ab4419d782cd915e", "type": "electric_bike", "lat": 38.85533133333333, "is_disabled": 0}, {"fusion_lat": 0.0, "lon": -77.029944, "is_reserved": 0, "bike_id": "b9241553b16803144705aec5fb1a8fbd", "fusion_lon": 0.0, "rental_uris": {"android": "https://dc.lft.to/lastmile_qr_scan", "ios": "https://dc.lft.to/lastmile_qr_scan"}, "name": "b9241553b16803144705aec5fb1a8fbd", "type": "electric_scooter", "lat": 38.90727116666667, "is_disabled": 0}, {"fusion_lat": 0.0, "lon": -77.00767766666667, "is_reserved": 0, "bike_id": "e853795bfb6818423691a611d597d0a3", "fusion_lon": 0.0, "rental_uris": {"android": "https://dc.lft.to/lastmile_qr_scan", "ios": "https://dc.lft.to/lastmile_qr_scan"}, "name": "e853795bfb6818423691a611d597d0a3", "type": "electric_scooter", "lat": 38.926738666666665, "is_disabled": 0}, {"fusion_lat": 0.0, "lon": -77.02796666666667, "is_reserved": 0, "bike_id": "195c025b05a905ccb03a26efff75c824", "fusion_lon": 0.0, "rental_uris": {"android": "https://dc.lft.to/lastmile_qr_scan", "ios": "https://dc.lft.to/lastmile_qr_scan"}, "name": "195c025b05a905ccb03a26efff75c824", "type": "electric_scooter", "lat": 38.93300716666667, "is_disabled": 0}, {"fusion_lat": 0.0, "lon": -77.007147, "is_reserved": 0, "bike_id": "9e9d401ca61f8f294ef027319b50c46e", "fusion_lon": 0.0, "rental_uris": {"android": "https://dc.lft.to/lastmile_qr_scan", "ios": "https://dc.lft.to/lastmile_qr_scan"}, "name": "9e9d401ca61f8f294ef027319b50c46e", "type": "electric_scooter", "lat": 38.917024, "is_disabled": 0}, {"fusion_lat": 0.0, "lon": -77.04139883333333, "is_reserved": 0, "bike_id": "a1e75a1e4a9835087100b3c8c9d4cc57", "fusion_lon": 0.0, "rental_uris": {"android": "https://dc.lft.to/lastmile_qr_scan", "ios": "https://dc.lft.to/lastmile_qr_scan"}, "name": "a1e75a1e4a9835087100b3c8c9d4cc57", "type": "electric_bike", "lat": 38.823183, "is_disabled": 0}, {"fusion_lat": 0.0, "lon": -77.04240566666667, "is_reserved": 0, "bike_id": "dae3000eaabbdaebad66db29294b6aaa", "fusion_lon": 0.0, "rental_uris": {"android": "https://dc.lft.to/lastmile_qr_scan", "ios": "https://dc.lft.to/lastmile_qr_scan"}, "name": "dae3000eaabbdaebad66db29294b6aaa", "type": "electric_scooter", "lat": 38.921829333333335, "is_disabled": 0}, {"fusion_lat": 0.0, "lon": -77.03298416666667, "is_reserved": 0, "bike_id": "b77ed7ddabb4a03d1eacc572f2c42458", "fusion_lon": 0.0, "rental_uris": {"android": "https://dc.lft.to/lastmile_qr_scan", "ios": "https://dc.lft.to/lastmile_qr_scan"}, "name": "b77ed7ddabb4a03d1eacc572f2c42458", "type": "electric_scooter", "lat": 38.937880666666665, "is_disabled": 0}, {"fusion_lat": 0.0, "lon": -76.99478083333334, "is_reserved": 0, "bike_id": "5a00a2ba24365cf1f24309e4a1574984", "fusion_lon": 0.0, "rental_uris": {"android": "https://dc.lft.to/lastmile_qr_scan", "ios": "https://dc.lft.to/lastmile_qr_scan"}, "name": "5a00a2ba24365cf1f24309e4a1574984", "type": "electric_scooter", "lat": 38.8621505, "is_disabled": 0}, {"fusion_lat": 0.0, "lon": -77.13932883333334, "is_reserved": 0, "bike_id": "58f84b8a0f2b4e577451eac2ed41e34c", "fusion_lon": 0.0, "rental_uris": {"android": "https://dc.lft.to/lastmile_qr_scan", "ios": "https://dc.lft.to/lastmile_qr_scan"}, "name": "58f84b8a0f2b4e577451eac2ed41e34c", "type": "electric_bike", "lat": 38.87298933333334, "is_disabled": 0}, {"fusion_lat": 0.0, "lon": -77.03251016666667, "is_reserved": 0, "bike_id": "47d60311f753135ad998810282e51b1c", "fusion_lon": 0.0, "rental_uris": {"android": "https://dc.lft.to/lastmile_qr_scan", "ios": "https://dc.lft.to/lastmile_qr_scan"}, "name": "47d60311f753135ad998810282e51b1c", "type": "electric_bike", "lat": 38.92927133333333, "is_disabled": 0}, {"fusion_lat": 0.0, "lon": -76.97207383333334, "is_reserved": 0, "bike_id": "5054e234da89cd3aedbe46ecacbaed1e", "fusion_lon": 0.0, "rental_uris": {"android": "https://dc.lft.to/lastmile_qr_scan", "ios": "https://dc.lft.to/lastmile_qr_scan"}, "name": "5054e234da89cd3aedbe46ecacbaed1e", "type": "electric_bike", "lat": 38.892912333333335, "is_disabled": 0}, {"fusion_lat": 0.0, "lon": -77.01683616666666, "is_reserved": 0, "bike_id": "23c1db5b2721bbafddfb184671015c57", "fusion_lon": 0.0, "rental_uris": {"android": "https://dc.lft.to/lastmile_qr_scan", "ios": "https://dc.lft.to/lastmile_qr_scan"}, "name": "23c1db5b2721bbafddfb184671015c57", "type": "electric_scooter", "lat": 38.881267666666666, "is_disabled": 0}, {"fusion_lat": 0.0, "lon": -77.03824766666666, "is_reserved": 0, "bike_id": "a99ed12d9f88aa0f3e00d343172f8f1d", "fusion_lon": 0.0, "rental_uris": {"android": "https://dc.lft.to/lastmile_qr_scan", "ios": "https://dc.lft.to/lastmile_qr_scan"}, "name": "a99ed12d9f88aa0f3e00d343172f8f1d", "type": "electric_scooter", "lat": 38.91119783333333, "is_disabled": 0}, {"fusion_lat": 0.0, "lon": -76.99900466666666, "is_reserved": 0, "bike_id": "1b9e5447eb4ae2f848fcd25a7dc9e342", "fusion_lon": 0.0, "rental_uris": {"android": "https://dc.lft.to/lastmile_qr_scan", "ios": "https://dc.lft.to/lastmile_qr_scan"}, "name": "1b9e5447eb4ae2f848fcd25a7dc9e342", "type": "electric_scooter", "lat": 38.948154833333334, "is_disabled": 0}, {"fusion_lat": 0.0, "lon": -77.024177, "is_reserved": 0, "bike_id": "fe17b25ed43d0845836c32504437730d", "fusion_lon": 0.0, "rental_uris": {"android": "https://dc.lft.to/lastmile_qr_scan", "ios": "https://dc.lft.to/lastmile_qr_scan"}, "name": "fe17b25ed43d0845836c32504437730d", "type": "electric_scooter", "lat": 38.9206515, "is_disabled": 0}, {"fusion_lat": 0.0, "lon": -76.9993485, "is_reserved": 0, "bike_id": "a479d39a1043a3ea15f7c77055a46983", "fusion_lon": 0.0, "rental_uris": {"android": "https://dc.lft.to/lastmile_qr_scan", "ios": "https://dc.lft.to/lastmile_qr_scan"}, "name": "a479d39a1043a3ea15f7c77055a46983", "type": "electric_scooter", "lat": 38.842970666666666, "is_disabled": 0}, {"fusion_lat": 0.0, "lon": -77.013059, "is_reserved": 0, "bike_id": "b6fb70305e0edd4fcb8eec3d275e82ba", "fusion_lon": 0.0, "rental_uris": {"android": "https://dc.lft.to/lastmile_qr_scan", "ios": "https://dc.lft.to/lastmile_qr_scan"}, "name": "b6fb70305e0edd4fcb8eec3d275e82ba", "type": "electric_scooter", "lat": 38.901926, "is_disabled": 0}, {"fusion_lat": 0.0, "lon": -76.93076216666667, "is_reserved": 0, "bike_id": "24399cc98a01dad71bf04cd7e435fb30", "fusion_lon": 0.0, "rental_uris": {"android": "https://dc.lft.to/lastmile_qr_scan", "ios": "https://dc.lft.to/lastmile_qr_scan"}, "name": "24399cc98a01dad71bf04cd7e435fb30", "type": "electric_scooter", "lat": 38.90166116666666, "is_disabled": 0}, {"fusion_lat": 0.0, "lon": -77.0369225, "is_reserved": 0, "bike_id": "a9aa16582503f888819e2df8d6459bcd", "fusion_lon": 0.0, "rental_uris": {"android": "https://dc.lft.to/lastmile_qr_scan", "ios": "https://dc.lft.to/lastmile_qr_scan"}, "name": "a9aa16582503f888819e2df8d6459bcd", "type": "electric_scooter", "lat": 38.926123833333335, "is_disabled": 0}, {"fusion_lat": 0.0, "lon": -77.12733233333333, "is_reserved": 0, "bike_id": "508b3311de5c4249a2bde73422f2de14", "fusion_lon": 0.0, "rental_uris": {"android": "https://dc.lft.to/lastmile_qr_scan", "ios": "https://dc.lft.to/lastmile_qr_scan"}, "name": "508b3311de5c4249a2bde73422f2de14", "type": "electric_bike", "lat": 38.89562766666667, "is_disabled": 0}, {"fusion_lat": 0.0, "lon": -77.021399, "is_reserved": 0, "bike_id": "1cf8a07a64ae8b355cfb4ba058dc0635", "fusion_lon": 0.0, "rental_uris": {"android": "https://dc.lft.to/lastmile_qr_scan", "ios": "https://dc.lft.to/lastmile_qr_scan"}, "name": "1cf8a07a64ae8b355cfb4ba058dc0635", "type": "electric_scooter", "lat": 38.896315666666666, "is_disabled": 0}, {"fusion_lat": 0.0, "lon": -77.027633, "is_reserved": 0, "bike_id": "b1499247411e4674f54091718fd485c2", "fusion_lon": 0.0, "rental_uris": {"android": "https://dc.lft.to/lastmile_qr_scan", "ios": "https://dc.lft.to/lastmile_qr_scan"}, "name": "b1499247411e4674f54091718fd485c2", "type": "electric_bike", "lat": 38.9047095, "is_disabled": 0}, {"fusion_lat": 0.0, "lon": -77.04235616666666, "is_reserved": 0, "bike_id": "5d03fc39ee18d93201c6098c32e77407", "fusion_lon": 0.0, "rental_uris": {"android": "https://dc.lft.to/lastmile_qr_scan", "ios": "https://dc.lft.to/lastmile_qr_scan"}, "name": "5d03fc39ee18d93201c6098c32e77407", "type": "electric_scooter", "lat": 38.921437, "is_disabled": 0}, {"fusion_lat": 0.0, "lon": -77.08037983333334, "is_reserved": 0, "bike_id": "98eca898f04621f8058702a41c117944", "fusion_lon": 0.0, "rental_uris": {"android": "https://dc.lft.to/lastmile_qr_scan", "ios": "https://dc.lft.to/lastmile_qr_scan"}, "name": "98eca898f04621f8058702a41c117944", "type": "electric_scooter", "lat": 38.92388966666667, "is_disabled": 0}, {"fusion_lat": 0.0, "lon": -77.04498416666667, "is_reserved": 0, "bike_id": "d908f5b8cf6b8f839c8be8d8a8395aec", "fusion_lon": 0.0, "rental_uris": {"android": "https://dc.lft.to/lastmile_qr_scan", "ios": "https://dc.lft.to/lastmile_qr_scan"}, "name": "d908f5b8cf6b8f839c8be8d8a8395aec", "type": "electric_scooter", "lat": 38.90495083333333, "is_disabled": 0}, {"fusion_lat": 0.0, "lon": -77.02903066666667, "is_reserved": 0, "bike_id": "94d49c19fe76e66a562a5412d2077c8f", "fusion_lon": 0.0, "rental_uris": {"android": "https://dc.lft.to/lastmile_qr_scan", "ios": "https://dc.lft.to/lastmile_qr_scan"}, "name": "94d49c19fe76e66a562a5412d2077c8f", "type": "electric_scooter", "lat": 38.928173, "is_disabled": 0}, {"fusion_lat": 0.0, "lon": -77.02941316666667, "is_reserved": 0, "bike_id": "4c95088a2b5b747e88f042769fe378f9", "fusion_lon": 0.0, "rental_uris": {"android": "https://dc.lft.to/lastmile_qr_scan", "ios": "https://dc.lft.to/lastmile_qr_scan"}, "name": "4c95088a2b5b747e88f042769fe378f9", "type": "electric_scooter", "lat": 38.916813166666664, "is_disabled": 0}, {"fusion_lat": 0.0, "lon": -76.99879583333333, "is_reserved": 0, "bike_id": "594ef526b7532d0d92f727420e1d1a0d", "fusion_lon": 0.0, "rental_uris": {"android": "https://dc.lft.to/lastmile_qr_scan", "ios": "https://dc.lft.to/lastmile_qr_scan"}, "name": "594ef526b7532d0d92f727420e1d1a0d", "type": "electric_scooter", "lat": 38.901275166666665, "is_disabled": 0}, {"fusion_lat": 0.0, "lon": -77.02204533333334, "is_reserved": 0, "bike_id": "c071ba1cbe0584198b3e718ca25312ab", "fusion_lon": 0.0, "rental_uris": {"android": "https://dc.lft.to/lastmile_qr_scan", "ios": "https://dc.lft.to/lastmile_qr_scan"}, "name": "c071ba1cbe0584198b3e718ca25312ab", "type": "electric_scooter", "lat": 38.92583716666667, "is_disabled": 0}, {"fusion_lat": 0.0, "lon": -77.0388335, "is_reserved": 0, "bike_id": "4ba09eeab4fe75bb2ce5fc21dbdc312f", "fusion_lon": 0.0, "rental_uris": {"android": "https://dc.lft.to/lastmile_qr_scan", "ios": "https://dc.lft.to/lastmile_qr_scan"}, "name": "4ba09eeab4fe75bb2ce5fc21dbdc312f", "type": "electric_scooter", "lat": 38.914684, "is_disabled": 0}, {"fusion_lat": 0.0, "lon": -76.98018933333333, "is_reserved": 0, "bike_id": "c66ad145544d1c6c575420aed3fb2cce", "fusion_lon": 0.0, "rental_uris": {"android": "https://dc.lft.to/lastmile_qr_scan", "ios": "https://dc.lft.to/lastmile_qr_scan"}, "name": "c66ad145544d1c6c575420aed3fb2cce", "type": "electric_scooter", "lat": 38.9028865, "is_disabled": 0}, {"fusion_lat": 0.0, "lon": -77.00198683333333, "is_reserved": 0, "bike_id": "f572f5c5bf68b9ae6ea17b4f5633b05c", "fusion_lon": 0.0, "rental_uris": {"android": "https://dc.lft.to/lastmile_qr_scan", "ios": "https://dc.lft.to/lastmile_qr_scan"}, "name": "f572f5c5bf68b9ae6ea17b4f5633b05c", "type": "electric_scooter", "lat": 38.90239483333333, "is_disabled": 0}, {"fusion_lat": 0.0, "lon": -76.936383, "is_reserved": 0, "bike_id": "ba96a3db11f2095fc9c5f46fae065fab", "fusion_lon": 0.0, "rental_uris": {"android": "https://dc.lft.to/lastmile_qr_scan", "ios": "https://dc.lft.to/lastmile_qr_scan"}, "name": "ba96a3db11f2095fc9c5f46fae065fab", "type": "electric_scooter", "lat": 38.900703166666666, "is_disabled": 0}, {"fusion_lat": 0.0, "lon": -77.0476535, "is_reserved": 0, "bike_id": "713c2a7325617dda7df7cb2bd93409c1", "fusion_lon": 0.0, "rental_uris": {"android": "https://dc.lft.to/lastmile_qr_scan", "ios": "https://dc.lft.to/lastmile_qr_scan"}, "name": "713c2a7325617dda7df7cb2bd93409c1", "type": "electric_scooter", "lat": 38.90072383333333, "is_disabled": 0}, {"fusion_lat": 0.0, "lon": -77.04671266666666, "is_reserved": 0, "bike_id": "a5ddcc4f39d05360ec46dcf4780ef215", "fusion_lon": 0.0, "rental_uris": {"android": "https://dc.lft.to/lastmile_qr_scan", "ios": "https://dc.lft.to/lastmile_qr_scan"}, "name": "a5ddcc4f39d05360ec46dcf4780ef215", "type": "electric_scooter", "lat": 38.907292, "is_disabled": 0}, {"fusion_lat": 0.0, "lon": -76.949296, "is_reserved": 0, "bike_id": "617ea9866c86fe8de9910af6ed2845eb", "fusion_lon": 0.0, "rental_uris": {"android": "https://dc.lft.to/lastmile_qr_scan", "ios": "https://dc.lft.to/lastmile_qr_scan"}, "name": "617ea9866c86fe8de9910af6ed2845eb", "type": "electric_scooter", "lat": 38.89346033333333, "is_disabled": 0}, {"fusion_lat": 0.0, "lon": -77.04668766666667, "is_reserved": 0, "bike_id": "11ffc499df4c19766058ae6e75da21b2", "fusion_lon": 0.0, "rental_uris": {"android": "https://dc.lft.to/lastmile_qr_scan", "ios": "https://dc.lft.to/lastmile_qr_scan"}, "name": "11ffc499df4c19766058ae6e75da21b2", "type": "electric_scooter", "lat": 38.90732883333333, "is_disabled": 0}, {"fusion_lat": 0.0, "lon": -76.93012783333333, "is_reserved": 0, "bike_id": "3d080e75504d448f2d7b8d91f858b776", "fusion_lon": 0.0, "rental_uris": {"android": "https://dc.lft.to/lastmile_qr_scan", "ios": "https://dc.lft.to/lastmile_qr_scan"}, "name": "3d080e75504d448f2d7b8d91f858b776", "type": "electric_bike", "lat": 38.89661383333333, "is_disabled": 0}, {"fusion_lat": 0.0, "lon": -77.03102016666666, "is_reserved": 0, "bike_id": "c7b0ce7cb45db42ae717c9427e9bb0df", "fusion_lon": 0.0, "rental_uris": {"android": "https://dc.lft.to/lastmile_qr_scan", "ios": "https://dc.lft.to/lastmile_qr_scan"}, "name": "c7b0ce7cb45db42ae717c9427e9bb0df", "type": "electric_scooter", "lat": 38.95077116666667, "is_disabled": 0}, {"fusion_lat": 0.0, "lon": -77.0319145, "is_reserved": 0, "bike_id": "ee7e00c4389b0401c916613e5b0b33ad", "fusion_lon": 0.0, "rental_uris": {"android": "https://dc.lft.to/lastmile_qr_scan", "ios": "https://dc.lft.to/lastmile_qr_scan"}, "name": "ee7e00c4389b0401c916613e5b0b33ad", "type": "electric_scooter", "lat": 38.90547516666667, "is_disabled": 0}, {"fusion_lat": 0.0, "lon": -77.0839495, "is_reserved": 0, "bike_id": "a8532f4f980e709a7bc0c63605c49d86", "fusion_lon": 0.0, "rental_uris": {"android": "https://dc.lft.to/lastmile_qr_scan", "ios": "https://dc.lft.to/lastmile_qr_scan"}, "name": "a8532f4f980e709a7bc0c63605c49d86", "type": "electric_scooter", "lat": 38.90801416666667, "is_disabled": 0}, {"fusion_lat": 0.0, "lon": -77.00199283333333, "is_reserved": 0, "bike_id": "af4af81132c6f019a035ac7ff311cf79", "fusion_lon": 0.0, "rental_uris": {"android": "https://dc.lft.to/lastmile_qr_scan", "ios": "https://dc.lft.to/lastmile_qr_scan"}, "name": "af4af81132c6f019a035ac7ff311cf79", "type": "electric_scooter", "lat": 38.902386666666665, "is_disabled": 0}, {"fusion_lat": 0.0, "lon": -77.03831016666666, "is_reserved": 0, "bike_id": "7957a64708e2c4440269a4f3175a2bdd", "fusion_lon": 0.0, "rental_uris": {"android": "https://dc.lft.to/lastmile_qr_scan", "ios": "https://dc.lft.to/lastmile_qr_scan"}, "name": "7957a64708e2c4440269a4f3175a2bdd", "type": "electric_scooter", "lat": 38.904409333333334, "is_disabled": 0}, {"fusion_lat": 0.0, "lon": -77.03091116666667, "is_reserved": 0, "bike_id": "cc47d11346d4bb4b8c7c33990c1667ac", "fusion_lon": 0.0, "rental_uris": {"android": "https://dc.lft.to/lastmile_qr_scan", "ios": "https://dc.lft.to/lastmile_qr_scan"}, "name": "cc47d11346d4bb4b8c7c33990c1667ac", "type": "electric_bike", "lat": 38.932521666666666, "is_disabled": 0}, {"fusion_lat": 0.0, "lon": -76.99508783333333, "is_reserved": 0, "bike_id": "d394304c576380a1ebce191cf6fae7b2", "fusion_lon": 0.0, "rental_uris": {"android": "https://dc.lft.to/lastmile_qr_scan", "ios": "https://dc.lft.to/lastmile_qr_scan"}, "name": "d394304c576380a1ebce191cf6fae7b2", "type": "electric_scooter", "lat": 38.88014883333334, "is_disabled": 0}, {"fusion_lat": 0.0, "lon": -77.03444716666667, "is_reserved": 0, "bike_id": "35b1ca876bce45a83fbcdbec454b0146", "fusion_lon": 0.0, "rental_uris": {"android": "https://dc.lft.to/lastmile_qr_scan", "ios": "https://dc.lft.to/lastmile_qr_scan"}, "name": "35b1ca876bce45a83fbcdbec454b0146", "type": "electric_scooter", "lat": 38.9182225, "is_disabled": 0}, {"fusion_lat": 0.0, "lon": -77.04232766666667, "is_reserved": 0, "bike_id": "597d443972b1ffebd02660a663120fea", "fusion_lon": 0.0, "rental_uris": {"android": "https://dc.lft.to/lastmile_qr_scan", "ios": "https://dc.lft.to/lastmile_qr_scan"}, "name": "597d443972b1ffebd02660a663120fea", "type": "electric_scooter", "lat": 38.911201166666665, "is_disabled": 0}, {"fusion_lat": 0.0, "lon": -77.03837366666667, "is_reserved": 0, "bike_id": "9fa13cb0446762f3181e67b87a93dd8b", "fusion_lon": 0.0, "rental_uris": {"android": "https://dc.lft.to/lastmile_qr_scan", "ios": "https://dc.lft.to/lastmile_qr_scan"}, "name": "9fa13cb0446762f3181e67b87a93dd8b", "type": "electric_scooter", "lat": 38.9118145, "is_disabled": 0}, {"fusion_lat": 0.0, "lon": -77.02655483333334, "is_reserved": 0, "bike_id": "b13e0f989a34eb7a26cc8ba2e24df3bb", "fusion_lon": 0.0, "rental_uris": {"android": "https://dc.lft.to/lastmile_qr_scan", "ios": "https://dc.lft.to/lastmile_qr_scan"}, "name": "b13e0f989a34eb7a26cc8ba2e24df3bb", "type": "electric_scooter", "lat": 38.97565316666667, "is_disabled": 0}, {"fusion_lat": 0.0, "lon": -77.02405083333333, "is_reserved": 0, "bike_id": "e2ecbe316225be8f4836470c29db695d", "fusion_lon": 0.0, "rental_uris": {"android": "https://dc.lft.to/lastmile_qr_scan", "ios": "https://dc.lft.to/lastmile_qr_scan"}, "name": "e2ecbe316225be8f4836470c29db695d", "type": "electric_scooter", "lat": 38.93351333333333, "is_disabled": 0}, {"fusion_lat": 0.0, "lon": -76.98993, "is_reserved": 0, "bike_id": "63131a19772067881e1d19ee043e3efb", "fusion_lon": 0.0, "rental_uris": {"android": "https://dc.lft.to/lastmile_qr_scan", "ios": "https://dc.lft.to/lastmile_qr_scan"}, "name": "63131a19772067881e1d19ee043e3efb", "type": "electric_scooter", "lat": 38.86432833333333, "is_disabled": 0}, {"fusion_lat": 0.0, "lon": -77.0369415, "is_reserved": 0, "bike_id": "83f18592578dd82ba3e1a437d7d7c178", "fusion_lon": 0.0, "rental_uris": {"android": "https://dc.lft.to/lastmile_qr_scan", "ios": "https://dc.lft.to/lastmile_qr_scan"}, "name": "83f18592578dd82ba3e1a437d7d7c178", "type": "electric_scooter", "lat": 38.91676666666667, "is_disabled": 0}, {"fusion_lat": 0.0, "lon": -77.01812066666666, "is_reserved": 0, "bike_id": "89d66cec38c443ddf049cf51e45902cc", "fusion_lon": 0.0, "rental_uris": {"android": "https://dc.lft.to/lastmile_qr_scan", "ios": "https://dc.lft.to/lastmile_qr_scan"}, "name": "89d66cec38c443ddf049cf51e45902cc", "type": "electric_scooter", "lat": 38.930386666666664, "is_disabled": 0}, {"fusion_lat": 0.0, "lon": -77.04342116666666, "is_reserved": 0, "bike_id": "6f2b8cc328c1a9864efcd31e3a2fd4dc", "fusion_lon": 0.0, "rental_uris": {"android": "https://dc.lft.to/lastmile_qr_scan", "ios": "https://dc.lft.to/lastmile_qr_scan"}, "name": "6f2b8cc328c1a9864efcd31e3a2fd4dc", "type": "electric_scooter", "lat": 38.90878033333333, "is_disabled": 0}, {"fusion_lat": 0.0, "lon": -77.07411966666666, "is_reserved": 0, "bike_id": "3af607db050247abc1434012d542d973", "fusion_lon": 0.0, "rental_uris": {"android": "https://dc.lft.to/lastmile_qr_scan", "ios": "https://dc.lft.to/lastmile_qr_scan"}, "name": "3af607db050247abc1434012d542d973", "type": "electric_scooter", "lat": 38.92886766666667, "is_disabled": 0}, {"fusion_lat": 0.0, "lon": -77.0388545, "is_reserved": 0, "bike_id": "8170af794f21a18602fe7be653a62e45", "fusion_lon": 0.0, "rental_uris": {"android": "https://dc.lft.to/lastmile_qr_scan", "ios": "https://dc.lft.to/lastmile_qr_scan"}, "name": "8170af794f21a18602fe7be653a62e45", "type": "electric_scooter", "lat": 38.91866233333333, "is_disabled": 0}, {"fusion_lat": 0.0, "lon": -76.999351, "is_reserved": 0, "bike_id": "92fd98c3f77e3999c397cf996f702bf2", "fusion_lon": 0.0, "rental_uris": {"android": "https://dc.lft.to/lastmile_qr_scan", "ios": "https://dc.lft.to/lastmile_qr_scan"}, "name": "92fd98c3f77e3999c397cf996f702bf2", "type": "electric_scooter", "lat": 38.906697333333334, "is_disabled": 0}, {"fusion_lat": 0.0, "lon": -77.0382155, "is_reserved": 0, "bike_id": "8dfd76fe88a455193f69e7e334999ff0", "fusion_lon": 0.0, "rental_uris": {"android": "https://dc.lft.to/lastmile_qr_scan", "ios": "https://dc.lft.to/lastmile_qr_scan"}, "name": "8dfd76fe88a455193f69e7e334999ff0", "type": "electric_scooter", "lat": 38.907910666666666, "is_disabled": 0}, {"fusion_lat": 0.0, "lon": -76.9686475, "is_reserved": 0, "bike_id": "ea13ef0347ff6587a5065a1c24a07dfe", "fusion_lon": 0.0, "rental_uris": {"android": "https://dc.lft.to/lastmile_qr_scan", "ios": "https://dc.lft.to/lastmile_qr_scan"}, "name": "ea13ef0347ff6587a5065a1c24a07dfe", "type": "electric_scooter", "lat": 38.87095033333333, "is_disabled": 0}, {"fusion_lat": 0.0, "lon": -77.06590933333334, "is_reserved": 0, "bike_id": "6111e27a6433fb78c473e6b299547880", "fusion_lon": 0.0, "rental_uris": {"android": "https://dc.lft.to/lastmile_qr_scan", "ios": "https://dc.lft.to/lastmile_qr_scan"}, "name": "6111e27a6433fb78c473e6b299547880", "type": "electric_scooter", "lat": 38.90409316666667, "is_disabled": 0}, {"fusion_lat": 0.0, "lon": -76.93475, "is_reserved": 0, "bike_id": "6ed4207fce118fefd6253efbe5542551", "fusion_lon": 0.0, "rental_uris": {"android": "https://dc.lft.to/lastmile_qr_scan", "ios": "https://dc.lft.to/lastmile_qr_scan"}, "name": "6ed4207fce118fefd6253efbe5542551", "type": "electric_scooter", "lat": 38.90551216666667, "is_disabled": 0}, {"fusion_lat": 0.0, "lon": -77.000456, "is_reserved": 0, "bike_id": "e676764a163c87d55b5a8803511d8cde", "fusion_lon": 0.0, "rental_uris": {"android": "https://dc.lft.to/lastmile_qr_scan", "ios": "https://dc.lft.to/lastmile_qr_scan"}, "name": "e676764a163c87d55b5a8803511d8cde", "type": "electric_scooter", "lat": 38.90010066666667, "is_disabled": 0}, {"fusion_lat": 0.0, "lon": -77.063338, "is_reserved": 0, "bike_id": "50c39fb21da51264b87ebae42a6e7792", "fusion_lon": 0.0, "rental_uris": {"android": "https://dc.lft.to/lastmile_qr_scan", "ios": "https://dc.lft.to/lastmile_qr_scan"}, "name": "50c39fb21da51264b87ebae42a6e7792", "type": "electric_scooter", "lat": 38.907241, "is_disabled": 0}, {"fusion_lat": 0.0, "lon": -76.98596033333334, "is_reserved": 0, "bike_id": "883de580466afc7e9ff82a7cd0556651", "fusion_lon": 0.0, "rental_uris": {"android": "https://dc.lft.to/lastmile_qr_scan", "ios": "https://dc.lft.to/lastmile_qr_scan"}, "name": "883de580466afc7e9ff82a7cd0556651", "type": "electric_scooter", "lat": 38.90018966666667, "is_disabled": 0}, {"fusion_lat": 0.0, "lon": -77.03288216666667, "is_reserved": 0, "bike_id": "a5385a1c4cd9c10649fc91b54ceb18a7", "fusion_lon": 0.0, "rental_uris": {"android": "https://dc.lft.to/lastmile_qr_scan", "ios": "https://dc.lft.to/lastmile_qr_scan"}, "name": "a5385a1c4cd9c10649fc91b54ceb18a7", "type": "electric_scooter", "lat": 38.935165, "is_disabled": 0}, {"fusion_lat": 0.0, "lon": -77.02310533333333, "is_reserved": 0, "bike_id": "8df2b40da5439984ac5e6b5ed38bfdec", "fusion_lon": 0.0, "rental_uris": {"android": "https://dc.lft.to/lastmile_qr_scan", "ios": "https://dc.lft.to/lastmile_qr_scan"}, "name": "8df2b40da5439984ac5e6b5ed38bfdec", "type": "electric_scooter", "lat": 38.9183955, "is_disabled": 0}, {"fusion_lat": 0.0, "lon": -77.02713016666667, "is_reserved": 0, "bike_id": "ffc79ce2a841015391f05e0dca2f9ca8", "fusion_lon": 0.0, "rental_uris": {"android": "https://dc.lft.to/lastmile_qr_scan", "ios": "https://dc.lft.to/lastmile_qr_scan"}, "name": "ffc79ce2a841015391f05e0dca2f9ca8", "type": "electric_scooter", "lat": 38.9246655, "is_disabled": 0}, {"fusion_lat": 0.0, "lon": -77.04700616666666, "is_reserved": 0, "bike_id": "709ad71c661ecd8fe1868c3bec89e3e8", "fusion_lon": 0.0, "rental_uris": {"android": "https://dc.lft.to/lastmile_qr_scan", "ios": "https://dc.lft.to/lastmile_qr_scan"}, "name": "709ad71c661ecd8fe1868c3bec89e3e8", "type": "electric_scooter", "lat": 38.9217615, "is_disabled": 0}, {"fusion_lat": 0.0, "lon": -76.98918116666667, "is_reserved": 0, "bike_id": "d84b071b9f3da2e633dffa040d657e1c", "fusion_lon": 0.0, "rental_uris": {"android": "https://dc.lft.to/lastmile_qr_scan", "ios": "https://dc.lft.to/lastmile_qr_scan"}, "name": "d84b071b9f3da2e633dffa040d657e1c", "type": "electric_scooter", "lat": 38.8648835, "is_disabled": 0}, {"fusion_lat": 0.0, "lon": -77.05909833333334, "is_reserved": 0, "bike_id": "97423f017f097c893cf0f76429e7d89f", "fusion_lon": 0.0, "rental_uris": {"android": "https://dc.lft.to/lastmile_qr_scan", "ios": "https://dc.lft.to/lastmile_qr_scan"}, "name": "97423f017f097c893cf0f76429e7d89f", "type": "electric_scooter", "lat": 38.900992, "is_disabled": 0}, {"fusion_lat": 0.0, "lon": -77.01246566666667, "is_reserved": 0, "bike_id": "2431679edfd053a1cc17ce6069136f61", "fusion_lon": 0.0, "rental_uris": {"android": "https://dc.lft.to/lastmile_qr_scan", "ios": "https://dc.lft.to/lastmile_qr_scan"}, "name": "2431679edfd053a1cc17ce6069136f61", "type": "electric_scooter", "lat": 38.915724, "is_disabled": 0}, {"fusion_lat": 0.0, "lon": -77.029427, "is_reserved": 0, "bike_id": "2b7317513941e5fd0b822fd1d4c2a53b", "fusion_lon": 0.0, "rental_uris": {"android": "https://dc.lft.to/lastmile_qr_scan", "ios": "https://dc.lft.to/lastmile_qr_scan"}, "name": "2b7317513941e5fd0b822fd1d4c2a53b", "type": "electric_scooter", "lat": 38.9168245, "is_disabled": 0}, {"fusion_lat": 0.0, "lon": -76.945887, "is_reserved": 0, "bike_id": "ffd52774dff16058e2e65bb516f1f895", "fusion_lon": 0.0, "rental_uris": {"android": "https://dc.lft.to/lastmile_qr_scan", "ios": "https://dc.lft.to/lastmile_qr_scan"}, "name": "ffd52774dff16058e2e65bb516f1f895", "type": "electric_scooter", "lat": 38.9014875, "is_disabled": 0}, {"fusion_lat": 0.0, "lon": -76.97397216666667, "is_reserved": 0, "bike_id": "e2144e25c9b0585dd3b3500616be6ab8", "fusion_lon": 0.0, "rental_uris": {"android": "https://dc.lft.to/lastmile_qr_scan", "ios": "https://dc.lft.to/lastmile_qr_scan"}, "name": "e2144e25c9b0585dd3b3500616be6ab8", "type": "electric_scooter", "lat": 38.90296683333333, "is_disabled": 0}, {"fusion_lat": 0.0, "lon": -77.00082366666666, "is_reserved": 0, "bike_id": "da06d5232cdf371053e4847e986625af", "fusion_lon": 0.0, "rental_uris": {"android": "https://dc.lft.to/lastmile_qr_scan", "ios": "https://dc.lft.to/lastmile_qr_scan"}, "name": "da06d5232cdf371053e4847e986625af", "type": "electric_scooter", "lat": 38.907096833333334, "is_disabled": 0}, {"fusion_lat": 0.0, "lon": -77.02175483333333, "is_reserved": 0, "bike_id": "0b48c09fb9c0e9c1bca0f9787318ba9d", "fusion_lon": 0.0, "rental_uris": {"android": "https://dc.lft.to/lastmile_qr_scan", "ios": "https://dc.lft.to/lastmile_qr_scan"}, "name": "0b48c09fb9c0e9c1bca0f9787318ba9d", "type": "electric_scooter", "lat": 38.8973405, "is_disabled": 0}, {"fusion_lat": 0.0, "lon": -77.002072, "is_reserved": 0, "bike_id": "7c91eb8f6bd19ef12c3d73f80ae9463a", "fusion_lon": 0.0, "rental_uris": {"android": "https://dc.lft.to/lastmile_qr_scan", "ios": "https://dc.lft.to/lastmile_qr_scan"}, "name": "7c91eb8f6bd19ef12c3d73f80ae9463a", "type": "electric_scooter", "lat": 38.895435, "is_disabled": 0}, {"fusion_lat": 0.0, "lon": -77.0630755, "is_reserved": 0, "bike_id": "a3a3bc88240c83dc64227710c51aa82a", "fusion_lon": 0.0, "rental_uris": {"android": "https://dc.lft.to/lastmile_qr_scan", "ios": "https://dc.lft.to/lastmile_qr_scan"}, "name": "a3a3bc88240c83dc64227710c51aa82a", "type": "electric_scooter", "lat": 38.94344916666667, "is_disabled": 0}, {"fusion_lat": 0.0, "lon": -77.00376633333333, "is_reserved": 0, "bike_id": "eb89bca1f61b9b59b0075c49ecc8fdc0", "fusion_lon": 0.0, "rental_uris": {"android": "https://dc.lft.to/lastmile_qr_scan", "ios": "https://dc.lft.to/lastmile_qr_scan"}, "name": "eb89bca1f61b9b59b0075c49ecc8fdc0", "type": "electric_scooter", "lat": 38.897289, "is_disabled": 0}, {"fusion_lat": 0.0, "lon": -77.02173433333333, "is_reserved": 0, "bike_id": "961e7215d18872f9092abf3e79356287", "fusion_lon": 0.0, "rental_uris": {"android": "https://dc.lft.to/lastmile_qr_scan", "ios": "https://dc.lft.to/lastmile_qr_scan"}, "name": "961e7215d18872f9092abf3e79356287", "type": "electric_scooter", "lat": 38.9199585, "is_disabled": 0}, {"fusion_lat": 0.0, "lon": -77.0334235, "is_reserved": 0, "bike_id": "86350ec5e3e3b41cdf38d4a0167d74a9", "fusion_lon": 0.0, "rental_uris": {"android": "https://dc.lft.to/lastmile_qr_scan", "ios": "https://dc.lft.to/lastmile_qr_scan"}, "name": "86350ec5e3e3b41cdf38d4a0167d74a9", "type": "electric_scooter", "lat": 38.91708416666667, "is_disabled": 0}, {"fusion_lat": 0.0, "lon": -77.0432535, "is_reserved": 0, "bike_id": "3f8eed4595eb9f48ec4689266d494dc5", "fusion_lon": 0.0, "rental_uris": {"android": "https://dc.lft.to/lastmile_qr_scan", "ios": "https://dc.lft.to/lastmile_qr_scan"}, "name": "3f8eed4595eb9f48ec4689266d494dc5", "type": "electric_scooter", "lat": 38.90888283333334, "is_disabled": 0}, {"fusion_lat": 0.0, "lon": -76.986815, "is_reserved": 0, "bike_id": "3e6334e7584080c97f411e3a5eec4b0e", "fusion_lon": 0.0, "rental_uris": {"android": "https://dc.lft.to/lastmile_qr_scan", "ios": "https://dc.lft.to/lastmile_qr_scan"}, "name": "3e6334e7584080c97f411e3a5eec4b0e", "type": "electric_scooter", "lat": 38.862488166666665, "is_disabled": 0}, {"fusion_lat": 0.0, "lon": -77.04324466666667, "is_reserved": 0, "bike_id": "e355b1056ded4677907de658404caf0a", "fusion_lon": 0.0, "rental_uris": {"android": "https://dc.lft.to/lastmile_qr_scan", "ios": "https://dc.lft.to/lastmile_qr_scan"}, "name": "e355b1056ded4677907de658404caf0a", "type": "electric_scooter", "lat": 38.892215, "is_disabled": 0}, {"fusion_lat": 0.0, "lon": -77.032835, "is_reserved": 0, "bike_id": "a8ffff2658351db7ec4838ef353474ed", "fusion_lon": 0.0, "rental_uris": {"android": "https://dc.lft.to/lastmile_qr_scan", "ios": "https://dc.lft.to/lastmile_qr_scan"}, "name": "a8ffff2658351db7ec4838ef353474ed", "type": "electric_scooter", "lat": 38.902714333333336, "is_disabled": 0}, {"fusion_lat": 0.0, "lon": -77.00294766666667, "is_reserved": 0, "bike_id": "1a748f8d9da8f1fcf439f0a7a3b74ef3", "fusion_lon": 0.0, "rental_uris": {"android": "https://dc.lft.to/lastmile_qr_scan", "ios": "https://dc.lft.to/lastmile_qr_scan"}, "name": "1a748f8d9da8f1fcf439f0a7a3b74ef3", "type": "electric_scooter", "lat": 38.89487783333333, "is_disabled": 0}, {"fusion_lat": 0.0, "lon": -76.97332466666667, "is_reserved": 0, "bike_id": "9f49b1d520df916852c1a2da876bb3ed", "fusion_lon": 0.0, "rental_uris": {"android": "https://dc.lft.to/lastmile_qr_scan", "ios": "https://dc.lft.to/lastmile_qr_scan"}, "name": "9f49b1d520df916852c1a2da876bb3ed", "type": "electric_scooter", "lat": 38.9040875, "is_disabled": 0}, {"fusion_lat": 0.0, "lon": -77.00038683333334, "is_reserved": 0, "bike_id": "9ca0616cc423d6f180dc0431d42562cc", "fusion_lon": 0.0, "rental_uris": {"android": "https://dc.lft.to/lastmile_qr_scan", "ios": "https://dc.lft.to/lastmile_qr_scan"}, "name": "9ca0616cc423d6f180dc0431d42562cc", "type": "electric_scooter", "lat": 38.900132, "is_disabled": 0}, {"fusion_lat": 0.0, "lon": -77.03175116666667, "is_reserved": 0, "bike_id": "d0406783f0217aa6095e8c7db21282cc", "fusion_lon": 0.0, "rental_uris": {"android": "https://dc.lft.to/lastmile_qr_scan", "ios": "https://dc.lft.to/lastmile_qr_scan"}, "name": "d0406783f0217aa6095e8c7db21282cc", "type": "electric_scooter", "lat": 38.91177283333333, "is_disabled": 0}, {"fusion_lat": 0.0, "lon": -77.03066266666667, "is_reserved": 0, "bike_id": "97b8c6788f598fec6fd360eedc227513", "fusion_lon": 0.0, "rental_uris": {"android": "https://dc.lft.to/lastmile_qr_scan", "ios": "https://dc.lft.to/lastmile_qr_scan"}, "name": "97b8c6788f598fec6fd360eedc227513", "type": "electric_scooter", "lat": 38.9223885, "is_disabled": 0}, {"fusion_lat": 0.0, "lon": -76.993668, "is_reserved": 0, "bike_id": "93ae2a2d18418a922b57465832308110", "fusion_lon": 0.0, "rental_uris": {"android": "https://dc.lft.to/lastmile_qr_scan", "ios": "https://dc.lft.to/lastmile_qr_scan"}, "name": "93ae2a2d18418a922b57465832308110", "type": "electric_scooter", "lat": 38.92835683333333, "is_disabled": 0}, {"fusion_lat": 0.0, "lon": -77.0342695, "is_reserved": 0, "bike_id": "29dea5fb2a54fc63dcf460b8ab265abb", "fusion_lon": 0.0, "rental_uris": {"android": "https://dc.lft.to/lastmile_qr_scan", "ios": "https://dc.lft.to/lastmile_qr_scan"}, "name": "29dea5fb2a54fc63dcf460b8ab265abb", "type": "electric_bike", "lat": 38.9662175, "is_disabled": 0}, {"fusion_lat": 0.0, "lon": -76.97480983333334, "is_reserved": 0, "bike_id": "f01917a6b38005c3c595a2347f7789be", "fusion_lon": 0.0, "rental_uris": {"android": "https://dc.lft.to/lastmile_qr_scan", "ios": "https://dc.lft.to/lastmile_qr_scan"}, "name": "f01917a6b38005c3c595a2347f7789be", "type": "electric_scooter", "lat": 38.903546, "is_disabled": 0}, {"fusion_lat": 0.0, "lon": -77.02334733333333, "is_reserved": 0, "bike_id": "44e05bc81614068ddc909ef5dbfeab75", "fusion_lon": 0.0, "rental_uris": {"android": "https://dc.lft.to/lastmile_qr_scan", "ios": "https://dc.lft.to/lastmile_qr_scan"}, "name": "44e05bc81614068ddc909ef5dbfeab75", "type": "electric_scooter", "lat": 38.92469366666667, "is_disabled": 0}, {"fusion_lat": 0.0, "lon": -77.04043783333333, "is_reserved": 0, "bike_id": "8a0ad4eaaa84a3736531460fdb474165", "fusion_lon": 0.0, "rental_uris": {"android": "https://dc.lft.to/lastmile_qr_scan", "ios": "https://dc.lft.to/lastmile_qr_scan"}, "name": "8a0ad4eaaa84a3736531460fdb474165", "type": "electric_scooter", "lat": 38.918601, "is_disabled": 0}, {"fusion_lat": 0.0, "lon": -77.0420025, "is_reserved": 0, "bike_id": "6919050a5243ec3f27370770eda9c34a", "fusion_lon": 0.0, "rental_uris": {"android": "https://dc.lft.to/lastmile_qr_scan", "ios": "https://dc.lft.to/lastmile_qr_scan"}, "name": "6919050a5243ec3f27370770eda9c34a", "type": "electric_scooter", "lat": 38.906519833333334, "is_disabled": 0}, {"fusion_lat": 0.0, "lon": -77.04873966666666, "is_reserved": 0, "bike_id": "27a4372a9231827906093d1ffeb78453", "fusion_lon": 0.0, "rental_uris": {"android": "https://dc.lft.to/lastmile_qr_scan", "ios": "https://dc.lft.to/lastmile_qr_scan"}, "name": "27a4372a9231827906093d1ffeb78453", "type": "electric_scooter", "lat": 38.9097935, "is_disabled": 0}, {"fusion_lat": 0.0, "lon": -77.028095, "is_reserved": 0, "bike_id": "e1a57dc985da32e0ea3236f4eabe8b53", "fusion_lon": 0.0, "rental_uris": {"android": "https://dc.lft.to/lastmile_qr_scan", "ios": "https://dc.lft.to/lastmile_qr_scan"}, "name": "e1a57dc985da32e0ea3236f4eabe8b53", "type": "electric_scooter", "lat": 38.89522383333333, "is_disabled": 0}, {"fusion_lat": 0.0, "lon": -76.987691, "is_reserved": 0, "bike_id": "f59dcf1647e7752ceacb95b02de045c4", "fusion_lon": 0.0, "rental_uris": {"android": "https://dc.lft.to/lastmile_qr_scan", "ios": "https://dc.lft.to/lastmile_qr_scan"}, "name": "f59dcf1647e7752ceacb95b02de045c4", "type": "electric_bike", "lat": 38.857719, "is_disabled": 0}, {"fusion_lat": 0.0, "lon": -77.02881383333333, "is_reserved": 0, "bike_id": "582cf6abe2832efd9d4e4731f270f171", "fusion_lon": 0.0, "rental_uris": {"android": "https://dc.lft.to/lastmile_qr_scan", "ios": "https://dc.lft.to/lastmile_qr_scan"}, "name": "582cf6abe2832efd9d4e4731f270f171", "type": "electric_scooter", "lat": 39.0374445, "is_disabled": 0}, {"fusion_lat": 0.0, "lon": -77.00683283333333, "is_reserved": 0, "bike_id": "710208f9c6dbe61418f88352f8b3bf48", "fusion_lon": 0.0, "rental_uris": {"android": "https://dc.lft.to/lastmile_qr_scan", "ios": "https://dc.lft.to/lastmile_qr_scan"}, "name": "710208f9c6dbe61418f88352f8b3bf48", "type": "electric_scooter", "lat": 38.90041983333333, "is_disabled": 0}, {"fusion_lat": 0.0, "lon": -77.07352683333333, "is_reserved": 0, "bike_id": "b7f3deaa5b0aa4bf0b1cff6afb998efd", "fusion_lon": 0.0, "rental_uris": {"android": "https://dc.lft.to/lastmile_qr_scan", "ios": "https://dc.lft.to/lastmile_qr_scan"}, "name": "b7f3deaa5b0aa4bf0b1cff6afb998efd", "type": "electric_scooter", "lat": 38.9335635, "is_disabled": 0}, {"fusion_lat": 0.0, "lon": -76.99480533333333, "is_reserved": 0, "bike_id": "7e98d197f3cd1b8d8895596e17618cb6", "fusion_lon": 0.0, "rental_uris": {"android": "https://dc.lft.to/lastmile_qr_scan", "ios": "https://dc.lft.to/lastmile_qr_scan"}, "name": "7e98d197f3cd1b8d8895596e17618cb6", "type": "electric_scooter", "lat": 38.862165833333336, "is_disabled": 0}, {"fusion_lat": 0.0, "lon": -76.97427, "is_reserved": 0, "bike_id": "6a04a310117ecedba569ee324fb833ad", "fusion_lon": 0.0, "rental_uris": {"android": "https://dc.lft.to/lastmile_qr_scan", "ios": "https://dc.lft.to/lastmile_qr_scan"}, "name": "6a04a310117ecedba569ee324fb833ad", "type": "electric_scooter", "lat": 38.904550666666665, "is_disabled": 0}, {"fusion_lat": 0.0, "lon": -77.04879633333333, "is_reserved": 0, "bike_id": "7fb182ad9ba6bb283a9ccda0bf2b68b6", "fusion_lon": 0.0, "rental_uris": {"android": "https://dc.lft.to/lastmile_qr_scan", "ios": "https://dc.lft.to/lastmile_qr_scan"}, "name": "7fb182ad9ba6bb283a9ccda0bf2b68b6", "type": "electric_scooter", "lat": 38.9156185, "is_disabled": 0}, {"fusion_lat": 0.0, "lon": -77.080717, "is_reserved": 0, "bike_id": "4ce6c7f392cfe13c4ce308a40c656fe7", "fusion_lon": 0.0, "rental_uris": {"android": "https://dc.lft.to/lastmile_qr_scan", "ios": "https://dc.lft.to/lastmile_qr_scan"}, "name": "4ce6c7f392cfe13c4ce308a40c656fe7", "type": "electric_bike", "lat": 39.05280666666667, "is_disabled": 0}, {"fusion_lat": 0.0, "lon": -77.0506, "is_reserved": 0, "bike_id": "88aff766e2c8821ff5901e4a6e6667c0", "fusion_lon": 0.0, "rental_uris": {"android": "https://dc.lft.to/lastmile_qr_scan", "ios": "https://dc.lft.to/lastmile_qr_scan"}, "name": "88aff766e2c8821ff5901e4a6e6667c0", "type": "electric_scooter", "lat": 38.90534683333333, "is_disabled": 0}, {"fusion_lat": 0.0, "lon": -77.019648, "is_reserved": 0, "bike_id": "8f98c95931883586620374abf8288369", "fusion_lon": 0.0, "rental_uris": {"android": "https://dc.lft.to/lastmile_qr_scan", "ios": "https://dc.lft.to/lastmile_qr_scan"}, "name": "8f98c95931883586620374abf8288369", "type": "electric_scooter", "lat": 38.95020933333333, "is_disabled": 0}, {"fusion_lat": 0.0, "lon": -77.0301315, "is_reserved": 0, "bike_id": "d68480cbbd537b82ca78492d88d19733", "fusion_lon": 0.0, "rental_uris": {"android": "https://dc.lft.to/lastmile_qr_scan", "ios": "https://dc.lft.to/lastmile_qr_scan"}, "name": "d68480cbbd537b82ca78492d88d19733", "type": "electric_scooter", "lat": 38.926715333333334, "is_disabled": 0}, {"fusion_lat": 0.0, "lon": -77.02362766666667, "is_reserved": 0, "bike_id": "7d09c5a71fdfc04486ccbae905a9116e", "fusion_lon": 0.0, "rental_uris": {"android": "https://dc.lft.to/lastmile_qr_scan", "ios": "https://dc.lft.to/lastmile_qr_scan"}, "name": "7d09c5a71fdfc04486ccbae905a9116e", "type": "electric_scooter", "lat": 38.89217166666667, "is_disabled": 0}, {"fusion_lat": 0.0, "lon": -77.03848916666666, "is_reserved": 0, "bike_id": "158053a6587ae6f1b96b5b027cf8211c", "fusion_lon": 0.0, "rental_uris": {"android": "https://dc.lft.to/lastmile_qr_scan", "ios": "https://dc.lft.to/lastmile_qr_scan"}, "name": "158053a6587ae6f1b96b5b027cf8211c", "type": "electric_scooter", "lat": 38.921651, "is_disabled": 0}, {"fusion_lat": 0.0, "lon": -77.05000733333334, "is_reserved": 0, "bike_id": "dd21e3f908c2bf3927f4f261ddf85f2b", "fusion_lon": 0.0, "rental_uris": {"android": "https://dc.lft.to/lastmile_qr_scan", "ios": "https://dc.lft.to/lastmile_qr_scan"}, "name": "dd21e3f908c2bf3927f4f261ddf85f2b", "type": "electric_scooter", "lat": 38.905428666666666, "is_disabled": 0}, {"fusion_lat": 0.0, "lon": -77.0632865, "is_reserved": 0, "bike_id": "73dd0f620b48e11c0946060e0b0088bf", "fusion_lon": 0.0, "rental_uris": {"android": "https://dc.lft.to/lastmile_qr_scan", "ios": "https://dc.lft.to/lastmile_qr_scan"}, "name": "73dd0f620b48e11c0946060e0b0088bf", "type": "electric_scooter", "lat": 38.94417516666667, "is_disabled": 0}, {"fusion_lat": 0.0, "lon": -77.01986666666667, "is_reserved": 0, "bike_id": "13ce5807a879bea2cf620a5df959d2d5", "fusion_lon": 0.0, "rental_uris": {"android": "https://dc.lft.to/lastmile_qr_scan", "ios": "https://dc.lft.to/lastmile_qr_scan"}, "name": "13ce5807a879bea2cf620a5df959d2d5", "type": "electric_scooter", "lat": 38.885943, "is_disabled": 0}, {"fusion_lat": 0.0, "lon": -76.95408533333334, "is_reserved": 0, "bike_id": "ac2c2c0ec4f8114fe2a34b6836af4ec2", "fusion_lon": 0.0, "rental_uris": {"android": "https://dc.lft.to/lastmile_qr_scan", "ios": "https://dc.lft.to/lastmile_qr_scan"}, "name": "ac2c2c0ec4f8114fe2a34b6836af4ec2", "type": "electric_scooter", "lat": 38.88466733333333, "is_disabled": 0}, {"fusion_lat": 0.0, "lon": -77.027007, "is_reserved": 0, "bike_id": "2eeb393398e3f3edde2d8aaa14c67b50", "fusion_lon": 0.0, "rental_uris": {"android": "https://dc.lft.to/lastmile_qr_scan", "ios": "https://dc.lft.to/lastmile_qr_scan"}, "name": "2eeb393398e3f3edde2d8aaa14c67b50", "type": "electric_scooter", "lat": 38.9066555, "is_disabled": 0}, {"fusion_lat": 0.0, "lon": -77.02947, "is_reserved": 0, "bike_id": "b1fe0ad36200787c9286356fa41321c8", "fusion_lon": 0.0, "rental_uris": {"android": "https://dc.lft.to/lastmile_qr_scan", "ios": "https://dc.lft.to/lastmile_qr_scan"}, "name": "b1fe0ad36200787c9286356fa41321c8", "type": "electric_scooter", "lat": 38.9050285, "is_disabled": 0}, {"fusion_lat": 0.0, "lon": -77.054879, "is_reserved": 0, "bike_id": "744d2a8347ec0e5e78c988d6c1cd89a4", "fusion_lon": 0.0, "rental_uris": {"android": "https://dc.lft.to/lastmile_qr_scan", "ios": "https://dc.lft.to/lastmile_qr_scan"}, "name": "744d2a8347ec0e5e78c988d6c1cd89a4", "type": "electric_scooter", "lat": 38.89383766666667, "is_disabled": 0}, {"fusion_lat": 0.0, "lon": -77.05902866666666, "is_reserved": 0, "bike_id": "0da09f5085f236e171b501bc9aaff92b", "fusion_lon": 0.0, "rental_uris": {"android": "https://dc.lft.to/lastmile_qr_scan", "ios": "https://dc.lft.to/lastmile_qr_scan"}, "name": "0da09f5085f236e171b501bc9aaff92b", "type": "electric_scooter", "lat": 38.90145566666666, "is_disabled": 0}, {"fusion_lat": 0.0, "lon": -76.98716116666667, "is_reserved": 0, "bike_id": "8bcd906b7ea997f507a7628dbd5cb2d8", "fusion_lon": 0.0, "rental_uris": {"android": "https://dc.lft.to/lastmile_qr_scan", "ios": "https://dc.lft.to/lastmile_qr_scan"}, "name": "8bcd906b7ea997f507a7628dbd5cb2d8", "type": "electric_scooter", "lat": 38.866248, "is_disabled": 0}, {"fusion_lat": 0.0, "lon": -77.04825133333334, "is_reserved": 0, "bike_id": "ebb4627a40a24c8d71202338420de261", "fusion_lon": 0.0, "rental_uris": {"android": "https://dc.lft.to/lastmile_qr_scan", "ios": "https://dc.lft.to/lastmile_qr_scan"}, "name": "ebb4627a40a24c8d71202338420de261", "type": "electric_scooter", "lat": 38.910336666666666, "is_disabled": 0}, {"fusion_lat": 0.0, "lon": -77.0222975, "is_reserved": 0, "bike_id": "5ceaed1c89a04726f70b826ec70d312f", "fusion_lon": 0.0, "rental_uris": {"android": "https://dc.lft.to/lastmile_qr_scan", "ios": "https://dc.lft.to/lastmile_qr_scan"}, "name": "5ceaed1c89a04726f70b826ec70d312f", "type": "electric_scooter", "lat": 38.892198, "is_disabled": 0}, {"fusion_lat": 0.0, "lon": -76.99766133333333, "is_reserved": 0, "bike_id": "3ac5b559c6ecde958703e290ed44ec8d", "fusion_lon": 0.0, "rental_uris": {"android": "https://dc.lft.to/lastmile_qr_scan", "ios": "https://dc.lft.to/lastmile_qr_scan"}, "name": "3ac5b559c6ecde958703e290ed44ec8d", "type": "electric_scooter", "lat": 38.92444, "is_disabled": 0}, {"fusion_lat": 0.0, "lon": -76.97746016666666, "is_reserved": 0, "bike_id": "df85befe19a469278a5a853512319ee4", "fusion_lon": 0.0, "rental_uris": {"android": "https://dc.lft.to/lastmile_qr_scan", "ios": "https://dc.lft.to/lastmile_qr_scan"}, "name": "df85befe19a469278a5a853512319ee4", "type": "electric_bike", "lat": 38.864567666666666, "is_disabled": 0}, {"fusion_lat": 0.0, "lon": -77.02965266666666, "is_reserved": 0, "bike_id": "1aed505fdd5e9842c6b8976eadaf3336", "fusion_lon": 0.0, "rental_uris": {"android": "https://dc.lft.to/lastmile_qr_scan", "ios": "https://dc.lft.to/lastmile_qr_scan"}, "name": "1aed505fdd5e9842c6b8976eadaf3336", "type": "electric_scooter", "lat": 38.904888, "is_disabled": 0}, {"fusion_lat": 0.0, "lon": -77.0299025, "is_reserved": 0, "bike_id": "de406f3372cee5f16c8d905fc5832ffd", "fusion_lon": 0.0, "rental_uris": {"android": "https://dc.lft.to/lastmile_qr_scan", "ios": "https://dc.lft.to/lastmile_qr_scan"}, "name": "de406f3372cee5f16c8d905fc5832ffd", "type": "electric_bike", "lat": 38.974419833333336, "is_disabled": 0}, {"fusion_lat": 0.0, "lon": -77.00337233333333, "is_reserved": 0, "bike_id": "42819d4d30fbbd16be19c602649c51cb", "fusion_lon": 0.0, "rental_uris": {"android": "https://dc.lft.to/lastmile_qr_scan", "ios": "https://dc.lft.to/lastmile_qr_scan"}, "name": "42819d4d30fbbd16be19c602649c51cb", "type": "electric_scooter", "lat": 38.895256333333336, "is_disabled": 0}, {"fusion_lat": 0.0, "lon": -77.03499833333333, "is_reserved": 0, "bike_id": "bdf19ae0d0fe4cab630a95ebc7bbd49b", "fusion_lon": 0.0, "rental_uris": {"android": "https://dc.lft.to/lastmile_qr_scan", "ios": "https://dc.lft.to/lastmile_qr_scan"}, "name": "bdf19ae0d0fe4cab630a95ebc7bbd49b", "type": "electric_scooter", "lat": 38.92333933333333, "is_disabled": 0}, {"fusion_lat": 0.0, "lon": -77.0414915, "is_reserved": 0, "bike_id": "5a717221626b9d1438ccefcd606d6298", "fusion_lon": 0.0, "rental_uris": {"android": "https://dc.lft.to/lastmile_qr_scan", "ios": "https://dc.lft.to/lastmile_qr_scan"}, "name": "5a717221626b9d1438ccefcd606d6298", "type": "electric_scooter", "lat": 38.917041, "is_disabled": 0}, {"fusion_lat": 0.0, "lon": -77.0512145, "is_reserved": 0, "bike_id": "4d10f609fd392c96fa0b34d8960bdfb3", "fusion_lon": 0.0, "rental_uris": {"android": "https://dc.lft.to/lastmile_qr_scan", "ios": "https://dc.lft.to/lastmile_qr_scan"}, "name": "4d10f609fd392c96fa0b34d8960bdfb3", "type": "electric_scooter", "lat": 38.90504966666666, "is_disabled": 0}, {"fusion_lat": 0.0, "lon": -77.03865133333333, "is_reserved": 0, "bike_id": "a1dfb2e3a5483f2c2292eaf98b153e23", "fusion_lon": 0.0, "rental_uris": {"android": "https://dc.lft.to/lastmile_qr_scan", "ios": "https://dc.lft.to/lastmile_qr_scan"}, "name": "a1dfb2e3a5483f2c2292eaf98b153e23", "type": "electric_scooter", "lat": 38.891927, "is_disabled": 0}, {"fusion_lat": 0.0, "lon": -77.02954283333334, "is_reserved": 0, "bike_id": "8d2e9c50d7a61672d1e8d459a5fdf9dd", "fusion_lon": 0.0, "rental_uris": {"android": "https://dc.lft.to/lastmile_qr_scan", "ios": "https://dc.lft.to/lastmile_qr_scan"}, "name": "8d2e9c50d7a61672d1e8d459a5fdf9dd", "type": "electric_scooter", "lat": 38.90489016666667, "is_disabled": 0}, {"fusion_lat": 0.0, "lon": -76.996128, "is_reserved": 0, "bike_id": "d3a1bb70ae5a7e34e0f229b6ea0dc4da", "fusion_lon": 0.0, "rental_uris": {"android": "https://dc.lft.to/lastmile_qr_scan", "ios": "https://dc.lft.to/lastmile_qr_scan"}, "name": "d3a1bb70ae5a7e34e0f229b6ea0dc4da", "type": "electric_scooter", "lat": 38.886226, "is_disabled": 0}, {"fusion_lat": 0.0, "lon": -76.99807633333333, "is_reserved": 0, "bike_id": "dba4f75fe7f41b9e66c017415538a029", "fusion_lon": 0.0, "rental_uris": {"android": "https://dc.lft.to/lastmile_qr_scan", "ios": "https://dc.lft.to/lastmile_qr_scan"}, "name": "dba4f75fe7f41b9e66c017415538a029", "type": "electric_scooter", "lat": 38.9002385, "is_disabled": 0}, {"fusion_lat": 0.0, "lon": -77.01969733333334, "is_reserved": 0, "bike_id": "f44debb486694180946aa805acc3ff5d", "fusion_lon": 0.0, "rental_uris": {"android": "https://dc.lft.to/lastmile_qr_scan", "ios": "https://dc.lft.to/lastmile_qr_scan"}, "name": "f44debb486694180946aa805acc3ff5d", "type": "electric_scooter", "lat": 38.87846433333333, "is_disabled": 0}, {"fusion_lat": 0.0, "lon": -77.02246766666667, "is_reserved": 0, "bike_id": "290969bcf954d2ef666d4539ff9003d3", "fusion_lon": 0.0, "rental_uris": {"android": "https://dc.lft.to/lastmile_qr_scan", "ios": "https://dc.lft.to/lastmile_qr_scan"}, "name": "290969bcf954d2ef666d4539ff9003d3", "type": "electric_scooter", "lat": 38.89387, "is_disabled": 0}, {"fusion_lat": 0.0, "lon": -77.01141866666667, "is_reserved": 0, "bike_id": "f7874528d3819315ee6283a002ff4a6d", "fusion_lon": 0.0, "rental_uris": {"android": "https://dc.lft.to/lastmile_qr_scan", "ios": "https://dc.lft.to/lastmile_qr_scan"}, "name": "f7874528d3819315ee6283a002ff4a6d", "type": "electric_scooter", "lat": 38.9170655, "is_disabled": 0}, {"fusion_lat": 0.0, "lon": -77.003447, "is_reserved": 0, "bike_id": "ca4b68005e61f12a71c438ff62ed3b03", "fusion_lon": 0.0, "rental_uris": {"android": "https://dc.lft.to/lastmile_qr_scan", "ios": "https://dc.lft.to/lastmile_qr_scan"}, "name": "ca4b68005e61f12a71c438ff62ed3b03", "type": "electric_scooter", "lat": 38.8870015, "is_disabled": 0}, {"fusion_lat": 0.0, "lon": -76.98377333333333, "is_reserved": 0, "bike_id": "13e9f339ced6b085d7fa4deade00a017", "fusion_lon": 0.0, "rental_uris": {"android": "https://dc.lft.to/lastmile_qr_scan", "ios": "https://dc.lft.to/lastmile_qr_scan"}, "name": "13e9f339ced6b085d7fa4deade00a017", "type": "electric_scooter", "lat": 38.90648616666667, "is_disabled": 0}, {"fusion_lat": 0.0, "lon": -77.04370683333333, "is_reserved": 0, "bike_id": "0fd6f80bfb6282fcdb6a1a194d40be4b", "fusion_lon": 0.0, "rental_uris": {"android": "https://dc.lft.to/lastmile_qr_scan", "ios": "https://dc.lft.to/lastmile_qr_scan"}, "name": "0fd6f80bfb6282fcdb6a1a194d40be4b", "type": "electric_scooter", "lat": 38.892204166666666, "is_disabled": 0}, {"fusion_lat": 0.0, "lon": -76.98714483333333, "is_reserved": 0, "bike_id": "c850184602931e7393fc916f576ded6a", "fusion_lon": 0.0, "rental_uris": {"android": "https://dc.lft.to/lastmile_qr_scan", "ios": "https://dc.lft.to/lastmile_qr_scan"}, "name": "c850184602931e7393fc916f576ded6a", "type": "electric_scooter", "lat": 38.866238833333334, "is_disabled": 0}, {"fusion_lat": 0.0, "lon": -77.01760883333333, "is_reserved": 0, "bike_id": "1925511bfd6e4b85b2d397a45faf8c0b", "fusion_lon": 0.0, "rental_uris": {"android": "https://dc.lft.to/lastmile_qr_scan", "ios": "https://dc.lft.to/lastmile_qr_scan"}, "name": "1925511bfd6e4b85b2d397a45faf8c0b", "type": "electric_scooter", "lat": 38.90263983333333, "is_disabled": 0}, {"fusion_lat": 0.0, "lon": -76.989704, "is_reserved": 0, "bike_id": "5051178494e2e1714bf215288f33fffa", "fusion_lon": 0.0, "rental_uris": {"android": "https://dc.lft.to/lastmile_qr_scan", "ios": "https://dc.lft.to/lastmile_qr_scan"}, "name": "5051178494e2e1714bf215288f33fffa", "type": "electric_scooter", "lat": 38.856809, "is_disabled": 0}, {"fusion_lat": 0.0, "lon": -76.95184883333333, "is_reserved": 0, "bike_id": "8e201cd88fd97e7168845c99bb0b3499", "fusion_lon": 0.0, "rental_uris": {"android": "https://dc.lft.to/lastmile_qr_scan", "ios": "https://dc.lft.to/lastmile_qr_scan"}, "name": "8e201cd88fd97e7168845c99bb0b3499", "type": "electric_scooter", "lat": 38.90738016666667, "is_disabled": 0}, {"fusion_lat": 0.0, "lon": -76.97304566666666, "is_reserved": 0, "bike_id": "a9c9356dd04879674fc6d182c70e0974", "fusion_lon": 0.0, "rental_uris": {"android": "https://dc.lft.to/lastmile_qr_scan", "ios": "https://dc.lft.to/lastmile_qr_scan"}, "name": "a9c9356dd04879674fc6d182c70e0974", "type": "electric_scooter", "lat": 38.846461, "is_disabled": 0}, {"fusion_lat": 0.0, "lon": -76.94422283333333, "is_reserved": 0, "bike_id": "06fbd6bf5a9e2a642f0a1666fb3494a4", "fusion_lon": 0.0, "rental_uris": {"android": "https://dc.lft.to/lastmile_qr_scan", "ios": "https://dc.lft.to/lastmile_qr_scan"}, "name": "06fbd6bf5a9e2a642f0a1666fb3494a4", "type": "electric_bike", "lat": 38.966194, "is_disabled": 0}, {"fusion_lat": 0.0, "lon": -77.03022616666667, "is_reserved": 0, "bike_id": "64d869df70b1f42c804a6161881c4390", "fusion_lon": 0.0, "rental_uris": {"android": "https://dc.lft.to/lastmile_qr_scan", "ios": "https://dc.lft.to/lastmile_qr_scan"}, "name": "64d869df70b1f42c804a6161881c4390", "type": "electric_scooter", "lat": 38.90499716666667, "is_disabled": 0}, {"fusion_lat": 0.0, "lon": -77.00069166666667, "is_reserved": 0, "bike_id": "b5dfcc52310c535b01618793e108c0fe", "fusion_lon": 0.0, "rental_uris": {"android": "https://dc.lft.to/lastmile_qr_scan", "ios": "https://dc.lft.to/lastmile_qr_scan"}, "name": "b5dfcc52310c535b01618793e108c0fe", "type": "electric_scooter", "lat": 38.92436266666667, "is_disabled": 0}, {"fusion_lat": 0.0, "lon": -77.05575883333333, "is_reserved": 0, "bike_id": "a1785a7ae0b9ad094762aaf153674014", "fusion_lon": 0.0, "rental_uris": {"android": "https://dc.lft.to/lastmile_qr_scan", "ios": "https://dc.lft.to/lastmile_qr_scan"}, "name": "a1785a7ae0b9ad094762aaf153674014", "type": "electric_scooter", "lat": 38.93621616666667, "is_disabled": 0}, {"fusion_lat": 0.0, "lon": -77.00728233333334, "is_reserved": 0, "bike_id": "64638eb1617f14f5ce06db0919487e54", "fusion_lon": 0.0, "rental_uris": {"android": "https://dc.lft.to/lastmile_qr_scan", "ios": "https://dc.lft.to/lastmile_qr_scan"}, "name": "64638eb1617f14f5ce06db0919487e54", "type": "electric_scooter", "lat": 38.9059195, "is_disabled": 0}, {"fusion_lat": 0.0, "lon": -77.03492033333333, "is_reserved": 0, "bike_id": "1de4a6006855f16444bac1023a06d1c9", "fusion_lon": 0.0, "rental_uris": {"android": "https://dc.lft.to/lastmile_qr_scan", "ios": "https://dc.lft.to/lastmile_qr_scan"}, "name": "1de4a6006855f16444bac1023a06d1c9", "type": "electric_bike", "lat": 38.9374265, "is_disabled": 0}, {"fusion_lat": 0.0, "lon": -77.05132, "is_reserved": 0, "bike_id": "3ad56a12eccbb32b1831bfb04a4d9570", "fusion_lon": 0.0, "rental_uris": {"android": "https://dc.lft.to/lastmile_qr_scan", "ios": "https://dc.lft.to/lastmile_qr_scan"}, "name": "3ad56a12eccbb32b1831bfb04a4d9570", "type": "electric_scooter", "lat": 38.90715266666667, "is_disabled": 0}, {"fusion_lat": 0.0, "lon": -77.01651516666666, "is_reserved": 0, "bike_id": "1e57d25268536ddc1a4a7ef15bb9c3af", "fusion_lon": 0.0, "rental_uris": {"android": "https://dc.lft.to/lastmile_qr_scan", "ios": "https://dc.lft.to/lastmile_qr_scan"}, "name": "1e57d25268536ddc1a4a7ef15bb9c3af", "type": "electric_bike", "lat": 38.88114816666667, "is_disabled": 0}, {"fusion_lat": 0.0, "lon": -76.99827433333333, "is_reserved": 0, "bike_id": "b62fc9713a2dca5b5cada91f045fd471", "fusion_lon": 0.0, "rental_uris": {"android": "https://dc.lft.to/lastmile_qr_scan", "ios": "https://dc.lft.to/lastmile_qr_scan"}, "name": "b62fc9713a2dca5b5cada91f045fd471", "type": "electric_scooter", "lat": 38.885333333333335, "is_disabled": 0}, {"fusion_lat": 0.0, "lon": -76.99935783333333, "is_reserved": 0, "bike_id": "98d59820959b555c62f8d7abfa4a41c9", "fusion_lon": 0.0, "rental_uris": {"android": "https://dc.lft.to/lastmile_qr_scan", "ios": "https://dc.lft.to/lastmile_qr_scan"}, "name": "98d59820959b555c62f8d7abfa4a41c9", "type": "electric_scooter", "lat": 38.842991833333336, "is_disabled": 0}, {"fusion_lat": 0.0, "lon": -77.0077825, "is_reserved": 0, "bike_id": "f73d134369982480e8a7e19417ee3ef3", "fusion_lon": 0.0, "rental_uris": {"android": "https://dc.lft.to/lastmile_qr_scan", "ios": "https://dc.lft.to/lastmile_qr_scan"}, "name": "f73d134369982480e8a7e19417ee3ef3", "type": "electric_scooter", "lat": 38.926761166666665, "is_disabled": 0}, {"fusion_lat": 0.0, "lon": -77.026992, "is_reserved": 0, "bike_id": "f7f0cbb352d28ff88bbcd44252992ebe", "fusion_lon": 0.0, "rental_uris": {"android": "https://dc.lft.to/lastmile_qr_scan", "ios": "https://dc.lft.to/lastmile_qr_scan"}, "name": "f7f0cbb352d28ff88bbcd44252992ebe", "type": "electric_scooter", "lat": 38.917941666666664, "is_disabled": 0}, {"fusion_lat": 0.0, "lon": -77.04520816666667, "is_reserved": 0, "bike_id": "80bfaf38f0eaa4628397c988cac7cb52", "fusion_lon": 0.0, "rental_uris": {"android": "https://dc.lft.to/lastmile_qr_scan", "ios": "https://dc.lft.to/lastmile_qr_scan"}, "name": "80bfaf38f0eaa4628397c988cac7cb52", "type": "electric_scooter", "lat": 38.912888333333335, "is_disabled": 0}, {"fusion_lat": 0.0, "lon": -77.02806116666666, "is_reserved": 0, "bike_id": "756aedd2cb44eac037b0d3e7dd5a14c4", "fusion_lon": 0.0, "rental_uris": {"android": "https://dc.lft.to/lastmile_qr_scan", "ios": "https://dc.lft.to/lastmile_qr_scan"}, "name": "756aedd2cb44eac037b0d3e7dd5a14c4", "type": "electric_scooter", "lat": 38.930823333333336, "is_disabled": 0}, {"fusion_lat": 0.0, "lon": -76.9882485, "is_reserved": 0, "bike_id": "d18db3e6014e9861c8266ea7c32ab40b", "fusion_lon": 0.0, "rental_uris": {"android": "https://dc.lft.to/lastmile_qr_scan", "ios": "https://dc.lft.to/lastmile_qr_scan"}, "name": "d18db3e6014e9861c8266ea7c32ab40b", "type": "electric_scooter", "lat": 38.90046, "is_disabled": 0}, {"fusion_lat": 0.0, "lon": -77.0150045, "is_reserved": 0, "bike_id": "d07abf8a92aac04254bb23c5f74e01df", "fusion_lon": 0.0, "rental_uris": {"android": "https://dc.lft.to/lastmile_qr_scan", "ios": "https://dc.lft.to/lastmile_qr_scan"}, "name": "d07abf8a92aac04254bb23c5f74e01df", "type": "electric_scooter", "lat": 38.91758733333333, "is_disabled": 0}, {"fusion_lat": 0.0, "lon": -76.98739816666667, "is_reserved": 0, "bike_id": "ecd031f05c0f2ea2c42b98e9dca08cc8", "fusion_lon": 0.0, "rental_uris": {"android": "https://dc.lft.to/lastmile_qr_scan", "ios": "https://dc.lft.to/lastmile_qr_scan"}, "name": "ecd031f05c0f2ea2c42b98e9dca08cc8", "type": "electric_scooter", "lat": 38.88609733333333, "is_disabled": 0}, {"fusion_lat": 0.0, "lon": -77.03765233333333, "is_reserved": 0, "bike_id": "1d6e5953d8502c1ae8b27875791c6d1f", "fusion_lon": 0.0, "rental_uris": {"android": "https://dc.lft.to/lastmile_qr_scan", "ios": "https://dc.lft.to/lastmile_qr_scan"}, "name": "1d6e5953d8502c1ae8b27875791c6d1f", "type": "electric_scooter", "lat": 38.91688, "is_disabled": 0}, {"fusion_lat": 0.0, "lon": -77.04851816666667, "is_reserved": 0, "bike_id": "ba4c082ab763cf016c05f20965349289", "fusion_lon": 0.0, "rental_uris": {"android": "https://dc.lft.to/lastmile_qr_scan", "ios": "https://dc.lft.to/lastmile_qr_scan"}, "name": "ba4c082ab763cf016c05f20965349289", "type": "electric_scooter", "lat": 38.91966016666667, "is_disabled": 0}, {"fusion_lat": 0.0, "lon": -77.02802483333333, "is_reserved": 0, "bike_id": "25c1d3904c6486997be9c90ea716020e", "fusion_lon": 0.0, "rental_uris": {"android": "https://dc.lft.to/lastmile_qr_scan", "ios": "https://dc.lft.to/lastmile_qr_scan"}, "name": "25c1d3904c6486997be9c90ea716020e", "type": "electric_scooter", "lat": 38.89225783333333, "is_disabled": 0}, {"fusion_lat": 0.0, "lon": -77.01997383333334, "is_reserved": 0, "bike_id": "970948a5f5d7ace0fc7e05882d4a58ff", "fusion_lon": 0.0, "rental_uris": {"android": "https://dc.lft.to/lastmile_qr_scan", "ios": "https://dc.lft.to/lastmile_qr_scan"}, "name": "970948a5f5d7ace0fc7e05882d4a58ff", "type": "electric_scooter", "lat": 38.8758715, "is_disabled": 0}, {"fusion_lat": 0.0, "lon": -77.02173833333333, "is_reserved": 0, "bike_id": "e014087bd8cf1a0f1e274bbc64ba141d", "fusion_lon": 0.0, "rental_uris": {"android": "https://dc.lft.to/lastmile_qr_scan", "ios": "https://dc.lft.to/lastmile_qr_scan"}, "name": "e014087bd8cf1a0f1e274bbc64ba141d", "type": "electric_scooter", "lat": 38.9019505, "is_disabled": 0}, {"fusion_lat": 0.0, "lon": -76.98885516666667, "is_reserved": 0, "bike_id": "7d1d6f0a1037a7e47238f9626e0a587c", "fusion_lon": 0.0, "rental_uris": {"android": "https://dc.lft.to/lastmile_qr_scan", "ios": "https://dc.lft.to/lastmile_qr_scan"}, "name": "7d1d6f0a1037a7e47238f9626e0a587c", "type": "electric_scooter", "lat": 38.86649883333333, "is_disabled": 0}, {"fusion_lat": 0.0, "lon": -77.02395616666666, "is_reserved": 0, "bike_id": "ed44f2c97aa2476c3218599b6bd19233", "fusion_lon": 0.0, "rental_uris": {"android": "https://dc.lft.to/lastmile_qr_scan", "ios": "https://dc.lft.to/lastmile_qr_scan"}, "name": "ed44f2c97aa2476c3218599b6bd19233", "type": "electric_scooter", "lat": 38.9370445, "is_disabled": 0}, {"fusion_lat": 0.0, "lon": -77.04373333333334, "is_reserved": 0, "bike_id": "67c18e81de215fc845534d941475fa8d", "fusion_lon": 0.0, "rental_uris": {"android": "https://dc.lft.to/lastmile_qr_scan", "ios": "https://dc.lft.to/lastmile_qr_scan"}, "name": "67c18e81de215fc845534d941475fa8d", "type": "electric_scooter", "lat": 38.92231683333333, "is_disabled": 0}, {"fusion_lat": 0.0, "lon": -77.13101283333333, "is_reserved": 0, "bike_id": "beeb8809b57c4dd83eebc50982ea14c4", "fusion_lon": 0.0, "rental_uris": {"android": "https://dc.lft.to/lastmile_qr_scan", "ios": "https://dc.lft.to/lastmile_qr_scan"}, "name": "beeb8809b57c4dd83eebc50982ea14c4", "type": "electric_bike", "lat": 39.02434733333333, "is_disabled": 0}, {"fusion_lat": 0.0, "lon": -77.01935766666666, "is_reserved": 0, "bike_id": "a42a76fcc490951c312f4476025ef672", "fusion_lon": 0.0, "rental_uris": {"android": "https://dc.lft.to/lastmile_qr_scan", "ios": "https://dc.lft.to/lastmile_qr_scan"}, "name": "a42a76fcc490951c312f4476025ef672", "type": "electric_scooter", "lat": 38.949281, "is_disabled": 0}, {"fusion_lat": 0.0, "lon": -76.999579, "is_reserved": 0, "bike_id": "f6cf58cb57dc31a7dfa8d632bc7143cb", "fusion_lon": 0.0, "rental_uris": {"android": "https://dc.lft.to/lastmile_qr_scan", "ios": "https://dc.lft.to/lastmile_qr_scan"}, "name": "f6cf58cb57dc31a7dfa8d632bc7143cb", "type": "electric_scooter", "lat": 38.923516166666666, "is_disabled": 0}, {"fusion_lat": 0.0, "lon": -77.056227, "is_reserved": 0, "bike_id": "cc6858fa3f832b12491049c0e916d505", "fusion_lon": 0.0, "rental_uris": {"android": "https://dc.lft.to/lastmile_qr_scan", "ios": "https://dc.lft.to/lastmile_qr_scan"}, "name": "cc6858fa3f832b12491049c0e916d505", "type": "electric_scooter", "lat": 38.960739333333336, "is_disabled": 0}, {"fusion_lat": 0.0, "lon": -77.03873183333333, "is_reserved": 0, "bike_id": "14e1ef78cb4061fe2cb871e4e70d2048", "fusion_lon": 0.0, "rental_uris": {"android": "https://dc.lft.to/lastmile_qr_scan", "ios": "https://dc.lft.to/lastmile_qr_scan"}, "name": "14e1ef78cb4061fe2cb871e4e70d2048", "type": "electric_scooter", "lat": 38.90662966666667, "is_disabled": 0}, {"fusion_lat": 0.0, "lon": -77.03085433333334, "is_reserved": 0, "bike_id": "657c3576e414b52fa5f3da702f9e4a82", "fusion_lon": 0.0, "rental_uris": {"android": "https://dc.lft.to/lastmile_qr_scan", "ios": "https://dc.lft.to/lastmile_qr_scan"}, "name": "657c3576e414b52fa5f3da702f9e4a82", "type": "electric_scooter", "lat": 38.922341833333334, "is_disabled": 0}, {"fusion_lat": 0.0, "lon": -77.0385885, "is_reserved": 0, "bike_id": "d8bb5e4e8194a76e98f75d1b6b284f96", "fusion_lon": 0.0, "rental_uris": {"android": "https://dc.lft.to/lastmile_qr_scan", "ios": "https://dc.lft.to/lastmile_qr_scan"}, "name": "d8bb5e4e8194a76e98f75d1b6b284f96", "type": "electric_scooter", "lat": 38.915532, "is_disabled": 0}, {"fusion_lat": 0.0, "lon": -77.01842166666667, "is_reserved": 0, "bike_id": "df532e47239f72a13e5cb0ccc216ea08", "fusion_lon": 0.0, "rental_uris": {"android": "https://dc.lft.to/lastmile_qr_scan", "ios": "https://dc.lft.to/lastmile_qr_scan"}, "name": "df532e47239f72a13e5cb0ccc216ea08", "type": "electric_scooter", "lat": 38.949950333333334, "is_disabled": 0}, {"fusion_lat": 0.0, "lon": -77.09593266666667, "is_reserved": 0, "bike_id": "99a509c88ee42b25cfc61e9a0a004499", "fusion_lon": 0.0, "rental_uris": {"android": "https://dc.lft.to/lastmile_qr_scan", "ios": "https://dc.lft.to/lastmile_qr_scan"}, "name": "99a509c88ee42b25cfc61e9a0a004499", "type": "electric_bike", "lat": 39.028899, "is_disabled": 0}, {"fusion_lat": 0.0, "lon": -77.0019395, "is_reserved": 0, "bike_id": "98c51a1faebe904266731730016acc2d", "fusion_lon": 0.0, "rental_uris": {"android": "https://dc.lft.to/lastmile_qr_scan", "ios": "https://dc.lft.to/lastmile_qr_scan"}, "name": "98c51a1faebe904266731730016acc2d", "type": "electric_scooter", "lat": 38.9005025, "is_disabled": 0}, {"fusion_lat": 0.0, "lon": -77.0354005, "is_reserved": 0, "bike_id": "28b7e3ceb38dc96ac10666f9264a4488", "fusion_lon": 0.0, "rental_uris": {"android": "https://dc.lft.to/lastmile_qr_scan", "ios": "https://dc.lft.to/lastmile_qr_scan"}, "name": "28b7e3ceb38dc96ac10666f9264a4488", "type": "electric_scooter", "lat": 38.92407716666666, "is_disabled": 0}, {"fusion_lat": 0.0, "lon": -77.060741, "is_reserved": 0, "bike_id": "ee2216060488ab3cafcbf2b821d5e256", "fusion_lon": 0.0, "rental_uris": {"android": "https://dc.lft.to/lastmile_qr_scan", "ios": "https://dc.lft.to/lastmile_qr_scan"}, "name": "ee2216060488ab3cafcbf2b821d5e256", "type": "electric_bike", "lat": 38.88585966666667, "is_disabled": 0}, {"fusion_lat": 0.0, "lon": -76.995263, "is_reserved": 0, "bike_id": "3cc213fcc2eb94b8ec8d5d303991946f", "fusion_lon": 0.0, "rental_uris": {"android": "https://dc.lft.to/lastmile_qr_scan", "ios": "https://dc.lft.to/lastmile_qr_scan"}, "name": "3cc213fcc2eb94b8ec8d5d303991946f", "type": "electric_scooter", "lat": 38.877616833333335, "is_disabled": 0}, {"fusion_lat": 0.0, "lon": -77.0062845, "is_reserved": 0, "bike_id": "f6c2135739d34a987005455a4143debe", "fusion_lon": 0.0, "rental_uris": {"android": "https://dc.lft.to/lastmile_qr_scan", "ios": "https://dc.lft.to/lastmile_qr_scan"}, "name": "f6c2135739d34a987005455a4143debe", "type": "electric_scooter", "lat": 38.908205333333335, "is_disabled": 0}, {"fusion_lat": 0.0, "lon": -77.029896, "is_reserved": 0, "bike_id": "e82a5c5cf3e6e1d06309fbd582517ca3", "fusion_lon": 0.0, "rental_uris": {"android": "https://dc.lft.to/lastmile_qr_scan", "ios": "https://dc.lft.to/lastmile_qr_scan"}, "name": "e82a5c5cf3e6e1d06309fbd582517ca3", "type": "electric_scooter", "lat": 38.905726333333334, "is_disabled": 0}, {"fusion_lat": 0.0, "lon": -77.03467116666667, "is_reserved": 0, "bike_id": "d414d97587ca967c9a404d3b06d0cf73", "fusion_lon": 0.0, "rental_uris": {"android": "https://dc.lft.to/lastmile_qr_scan", "ios": "https://dc.lft.to/lastmile_qr_scan"}, "name": "d414d97587ca967c9a404d3b06d0cf73", "type": "electric_scooter", "lat": 38.909966833333336, "is_disabled": 0}, {"fusion_lat": 0.0, "lon": -77.01767416666667, "is_reserved": 0, "bike_id": "7c66f75e1db7390694d22af2cca08e90", "fusion_lon": 0.0, "rental_uris": {"android": "https://dc.lft.to/lastmile_qr_scan", "ios": "https://dc.lft.to/lastmile_qr_scan"}, "name": "7c66f75e1db7390694d22af2cca08e90", "type": "electric_scooter", "lat": 38.872187833333335, "is_disabled": 0}, {"fusion_lat": 0.0, "lon": -77.03963366666666, "is_reserved": 0, "bike_id": "e8ac671281fba88999eaa0ac27344214", "fusion_lon": 0.0, "rental_uris": {"android": "https://dc.lft.to/lastmile_qr_scan", "ios": "https://dc.lft.to/lastmile_qr_scan"}, "name": "e8ac671281fba88999eaa0ac27344214", "type": "electric_scooter", "lat": 38.91188533333333, "is_disabled": 0}, {"fusion_lat": 0.0, "lon": -77.042507, "is_reserved": 0, "bike_id": "3fe24d44065b4b63d4cd58d6996d0df9", "fusion_lon": 0.0, "rental_uris": {"android": "https://dc.lft.to/lastmile_qr_scan", "ios": "https://dc.lft.to/lastmile_qr_scan"}, "name": "3fe24d44065b4b63d4cd58d6996d0df9", "type": "electric_scooter", "lat": 38.92240316666667, "is_disabled": 0}, {"fusion_lat": 0.0, "lon": -77.01761383333333, "is_reserved": 0, "bike_id": "d22244a4b7845bf965f40f6ac6e7137b", "fusion_lon": 0.0, "rental_uris": {"android": "https://dc.lft.to/lastmile_qr_scan", "ios": "https://dc.lft.to/lastmile_qr_scan"}, "name": "d22244a4b7845bf965f40f6ac6e7137b", "type": "electric_scooter", "lat": 38.87703, "is_disabled": 0}, {"fusion_lat": 0.0, "lon": -77.011565, "is_reserved": 0, "bike_id": "3ec051e438f40aa785058163fe3f08c0", "fusion_lon": 0.0, "rental_uris": {"android": "https://dc.lft.to/lastmile_qr_scan", "ios": "https://dc.lft.to/lastmile_qr_scan"}, "name": "3ec051e438f40aa785058163fe3f08c0", "type": "electric_bike", "lat": 38.911494166666664, "is_disabled": 0}, {"fusion_lat": 0.0, "lon": -77.00754966666666, "is_reserved": 0, "bike_id": "c09a350b2b765a1e93e09c3bca69ebbc", "fusion_lon": 0.0, "rental_uris": {"android": "https://dc.lft.to/lastmile_qr_scan", "ios": "https://dc.lft.to/lastmile_qr_scan"}, "name": "c09a350b2b765a1e93e09c3bca69ebbc", "type": "electric_scooter", "lat": 38.9267225, "is_disabled": 0}, {"fusion_lat": 0.0, "lon": -77.11849383333333, "is_reserved": 0, "bike_id": "1d08db11ec6d9bfda9a3ce9fd2846e9c", "fusion_lon": 0.0, "rental_uris": {"android": "https://dc.lft.to/lastmile_qr_scan", "ios": "https://dc.lft.to/lastmile_qr_scan"}, "name": "1d08db11ec6d9bfda9a3ce9fd2846e9c", "type": "electric_bike", "lat": 38.877325166666665, "is_disabled": 0}, {"fusion_lat": 0.0, "lon": -77.03166233333333, "is_reserved": 0, "bike_id": "c1d61af27e6814142a4fad359f6384ee", "fusion_lon": 0.0, "rental_uris": {"android": "https://dc.lft.to/lastmile_qr_scan", "ios": "https://dc.lft.to/lastmile_qr_scan"}, "name": "c1d61af27e6814142a4fad359f6384ee", "type": "electric_scooter", "lat": 38.8876875, "is_disabled": 0}, {"fusion_lat": 0.0, "lon": -77.0699205, "is_reserved": 0, "bike_id": "3c9d3eb077023c6df6264b6a7e1b0acf", "fusion_lon": 0.0, "rental_uris": {"android": "https://dc.lft.to/lastmile_qr_scan", "ios": "https://dc.lft.to/lastmile_qr_scan"}, "name": "3c9d3eb077023c6df6264b6a7e1b0acf", "type": "electric_scooter", "lat": 38.952515166666664, "is_disabled": 0}, {"fusion_lat": 0.0, "lon": -76.98922716666667, "is_reserved": 0, "bike_id": "c53d5a5abf156bc093cf6a38371f20e3", "fusion_lon": 0.0, "rental_uris": {"android": "https://dc.lft.to/lastmile_qr_scan", "ios": "https://dc.lft.to/lastmile_qr_scan"}, "name": "c53d5a5abf156bc093cf6a38371f20e3", "type": "electric_scooter", "lat": 38.85809966666667, "is_disabled": 0}, {"fusion_lat": 0.0, "lon": -77.01347116666666, "is_reserved": 0, "bike_id": "052ea916b907d4c6a723b4f92bf1405d", "fusion_lon": 0.0, "rental_uris": {"android": "https://dc.lft.to/lastmile_qr_scan", "ios": "https://dc.lft.to/lastmile_qr_scan"}, "name": "052ea916b907d4c6a723b4f92bf1405d", "type": "electric_scooter", "lat": 38.87600533333333, "is_disabled": 0}, {"fusion_lat": 0.0, "lon": -77.0034525, "is_reserved": 0, "bike_id": "3f74bbf4c31f6e034d715a50083852b7", "fusion_lon": 0.0, "rental_uris": {"android": "https://dc.lft.to/lastmile_qr_scan", "ios": "https://dc.lft.to/lastmile_qr_scan"}, "name": "3f74bbf4c31f6e034d715a50083852b7", "type": "electric_scooter", "lat": 38.9161595, "is_disabled": 0}, {"fusion_lat": 0.0, "lon": -76.907087, "is_reserved": 0, "bike_id": "17534632d4726d1771dadc16021c8c0a", "fusion_lon": 0.0, "rental_uris": {"android": "https://dc.lft.to/lastmile_qr_scan", "ios": "https://dc.lft.to/lastmile_qr_scan"}, "name": "17534632d4726d1771dadc16021c8c0a", "type": "electric_bike", "lat": 38.89594183333333, "is_disabled": 0}, {"fusion_lat": 0.0, "lon": -77.002058, "is_reserved": 0, "bike_id": "59a9680e27e998f0988b0a085f1e8e7b", "fusion_lon": 0.0, "rental_uris": {"android": "https://dc.lft.to/lastmile_qr_scan", "ios": "https://dc.lft.to/lastmile_qr_scan"}, "name": "59a9680e27e998f0988b0a085f1e8e7b", "type": "electric_scooter", "lat": 38.9003595, "is_disabled": 0}, {"fusion_lat": 0.0, "lon": -76.98086183333334, "is_reserved": 0, "bike_id": "609b04b3d5d601ffc2d47f47851e81d4", "fusion_lon": 0.0, "rental_uris": {"android": "https://dc.lft.to/lastmile_qr_scan", "ios": "https://dc.lft.to/lastmile_qr_scan"}, "name": "609b04b3d5d601ffc2d47f47851e81d4", "type": "electric_bike", "lat": 38.953564, "is_disabled": 0}, {"fusion_lat": 0.0, "lon": -77.02181583333333, "is_reserved": 0, "bike_id": "db0dd5e561a64a530549da3798c2e615", "fusion_lon": 0.0, "rental_uris": {"android": "https://dc.lft.to/lastmile_qr_scan", "ios": "https://dc.lft.to/lastmile_qr_scan"}, "name": "db0dd5e561a64a530549da3798c2e615", "type": "electric_scooter", "lat": 38.90956083333333, "is_disabled": 0}, {"fusion_lat": 0.0, "lon": -77.03656366666667, "is_reserved": 0, "bike_id": "25af695db93f84bae1ef70af47fb0cca", "fusion_lon": 0.0, "rental_uris": {"android": "https://dc.lft.to/lastmile_qr_scan", "ios": "https://dc.lft.to/lastmile_qr_scan"}, "name": "25af695db93f84bae1ef70af47fb0cca", "type": "electric_scooter", "lat": 38.93156583333333, "is_disabled": 0}, {"fusion_lat": 0.0, "lon": -77.02207516666667, "is_reserved": 0, "bike_id": "712d138f4f39d8ce8736b937433b24be", "fusion_lon": 0.0, "rental_uris": {"android": "https://dc.lft.to/lastmile_qr_scan", "ios": "https://dc.lft.to/lastmile_qr_scan"}, "name": "712d138f4f39d8ce8736b937433b24be", "type": "electric_scooter", "lat": 38.92033, "is_disabled": 0}, {"fusion_lat": 0.0, "lon": -77.022221, "is_reserved": 0, "bike_id": "42813a8d548291048fcc52f5bff01c05", "fusion_lon": 0.0, "rental_uris": {"android": "https://dc.lft.to/lastmile_qr_scan", "ios": "https://dc.lft.to/lastmile_qr_scan"}, "name": "42813a8d548291048fcc52f5bff01c05", "type": "electric_scooter", "lat": 38.92605416666667, "is_disabled": 0}, {"fusion_lat": 0.0, "lon": -77.043925, "is_reserved": 0, "bike_id": "64fc71c802403090e0d9158d7d5a8437", "fusion_lon": 0.0, "rental_uris": {"android": "https://dc.lft.to/lastmile_qr_scan", "ios": "https://dc.lft.to/lastmile_qr_scan"}, "name": "64fc71c802403090e0d9158d7d5a8437", "type": "electric_scooter", "lat": 38.924454, "is_disabled": 0}, {"fusion_lat": 0.0, "lon": -77.01983566666667, "is_reserved": 0, "bike_id": "0fc21b2b00a4d2d932c647993139b456", "fusion_lon": 0.0, "rental_uris": {"android": "https://dc.lft.to/lastmile_qr_scan", "ios": "https://dc.lft.to/lastmile_qr_scan"}, "name": "0fc21b2b00a4d2d932c647993139b456", "type": "electric_bike", "lat": 38.9227145, "is_disabled": 0}, {"fusion_lat": 0.0, "lon": -76.99031466666666, "is_reserved": 0, "bike_id": "5044778be6d0b6c310161c870204b2b2", "fusion_lon": 0.0, "rental_uris": {"android": "https://dc.lft.to/lastmile_qr_scan", "ios": "https://dc.lft.to/lastmile_qr_scan"}, "name": "5044778be6d0b6c310161c870204b2b2", "type": "electric_scooter", "lat": 38.898537, "is_disabled": 0}, {"fusion_lat": 0.0, "lon": -77.03843533333334, "is_reserved": 0, "bike_id": "b929443e63c8f3dd10b300bf54e4ab6b", "fusion_lon": 0.0, "rental_uris": {"android": "https://dc.lft.to/lastmile_qr_scan", "ios": "https://dc.lft.to/lastmile_qr_scan"}, "name": "b929443e63c8f3dd10b300bf54e4ab6b", "type": "electric_scooter", "lat": 38.90371433333333, "is_disabled": 0}, {"fusion_lat": 0.0, "lon": -77.02688616666667, "is_reserved": 0, "bike_id": "faec35821449081ea7562dd972756059", "fusion_lon": 0.0, "rental_uris": {"android": "https://dc.lft.to/lastmile_qr_scan", "ios": "https://dc.lft.to/lastmile_qr_scan"}, "name": "faec35821449081ea7562dd972756059", "type": "electric_scooter", "lat": 38.918184333333336, "is_disabled": 0}, {"fusion_lat": 0.0, "lon": -77.02136066666667, "is_reserved": 0, "bike_id": "2d6fb477c667b8a592a730b33b8e2371", "fusion_lon": 0.0, "rental_uris": {"android": "https://dc.lft.to/lastmile_qr_scan", "ios": "https://dc.lft.to/lastmile_qr_scan"}, "name": "2d6fb477c667b8a592a730b33b8e2371", "type": "electric_scooter", "lat": 38.92321466666667, "is_disabled": 0}, {"fusion_lat": 0.0, "lon": -77.03250983333334, "is_reserved": 0, "bike_id": "66d07f91729c8b0e86899e130f4f27df", "fusion_lon": 0.0, "rental_uris": {"android": "https://dc.lft.to/lastmile_qr_scan", "ios": "https://dc.lft.to/lastmile_qr_scan"}, "name": "66d07f91729c8b0e86899e130f4f27df", "type": "electric_scooter", "lat": 38.90449516666666, "is_disabled": 0}, {"fusion_lat": 0.0, "lon": -77.00727583333334, "is_reserved": 0, "bike_id": "9e252da78944b5694ded2d6bca8d3335", "fusion_lon": 0.0, "rental_uris": {"android": "https://dc.lft.to/lastmile_qr_scan", "ios": "https://dc.lft.to/lastmile_qr_scan"}, "name": "9e252da78944b5694ded2d6bca8d3335", "type": "electric_scooter", "lat": 38.897065, "is_disabled": 0}, {"fusion_lat": 0.0, "lon": -76.98194316666667, "is_reserved": 0, "bike_id": "1eff939d9d176dcd917be5452074953b", "fusion_lon": 0.0, "rental_uris": {"android": "https://dc.lft.to/lastmile_qr_scan", "ios": "https://dc.lft.to/lastmile_qr_scan"}, "name": "1eff939d9d176dcd917be5452074953b", "type": "electric_scooter", "lat": 38.90282533333333, "is_disabled": 0}, {"fusion_lat": 0.0, "lon": -77.02763033333333, "is_reserved": 0, "bike_id": "fad0d1021d63d99b24d05953d3433507", "fusion_lon": 0.0, "rental_uris": {"android": "https://dc.lft.to/lastmile_qr_scan", "ios": "https://dc.lft.to/lastmile_qr_scan"}, "name": "fad0d1021d63d99b24d05953d3433507", "type": "electric_scooter", "lat": 38.954264333333334, "is_disabled": 0}, {"fusion_lat": 0.0, "lon": -77.04540166666666, "is_reserved": 0, "bike_id": "a6ee12a69df930e12a66a93f666b583c", "fusion_lon": 0.0, "rental_uris": {"android": "https://dc.lft.to/lastmile_qr_scan", "ios": "https://dc.lft.to/lastmile_qr_scan"}, "name": "a6ee12a69df930e12a66a93f666b583c", "type": "electric_scooter", "lat": 38.89608833333333, "is_disabled": 0}, {"fusion_lat": 0.0, "lon": -77.132417, "is_reserved": 0, "bike_id": "a17d4144b117275fd2062f0ad09bc301", "fusion_lon": 0.0, "rental_uris": {"android": "https://dc.lft.to/lastmile_qr_scan", "ios": "https://dc.lft.to/lastmile_qr_scan"}, "name": "a17d4144b117275fd2062f0ad09bc301", "type": "electric_bike", "lat": 38.805684, "is_disabled": 0}, {"fusion_lat": 0.0, "lon": -77.02286616666666, "is_reserved": 0, "bike_id": "42c14acd2542caeddb4ca419f9d27c9c", "fusion_lon": 0.0, "rental_uris": {"android": "https://dc.lft.to/lastmile_qr_scan", "ios": "https://dc.lft.to/lastmile_qr_scan"}, "name": "42c14acd2542caeddb4ca419f9d27c9c", "type": "electric_scooter", "lat": 38.935343833333334, "is_disabled": 0}, {"fusion_lat": 0.0, "lon": -77.03166016666667, "is_reserved": 0, "bike_id": "080f47de3637433d0db7d2d98ccafc76", "fusion_lon": 0.0, "rental_uris": {"android": "https://dc.lft.to/lastmile_qr_scan", "ios": "https://dc.lft.to/lastmile_qr_scan"}, "name": "080f47de3637433d0db7d2d98ccafc76", "type": "electric_scooter", "lat": 38.90612566666667, "is_disabled": 0}, {"fusion_lat": 0.0, "lon": -77.05355266666666, "is_reserved": 0, "bike_id": "ad62f2e251fc86a8c6f6199c9f1163bf", "fusion_lon": 0.0, "rental_uris": {"android": "https://dc.lft.to/lastmile_qr_scan", "ios": "https://dc.lft.to/lastmile_qr_scan"}, "name": "ad62f2e251fc86a8c6f6199c9f1163bf", "type": "electric_scooter", "lat": 38.9234235, "is_disabled": 0}, {"fusion_lat": 0.0, "lon": -77.0000005, "is_reserved": 0, "bike_id": "94d0f04085f1cd0f1c97854712417aa2", "fusion_lon": 0.0, "rental_uris": {"android": "https://dc.lft.to/lastmile_qr_scan", "ios": "https://dc.lft.to/lastmile_qr_scan"}, "name": "94d0f04085f1cd0f1c97854712417aa2", "type": "electric_scooter", "lat": 38.90768166666667, "is_disabled": 0}, {"fusion_lat": 0.0, "lon": -77.04232616666667, "is_reserved": 0, "bike_id": "fe9a3d6eeb5603b26e042ec69771aa6a", "fusion_lon": 0.0, "rental_uris": {"android": "https://dc.lft.to/lastmile_qr_scan", "ios": "https://dc.lft.to/lastmile_qr_scan"}, "name": "fe9a3d6eeb5603b26e042ec69771aa6a", "type": "electric_scooter", "lat": 38.91118566666667, "is_disabled": 0}, {"fusion_lat": 0.0, "lon": -77.02872, "is_reserved": 0, "bike_id": "10e1d370bf78ddea8ec5f9654e1467e7", "fusion_lon": 0.0, "rental_uris": {"android": "https://dc.lft.to/lastmile_qr_scan", "ios": "https://dc.lft.to/lastmile_qr_scan"}, "name": "10e1d370bf78ddea8ec5f9654e1467e7", "type": "electric_scooter", "lat": 38.950904, "is_disabled": 0}, {"fusion_lat": 0.0, "lon": -77.063269, "is_reserved": 0, "bike_id": "f4b1e4cc85665d58158a153e1215fd2a", "fusion_lon": 0.0, "rental_uris": {"android": "https://dc.lft.to/lastmile_qr_scan", "ios": "https://dc.lft.to/lastmile_qr_scan"}, "name": "f4b1e4cc85665d58158a153e1215fd2a", "type": "electric_scooter", "lat": 38.90764083333333, "is_disabled": 0}, {"fusion_lat": 0.0, "lon": -76.98686033333334, "is_reserved": 0, "bike_id": "9d9015f50d253f025985c833f99544ae", "fusion_lon": 0.0, "rental_uris": {"android": "https://dc.lft.to/lastmile_qr_scan", "ios": "https://dc.lft.to/lastmile_qr_scan"}, "name": "9d9015f50d253f025985c833f99544ae", "type": "electric_scooter", "lat": 38.862595, "is_disabled": 0}, {"fusion_lat": 0.0, "lon": -77.062968, "is_reserved": 0, "bike_id": "f748dfbd161f79e90cba2a75a39a879d", "fusion_lon": 0.0, "rental_uris": {"android": "https://dc.lft.to/lastmile_qr_scan", "ios": "https://dc.lft.to/lastmile_qr_scan"}, "name": "f748dfbd161f79e90cba2a75a39a879d", "type": "electric_scooter", "lat": 38.903929166666664, "is_disabled": 0}, {"fusion_lat": 0.0, "lon": -77.01160966666667, "is_reserved": 0, "bike_id": "cc98fb88b9852dcc6cb617ec0313e376", "fusion_lon": 0.0, "rental_uris": {"android": "https://dc.lft.to/lastmile_qr_scan", "ios": "https://dc.lft.to/lastmile_qr_scan"}, "name": "cc98fb88b9852dcc6cb617ec0313e376", "type": "electric_scooter", "lat": 38.900317333333334, "is_disabled": 0}, {"fusion_lat": 0.0, "lon": -77.04423666666666, "is_reserved": 0, "bike_id": "6773b66ef3b077e46976d792f12f439e", "fusion_lon": 0.0, "rental_uris": {"android": "https://dc.lft.to/lastmile_qr_scan", "ios": "https://dc.lft.to/lastmile_qr_scan"}, "name": "6773b66ef3b077e46976d792f12f439e", "type": "electric_scooter", "lat": 38.92124483333333, "is_disabled": 0}, {"fusion_lat": 0.0, "lon": -77.01966216666666, "is_reserved": 0, "bike_id": "336a5038130c9ea1a45f5dc4b4d08b24", "fusion_lon": 0.0, "rental_uris": {"android": "https://dc.lft.to/lastmile_qr_scan", "ios": "https://dc.lft.to/lastmile_qr_scan"}, "name": "336a5038130c9ea1a45f5dc4b4d08b24", "type": "electric_scooter", "lat": 38.956553166666666, "is_disabled": 0}, {"fusion_lat": 0.0, "lon": -77.02088566666667, "is_reserved": 0, "bike_id": "8e79fe268e05a729604b8dcdeaecbb6e", "fusion_lon": 0.0, "rental_uris": {"android": "https://dc.lft.to/lastmile_qr_scan", "ios": "https://dc.lft.to/lastmile_qr_scan"}, "name": "8e79fe268e05a729604b8dcdeaecbb6e", "type": "electric_scooter", "lat": 38.930186166666665, "is_disabled": 0}, {"fusion_lat": 0.0, "lon": -76.98019, "is_reserved": 0, "bike_id": "123ce49d834a2bac3bbc87ff602571fb", "fusion_lon": 0.0, "rental_uris": {"android": "https://dc.lft.to/lastmile_qr_scan", "ios": "https://dc.lft.to/lastmile_qr_scan"}, "name": "123ce49d834a2bac3bbc87ff602571fb", "type": "electric_scooter", "lat": 38.888644666666664, "is_disabled": 0}, {"fusion_lat": 0.0, "lon": -77.013717, "is_reserved": 0, "bike_id": "963dd3659a3e0388b14f9ca341a13f90", "fusion_lon": 0.0, "rental_uris": {"android": "https://dc.lft.to/lastmile_qr_scan", "ios": "https://dc.lft.to/lastmile_qr_scan"}, "name": "963dd3659a3e0388b14f9ca341a13f90", "type": "electric_scooter", "lat": 38.892178333333334, "is_disabled": 0}, {"fusion_lat": 0.0, "lon": -77.008909, "is_reserved": 0, "bike_id": "34212e8ba50723add7bb672d5a6e24f3", "fusion_lon": 0.0, "rental_uris": {"android": "https://dc.lft.to/lastmile_qr_scan", "ios": "https://dc.lft.to/lastmile_qr_scan"}, "name": "34212e8ba50723add7bb672d5a6e24f3", "type": "electric_scooter", "lat": 38.96816, "is_disabled": 0}, {"fusion_lat": 0.0, "lon": -77.01295516666667, "is_reserved": 0, "bike_id": "ab2063144905f7f0a1b828ffcb527c21", "fusion_lon": 0.0, "rental_uris": {"android": "https://dc.lft.to/lastmile_qr_scan", "ios": "https://dc.lft.to/lastmile_qr_scan"}, "name": "ab2063144905f7f0a1b828ffcb527c21", "type": "electric_scooter", "lat": 38.894722333333334, "is_disabled": 0}, {"fusion_lat": 0.0, "lon": -76.98882183333333, "is_reserved": 0, "bike_id": "77c4f27a1a9989a5ae5d21a1ec7e3496", "fusion_lon": 0.0, "rental_uris": {"android": "https://dc.lft.to/lastmile_qr_scan", "ios": "https://dc.lft.to/lastmile_qr_scan"}, "name": "77c4f27a1a9989a5ae5d21a1ec7e3496", "type": "electric_scooter", "lat": 38.866518, "is_disabled": 0}, {"fusion_lat": 0.0, "lon": -77.04518383333334, "is_reserved": 0, "bike_id": "120993feab924ecf8d08e64231934450", "fusion_lon": 0.0, "rental_uris": {"android": "https://dc.lft.to/lastmile_qr_scan", "ios": "https://dc.lft.to/lastmile_qr_scan"}, "name": "120993feab924ecf8d08e64231934450", "type": "electric_scooter", "lat": 38.923107333333334, "is_disabled": 0}, {"fusion_lat": 0.0, "lon": -77.139016, "is_reserved": 0, "bike_id": "5d22cf568e164c6bb8c32bbd612932ef", "fusion_lon": 0.0, "rental_uris": {"android": "https://dc.lft.to/lastmile_qr_scan", "ios": "https://dc.lft.to/lastmile_qr_scan"}, "name": "5d22cf568e164c6bb8c32bbd612932ef", "type": "electric_bike", "lat": 38.89681083333333, "is_disabled": 0}, {"fusion_lat": 0.0, "lon": -77.04489133333334, "is_reserved": 0, "bike_id": "f3d1f65119b36c47c18b4309a9ce1991", "fusion_lon": 0.0, "rental_uris": {"android": "https://dc.lft.to/lastmile_qr_scan", "ios": "https://dc.lft.to/lastmile_qr_scan"}, "name": "f3d1f65119b36c47c18b4309a9ce1991", "type": "electric_scooter", "lat": 38.90505983333333, "is_disabled": 0}, {"fusion_lat": 0.0, "lon": -77.038485, "is_reserved": 0, "bike_id": "ae742f5d5c31a678051985e98abd1fea", "fusion_lon": 0.0, "rental_uris": {"android": "https://dc.lft.to/lastmile_qr_scan", "ios": "https://dc.lft.to/lastmile_qr_scan"}, "name": "ae742f5d5c31a678051985e98abd1fea", "type": "electric_scooter", "lat": 38.91346733333334, "is_disabled": 0}, {"fusion_lat": 0.0, "lon": -77.11574216666666, "is_reserved": 0, "bike_id": "81d34eb80edd5a69ce1a8ae583475ebf", "fusion_lon": 0.0, "rental_uris": {"android": "https://dc.lft.to/lastmile_qr_scan", "ios": "https://dc.lft.to/lastmile_qr_scan"}, "name": "81d34eb80edd5a69ce1a8ae583475ebf", "type": "electric_bike", "lat": 38.9934345, "is_disabled": 0}, {"fusion_lat": 0.0, "lon": -77.04180166666667, "is_reserved": 0, "bike_id": "c7a91e309e25cdf0d8c4256ad2f085d8", "fusion_lon": 0.0, "rental_uris": {"android": "https://dc.lft.to/lastmile_qr_scan", "ios": "https://dc.lft.to/lastmile_qr_scan"}, "name": "c7a91e309e25cdf0d8c4256ad2f085d8", "type": "electric_scooter", "lat": 38.91260366666667, "is_disabled": 0}, {"fusion_lat": 0.0, "lon": -77.02217566666667, "is_reserved": 0, "bike_id": "6d03e65994cb2f4f13825e2d464e2d56", "fusion_lon": 0.0, "rental_uris": {"android": "https://dc.lft.to/lastmile_qr_scan", "ios": "https://dc.lft.to/lastmile_qr_scan"}, "name": "6d03e65994cb2f4f13825e2d464e2d56", "type": "electric_scooter", "lat": 38.905579333333336, "is_disabled": 0}, {"fusion_lat": 0.0, "lon": -77.031824, "is_reserved": 0, "bike_id": "690513c0114bd2a2da21d75ea818a942", "fusion_lon": 0.0, "rental_uris": {"android": "https://dc.lft.to/lastmile_qr_scan", "ios": "https://dc.lft.to/lastmile_qr_scan"}, "name": "690513c0114bd2a2da21d75ea818a942", "type": "electric_scooter", "lat": 38.92054233333333, "is_disabled": 0}, {"fusion_lat": 0.0, "lon": -76.936082, "is_reserved": 0, "bike_id": "5a25ef5e1286f6398f74b4d38c6579bd", "fusion_lon": 0.0, "rental_uris": {"android": "https://dc.lft.to/lastmile_qr_scan", "ios": "https://dc.lft.to/lastmile_qr_scan"}, "name": "5a25ef5e1286f6398f74b4d38c6579bd", "type": "electric_scooter", "lat": 38.896814166666665, "is_disabled": 0}, {"fusion_lat": 0.0, "lon": -77.03565483333334, "is_reserved": 0, "bike_id": "18b1b22685214e9118d811f3e96fde14", "fusion_lon": 0.0, "rental_uris": {"android": "https://dc.lft.to/lastmile_qr_scan", "ios": "https://dc.lft.to/lastmile_qr_scan"}, "name": "18b1b22685214e9118d811f3e96fde14", "type": "electric_scooter", "lat": 38.90968316666667, "is_disabled": 0}, {"fusion_lat": 0.0, "lon": -77.02423383333333, "is_reserved": 0, "bike_id": "f587f7fc06d85cecb089507810953821", "fusion_lon": 0.0, "rental_uris": {"android": "https://dc.lft.to/lastmile_qr_scan", "ios": "https://dc.lft.to/lastmile_qr_scan"}, "name": "f587f7fc06d85cecb089507810953821", "type": "electric_scooter", "lat": 38.920694833333336, "is_disabled": 0}, {"fusion_lat": 0.0, "lon": -76.97531333333333, "is_reserved": 0, "bike_id": "179d310c1d415c324ff5d24e06334cd0", "fusion_lon": 0.0, "rental_uris": {"android": "https://dc.lft.to/lastmile_qr_scan", "ios": "https://dc.lft.to/lastmile_qr_scan"}, "name": "179d310c1d415c324ff5d24e06334cd0", "type": "electric_scooter", "lat": 38.8995665, "is_disabled": 0}, {"fusion_lat": 0.0, "lon": -76.9794235, "is_reserved": 0, "bike_id": "53bf4ac94572381330b8c7917f127ff4", "fusion_lon": 0.0, "rental_uris": {"android": "https://dc.lft.to/lastmile_qr_scan", "ios": "https://dc.lft.to/lastmile_qr_scan"}, "name": "53bf4ac94572381330b8c7917f127ff4", "type": "electric_scooter", "lat": 38.9018645, "is_disabled": 0}, {"fusion_lat": 0.0, "lon": -77.02560383333334, "is_reserved": 0, "bike_id": "ef1e4cb3456818591448d67a70f825ac", "fusion_lon": 0.0, "rental_uris": {"android": "https://dc.lft.to/lastmile_qr_scan", "ios": "https://dc.lft.to/lastmile_qr_scan"},