{"data": {"bikes": [{"rental_uris": {"ios": "https://dc.lft.to/lastmile_qr_scan", "android": "https://dc.lft.to/lastmile_qr_scan"}, "lon": -77.042598, "type": "electric_scooter", "fusion_lat": 0.0, "lat": 38.922057, "name": "e3982e00838b9e1b39da1bddd68ccdcf", "fusion_lon": 0.0, "bike_id": "e3982e00838b9e1b39da1bddd68ccdcf", "is_disabled": 0, "is_reserved": 0}, {"rental_uris": {"ios": "https://dc.lft.to/lastmile_qr_scan", "android": "https://dc.lft.to/lastmile_qr_scan"}, "lon": -77.046423, "type": "electric_scooter", "fusion_lat": 0.0, "lat": 38.907010666666665, "name": "ff85563c59348bb7f118041b56429071", "fusion_lon": 0.0, "bike_id": "ff85563c59348bb7f118041b56429071", "is_disabled": 0, "is_reserved": 0}, {"rental_uris": {"ios": "https://dc.lft.to/lastmile_qr_scan", "android": "https://dc.lft.to/lastmile_qr_scan"}, "lon": -76.98709033333333, "type": "electric_scooter", "fusion_lat": 0.0, "lat": 38.862637, "name": "667f9a64c9a62769d177d85d61c4827c", "fusion_lon": 0.0, "bike_id": "667f9a64c9a62769d177d85d61c4827c", "is_disabled": 0, "is_reserved": 0}, {"rental_uris": {"ios": "https://dc.lft.to/lastmile_qr_scan", "android": "https://dc.lft.to/lastmile_qr_scan"}, "lon": -76.94178966666666, "type": "electric_scooter", "fusion_lat": 0.0, "lat": 38.882172833333335, "name": "ad2a44d4b39de18b89e840e6c898165e", "fusion_lon": 0.0, "bike_id": "ad2a44d4b39de18b89e840e6c898165e", "is_disabled": 0, "is_reserved": 0}, {"rental_uris": {"ios": "https://dc.lft.to/lastmile_qr_scan", "android": "https://dc.lft.to/lastmile_qr_scan"}, "lon": -76.9541295, "type": "electric_scooter", "fusion_lat": 0.0, "lat": 38.889993, "name": "bbe00a659d3abb7ca11227c73dd14de8", "fusion_lon": 0.0, "bike_id": "bbe00a659d3abb7ca11227c73dd14de8", "is_disabled": 0, "is_reserved": 0}, {"rental_uris": {"ios": "https://dc.lft.to/lastmile_qr_scan", "android": "https://dc.lft.to/lastmile_qr_scan"}, "lon": -77.04446416666667, "type": "electric_scooter", "fusion_lat": 0.0, "lat": 38.910148, "name": "93596c984b7b0850808a1034b5b1f9a6", "fusion_lon": 0.0, "bike_id": "93596c984b7b0850808a1034b5b1f9a6", "is_disabled": 0, "is_reserved": 0}, {"rental_uris": {"ios": "https://dc.lft.to/lastmile_qr_scan", "android": "https://dc.lft.to/lastmile_qr_scan"}, "lon": -77.03260133333333, "type": "electric_scooter", "fusion_lat": 0.0, "lat": 38.9351975, "name": "c3322dfb4ed3045b7d062a10d56a4481", "fusion_lon": 0.0, "bike_id": "c3322dfb4ed3045b7d062a10d56a4481", "is_disabled": 0, "is_reserved": 0}, {"rental_uris": {"ios": "https://dc.lft.to/lastmile_qr_scan", "android": "https://dc.lft.to/lastmile_qr_scan"}, "lon": -77.045647, "type": "electric_scooter", "fusion_lat": 0.0, "lat": 38.921318666666664, "name": "3f3fd4a3db332f2f6b2cbea065884a7d", "fusion_lon": 0.0, "bike_id": "3f3fd4a3db332f2f6b2cbea065884a7d", "is_disabled": 0, "is_reserved": 0}, {"rental_uris": {"ios": "https://dc.lft.to/lastmile_qr_scan", "android": "https://dc.lft.to/lastmile_qr_scan"}, "lon": -76.99147466666666, "type": "electric_scooter", "fusion_lat": 0.0, "lat": 38.9003795, "name": "b0dee39942824d392d0e4fada5fb94b3", "fusion_lon": 0.0, "bike_id": "b0dee39942824d392d0e4fada5fb94b3", "is_disabled": 0, "is_reserved": 0}, {"rental_uris": {"ios": "https://dc.lft.to/lastmile_qr_scan", "android": "https://dc.lft.to/lastmile_qr_scan"}, "lon": -77.0409735, "type": "electric_scooter", "fusion_lat": 0.0, "lat": 38.9237155, "name": "7868838fe0365085ad69929010921ef3", "fusion_lon": 0.0, "bike_id": "7868838fe0365085ad69929010921ef3", "is_disabled": 0, "is_reserved": 0}, {"rental_uris": {"ios": "https://dc.lft.to/lastmile_qr_scan", "android": "https://dc.lft.to/lastmile_qr_scan"}, "lon": -77.11238183333333, "type": "electric_bike", "fusion_lat": 0.0, "lat": 38.8286345, "name": "08da7d42ce4d38550a1c3ad61c6ea67e", "fusion_lon": 0.0, "bike_id": "08da7d42ce4d38550a1c3ad61c6ea67e", "is_disabled": 0, "is_reserved": 0}, {"rental_uris": {"ios": "https://dc.lft.to/lastmile_qr_scan", "android": "https://dc.lft.to/lastmile_qr_scan"}, "lon": -77.07302133333333, "type": "electric_scooter", "fusion_lat": 0.0, "lat": 38.93628566666667, "name": "62ab19e6b465a0b4b65049d9ab80cb1b", "fusion_lon": 0.0, "bike_id": "62ab19e6b465a0b4b65049d9ab80cb1b", "is_disabled": 0, "is_reserved": 0}, {"rental_uris": {"ios": "https://dc.lft.to/lastmile_qr_scan", "android": "https://dc.lft.to/lastmile_qr_scan"}, "lon": -77.008219, "type": "electric_scooter", "fusion_lat": 0.0, "lat": 38.876474333333334, "name": "725986a46ad6371c5e1dc4ede022882e", "fusion_lon": 0.0, "bike_id": "725986a46ad6371c5e1dc4ede022882e", "is_disabled": 0, "is_reserved": 0}, {"rental_uris": {"ios": "https://dc.lft.to/lastmile_qr_scan", "android": "https://dc.lft.to/lastmile_qr_scan"}, "lon": -77.0215305, "type": "electric_scooter", "fusion_lat": 0.0, "lat": 38.926045333333334, "name": "aaddcabf209d0b7af61fba9027cbbbe0", "fusion_lon": 0.0, "bike_id": "aaddcabf209d0b7af61fba9027cbbbe0", "is_disabled": 0, "is_reserved": 0}, {"rental_uris": {"ios": "https://dc.lft.to/lastmile_qr_scan", "android": "https://dc.lft.to/lastmile_qr_scan"}, "lon": -76.8749375, "type": "electric_bike", "fusion_lat": 0.0, "lat": 38.99088833333333, "name": "dafe76fd1b68d1afc611c384ee6598d2", "fusion_lon": 0.0, "bike_id": "dafe76fd1b68d1afc611c384ee6598d2", "is_disabled": 0, "is_reserved": 0}, {"rental_uris": {"ios": "https://dc.lft.to/lastmile_qr_scan", "android": "https://dc.lft.to/lastmile_qr_scan"}, "lon": -77.02693283333333, "type": "electric_scooter", "fusion_lat": 0.0, "lat": 38.908382833333334, "name": "63d0c571d06153f039dffd61eeba144c", "fusion_lon": 0.0, "bike_id": "63d0c571d06153f039dffd61eeba144c", "is_disabled": 0, "is_reserved": 0}, {"rental_uris": {"ios": "https://dc.lft.to/lastmile_qr_scan", "android": "https://dc.lft.to/lastmile_qr_scan"}, "lon": -77.0273675, "type": "electric_scooter", "fusion_lat": 0.0, "lat": 38.88158216666667, "name": "528d75d109f4cc918eed40abe8c85787", "fusion_lon": 0.0, "bike_id": "528d75d109f4cc918eed40abe8c85787", "is_disabled": 0, "is_reserved": 0}, {"rental_uris": {"ios": "https://dc.lft.to/lastmile_qr_scan", "android": "https://dc.lft.to/lastmile_qr_scan"}, "lon": -77.02366433333333, "type": "electric_scooter", "fusion_lat": 0.0, "lat": 38.90379466666667, "name": "43e50397f84510e8081484da134ff0e6", "fusion_lon": 0.0, "bike_id": "43e50397f84510e8081484da134ff0e6", "is_disabled": 0, "is_reserved": 0}, {"rental_uris": {"ios": "https://dc.lft.to/lastmile_qr_scan", "android": "https://dc.lft.to/lastmile_qr_scan"}, "lon": -77.05369266666666, "type": "electric_scooter", "fusion_lat": 0.0, "lat": 38.890748, "name": "9a301fd0588754cf8da7db39bc434ed1", "fusion_lon": 0.0, "bike_id": "9a301fd0588754cf8da7db39bc434ed1", "is_disabled": 0, "is_reserved": 0}, {"rental_uris": {"ios": "https://dc.lft.to/lastmile_qr_scan", "android": "https://dc.lft.to/lastmile_qr_scan"}, "lon": -77.04243416666667, "type": "electric_scooter", "fusion_lat": 0.0, "lat": 38.92205933333334, "name": "6c642159d1a88364f6e2ed4db6b31070", "fusion_lon": 0.0, "bike_id": "6c642159d1a88364f6e2ed4db6b31070", "is_disabled": 0, "is_reserved": 0}, {"rental_uris": {"ios": "https://dc.lft.to/lastmile_qr_scan", "android": "https://dc.lft.to/lastmile_qr_scan"}, "lon": -77.03219833333333, "type": "electric_scooter", "fusion_lat": 0.0, "lat": 38.9119615, "name": "0042e6ba8edbd08197a222d98e46c9bb", "fusion_lon": 0.0, "bike_id": "0042e6ba8edbd08197a222d98e46c9bb", "is_disabled": 0, "is_reserved": 0}, {"rental_uris": {"ios": "https://dc.lft.to/lastmile_qr_scan", "android": "https://dc.lft.to/lastmile_qr_scan"}, "lon": -76.95000583333334, "type": "electric_scooter", "fusion_lat": 0.0, "lat": 38.8937005, "name": "6376a7aca16d959a0f20b84d5b293e63", "fusion_lon": 0.0, "bike_id": "6376a7aca16d959a0f20b84d5b293e63", "is_disabled": 0, "is_reserved": 0}, {"rental_uris": {"ios": "https://dc.lft.to/lastmile_qr_scan", "android": "https://dc.lft.to/lastmile_qr_scan"}, "lon": -77.182771, "type": "electric_bike", "fusion_lat": 0.0, "lat": 38.883407166666665, "name": "2451a34c7cff638782ed57f38247af14", "fusion_lon": 0.0, "bike_id": "2451a34c7cff638782ed57f38247af14", "is_disabled": 0, "is_reserved": 0}, {"rental_uris": {"ios": "https://dc.lft.to/lastmile_qr_scan", "android": "https://dc.lft.to/lastmile_qr_scan"}, "lon": -77.08195766666667, "type": "electric_scooter", "fusion_lat": 0.0, "lat": 38.9200445, "name": "e715ef97601dd7f7bc84dd3601d28ed1", "fusion_lon": 0.0, "bike_id": "e715ef97601dd7f7bc84dd3601d28ed1", "is_disabled": 0, "is_reserved": 0}, {"rental_uris": {"ios": "https://dc.lft.to/lastmile_qr_scan", "android": "https://dc.lft.to/lastmile_qr_scan"}, "lon": -77.071394, "type": "electric_scooter", "fusion_lat": 0.0, "lat": 38.92721183333333, "name": "5c37b5796fa33c7d45f3e04cbeab0e82", "fusion_lon": 0.0, "bike_id": "5c37b5796fa33c7d45f3e04cbeab0e82", "is_disabled": 0, "is_reserved": 0}, {"rental_uris": {"ios": "https://dc.lft.to/lastmile_qr_scan", "android": "https://dc.lft.to/lastmile_qr_scan"}, "lon": -76.97815416666667, "type": "electric_scooter", "fusion_lat": 0.0, "lat": 38.8951235, "name": "a9a2423f4c3d986e4a0d7618d0631c1c", "fusion_lon": 0.0, "bike_id": "a9a2423f4c3d986e4a0d7618d0631c1c", "is_disabled": 0, "is_reserved": 0}, {"rental_uris": {"ios": "https://dc.lft.to/lastmile_qr_scan", "android": "https://dc.lft.to/lastmile_qr_scan"}, "lon": -77.02401516666667, "type": "electric_scooter", "fusion_lat": 0.0, "lat": 38.8991685, "name": "aa04b749060b7b3ec54eadaffa4f30b7", "fusion_lon": 0.0, "bike_id": "aa04b749060b7b3ec54eadaffa4f30b7", "is_disabled": 0, "is_reserved": 0}, {"rental_uris": {"ios": "https://dc.lft.to/lastmile_qr_scan", "android": "https://dc.lft.to/lastmile_qr_scan"}, "lon": -76.97424533333333, "type": "electric_bike", "fusion_lat": 0.0, "lat": 38.93205666666667, "name": "1d7b5a46f68b4c1b331f4c38568ae21c", "fusion_lon": 0.0, "bike_id": "1d7b5a46f68b4c1b331f4c38568ae21c", "is_disabled": 0, "is_reserved": 0}, {"rental_uris": {"ios": "https://dc.lft.to/lastmile_qr_scan", "android": "https://dc.lft.to/lastmile_qr_scan"}, "lon": -77.016756, "type": "electric_scooter", "fusion_lat": 0.0, "lat": 38.904793833333336, "name": "84426d4b6a6b86c206fc69310abeb327", "fusion_lon": 0.0, "bike_id": "84426d4b6a6b86c206fc69310abeb327", "is_disabled": 0, "is_reserved": 0}, {"rental_uris": {"ios": "https://dc.lft.to/lastmile_qr_scan", "android": "https://dc.lft.to/lastmile_qr_scan"}, "lon": -77.09871233333334, "type": "electric_bike", "fusion_lat": 0.0, "lat": 38.853710666666665, "name": "bcaee986a934c3040dfe491854dbb5d1", "fusion_lon": 0.0, "bike_id": "bcaee986a934c3040dfe491854dbb5d1", "is_disabled": 0, "is_reserved": 0}, {"rental_uris": {"ios": "https://dc.lft.to/lastmile_qr_scan", "android": "https://dc.lft.to/lastmile_qr_scan"}, "lon": -77.033851, "type": "electric_scooter", "fusion_lat": 0.0, "lat": 38.93840483333334, "name": "5e4e3bd4d51bd7b31cb5d351b9a444f0", "fusion_lon": 0.0, "bike_id": "5e4e3bd4d51bd7b31cb5d351b9a444f0", "is_disabled": 0, "is_reserved": 0}, {"rental_uris": {"ios": "https://dc.lft.to/lastmile_qr_scan", "android": "https://dc.lft.to/lastmile_qr_scan"}, "lon": -77.04741616666666, "type": "electric_scooter", "fusion_lat": 0.0, "lat": 38.917638833333335, "name": "fea629a15aaa416058f6702b50a4ab48", "fusion_lon": 0.0, "bike_id": "fea629a15aaa416058f6702b50a4ab48", "is_disabled": 0, "is_reserved": 0}, {"rental_uris": {"ios": "https://dc.lft.to/lastmile_qr_scan", "android": "https://dc.lft.to/lastmile_qr_scan"}, "lon": -77.0108625, "type": "electric_scooter", "fusion_lat": 0.0, "lat": 38.89404416666667, "name": "151c7352da650c08a6b59aeb0dbabcf0", "fusion_lon": 0.0, "bike_id": "151c7352da650c08a6b59aeb0dbabcf0", "is_disabled": 0, "is_reserved": 0}, {"rental_uris": {"ios": "https://dc.lft.to/lastmile_qr_scan", "android": "https://dc.lft.to/lastmile_qr_scan"}, "lon": -77.00587533333334, "type": "electric_scooter", "fusion_lat": 0.0, "lat": 38.9063135, "name": "e09aaf21533cf4f3b11015c72fcbafb5", "fusion_lon": 0.0, "bike_id": "e09aaf21533cf4f3b11015c72fcbafb5", "is_disabled": 0, "is_reserved": 0}, {"rental_uris": {"ios": "https://dc.lft.to/lastmile_qr_scan", "android": "https://dc.lft.to/lastmile_qr_scan"}, "lon": -77.03056566666666, "type": "electric_scooter", "fusion_lat": 0.0, "lat": 38.898305, "name": "b64efed6310177429c7f7262cc32b726", "fusion_lon": 0.0, "bike_id": "b64efed6310177429c7f7262cc32b726", "is_disabled": 0, "is_reserved": 0}, {"rental_uris": {"ios": "https://dc.lft.to/lastmile_qr_scan", "android": "https://dc.lft.to/lastmile_qr_scan"}, "lon": -77.02412883333334, "type": "electric_scooter", "fusion_lat": 0.0, "lat": 38.905719500000004, "name": "afaeef9070ef9280a737448f0fcb9b66", "fusion_lon": 0.0, "bike_id": "afaeef9070ef9280a737448f0fcb9b66", "is_disabled": 0, "is_reserved": 0}, {"rental_uris": {"ios": "https://dc.lft.to/lastmile_qr_scan", "android": "https://dc.lft.to/lastmile_qr_scan"}, "lon": -77.03268783333333, "type": "electric_scooter", "fusion_lat": 0.0, "lat": 38.936625, "name": "e2069c27e5021606fcddc501fd88c482", "fusion_lon": 0.0, "bike_id": "e2069c27e5021606fcddc501fd88c482", "is_disabled": 0, "is_reserved": 0}, {"rental_uris": {"ios": "https://dc.lft.to/lastmile_qr_scan", "android": "https://dc.lft.to/lastmile_qr_scan"}, "lon": -77.06943883333334, "type": "electric_scooter", "fusion_lat": 0.0, "lat": 38.905102166666666, "name": "e581d5553e15414d7860639b24d9bd9e", "fusion_lon": 0.0, "bike_id": "e581d5553e15414d7860639b24d9bd9e", "is_disabled": 0, "is_reserved": 0}, {"rental_uris": {"ios": "https://dc.lft.to/lastmile_qr_scan", "android": "https://dc.lft.to/lastmile_qr_scan"}, "lon": -77.101301, "type": "electric_bike", "fusion_lat": 0.0, "lat": 38.85203816666667, "name": "34d47b14c99ed8b9bcd5b109b7f70de2", "fusion_lon": 0.0, "bike_id": "34d47b14c99ed8b9bcd5b109b7f70de2", "is_disabled": 0, "is_reserved": 0}, {"rental_uris": {"ios": "https://dc.lft.to/lastmile_qr_scan", "android": "https://dc.lft.to/lastmile_qr_scan"}, "lon": -77.00113316666666, "type": "electric_scooter", "fusion_lat": 0.0, "lat": 38.900018, "name": "e3584e42ce21a08231930aa39e0008a3", "fusion_lon": 0.0, "bike_id": "e3584e42ce21a08231930aa39e0008a3", "is_disabled": 0, "is_reserved": 0}, {"rental_uris": {"ios": "https://dc.lft.to/lastmile_qr_scan", "android": "https://dc.lft.to/lastmile_qr_scan"}, "lon": -77.00197416666667, "type": "electric_scooter", "fusion_lat": 0.0, "lat": 38.87370133333334, "name": "35095ffb3ba43ee024985a1abd23ca5d", "fusion_lon": 0.0, "bike_id": "35095ffb3ba43ee024985a1abd23ca5d", "is_disabled": 0, "is_reserved": 0}, {"rental_uris": {"ios": "https://dc.lft.to/lastmile_qr_scan", "android": "https://dc.lft.to/lastmile_qr_scan"}, "lon": -77.044535, "type": "electric_scooter", "fusion_lat": 0.0, "lat": 38.910158, "name": "576ec0d2cefaddd5e4dfa49ccc157ca8", "fusion_lon": 0.0, "bike_id": "576ec0d2cefaddd5e4dfa49ccc157ca8", "is_disabled": 0, "is_reserved": 0}, {"rental_uris": {"ios": "https://dc.lft.to/lastmile_qr_scan", "android": "https://dc.lft.to/lastmile_qr_scan"}, "lon": -77.036816, "type": "electric_scooter", "fusion_lat": 0.0, "lat": 38.918198, "name": "78af1e899ae33497f33aa86c1d16ae54", "fusion_lon": 0.0, "bike_id": "78af1e899ae33497f33aa86c1d16ae54", "is_disabled": 0, "is_reserved": 0}, {"rental_uris": {"ios": "https://dc.lft.to/lastmile_qr_scan", "android": "https://dc.lft.to/lastmile_qr_scan"}, "lon": -77.02472683333333, "type": "electric_scooter", "fusion_lat": 0.0, "lat": 38.93823033333334, "name": "ebd7b89d7f3720e66ea8c471a8aaa163", "fusion_lon": 0.0, "bike_id": "ebd7b89d7f3720e66ea8c471a8aaa163", "is_disabled": 0, "is_reserved": 0}, {"rental_uris": {"ios": "https://dc.lft.to/lastmile_qr_scan", "android": "https://dc.lft.to/lastmile_qr_scan"}, "lon": -77.0155375, "type": "electric_scooter", "fusion_lat": 0.0, "lat": 38.891946833333336, "name": "df37b97a896ef509d262c67698597c86", "fusion_lon": 0.0, "bike_id": "df37b97a896ef509d262c67698597c86", "is_disabled": 0, "is_reserved": 0}, {"rental_uris": {"ios": "https://dc.lft.to/lastmile_qr_scan", "android": "https://dc.lft.to/lastmile_qr_scan"}, "lon": -77.07853683333333, "type": "electric_scooter", "fusion_lat": 0.0, "lat": 38.93157716666666, "name": "5fad03e63c8c770662f6e3374fa02613", "fusion_lon": 0.0, "bike_id": "5fad03e63c8c770662f6e3374fa02613", "is_disabled": 0, "is_reserved": 0}, {"rental_uris": {"ios": "https://dc.lft.to/lastmile_qr_scan", "android": "https://dc.lft.to/lastmile_qr_scan"}, "lon": -77.04175616666667, "type": "electric_scooter", "fusion_lat": 0.0, "lat": 38.900547, "name": "8840a1dfd28aa796f6cab0f3f338f4a0", "fusion_lon": 0.0, "bike_id": "8840a1dfd28aa796f6cab0f3f338f4a0", "is_disabled": 0, "is_reserved": 0}, {"rental_uris": {"ios": "https://dc.lft.to/lastmile_qr_scan", "android": "https://dc.lft.to/lastmile_qr_scan"}, "lon": -77.0125415, "type": "electric_scooter", "fusion_lat": 0.0, "lat": 38.89963683333333, "name": "753aa82628c311aeae4bb57fc237ea1d", "fusion_lon": 0.0, "bike_id": "753aa82628c311aeae4bb57fc237ea1d", "is_disabled": 0, "is_reserved": 0}, {"rental_uris": {"ios": "https://dc.lft.to/lastmile_qr_scan", "android": "https://dc.lft.to/lastmile_qr_scan"}, "lon": -77.010126, "type": "electric_scooter", "fusion_lat": 0.0, "lat": 38.894879, "name": "8a640ab5935c8b233ce797b57ecba423", "fusion_lon": 0.0, "bike_id": "8a640ab5935c8b233ce797b57ecba423", "is_disabled": 0, "is_reserved": 0}, {"rental_uris": {"ios": "https://dc.lft.to/lastmile_qr_scan", "android": "https://dc.lft.to/lastmile_qr_scan"}, "lon": -77.10752666666667, "type": "electric_bike", "fusion_lat": 0.0, "lat": 38.886155, "name": "0a4072bd05ba3887b2ef85ea435a3ea4", "fusion_lon": 0.0, "bike_id": "0a4072bd05ba3887b2ef85ea435a3ea4", "is_disabled": 0, "is_reserved": 0}, {"rental_uris": {"ios": "https://dc.lft.to/lastmile_qr_scan", "android": "https://dc.lft.to/lastmile_qr_scan"}, "lon": -76.98709666666667, "type": "electric_scooter", "fusion_lat": 0.0, "lat": 38.862669, "name": "bbc4f1caf194c1fb1675c53578c3c54c", "fusion_lon": 0.0, "bike_id": "bbc4f1caf194c1fb1675c53578c3c54c", "is_disabled": 0, "is_reserved": 0}, {"rental_uris": {"ios": "https://dc.lft.to/lastmile_qr_scan", "android": "https://dc.lft.to/lastmile_qr_scan"}, "lon": -77.135953, "type": "electric_bike", "fusion_lat": 0.0, "lat": 39.05345166666667, "name": "ea510c502d8a344cb6f961db40cf5f03", "fusion_lon": 0.0, "bike_id": "ea510c502d8a344cb6f961db40cf5f03", "is_disabled": 0, "is_reserved": 0}, {"rental_uris": {"ios": "https://dc.lft.to/lastmile_qr_scan", "android": "https://dc.lft.to/lastmile_qr_scan"}, "lon": -77.03456866666667, "type": "electric_scooter", "fusion_lat": 0.0, "lat": 38.907302, "name": "c5b20a6149abca7e1a12784b6c479c63", "fusion_lon": 0.0, "bike_id": "c5b20a6149abca7e1a12784b6c479c63", "is_disabled": 0, "is_reserved": 0}, {"rental_uris": {"ios": "https://dc.lft.to/lastmile_qr_scan", "android": "https://dc.lft.to/lastmile_qr_scan"}, "lon": -77.04709716666666, "type": "electric_scooter", "fusion_lat": 0.0, "lat": 38.92235633333333, "name": "64c17a144d99732a1c259e64f6a1d7bc", "fusion_lon": 0.0, "bike_id": "64c17a144d99732a1c259e64f6a1d7bc", "is_disabled": 0, "is_reserved": 0}, {"rental_uris": {"ios": "https://dc.lft.to/lastmile_qr_scan", "android": "https://dc.lft.to/lastmile_qr_scan"}, "lon": -76.94869466666667, "type": "electric_scooter", "fusion_lat": 0.0, "lat": 38.8947895, "name": "0071159cf0db55c64f0b0141814dbac0", "fusion_lon": 0.0, "bike_id": "0071159cf0db55c64f0b0141814dbac0", "is_disabled": 0, "is_reserved": 0}, {"rental_uris": {"ios": "https://dc.lft.to/lastmile_qr_scan", "android": "https://dc.lft.to/lastmile_qr_scan"}, "lon": -77.0086785, "type": "electric_bike", "fusion_lat": 0.0, "lat": 38.827280333333334, "name": "7335af99252cf43a5518ccda3e80bf56", "fusion_lon": 0.0, "bike_id": "7335af99252cf43a5518ccda3e80bf56", "is_disabled": 0, "is_reserved": 0}, {"rental_uris": {"ios": "https://dc.lft.to/lastmile_qr_scan", "android": "https://dc.lft.to/lastmile_qr_scan"}, "lon": -76.98999133333334, "type": "electric_scooter", "fusion_lat": 0.0, "lat": 38.86500383333333, "name": "c21477eb92afec33c44f75248ca9f2d9", "fusion_lon": 0.0, "bike_id": "c21477eb92afec33c44f75248ca9f2d9", "is_disabled": 0, "is_reserved": 0}, {"rental_uris": {"ios": "https://dc.lft.to/lastmile_qr_scan", "android": "https://dc.lft.to/lastmile_qr_scan"}, "lon": -77.02401433333333, "type": "electric_scooter", "fusion_lat": 0.0, "lat": 38.89486816666667, "name": "4dfa2439a1faf4b8f78f3da988187230", "fusion_lon": 0.0, "bike_id": "4dfa2439a1faf4b8f78f3da988187230", "is_disabled": 0, "is_reserved": 0}, {"rental_uris": {"ios": "https://dc.lft.to/lastmile_qr_scan", "android": "https://dc.lft.to/lastmile_qr_scan"}, "lon": -76.948927, "type": "electric_scooter", "fusion_lat": 0.0, "lat": 38.895284833333335, "name": "8eb2a5f787049a5f3fcf382cfba9599f", "fusion_lon": 0.0, "bike_id": "8eb2a5f787049a5f3fcf382cfba9599f", "is_disabled": 0, "is_reserved": 0}, {"rental_uris": {"ios": "https://dc.lft.to/lastmile_qr_scan", "android": "https://dc.lft.to/lastmile_qr_scan"}, "lon": -77.0215095, "type": "electric_scooter", "fusion_lat": 0.0, "lat": 38.92600383333333, "name": "3746f8e8cd865705379e55330331f425", "fusion_lon": 0.0, "bike_id": "3746f8e8cd865705379e55330331f425", "is_disabled": 0, "is_reserved": 0}, {"rental_uris": {"ios": "https://dc.lft.to/lastmile_qr_scan", "android": "https://dc.lft.to/lastmile_qr_scan"}, "lon": -77.0706745, "type": "electric_scooter", "fusion_lat": 0.0, "lat": 38.952209333333336, "name": "34a3b594be6c5c12601a55bc623dc48c", "fusion_lon": 0.0, "bike_id": "34a3b594be6c5c12601a55bc623dc48c", "is_disabled": 0, "is_reserved": 0}, {"rental_uris": {"ios": "https://dc.lft.to/lastmile_qr_scan", "android": "https://dc.lft.to/lastmile_qr_scan"}, "lon": -77.052891, "type": "electric_scooter", "fusion_lat": 0.0, "lat": 38.91890433333333, "name": "45ce21fb692a85c48af92bd54fd1b303", "fusion_lon": 0.0, "bike_id": "45ce21fb692a85c48af92bd54fd1b303", "is_disabled": 0, "is_reserved": 0}, {"rental_uris": {"ios": "https://dc.lft.to/lastmile_qr_scan", "android": "https://dc.lft.to/lastmile_qr_scan"}, "lon": -77.02421416666667, "type": "electric_scooter", "fusion_lat": 0.0, "lat": 38.87976366666667, "name": "118b8c6b78c3782c0537ccc8f1b9b2e5", "fusion_lon": 0.0, "bike_id": "118b8c6b78c3782c0537ccc8f1b9b2e5", "is_disabled": 0, "is_reserved": 0}, {"rental_uris": {"ios": "https://dc.lft.to/lastmile_qr_scan", "android": "https://dc.lft.to/lastmile_qr_scan"}, "lon": -77.05439316666667, "type": "electric_scooter", "fusion_lat": 0.0, "lat": 38.923232666666664, "name": "6b32b1f1b31df6b5fe4a1c96bfd6fe2f", "fusion_lon": 0.0, "bike_id": "6b32b1f1b31df6b5fe4a1c96bfd6fe2f", "is_disabled": 0, "is_reserved": 0}, {"rental_uris": {"ios": "https://dc.lft.to/lastmile_qr_scan", "android": "https://dc.lft.to/lastmile_qr_scan"}, "lon": -77.04188016666667, "type": "electric_scooter", "fusion_lat": 0.0, "lat": 38.903438333333334, "name": "6bb3d2b83108e67fe5abc1d434dd5ca4", "fusion_lon": 0.0, "bike_id": "6bb3d2b83108e67fe5abc1d434dd5ca4", "is_disabled": 0, "is_reserved": 0}, {"rental_uris": {"ios": "https://dc.lft.to/lastmile_qr_scan", "android": "https://dc.lft.to/lastmile_qr_scan"}, "lon": -77.034045, "type": "electric_scooter", "fusion_lat": 0.0, "lat": 38.92269666666667, "name": "c69e4a2e87bdfcaa8e6d53109a46cd01", "fusion_lon": 0.0, "bike_id": "c69e4a2e87bdfcaa8e6d53109a46cd01", "is_disabled": 0, "is_reserved": 0}, {"rental_uris": {"ios": "https://dc.lft.to/lastmile_qr_scan", "android": "https://dc.lft.to/lastmile_qr_scan"}, "lon": -76.97314683333333, "type": "electric_bike", "fusion_lat": 0.0, "lat": 38.917627333333336, "name": "1db3ef7d90da012eb8f4b579e42b1e16", "fusion_lon": 0.0, "bike_id": "1db3ef7d90da012eb8f4b579e42b1e16", "is_disabled": 0, "is_reserved": 0}, {"rental_uris": {"ios": "https://dc.lft.to/lastmile_qr_scan", "android": "https://dc.lft.to/lastmile_qr_scan"}, "lon": -77.03458066666667, "type": "electric_scooter", "fusion_lat": 0.0, "lat": 38.902870166666666, "name": "57e0514052625fc964e701fb2f25c94a", "fusion_lon": 0.0, "bike_id": "57e0514052625fc964e701fb2f25c94a", "is_disabled": 0, "is_reserved": 0}, {"rental_uris": {"ios": "https://dc.lft.to/lastmile_qr_scan", "android": "https://dc.lft.to/lastmile_qr_scan"}, "lon": -77.04673133333333, "type": "electric_scooter", "fusion_lat": 0.0, "lat": 38.892634, "name": "6cc0adb52e1b58115284065f175abde3", "fusion_lon": 0.0, "bike_id": "6cc0adb52e1b58115284065f175abde3", "is_disabled": 0, "is_reserved": 0}, {"rental_uris": {"ios": "https://dc.lft.to/lastmile_qr_scan", "android": "https://dc.lft.to/lastmile_qr_scan"}, "lon": -77.03049916666667, "type": "electric_scooter", "fusion_lat": 0.0, "lat": 38.898226666666666, "name": "d36949f9689cc22f558201a8309ae7bb", "fusion_lon": 0.0, "bike_id": "d36949f9689cc22f558201a8309ae7bb", "is_disabled": 0, "is_reserved": 0}, {"rental_uris": {"ios": "https://dc.lft.to/lastmile_qr_scan", "android": "https://dc.lft.to/lastmile_qr_scan"}, "lon": -77.02211416666667, "type": "electric_bike", "fusion_lat": 0.0, "lat": 38.922526500000004, "name": "192d99719d01afd1f71bf6c43a516b16", "fusion_lon": 0.0, "bike_id": "192d99719d01afd1f71bf6c43a516b16", "is_disabled": 0, "is_reserved": 0}, {"rental_uris": {"ios": "https://dc.lft.to/lastmile_qr_scan", "android": "https://dc.lft.to/lastmile_qr_scan"}, "lon": -77.023151, "type": "electric_scooter", "fusion_lat": 0.0, "lat": 38.881872666666666, "name": "d7d619d043e6c6d16cd72ee8659d7fc6", "fusion_lon": 0.0, "bike_id": "d7d619d043e6c6d16cd72ee8659d7fc6", "is_disabled": 0, "is_reserved": 0}, {"rental_uris": {"ios": "https://dc.lft.to/lastmile_qr_scan", "android": "https://dc.lft.to/lastmile_qr_scan"}, "lon": -77.04430666666667, "type": "electric_scooter", "fusion_lat": 0.0, "lat": 38.919795666666666, "name": "780379f579c5014ce8cd562a6ca3d58b", "fusion_lon": 0.0, "bike_id": "780379f579c5014ce8cd562a6ca3d58b", "is_disabled": 0, "is_reserved": 0}, {"rental_uris": {"ios": "https://dc.lft.to/lastmile_qr_scan", "android": "https://dc.lft.to/lastmile_qr_scan"}, "lon": -77.01162866666667, "type": "electric_bike", "fusion_lat": 0.0, "lat": 38.87227766666667, "name": "7cedbbb89f251f308b305874b05d6876", "fusion_lon": 0.0, "bike_id": "7cedbbb89f251f308b305874b05d6876", "is_disabled": 0, "is_reserved": 0}, {"rental_uris": {"ios": "https://dc.lft.to/lastmile_qr_scan", "android": "https://dc.lft.to/lastmile_qr_scan"}, "lon": -77.03169633333333, "type": "electric_scooter", "fusion_lat": 0.0, "lat": 38.883430833333335, "name": "6abba860d39ae5a0b30c15f883db9630", "fusion_lon": 0.0, "bike_id": "6abba860d39ae5a0b30c15f883db9630", "is_disabled": 0, "is_reserved": 0}, {"rental_uris": {"ios": "https://dc.lft.to/lastmile_qr_scan", "android": "https://dc.lft.to/lastmile_qr_scan"}, "lon": -77.04650533333333, "type": "electric_scooter", "fusion_lat": 0.0, "lat": 38.93431066666667, "name": "8d9f6a451139ec1d28122c1224dfc981", "fusion_lon": 0.0, "bike_id": "8d9f6a451139ec1d28122c1224dfc981", "is_disabled": 0, "is_reserved": 0}, {"rental_uris": {"ios": "https://dc.lft.to/lastmile_qr_scan", "android": "https://dc.lft.to/lastmile_qr_scan"}, "lon": -77.033297, "type": "electric_scooter", "fusion_lat": 0.0, "lat": 38.919844833333336, "name": "4246c96a47d0bee9453dcb4591df1afb", "fusion_lon": 0.0, "bike_id": "4246c96a47d0bee9453dcb4591df1afb", "is_disabled": 0, "is_reserved": 0}, {"rental_uris": {"ios": "https://dc.lft.to/lastmile_qr_scan", "android": "https://dc.lft.to/lastmile_qr_scan"}, "lon": -77.0317705, "type": "electric_scooter", "fusion_lat": 0.0, "lat": 38.91797866666667, "name": "5ff55ff9914fe9d29f49a814e1c35e35", "fusion_lon": 0.0, "bike_id": "5ff55ff9914fe9d29f49a814e1c35e35", "is_disabled": 0, "is_reserved": 0}, {"rental_uris": {"ios": "https://dc.lft.to/lastmile_qr_scan", "android": "https://dc.lft.to/lastmile_qr_scan"}, "lon": -77.0345095, "type": "electric_scooter", "fusion_lat": 0.0, "lat": 38.91821933333333, "name": "09d79c41de00803a79ad5e8f8e37fffc", "fusion_lon": 0.0, "bike_id": "09d79c41de00803a79ad5e8f8e37fffc", "is_disabled": 0, "is_reserved": 0}, {"rental_uris": {"ios": "https://dc.lft.to/lastmile_qr_scan", "android": "https://dc.lft.to/lastmile_qr_scan"}, "lon": -77.03219983333334, "type": "electric_scooter", "fusion_lat": 0.0, "lat": 38.911928833333334, "name": "5e7565ed53cb5e88bcf09d00105b006c", "fusion_lon": 0.0, "bike_id": "5e7565ed53cb5e88bcf09d00105b006c", "is_disabled": 0, "is_reserved": 0}, {"rental_uris": {"ios": "https://dc.lft.to/lastmile_qr_scan", "android": "https://dc.lft.to/lastmile_qr_scan"}, "lon": -77.03226566666666, "type": "electric_scooter", "fusion_lat": 0.0, "lat": 38.9258215, "name": "e9fda3105e05b0780cd3e06904c334e1", "fusion_lon": 0.0, "bike_id": "e9fda3105e05b0780cd3e06904c334e1", "is_disabled": 0, "is_reserved": 0}, {"rental_uris": {"ios": "https://dc.lft.to/lastmile_qr_scan", "android": "https://dc.lft.to/lastmile_qr_scan"}, "lon": -77.01116, "type": "electric_scooter", "fusion_lat": 0.0, "lat": 38.90348916666667, "name": "63d62842dfe9f8aca55d324b8a184859", "fusion_lon": 0.0, "bike_id": "63d62842dfe9f8aca55d324b8a184859", "is_disabled": 0, "is_reserved": 0}, {"rental_uris": {"ios": "https://dc.lft.to/lastmile_qr_scan", "android": "https://dc.lft.to/lastmile_qr_scan"}, "lon": -76.96524783333334, "type": "electric_scooter", "fusion_lat": 0.0, "lat": 38.876257, "name": "74d7e4c49bcb9faa8816e2db0e1d3fba", "fusion_lon": 0.0, "bike_id": "74d7e4c49bcb9faa8816e2db0e1d3fba", "is_disabled": 0, "is_reserved": 0}, {"rental_uris": {"ios": "https://dc.lft.to/lastmile_qr_scan", "android": "https://dc.lft.to/lastmile_qr_scan"}, "lon": -76.9637255, "type": "electric_bike", "fusion_lat": 0.0, "lat": 38.94902416666667, "name": "21c07d8a082cd7d577a03c2dadfc6bd4", "fusion_lon": 0.0, "bike_id": "21c07d8a082cd7d577a03c2dadfc6bd4", "is_disabled": 0, "is_reserved": 0}, {"rental_uris": {"ios": "https://dc.lft.to/lastmile_qr_scan", "android": "https://dc.lft.to/lastmile_qr_scan"}, "lon": -76.94760283333333, "type": "electric_scooter", "fusion_lat": 0.0, "lat": 38.900587, "name": "80024fc8f45948b9332fa47732cdf176", "fusion_lon": 0.0, "bike_id": "80024fc8f45948b9332fa47732cdf176", "is_disabled": 0, "is_reserved": 0}, {"rental_uris": {"ios": "https://dc.lft.to/lastmile_qr_scan", "android": "https://dc.lft.to/lastmile_qr_scan"}, "lon": -77.02192383333333, "type": "electric_scooter", "fusion_lat": 0.0, "lat": 38.89835866666667, "name": "aaa7bcffa9f8c274ad996d3ba8c77f84", "fusion_lon": 0.0, "bike_id": "aaa7bcffa9f8c274ad996d3ba8c77f84", "is_disabled": 0, "is_reserved": 0}, {"rental_uris": {"ios": "https://dc.lft.to/lastmile_qr_scan", "android": "https://dc.lft.to/lastmile_qr_scan"}, "lon": -77.1067945, "type": "electric_bike", "fusion_lat": 0.0, "lat": 38.93577466666667, "name": "6d50d1a2ce4dcd01b109d1f2dc5e00d0", "fusion_lon": 0.0, "bike_id": "6d50d1a2ce4dcd01b109d1f2dc5e00d0", "is_disabled": 0, "is_reserved": 0}, {"rental_uris": {"ios": "https://dc.lft.to/lastmile_qr_scan", "android": "https://dc.lft.to/lastmile_qr_scan"}, "lon": -77.0073375, "type": "electric_scooter", "fusion_lat": 0.0, "lat": 38.911881, "name": "79d9f4354316e1a5f4598ea0e82b4d8e", "fusion_lon": 0.0, "bike_id": "79d9f4354316e1a5f4598ea0e82b4d8e", "is_disabled": 0, "is_reserved": 0}, {"rental_uris": {"ios": "https://dc.lft.to/lastmile_qr_scan", "android": "https://dc.lft.to/lastmile_qr_scan"}, "lon": -77.04338416666667, "type": "electric_scooter", "fusion_lat": 0.0, "lat": 38.915916833333334, "name": "1dcf801bcb92efe397c9757b654a0f83", "fusion_lon": 0.0, "bike_id": "1dcf801bcb92efe397c9757b654a0f83", "is_disabled": 0, "is_reserved": 0}, {"rental_uris": {"ios": "https://dc.lft.to/lastmile_qr_scan", "android": "https://dc.lft.to/lastmile_qr_scan"}, "lon": -76.94877183333334, "type": "electric_scooter", "fusion_lat": 0.0, "lat": 38.894991833333336, "name": "b8b8d01a93b204c30310fd6a0f49dcff", "fusion_lon": 0.0, "bike_id": "b8b8d01a93b204c30310fd6a0f49dcff", "is_disabled": 0, "is_reserved": 0}, {"rental_uris": {"ios": "https://dc.lft.to/lastmile_qr_scan", "android": "https://dc.lft.to/lastmile_qr_scan"}, "lon": -77.06682183333334, "type": "electric_scooter", "fusion_lat": 0.0, "lat": 38.9051395, "name": "6929da50e19d3cfc6f197795e02caeae", "fusion_lon": 0.0, "bike_id": "6929da50e19d3cfc6f197795e02caeae", "is_disabled": 0, "is_reserved": 0}, {"rental_uris": {"ios": "https://dc.lft.to/lastmile_qr_scan", "android": "https://dc.lft.to/lastmile_qr_scan"}, "lon": -77.00656166666667, "type": "electric_scooter", "fusion_lat": 0.0, "lat": 38.944623666666665, "name": "be8aa6699bd29b1f246a3ab4afd40c49", "fusion_lon": 0.0, "bike_id": "be8aa6699bd29b1f246a3ab4afd40c49", "is_disabled": 0, "is_reserved": 0}, {"rental_uris": {"ios": "https://dc.lft.to/lastmile_qr_scan", "android": "https://dc.lft.to/lastmile_qr_scan"}, "lon": -77.02319516666667, "type": "electric_scooter", "fusion_lat": 0.0, "lat": 38.93056216666667, "name": "dfe4897deae066a8c667df8954745449", "fusion_lon": 0.0, "bike_id": "dfe4897deae066a8c667df8954745449", "is_disabled": 0, "is_reserved": 0}, {"rental_uris": {"ios": "https://dc.lft.to/lastmile_qr_scan", "android": "https://dc.lft.to/lastmile_qr_scan"}, "lon": -77.04332683333334, "type": "electric_scooter", "fusion_lat": 0.0, "lat": 38.89584166666667, "name": "6aa382bf9aa97951c4a9041150274f17", "fusion_lon": 0.0, "bike_id": "6aa382bf9aa97951c4a9041150274f17", "is_disabled": 0, "is_reserved": 0}, {"rental_uris": {"ios": "https://dc.lft.to/lastmile_qr_scan", "android": "https://dc.lft.to/lastmile_qr_scan"}, "lon": -77.03219666666666, "type": "electric_scooter", "fusion_lat": 0.0, "lat": 38.91198416666667, "name": "b5c1f54189a30ec33175c22f2514df96", "fusion_lon": 0.0, "bike_id": "b5c1f54189a30ec33175c22f2514df96", "is_disabled": 0, "is_reserved": 0}, {"rental_uris": {"ios": "https://dc.lft.to/lastmile_qr_scan", "android": "https://dc.lft.to/lastmile_qr_scan"}, "lon": -77.02112116666666, "type": "electric_scooter", "fusion_lat": 0.0, "lat": 38.91608, "name": "542d7e31544ceb5e1c4c764b3698bb53", "fusion_lon": 0.0, "bike_id": "542d7e31544ceb5e1c4c764b3698bb53", "is_disabled": 0, "is_reserved": 0}, {"rental_uris": {"ios": "https://dc.lft.to/lastmile_qr_scan", "android": "https://dc.lft.to/lastmile_qr_scan"}, "lon": -77.01617483333334, "type": "electric_scooter", "fusion_lat": 0.0, "lat": 38.89964466666667, "name": "478b6d1015ff879a79043e51a4df41b1", "fusion_lon": 0.0, "bike_id": "478b6d1015ff879a79043e51a4df41b1", "is_disabled": 0, "is_reserved": 0}, {"rental_uris": {"ios": "https://dc.lft.to/lastmile_qr_scan", "android": "https://dc.lft.to/lastmile_qr_scan"}, "lon": -77.040143, "type": "electric_scooter", "fusion_lat": 0.0, "lat": 38.8990235, "name": "fb404ed667998399ea6033a287134a43", "fusion_lon": 0.0, "bike_id": "fb404ed667998399ea6033a287134a43", "is_disabled": 0, "is_reserved": 0}, {"rental_uris": {"ios": "https://dc.lft.to/lastmile_qr_scan", "android": "https://dc.lft.to/lastmile_qr_scan"}, "lon": -77.04265183333334, "type": "electric_scooter", "fusion_lat": 0.0, "lat": 38.90269416666667, "name": "0f79a0e51777547a508fd3c0e4e879d9", "fusion_lon": 0.0, "bike_id": "0f79a0e51777547a508fd3c0e4e879d9", "is_disabled": 0, "is_reserved": 0}, {"rental_uris": {"ios": "https://dc.lft.to/lastmile_qr_scan", "android": "https://dc.lft.to/lastmile_qr_scan"}, "lon": -77.0326515, "type": "electric_scooter", "fusion_lat": 0.0, "lat": 38.925462333333336, "name": "624b53739f2b69e6d319fcf95003f7e2", "fusion_lon": 0.0, "bike_id": "624b53739f2b69e6d319fcf95003f7e2", "is_disabled": 0, "is_reserved": 0}, {"rental_uris": {"ios": "https://dc.lft.to/lastmile_qr_scan", "android": "https://dc.lft.to/lastmile_qr_scan"}, "lon": -77.02308733333334, "type": "electric_scooter", "fusion_lat": 0.0, "lat": 38.927505, "name": "6f832a526d6c1e405778431c336d623e", "fusion_lon": 0.0, "bike_id": "6f832a526d6c1e405778431c336d623e", "is_disabled": 0, "is_reserved": 0}, {"rental_uris": {"ios": "https://dc.lft.to/lastmile_qr_scan", "android": "https://dc.lft.to/lastmile_qr_scan"}, "lon": -77.06886566666667, "type": "electric_scooter", "fusion_lat": 0.0, "lat": 38.90508416666667, "name": "22ea3717da8997bb2568c3f36ca99ed8", "fusion_lon": 0.0, "bike_id": "22ea3717da8997bb2568c3f36ca99ed8", "is_disabled": 0, "is_reserved": 0}, {"rental_uris": {"ios": "https://dc.lft.to/lastmile_qr_scan", "android": "https://dc.lft.to/lastmile_qr_scan"}, "lon": -76.98829166666667, "type": "electric_scooter", "fusion_lat": 0.0, "lat": 38.8802285, "name": "a24d2eb7f516f94ed05d0bc6185264aa", "fusion_lon": 0.0, "bike_id": "a24d2eb7f516f94ed05d0bc6185264aa", "is_disabled": 0, "is_reserved": 0}, {"rental_uris": {"ios": "https://dc.lft.to/lastmile_qr_scan", "android": "https://dc.lft.to/lastmile_qr_scan"}, "lon": -77.03579816666667, "type": "electric_scooter", "fusion_lat": 0.0, "lat": 38.94243866666667, "name": "8b6d3f58b0a06207cb1360ef2a111a0e", "fusion_lon": 0.0, "bike_id": "8b6d3f58b0a06207cb1360ef2a111a0e", "is_disabled": 0, "is_reserved": 0}, {"rental_uris": {"ios": "https://dc.lft.to/lastmile_qr_scan", "android": "https://dc.lft.to/lastmile_qr_scan"}, "lon": -77.0351165, "type": "electric_scooter", "fusion_lat": 0.0, "lat": 38.931053166666665, "name": "5324a15ef7c07deeb5ad00d3060a58ff", "fusion_lon": 0.0, "bike_id": "5324a15ef7c07deeb5ad00d3060a58ff", "is_disabled": 0, "is_reserved": 0}, {"rental_uris": {"ios": "https://dc.lft.to/lastmile_qr_scan", "android": "https://dc.lft.to/lastmile_qr_scan"}, "lon": -77.0493105, "type": "electric_scooter", "fusion_lat": 0.0, "lat": 38.90891416666667, "name": "30671995cb7e44244cd76f34a51f041e", "fusion_lon": 0.0, "bike_id": "30671995cb7e44244cd76f34a51f041e", "is_disabled": 0, "is_reserved": 0}, {"rental_uris": {"ios": "https://dc.lft.to/lastmile_qr_scan", "android": "https://dc.lft.to/lastmile_qr_scan"}, "lon": -77.03570933333333, "type": "electric_scooter", "fusion_lat": 0.0, "lat": 38.927396333333334, "name": "49364358650f60d3b7a28854c60e21de", "fusion_lon": 0.0, "bike_id": "49364358650f60d3b7a28854c60e21de", "is_disabled": 0, "is_reserved": 0}, {"rental_uris": {"ios": "https://dc.lft.to/lastmile_qr_scan", "android": "https://dc.lft.to/lastmile_qr_scan"}, "lon": -77.05152266666667, "type": "electric_scooter", "fusion_lat": 0.0, "lat": 38.90076666666667, "name": "2484760ce6967ad9caad72f609958faf", "fusion_lon": 0.0, "bike_id": "2484760ce6967ad9caad72f609958faf", "is_disabled": 0, "is_reserved": 0}, {"rental_uris": {"ios": "https://dc.lft.to/lastmile_qr_scan", "android": "https://dc.lft.to/lastmile_qr_scan"}, "lon": -77.020067, "type": "electric_scooter", "fusion_lat": 0.0, "lat": 38.8990875, "name": "abd7b7b15b392ee61f727a22b518ac78", "fusion_lon": 0.0, "bike_id": "abd7b7b15b392ee61f727a22b518ac78", "is_disabled": 0, "is_reserved": 0}, {"rental_uris": {"ios": "https://dc.lft.to/lastmile_qr_scan", "android": "https://dc.lft.to/lastmile_qr_scan"}, "lon": -77.022433, "type": "electric_scooter", "fusion_lat": 0.0, "lat": 38.924401, "name": "e91b657ccef8986c597e0eecf64a8e01", "fusion_lon": 0.0, "bike_id": "e91b657ccef8986c597e0eecf64a8e01", "is_disabled": 0, "is_reserved": 0}, {"rental_uris": {"ios": "https://dc.lft.to/lastmile_qr_scan", "android": "https://dc.lft.to/lastmile_qr_scan"}, "lon": -77.00374616666667, "type": "electric_bike", "fusion_lat": 0.0, "lat": 38.8360265, "name": "4cf06867da34d6fe99312c540694e59f", "fusion_lon": 0.0, "bike_id": "4cf06867da34d6fe99312c540694e59f", "is_disabled": 0, "is_reserved": 0}, {"rental_uris": {"ios": "https://dc.lft.to/lastmile_qr_scan", "android": "https://dc.lft.to/lastmile_qr_scan"}, "lon": -77.02793683333333, "type": "electric_scooter", "fusion_lat": 0.0, "lat": 38.961383833333336, "name": "824f4a3be63a2fbdfdd6cbe35e5ed862", "fusion_lon": 0.0, "bike_id": "824f4a3be63a2fbdfdd6cbe35e5ed862", "is_disabled": 0, "is_reserved": 0}, {"rental_uris": {"ios": "https://dc.lft.to/lastmile_qr_scan", "android": "https://dc.lft.to/lastmile_qr_scan"}, "lon": -77.04011766666666, "type": "electric_scooter", "fusion_lat": 0.0, "lat": 38.9217525, "name": "cff0ad4a609ed155d74fa9d59ec45d1d", "fusion_lon": 0.0, "bike_id": "cff0ad4a609ed155d74fa9d59ec45d1d", "is_disabled": 0, "is_reserved": 0}, {"rental_uris": {"ios": "https://dc.lft.to/lastmile_qr_scan", "android": "https://dc.lft.to/lastmile_qr_scan"}, "lon": -77.044312, "type": "electric_scooter", "fusion_lat": 0.0, "lat": 38.911250333333335, "name": "5068d5e17b8ae52d9a71f0e6a196f216", "fusion_lon": 0.0, "bike_id": "5068d5e17b8ae52d9a71f0e6a196f216", "is_disabled": 0, "is_reserved": 0}, {"rental_uris": {"ios": "https://dc.lft.to/lastmile_qr_scan", "android": "https://dc.lft.to/lastmile_qr_scan"}, "lon": -77.042799, "type": "electric_bike", "fusion_lat": 0.0, "lat": 38.907382166666665, "name": "cf6ac0d5ad39663ae0ab1a2aa13be1a9", "fusion_lon": 0.0, "bike_id": "cf6ac0d5ad39663ae0ab1a2aa13be1a9", "is_disabled": 0, "is_reserved": 0}, {"rental_uris": {"ios": "https://dc.lft.to/lastmile_qr_scan", "android": "https://dc.lft.to/lastmile_qr_scan"}, "lon": -76.99060683333333, "type": "electric_scooter", "fusion_lat": 0.0, "lat": 38.8635985, "name": "2dc8df9096acdb9c1d8b9606ca9d9ae8", "fusion_lon": 0.0, "bike_id": "2dc8df9096acdb9c1d8b9606ca9d9ae8", "is_disabled": 0, "is_reserved": 0}, {"rental_uris": {"ios": "https://dc.lft.to/lastmile_qr_scan", "android": "https://dc.lft.to/lastmile_qr_scan"}, "lon": -76.9316465, "type": "electric_bike", "fusion_lat": 0.0, "lat": 38.908614166666666, "name": "08cc2f741d14c3a34fbf99d0460511ec", "fusion_lon": 0.0, "bike_id": "08cc2f741d14c3a34fbf99d0460511ec", "is_disabled": 0, "is_reserved": 0}, {"rental_uris": {"ios": "https://dc.lft.to/lastmile_qr_scan", "android": "https://dc.lft.to/lastmile_qr_scan"}, "lon": -77.01111333333333, "type": "electric_scooter", "fusion_lat": 0.0, "lat": 38.90014733333334, "name": "fe51522355110e5d051604b333685149", "fusion_lon": 0.0, "bike_id": "fe51522355110e5d051604b333685149", "is_disabled": 0, "is_reserved": 0}, {"rental_uris": {"ios": "https://dc.lft.to/lastmile_qr_scan", "android": "https://dc.lft.to/lastmile_qr_scan"}, "lon": -76.96754416666667, "type": "electric_bike", "fusion_lat": 0.0, "lat": 38.875474833333335, "name": "98dd23123ac721b2d8ec2bc072848363", "fusion_lon": 0.0, "bike_id": "98dd23123ac721b2d8ec2bc072848363", "is_disabled": 0, "is_reserved": 0}, {"rental_uris": {"ios": "https://dc.lft.to/lastmile_qr_scan", "android": "https://dc.lft.to/lastmile_qr_scan"}, "lon": -76.98263416666667, "type": "electric_scooter", "fusion_lat": 0.0, "lat": 38.86355316666667, "name": "a7a649b4ec97aae9538c4cf22b025f9e", "fusion_lon": 0.0, "bike_id": "a7a649b4ec97aae9538c4cf22b025f9e", "is_disabled": 0, "is_reserved": 0}, {"rental_uris": {"ios": "https://dc.lft.to/lastmile_qr_scan", "android": "https://dc.lft.to/lastmile_qr_scan"}, "lon": -77.020209, "type": "electric_scooter", "fusion_lat": 0.0, "lat": 38.91644, "name": "19a928350495bd6ece0718346f978de3", "fusion_lon": 0.0, "bike_id": "19a928350495bd6ece0718346f978de3", "is_disabled": 0, "is_reserved": 0}, {"rental_uris": {"ios": "https://dc.lft.to/lastmile_qr_scan", "android": "https://dc.lft.to/lastmile_qr_scan"}, "lon": -77.018491, "type": "electric_scooter", "fusion_lat": 0.0, "lat": 38.9127125, "name": "ee0a51ffd87ffa55ddb5f47777a43a66", "fusion_lon": 0.0, "bike_id": "ee0a51ffd87ffa55ddb5f47777a43a66", "is_disabled": 0, "is_reserved": 0}, {"rental_uris": {"ios": "https://dc.lft.to/lastmile_qr_scan", "android": "https://dc.lft.to/lastmile_qr_scan"}, "lon": -77.05013816666667, "type": "electric_scooter", "fusion_lat": 0.0, "lat": 38.90733483333333, "name": "e15de273b5673765218005cb3ab2f52d", "fusion_lon": 0.0, "bike_id": "e15de273b5673765218005cb3ab2f52d", "is_disabled": 0, "is_reserved": 0}, {"rental_uris": {"ios": "https://dc.lft.to/lastmile_qr_scan", "android": "https://dc.lft.to/lastmile_qr_scan"}, "lon": -76.99032383333333, "type": "electric_bike", "fusion_lat": 0.0, "lat": 38.90004833333333, "name": "aefd8b5953ae789a3bdc9c23cd1b0eaa", "fusion_lon": 0.0, "bike_id": "aefd8b5953ae789a3bdc9c23cd1b0eaa", "is_disabled": 0, "is_reserved": 0}, {"rental_uris": {"ios": "https://dc.lft.to/lastmile_qr_scan", "android": "https://dc.lft.to/lastmile_qr_scan"}, "lon": -77.04010566666666, "type": "electric_scooter", "fusion_lat": 0.0, "lat": 38.932542833333336, "name": "46891abd7e7d95719d7571514e7dc2ab", "fusion_lon": 0.0, "bike_id": "46891abd7e7d95719d7571514e7dc2ab", "is_disabled": 0, "is_reserved": 0}, {"rental_uris": {"ios": "https://dc.lft.to/lastmile_qr_scan", "android": "https://dc.lft.to/lastmile_qr_scan"}, "lon": -76.99700033333333, "type": "electric_scooter", "fusion_lat": 0.0, "lat": 38.900058666666666, "name": "4f1a86d86839f31cac91a8dbbbfc035c", "fusion_lon": 0.0, "bike_id": "4f1a86d86839f31cac91a8dbbbfc035c", "is_disabled": 0, "is_reserved": 0}, {"rental_uris": {"ios": "https://dc.lft.to/lastmile_qr_scan", "android": "https://dc.lft.to/lastmile_qr_scan"}, "lon": -77.0247205, "type": "electric_scooter", "fusion_lat": 0.0, "lat": 38.9170205, "name": "2b410e0c8f1ffa4cb5d5cd37b305bb77", "fusion_lon": 0.0, "bike_id": "2b410e0c8f1ffa4cb5d5cd37b305bb77", "is_disabled": 0, "is_reserved": 0}, {"rental_uris": {"ios": "https://dc.lft.to/lastmile_qr_scan", "android": "https://dc.lft.to/lastmile_qr_scan"}, "lon": -77.05042366666666, "type": "electric_scooter", "fusion_lat": 0.0, "lat": 38.900518, "name": "25a1fc473dbc4d944c3dd140605fcf58", "fusion_lon": 0.0, "bike_id": "25a1fc473dbc4d944c3dd140605fcf58", "is_disabled": 0, "is_reserved": 0}, {"rental_uris": {"ios": "https://dc.lft.to/lastmile_qr_scan", "android": "https://dc.lft.to/lastmile_qr_scan"}, "lon": -77.02506016666666, "type": "electric_scooter", "fusion_lat": 0.0, "lat": 38.917244, "name": "be53abe8fabe9b94302650561ebaf19b", "fusion_lon": 0.0, "bike_id": "be53abe8fabe9b94302650561ebaf19b", "is_disabled": 0, "is_reserved": 0}, {"rental_uris": {"ios": "https://dc.lft.to/lastmile_qr_scan", "android": "https://dc.lft.to/lastmile_qr_scan"}, "lon": -77.06281216666666, "type": "electric_scooter", "fusion_lat": 0.0, "lat": 38.912397166666665, "name": "c8fcd722237af074a3b8a22eee662f01", "fusion_lon": 0.0, "bike_id": "c8fcd722237af074a3b8a22eee662f01", "is_disabled": 0, "is_reserved": 0}, {"rental_uris": {"ios": "https://dc.lft.to/lastmile_qr_scan", "android": "https://dc.lft.to/lastmile_qr_scan"}, "lon": -76.997711, "type": "electric_scooter", "fusion_lat": 0.0, "lat": 38.84420383333333, "name": "05984b85a7c6af2f70bd31de765f51ca", "fusion_lon": 0.0, "bike_id": "05984b85a7c6af2f70bd31de765f51ca", "is_disabled": 0, "is_reserved": 0}, {"rental_uris": {"ios": "https://dc.lft.to/lastmile_qr_scan", "android": "https://dc.lft.to/lastmile_qr_scan"}, "lon": -77.01797383333333, "type": "electric_scooter", "fusion_lat": 0.0, "lat": 38.941171833333335, "name": "16f2ca23e80ab068f92522faa49209a3", "fusion_lon": 0.0, "bike_id": "16f2ca23e80ab068f92522faa49209a3", "is_disabled": 0, "is_reserved": 0}, {"rental_uris": {"ios": "https://dc.lft.to/lastmile_qr_scan", "android": "https://dc.lft.to/lastmile_qr_scan"}, "lon": -77.0425535, "type": "electric_scooter", "fusion_lat": 0.0, "lat": 38.910470333333336, "name": "4909d2195a40155ac1fc385662bf23ff", "fusion_lon": 0.0, "bike_id": "4909d2195a40155ac1fc385662bf23ff", "is_disabled": 0, "is_reserved": 0}, {"rental_uris": {"ios": "https://dc.lft.to/lastmile_qr_scan", "android": "https://dc.lft.to/lastmile_qr_scan"}, "lon": -77.0179255, "type": "electric_scooter", "fusion_lat": 0.0, "lat": 38.901247166666664, "name": "2e7afe6a87d9ff80f1a2fc68d84d04ef", "fusion_lon": 0.0, "bike_id": "2e7afe6a87d9ff80f1a2fc68d84d04ef", "is_disabled": 0, "is_reserved": 0}, {"rental_uris": {"ios": "https://dc.lft.to/lastmile_qr_scan", "android": "https://dc.lft.to/lastmile_qr_scan"}, "lon": -76.94983266666667, "type": "electric_scooter", "fusion_lat": 0.0, "lat": 38.8936, "name": "5f3c330eb915ab57c80284d4c45549d0", "fusion_lon": 0.0, "bike_id": "5f3c330eb915ab57c80284d4c45549d0", "is_disabled": 0, "is_reserved": 0}, {"rental_uris": {"ios": "https://dc.lft.to/lastmile_qr_scan", "android": "https://dc.lft.to/lastmile_qr_scan"}, "lon": -77.03233366666667, "type": "electric_scooter", "fusion_lat": 0.0, "lat": 38.9248825, "name": "ab2f18a730e1541091f9f923103f272b", "fusion_lon": 0.0, "bike_id": "ab2f18a730e1541091f9f923103f272b", "is_disabled": 0, "is_reserved": 0}, {"rental_uris": {"ios": "https://dc.lft.to/lastmile_qr_scan", "android": "https://dc.lft.to/lastmile_qr_scan"}, "lon": -77.029672, "type": "electric_scooter", "fusion_lat": 0.0, "lat": 38.90055616666667, "name": "e0acc24493b9bc81c0bf480b46849250", "fusion_lon": 0.0, "bike_id": "e0acc24493b9bc81c0bf480b46849250", "is_disabled": 0, "is_reserved": 0}, {"rental_uris": {"ios": "https://dc.lft.to/lastmile_qr_scan", "android": "https://dc.lft.to/lastmile_qr_scan"}, "lon": -77.01061166666666, "type": "electric_scooter", "fusion_lat": 0.0, "lat": 38.875743166666666, "name": "621522fdc7f7cfc9c0b6f9b6d4bfdf68", "fusion_lon": 0.0, "bike_id": "621522fdc7f7cfc9c0b6f9b6d4bfdf68", "is_disabled": 0, "is_reserved": 0}, {"rental_uris": {"ios": "https://dc.lft.to/lastmile_qr_scan", "android": "https://dc.lft.to/lastmile_qr_scan"}, "lon": -77.09675733333333, "type": "electric_scooter", "fusion_lat": 0.0, "lat": 38.917621833333335, "name": "2648de0f417e1a298886af68eff727d1", "fusion_lon": 0.0, "bike_id": "2648de0f417e1a298886af68eff727d1", "is_disabled": 0, "is_reserved": 0}, {"rental_uris": {"ios": "https://dc.lft.to/lastmile_qr_scan", "android": "https://dc.lft.to/lastmile_qr_scan"}, "lon": -76.98887883333333, "type": "electric_scooter", "fusion_lat": 0.0, "lat": 38.866561833333336, "name": "d7b02bc205fcb38b2573ef4cf7b7b71f", "fusion_lon": 0.0, "bike_id": "d7b02bc205fcb38b2573ef4cf7b7b71f", "is_disabled": 0, "is_reserved": 0}, {"rental_uris": {"ios": "https://dc.lft.to/lastmile_qr_scan", "android": "https://dc.lft.to/lastmile_qr_scan"}, "lon": -76.99141666666667, "type": "electric_bike", "fusion_lat": 0.0, "lat": 38.89344916666667, "name": "9f9762e4d7f3a80f8f1baba81c68cd0d", "fusion_lon": 0.0, "bike_id": "9f9762e4d7f3a80f8f1baba81c68cd0d", "is_disabled": 0, "is_reserved": 0}, {"rental_uris": {"ios": "https://dc.lft.to/lastmile_qr_scan", "android": "https://dc.lft.to/lastmile_qr_scan"}, "lon": -77.04691883333334, "type": "electric_scooter", "fusion_lat": 0.0, "lat": 38.8960515, "name": "62ab6bb0b28d0f48b54dac5321e922a8", "fusion_lon": 0.0, "bike_id": "62ab6bb0b28d0f48b54dac5321e922a8", "is_disabled": 0, "is_reserved": 0}, {"rental_uris": {"ios": "https://dc.lft.to/lastmile_qr_scan", "android": "https://dc.lft.to/lastmile_qr_scan"}, "lon": -77.03231683333334, "type": "electric_scooter", "fusion_lat": 0.0, "lat": 38.91402766666667, "name": "054be98080834f503bff6c2fb823108d", "fusion_lon": 0.0, "bike_id": "054be98080834f503bff6c2fb823108d", "is_disabled": 0, "is_reserved": 0}, {"rental_uris": {"ios": "https://dc.lft.to/lastmile_qr_scan", "android": "https://dc.lft.to/lastmile_qr_scan"}, "lon": -77.03183066666666, "type": "electric_scooter", "fusion_lat": 0.0, "lat": 38.918041333333335, "name": "d807414699eaa16422b381f41051cb41", "fusion_lon": 0.0, "bike_id": "d807414699eaa16422b381f41051cb41", "is_disabled": 0, "is_reserved": 0}, {"rental_uris": {"ios": "https://dc.lft.to/lastmile_qr_scan", "android": "https://dc.lft.to/lastmile_qr_scan"}, "lon": -76.97699866666666, "type": "electric_scooter", "fusion_lat": 0.0, "lat": 38.902498666666666, "name": "576767995eca0beec0f74afb47c971f5", "fusion_lon": 0.0, "bike_id": "576767995eca0beec0f74afb47c971f5", "is_disabled": 0, "is_reserved": 0}, {"rental_uris": {"ios": "https://dc.lft.to/lastmile_qr_scan", "android": "https://dc.lft.to/lastmile_qr_scan"}, "lon": -76.93750166666666, "type": "electric_scooter", "fusion_lat": 0.0, "lat": 38.91289316666666, "name": "44ba41215e8fdf277c6579bd19e98986", "fusion_lon": 0.0, "bike_id": "44ba41215e8fdf277c6579bd19e98986", "is_disabled": 0, "is_reserved": 0}, {"rental_uris": {"ios": "https://dc.lft.to/lastmile_qr_scan", "android": "https://dc.lft.to/lastmile_qr_scan"}, "lon": -77.04108783333334, "type": "electric_scooter", "fusion_lat": 0.0, "lat": 38.92959783333333, "name": "da8b8273b9fe247abd29cb15503682a2", "fusion_lon": 0.0, "bike_id": "da8b8273b9fe247abd29cb15503682a2", "is_disabled": 0, "is_reserved": 0}, {"rental_uris": {"ios": "https://dc.lft.to/lastmile_qr_scan", "android": "https://dc.lft.to/lastmile_qr_scan"}, "lon": -77.07087516666667, "type": "electric_scooter", "fusion_lat": 0.0, "lat": 38.899072333333336, "name": "bb66a41c12be64b9ac2069b8aa0f52ec", "fusion_lon": 0.0, "bike_id": "bb66a41c12be64b9ac2069b8aa0f52ec", "is_disabled": 0, "is_reserved": 0}, {"rental_uris": {"ios": "https://dc.lft.to/lastmile_qr_scan", "android": "https://dc.lft.to/lastmile_qr_scan"}, "lon": -77.026021, "type": "electric_scooter", "fusion_lat": 0.0, "lat": 38.9018815, "name": "6a20784c6a90826373f53b3f222901d6", "fusion_lon": 0.0, "bike_id": "6a20784c6a90826373f53b3f222901d6", "is_disabled": 0, "is_reserved": 0}, {"rental_uris": {"ios": "https://dc.lft.to/lastmile_qr_scan", "android": "https://dc.lft.to/lastmile_qr_scan"}, "lon": -76.94870166666666, "type": "electric_scooter", "fusion_lat": 0.0, "lat": 38.8948035, "name": "284805117831b2eb8c4a357235d2f695", "fusion_lon": 0.0, "bike_id": "284805117831b2eb8c4a357235d2f695", "is_disabled": 0, "is_reserved": 0}, {"rental_uris": {"ios": "https://dc.lft.to/lastmile_qr_scan", "android": "https://dc.lft.to/lastmile_qr_scan"}, "lon": -77.0337255, "type": "electric_bike", "fusion_lat": 0.0, "lat": 38.9288525, "name": "f2429aee06cec6e8426441740d5ebb05", "fusion_lon": 0.0, "bike_id": "f2429aee06cec6e8426441740d5ebb05", "is_disabled": 0, "is_reserved": 0}, {"rental_uris": {"ios": "https://dc.lft.to/lastmile_qr_scan", "android": "https://dc.lft.to/lastmile_qr_scan"}, "lon": -77.07606466666667, "type": "electric_scooter", "fusion_lat": 0.0, "lat": 38.91209383333333, "name": "c91f25e36cb1c7357e82311b1c121fdc", "fusion_lon": 0.0, "bike_id": "c91f25e36cb1c7357e82311b1c121fdc", "is_disabled": 0, "is_reserved": 0}, {"rental_uris": {"ios": "https://dc.lft.to/lastmile_qr_scan", "android": "https://dc.lft.to/lastmile_qr_scan"}, "lon": -76.9541195, "type": "electric_scooter", "fusion_lat": 0.0, "lat": 38.88999233333333, "name": "bc548fcc1a39c49db6032e1835875322", "fusion_lon": 0.0, "bike_id": "bc548fcc1a39c49db6032e1835875322", "is_disabled": 0, "is_reserved": 0}, {"rental_uris": {"ios": "https://dc.lft.to/lastmile_qr_scan", "android": "https://dc.lft.to/lastmile_qr_scan"}, "lon": -77.0486535, "type": "electric_scooter", "fusion_lat": 0.0, "lat": 38.900789, "name": "b7e08ce4072ea991409710d60a8c2bec", "fusion_lon": 0.0, "bike_id": "b7e08ce4072ea991409710d60a8c2bec", "is_disabled": 0, "is_reserved": 0}, {"rental_uris": {"ios": "https://dc.lft.to/lastmile_qr_scan", "android": "https://dc.lft.to/lastmile_qr_scan"}, "lon": -77.10725466666666, "type": "electric_bike", "fusion_lat": 0.0, "lat": 38.85544516666667, "name": "d4aaf3d2e18b79e81b6e2b98c9218718", "fusion_lon": 0.0, "bike_id": "d4aaf3d2e18b79e81b6e2b98c9218718", "is_disabled": 0, "is_reserved": 0}, {"rental_uris": {"ios": "https://dc.lft.to/lastmile_qr_scan", "android": "https://dc.lft.to/lastmile_qr_scan"}, "lon": -77.02120883333333, "type": "electric_scooter", "fusion_lat": 0.0, "lat": 38.89721216666667, "name": "338f371b326bfd1a9d0f127601a1954a", "fusion_lon": 0.0, "bike_id": "338f371b326bfd1a9d0f127601a1954a", "is_disabled": 0, "is_reserved": 0}, {"rental_uris": {"ios": "https://dc.lft.to/lastmile_qr_scan", "android": "https://dc.lft.to/lastmile_qr_scan"}, "lon": -77.01070966666667, "type": "electric_scooter", "fusion_lat": 0.0, "lat": 38.90727866666667, "name": "3361f0750f47d3fcc9b21283c51741bd", "fusion_lon": 0.0, "bike_id": "3361f0750f47d3fcc9b21283c51741bd", "is_disabled": 0, "is_reserved": 0}, {"rental_uris": {"ios": "https://dc.lft.to/lastmile_qr_scan", "android": "https://dc.lft.to/lastmile_qr_scan"}, "lon": -77.042724, "type": "electric_scooter", "fusion_lat": 0.0, "lat": 38.9169295, "name": "3e1691f135d85ccaaf6bbabb2ea235af", "fusion_lon": 0.0, "bike_id": "3e1691f135d85ccaaf6bbabb2ea235af", "is_disabled": 0, "is_reserved": 0}, {"rental_uris": {"ios": "https://dc.lft.to/lastmile_qr_scan", "android": "https://dc.lft.to/lastmile_qr_scan"}, "lon": -77.02305483333333, "type": "electric_scooter", "fusion_lat": 0.0, "lat": 38.9297925, "name": "61a4a8626c112584b8168e5938987ffb", "fusion_lon": 0.0, "bike_id": "61a4a8626c112584b8168e5938987ffb", "is_disabled": 0, "is_reserved": 0}, {"rental_uris": {"ios": "https://dc.lft.to/lastmile_qr_scan", "android": "https://dc.lft.to/lastmile_qr_scan"}, "lon": -77.0364335, "type": "electric_scooter", "fusion_lat": 0.0, "lat": 38.9173215, "name": "f39703f9472d6d972061575b551f07f9", "fusion_lon": 0.0, "bike_id": "f39703f9472d6d972061575b551f07f9", "is_disabled": 0, "is_reserved": 0}, {"rental_uris": {"ios": "https://dc.lft.to/lastmile_qr_scan", "android": "https://dc.lft.to/lastmile_qr_scan"}, "lon": -77.0297755, "type": "electric_scooter", "fusion_lat": 0.0, "lat": 38.962307, "name": "2bb76a37bd681231fdf95c7cd7cab47f", "fusion_lon": 0.0, "bike_id": "2bb76a37bd681231fdf95c7cd7cab47f", "is_disabled": 0, "is_reserved": 0}, {"rental_uris": {"ios": "https://dc.lft.to/lastmile_qr_scan", "android": "https://dc.lft.to/lastmile_qr_scan"}, "lon": -77.0258025, "type": "electric_scooter", "fusion_lat": 0.0, "lat": 38.882305833333334, "name": "33363dde3cf9038e3e4f0feb9dd394ab", "fusion_lon": 0.0, "bike_id": "33363dde3cf9038e3e4f0feb9dd394ab", "is_disabled": 0, "is_reserved": 0}, {"rental_uris": {"ios": "https://dc.lft.to/lastmile_qr_scan", "android": "https://dc.lft.to/lastmile_qr_scan"}, "lon": -76.99847616666666, "type": "electric_scooter", "fusion_lat": 0.0, "lat": 38.9000305, "name": "bee149b4a3d5dac2df59e53d974c918a", "fusion_lon": 0.0, "bike_id": "bee149b4a3d5dac2df59e53d974c918a", "is_disabled": 0, "is_reserved": 0}, {"rental_uris": {"ios": "https://dc.lft.to/lastmile_qr_scan", "android": "https://dc.lft.to/lastmile_qr_scan"}, "lon": -77.01093833333333, "type": "electric_scooter", "fusion_lat": 0.0, "lat": 38.916245333333336, "name": "ad73be1c02ef6645f077b07c89a402eb", "fusion_lon": 0.0, "bike_id": "ad73be1c02ef6645f077b07c89a402eb", "is_disabled": 0, "is_reserved": 0}, {"rental_uris": {"ios": "https://dc.lft.to/lastmile_qr_scan", "android": "https://dc.lft.to/lastmile_qr_scan"}, "lon": -77.0295275, "type": "electric_scooter", "fusion_lat": 0.0, "lat": 38.8954395, "name": "94158842de81881fb42e41a6dc59597a", "fusion_lon": 0.0, "bike_id": "94158842de81881fb42e41a6dc59597a", "is_disabled": 0, "is_reserved": 0}, {"rental_uris": {"ios": "https://dc.lft.to/lastmile_qr_scan", "android": "https://dc.lft.to/lastmile_qr_scan"}, "lon": -77.04867983333334, "type": "electric_scooter", "fusion_lat": 0.0, "lat": 38.9095415, "name": "5fb4386b49630ab531a34e237c5d69b4", "fusion_lon": 0.0, "bike_id": "5fb4386b49630ab531a34e237c5d69b4", "is_disabled": 0, "is_reserved": 0}, {"rental_uris": {"ios": "https://dc.lft.to/lastmile_qr_scan", "android": "https://dc.lft.to/lastmile_qr_scan"}, "lon": -76.99516583333333, "type": "electric_scooter", "fusion_lat": 0.0, "lat": 38.86254183333333, "name": "fdf5638733281abd97639ae487610d52", "fusion_lon": 0.0, "bike_id": "fdf5638733281abd97639ae487610d52", "is_disabled": 0, "is_reserved": 0}, {"rental_uris": {"ios": "https://dc.lft.to/lastmile_qr_scan", "android": "https://dc.lft.to/lastmile_qr_scan"}, "lon": -77.032695, "type": "electric_scooter", "fusion_lat": 0.0, "lat": 38.938687333333334, "name": "752019ddfde0721958af418b3441bf3d", "fusion_lon": 0.0, "bike_id": "752019ddfde0721958af418b3441bf3d", "is_disabled": 0, "is_reserved": 0}, {"rental_uris": {"ios": "https://dc.lft.to/lastmile_qr_scan", "android": "https://dc.lft.to/lastmile_qr_scan"}, "lon": -77.026986, "type": "electric_scooter", "fusion_lat": 0.0, "lat": 38.92400216666667, "name": "d06341d95cd6aba245a8da3daf8a9a48", "fusion_lon": 0.0, "bike_id": "d06341d95cd6aba245a8da3daf8a9a48", "is_disabled": 0, "is_reserved": 0}, {"rental_uris": {"ios": "https://dc.lft.to/lastmile_qr_scan", "android": "https://dc.lft.to/lastmile_qr_scan"}, "lon": -77.00841233333334, "type": "electric_bike", "fusion_lat": 0.0, "lat": 38.94916766666667, "name": "62c6130ddcb1a20807c15db50aba6f4a", "fusion_lon": 0.0, "bike_id": "62c6130ddcb1a20807c15db50aba6f4a", "is_disabled": 0, "is_reserved": 0}, {"rental_uris": {"ios": "https://dc.lft.to/lastmile_qr_scan", "android": "https://dc.lft.to/lastmile_qr_scan"}, "lon": -77.03537483333334, "type": "electric_scooter", "fusion_lat": 0.0, "lat": 38.924109333333334, "name": "ac97af2af88a63cdedce57c08fffdc93", "fusion_lon": 0.0, "bike_id": "ac97af2af88a63cdedce57c08fffdc93", "is_disabled": 0, "is_reserved": 0}, {"rental_uris": {"ios": "https://dc.lft.to/lastmile_qr_scan", "android": "https://dc.lft.to/lastmile_qr_scan"}, "lon": -77.041678, "type": "electric_scooter", "fusion_lat": 0.0, "lat": 38.916079, "name": "97138d551911c3880c6d5fbb69678b09", "fusion_lon": 0.0, "bike_id": "97138d551911c3880c6d5fbb69678b09", "is_disabled": 0, "is_reserved": 0}, {"rental_uris": {"ios": "https://dc.lft.to/lastmile_qr_scan", "android": "https://dc.lft.to/lastmile_qr_scan"}, "lon": -77.02962916666667, "type": "electric_scooter", "fusion_lat": 0.0, "lat": 38.9256525, "name": "ef6ba5db265226997248a7f009f4d49c", "fusion_lon": 0.0, "bike_id": "ef6ba5db265226997248a7f009f4d49c", "is_disabled": 0, "is_reserved": 0}, {"rental_uris": {"ios": "https://dc.lft.to/lastmile_qr_scan", "android": "https://dc.lft.to/lastmile_qr_scan"}, "lon": -76.954608, "type": "electric_bike", "fusion_lat": 0.0, "lat": 38.886353666666665, "name": "03af5c994c92fe29a086d4b60377b31e", "fusion_lon": 0.0, "bike_id": "03af5c994c92fe29a086d4b60377b31e", "is_disabled": 0, "is_reserved": 0}, {"rental_uris": {"ios": "https://dc.lft.to/lastmile_qr_scan", "android": "https://dc.lft.to/lastmile_qr_scan"}, "lon": -77.01244483333333, "type": "electric_scooter", "fusion_lat": 0.0, "lat": 38.917055500000004, "name": "16e2fa80ad0527df787169e0b0c022e9", "fusion_lon": 0.0, "bike_id": "16e2fa80ad0527df787169e0b0c022e9", "is_disabled": 0, "is_reserved": 0}, {"rental_uris": {"ios": "https://dc.lft.to/lastmile_qr_scan", "android": "https://dc.lft.to/lastmile_qr_scan"}, "lon": -77.03202966666667, "type": "electric_scooter", "fusion_lat": 0.0, "lat": 38.90031833333333, "name": "41d65fef6e868385bad1b9ac52cbcdcf", "fusion_lon": 0.0, "bike_id": "41d65fef6e868385bad1b9ac52cbcdcf", "is_disabled": 0, "is_reserved": 0}, {"rental_uris": {"ios": "https://dc.lft.to/lastmile_qr_scan", "android": "https://dc.lft.to/lastmile_qr_scan"}, "lon": -77.05228916666667, "type": "electric_scooter", "fusion_lat": 0.0, "lat": 38.898053833333336, "name": "3ac890b89959888046e022736aa65dea", "fusion_lon": 0.0, "bike_id": "3ac890b89959888046e022736aa65dea", "is_disabled": 0, "is_reserved": 0}, {"rental_uris": {"ios": "https://dc.lft.to/lastmile_qr_scan", "android": "https://dc.lft.to/lastmile_qr_scan"}, "lon": -77.0322075, "type": "electric_scooter", "fusion_lat": 0.0, "lat": 38.892168833333336, "name": "bca97b9171f5930cbbfee9df6f33878a", "fusion_lon": 0.0, "bike_id": "bca97b9171f5930cbbfee9df6f33878a", "is_disabled": 0, "is_reserved": 0}, {"rental_uris": {"ios": "https://dc.lft.to/lastmile_qr_scan", "android": "https://dc.lft.to/lastmile_qr_scan"}, "lon": -77.0434475, "type": "electric_scooter", "fusion_lat": 0.0, "lat": 38.90815116666667, "name": "7deea7d4238b563d1f3dbef9dfbf6111", "fusion_lon": 0.0, "bike_id": "7deea7d4238b563d1f3dbef9dfbf6111", "is_disabled": 0, "is_reserved": 0}, {"rental_uris": {"ios": "https://dc.lft.to/lastmile_qr_scan", "android": "https://dc.lft.to/lastmile_qr_scan"}, "lon": -77.01528933333333, "type": "electric_scooter", "fusion_lat": 0.0, "lat": 38.887369166666666, "name": "54c06e4c35b1a785853b0fa6e2f12d32", "fusion_lon": 0.0, "bike_id": "54c06e4c35b1a785853b0fa6e2f12d32", "is_disabled": 0, "is_reserved": 0}, {"rental_uris": {"ios": "https://dc.lft.to/lastmile_qr_scan", "android": "https://dc.lft.to/lastmile_qr_scan"}, "lon": -77.05979583333334, "type": "electric_scooter", "fusion_lat": 0.0, "lat": 38.935470333333335, "name": "149f70f8f2f561acf14ebb38704a171c", "fusion_lon": 0.0, "bike_id": "149f70f8f2f561acf14ebb38704a171c", "is_disabled": 0, "is_reserved": 0}, {"rental_uris": {"ios": "https://dc.lft.to/lastmile_qr_scan", "android": "https://dc.lft.to/lastmile_qr_scan"}, "lon": -77.0269905, "type": "electric_scooter", "fusion_lat": 0.0, "lat": 38.91619933333333, "name": "5b0719d217445f57b7bdafbeaa90f18c", "fusion_lon": 0.0, "bike_id": "5b0719d217445f57b7bdafbeaa90f18c", "is_disabled": 0, "is_reserved": 0}, {"rental_uris": {"ios": "https://dc.lft.to/lastmile_qr_scan", "android": "https://dc.lft.to/lastmile_qr_scan"}, "lon": -76.974543, "type": "electric_scooter", "fusion_lat": 0.0, "lat": 38.865401, "name": "eb3f3b990e271ec7b5ad3f714d358f47", "fusion_lon": 0.0, "bike_id": "eb3f3b990e271ec7b5ad3f714d358f47", "is_disabled": 0, "is_reserved": 0}, {"rental_uris": {"ios": "https://dc.lft.to/lastmile_qr_scan", "android": "https://dc.lft.to/lastmile_qr_scan"}, "lon": -76.99063633333333, "type": "electric_scooter", "fusion_lat": 0.0, "lat": 38.86356716666667, "name": "083a46824f726399bf3518f28d7b236e", "fusion_lon": 0.0, "bike_id": "083a46824f726399bf3518f28d7b236e", "is_disabled": 0, "is_reserved": 0}, {"rental_uris": {"ios": "https://dc.lft.to/lastmile_qr_scan", "android": "https://dc.lft.to/lastmile_qr_scan"}, "lon": -76.978091, "type": "electric_scooter", "fusion_lat": 0.0, "lat": 38.88606766666667, "name": "2cc5c7475bc0533650961426a8cb454b", "fusion_lon": 0.0, "bike_id": "2cc5c7475bc0533650961426a8cb454b", "is_disabled": 0, "is_reserved": 0}, {"rental_uris": {"ios": "https://dc.lft.to/lastmile_qr_scan", "android": "https://dc.lft.to/lastmile_qr_scan"}, "lon": -77.118002, "type": "electric_bike", "fusion_lat": 0.0, "lat": 38.89837433333334, "name": "03461c922cbeb4dc4064d5a3c62760b3", "fusion_lon": 0.0, "bike_id": "03461c922cbeb4dc4064d5a3c62760b3", "is_disabled": 0, "is_reserved": 0}, {"rental_uris": {"ios": "https://dc.lft.to/lastmile_qr_scan", "android": "https://dc.lft.to/lastmile_qr_scan"}, "lon": -76.98788083333334, "type": "electric_bike", "fusion_lat": 0.0, "lat": 38.90413733333333, "name": "b4aa8574daa70c03ca37734bd2d4a7dc", "fusion_lon": 0.0, "bike_id": "b4aa8574daa70c03ca37734bd2d4a7dc", "is_disabled": 0, "is_reserved": 0}, {"rental_uris": {"ios": "https://dc.lft.to/lastmile_qr_scan", "android": "https://dc.lft.to/lastmile_qr_scan"}, "lon": -76.99861233333333, "type": "electric_scooter", "fusion_lat": 0.0, "lat": 38.907857, "name": "2c220670a78d7b15eee7dfc99cfb349c", "fusion_lon": 0.0, "bike_id": "2c220670a78d7b15eee7dfc99cfb349c", "is_disabled": 0, "is_reserved": 0}, {"rental_uris": {"ios": "https://dc.lft.to/lastmile_qr_scan", "android": "https://dc.lft.to/lastmile_qr_scan"}, "lon": -77.03697766666667, "type": "electric_scooter", "fusion_lat": 0.0, "lat": 38.92647516666667, "name": "836a52d5e4c301ca9c59e5c459d3c4da", "fusion_lon": 0.0, "bike_id": "836a52d5e4c301ca9c59e5c459d3c4da", "is_disabled": 0, "is_reserved": 0}, {"rental_uris": {"ios": "https://dc.lft.to/lastmile_qr_scan", "android": "https://dc.lft.to/lastmile_qr_scan"}, "lon": -77.029599, "type": "electric_scooter", "fusion_lat": 0.0, "lat": 38.910237333333335, "name": "bbba22b6b9d8504c6805e9989e99c8df", "fusion_lon": 0.0, "bike_id": "bbba22b6b9d8504c6805e9989e99c8df", "is_disabled": 0, "is_reserved": 0}, {"rental_uris": {"ios": "https://dc.lft.to/lastmile_qr_scan", "android": "https://dc.lft.to/lastmile_qr_scan"}, "lon": -77.00308216666667, "type": "electric_scooter", "fusion_lat": 0.0, "lat": 38.9090185, "name": "18c719f478156b3398e2648c13ebb971", "fusion_lon": 0.0, "bike_id": "18c719f478156b3398e2648c13ebb971", "is_disabled": 0, "is_reserved": 0}, {"rental_uris": {"ios": "https://dc.lft.to/lastmile_qr_scan", "android": "https://dc.lft.to/lastmile_qr_scan"}, "lon": -77.00240316666667, "type": "electric_scooter", "fusion_lat": 0.0, "lat": 38.9053685, "name": "c8ab9457076659a5ec1ea65cf213c175", "fusion_lon": 0.0, "bike_id": "c8ab9457076659a5ec1ea65cf213c175", "is_disabled": 0, "is_reserved": 0}, {"rental_uris": {"ios": "https://dc.lft.to/lastmile_qr_scan", "android": "https://dc.lft.to/lastmile_qr_scan"}, "lon": -77.02829916666667, "type": "electric_scooter", "fusion_lat": 0.0, "lat": 38.93186216666667, "name": "1ab9487a52d4dbb12a19a90fdc2940b3", "fusion_lon": 0.0, "bike_id": "1ab9487a52d4dbb12a19a90fdc2940b3", "is_disabled": 0, "is_reserved": 0}, {"rental_uris": {"ios": "https://dc.lft.to/lastmile_qr_scan", "android": "https://dc.lft.to/lastmile_qr_scan"}, "lon": -77.045004, "type": "electric_scooter", "fusion_lat": 0.0, "lat": 38.92132816666667, "name": "f15089b03b62243bee02e7d4c9a18c18", "fusion_lon": 0.0, "bike_id": "f15089b03b62243bee02e7d4c9a18c18", "is_disabled": 0, "is_reserved": 0}, {"rental_uris": {"ios": "https://dc.lft.to/lastmile_qr_scan", "android": "https://dc.lft.to/lastmile_qr_scan"}, "lon": -77.02249116666667, "type": "electric_scooter", "fusion_lat": 0.0, "lat": 38.92305533333333, "name": "964df5407b5df2350bcc7cd8cb2070f6", "fusion_lon": 0.0, "bike_id": "964df5407b5df2350bcc7cd8cb2070f6", "is_disabled": 0, "is_reserved": 0}, {"rental_uris": {"ios": "https://dc.lft.to/lastmile_qr_scan", "android": "https://dc.lft.to/lastmile_qr_scan"}, "lon": -76.9678295, "type": "electric_scooter", "fusion_lat": 0.0, "lat": 38.86140916666667, "name": "25ad18b236c697a9ddde91fe48260cd7", "fusion_lon": 0.0, "bike_id": "25ad18b236c697a9ddde91fe48260cd7", "is_disabled": 0, "is_reserved": 0}, {"rental_uris": {"ios": "https://dc.lft.to/lastmile_qr_scan", "android": "https://dc.lft.to/lastmile_qr_scan"}, "lon": -77.114307, "type": "electric_bike", "fusion_lat": 0.0, "lat": 38.852462, "name": "6b0019467bb4a643417fe51b4be4b072", "fusion_lon": 0.0, "bike_id": "6b0019467bb4a643417fe51b4be4b072", "is_disabled": 0, "is_reserved": 0}, {"rental_uris": {"ios": "https://dc.lft.to/lastmile_qr_scan", "android": "https://dc.lft.to/lastmile_qr_scan"}, "lon": -77.0028945, "type": "electric_scooter", "fusion_lat": 0.0, "lat": 38.9055455, "name": "59bb55e7963fb00c2e266e7b2398898c", "fusion_lon": 0.0, "bike_id": "59bb55e7963fb00c2e266e7b2398898c", "is_disabled": 0, "is_reserved": 0}, {"rental_uris": {"ios": "https://dc.lft.to/lastmile_qr_scan", "android": "https://dc.lft.to/lastmile_qr_scan"}, "lon": -76.9841175, "type": "electric_scooter", "fusion_lat": 0.0, "lat": 38.913861, "name": "fa11c8ec3d9556f42408b61aa671d33f", "fusion_lon": 0.0, "bike_id": "fa11c8ec3d9556f42408b61aa671d33f", "is_disabled": 0, "is_reserved": 0}, {"rental_uris": {"ios": "https://dc.lft.to/lastmile_qr_scan", "android": "https://dc.lft.to/lastmile_qr_scan"}, "lon": -77.03216483333334, "type": "electric_scooter", "fusion_lat": 0.0, "lat": 38.911928, "name": "1a02edd246197ffc3c128aa45507f798", "fusion_lon": 0.0, "bike_id": "1a02edd246197ffc3c128aa45507f798", "is_disabled": 0, "is_reserved": 0}, {"rental_uris": {"ios": "https://dc.lft.to/lastmile_qr_scan", "android": "https://dc.lft.to/lastmile_qr_scan"}, "lon": -77.01141383333334, "type": "electric_bike", "fusion_lat": 0.0, "lat": 38.9118585, "name": "5f5a42f05ae143c74f6a592ef412ee39", "fusion_lon": 0.0, "bike_id": "5f5a42f05ae143c74f6a592ef412ee39", "is_disabled": 0, "is_reserved": 0}, {"rental_uris": {"ios": "https://dc.lft.to/lastmile_qr_scan", "android": "https://dc.lft.to/lastmile_qr_scan"}, "lon": -77.036956, "type": "electric_scooter", "fusion_lat": 0.0, "lat": 38.92648783333333, "name": "0ba4796110c43187911f72f7bf7b2299", "fusion_lon": 0.0, "bike_id": "0ba4796110c43187911f72f7bf7b2299", "is_disabled": 0, "is_reserved": 0}, {"rental_uris": {"ios": "https://dc.lft.to/lastmile_qr_scan", "android": "https://dc.lft.to/lastmile_qr_scan"}, "lon": -77.04117533333333, "type": "electric_scooter", "fusion_lat": 0.0, "lat": 38.91707983333333, "name": "5aafd0c89ca6b889acca645449b40a8b", "fusion_lon": 0.0, "bike_id": "5aafd0c89ca6b889acca645449b40a8b", "is_disabled": 0, "is_reserved": 0}, {"rental_uris": {"ios": "https://dc.lft.to/lastmile_qr_scan", "android": "https://dc.lft.to/lastmile_qr_scan"}, "lon": -77.025656, "type": "electric_scooter", "fusion_lat": 0.0, "lat": 38.91471666666666, "name": "ebe4c24387eb75f713733f3af7c3ca91", "fusion_lon": 0.0, "bike_id": "ebe4c24387eb75f713733f3af7c3ca91", "is_disabled": 0, "is_reserved": 0}, {"rental_uris": {"ios": "https://dc.lft.to/lastmile_qr_scan", "android": "https://dc.lft.to/lastmile_qr_scan"}, "lon": -77.002114, "type": "electric_scooter", "fusion_lat": 0.0, "lat": 38.90049416666667, "name": "836dc515e80a8b37b56d993e1356a5f9", "fusion_lon": 0.0, "bike_id": "836dc515e80a8b37b56d993e1356a5f9", "is_disabled": 0, "is_reserved": 0}, {"rental_uris": {"ios": "https://dc.lft.to/lastmile_qr_scan", "android": "https://dc.lft.to/lastmile_qr_scan"}, "lon": -76.988963, "type": "electric_scooter", "fusion_lat": 0.0, "lat": 38.86653916666667, "name": "21d82f5b9556de75be34d36dee569bef", "fusion_lon": 0.0, "bike_id": "21d82f5b9556de75be34d36dee569bef", "is_disabled": 0, "is_reserved": 0}, {"rental_uris": {"ios": "https://dc.lft.to/lastmile_qr_scan", "android": "https://dc.lft.to/lastmile_qr_scan"}, "lon": -77.05762116666666, "type": "electric_scooter", "fusion_lat": 0.0, "lat": 38.92459616666667, "name": "0cbe90e9a4bf84312847260c0c3717d5", "fusion_lon": 0.0, "bike_id": "0cbe90e9a4bf84312847260c0c3717d5", "is_disabled": 0, "is_reserved": 0}, {"rental_uris": {"ios": "https://dc.lft.to/lastmile_qr_scan", "android": "https://dc.lft.to/lastmile_qr_scan"}, "lon": -77.01450416666667, "type": "electric_scooter", "fusion_lat": 0.0, "lat": 38.92979416666667, "name": "31864d20f1c0bcb115507926ceadfd1d", "fusion_lon": 0.0, "bike_id": "31864d20f1c0bcb115507926ceadfd1d", "is_disabled": 0, "is_reserved": 0}, {"rental_uris": {"ios": "https://dc.lft.to/lastmile_qr_scan", "android": "https://dc.lft.to/lastmile_qr_scan"}, "lon": -76.9009095, "type": "electric_bike", "fusion_lat": 0.0, "lat": 38.887469833333334, "name": "03dd12d053053e420fd7f76eaa72b66c", "fusion_lon": 0.0, "bike_id": "03dd12d053053e420fd7f76eaa72b66c", "is_disabled": 0, "is_reserved": 0}, {"rental_uris": {"ios": "https://dc.lft.to/lastmile_qr_scan", "android": "https://dc.lft.to/lastmile_qr_scan"}, "lon": -77.0306965, "type": "electric_scooter", "fusion_lat": 0.0, "lat": 38.91814216666667, "name": "83baf52cb7bd448f90e59dc4017c3b20", "fusion_lon": 0.0, "bike_id": "83baf52cb7bd448f90e59dc4017c3b20", "is_disabled": 0, "is_reserved": 0}, {"rental_uris": {"ios": "https://dc.lft.to/lastmile_qr_scan", "android": "https://dc.lft.to/lastmile_qr_scan"}, "lon": -77.0530185, "type": "electric_scooter", "fusion_lat": 0.0, "lat": 38.89928183333333, "name": "c61ad0f7ce9cce6e9b22f6be54355ef9", "fusion_lon": 0.0, "bike_id": "c61ad0f7ce9cce6e9b22f6be54355ef9", "is_disabled": 0, "is_reserved": 0}, {"rental_uris": {"ios": "https://dc.lft.to/lastmile_qr_scan", "android": "https://dc.lft.to/lastmile_qr_scan"}, "lon": -77.04903416666667, "type": "electric_scooter", "fusion_lat": 0.0, "lat": 38.91937216666667, "name": "f360208d9654930d7d9506f58cf1a499", "fusion_lon": 0.0, "bike_id": "f360208d9654930d7d9506f58cf1a499", "is_disabled": 0, "is_reserved": 0}, {"rental_uris": {"ios": "https://dc.lft.to/lastmile_qr_scan", "android": "https://dc.lft.to/lastmile_qr_scan"}, "lon": -77.00567466666666, "type": "electric_scooter", "fusion_lat": 0.0, "lat": 38.885011666666664, "name": "f46c8161cd58b0f2f703a6900354636d", "fusion_lon": 0.0, "bike_id": "f46c8161cd58b0f2f703a6900354636d", "is_disabled": 0, "is_reserved": 0}, {"rental_uris": {"ios": "https://dc.lft.to/lastmile_qr_scan", "android": "https://dc.lft.to/lastmile_qr_scan"}, "lon": -77.00495, "type": "electric_bike", "fusion_lat": 0.0, "lat": 38.84191716666667, "name": "d6bca7c917c5467f52f5e61405ff0059", "fusion_lon": 0.0, "bike_id": "d6bca7c917c5467f52f5e61405ff0059", "is_disabled": 0, "is_reserved": 0}, {"rental_uris": {"ios": "https://dc.lft.to/lastmile_qr_scan", "android": "https://dc.lft.to/lastmile_qr_scan"}, "lon": -76.99345916666667, "type": "electric_scooter", "fusion_lat": 0.0, "lat": 38.90007466666667, "name": "b4607a771be181295fb1cb6b14ae9910", "fusion_lon": 0.0, "bike_id": "b4607a771be181295fb1cb6b14ae9910", "is_disabled": 0, "is_reserved": 0}, {"rental_uris": {"ios": "https://dc.lft.to/lastmile_qr_scan", "android": "https://dc.lft.to/lastmile_qr_scan"}, "lon": -77.04013066666667, "type": "electric_scooter", "fusion_lat": 0.0, "lat": 38.932536, "name": "5c83f7de3381eaf31472fd3e21c4e65d", "fusion_lon": 0.0, "bike_id": "5c83f7de3381eaf31472fd3e21c4e65d", "is_disabled": 0, "is_reserved": 0}, {"rental_uris": {"ios": "https://dc.lft.to/lastmile_qr_scan", "android": "https://dc.lft.to/lastmile_qr_scan"}, "lon": -76.9916055, "type": "electric_bike", "fusion_lat": 0.0, "lat": 38.886291166666666, "name": "46201a31a85b11bf7c7f7fbf1299d7f3", "fusion_lon": 0.0, "bike_id": "46201a31a85b11bf7c7f7fbf1299d7f3", "is_disabled": 0, "is_reserved": 0}, {"rental_uris": {"ios": "https://dc.lft.to/lastmile_qr_scan", "android": "https://dc.lft.to/lastmile_qr_scan"}, "lon": -77.162365, "type": "electric_bike", "fusion_lat": 0.0, "lat": 38.88655266666667, "name": "53b30a7b5f034daff1f8c0f93327939c", "fusion_lon": 0.0, "bike_id": "53b30a7b5f034daff1f8c0f93327939c", "is_disabled": 0, "is_reserved": 0}, {"rental_uris": {"ios": "https://dc.lft.to/lastmile_qr_scan", "android": "https://dc.lft.to/lastmile_qr_scan"}, "lon": -76.95753166666667, "type": "electric_scooter", "fusion_lat": 0.0, "lat": 38.884291833333336, "name": "c55167cf205a24f78dd68271192d4995", "fusion_lon": 0.0, "bike_id": "c55167cf205a24f78dd68271192d4995", "is_disabled": 0, "is_reserved": 0}, {"rental_uris": {"ios": "https://dc.lft.to/lastmile_qr_scan", "android": "https://dc.lft.to/lastmile_qr_scan"}, "lon": -76.9937415, "type": "electric_bike", "fusion_lat": 0.0, "lat": 38.922972666666666, "name": "d0e7b53889f8199a03f433414f503944", "fusion_lon": 0.0, "bike_id": "d0e7b53889f8199a03f433414f503944", "is_disabled": 0, "is_reserved": 0}, {"rental_uris": {"ios": "https://dc.lft.to/lastmile_qr_scan", "android": "https://dc.lft.to/lastmile_qr_scan"}, "lon": -77.019764, "type": "electric_scooter", "fusion_lat": 0.0, "lat": 38.897376, "name": "5f65b850c9701763868e6223f8522690", "fusion_lon": 0.0, "bike_id": "5f65b850c9701763868e6223f8522690", "is_disabled": 0, "is_reserved": 0}, {"rental_uris": {"ios": "https://dc.lft.to/lastmile_qr_scan", "android": "https://dc.lft.to/lastmile_qr_scan"}, "lon": -77.0237595, "type": "electric_scooter", "fusion_lat": 0.0, "lat": 38.896299666666664, "name": "5741cee916c176bce91978e2030212dd", "fusion_lon": 0.0, "bike_id": "5741cee916c176bce91978e2030212dd", "is_disabled": 0, "is_reserved": 0}, {"rental_uris": {"ios": "https://dc.lft.to/lastmile_qr_scan", "android": "https://dc.lft.to/lastmile_qr_scan"}, "lon": -76.94926933333333, "type": "electric_scooter", "fusion_lat": 0.0, "lat": 38.89531616666667, "name": "d19df4c9d49eba2ceccf41665c7970f7", "fusion_lon": 0.0, "bike_id": "d19df4c9d49eba2ceccf41665c7970f7", "is_disabled": 0, "is_reserved": 0}, {"rental_uris": {"ios": "https://dc.lft.to/lastmile_qr_scan", "android": "https://dc.lft.to/lastmile_qr_scan"}, "lon": -76.96504416666667, "type": "electric_scooter", "fusion_lat": 0.0, "lat": 38.8764635, "name": "f3dd3b8aaf8007cfa61d2c4b575267f0", "fusion_lon": 0.0, "bike_id": "f3dd3b8aaf8007cfa61d2c4b575267f0", "is_disabled": 0, "is_reserved": 0}, {"rental_uris": {"ios": "https://dc.lft.to/lastmile_qr_scan", "android": "https://dc.lft.to/lastmile_qr_scan"}, "lon": -77.02042383333334, "type": "electric_scooter", "fusion_lat": 0.0, "lat": 38.9155395, "name": "1b3f50305c66c1f80977fff4471e3f9c", "fusion_lon": 0.0, "bike_id": "1b3f50305c66c1f80977fff4471e3f9c", "is_disabled": 0, "is_reserved": 0}, {"rental_uris": {"ios": "https://dc.lft.to/lastmile_qr_scan", "android": "https://dc.lft.to/lastmile_qr_scan"}, "lon": -77.15266183333334, "type": "electric_bike", "fusion_lat": 0.0, "lat": 39.10566016666667, "name": "4508d2467d847a648dbb171650887220", "fusion_lon": 0.0, "bike_id": "4508d2467d847a648dbb171650887220", "is_disabled": 0, "is_reserved": 0}, {"rental_uris": {"ios": "https://dc.lft.to/lastmile_qr_scan", "android": "https://dc.lft.to/lastmile_qr_scan"}, "lon": -76.93175116666667, "type": "electric_scooter", "fusion_lat": 0.0, "lat": 38.898813833333335, "name": "87c9016609b94af9da31d20875f8fbfb", "fusion_lon": 0.0, "bike_id": "87c9016609b94af9da31d20875f8fbfb", "is_disabled": 0, "is_reserved": 0}, {"rental_uris": {"ios": "https://dc.lft.to/lastmile_qr_scan", "android": "https://dc.lft.to/lastmile_qr_scan"}, "lon": -77.040019, "type": "electric_scooter", "fusion_lat": 0.0, "lat": 38.896258833333334, "name": "59ca6f139af5ec840a0b7473edb89654", "fusion_lon": 0.0, "bike_id": "59ca6f139af5ec840a0b7473edb89654", "is_disabled": 0, "is_reserved": 0}, {"rental_uris": {"ios": "https://dc.lft.to/lastmile_qr_scan", "android": "https://dc.lft.to/lastmile_qr_scan"}, "lon": -76.96629283333333, "type": "electric_bike", "fusion_lat": 0.0, "lat": 38.9419995, "name": "28ef846cb6e415cfac3ce4dfb6242915", "fusion_lon": 0.0, "bike_id": "28ef846cb6e415cfac3ce4dfb6242915", "is_disabled": 0, "is_reserved": 0}, {"rental_uris": {"ios": "https://dc.lft.to/lastmile_qr_scan", "android": "https://dc.lft.to/lastmile_qr_scan"}, "lon": -76.9288895, "type": "electric_scooter", "fusion_lat": 0.0, "lat": 38.893302, "name": "9cdbf3f13652beeff3ba70860106d1cc", "fusion_lon": 0.0, "bike_id": "9cdbf3f13652beeff3ba70860106d1cc", "is_disabled": 0, "is_reserved": 0}, {"rental_uris": {"ios": "https://dc.lft.to/lastmile_qr_scan", "android": "https://dc.lft.to/lastmile_qr_scan"}, "lon": -77.046168, "type": "electric_scooter", "fusion_lat": 0.0, "lat": 38.903869, "name": "3c0f588e441ce342769c564690c97eb4", "fusion_lon": 0.0, "bike_id": "3c0f588e441ce342769c564690c97eb4", "is_disabled": 0, "is_reserved": 0}, {"rental_uris": {"ios": "https://dc.lft.to/lastmile_qr_scan", "android": "https://dc.lft.to/lastmile_qr_scan"}, "lon": -77.03653666666666, "type": "electric_scooter", "fusion_lat": 0.0, "lat": 38.921196, "name": "13aed3fec8d9536506a43b6d3a1735da", "fusion_lon": 0.0, "bike_id": "13aed3fec8d9536506a43b6d3a1735da", "is_disabled": 0, "is_reserved": 0}, {"rental_uris": {"ios": "https://dc.lft.to/lastmile_qr_scan", "android": "https://dc.lft.to/lastmile_qr_scan"}, "lon": -77.027035, "type": "electric_scooter", "fusion_lat": 0.0, "lat": 38.949769, "name": "63f9a88f11cb0934f8f725ff08429f9f", "fusion_lon": 0.0, "bike_id": "63f9a88f11cb0934f8f725ff08429f9f", "is_disabled": 0, "is_reserved": 0}, {"rental_uris": {"ios": "https://dc.lft.to/lastmile_qr_scan", "android": "https://dc.lft.to/lastmile_qr_scan"}, "lon": -77.01115716666666, "type": "electric_scooter", "fusion_lat": 0.0, "lat": 38.915512, "name": "a6ac42606c94b4e625cd9fe177029fe7", "fusion_lon": 0.0, "bike_id": "a6ac42606c94b4e625cd9fe177029fe7", "is_disabled": 0, "is_reserved": 0}, {"rental_uris": {"ios": "https://dc.lft.to/lastmile_qr_scan", "android": "https://dc.lft.to/lastmile_qr_scan"}, "lon": -77.00123466666666, "type": "electric_scooter", "fusion_lat": 0.0, "lat": 38.9037545, "name": "dcce489aa8bd4c1b235eec057c8a3e9b", "fusion_lon": 0.0, "bike_id": "dcce489aa8bd4c1b235eec057c8a3e9b", "is_disabled": 0, "is_reserved": 0}, {"rental_uris": {"ios": "https://dc.lft.to/lastmile_qr_scan", "android": "https://dc.lft.to/lastmile_qr_scan"}, "lon": -77.04447383333333, "type": "electric_scooter", "fusion_lat": 0.0, "lat": 38.91018533333333, "name": "3d2ece9b284d2a31372bf1c7c24d1cd8", "fusion_lon": 0.0, "bike_id": "3d2ece9b284d2a31372bf1c7c24d1cd8", "is_disabled": 0, "is_reserved": 0}, {"rental_uris": {"ios": "https://dc.lft.to/lastmile_qr_scan", "android": "https://dc.lft.to/lastmile_qr_scan"}, "lon": -77.03192916666667, "type": "electric_scooter", "fusion_lat": 0.0, "lat": 38.912771166666666, "name": "0bc917e2877ae1a1f47a6e6cc58ffcfe", "fusion_lon": 0.0, "bike_id": "0bc917e2877ae1a1f47a6e6cc58ffcfe", "is_disabled": 0, "is_reserved": 0}, {"rental_uris": {"ios": "https://dc.lft.to/lastmile_qr_scan", "android": "https://dc.lft.to/lastmile_qr_scan"}, "lon": -77.0335515, "type": "electric_scooter", "fusion_lat": 0.0, "lat": 38.88537916666667, "name": "32592fe757eb7a9f0e96a52cd2f2da95", "fusion_lon": 0.0, "bike_id": "32592fe757eb7a9f0e96a52cd2f2da95", "is_disabled": 0, "is_reserved": 0}, {"rental_uris": {"ios": "https://dc.lft.to/lastmile_qr_scan", "android": "https://dc.lft.to/lastmile_qr_scan"}, "lon": -77.00766133333333, "type": "electric_scooter", "fusion_lat": 0.0, "lat": 38.87911583333333, "name": "43db8f8990f1ab615d405bc1a7d99f37", "fusion_lon": 0.0, "bike_id": "43db8f8990f1ab615d405bc1a7d99f37", "is_disabled": 0, "is_reserved": 0}, {"rental_uris": {"ios": "https://dc.lft.to/lastmile_qr_scan", "android": "https://dc.lft.to/lastmile_qr_scan"}, "lon": -77.130914, "type": "electric_bike", "fusion_lat": 0.0, "lat": 38.861616, "name": "d9965124645ded223d5b12681bb2b987", "fusion_lon": 0.0, "bike_id": "d9965124645ded223d5b12681bb2b987", "is_disabled": 0, "is_reserved": 0}, {"rental_uris": {"ios": "https://dc.lft.to/lastmile_qr_scan", "android": "https://dc.lft.to/lastmile_qr_scan"}, "lon": -76.98515583333334, "type": "electric_scooter", "fusion_lat": 0.0, "lat": 38.900867833333336, "name": "f0d86cf1aac172e7c6b51afd4569a2cc", "fusion_lon": 0.0, "bike_id": "f0d86cf1aac172e7c6b51afd4569a2cc", "is_disabled": 0, "is_reserved": 0}, {"rental_uris": {"ios": "https://dc.lft.to/lastmile_qr_scan", "android": "https://dc.lft.to/lastmile_qr_scan"}, "lon": -77.04759783333333, "type": "electric_scooter", "fusion_lat": 0.0, "lat": 38.8972465, "name": "bed11934b6c495f38c7270275906ed19", "fusion_lon": 0.0, "bike_id": "bed11934b6c495f38c7270275906ed19", "is_disabled": 0, "is_reserved": 0}, {"rental_uris": {"ios": "https://dc.lft.to/lastmile_qr_scan", "android": "https://dc.lft.to/lastmile_qr_scan"}, "lon": -77.043484, "type": "electric_scooter", "fusion_lat": 0.0, "lat": 38.91596033333333, "name": "cf8740db4b8affc54d68ed8dacdc624e", "fusion_lon": 0.0, "bike_id": "cf8740db4b8affc54d68ed8dacdc624e", "is_disabled": 0, "is_reserved": 0}, {"rental_uris": {"ios": "https://dc.lft.to/lastmile_qr_scan", "android": "https://dc.lft.to/lastmile_qr_scan"}, "lon": -77.0364885, "type": "electric_scooter", "fusion_lat": 0.0, "lat": 38.95502883333333, "name": "cafd88637c26b4aa9f9d06195ddd15f9", "fusion_lon": 0.0, "bike_id": "cafd88637c26b4aa9f9d06195ddd15f9", "is_disabled": 0, "is_reserved": 0}, {"rental_uris": {"ios": "https://dc.lft.to/lastmile_qr_scan", "android": "https://dc.lft.to/lastmile_qr_scan"}, "lon": -77.0296015, "type": "electric_scooter", "fusion_lat": 0.0, "lat": 38.90500983333333, "name": "7c02d52feb398674c1795a1919545092", "fusion_lon": 0.0, "bike_id": "7c02d52feb398674c1795a1919545092", "is_disabled": 0, "is_reserved": 0}, {"rental_uris": {"ios": "https://dc.lft.to/lastmile_qr_scan", "android": "https://dc.lft.to/lastmile_qr_scan"}, "lon": -77.02295866666667, "type": "electric_scooter", "fusion_lat": 0.0, "lat": 38.9168225, "name": "38b8238d8d82e60ee62fe8b2b0f53a0a", "fusion_lon": 0.0, "bike_id": "38b8238d8d82e60ee62fe8b2b0f53a0a", "is_disabled": 0, "is_reserved": 0}, {"rental_uris": {"ios": "https://dc.lft.to/lastmile_qr_scan", "android": "https://dc.lft.to/lastmile_qr_scan"}, "lon": -77.0080945, "type": "electric_scooter", "fusion_lat": 0.0, "lat": 38.914030333333336, "name": "da2692fbd343bc5a142455ac177cfc30", "fusion_lon": 0.0, "bike_id": "da2692fbd343bc5a142455ac177cfc30", "is_disabled": 0, "is_reserved": 0}, {"rental_uris": {"ios": "https://dc.lft.to/lastmile_qr_scan", "android": "https://dc.lft.to/lastmile_qr_scan"}, "lon": -77.02214016666667, "type": "electric_scooter", "fusion_lat": 0.0, "lat": 38.90571333333333, "name": "8b292a1b34b7bac4be5337a7f7db2d64", "fusion_lon": 0.0, "bike_id": "8b292a1b34b7bac4be5337a7f7db2d64", "is_disabled": 0, "is_reserved": 0}, {"rental_uris": {"ios": "https://dc.lft.to/lastmile_qr_scan", "android": "https://dc.lft.to/lastmile_qr_scan"}, "lon": -77.03641516666667, "type": "electric_scooter", "fusion_lat": 0.0, "lat": 38.917353, "name": "c651d1f6088dc3967ec02bfae51cfea6", "fusion_lon": 0.0, "bike_id": "c651d1f6088dc3967ec02bfae51cfea6", "is_disabled": 0, "is_reserved": 0}, {"rental_uris": {"ios": "https://dc.lft.to/lastmile_qr_scan", "android": "https://dc.lft.to/lastmile_qr_scan"}, "lon": -77.09161566666667, "type": "electric_bike", "fusion_lat": 0.0, "lat": 38.967625166666664, "name": "5ad7ad9c5e6f4ef50046f206a015278a", "fusion_lon": 0.0, "bike_id": "5ad7ad9c5e6f4ef50046f206a015278a", "is_disabled": 0, "is_reserved": 0}, {"rental_uris": {"ios": "https://dc.lft.to/lastmile_qr_scan", "android": "https://dc.lft.to/lastmile_qr_scan"}, "lon": -77.03439233333333, "type": "electric_scooter", "fusion_lat": 0.0, "lat": 38.909763833333336, "name": "cadef8877392735f1601c129e1db4f61", "fusion_lon": 0.0, "bike_id": "cadef8877392735f1601c129e1db4f61", "is_disabled": 0, "is_reserved": 0}, {"rental_uris": {"ios": "https://dc.lft.to/lastmile_qr_scan", "android": "https://dc.lft.to/lastmile_qr_scan"}, "lon": -77.0234475, "type": "electric_scooter", "fusion_lat": 0.0, "lat": 38.8832375, "name": "6481aefd5ae1227304f971662252c1df", "fusion_lon": 0.0, "bike_id": "6481aefd5ae1227304f971662252c1df", "is_disabled": 0, "is_reserved": 0}, {"rental_uris": {"ios": "https://dc.lft.to/lastmile_qr_scan", "android": "https://dc.lft.to/lastmile_qr_scan"}, "lon": -77.06469266666667, "type": "electric_bike", "fusion_lat": 0.0, "lat": 38.97381883333333, "name": "989ea4e41e6179a95a1e38ef429dccc2", "fusion_lon": 0.0, "bike_id": "989ea4e41e6179a95a1e38ef429dccc2", "is_disabled": 0, "is_reserved": 0}, {"rental_uris": {"ios": "https://dc.lft.to/lastmile_qr_scan", "android": "https://dc.lft.to/lastmile_qr_scan"}, "lon": -77.096181, "type": "electric_bike", "fusion_lat": 0.0, "lat": 38.84568866666667, "name": "93efcea69f688ffda2e6b7131b457074", "fusion_lon": 0.0, "bike_id": "93efcea69f688ffda2e6b7131b457074", "is_disabled": 0, "is_reserved": 0}, {"rental_uris": {"ios": "https://dc.lft.to/lastmile_qr_scan", "android": "https://dc.lft.to/lastmile_qr_scan"}, "lon": -77.04169083333333, "type": "electric_scooter", "fusion_lat": 0.0, "lat": 38.919542166666666, "name": "8bed11ca58e5894ef818b369dde143e0", "fusion_lon": 0.0, "bike_id": "8bed11ca58e5894ef818b369dde143e0", "is_disabled": 0, "is_reserved": 0}, {"rental_uris": {"ios": "https://dc.lft.to/lastmile_qr_scan", "android": "https://dc.lft.to/lastmile_qr_scan"}, "lon": -77.038121, "type": "electric_scooter", "fusion_lat": 0.0, "lat": 38.931097666666666, "name": "ed50e17761601d98db4b6e457f5c918f", "fusion_lon": 0.0, "bike_id": "ed50e17761601d98db4b6e457f5c918f", "is_disabled": 0, "is_reserved": 0}, {"rental_uris": {"ios": "https://dc.lft.to/lastmile_qr_scan", "android": "https://dc.lft.to/lastmile_qr_scan"}, "lon": -77.027351, "type": "electric_scooter", "fusion_lat": 0.0, "lat": 38.89609183333334, "name": "a8e9d3b59b18891d9d67b32065b3a823", "fusion_lon": 0.0, "bike_id": "a8e9d3b59b18891d9d67b32065b3a823", "is_disabled": 0, "is_reserved": 0}, {"rental_uris": {"ios": "https://dc.lft.to/lastmile_qr_scan", "android": "https://dc.lft.to/lastmile_qr_scan"}, "lon": -77.035777, "type": "electric_scooter", "fusion_lat": 0.0, "lat": 38.9338925, "name": "3c5a9ac20371b5a0e08d0798ef919086", "fusion_lon": 0.0, "bike_id": "3c5a9ac20371b5a0e08d0798ef919086", "is_disabled": 0, "is_reserved": 0}, {"rental_uris": {"ios": "https://dc.lft.to/lastmile_qr_scan", "android": "https://dc.lft.to/lastmile_qr_scan"}, "lon": -77.04623983333333, "type": "electric_bike", "fusion_lat": 0.0, "lat": 38.99905783333333, "name": "978e12e0a8afb52e913bf5b01027611b", "fusion_lon": 0.0, "bike_id": "978e12e0a8afb52e913bf5b01027611b", "is_disabled": 0, "is_reserved": 0}, {"rental_uris": {"ios": "https://dc.lft.to/lastmile_qr_scan", "android": "https://dc.lft.to/lastmile_qr_scan"}, "lon": -77.04020216666666, "type": "electric_scooter", "fusion_lat": 0.0, "lat": 38.918146, "name": "2231aa89da8867abbf1b6ee4284ee60a", "fusion_lon": 0.0, "bike_id": "2231aa89da8867abbf1b6ee4284ee60a", "is_disabled": 0, "is_reserved": 0}, {"rental_uris": {"ios": "https://dc.lft.to/lastmile_qr_scan", "android": "https://dc.lft.to/lastmile_qr_scan"}, "lon": -77.02146466666666, "type": "electric_bike", "fusion_lat": 0.0, "lat": 38.97322966666667, "name": "afe94431e8e5bd144f9aecac2e343c2b", "fusion_lon": 0.0, "bike_id": "afe94431e8e5bd144f9aecac2e343c2b", "is_disabled": 0, "is_reserved": 0}, {"rental_uris": {"ios": "https://dc.lft.to/lastmile_qr_scan", "android": "https://dc.lft.to/lastmile_qr_scan"}, "lon": -76.93614116666667, "type": "electric_bike", "fusion_lat": 0.0, "lat": 38.9705115, "name": "be608e3214d63cb13e3433018d6533e1", "fusion_lon": 0.0, "bike_id": "be608e3214d63cb13e3433018d6533e1", "is_disabled": 0, "is_reserved": 0}, {"rental_uris": {"ios": "https://dc.lft.to/lastmile_qr_scan", "android": "https://dc.lft.to/lastmile_qr_scan"}, "lon": -77.07903966666667, "type": "electric_bike", "fusion_lat": 0.0, "lat": 38.839305833333334, "name": "94e424d3bbde4f87dd71d6cfecbf11c9", "fusion_lon": 0.0, "bike_id": "94e424d3bbde4f87dd71d6cfecbf11c9", "is_disabled": 0, "is_reserved": 0}, {"rental_uris": {"ios": "https://dc.lft.to/lastmile_qr_scan", "android": "https://dc.lft.to/lastmile_qr_scan"}, "lon": -76.98095816666667, "type": "electric_bike", "fusion_lat": 0.0, "lat": 38.902858333333334, "name": "7dbdbd9889862cd46d0433f44935d023", "fusion_lon": 0.0, "bike_id": "7dbdbd9889862cd46d0433f44935d023", "is_disabled": 0, "is_reserved": 0}, {"rental_uris": {"ios": "https://dc.lft.to/lastmile_qr_scan", "android": "https://dc.lft.to/lastmile_qr_scan"}, "lon": -77.02417, "type": "electric_scooter", "fusion_lat": 0.0, "lat": 38.93104833333334, "name": "2302c356fe202f263a9d0bad21bf0978", "fusion_lon": 0.0, "bike_id": "2302c356fe202f263a9d0bad21bf0978", "is_disabled": 0, "is_reserved": 0}, {"rental_uris": {"ios": "https://dc.lft.to/lastmile_qr_scan", "android": "https://dc.lft.to/lastmile_qr_scan"}, "lon": -77.03370683333333, "type": "electric_scooter", "fusion_lat": 0.0, "lat": 38.94508483333333, "name": "c2ce9b8c7e0fbfc5cac0940354271e78", "fusion_lon": 0.0, "bike_id": "c2ce9b8c7e0fbfc5cac0940354271e78", "is_disabled": 0, "is_reserved": 0}, {"rental_uris": {"ios": "https://dc.lft.to/lastmile_qr_scan", "android": "https://dc.lft.to/lastmile_qr_scan"}, "lon": -77.00655966666666, "type": "electric_scooter", "fusion_lat": 0.0, "lat": 38.87652033333333, "name": "9bdfd282ae52a24fb0cba8e302f3b0bf", "fusion_lon": 0.0, "bike_id": "9bdfd282ae52a24fb0cba8e302f3b0bf", "is_disabled": 0, "is_reserved": 0}, {"rental_uris": {"ios": "https://dc.lft.to/lastmile_qr_scan", "android": "https://dc.lft.to/lastmile_qr_scan"}, "lon": -76.9996645, "type": "electric_scooter", "fusion_lat": 0.0, "lat": 38.9014, "name": "03c2fa991a628334bdd67c0457db8519", "fusion_lon": 0.0, "bike_id": "03c2fa991a628334bdd67c0457db8519", "is_disabled": 0, "is_reserved": 0}, {"rental_uris": {"ios": "https://dc.lft.to/lastmile_qr_scan", "android": "https://dc.lft.to/lastmile_qr_scan"}, "lon": -77.0415065, "type": "electric_scooter", "fusion_lat": 0.0, "lat": 38.9074475, "name": "b667e43d0d7d6db8a5f41862749652e0", "fusion_lon": 0.0, "bike_id": "b667e43d0d7d6db8a5f41862749652e0", "is_disabled": 0, "is_reserved": 0}, {"rental_uris": {"ios": "https://dc.lft.to/lastmile_qr_scan", "android": "https://dc.lft.to/lastmile_qr_scan"}, "lon": -77.01988233333333, "type": "electric_scooter", "fusion_lat": 0.0, "lat": 38.897262, "name": "1ba78ff84d7928108395560cbb45239b", "fusion_lon": 0.0, "bike_id": "1ba78ff84d7928108395560cbb45239b", "is_disabled": 0, "is_reserved": 0}, {"rental_uris": {"ios": "https://dc.lft.to/lastmile_qr_scan", "android": "https://dc.lft.to/lastmile_qr_scan"}, "lon": -77.03263116666666, "type": "electric_scooter", "fusion_lat": 0.0, "lat": 38.93867133333333, "name": "bb8908895861ad08c4b27656f05b44d1", "fusion_lon": 0.0, "bike_id": "bb8908895861ad08c4b27656f05b44d1", "is_disabled": 0, "is_reserved": 0}, {"rental_uris": {"ios": "https://dc.lft.to/lastmile_qr_scan", "android": "https://dc.lft.to/lastmile_qr_scan"}, "lon": -77.0031615, "type": "electric_scooter", "fusion_lat": 0.0, "lat": 38.9012215, "name": "334f0727642a36193d20a00a6e9bdd8a", "fusion_lon": 0.0, "bike_id": "334f0727642a36193d20a00a6e9bdd8a", "is_disabled": 0, "is_reserved": 0}, {"rental_uris": {"ios": "https://dc.lft.to/lastmile_qr_scan", "android": "https://dc.lft.to/lastmile_qr_scan"}, "lon": -77.02973333333334, "type": "electric_scooter", "fusion_lat": 0.0, "lat": 38.92316833333334, "name": "6571084871cf16e5809579fe55802274", "fusion_lon": 0.0, "bike_id": "6571084871cf16e5809579fe55802274", "is_disabled": 0, "is_reserved": 0}, {"rental_uris": {"ios": "https://dc.lft.to/lastmile_qr_scan", "android": "https://dc.lft.to/lastmile_qr_scan"}, "lon": -77.03264266666666, "type": "electric_scooter", "fusion_lat": 0.0, "lat": 38.935285666666665, "name": "eaee5acd0793fcedc4f5f6b81c751aea", "fusion_lon": 0.0, "bike_id": "eaee5acd0793fcedc4f5f6b81c751aea", "is_disabled": 0, "is_reserved": 0}, {"rental_uris": {"ios": "https://dc.lft.to/lastmile_qr_scan", "android": "https://dc.lft.to/lastmile_qr_scan"}, "lon": -76.97606333333333, "type": "electric_bike", "fusion_lat": 0.0, "lat": 38.913121, "name": "5eb5e083e33e6f648270dcb7253291a2", "fusion_lon": 0.0, "bike_id": "5eb5e083e33e6f648270dcb7253291a2", "is_disabled": 0, "is_reserved": 0}, {"rental_uris": {"ios": "https://dc.lft.to/lastmile_qr_scan", "android": "https://dc.lft.to/lastmile_qr_scan"}, "lon": -76.99031983333333, "type": "electric_scooter", "fusion_lat": 0.0, "lat": 38.858695166666664, "name": "a13e9a3bdef0d40f9f7b32d3f77a8eb0", "fusion_lon": 0.0, "bike_id": "a13e9a3bdef0d40f9f7b32d3f77a8eb0", "is_disabled": 0, "is_reserved": 0}, {"rental_uris": {"ios": "https://dc.lft.to/lastmile_qr_scan", "android": "https://dc.lft.to/lastmile_qr_scan"}, "lon": -77.02799583333334, "type": "electric_scooter", "fusion_lat": 0.0, "lat": 38.93075416666667, "name": "8666365a7c51d2d856989398008e28d8", "fusion_lon": 0.0, "bike_id": "8666365a7c51d2d856989398008e28d8", "is_disabled": 0, "is_reserved": 0}, {"rental_uris": {"ios": "https://dc.lft.to/lastmile_qr_scan", "android": "https://dc.lft.to/lastmile_qr_scan"}, "lon": -77.19906733333333, "type": "electric_bike", "fusion_lat": 0.0, "lat": 38.87527266666667, "name": "1b2c2f06a0760a68e0eae75a78aec6d0", "fusion_lon": 0.0, "bike_id": "1b2c2f06a0760a68e0eae75a78aec6d0", "is_disabled": 0, "is_reserved": 0}, {"rental_uris": {"ios": "https://dc.lft.to/lastmile_qr_scan", "android": "https://dc.lft.to/lastmile_qr_scan"}, "lon": -77.05748333333334, "type": "electric_scooter", "fusion_lat": 0.0, "lat": 38.933976, "name": "9c9b9def0e76d5649ee25af175a4cc5e", "fusion_lon": 0.0, "bike_id": "9c9b9def0e76d5649ee25af175a4cc5e", "is_disabled": 0, "is_reserved": 0}, {"rental_uris": {"ios": "https://dc.lft.to/lastmile_qr_scan", "android": "https://dc.lft.to/lastmile_qr_scan"}, "lon": -77.04813516666667, "type": "electric_scooter", "fusion_lat": 0.0, "lat": 38.9163645, "name": "a5b799934b73ffdaeb0b77d348833350", "fusion_lon": 0.0, "bike_id": "a5b799934b73ffdaeb0b77d348833350", "is_disabled": 0, "is_reserved": 0}, {"rental_uris": {"ios": "https://dc.lft.to/lastmile_qr_scan", "android": "https://dc.lft.to/lastmile_qr_scan"}, "lon": -77.01725383333333, "type": "electric_scooter", "fusion_lat": 0.0, "lat": 38.87700516666666, "name": "5e158d7becfab427cf4cf89bfb8700ba", "fusion_lon": 0.0, "bike_id": "5e158d7becfab427cf4cf89bfb8700ba", "is_disabled": 0, "is_reserved": 0}, {"rental_uris": {"ios": "https://dc.lft.to/lastmile_qr_scan", "android": "https://dc.lft.to/lastmile_qr_scan"}, "lon": -77.04728266666666, "type": "electric_scooter", "fusion_lat": 0.0, "lat": 38.884364166666664, "name": "fc115cb78161715ebe2b269c92fa10de", "fusion_lon": 0.0, "bike_id": "fc115cb78161715ebe2b269c92fa10de", "is_disabled": 0, "is_reserved": 0}, {"rental_uris": {"ios": "https://dc.lft.to/lastmile_qr_scan", "android": "https://dc.lft.to/lastmile_qr_scan"},