{"data": {"bikes": [{"lon": -77.01130666666667, "bike_id": "fc67dfb7c4eab31b579f39fc831eac7a", "lat": 38.907332, "fusion_lon": 0.0, "fusion_lat": 0.0, "type": "electric_scooter", "name": "fc67dfb7c4eab31b579f39fc831eac7a", "is_disabled": 0, "rental_uris": {"ios": "https://dc.lft.to/lastmile_qr_scan", "android": "https://dc.lft.to/lastmile_qr_scan"}, "is_reserved": 0}, {"lon": -76.98886683333333, "bike_id": "2fa04d6e066364c79fc678717f3799a9", "lat": 38.866570333333335, "fusion_lon": 0.0, "fusion_lat": 0.0, "type": "electric_scooter", "name": "2fa04d6e066364c79fc678717f3799a9", "is_disabled": 0, "rental_uris": {"ios": "https://dc.lft.to/lastmile_qr_scan", "android": "https://dc.lft.to/lastmile_qr_scan"}, "is_reserved": 0}, {"lon": -77.02158533333333, "bike_id": "45e0d5610be7786a446fb669f5ba790f", "lat": 38.922429, "fusion_lon": 0.0, "fusion_lat": 0.0, "type": "electric_scooter", "name": "45e0d5610be7786a446fb669f5ba790f", "is_disabled": 0, "rental_uris": {"ios": "https://dc.lft.to/lastmile_qr_scan", "android": "https://dc.lft.to/lastmile_qr_scan"}, "is_reserved": 0}, {"lon": -76.9276855, "bike_id": "47f55d1d75578b1d99e8c87ba3ba83e5", "lat": 38.9008755, "fusion_lon": 0.0, "fusion_lat": 0.0, "type": "electric_scooter", "name": "47f55d1d75578b1d99e8c87ba3ba83e5", "is_disabled": 0, "rental_uris": {"ios": "https://dc.lft.to/lastmile_qr_scan", "android": "https://dc.lft.to/lastmile_qr_scan"}, "is_reserved": 0}, {"lon": -77.054894, "bike_id": "1a31f4912248d3908d3cedfa792be397", "lat": 38.9084305, "fusion_lon": 0.0, "fusion_lat": 0.0, "type": "electric_scooter", "name": "1a31f4912248d3908d3cedfa792be397", "is_disabled": 0, "rental_uris": {"ios": "https://dc.lft.to/lastmile_qr_scan", "android": "https://dc.lft.to/lastmile_qr_scan"}, "is_reserved": 0}, {"lon": -77.05192266666667, "bike_id": "9688152ac56d9d6277b3545fee238651", "lat": 38.92454383333333, "fusion_lon": 0.0, "fusion_lat": 0.0, "type": "electric_scooter", "name": "9688152ac56d9d6277b3545fee238651", "is_disabled": 0, "rental_uris": {"ios": "https://dc.lft.to/lastmile_qr_scan", "android": "https://dc.lft.to/lastmile_qr_scan"}, "is_reserved": 0}, {"lon": -77.02373466666667, "bike_id": "8b37c1d5f213fea0369c694271ac3d03", "lat": 38.902083, "fusion_lon": 0.0, "fusion_lat": 0.0, "type": "electric_scooter", "name": "8b37c1d5f213fea0369c694271ac3d03", "is_disabled": 0, "rental_uris": {"ios": "https://dc.lft.to/lastmile_qr_scan", "android": "https://dc.lft.to/lastmile_qr_scan"}, "is_reserved": 0}, {"lon": -76.98305233333333, "bike_id": "64477c957ccbeb2e6e6c89577571dc0e", "lat": 38.86892616666667, "fusion_lon": 0.0, "fusion_lat": 0.0, "type": "electric_scooter", "name": "64477c957ccbeb2e6e6c89577571dc0e", "is_disabled": 0, "rental_uris": {"ios": "https://dc.lft.to/lastmile_qr_scan", "android": "https://dc.lft.to/lastmile_qr_scan"}, "is_reserved": 0}, {"lon": -76.9605915, "bike_id": "8b8919c4b95b46b5d18e8009562d9b7d", "lat": 38.884074166666664, "fusion_lon": 0.0, "fusion_lat": 0.0, "type": "electric_bike", "name": "8b8919c4b95b46b5d18e8009562d9b7d", "is_disabled": 0, "rental_uris": {"ios": "https://dc.lft.to/lastmile_qr_scan", "android": "https://dc.lft.to/lastmile_qr_scan"}, "is_reserved": 0}, {"lon": -77.031797, "bike_id": "73c5e0f7556770405e3b75d4e8cfa61b", "lat": 38.91927583333333, "fusion_lon": 0.0, "fusion_lat": 0.0, "type": "electric_scooter", "name": "73c5e0f7556770405e3b75d4e8cfa61b", "is_disabled": 0, "rental_uris": {"ios": "https://dc.lft.to/lastmile_qr_scan", "android": "https://dc.lft.to/lastmile_qr_scan"}, "is_reserved": 0}, {"lon": -76.9871435, "bike_id": "e300ea47de120e28d2ea805fba1f6912", "lat": 38.8663065, "fusion_lon": 0.0, "fusion_lat": 0.0, "type": "electric_scooter", "name": "e300ea47de120e28d2ea805fba1f6912", "is_disabled": 0, "rental_uris": {"ios": "https://dc.lft.to/lastmile_qr_scan", "android": "https://dc.lft.to/lastmile_qr_scan"}, "is_reserved": 0}, {"lon": -77.0021035, "bike_id": "3e7093e68d6c538e9c0b7522bd2bae01", "lat": 38.900395333333336, "fusion_lon": 0.0, "fusion_lat": 0.0, "type": "electric_scooter", "name": "3e7093e68d6c538e9c0b7522bd2bae01", "is_disabled": 0, "rental_uris": {"ios": "https://dc.lft.to/lastmile_qr_scan", "android": "https://dc.lft.to/lastmile_qr_scan"}, "is_reserved": 0}, {"lon": -77.03455033333333, "bike_id": "1d79d4c35fa766898e40889d4758ad95", "lat": 38.910124333333336, "fusion_lon": 0.0, "fusion_lat": 0.0, "type": "electric_scooter", "name": "1d79d4c35fa766898e40889d4758ad95", "is_disabled": 0, "rental_uris": {"ios": "https://dc.lft.to/lastmile_qr_scan", "android": "https://dc.lft.to/lastmile_qr_scan"}, "is_reserved": 0}, {"lon": -77.00060766666667, "bike_id": "16d028eb2c16c8f96b05354f2b0a31f2", "lat": 38.9008335, "fusion_lon": 0.0, "fusion_lat": 0.0, "type": "electric_scooter", "name": "16d028eb2c16c8f96b05354f2b0a31f2", "is_disabled": 0, "rental_uris": {"ios": "https://dc.lft.to/lastmile_qr_scan", "android": "https://dc.lft.to/lastmile_qr_scan"}, "is_reserved": 0}, {"lon": -77.0258005, "bike_id": "a02561a2c002af88421b4b0dfeb13682", "lat": 38.88737416666667, "fusion_lon": 0.0, "fusion_lat": 0.0, "type": "electric_scooter", "name": "a02561a2c002af88421b4b0dfeb13682", "is_disabled": 0, "rental_uris": {"ios": "https://dc.lft.to/lastmile_qr_scan", "android": "https://dc.lft.to/lastmile_qr_scan"}, "is_reserved": 0}, {"lon": -77.0386975, "bike_id": "a0befa5f00dc78a66eabb88b38d312f6", "lat": 38.9126425, "fusion_lon": 0.0, "fusion_lat": 0.0, "type": "electric_scooter", "name": "a0befa5f00dc78a66eabb88b38d312f6", "is_disabled": 0, "rental_uris": {"ios": "https://dc.lft.to/lastmile_qr_scan", "android": "https://dc.lft.to/lastmile_qr_scan"}, "is_reserved": 0}, {"lon": -77.02323383333334, "bike_id": "899c535ca2e7de953d4cba97b51505c1", "lat": 38.9497205, "fusion_lon": 0.0, "fusion_lat": 0.0, "type": "electric_scooter", "name": "899c535ca2e7de953d4cba97b51505c1", "is_disabled": 0, "rental_uris": {"ios": "https://dc.lft.to/lastmile_qr_scan", "android": "https://dc.lft.to/lastmile_qr_scan"}, "is_reserved": 0}, {"lon": -76.99375266666667, "bike_id": "b307c6816c14819720dd74fc6a245f7d", "lat": 38.893753, "fusion_lon": 0.0, "fusion_lat": 0.0, "type": "electric_scooter", "name": "b307c6816c14819720dd74fc6a245f7d", "is_disabled": 0, "rental_uris": {"ios": "https://dc.lft.to/lastmile_qr_scan", "android": "https://dc.lft.to/lastmile_qr_scan"}, "is_reserved": 0}, {"lon": -77.00679816666667, "bike_id": "c105ae0271cbcbf1d4253078ec97172b", "lat": 38.83494133333333, "fusion_lon": 0.0, "fusion_lat": 0.0, "type": "electric_scooter", "name": "c105ae0271cbcbf1d4253078ec97172b", "is_disabled": 0, "rental_uris": {"ios": "https://dc.lft.to/lastmile_qr_scan", "android": "https://dc.lft.to/lastmile_qr_scan"}, "is_reserved": 0}, {"lon": -76.947895, "bike_id": "f77204d5e65a2bdfdb06a8ca8391c924", "lat": 38.86189433333333, "fusion_lon": 0.0, "fusion_lat": 0.0, "type": "electric_bike", "name": "f77204d5e65a2bdfdb06a8ca8391c924", "is_disabled": 0, "rental_uris": {"ios": "https://dc.lft.to/lastmile_qr_scan", "android": "https://dc.lft.to/lastmile_qr_scan"}, "is_reserved": 0}, {"lon": -77.01767066666666, "bike_id": "be69bee3fbface38c458104c70a63657", "lat": 38.88740766666667, "fusion_lon": 0.0, "fusion_lat": 0.0, "type": "electric_scooter", "name": "be69bee3fbface38c458104c70a63657", "is_disabled": 0, "rental_uris": {"ios": "https://dc.lft.to/lastmile_qr_scan", "android": "https://dc.lft.to/lastmile_qr_scan"}, "is_reserved": 0}, {"lon": -76.94881433333333, "bike_id": "221d7af64f486177763c3db03c7ef5e2", "lat": 38.89427233333333, "fusion_lon": 0.0, "fusion_lat": 0.0, "type": "electric_scooter", "name": "221d7af64f486177763c3db03c7ef5e2", "is_disabled": 0, "rental_uris": {"ios": "https://dc.lft.to/lastmile_qr_scan", "android": "https://dc.lft.to/lastmile_qr_scan"}, "is_reserved": 0}, {"lon": -77.01826266666667, "bike_id": "adfa8d5ada1e77e849316e27a8c0c3ce", "lat": 38.90138533333333, "fusion_lon": 0.0, "fusion_lat": 0.0, "type": "electric_scooter", "name": "adfa8d5ada1e77e849316e27a8c0c3ce", "is_disabled": 0, "rental_uris": {"ios": "https://dc.lft.to/lastmile_qr_scan", "android": "https://dc.lft.to/lastmile_qr_scan"}, "is_reserved": 0}, {"lon": -76.9962585, "bike_id": "e7e0c145b9e54a4537643d7cbbdc315f", "lat": 38.887994, "fusion_lon": 0.0, "fusion_lat": 0.0, "type": "electric_scooter", "name": "e7e0c145b9e54a4537643d7cbbdc315f", "is_disabled": 0, "rental_uris": {"ios": "https://dc.lft.to/lastmile_qr_scan", "android": "https://dc.lft.to/lastmile_qr_scan"}, "is_reserved": 0}, {"lon": -76.94121666666666, "bike_id": "e46eaf0b563739798f1d2b9bf19cb1b7", "lat": 38.90824116666667, "fusion_lon": 0.0, "fusion_lat": 0.0, "type": "electric_scooter", "name": "e46eaf0b563739798f1d2b9bf19cb1b7", "is_disabled": 0, "rental_uris": {"ios": "https://dc.lft.to/lastmile_qr_scan", "android": "https://dc.lft.to/lastmile_qr_scan"}, "is_reserved": 0}, {"lon": -76.99052566666667, "bike_id": "88ee2d610c375bb3c8707a8e2d6b4b3e", "lat": 38.8638155, "fusion_lon": 0.0, "fusion_lat": 0.0, "type": "electric_scooter", "name": "88ee2d610c375bb3c8707a8e2d6b4b3e", "is_disabled": 0, "rental_uris": {"ios": "https://dc.lft.to/lastmile_qr_scan", "android": "https://dc.lft.to/lastmile_qr_scan"}, "is_reserved": 0}, {"lon": -77.05289166666667, "bike_id": "b474d19b79effa613ea7147c19bc5883", "lat": 38.90335866666667, "fusion_lon": 0.0, "fusion_lat": 0.0, "type": "electric_scooter", "name": "b474d19b79effa613ea7147c19bc5883", "is_disabled": 0, "rental_uris": {"ios": "https://dc.lft.to/lastmile_qr_scan", "android": "https://dc.lft.to/lastmile_qr_scan"}, "is_reserved": 0}, {"lon": -77.033839, "bike_id": "bc4f82b7b42c510dd28e7d4fd2ae1722", "lat": 38.9387595, "fusion_lon": 0.0, "fusion_lat": 0.0, "type": "electric_scooter", "name": "bc4f82b7b42c510dd28e7d4fd2ae1722", "is_disabled": 0, "rental_uris": {"ios": "https://dc.lft.to/lastmile_qr_scan", "android": "https://dc.lft.to/lastmile_qr_scan"}, "is_reserved": 0}, {"lon": -77.02110483333334, "bike_id": "96af8d3ed97c4709726edbba218d76ce", "lat": 38.90602716666667, "fusion_lon": 0.0, "fusion_lat": 0.0, "type": "electric_scooter", "name": "96af8d3ed97c4709726edbba218d76ce", "is_disabled": 0, "rental_uris": {"ios": "https://dc.lft.to/lastmile_qr_scan", "android": "https://dc.lft.to/lastmile_qr_scan"}, "is_reserved": 0}, {"lon": -77.028421, "bike_id": "a91c4d4ee40cd996726bb1c5b4dfb547", "lat": 38.92563583333333, "fusion_lon": 0.0, "fusion_lat": 0.0, "type": "electric_scooter", "name": "a91c4d4ee40cd996726bb1c5b4dfb547", "is_disabled": 0, "rental_uris": {"ios": "https://dc.lft.to/lastmile_qr_scan", "android": "https://dc.lft.to/lastmile_qr_scan"}, "is_reserved": 0}, {"lon": -76.98924616666666, "bike_id": "c31c6081a42c448ea2e6198fe658d7d4", "lat": 38.858113333333336, "fusion_lon": 0.0, "fusion_lat": 0.0, "type": "electric_scooter", "name": "c31c6081a42c448ea2e6198fe658d7d4", "is_disabled": 0, "rental_uris": {"ios": "https://dc.lft.to/lastmile_qr_scan", "android": "https://dc.lft.to/lastmile_qr_scan"}, "is_reserved": 0}, {"lon": -76.97187616666666, "bike_id": "b1072ebb35599bf59ecaea4d392d9b53", "lat": 38.8739735, "fusion_lon": 0.0, "fusion_lat": 0.0, "type": "electric_scooter", "name": "b1072ebb35599bf59ecaea4d392d9b53", "is_disabled": 0, "rental_uris": {"ios": "https://dc.lft.to/lastmile_qr_scan", "android": "https://dc.lft.to/lastmile_qr_scan"}, "is_reserved": 0}, {"lon": -77.034448, "bike_id": "8f25fd4e91b8202e2337447a087f2aca", "lat": 38.90949066666667, "fusion_lon": 0.0, "fusion_lat": 0.0, "type": "electric_scooter", "name": "8f25fd4e91b8202e2337447a087f2aca", "is_disabled": 0, "rental_uris": {"ios": "https://dc.lft.to/lastmile_qr_scan", "android": "https://dc.lft.to/lastmile_qr_scan"}, "is_reserved": 0}, {"lon": -77.02239166666666, "bike_id": "c298ed140470e7fe6dcc9a6b8730147f", "lat": 38.962149833333335, "fusion_lon": 0.0, "fusion_lat": 0.0, "type": "electric_bike", "name": "c298ed140470e7fe6dcc9a6b8730147f", "is_disabled": 0, "rental_uris": {"ios": "https://dc.lft.to/lastmile_qr_scan", "android": "https://dc.lft.to/lastmile_qr_scan"}, "is_reserved": 0}, {"lon": -77.02217733333333, "bike_id": "4d26f0ab42b0d1ca843be23c83516387", "lat": 38.92619166666667, "fusion_lon": 0.0, "fusion_lat": 0.0, "type": "electric_scooter", "name": "4d26f0ab42b0d1ca843be23c83516387", "is_disabled": 0, "rental_uris": {"ios": "https://dc.lft.to/lastmile_qr_scan", "android": "https://dc.lft.to/lastmile_qr_scan"}, "is_reserved": 0}, {"lon": -77.03765683333333, "bike_id": "2f98618564396e2de5b981122f592777", "lat": 38.928807166666665, "fusion_lon": 0.0, "fusion_lat": 0.0, "type": "electric_scooter", "name": "2f98618564396e2de5b981122f592777", "is_disabled": 0, "rental_uris": {"ios": "https://dc.lft.to/lastmile_qr_scan", "android": "https://dc.lft.to/lastmile_qr_scan"}, "is_reserved": 0}, {"lon": -77.04830316666667, "bike_id": "9b4ea09b0992cef5ab2c249463a11a8a", "lat": 38.89746233333334, "fusion_lon": 0.0, "fusion_lat": 0.0, "type": "electric_scooter", "name": "9b4ea09b0992cef5ab2c249463a11a8a", "is_disabled": 0, "rental_uris": {"ios": "https://dc.lft.to/lastmile_qr_scan", "android": "https://dc.lft.to/lastmile_qr_scan"}, "is_reserved": 0}, {"lon": -77.04387866666667, "bike_id": "9c68d7d31a0783bd759c410898919776", "lat": 39.047189, "fusion_lon": 0.0, "fusion_lat": 0.0, "type": "electric_bike", "name": "9c68d7d31a0783bd759c410898919776", "is_disabled": 0, "rental_uris": {"ios": "https://dc.lft.to/lastmile_qr_scan", "android": "https://dc.lft.to/lastmile_qr_scan"}, "is_reserved": 0}, {"lon": -77.0473595, "bike_id": "274d2500b1fb43c4dd7627f78e15516b", "lat": 38.905181166666665, "fusion_lon": 0.0, "fusion_lat": 0.0, "type": "electric_scooter", "name": "274d2500b1fb43c4dd7627f78e15516b", "is_disabled": 0, "rental_uris": {"ios": "https://dc.lft.to/lastmile_qr_scan", "android": "https://dc.lft.to/lastmile_qr_scan"}, "is_reserved": 0}, {"lon": -76.947252, "bike_id": "6cdd057d73f06086a511fad4197058f2", "lat": 38.89736666666667, "fusion_lon": 0.0, "fusion_lat": 0.0, "type": "electric_scooter", "name": "6cdd057d73f06086a511fad4197058f2", "is_disabled": 0, "rental_uris": {"ios": "https://dc.lft.to/lastmile_qr_scan", "android": "https://dc.lft.to/lastmile_qr_scan"}, "is_reserved": 0}, {"lon": -77.032792, "bike_id": "d7371230611901fd2f200030fc353893", "lat": 38.9398415, "fusion_lon": 0.0, "fusion_lat": 0.0, "type": "electric_scooter", "name": "d7371230611901fd2f200030fc353893", "is_disabled": 0, "rental_uris": {"ios": "https://dc.lft.to/lastmile_qr_scan", "android": "https://dc.lft.to/lastmile_qr_scan"}, "is_reserved": 0}, {"lon": -77.360916, "bike_id": "df80ac82725b2ba48c8000b9fa073cba", "lat": 38.939610333333334, "fusion_lon": 0.0, "fusion_lat": 0.0, "type": "electric_bike", "name": "df80ac82725b2ba48c8000b9fa073cba", "is_disabled": 0, "rental_uris": {"ios": "https://dc.lft.to/lastmile_qr_scan", "android": "https://dc.lft.to/lastmile_qr_scan"}, "is_reserved": 0}, {"lon": -77.00541466666667, "bike_id": "b44d0b246083cba491e9c26274c7890b", "lat": 38.9127025, "fusion_lon": 0.0, "fusion_lat": 0.0, "type": "electric_scooter", "name": "b44d0b246083cba491e9c26274c7890b", "is_disabled": 0, "rental_uris": {"ios": "https://dc.lft.to/lastmile_qr_scan", "android": "https://dc.lft.to/lastmile_qr_scan"}, "is_reserved": 0}, {"lon": -77.0200665, "bike_id": "279719d9331042239f4a776219c30866", "lat": 38.92420333333333, "fusion_lon": 0.0, "fusion_lat": 0.0, "type": "electric_scooter", "name": "279719d9331042239f4a776219c30866", "is_disabled": 0, "rental_uris": {"ios": "https://dc.lft.to/lastmile_qr_scan", "android": "https://dc.lft.to/lastmile_qr_scan"}, "is_reserved": 0}, {"lon": -77.0327695, "bike_id": "c5fadab1e97dab8a693c9b5029827622", "lat": 38.93205016666667, "fusion_lon": 0.0, "fusion_lat": 0.0, "type": "electric_scooter", "name": "c5fadab1e97dab8a693c9b5029827622", "is_disabled": 0, "rental_uris": {"ios": "https://dc.lft.to/lastmile_qr_scan", "android": "https://dc.lft.to/lastmile_qr_scan"}, "is_reserved": 0}, {"lon": -77.03559583333333, "bike_id": "b42ce550aff6c57bd1de6fbc6a4574ab", "lat": 38.92741266666667, "fusion_lon": 0.0, "fusion_lat": 0.0, "type": "electric_scooter", "name": "b42ce550aff6c57bd1de6fbc6a4574ab", "is_disabled": 0, "rental_uris": {"ios": "https://dc.lft.to/lastmile_qr_scan", "android": "https://dc.lft.to/lastmile_qr_scan"}, "is_reserved": 0}, {"lon": -76.9060865, "bike_id": "3b0258c04c7731f8cae18e7bd059aa26", "lat": 39.00451866666667, "fusion_lon": 0.0, "fusion_lat": 0.0, "type": "electric_bike", "name": "3b0258c04c7731f8cae18e7bd059aa26", "is_disabled": 0, "rental_uris": {"ios": "https://dc.lft.to/lastmile_qr_scan", "android": "https://dc.lft.to/lastmile_qr_scan"}, "is_reserved": 0}, {"lon": -77.012045, "bike_id": "b4375d0cae9fd7436d6be19ee6c89cd2", "lat": 38.88552883333333, "fusion_lon": 0.0, "fusion_lat": 0.0, "type": "electric_scooter", "name": "b4375d0cae9fd7436d6be19ee6c89cd2", "is_disabled": 0, "rental_uris": {"ios": "https://dc.lft.to/lastmile_qr_scan", "android": "https://dc.lft.to/lastmile_qr_scan"}, "is_reserved": 0}, {"lon": -77.02372216666667, "bike_id": "d79fdb92c8d543fd7c8cd1da2833054e", "lat": 38.902060666666664, "fusion_lon": 0.0, "fusion_lat": 0.0, "type": "electric_scooter", "name": "d79fdb92c8d543fd7c8cd1da2833054e", "is_disabled": 0, "rental_uris": {"ios": "https://dc.lft.to/lastmile_qr_scan", "android": "https://dc.lft.to/lastmile_qr_scan"}, "is_reserved": 0}, {"lon": -77.02158833333333, "bike_id": "a3190ef0aec982260744f1f3a610731e", "lat": 38.930003166666665, "fusion_lon": 0.0, "fusion_lat": 0.0, "type": "electric_scooter", "name": "a3190ef0aec982260744f1f3a610731e", "is_disabled": 0, "rental_uris": {"ios": "https://dc.lft.to/lastmile_qr_scan", "android": "https://dc.lft.to/lastmile_qr_scan"}, "is_reserved": 0}, {"lon": -77.0057135, "bike_id": "b3265a793614469e539e5d2efa7021c8", "lat": 38.876572333333336, "fusion_lon": 0.0, "fusion_lat": 0.0, "type": "electric_scooter", "name": "b3265a793614469e539e5d2efa7021c8", "is_disabled": 0, "rental_uris": {"ios": "https://dc.lft.to/lastmile_qr_scan", "android": "https://dc.lft.to/lastmile_qr_scan"}, "is_reserved": 0}, {"lon": -77.053012, "bike_id": "befb65cab7382ddca7e66b342de2c935", "lat": 38.89889083333333, "fusion_lon": 0.0, "fusion_lat": 0.0, "type": "electric_scooter", "name": "befb65cab7382ddca7e66b342de2c935", "is_disabled": 0, "rental_uris": {"ios": "https://dc.lft.to/lastmile_qr_scan", "android": "https://dc.lft.to/lastmile_qr_scan"}, "is_reserved": 0}, {"lon": -76.9770425, "bike_id": "7936386db3fd967e601ccb6271b6ac0a", "lat": 38.94916833333333, "fusion_lon": 0.0, "fusion_lat": 0.0, "type": "electric_bike", "name": "7936386db3fd967e601ccb6271b6ac0a", "is_disabled": 0, "rental_uris": {"ios": "https://dc.lft.to/lastmile_qr_scan", "android": "https://dc.lft.to/lastmile_qr_scan"}, "is_reserved": 0}, {"lon": -77.016271, "bike_id": "b1a2013e5e76b40ddd4e1349877c4698", "lat": 38.96575416666667, "fusion_lon": 0.0, "fusion_lat": 0.0, "type": "electric_scooter", "name": "b1a2013e5e76b40ddd4e1349877c4698", "is_disabled": 0, "rental_uris": {"ios": "https://dc.lft.to/lastmile_qr_scan", "android": "https://dc.lft.to/lastmile_qr_scan"}, "is_reserved": 0}, {"lon": -77.00964816666666, "bike_id": "e10c25e0654b38d0d6bd6e9d7cfd529b", "lat": 38.917090333333334, "fusion_lon": 0.0, "fusion_lat": 0.0, "type": "electric_scooter", "name": "e10c25e0654b38d0d6bd6e9d7cfd529b", "is_disabled": 0, "rental_uris": {"ios": "https://dc.lft.to/lastmile_qr_scan", "android": "https://dc.lft.to/lastmile_qr_scan"}, "is_reserved": 0}, {"lon": -76.99507016666666, "bike_id": "0742459e0f161cf97cc3b62019e7ab3e", "lat": 38.877811333333334, "fusion_lon": 0.0, "fusion_lat": 0.0, "type": "electric_scooter", "name": "0742459e0f161cf97cc3b62019e7ab3e", "is_disabled": 0, "rental_uris": {"ios": "https://dc.lft.to/lastmile_qr_scan", "android": "https://dc.lft.to/lastmile_qr_scan"}, "is_reserved": 0}, {"lon": -76.93011083333333, "bike_id": "3d9df219ef371541a0e40f3199643667", "lat": 38.89194366666667, "fusion_lon": 0.0, "fusion_lat": 0.0, "type": "electric_scooter", "name": "3d9df219ef371541a0e40f3199643667", "is_disabled": 0, "rental_uris": {"ios": "https://dc.lft.to/lastmile_qr_scan", "android": "https://dc.lft.to/lastmile_qr_scan"}, "is_reserved": 0}, {"lon": -77.0218805, "bike_id": "4c85c64cc958f192ed37125323351eaf", "lat": 38.91544233333333, "fusion_lon": 0.0, "fusion_lat": 0.0, "type": "electric_scooter", "name": "4c85c64cc958f192ed37125323351eaf", "is_disabled": 0, "rental_uris": {"ios": "https://dc.lft.to/lastmile_qr_scan", "android": "https://dc.lft.to/lastmile_qr_scan"}, "is_reserved": 0}, {"lon": -77.05508916666666, "bike_id": "0ff724ea98ee8e0936b65ee247257f41", "lat": 38.899982333333334, "fusion_lon": 0.0, "fusion_lat": 0.0, "type": "electric_scooter", "name": "0ff724ea98ee8e0936b65ee247257f41", "is_disabled": 0, "rental_uris": {"ios": "https://dc.lft.to/lastmile_qr_scan", "android": "https://dc.lft.to/lastmile_qr_scan"}, "is_reserved": 0}, {"lon": -77.05689883333334, "bike_id": "8298f56751f9bd652b288bac07f31db2", "lat": 38.9371865, "fusion_lon": 0.0, "fusion_lat": 0.0, "type": "electric_scooter", "name": "8298f56751f9bd652b288bac07f31db2", "is_disabled": 0, "rental_uris": {"ios": "https://dc.lft.to/lastmile_qr_scan", "android": "https://dc.lft.to/lastmile_qr_scan"}, "is_reserved": 0}, {"lon": -76.9822835, "bike_id": "fe123b4d16e9dc21fdb60bd10924f20c", "lat": 38.886518833333334, "fusion_lon": 0.0, "fusion_lat": 0.0, "type": "electric_scooter", "name": "fe123b4d16e9dc21fdb60bd10924f20c", "is_disabled": 0, "rental_uris": {"ios": "https://dc.lft.to/lastmile_qr_scan", "android": "https://dc.lft.to/lastmile_qr_scan"}, "is_reserved": 0}, {"lon": -77.0062225, "bike_id": "32cd1b051d53d6b78a32a8f208684f1f", "lat": 38.912609333333336, "fusion_lon": 0.0, "fusion_lat": 0.0, "type": "electric_scooter", "name": "32cd1b051d53d6b78a32a8f208684f1f", "is_disabled": 0, "rental_uris": {"ios": "https://dc.lft.to/lastmile_qr_scan", "android": "https://dc.lft.to/lastmile_qr_scan"}, "is_reserved": 0}, {"lon": -77.01869583333334, "bike_id": "932a4cbde5204785a4a31e09c8822ff1", "lat": 38.91824716666667, "fusion_lon": 0.0, "fusion_lat": 0.0, "type": "electric_scooter", "name": "932a4cbde5204785a4a31e09c8822ff1", "is_disabled": 0, "rental_uris": {"ios": "https://dc.lft.to/lastmile_qr_scan", "android": "https://dc.lft.to/lastmile_qr_scan"}, "is_reserved": 0}, {"lon": -77.05736516666667, "bike_id": "7b7c7f7449353248daaabf16bdbcb84e", "lat": 38.93364716666667, "fusion_lon": 0.0, "fusion_lat": 0.0, "type": "electric_scooter", "name": "7b7c7f7449353248daaabf16bdbcb84e", "is_disabled": 0, "rental_uris": {"ios": "https://dc.lft.to/lastmile_qr_scan", "android": "https://dc.lft.to/lastmile_qr_scan"}, "is_reserved": 0}, {"lon": -77.053018, "bike_id": "4db217f9771107bae1106f9126ee097e", "lat": 38.92553133333333, "fusion_lon": 0.0, "fusion_lat": 0.0, "type": "electric_scooter", "name": "4db217f9771107bae1106f9126ee097e", "is_disabled": 0, "rental_uris": {"ios": "https://dc.lft.to/lastmile_qr_scan", "android": "https://dc.lft.to/lastmile_qr_scan"}, "is_reserved": 0}, {"lon": -76.99527583333334, "bike_id": "97ca7654ffbf3bc503bfcad4c2b45924", "lat": 38.8837035, "fusion_lon": 0.0, "fusion_lat": 0.0, "type": "electric_scooter", "name": "97ca7654ffbf3bc503bfcad4c2b45924", "is_disabled": 0, "rental_uris": {"ios": "https://dc.lft.to/lastmile_qr_scan", "android": "https://dc.lft.to/lastmile_qr_scan"}, "is_reserved": 0}, {"lon": -77.111585, "bike_id": "7031be520f791fbd5f3cc1255f69d0c9", "lat": 38.855155833333335, "fusion_lon": 0.0, "fusion_lat": 0.0, "type": "electric_bike", "name": "7031be520f791fbd5f3cc1255f69d0c9", "is_disabled": 0, "rental_uris": {"ios": "https://dc.lft.to/lastmile_qr_scan", "android": "https://dc.lft.to/lastmile_qr_scan"}, "is_reserved": 0}, {"lon": -77.1049395, "bike_id": "72f8f398f12601633f507df0d33236ab", "lat": 38.856113666666666, "fusion_lon": 0.0, "fusion_lat": 0.0, "type": "electric_bike", "name": "72f8f398f12601633f507df0d33236ab", "is_disabled": 0, "rental_uris": {"ios": "https://dc.lft.to/lastmile_qr_scan", "android": "https://dc.lft.to/lastmile_qr_scan"}, "is_reserved": 0}, {"lon": -77.03099683333333, "bike_id": "f01f2913e61ee3f38fbaa9f466d14cd9", "lat": 38.92863783333333, "fusion_lon": 0.0, "fusion_lat": 0.0, "type": "electric_scooter", "name": "f01f2913e61ee3f38fbaa9f466d14cd9", "is_disabled": 0, "rental_uris": {"ios": "https://dc.lft.to/lastmile_qr_scan", "android": "https://dc.lft.to/lastmile_qr_scan"}, "is_reserved": 0}, {"lon": -77.05158866666666, "bike_id": "bb3b4e8b2676cd3690ac7a660000e6e5", "lat": 39.043044, "fusion_lon": 0.0, "fusion_lat": 0.0, "type": "electric_bike", "name": "bb3b4e8b2676cd3690ac7a660000e6e5", "is_disabled": 0, "rental_uris": {"ios": "https://dc.lft.to/lastmile_qr_scan", "android": "https://dc.lft.to/lastmile_qr_scan"}, "is_reserved": 0}, {"lon": -77.02096433333334, "bike_id": "b2dd95e4a41be1dc43410362f77df574", "lat": 38.916357833333336, "fusion_lon": 0.0, "fusion_lat": 0.0, "type": "electric_scooter", "name": "b2dd95e4a41be1dc43410362f77df574", "is_disabled": 0, "rental_uris": {"ios": "https://dc.lft.to/lastmile_qr_scan", "android": "https://dc.lft.to/lastmile_qr_scan"}, "is_reserved": 0}, {"lon": -76.973093, "bike_id": "8f7449de9a62b73069f4cd8092f1355f", "lat": 38.91986883333333, "fusion_lon": 0.0, "fusion_lat": 0.0, "type": "electric_scooter", "name": "8f7449de9a62b73069f4cd8092f1355f", "is_disabled": 0, "rental_uris": {"ios": "https://dc.lft.to/lastmile_qr_scan", "android": "https://dc.lft.to/lastmile_qr_scan"}, "is_reserved": 0}, {"lon": -76.982307, "bike_id": "9c2d8a63d527f0bc970d9bd5c8cbb88f", "lat": 38.91653083333333, "fusion_lon": 0.0, "fusion_lat": 0.0, "type": "electric_scooter", "name": "9c2d8a63d527f0bc970d9bd5c8cbb88f", "is_disabled": 0, "rental_uris": {"ios": "https://dc.lft.to/lastmile_qr_scan", "android": "https://dc.lft.to/lastmile_qr_scan"}, "is_reserved": 0}, {"lon": -76.973497, "bike_id": "a9b9372b27d75926104fc3d46e0c1afa", "lat": 38.8658195, "fusion_lon": 0.0, "fusion_lat": 0.0, "type": "electric_scooter", "name": "a9b9372b27d75926104fc3d46e0c1afa", "is_disabled": 0, "rental_uris": {"ios": "https://dc.lft.to/lastmile_qr_scan", "android": "https://dc.lft.to/lastmile_qr_scan"}, "is_reserved": 0}, {"lon": -77.03179883333334, "bike_id": "5cf48d76d738d18f6ca7c456a03db56c", "lat": 38.936897333333334, "fusion_lon": 0.0, "fusion_lat": 0.0, "type": "electric_scooter", "name": "5cf48d76d738d18f6ca7c456a03db56c", "is_disabled": 0, "rental_uris": {"ios": "https://dc.lft.to/lastmile_qr_scan", "android": "https://dc.lft.to/lastmile_qr_scan"}, "is_reserved": 0}, {"lon": -77.02574466666667, "bike_id": "a6bb93de930e4632d5371afd25fc23d2", "lat": 38.93088816666667, "fusion_lon": 0.0, "fusion_lat": 0.0, "type": "electric_scooter", "name": "a6bb93de930e4632d5371afd25fc23d2", "is_disabled": 0, "rental_uris": {"ios": "https://dc.lft.to/lastmile_qr_scan", "android": "https://dc.lft.to/lastmile_qr_scan"}, "is_reserved": 0}, {"lon": -77.032031, "bike_id": "50e8c4344caa80322036ed15d92ff602", "lat": 38.91607533333333, "fusion_lon": 0.0, "fusion_lat": 0.0, "type": "electric_scooter", "name": "50e8c4344caa80322036ed15d92ff602", "is_disabled": 0, "rental_uris": {"ios": "https://dc.lft.to/lastmile_qr_scan", "android": "https://dc.lft.to/lastmile_qr_scan"}, "is_reserved": 0}, {"lon": -77.0334545, "bike_id": "99890940149230c2919e18da76d28002", "lat": 38.907392333333334, "fusion_lon": 0.0, "fusion_lat": 0.0, "type": "electric_scooter", "name": "99890940149230c2919e18da76d28002", "is_disabled": 0, "rental_uris": {"ios": "https://dc.lft.to/lastmile_qr_scan", "android": "https://dc.lft.to/lastmile_qr_scan"}, "is_reserved": 0}, {"lon": -77.03330716666666, "bike_id": "868bca059011f598ab56558401988000", "lat": 38.915657833333334, "fusion_lon": 0.0, "fusion_lat": 0.0, "type": "electric_scooter", "name": "868bca059011f598ab56558401988000", "is_disabled": 0, "rental_uris": {"ios": "https://dc.lft.to/lastmile_qr_scan", "android": "https://dc.lft.to/lastmile_qr_scan"}, "is_reserved": 0}, {"lon": -76.99002916666667, "bike_id": "4c2073ffb16dec8b1a249bcee43baa8b", "lat": 38.86506083333333, "fusion_lon": 0.0, "fusion_lat": 0.0, "type": "electric_scooter", "name": "4c2073ffb16dec8b1a249bcee43baa8b", "is_disabled": 0, "rental_uris": {"ios": "https://dc.lft.to/lastmile_qr_scan", "android": "https://dc.lft.to/lastmile_qr_scan"}, "is_reserved": 0}, {"lon": -77.00330933333333, "bike_id": "99ec5a0468270d69d2a839b013744165", "lat": 38.89727, "fusion_lon": 0.0, "fusion_lat": 0.0, "type": "electric_scooter", "name": "99ec5a0468270d69d2a839b013744165", "is_disabled": 0, "rental_uris": {"ios": "https://dc.lft.to/lastmile_qr_scan", "android": "https://dc.lft.to/lastmile_qr_scan"}, "is_reserved": 0}, {"lon": -77.02808016666667, "bike_id": "a00309e865607aefbf6a1a88bf9bd14b", "lat": 38.93080633333334, "fusion_lon": 0.0, "fusion_lat": 0.0, "type": "electric_scooter", "name": "a00309e865607aefbf6a1a88bf9bd14b", "is_disabled": 0, "rental_uris": {"ios": "https://dc.lft.to/lastmile_qr_scan", "android": "https://dc.lft.to/lastmile_qr_scan"}, "is_reserved": 0}, {"lon": -77.0052115, "bike_id": "1a9ac22c36f33e2cba32504d5bd48dc3", "lat": 38.87545316666667, "fusion_lon": 0.0, "fusion_lat": 0.0, "type": "electric_scooter", "name": "1a9ac22c36f33e2cba32504d5bd48dc3", "is_disabled": 0, "rental_uris": {"ios": "https://dc.lft.to/lastmile_qr_scan", "android": "https://dc.lft.to/lastmile_qr_scan"}, "is_reserved": 0}, {"lon": -77.027659, "bike_id": "ee5df799ebce4a6a1ef3eacccefe70b7", "lat": 38.95430233333333, "fusion_lon": 0.0, "fusion_lat": 0.0, "type": "electric_scooter", "name": "ee5df799ebce4a6a1ef3eacccefe70b7", "is_disabled": 0, "rental_uris": {"ios": "https://dc.lft.to/lastmile_qr_scan", "android": "https://dc.lft.to/lastmile_qr_scan"}, "is_reserved": 0}, {"lon": -77.05228083333333, "bike_id": "eb605b4f152f585faff63f21c6c3ff29", "lat": 38.92342933333333, "fusion_lon": 0.0, "fusion_lat": 0.0, "type": "electric_scooter", "name": "eb605b4f152f585faff63f21c6c3ff29", "is_disabled": 0, "rental_uris": {"ios": "https://dc.lft.to/lastmile_qr_scan", "android": "https://dc.lft.to/lastmile_qr_scan"}, "is_reserved": 0}, {"lon": -77.0683015, "bike_id": "68d66600ae6c4d21deedb4c45c76bb39", "lat": 38.805712, "fusion_lon": 0.0, "fusion_lat": 0.0, "type": "electric_bike", "name": "68d66600ae6c4d21deedb4c45c76bb39", "is_disabled": 0, "rental_uris": {"ios": "https://dc.lft.to/lastmile_qr_scan", "android": "https://dc.lft.to/lastmile_qr_scan"}, "is_reserved": 0}, {"lon": -76.9808215, "bike_id": "9182a0bad70ca61d6ff62c45c2e85661", "lat": 38.9070975, "fusion_lon": 0.0, "fusion_lat": 0.0, "type": "electric_scooter", "name": "9182a0bad70ca61d6ff62c45c2e85661", "is_disabled": 0, "rental_uris": {"ios": "https://dc.lft.to/lastmile_qr_scan", "android": "https://dc.lft.to/lastmile_qr_scan"}, "is_reserved": 0}, {"lon": -77.03265566666667, "bike_id": "ae4a31c43ffa996fab307f1ea9c59ebc", "lat": 38.937238, "fusion_lon": 0.0, "fusion_lat": 0.0, "type": "electric_scooter", "name": "ae4a31c43ffa996fab307f1ea9c59ebc", "is_disabled": 0, "rental_uris": {"ios": "https://dc.lft.to/lastmile_qr_scan", "android": "https://dc.lft.to/lastmile_qr_scan"}, "is_reserved": 0}, {"lon": -77.03215016666667, "bike_id": "b9aaeee7483582a64d8fbf0296d0eefc", "lat": 38.916959166666665, "fusion_lon": 0.0, "fusion_lat": 0.0, "type": "electric_scooter", "name": "b9aaeee7483582a64d8fbf0296d0eefc", "is_disabled": 0, "rental_uris": {"ios": "https://dc.lft.to/lastmile_qr_scan", "android": "https://dc.lft.to/lastmile_qr_scan"}, "is_reserved": 0}, {"lon": -77.04581066666667, "bike_id": "2b2e3af7f7aa9399a2178a5d07a185e9", "lat": 38.9213765, "fusion_lon": 0.0, "fusion_lat": 0.0, "type": "electric_scooter", "name": "2b2e3af7f7aa9399a2178a5d07a185e9", "is_disabled": 0, "rental_uris": {"ios": "https://dc.lft.to/lastmile_qr_scan", "android": "https://dc.lft.to/lastmile_qr_scan"}, "is_reserved": 0}, {"lon": -77.0424815, "bike_id": "367722d878f1eacaad7f000c51b4cd81", "lat": 38.926368333333336, "fusion_lon": 0.0, "fusion_lat": 0.0, "type": "electric_scooter", "name": "367722d878f1eacaad7f000c51b4cd81", "is_disabled": 0, "rental_uris": {"ios": "https://dc.lft.to/lastmile_qr_scan", "android": "https://dc.lft.to/lastmile_qr_scan"}, "is_reserved": 0}, {"lon": -77.04400666666666, "bike_id": "6dab253e8e0e9caefcdd5a4051e81e7e", "lat": 38.93327516666667, "fusion_lon": 0.0, "fusion_lat": 0.0, "type": "electric_scooter", "name": "6dab253e8e0e9caefcdd5a4051e81e7e", "is_disabled": 0, "rental_uris": {"ios": "https://dc.lft.to/lastmile_qr_scan", "android": "https://dc.lft.to/lastmile_qr_scan"}, "is_reserved": 0}, {"lon": -77.032636, "bike_id": "4ad003d6df121dc56c848188f0da7234", "lat": 38.92542266666667, "fusion_lon": 0.0, "fusion_lat": 0.0, "type": "electric_scooter", "name": "4ad003d6df121dc56c848188f0da7234", "is_disabled": 0, "rental_uris": {"ios": "https://dc.lft.to/lastmile_qr_scan", "android": "https://dc.lft.to/lastmile_qr_scan"}, "is_reserved": 0}, {"lon": -77.052362, "bike_id": "c726e69cd56d5abf3490fc1364a1c98b", "lat": 38.92467666666667, "fusion_lon": 0.0, "fusion_lat": 0.0, "type": "electric_scooter", "name": "c726e69cd56d5abf3490fc1364a1c98b", "is_disabled": 0, "rental_uris": {"ios": "https://dc.lft.to/lastmile_qr_scan", "android": "https://dc.lft.to/lastmile_qr_scan"}, "is_reserved": 0}, {"lon": -77.02732033333334, "bike_id": "69ceac4893ffb308ed2216dae8337e50", "lat": 38.93210766666667, "fusion_lon": 0.0, "fusion_lat": 0.0, "type": "electric_scooter", "name": "69ceac4893ffb308ed2216dae8337e50", "is_disabled": 0, "rental_uris": {"ios": "https://dc.lft.to/lastmile_qr_scan", "android": "https://dc.lft.to/lastmile_qr_scan"}, "is_reserved": 0}, {"lon": -77.02389433333333, "bike_id": "ca0bbfc547e3ff1a0e56b296bd21d01a", "lat": 38.919962, "fusion_lon": 0.0, "fusion_lat": 0.0, "type": "electric_scooter", "name": "ca0bbfc547e3ff1a0e56b296bd21d01a", "is_disabled": 0, "rental_uris": {"ios": "https://dc.lft.to/lastmile_qr_scan", "android": "https://dc.lft.to/lastmile_qr_scan"}, "is_reserved": 0}, {"lon": -77.02305, "bike_id": "12125e3d3dd967e5a71810b7acad7409", "lat": 38.91849583333333, "fusion_lon": 0.0, "fusion_lat": 0.0, "type": "electric_scooter", "name": "12125e3d3dd967e5a71810b7acad7409", "is_disabled": 0, "rental_uris": {"ios": "https://dc.lft.to/lastmile_qr_scan", "android": "https://dc.lft.to/lastmile_qr_scan"}, "is_reserved": 0}, {"lon": -77.01472216666667, "bike_id": "910e0a039e13cfa5f85c9f1d1bdef421", "lat": 38.91764466666667, "fusion_lon": 0.0, "fusion_lat": 0.0, "type": "electric_scooter", "name": "910e0a039e13cfa5f85c9f1d1bdef421", "is_disabled": 0, "rental_uris": {"ios": "https://dc.lft.to/lastmile_qr_scan", "android": "https://dc.lft.to/lastmile_qr_scan"}, "is_reserved": 0}, {"lon": -77.05277383333333, "bike_id": "b9adef74a294a980fca9b88448fdc0a3", "lat": 38.91019883333333, "fusion_lon": 0.0, "fusion_lat": 0.0, "type": "electric_scooter", "name": "b9adef74a294a980fca9b88448fdc0a3", "is_disabled": 0, "rental_uris": {"ios": "https://dc.lft.to/lastmile_qr_scan", "android": "https://dc.lft.to/lastmile_qr_scan"}, "is_reserved": 0}, {"lon": -77.02790466666667, "bike_id": "a9ff75d1190f40a4045268862885a317", "lat": 38.95684633333333, "fusion_lon": 0.0, "fusion_lat": 0.0, "type": "electric_scooter", "name": "a9ff75d1190f40a4045268862885a317", "is_disabled": 0, "rental_uris": {"ios": "https://dc.lft.to/lastmile_qr_scan", "android": "https://dc.lft.to/lastmile_qr_scan"}, "is_reserved": 0}, {"lon": -77.022665, "bike_id": "f9138aab99e2f269ca8714cd29139881", "lat": 38.93771683333333, "fusion_lon": 0.0, "fusion_lat": 0.0, "type": "electric_scooter", "name": "f9138aab99e2f269ca8714cd29139881", "is_disabled": 0, "rental_uris": {"ios": "https://dc.lft.to/lastmile_qr_scan", "android": "https://dc.lft.to/lastmile_qr_scan"}, "is_reserved": 0}, {"lon": -77.00289616666667, "bike_id": "a66a7f923311f6d70081d0294a79dfd6", "lat": 38.90737816666667, "fusion_lon": 0.0, "fusion_lat": 0.0, "type": "electric_bike", "name": "a66a7f923311f6d70081d0294a79dfd6", "is_disabled": 0, "rental_uris": {"ios": "https://dc.lft.to/lastmile_qr_scan", "android": "https://dc.lft.to/lastmile_qr_scan"}, "is_reserved": 0}, {"lon": -77.03265616666667, "bike_id": "b50ecacce77e098464bd11fcf0c2f107", "lat": 38.92747933333333, "fusion_lon": 0.0, "fusion_lat": 0.0, "type": "electric_scooter", "name": "b50ecacce77e098464bd11fcf0c2f107", "is_disabled": 0, "rental_uris": {"ios": "https://dc.lft.to/lastmile_qr_scan", "android": "https://dc.lft.to/lastmile_qr_scan"}, "is_reserved": 0}, {"lon": -77.02213183333333, "bike_id": "236c01ecaaae01415f4782e267055d8d", "lat": 38.94092933333334, "fusion_lon": 0.0, "fusion_lat": 0.0, "type": "electric_scooter", "name": "236c01ecaaae01415f4782e267055d8d", "is_disabled": 0, "rental_uris": {"ios": "https://dc.lft.to/lastmile_qr_scan", "android": "https://dc.lft.to/lastmile_qr_scan"}, "is_reserved": 0}, {"lon": -77.03073633333334, "bike_id": "b8d3dd2b4d8dc9aca464093e084c8611", "lat": 38.8803785, "fusion_lon": 0.0, "fusion_lat": 0.0, "type": "electric_scooter", "name": "b8d3dd2b4d8dc9aca464093e084c8611", "is_disabled": 0, "rental_uris": {"ios": "https://dc.lft.to/lastmile_qr_scan", "android": "https://dc.lft.to/lastmile_qr_scan"}, "is_reserved": 0}, {"lon": -77.02083916666666, "bike_id": "80f3586b7409c86cbe92665d336674a7", "lat": 38.89975583333333, "fusion_lon": 0.0, "fusion_lat": 0.0, "type": "electric_scooter", "name": "80f3586b7409c86cbe92665d336674a7", "is_disabled": 0, "rental_uris": {"ios": "https://dc.lft.to/lastmile_qr_scan", "android": "https://dc.lft.to/lastmile_qr_scan"}, "is_reserved": 0}, {"lon": -76.98885383333334, "bike_id": "137100fd849c745496c716d6174d3ce5", "lat": 38.866565, "fusion_lon": 0.0, "fusion_lat": 0.0, "type": "electric_scooter", "name": "137100fd849c745496c716d6174d3ce5", "is_disabled": 0, "rental_uris": {"ios": "https://dc.lft.to/lastmile_qr_scan", "android": "https://dc.lft.to/lastmile_qr_scan"}, "is_reserved": 0}, {"lon": -77.02583383333334, "bike_id": "91d9b19fc09119fcc40eadfa9da2f14d", "lat": 38.88740116666666, "fusion_lon": 0.0, "fusion_lat": 0.0, "type": "electric_scooter", "name": "91d9b19fc09119fcc40eadfa9da2f14d", "is_disabled": 0, "rental_uris": {"ios": "https://dc.lft.to/lastmile_qr_scan", "android": "https://dc.lft.to/lastmile_qr_scan"}, "is_reserved": 0}, {"lon": -77.03590616666666, "bike_id": "8011f534522f8aae9470c38ed65d8313", "lat": 38.936664, "fusion_lon": 0.0, "fusion_lat": 0.0, "type": "electric_scooter", "name": "8011f534522f8aae9470c38ed65d8313", "is_disabled": 0, "rental_uris": {"ios": "https://dc.lft.to/lastmile_qr_scan", "android": "https://dc.lft.to/lastmile_qr_scan"}, "is_reserved": 0}, {"lon": -77.02097016666667, "bike_id": "6acca9a4bf2e36fd176ad416226fd1ee", "lat": 38.949991833333335, "fusion_lon": 0.0, "fusion_lat": 0.0, "type": "electric_scooter", "name": "6acca9a4bf2e36fd176ad416226fd1ee", "is_disabled": 0, "rental_uris": {"ios": "https://dc.lft.to/lastmile_qr_scan", "android": "https://dc.lft.to/lastmile_qr_scan"}, "is_reserved": 0}, {"lon": -77.0057355, "bike_id": "41bc893781f55678d0233fe6d33a17a7", "lat": 38.90559583333334, "fusion_lon": 0.0, "fusion_lat": 0.0, "type": "electric_scooter", "name": "41bc893781f55678d0233fe6d33a17a7", "is_disabled": 0, "rental_uris": {"ios": "https://dc.lft.to/lastmile_qr_scan", "android": "https://dc.lft.to/lastmile_qr_scan"}, "is_reserved": 0}, {"lon": -77.03172866666667, "bike_id": "bb25fc24c3a2de7d231530e40be27a68", "lat": 38.921173333333336, "fusion_lon": 0.0, "fusion_lat": 0.0, "type": "electric_scooter", "name": "bb25fc24c3a2de7d231530e40be27a68", "is_disabled": 0, "rental_uris": {"ios": "https://dc.lft.to/lastmile_qr_scan", "android": "https://dc.lft.to/lastmile_qr_scan"}, "is_reserved": 0}, {"lon": -77.02349933333333, "bike_id": "7385a437fd9bcc165d7375270ab8ef2a", "lat": 38.89629033333333, "fusion_lon": 0.0, "fusion_lat": 0.0, "type": "electric_scooter", "name": "7385a437fd9bcc165d7375270ab8ef2a", "is_disabled": 0, "rental_uris": {"ios": "https://dc.lft.to/lastmile_qr_scan", "android": "https://dc.lft.to/lastmile_qr_scan"}, "is_reserved": 0}, {"lon": -77.03457533333334, "bike_id": "7c23144c3f084a767f76d542e2cf6a20", "lat": 38.926448, "fusion_lon": 0.0, "fusion_lat": 0.0, "type": "electric_scooter", "name": "7c23144c3f084a767f76d542e2cf6a20", "is_disabled": 0, "rental_uris": {"ios": "https://dc.lft.to/lastmile_qr_scan", "android": "https://dc.lft.to/lastmile_qr_scan"}, "is_reserved": 0}, {"lon": -76.99463283333333, "bike_id": "7c1788b687e4eb2889f9c0e9a355422d", "lat": 38.9406805, "fusion_lon": 0.0, "fusion_lat": 0.0, "type": "electric_bike", "name": "7c1788b687e4eb2889f9c0e9a355422d", "is_disabled": 0, "rental_uris": {"ios": "https://dc.lft.to/lastmile_qr_scan", "android": "https://dc.lft.to/lastmile_qr_scan"}, "is_reserved": 0}, {"lon": -77.02718666666667, "bike_id": "60f1327984682c77e792b17b9a15d9d4", "lat": 38.897837833333334, "fusion_lon": 0.0, "fusion_lat": 0.0, "type": "electric_scooter", "name": "60f1327984682c77e792b17b9a15d9d4", "is_disabled": 0, "rental_uris": {"ios": "https://dc.lft.to/lastmile_qr_scan", "android": "https://dc.lft.to/lastmile_qr_scan"}, "is_reserved": 0}, {"lon": -77.029529, "bike_id": "b5d3fbfc685595c5a89a4e1d8e9abb07", "lat": 38.905024166666664, "fusion_lon": 0.0, "fusion_lat": 0.0, "type": "electric_scooter", "name": "b5d3fbfc685595c5a89a4e1d8e9abb07", "is_disabled": 0, "rental_uris": {"ios": "https://dc.lft.to/lastmile_qr_scan", "android": "https://dc.lft.to/lastmile_qr_scan"}, "is_reserved": 0}, {"lon": -77.04542916666666, "bike_id": "93bcaee8880c630ff0ca57b4c315983d", "lat": 38.91336483333333, "fusion_lon": 0.0, "fusion_lat": 0.0, "type": "electric_scooter", "name": "93bcaee8880c630ff0ca57b4c315983d", "is_disabled": 0, "rental_uris": {"ios": "https://dc.lft.to/lastmile_qr_scan", "android": "https://dc.lft.to/lastmile_qr_scan"}, "is_reserved": 0}, {"lon": -77.03258416666667, "bike_id": "af3da20721c5e1b7585619787e6678ea", "lat": 38.937654, "fusion_lon": 0.0, "fusion_lat": 0.0, "type": "electric_scooter", "name": "af3da20721c5e1b7585619787e6678ea", "is_disabled": 0, "rental_uris": {"ios": "https://dc.lft.to/lastmile_qr_scan", "android": "https://dc.lft.to/lastmile_qr_scan"}, "is_reserved": 0}, {"lon": -77.0073785, "bike_id": "ef9a4c3d3de383da7053d0ee7e38ba38", "lat": 38.90481616666667, "fusion_lon": 0.0, "fusion_lat": 0.0, "type": "electric_scooter", "name": "ef9a4c3d3de383da7053d0ee7e38ba38", "is_disabled": 0, "rental_uris": {"ios": "https://dc.lft.to/lastmile_qr_scan", "android": "https://dc.lft.to/lastmile_qr_scan"}, "is_reserved": 0}, {"lon": -76.9864075, "bike_id": "e1bad74efd4010fbd2181c2e06100fa1", "lat": 38.8983065, "fusion_lon": 0.0, "fusion_lat": 0.0, "type": "electric_scooter", "name": "e1bad74efd4010fbd2181c2e06100fa1", "is_disabled": 0, "rental_uris": {"ios": "https://dc.lft.to/lastmile_qr_scan", "android": "https://dc.lft.to/lastmile_qr_scan"}, "is_reserved": 0}, {"lon": -77.031717, "bike_id": "61b03d06fa8c9cac5a040bb93d4fb722", "lat": 38.88734183333333, "fusion_lon": 0.0, "fusion_lat": 0.0, "type": "electric_scooter", "name": "61b03d06fa8c9cac5a040bb93d4fb722", "is_disabled": 0, "rental_uris": {"ios": "https://dc.lft.to/lastmile_qr_scan", "android": "https://dc.lft.to/lastmile_qr_scan"}, "is_reserved": 0}, {"lon": -77.025949, "bike_id": "2132d9a05228e2fdc9a6beceb0ca9640", "lat": 38.905026, "fusion_lon": 0.0, "fusion_lat": 0.0, "type": "electric_scooter", "name": "2132d9a05228e2fdc9a6beceb0ca9640", "is_disabled": 0, "rental_uris": {"ios": "https://dc.lft.to/lastmile_qr_scan", "android": "https://dc.lft.to/lastmile_qr_scan"}, "is_reserved": 0}, {"lon": -77.02159033333334, "bike_id": "8ab2d6cd4bb10595ce681ec5c35c0396", "lat": 38.8972455, "fusion_lon": 0.0, "fusion_lat": 0.0, "type": "electric_scooter", "name": "8ab2d6cd4bb10595ce681ec5c35c0396", "is_disabled": 0, "rental_uris": {"ios": "https://dc.lft.to/lastmile_qr_scan", "android": "https://dc.lft.to/lastmile_qr_scan"}, "is_reserved": 0}, {"lon": -77.02262483333334, "bike_id": "587ab3169c1b5b88936cdb8e094de2b2", "lat": 38.94094883333333, "fusion_lon": 0.0, "fusion_lat": 0.0, "type": "electric_scooter", "name": "587ab3169c1b5b88936cdb8e094de2b2", "is_disabled": 0, "rental_uris": {"ios": "https://dc.lft.to/lastmile_qr_scan", "android": "https://dc.lft.to/lastmile_qr_scan"}, "is_reserved": 0}, {"lon": -77.00954216666666, "bike_id": "bd02295b8de002da9018bf75aa1bf3a9", "lat": 38.953449166666665, "fusion_lon": 0.0, "fusion_lat": 0.0, "type": "electric_bike", "name": "bd02295b8de002da9018bf75aa1bf3a9", "is_disabled": 0, "rental_uris": {"ios": "https://dc.lft.to/lastmile_qr_scan", "android": "https://dc.lft.to/lastmile_qr_scan"}, "is_reserved": 0}, {"lon": -77.029014, "bike_id": "df574f6b7b559dafab17de4b52cd89c4", "lat": 38.92818333333334, "fusion_lon": 0.0, "fusion_lat": 0.0, "type": "electric_scooter", "name": "df574f6b7b559dafab17de4b52cd89c4", "is_disabled": 0, "rental_uris": {"ios": "https://dc.lft.to/lastmile_qr_scan", "android": "https://dc.lft.to/lastmile_qr_scan"}, "is_reserved": 0}, {"lon": -77.03208366666667, "bike_id": "777769bef0d53873ae14270524bcbe28", "lat": 38.909501166666665, "fusion_lon": 0.0, "fusion_lat": 0.0, "type": "electric_scooter", "name": "777769bef0d53873ae14270524bcbe28", "is_disabled": 0, "rental_uris": {"ios": "https://dc.lft.to/lastmile_qr_scan", "android": "https://dc.lft.to/lastmile_qr_scan"}, "is_reserved": 0}, {"lon": -77.03907583333333, "bike_id": "2662b10520fa0a1fb767d38ae788e88d", "lat": 38.9233865, "fusion_lon": 0.0, "fusion_lat": 0.0, "type": "electric_scooter", "name": "2662b10520fa0a1fb767d38ae788e88d", "is_disabled": 0, "rental_uris": {"ios": "https://dc.lft.to/lastmile_qr_scan", "android": "https://dc.lft.to/lastmile_qr_scan"}, "is_reserved": 0}, {"lon": -77.0244195, "bike_id": "e3b19311239bcdba854cd331be7cb447", "lat": 38.93600166666667, "fusion_lon": 0.0, "fusion_lat": 0.0, "type": "electric_scooter", "name": "e3b19311239bcdba854cd331be7cb447", "is_disabled": 0, "rental_uris": {"ios": "https://dc.lft.to/lastmile_qr_scan", "android": "https://dc.lft.to/lastmile_qr_scan"}, "is_reserved": 0}, {"lon": -77.02723283333333, "bike_id": "2ba80013f9375fcbb72aeb322b069e92", "lat": 38.89732766666667, "fusion_lon": 0.0, "fusion_lat": 0.0, "type": "electric_scooter", "name": "2ba80013f9375fcbb72aeb322b069e92", "is_disabled": 0, "rental_uris": {"ios": "https://dc.lft.to/lastmile_qr_scan", "android": "https://dc.lft.to/lastmile_qr_scan"}, "is_reserved": 0}, {"lon": -77.0280895, "bike_id": "71299a6d9cbc11ee0269b3ce9b4017f2", "lat": 38.941948333333336, "fusion_lon": 0.0, "fusion_lat": 0.0, "type": "electric_scooter", "name": "71299a6d9cbc11ee0269b3ce9b4017f2", "is_disabled": 0, "rental_uris": {"ios": "https://dc.lft.to/lastmile_qr_scan", "android": "https://dc.lft.to/lastmile_qr_scan"}, "is_reserved": 0}, {"lon": -76.97008283333334, "bike_id": "e1af4e5e83e4028244d1d8bb42dbf909", "lat": 38.8637205, "fusion_lon": 0.0, "fusion_lat": 0.0, "type": "electric_bike", "name": "e1af4e5e83e4028244d1d8bb42dbf909", "is_disabled": 0, "rental_uris": {"ios": "https://dc.lft.to/lastmile_qr_scan", "android": "https://dc.lft.to/lastmile_qr_scan"}, "is_reserved": 0}, {"lon": -77.010458, "bike_id": "8197875a7f017ba2d5177cf05d25945e", "lat": 38.9118765, "fusion_lon": 0.0, "fusion_lat": 0.0, "type": "electric_scooter", "name": "8197875a7f017ba2d5177cf05d25945e", "is_disabled": 0, "rental_uris": {"ios": "https://dc.lft.to/lastmile_qr_scan", "android": "https://dc.lft.to/lastmile_qr_scan"}, "is_reserved": 0}, {"lon": -77.04362633333334, "bike_id": "70ded7e267513c1074bddb2ec30c62c0", "lat": 39.015417, "fusion_lon": 0.0, "fusion_lat": 0.0, "type": "electric_bike", "name": "70ded7e267513c1074bddb2ec30c62c0", "is_disabled": 0, "rental_uris": {"ios": "https://dc.lft.to/lastmile_qr_scan", "android": "https://dc.lft.to/lastmile_qr_scan"}, "is_reserved": 0}, {"lon": -77.0334815, "bike_id": "ef6577b98ae87646d73ab371f5edc8ad", "lat": 38.91718083333333, "fusion_lon": 0.0, "fusion_lat": 0.0, "type": "electric_scooter", "name": "ef6577b98ae87646d73ab371f5edc8ad", "is_disabled": 0, "rental_uris": {"ios": "https://dc.lft.to/lastmile_qr_scan", "android": "https://dc.lft.to/lastmile_qr_scan"}, "is_reserved": 0}, {"lon": -77.038633, "bike_id": "b76063da8f2281ddcb18cc2356a7c36e", "lat": 38.909485, "fusion_lon": 0.0, "fusion_lat": 0.0, "type": "electric_scooter", "name": "b76063da8f2281ddcb18cc2356a7c36e", "is_disabled": 0, "rental_uris": {"ios": "https://dc.lft.to/lastmile_qr_scan", "android": "https://dc.lft.to/lastmile_qr_scan"}, "is_reserved": 0}, {"lon": -76.97841383333333, "bike_id": "82f1621a646bbbfd8e53fa548a9cefdb", "lat": 38.8656785, "fusion_lon": 0.0, "fusion_lat": 0.0, "type": "electric_scooter", "name": "82f1621a646bbbfd8e53fa548a9cefdb", "is_disabled": 0, "rental_uris": {"ios": "https://dc.lft.to/lastmile_qr_scan", "android": "https://dc.lft.to/lastmile_qr_scan"}, "is_reserved": 0}, {"lon": -76.94891983333333, "bike_id": "81cb0caa114ab2a0e752ad85c4213c14", "lat": 38.89531133333333, "fusion_lon": 0.0, "fusion_lat": 0.0, "type": "electric_scooter", "name": "81cb0caa114ab2a0e752ad85c4213c14", "is_disabled": 0, "rental_uris": {"ios": "https://dc.lft.to/lastmile_qr_scan", "android": "https://dc.lft.to/lastmile_qr_scan"}, "is_reserved": 0}, {"lon": -77.05127233333333, "bike_id": "277ae068f2ef23a27a28f31a538034e0", "lat": 38.905122, "fusion_lon": 0.0, "fusion_lat": 0.0, "type": "electric_scooter", "name": "277ae068f2ef23a27a28f31a538034e0", "is_disabled": 0, "rental_uris": {"ios": "https://dc.lft.to/lastmile_qr_scan", "android": "https://dc.lft.to/lastmile_qr_scan"}, "is_reserved": 0}, {"lon": -77.07110566666667, "bike_id": "a27943d5522275f7cd467e5fbadb5f79", "lat": 38.91981666666667, "fusion_lon": 0.0, "fusion_lat": 0.0, "type": "electric_scooter", "name": "a27943d5522275f7cd467e5fbadb5f79", "is_disabled": 0, "rental_uris": {"ios": "https://dc.lft.to/lastmile_qr_scan", "android": "https://dc.lft.to/lastmile_qr_scan"}, "is_reserved": 0}, {"lon": -77.0179055, "bike_id": "cd975d7b2e678cf46b326b3273da2849", "lat": 38.9044275, "fusion_lon": 0.0, "fusion_lat": 0.0, "type": "electric_scooter", "name": "cd975d7b2e678cf46b326b3273da2849", "is_disabled": 0, "rental_uris": {"ios": "https://dc.lft.to/lastmile_qr_scan", "android": "https://dc.lft.to/lastmile_qr_scan"}, "is_reserved": 0}, {"lon": -76.98803566666666, "bike_id": "2096a5fadb3e940a27036abb00f4e734", "lat": 38.86727883333333, "fusion_lon": 0.0, "fusion_lat": 0.0, "type": "electric_scooter", "name": "2096a5fadb3e940a27036abb00f4e734", "is_disabled": 0, "rental_uris": {"ios": "https://dc.lft.to/lastmile_qr_scan", "android": "https://dc.lft.to/lastmile_qr_scan"}, "is_reserved": 0}, {"lon": -76.97673783333333, "bike_id": "40c0d0f1774758fdab1629c596407b36", "lat": 38.95247616666666, "fusion_lon": 0.0, "fusion_lat": 0.0, "type": "electric_bike", "name": "40c0d0f1774758fdab1629c596407b36", "is_disabled": 0, "rental_uris": {"ios": "https://dc.lft.to/lastmile_qr_scan", "android": "https://dc.lft.to/lastmile_qr_scan"}, "is_reserved": 0}, {"lon": -76.985763, "bike_id": "e3008e09df6059ac13c849e75887342d", "lat": 38.89963316666667, "fusion_lon": 0.0, "fusion_lat": 0.0, "type": "electric_scooter", "name": "e3008e09df6059ac13c849e75887342d", "is_disabled": 0, "rental_uris": {"ios": "https://dc.lft.to/lastmile_qr_scan", "android": "https://dc.lft.to/lastmile_qr_scan"}, "is_reserved": 0}, {"lon": -77.02447266666667, "bike_id": "7231235ee93d9b07ddc3f17cd141afc4", "lat": 38.92505533333333, "fusion_lon": 0.0, "fusion_lat": 0.0, "type": "electric_scooter", "name": "7231235ee93d9b07ddc3f17cd141afc4", "is_disabled": 0, "rental_uris": {"ios": "https://dc.lft.to/lastmile_qr_scan", "android": "https://dc.lft.to/lastmile_qr_scan"}, "is_reserved": 0}, {"lon": -77.02418583333333, "bike_id": "46ba2add8ce90012faf5bbf58a56aee2", "lat": 38.892342, "fusion_lon": 0.0, "fusion_lat": 0.0, "type": "electric_scooter", "name": "46ba2add8ce90012faf5bbf58a56aee2", "is_disabled": 0, "rental_uris": {"ios": "https://dc.lft.to/lastmile_qr_scan", "android": "https://dc.lft.to/lastmile_qr_scan"}, "is_reserved": 0}, {"lon": -77.006752, "bike_id": "b522af69e66c481bfcc82b298930e9da", "lat": 38.90013, "fusion_lon": 0.0, "fusion_lat": 0.0, "type": "electric_scooter", "name": "b522af69e66c481bfcc82b298930e9da", "is_disabled": 0, "rental_uris": {"ios": "https://dc.lft.to/lastmile_qr_scan", "android": "https://dc.lft.to/lastmile_qr_scan"}, "is_reserved": 0}, {"lon": -76.98159266666667, "bike_id": "babc029672da7341a21e8a4cf8c6cc93", "lat": 38.903279833333336, "fusion_lon": 0.0, "fusion_lat": 0.0, "type": "electric_scooter", "name": "babc029672da7341a21e8a4cf8c6cc93", "is_disabled": 0, "rental_uris": {"ios": "https://dc.lft.to/lastmile_qr_scan", "android": "https://dc.lft.to/lastmile_qr_scan"}, "is_reserved": 0}, {"lon": -77.03598883333333, "bike_id": "0087748d12d188b4855db9487f34f69a", "lat": 38.93938383333333, "fusion_lon": 0.0, "fusion_lat": 0.0, "type": "electric_scooter", "name": "0087748d12d188b4855db9487f34f69a", "is_disabled": 0, "rental_uris": {"ios": "https://dc.lft.to/lastmile_qr_scan", "android": "https://dc.lft.to/lastmile_qr_scan"}, "is_reserved": 0}, {"lon": -77.05169283333333, "bike_id": "eca9df3e3fd2111f95a70395417840b6", "lat": 38.923443666666664, "fusion_lon": 0.0, "fusion_lat": 0.0, "type": "electric_scooter", "name": "eca9df3e3fd2111f95a70395417840b6", "is_disabled": 0, "rental_uris": {"ios": "https://dc.lft.to/lastmile_qr_scan", "android": "https://dc.lft.to/lastmile_qr_scan"}, "is_reserved": 0}, {"lon": -77.0793225, "bike_id": "b8164281d449fef2fdb720fe7da34271", "lat": 38.93093283333333, "fusion_lon": 0.0, "fusion_lat": 0.0, "type": "electric_scooter", "name": "b8164281d449fef2fdb720fe7da34271", "is_disabled": 0, "rental_uris": {"ios": "https://dc.lft.to/lastmile_qr_scan", "android": "https://dc.lft.to/lastmile_qr_scan"}, "is_reserved": 0}, {"lon": -76.99461316666667, "bike_id": "b7f7f5e0fb3d887878598b70c1765349", "lat": 38.94067166666667, "fusion_lon": 0.0, "fusion_lat": 0.0, "type": "electric_scooter", "name": "b7f7f5e0fb3d887878598b70c1765349", "is_disabled": 0, "rental_uris": {"ios": "https://dc.lft.to/lastmile_qr_scan", "android": "https://dc.lft.to/lastmile_qr_scan"}, "is_reserved": 0}, {"lon": -77.0115205, "bike_id": "2cbc5489d9624687410a65e149f13322", "lat": 38.91405916666667, "fusion_lon": 0.0, "fusion_lat": 0.0, "type": "electric_scooter", "name": "2cbc5489d9624687410a65e149f13322", "is_disabled": 0, "rental_uris": {"ios": "https://dc.lft.to/lastmile_qr_scan", "android": "https://dc.lft.to/lastmile_qr_scan"}, "is_reserved": 0}, {"lon": -77.01760033333333, "bike_id": "f2ccc8db0f77766487e869da57115075", "lat": 38.902683833333334, "fusion_lon": 0.0, "fusion_lat": 0.0, "type": "electric_scooter", "name": "f2ccc8db0f77766487e869da57115075", "is_disabled": 0, "rental_uris": {"ios": "https://dc.lft.to/lastmile_qr_scan", "android": "https://dc.lft.to/lastmile_qr_scan"}, "is_reserved": 0}, {"lon": -77.05858516666666, "bike_id": "aafe61b2cece15b347942f8c7de9fdad", "lat": 38.93607466666667, "fusion_lon": 0.0, "fusion_lat": 0.0, "type": "electric_scooter", "name": "aafe61b2cece15b347942f8c7de9fdad", "is_disabled": 0, "rental_uris": {"ios": "https://dc.lft.to/lastmile_qr_scan", "android": "https://dc.lft.to/lastmile_qr_scan"}, "is_reserved": 0}, {"lon": -77.042426, "bike_id": "d9cb518168d8312a0616c93a784dd02c", "lat": 38.914949, "fusion_lon": 0.0, "fusion_lat": 0.0, "type": "electric_scooter", "name": "d9cb518168d8312a0616c93a784dd02c", "is_disabled": 0, "rental_uris": {"ios": "https://dc.lft.to/lastmile_qr_scan", "android": "https://dc.lft.to/lastmile_qr_scan"}, "is_reserved": 0}, {"lon": -77.05506166666666, "bike_id": "31a43550ef8e26868d79c506d5a80cf1", "lat": 38.89990683333333, "fusion_lon": 0.0, "fusion_lat": 0.0, "type": "electric_scooter", "name": "31a43550ef8e26868d79c506d5a80cf1", "is_disabled": 0, "rental_uris": {"ios": "https://dc.lft.to/lastmile_qr_scan", "android": "https://dc.lft.to/lastmile_qr_scan"}, "is_reserved": 0}, {"lon": -77.02760316666667, "bike_id": "93d9b10ee01d6527fb6979714f6ea951", "lat": 38.944035166666666, "fusion_lon": 0.0, "fusion_lat": 0.0, "type": "electric_scooter", "name": "93d9b10ee01d6527fb6979714f6ea951", "is_disabled": 0, "rental_uris": {"ios": "https://dc.lft.to/lastmile_qr_scan", "android": "https://dc.lft.to/lastmile_qr_scan"}, "is_reserved": 0}, {"lon": -77.02140466666667, "bike_id": "1c384656cb7b28e892e4f8d953469215", "lat": 38.9008435, "fusion_lon": 0.0, "fusion_lat": 0.0, "type": "electric_scooter", "name": "1c384656cb7b28e892e4f8d953469215", "is_disabled": 0, "rental_uris": {"ios": "https://dc.lft.to/lastmile_qr_scan", "android": "https://dc.lft.to/lastmile_qr_scan"}, "is_reserved": 0}, {"lon": -77.03319616666667, "bike_id": "c70f78b015708c76145e2a9f88242d5f", "lat": 38.915696833333335, "fusion_lon": 0.0, "fusion_lat": 0.0, "type": "electric_scooter", "name": "c70f78b015708c76145e2a9f88242d5f", "is_disabled": 0, "rental_uris": {"ios": "https://dc.lft.to/lastmile_qr_scan", "android": "https://dc.lft.to/lastmile_qr_scan"}, "is_reserved": 0}, {"lon": -77.0306485, "bike_id": "4fd329279044905691109092c95c49a2", "lat": 38.902806166666664, "fusion_lon": 0.0, "fusion_lat": 0.0, "type": "electric_scooter", "name": "4fd329279044905691109092c95c49a2", "is_disabled": 0, "rental_uris": {"ios": "https://dc.lft.to/lastmile_qr_scan", "android": "https://dc.lft.to/lastmile_qr_scan"}, "is_reserved": 0}, {"lon": -77.022053, "bike_id": "c87f82a8a9f6e3340f87b6652ef01743", "lat": 38.909882833333334, "fusion_lon": 0.0, "fusion_lat": 0.0, "type": "electric_scooter", "name": "c87f82a8a9f6e3340f87b6652ef01743", "is_disabled": 0, "rental_uris": {"ios": "https://dc.lft.to/lastmile_qr_scan", "android": "https://dc.lft.to/lastmile_qr_scan"}, "is_reserved": 0}, {"lon": -77.01008033333333, "bike_id": "f66cc8f54e83fdcf0be3a42b67801faa", "lat": 38.867123166666666, "fusion_lon": 0.0, "fusion_lat": 0.0, "type": "electric_scooter", "name": "f66cc8f54e83fdcf0be3a42b67801faa", "is_disabled": 0, "rental_uris": {"ios": "https://dc.lft.to/lastmile_qr_scan", "android": "https://dc.lft.to/lastmile_qr_scan"}, "is_reserved": 0}, {"lon": -76.9753405, "bike_id": "6207fb8928384d2ab9b343f2dab73cd2", "lat": 38.903294833333334, "fusion_lon": 0.0, "fusion_lat": 0.0, "type": "electric_bike", "name": "6207fb8928384d2ab9b343f2dab73cd2", "is_disabled": 0, "rental_uris": {"ios": "https://dc.lft.to/lastmile_qr_scan", "android": "https://dc.lft.to/lastmile_qr_scan"}, "is_reserved": 0}, {"lon": -77.01573833333333, "bike_id": "8e62c19fc779f7766cd238008727be7a", "lat": 38.965698333333336, "fusion_lon": 0.0, "fusion_lat": 0.0, "type": "electric_scooter", "name": "8e62c19fc779f7766cd238008727be7a", "is_disabled": 0, "rental_uris": {"ios": "https://dc.lft.to/lastmile_qr_scan", "android": "https://dc.lft.to/lastmile_qr_scan"}, "is_reserved": 0}, {"lon": -77.042305, "bike_id": "8e93349fc00e2982eeb2615073b02394", "lat": 38.911193833333336, "fusion_lon": 0.0, "fusion_lat": 0.0, "type": "electric_scooter", "name": "8e93349fc00e2982eeb2615073b02394", "is_disabled": 0, "rental_uris": {"ios": "https://dc.lft.to/lastmile_qr_scan", "android": "https://dc.lft.to/lastmile_qr_scan"}, "is_reserved": 0}, {"lon": -77.04632416666666, "bike_id": "ca0e1e97d6492726cbdd0b58681f2d59", "lat": 38.919103, "fusion_lon": 0.0, "fusion_lat": 0.0, "type": "electric_scooter", "name": "ca0e1e97d6492726cbdd0b58681f2d59", "is_disabled": 0, "rental_uris": {"ios": "https://dc.lft.to/lastmile_qr_scan", "android": "https://dc.lft.to/lastmile_qr_scan"}, "is_reserved": 0}, {"lon": -77.0123345, "bike_id": "ad8df20e780738fc1a5b7fb424c4edc3", "lat": 38.89301866666667, "fusion_lon": 0.0, "fusion_lat": 0.0, "type": "electric_scooter", "name": "ad8df20e780738fc1a5b7fb424c4edc3", "is_disabled": 0, "rental_uris": {"ios": "https://dc.lft.to/lastmile_qr_scan", "android": "https://dc.lft.to/lastmile_qr_scan"}, "is_reserved": 0}, {"lon": -77.031821, "bike_id": "4a8fd2edc8c3ae4dd833c1be058dd746", "lat": 38.917462666666665, "fusion_lon": 0.0, "fusion_lat": 0.0, "type": "electric_scooter", "name": "4a8fd2edc8c3ae4dd833c1be058dd746", "is_disabled": 0, "rental_uris": {"ios": "https://dc.lft.to/lastmile_qr_scan", "android": "https://dc.lft.to/lastmile_qr_scan"}, "is_reserved": 0}, {"lon": -77.11593083333334, "bike_id": "686def5327127c9c6aea953b9f7619ab", "lat": 39.07493766666666, "fusion_lon": 0.0, "fusion_lat": 0.0, "type": "electric_bike", "name": "686def5327127c9c6aea953b9f7619ab", "is_disabled": 0, "rental_uris": {"ios": "https://dc.lft.to/lastmile_qr_scan", "android": "https://dc.lft.to/lastmile_qr_scan"}, "is_reserved": 0}, {"lon": -77.032838, "bike_id": "be7d633ab4fb57f4db14003b341bd1b7", "lat": 38.93774633333334, "fusion_lon": 0.0, "fusion_lat": 0.0, "type": "electric_bike", "name": "be7d633ab4fb57f4db14003b341bd1b7", "is_disabled": 0, "rental_uris": {"ios": "https://dc.lft.to/lastmile_qr_scan", "android": "https://dc.lft.to/lastmile_qr_scan"}, "is_reserved": 0}, {"lon": -76.9691055, "bike_id": "f8fa801f54961b024e4f629af22d45c7", "lat": 38.84613233333334, "fusion_lon": 0.0, "fusion_lat": 0.0, "type": "electric_bike", "name": "f8fa801f54961b024e4f629af22d45c7", "is_disabled": 0, "rental_uris": {"ios": "https://dc.lft.to/lastmile_qr_scan", "android": "https://dc.lft.to/lastmile_qr_scan"}, "is_reserved": 0}, {"lon": -77.02825933333334, "bike_id": "0e75c2694570be8f375387aabfb936bf", "lat": 38.93885516666667, "fusion_lon": 0.0, "fusion_lat": 0.0, "type": "electric_scooter", "name": "0e75c2694570be8f375387aabfb936bf", "is_disabled": 0, "rental_uris": {"ios": "https://dc.lft.to/lastmile_qr_scan", "android": "https://dc.lft.to/lastmile_qr_scan"}, "is_reserved": 0}, {"lon": -76.99073383333334, "bike_id": "6aedfe65487fd530edc807bfd0c092a5", "lat": 38.92746283333334, "fusion_lon": 0.0, "fusion_lat": 0.0, "type": "electric_scooter", "name": "6aedfe65487fd530edc807bfd0c092a5", "is_disabled": 0, "rental_uris": {"ios": "https://dc.lft.to/lastmile_qr_scan", "android": "https://dc.lft.to/lastmile_qr_scan"}, "is_reserved": 0}, {"lon": -76.99931666666667, "bike_id": "6ca44c8e82e1f7fafd4471f0aede7e05", "lat": 38.843143, "fusion_lon": 0.0, "fusion_lat": 0.0, "type": "electric_scooter", "name": "6ca44c8e82e1f7fafd4471f0aede7e05", "is_disabled": 0, "rental_uris": {"ios": "https://dc.lft.to/lastmile_qr_scan", "android": "https://dc.lft.to/lastmile_qr_scan"}, "is_reserved": 0}, {"lon": -76.99052016666667, "bike_id": "e85565ee578d630bd280a3790fdf9a02", "lat": 38.8637845, "fusion_lon": 0.0, "fusion_lat": 0.0, "type": "electric_scooter", "name": "e85565ee578d630bd280a3790fdf9a02", "is_disabled": 0, "rental_uris": {"ios": "https://dc.lft.to/lastmile_qr_scan", "android": "https://dc.lft.to/lastmile_qr_scan"}, "is_reserved": 0}, {"lon": -77.01626216666666, "bike_id": "4901110f8f6d4f795f3be861dc415338", "lat": 38.906933, "fusion_lon": 0.0, "fusion_lat": 0.0, "type": "electric_scooter", "name": "4901110f8f6d4f795f3be861dc415338", "is_disabled": 0, "rental_uris": {"ios": "https://dc.lft.to/lastmile_qr_scan", "android": "https://dc.lft.to/lastmile_qr_scan"}, "is_reserved": 0}, {"lon": -77.0221025, "bike_id": "fe0bb3216ec6585a033da8737bea4142", "lat": 38.910155, "fusion_lon": 0.0, "fusion_lat": 0.0, "type": "electric_scooter", "name": "fe0bb3216ec6585a033da8737bea4142", "is_disabled": 0, "rental_uris": {"ios": "https://dc.lft.to/lastmile_qr_scan", "android": "https://dc.lft.to/lastmile_qr_scan"}, "is_reserved": 0}, {"lon": -77.022696, "bike_id": "5b907c4469633584c027cb639f8b6cf0", "lat": 38.912821666666666, "fusion_lon": 0.0, "fusion_lat": 0.0, "type": "electric_scooter", "name": "5b907c4469633584c027cb639f8b6cf0", "is_disabled": 0, "rental_uris": {"ios": "https://dc.lft.to/lastmile_qr_scan", "android": "https://dc.lft.to/lastmile_qr_scan"}, "is_reserved": 0}, {"lon": -77.036554, "bike_id": "3443868c44ec5194cb6fa2940b2dcd05", "lat": 38.912465166666664, "fusion_lon": 0.0, "fusion_lat": 0.0, "type": "electric_scooter", "name": "3443868c44ec5194cb6fa2940b2dcd05", "is_disabled": 0, "rental_uris": {"ios": "https://dc.lft.to/lastmile_qr_scan", "android": "https://dc.lft.to/lastmile_qr_scan"}, "is_reserved": 0}, {"lon": -76.99571266666666, "bike_id": "fc9888b32e6915c5927395d37564b192", "lat": 38.851821666666666, "fusion_lon": 0.0, "fusion_lat": 0.0, "type": "electric_bike", "name": "fc9888b32e6915c5927395d37564b192", "is_disabled": 0, "rental_uris": {"ios": "https://dc.lft.to/lastmile_qr_scan", "android": "https://dc.lft.to/lastmile_qr_scan"}, "is_reserved": 0}, {"lon": -77.016071, "bike_id": "4ab7c3d2e7c6715e12b9b9f3a7cb8ee0", "lat": 38.91061533333333, "fusion_lon": 0.0, "fusion_lat": 0.0, "type": "electric_scooter", "name": "4ab7c3d2e7c6715e12b9b9f3a7cb8ee0", "is_disabled": 0, "rental_uris": {"ios": "https://dc.lft.to/lastmile_qr_scan", "android": "https://dc.lft.to/lastmile_qr_scan"}, "is_reserved": 0}, {"lon": -77.02489116666666, "bike_id": "73969f2b98b52cf754a82fc7f9d4c115", "lat": 38.931006, "fusion_lon": 0.0, "fusion_lat": 0.0, "type": "electric_scooter", "name": "73969f2b98b52cf754a82fc7f9d4c115", "is_disabled": 0, "rental_uris": {"ios": "https://dc.lft.to/lastmile_qr_scan", "android": "https://dc.lft.to/lastmile_qr_scan"}, "is_reserved": 0}, {"lon": -76.93174183333333, "bike_id": "d18200c54448c948c8e9387a2295eaba", "lat": 38.898853, "fusion_lon": 0.0, "fusion_lat": 0.0, "type": "electric_scooter", "name": "d18200c54448c948c8e9387a2295eaba", "is_disabled": 0, "rental_uris": {"ios": "https://dc.lft.to/lastmile_qr_scan", "android": "https://dc.lft.to/lastmile_qr_scan"}, "is_reserved": 0}, {"lon": -77.0347265, "bike_id": "f482301003deef6dc8b5eab40229523d", "lat": 38.90961016666667, "fusion_lon": 0.0, "fusion_lat": 0.0, "type": "electric_scooter", "name": "f482301003deef6dc8b5eab40229523d", "is_disabled": 0, "rental_uris": {"ios": "https://dc.lft.to/lastmile_qr_scan", "android": "https://dc.lft.to/lastmile_qr_scan"}, "is_reserved": 0}, {"lon": -77.03919866666666, "bike_id": "d7bdef4916eacbdf23ca072d047b5616", "lat": 38.9110475, "fusion_lon": 0.0, "fusion_lat": 0.0, "type": "electric_scooter", "name": "d7bdef4916eacbdf23ca072d047b5616", "is_disabled": 0, "rental_uris": {"ios": "https://dc.lft.to/lastmile_qr_scan", "android": "https://dc.lft.to/lastmile_qr_scan"}, "is_reserved": 0}, {"lon": -76.98364666666667, "bike_id": "4fcca9c6a44426bd38f83adc59d20d03", "lat": 38.8611335, "fusion_lon": 0.0, "fusion_lat": 0.0, "type": "electric_scooter", "name": "4fcca9c6a44426bd38f83adc59d20d03", "is_disabled": 0, "rental_uris": {"ios": "https://dc.lft.to/lastmile_qr_scan", "android": "https://dc.lft.to/lastmile_qr_scan"}, "is_reserved": 0}, {"lon": -76.93367383333333, "bike_id": "73d9cda819f1e951837f06e5890744cd", "lat": 38.89913983333334, "fusion_lon": 0.0, "fusion_lat": 0.0, "type": "electric_scooter", "name": "73d9cda819f1e951837f06e5890744cd", "is_disabled": 0, "rental_uris": {"ios": "https://dc.lft.to/lastmile_qr_scan", "android": "https://dc.lft.to/lastmile_qr_scan"}, "is_reserved": 0}, {"lon": -76.95190866666667, "bike_id": "dd2b61b8ac77f52cb26d0c49c40b8795", "lat": 38.90003033333333, "fusion_lon": 0.0, "fusion_lat": 0.0, "type": "electric_scooter", "name": "dd2b61b8ac77f52cb26d0c49c40b8795", "is_disabled": 0, "rental_uris": {"ios": "https://dc.lft.to/lastmile_qr_scan", "android": "https://dc.lft.to/lastmile_qr_scan"}, "is_reserved": 0}, {"lon": -77.0409965, "bike_id": "cb8c8e14682a62f8fcd5c48d99045520", "lat": 38.92027066666667, "fusion_lon": 0.0, "fusion_lat": 0.0, "type": "electric_scooter", "name": "cb8c8e14682a62f8fcd5c48d99045520", "is_disabled": 0, "rental_uris": {"ios": "https://dc.lft.to/lastmile_qr_scan", "android": "https://dc.lft.to/lastmile_qr_scan"}, "is_reserved": 0}, {"lon": -77.01572733333333, "bike_id": "79b86404f237398d52b777c1f3614331", "lat": 38.894711, "fusion_lon": 0.0, "fusion_lat": 0.0, "type": "electric_scooter", "name": "79b86404f237398d52b777c1f3614331", "is_disabled": 0, "rental_uris": {"ios": "https://dc.lft.to/lastmile_qr_scan", "android": "https://dc.lft.to/lastmile_qr_scan"}, "is_reserved": 0}, {"lon": -76.99614283333334, "bike_id": "d7a39455e5f2173ce5139d47adb45ca3", "lat": 38.88320616666667, "fusion_lon": 0.0, "fusion_lat": 0.0, "type": "electric_scooter", "name": "d7a39455e5f2173ce5139d47adb45ca3", "is_disabled": 0, "rental_uris": {"ios": "https://dc.lft.to/lastmile_qr_scan", "android": "https://dc.lft.to/lastmile_qr_scan"}, "is_reserved": 0}, {"lon": -77.04494566666666, "bike_id": "56a39fef2a23757b2670710f1083a464", "lat": 38.91934216666667, "fusion_lon": 0.0, "fusion_lat": 0.0, "type": "electric_scooter", "name": "56a39fef2a23757b2670710f1083a464", "is_disabled": 0, "rental_uris": {"ios": "https://dc.lft.to/lastmile_qr_scan", "android": "https://dc.lft.to/lastmile_qr_scan"}, "is_reserved": 0}, {"lon": -77.044542, "bike_id": "d1843ab1277e2a5323a26809106f3326", "lat": 38.919326, "fusion_lon": 0.0, "fusion_lat": 0.0, "type": "electric_scooter", "name": "d1843ab1277e2a5323a26809106f3326", "is_disabled": 0, "rental_uris": {"ios": "https://dc.lft.to/lastmile_qr_scan", "android": "https://dc.lft.to/lastmile_qr_scan"}, "is_reserved": 0}, {"lon": -76.997267, "bike_id": "b59967dcdb9a7c0a171a93ef29593f21", "lat": 38.909604, "fusion_lon": 0.0, "fusion_lat": 0.0, "type": "electric_scooter", "name": "b59967dcdb9a7c0a171a93ef29593f21", "is_disabled": 0, "rental_uris": {"ios": "https://dc.lft.to/lastmile_qr_scan", "android": "https://dc.lft.to/lastmile_qr_scan"}, "is_reserved": 0}, {"lon": -77.01247583333334, "bike_id": "9a10bf47eb884ccb08b6d165a789cb3d", "lat": 38.91574816666667, "fusion_lon": 0.0, "fusion_lat": 0.0, "type": "electric_scooter", "name": "9a10bf47eb884ccb08b6d165a789cb3d", "is_disabled": 0, "rental_uris": {"ios": "https://dc.lft.to/lastmile_qr_scan", "android": "https://dc.lft.to/lastmile_qr_scan"}, "is_reserved": 0}, {"lon": -77.0334145, "bike_id": "f08dbe964b48e3b0d2281ab93a22c90c", "lat": 38.94715866666667, "fusion_lon": 0.0, "fusion_lat": 0.0, "type": "electric_scooter", "name": "f08dbe964b48e3b0d2281ab93a22c90c", "is_disabled": 0, "rental_uris": {"ios": "https://dc.lft.to/lastmile_qr_scan", "android": "https://dc.lft.to/lastmile_qr_scan"}, "is_reserved": 0}, {"lon": -77.045594, "bike_id": "a106426b900ce04de7045bf955aa81ed", "lat": 38.91364016666667, "fusion_lon": 0.0, "fusion_lat": 0.0, "type": "electric_scooter", "name": "a106426b900ce04de7045bf955aa81ed", "is_disabled": 0, "rental_uris": {"ios": "https://dc.lft.to/lastmile_qr_scan", "android": "https://dc.lft.to/lastmile_qr_scan"}, "is_reserved": 0}, {"lon": -77.029464, "bike_id": "b3f98da647e12382d02e9bbc5a78f698", "lat": 38.90508783333333, "fusion_lon": 0.0, "fusion_lat": 0.0, "type": "electric_scooter", "name": "b3f98da647e12382d02e9bbc5a78f698", "is_disabled": 0, "rental_uris": {"ios": "https://dc.lft.to/lastmile_qr_scan", "android": "https://dc.lft.to/lastmile_qr_scan"}, "is_reserved": 0}, {"lon": -77.033399, "bike_id": "d888e1075550376f8850c5864d3e64d2", "lat": 38.89963566666667, "fusion_lon": 0.0, "fusion_lat": 0.0, "type": "electric_scooter", "name": "d888e1075550376f8850c5864d3e64d2", "is_disabled": 0, "rental_uris": {"ios": "https://dc.lft.to/lastmile_qr_scan", "android": "https://dc.lft.to/lastmile_qr_scan"}, "is_reserved": 0}, {"lon": -77.0176145, "bike_id": "609e0831a7cb5544062c46dc9fa9245b", "lat": 38.90277016666667, "fusion_lon": 0.0, "fusion_lat": 0.0, "type": "electric_scooter", "name": "609e0831a7cb5544062c46dc9fa9245b", "is_disabled": 0, "rental_uris": {"ios": "https://dc.lft.to/lastmile_qr_scan", "android": "https://dc.lft.to/lastmile_qr_scan"}, "is_reserved": 0}, {"lon": -77.011043, "bike_id": "0ef29d6e794f7c776a68d40e37312379", "lat": 38.91812316666667, "fusion_lon": 0.0, "fusion_lat": 0.0, "type": "electric_scooter", "name": "0ef29d6e794f7c776a68d40e37312379", "is_disabled": 0, "rental_uris": {"ios": "https://dc.lft.to/lastmile_qr_scan", "android": "https://dc.lft.to/lastmile_qr_scan"}, "is_reserved": 0}, {"lon": -77.03200683333333, "bike_id": "d28bbd2c0835cc057a19b92ffbe89213", "lat": 38.939729166666666, "fusion_lon": 0.0, "fusion_lat": 0.0, "type": "electric_scooter", "name": "d28bbd2c0835cc057a19b92ffbe89213", "is_disabled": 0, "rental_uris": {"ios": "https://dc.lft.to/lastmile_qr_scan", "android": "https://dc.lft.to/lastmile_qr_scan"}, "is_reserved": 0}, {"lon": -77.04436033333333, "bike_id": "0ca760c7e8e49c8e6f7d98f2acc3b8ca", "lat": 38.921696833333336, "fusion_lon": 0.0, "fusion_lat": 0.0, "type": "electric_scooter", "name": "0ca760c7e8e49c8e6f7d98f2acc3b8ca", "is_disabled": 0, "rental_uris": {"ios": "https://dc.lft.to/lastmile_qr_scan", "android": "https://dc.lft.to/lastmile_qr_scan"}, "is_reserved": 0}, {"lon": -77.05611666666667, "bike_id": "b3328d52fce084c8ef3b895839c080cf", "lat": 38.9233115, "fusion_lon": 0.0, "fusion_lat": 0.0, "type": "electric_scooter", "name": "b3328d52fce084c8ef3b895839c080cf", "is_disabled": 0, "rental_uris": {"ios": "https://dc.lft.to/lastmile_qr_scan", "android": "https://dc.lft.to/lastmile_qr_scan"}, "is_reserved": 0}, {"lon": -77.01409616666666, "bike_id": "2f6fcf2850741b96ff85351a20979bbd", "lat": 38.92836166666667, "fusion_lon": 0.0, "fusion_lat": 0.0, "type": "electric_scooter", "name": "2f6fcf2850741b96ff85351a20979bbd", "is_disabled": 0, "rental_uris": {"ios": "https://dc.lft.to/lastmile_qr_scan", "android": "https://dc.lft.to/lastmile_qr_scan"}, "is_reserved": 0}, {"lon": -77.03182166666667, "bike_id": "67f5998868cb97cb9c1b3e9eb7d3b39f", "lat": 38.93613716666667, "fusion_lon": 0.0, "fusion_lat": 0.0, "type": "electric_scooter", "name": "67f5998868cb97cb9c1b3e9eb7d3b39f", "is_disabled": 0, "rental_uris": {"ios": "https://dc.lft.to/lastmile_qr_scan", "android": "https://dc.lft.to/lastmile_qr_scan"}, "is_reserved": 0}, {"lon": -76.98371233333333, "bike_id": "fbaebf60536e6d52d9650a3b17fc709e", "lat": 38.891447, "fusion_lon": 0.0, "fusion_lat": 0.0, "type": "electric_scooter", "name": "fbaebf60536e6d52d9650a3b17fc709e", "is_disabled": 0, "rental_uris": {"ios": "https://dc.lft.to/lastmile_qr_scan", "android": "https://dc.lft.to/lastmile_qr_scan"}, "is_reserved": 0}, {"lon": -77.05609933333334, "bike_id": "2659cb9f4554777f12ab3fb8847dc3d9", "lat": 38.93164183333333, "fusion_lon": 0.0, "fusion_lat": 0.0, "type": "electric_scooter", "name": "2659cb9f4554777f12ab3fb8847dc3d9", "is_disabled": 0, "rental_uris": {"ios": "https://dc.lft.to/lastmile_qr_scan", "android": "https://dc.lft.to/lastmile_qr_scan"}, "is_reserved": 0}, {"lon": -77.0060015, "bike_id": "20e4281707c17fb6a0b0064b468f057e", "lat": 38.90563433333333, "fusion_lon": 0.0, "fusion_lat": 0.0, "type": "electric_scooter", "name": "20e4281707c17fb6a0b0064b468f057e", "is_disabled": 0, "rental_uris": {"ios": "https://dc.lft.to/lastmile_qr_scan", "android": "https://dc.lft.to/lastmile_qr_scan"}, "is_reserved": 0}, {"lon": -77.003339, "bike_id": "69914a2b7489238e6c2e2de0d6735235", "lat": 38.891891333333334, "fusion_lon": 0.0, "fusion_lat": 0.0, "type": "electric_scooter", "name": "69914a2b7489238e6c2e2de0d6735235", "is_disabled": 0, "rental_uris": {"ios": "https://dc.lft.to/lastmile_qr_scan", "android": "https://dc.lft.to/lastmile_qr_scan"}, "is_reserved": 0}, {"lon": -76.98835566666666, "bike_id": "7051e536c1b2860d2c4f92d005be36ff", "lat": 38.9007655, "fusion_lon": 0.0, "fusion_lat": 0.0, "type": "electric_scooter", "name": "7051e536c1b2860d2c4f92d005be36ff", "is_disabled": 0, "rental_uris": {"ios": "https://dc.lft.to/lastmile_qr_scan", "android": "https://dc.lft.to/lastmile_qr_scan"}, "is_reserved": 0}, {"lon": -77.0180475, "bike_id": "d78ec9ca4923120d1ffc3c9e641c329b", "lat": 38.904022833333336, "fusion_lon": 0.0, "fusion_lat": 0.0, "type": "electric_scooter", "name": "d78ec9ca4923120d1ffc3c9e641c329b", "is_disabled": 0, "rental_uris": {"ios": "https://dc.lft.to/lastmile_qr_scan", "android": "https://dc.lft.to/lastmile_qr_scan"}, "is_reserved": 0}, {"lon": -77.0610315, "bike_id": "c031999cf30597be73ce57fa01fb7cc9", "lat": 38.94366183333333, "fusion_lon": 0.0, "fusion_lat": 0.0, "type": "electric_scooter", "name": "c031999cf30597be73ce57fa01fb7cc9", "is_disabled": 0, "rental_uris": {"ios": "https://dc.lft.to/lastmile_qr_scan", "android": "https://dc.lft.to/lastmile_qr_scan"}, "is_reserved": 0}, {"lon": -76.9947865, "bike_id": "1b88729719eb2e688d968c334331e40b", "lat": 38.862164166666666, "fusion_lon": 0.0, "fusion_lat": 0.0, "type": "electric_scooter", "name": "1b88729719eb2e688d968c334331e40b", "is_disabled": 0, "rental_uris": {"ios": "https://dc.lft.to/lastmile_qr_scan", "android": "https://dc.lft.to/lastmile_qr_scan"}, "is_reserved": 0}, {"lon": -77.0257945, "bike_id": "b332a2013dfd1149c7c8c4af0d2dbadf", "lat": 38.93931533333333, "fusion_lon": 0.0, "fusion_lat": 0.0, "type": "electric_scooter", "name": "b332a2013dfd1149c7c8c4af0d2dbadf", "is_disabled": 0, "rental_uris": {"ios": "https://dc.lft.to/lastmile_qr_scan", "android": "https://dc.lft.to/lastmile_qr_scan"}, "is_reserved": 0}, {"lon": -77.0423385, "bike_id": "ee4c95ecdc5bade3dc44d5338eff18bc", "lat": 38.916378, "fusion_lon": 0.0, "fusion_lat": 0.0, "type": "electric_scooter", "name": "ee4c95ecdc5bade3dc44d5338eff18bc", "is_disabled": 0, "rental_uris": {"ios": "https://dc.lft.to/lastmile_qr_scan", "android": "https://dc.lft.to/lastmile_qr_scan"}, "is_reserved": 0}, {"lon": -77.0274605, "bike_id": "fc1b3cec8537402ef5833b9f5b1c1d74", "lat": 38.941844, "fusion_lon": 0.0, "fusion_lat": 0.0, "type": "electric_scooter", "name": "fc1b3cec8537402ef5833b9f5b1c1d74", "is_disabled": 0, "rental_uris": {"ios": "https://dc.lft.to/lastmile_qr_scan", "android": "https://dc.lft.to/lastmile_qr_scan"}, "is_reserved": 0}, {"lon": -76.996423, "bike_id": "fda496c575b22fd51e284cb491861256", "lat": 38.9003695, "fusion_lon": 0.0, "fusion_lat": 0.0, "type": "electric_scooter", "name": "fda496c575b22fd51e284cb491861256", "is_disabled": 0, "rental_uris": {"ios": "https://dc.lft.to/lastmile_qr_scan", "android": "https://dc.lft.to/lastmile_qr_scan"}, "is_reserved": 0}, {"lon": -77.03060266666667, "bike_id": "56c3ef6d8fccdce3390bf55f5cb2fb7e", "lat": 38.8842445, "fusion_lon": 0.0, "fusion_lat": 0.0, "type": "electric_scooter", "name": "56c3ef6d8fccdce3390bf55f5cb2fb7e", "is_disabled": 0, "rental_uris": {"ios": "https://dc.lft.to/lastmile_qr_scan", "android": "https://dc.lft.to/lastmile_qr_scan"}, "is_reserved": 0}, {"lon": -77.04479833333333, "bike_id": "bfb0d0d977b775f12156e28c6c33d876", "lat": 38.92424883333333, "fusion_lon": 0.0, "fusion_lat": 0.0, "type": "electric_scooter", "name": "bfb0d0d977b775f12156e28c6c33d876", "is_disabled": 0, "rental_uris": {"ios": "https://dc.lft.to/lastmile_qr_scan", "android": "https://dc.lft.to/lastmile_qr_scan"}, "is_reserved": 0}, {"lon": -77.03958833333333, "bike_id": "168f69f1922eb32d4f56d9a8d91e8dcd", "lat": 38.91387533333334, "fusion_lon": 0.0, "fusion_lat": 0.0, "type": "electric_scooter", "name": "168f69f1922eb32d4f56d9a8d91e8dcd", "is_disabled": 0, "rental_uris": {"ios": "https://dc.lft.to/lastmile_qr_scan", "android": "https://dc.lft.to/lastmile_qr_scan"}, "is_reserved": 0}, {"lon": -77.04141683333333, "bike_id": "c2f843071fa855a205ff23d45d18b184", "lat": 38.90632933333333, "fusion_lon": 0.0, "fusion_lat": 0.0, "type": "electric_scooter", "name": "c2f843071fa855a205ff23d45d18b184", "is_disabled": 0, "rental_uris": {"ios": "https://dc.lft.to/lastmile_qr_scan", "android": "https://dc.lft.to/lastmile_qr_scan"}, "is_reserved": 0}, {"lon": -76.9949155, "bike_id": "a90e8d855f3fb17961db88d8a8851069", "lat": 38.879496833333334, "fusion_lon": 0.0, "fusion_lat": 0.0, "type": "electric_scooter", "name": "a90e8d855f3fb17961db88d8a8851069", "is_disabled": 0, "rental_uris": {"ios": "https://dc.lft.to/lastmile_qr_scan", "android": "https://dc.lft.to/lastmile_qr_scan"}, "is_reserved": 0}, {"lon": -77.0386355, "bike_id": "d6ad72a0826d94f8aae53d2c04925a8e", "lat": 38.9201345, "fusion_lon": 0.0, "fusion_lat": 0.0, "type": "electric_scooter", "name": "d6ad72a0826d94f8aae53d2c04925a8e", "is_disabled": 0, "rental_uris": {"ios": "https://dc.lft.to/lastmile_qr_scan", "android": "https://dc.lft.to/lastmile_qr_scan"}, "is_reserved": 0}, {"lon": -76.9898605, "bike_id": "8aff4d0fa612bd413545712077a64f6a", "lat": 38.8592945, "fusion_lon": 0.0, "fusion_lat": 0.0, "type": "electric_scooter", "name": "8aff4d0fa612bd413545712077a64f6a", "is_disabled": 0, "rental_uris": {"ios": "https://dc.lft.to/lastmile_qr_scan", "android": "https://dc.lft.to/lastmile_qr_scan"}, "is_reserved": 0}, {"lon": -76.99367633333334, "bike_id": "26932c1d0e2b7e7a7bd1ebba353937df", "lat": 38.94024783333333, "fusion_lon": 0.0, "fusion_lat": 0.0, "type": "electric_scooter", "name": "26932c1d0e2b7e7a7bd1ebba353937df", "is_disabled": 0, "rental_uris": {"ios": "https://dc.lft.to/lastmile_qr_scan", "android": "https://dc.lft.to/lastmile_qr_scan"}, "is_reserved": 0}, {"lon": -77.04979133333333, "bike_id": "5667df08498715653973270d796195a5", "lat": 39.06294883333333, "fusion_lon": 0.0, "fusion_lat": 0.0, "type": "electric_bike", "name": "5667df08498715653973270d796195a5", "is_disabled": 0, "rental_uris": {"ios": "https://dc.lft.to/lastmile_qr_scan", "android": "https://dc.lft.to/lastmile_qr_scan"}, "is_reserved": 0}, {"lon": -76.9985095, "bike_id": "ecda7b1c2b5b107a80b5b78f48849638", "lat": 38.901042, "fusion_lon": 0.0, "fusion_lat": 0.0, "type": "electric_scooter", "name": "ecda7b1c2b5b107a80b5b78f48849638", "is_disabled": 0, "rental_uris": {"ios": "https://dc.lft.to/lastmile_qr_scan", "android": "https://dc.lft.to/lastmile_qr_scan"}, "is_reserved": 0}, {"lon": -77.07660866666667, "bike_id": "b5df12d586966ec5c3f576442d3e6b03", "lat": 38.8626775, "fusion_lon": 0.0, "fusion_lat": 0.0, "type": "electric_bike", "name": "b5df12d586966ec5c3f576442d3e6b03", "is_disabled": 0, "rental_uris": {"ios": "https://dc.lft.to/lastmile_qr_scan", "android": "https://dc.lft.to/lastmile_qr_scan"}, "is_reserved": 0}, {"lon": -77.03657616666666, "bike_id": "b9653e0f30fdfaf2cada35fba1fbea7e", "lat": 38.92987383333333, "fusion_lon": 0.0, "fusion_lat": 0.0, "type": "electric_scooter", "name": "b9653e0f30fdfaf2cada35fba1fbea7e", "is_disabled": 0, "rental_uris": {"ios": "https://dc.lft.to/lastmile_qr_scan", "android": "https://dc.lft.to/lastmile_qr_scan"}, "is_reserved": 0}, {"lon": -77.05149083333333, "bike_id": "c9df555a640f40492d7d91933bd15174", "lat": 38.898554, "fusion_lon": 0.0, "fusion_lat": 0.0, "type": "electric_scooter", "name": "c9df555a640f40492d7d91933bd15174", "is_disabled": 0, "rental_uris": {"ios": "https://dc.lft.to/lastmile_qr_scan", "android": "https://dc.lft.to/lastmile_qr_scan"}, "is_reserved": 0}, {"lon": -77.03964033333334, "bike_id": "dc63173685af75ff8d24a29a0d46dc1e", "lat": 38.902340833333334, "fusion_lon": 0.0, "fusion_lat": 0.0, "type": "electric_scooter", "name": "dc63173685af75ff8d24a29a0d46dc1e", "is_disabled": 0, "rental_uris": {"ios": "https://dc.lft.to/lastmile_qr_scan", "android": "https://dc.lft.to/lastmile_qr_scan"}, "is_reserved": 0}, {"lon": -77.02437016666667, "bike_id": "cf0462cdf194d75e3207f8ae10ad4975", "lat": 38.922643, "fusion_lon": 0.0, "fusion_lat": 0.0, "type": "electric_scooter", "name": "cf0462cdf194d75e3207f8ae10ad4975", "is_disabled": 0, "rental_uris": {"ios": "https://dc.lft.to/lastmile_qr_scan", "android": "https://dc.lft.to/lastmile_qr_scan"}, "is_reserved": 0}, {"lon": -76.990098, "bike_id": "f117c6b55a5d09988da94d400d7efad7", "lat": 38.94605983333334, "fusion_lon": 0.0, "fusion_lat": 0.0, "type": "electric_scooter", "name": "f117c6b55a5d09988da94d400d7efad7", "is_disabled": 0, "rental_uris": {"ios": "https://dc.lft.to/lastmile_qr_scan", "android": "https://dc.lft.to/lastmile_qr_scan"}, "is_reserved": 0}, {"lon": -77.0216825, "bike_id": "da453cfb23b5b58f505a562e66de7fa8", "lat": 38.92995116666667, "fusion_lon": 0.0, "fusion_lat": 0.0, "type": "electric_scooter", "name": "da453cfb23b5b58f505a562e66de7fa8", "is_disabled": 0, "rental_uris": {"ios": "https://dc.lft.to/lastmile_qr_scan", "android": "https://dc.lft.to/lastmile_qr_scan"}, "is_reserved": 0}, {"lon": -77.03536883333334, "bike_id": "0dc9aec83140d5f7dac373ed81f2a6de", "lat": 38.925736666666666, "fusion_lon": 0.0, "fusion_lat": 0.0, "type": "electric_scooter", "name": "0dc9aec83140d5f7dac373ed81f2a6de", "is_disabled": 0, "rental_uris": {"ios": "https://dc.lft.to/lastmile_qr_scan", "android": "https://dc.lft.to/lastmile_qr_scan"}, "is_reserved": 0}, {"lon": -77.03261083333334, "bike_id": "afb7d26ba570b0e7ce4293bdc4601d39", "lat": 38.937761, "fusion_lon": 0.0, "fusion_lat": 0.0, "type": "electric_scooter", "name": "afb7d26ba570b0e7ce4293bdc4601d39", "is_disabled": 0, "rental_uris": {"ios": "https://dc.lft.to/lastmile_qr_scan", "android": "https://dc.lft.to/lastmile_qr_scan"}, "is_reserved": 0}, {"lon": -77.04223833333333, "bike_id": "7fb77064359cec98fd881d326a73f171", "lat": 38.913455, "fusion_lon": 0.0, "fusion_lat": 0.0, "type": "electric_scooter", "name": "7fb77064359cec98fd881d326a73f171", "is_disabled": 0, "rental_uris": {"ios": "https://dc.lft.to/lastmile_qr_scan", "android": "https://dc.lft.to/lastmile_qr_scan"}, "is_reserved": 0}, {"lon": -77.0358955, "bike_id": "7210fe8051c1760e08a2f0c3bf7d7225", "lat": 38.91045166666667, "fusion_lon": 0.0, "fusion_lat": 0.0, "type": "electric_scooter", "name": "7210fe8051c1760e08a2f0c3bf7d7225", "is_disabled": 0, "rental_uris": {"ios": "https://dc.lft.to/lastmile_qr_scan", "android": "https://dc.lft.to/lastmile_qr_scan"}, "is_reserved": 0}, {"lon": -77.03324416666666, "bike_id": "a2636745c4cedf5345f084d9cb3b19a4", "lat": 38.94716433333333, "fusion_lon": 0.0, "fusion_lat": 0.0, "type": "electric_scooter", "name": "a2636745c4cedf5345f084d9cb3b19a4", "is_disabled": 0, "rental_uris": {"ios": "https://dc.lft.to/lastmile_qr_scan", "android": "https://dc.lft.to/lastmile_qr_scan"}, "is_reserved": 0}, {"lon": -77.0467605, "bike_id": "dc19c502ff6312cb5527549f8119f836", "lat": 38.907229666666666, "fusion_lon": 0.0, "fusion_lat": 0.0, "type": "electric_scooter", "name": "dc19c502ff6312cb5527549f8119f836", "is_disabled": 0, "rental_uris": {"ios": "https://dc.lft.to/lastmile_qr_scan", "android": "https://dc.lft.to/lastmile_qr_scan"}, "is_reserved": 0}, {"lon": -76.99291183333334, "bike_id": "c852a8a5550733c1cbf01b695a384ce2", "lat": 38.898883, "fusion_lon": 0.0, "fusion_lat": 0.0, "type": "electric_scooter", "name": "c852a8a5550733c1cbf01b695a384ce2", "is_disabled": 0, "rental_uris": {"ios": "https://dc.lft.to/lastmile_qr_scan", "android": "https://dc.lft.to/lastmile_qr_scan"}, "is_reserved": 0}, {"lon": -77.03193566666667, "bike_id": "8b5a185007c643cfb92aef46ccb83181", "lat": 38.927748333333334, "fusion_lon": 0.0, "fusion_lat": 0.0, "type": "electric_scooter", "name": "8b5a185007c643cfb92aef46ccb83181", "is_disabled": 0, "rental_uris": {"ios": "https://dc.lft.to/lastmile_qr_scan", "android": "https://dc.lft.to/lastmile_qr_scan"}, "is_reserved": 0}, {"lon": -77.03762966666666, "bike_id": "12edb56ec10952b7798cc852c7592c06", "lat": 38.920115333333335, "fusion_lon": 0.0, "fusion_lat": 0.0, "type": "electric_scooter", "name": "12edb56ec10952b7798cc852c7592c06", "is_disabled": 0, "rental_uris": {"ios": "https://dc.lft.to/lastmile_qr_scan", "android": "https://dc.lft.to/lastmile_qr_scan"}, "is_reserved": 0}, {"lon": -77.02753016666666, "bike_id": "091810b89307fc117a2dd5ffd5fcaa81", "lat": 38.933365333333334, "fusion_lon": 0.0, "fusion_lat": 0.0, "type": "electric_scooter", "name": "091810b89307fc117a2dd5ffd5fcaa81", "is_disabled": 0, "rental_uris": {"ios": "https://dc.lft.to/lastmile_qr_scan", "android": "https://dc.lft.to/lastmile_qr_scan"}, "is_reserved": 0}, {"lon": -77.03263766666667, "bike_id": "53d47d482e1d8e77a48b834e10fd8ed1", "lat": 38.932412, "fusion_lon": 0.0, "fusion_lat": 0.0, "type": "electric_scooter", "name": "53d47d482e1d8e77a48b834e10fd8ed1", "is_disabled": 0, "rental_uris": {"ios": "https://dc.lft.to/lastmile_qr_scan", "android": "https://dc.lft.to/lastmile_qr_scan"}, "is_reserved": 0}, {"lon": -77.01781383333334, "bike_id": "11c5c70294bc56c2bc3c466e8e76d8a3", "lat": 38.905031666666666, "fusion_lon": 0.0, "fusion_lat": 0.0, "type": "electric_scooter", "name": "11c5c70294bc56c2bc3c466e8e76d8a3", "is_disabled": 0, "rental_uris": {"ios": "https://dc.lft.to/lastmile_qr_scan", "android": "https://dc.lft.to/lastmile_qr_scan"}, "is_reserved": 0}, {"lon": -76.98374016666666, "bike_id": "a89967edbb701866ad48fd2afe880744", "lat": 38.89608533333333, "fusion_lon": 0.0, "fusion_lat": 0.0, "type": "electric_scooter", "name": "a89967edbb701866ad48fd2afe880744", "is_disabled": 0, "rental_uris": {"ios": "https://dc.lft.to/lastmile_qr_scan", "android": "https://dc.lft.to/lastmile_qr_scan"}, "is_reserved": 0}, {"lon": -77.02720933333333, "bike_id": "d2cb0e925f6b181b7bcf2b402d65860a", "lat": 38.89782266666667, "fusion_lon": 0.0, "fusion_lat": 0.0, "type": "electric_scooter", "name": "d2cb0e925f6b181b7bcf2b402d65860a", "is_disabled": 0, "rental_uris": {"ios": "https://dc.lft.to/lastmile_qr_scan", "android": "https://dc.lft.to/lastmile_qr_scan"}, "is_reserved": 0}, {"lon": -77.03041683333333, "bike_id": "2916fc3780d4690b5523338b65631e22", "lat": 38.878402666666666, "fusion_lon": 0.0, "fusion_lat": 0.0, "type": "electric_scooter", "name": "2916fc3780d4690b5523338b65631e22", "is_disabled": 0, "rental_uris": {"ios": "https://dc.lft.to/lastmile_qr_scan", "android": "https://dc.lft.to/lastmile_qr_scan"}, "is_reserved": 0}, {"lon": -76.99001316666667, "bike_id": "ff26ace36f1eb65c48b272414675b347", "lat": 38.8650555, "fusion_lon": 0.0, "fusion_lat": 0.0, "type": "electric_scooter", "name": "ff26ace36f1eb65c48b272414675b347", "is_disabled": 0, "rental_uris": {"ios": "https://dc.lft.to/lastmile_qr_scan", "android": "https://dc.lft.to/lastmile_qr_scan"}, "is_reserved": 0}, {"lon": -77.0257905, "bike_id": "7d48bb33def9ea6546c30d9757a05792", "lat": 38.887362833333334, "fusion_lon": 0.0, "fusion_lat": 0.0, "type": "electric_scooter", "name": "7d48bb33def9ea6546c30d9757a05792", "is_disabled": 0, "rental_uris": {"ios": "https://dc.lft.to/lastmile_qr_scan", "android": "https://dc.lft.to/lastmile_qr_scan"}, "is_reserved": 0}, {"lon": -76.98921416666667, "bike_id": "7c34e273fd10a1ba9f775e4589c2987e", "lat": 38.901884, "fusion_lon": 0.0, "fusion_lat": 0.0, "type": "electric_scooter", "name": "7c34e273fd10a1ba9f775e4589c2987e", "is_disabled": 0, "rental_uris": {"ios": "https://dc.lft.to/lastmile_qr_scan", "android": "https://dc.lft.to/lastmile_qr_scan"}, "is_reserved": 0}, {"lon": -76.93728433333334, "bike_id": "599174f3686d506eda7d12582f25fd92", "lat": 38.89014616666667, "fusion_lon": 0.0, "fusion_lat": 0.0, "type": "electric_scooter", "name": "599174f3686d506eda7d12582f25fd92", "is_disabled": 0, "rental_uris": {"ios": "https://dc.lft.to/lastmile_qr_scan", "android": "https://dc.lft.to/lastmile_qr_scan"}, "is_reserved": 0}, {"lon": -77.02171933333334, "bike_id": "9a17c9ca9ac501557f4fa1537ded848c", "lat": 38.897559333333334, "fusion_lon": 0.0, "fusion_lat": 0.0, "type": "electric_scooter", "name": "9a17c9ca9ac501557f4fa1537ded848c", "is_disabled": 0, "rental_uris": {"ios": "https://dc.lft.to/lastmile_qr_scan", "android": "https://dc.lft.to/lastmile_qr_scan"}, "is_reserved": 0}, {"lon": -77.02410383333333, "bike_id": "7e81ef794dff5a16fea3c4888992e5ec", "lat": 38.93486583333333, "fusion_lon": 0.0, "fusion_lat": 0.0, "type": "electric_bike", "name": "7e81ef794dff5a16fea3c4888992e5ec", "is_disabled": 0, "rental_uris": {"ios": "https://dc.lft.to/lastmile_qr_scan", "android": "https://dc.lft.to/lastmile_qr_scan"}, "is_reserved": 0}, {"lon": -77.0258135, "bike_id": "08172491e590899dcc3fa23f36c1152a", "lat": 38.905767833333336, "fusion_lon": 0.0, "fusion_lat": 0.0, "type": "electric_scooter", "name": "08172491e590899dcc3fa23f36c1152a", "is_disabled": 0, "rental_uris": {"ios": "https://dc.lft.to/lastmile_qr_scan", "android": "https://dc.lft.to/lastmile_qr_scan"}, "is_reserved": 0}, {"lon": -77.0221355, "bike_id": "d4cd2fa644c3d00a6c5237401e58ab53", "lat": 38.893533, "fusion_lon": 0.0, "fusion_lat": 0.0, "type": "electric_scooter", "name": "d4cd2fa644c3d00a6c5237401e58ab53", "is_disabled": 0, "rental_uris": {"ios": "https://dc.lft.to/lastmile_qr_scan", "android": "https://dc.lft.to/lastmile_qr_scan"}, "is_reserved": 0}, {"lon": -77.05026216666667, "bike_id": "fda1205672ae253629d319f7d7de759d", "lat": 38.901587666666664, "fusion_lon": 0.0, "fusion_lat": 0.0, "type": "electric_scooter", "name": "fda1205672ae253629d319f7d7de759d", "is_disabled": 0, "rental_uris": {"ios": "https://dc.lft.to/lastmile_qr_scan", "android": "https://dc.lft.to/lastmile_qr_scan"}, "is_reserved": 0}, {"lon": -76.95746366666667, "bike_id": "67584ad32d528ab5c9ae4913d209b716", "lat": 38.88427466666667, "fusion_lon": 0.0, "fusion_lat": 0.0, "type": "electric_scooter", "name": "67584ad32d528ab5c9ae4913d209b716", "is_disabled": 0, "rental_uris": {"ios": "https://dc.lft.to/lastmile_qr_scan", "android": "https://dc.lft.to/lastmile_qr_scan"}, "is_reserved": 0}, {"lon": -77.019702, "bike_id": "2f022ef98f982a39f036b4b969db6663", "lat": 38.93586366666667, "fusion_lon": 0.0, "fusion_lat": 0.0, "type": "electric_scooter", "name": "2f022ef98f982a39f036b4b969db6663", "is_disabled": 0, "rental_uris": {"ios": "https://dc.lft.to/lastmile_qr_scan", "android": "https://dc.lft.to/lastmile_qr_scan"}, "is_reserved": 0}, {"lon": -77.04277216666667, "bike_id": "6e6bfb8d1a3cd96cbadde6d6954f0f7c", "lat": 38.915665, "fusion_lon": 0.0, "fusion_lat": 0.0, "type": "electric_scooter", "name": "6e6bfb8d1a3cd96cbadde6d6954f0f7c", "is_disabled": 0, "rental_uris": {"ios": "https://dc.lft.to/lastmile_qr_scan", "android": "https://dc.lft.to/lastmile_qr_scan"}, "is_reserved": 0}, {"lon": -76.98558666666666, "bike_id": "b2013481d05ef22eaa8d2665f7ffc816", "lat": 38.89622266666667, "fusion_lon": 0.0, "fusion_lat": 0.0, "type": "electric_scooter", "name": "b2013481d05ef22eaa8d2665f7ffc816", "is_disabled": 0, "rental_uris": {"ios": "https://dc.lft.to/lastmile_qr_scan", "android": "https://dc.lft.to/lastmile_qr_scan"}, "is_reserved": 0}, {"lon": -77.02007683333333, "bike_id": "a5a7c0f60d809d190603d8d193e030ca", "lat": 38.9241815, "fusion_lon": 0.0, "fusion_lat": 0.0, "type": "electric_scooter", "name": "a5a7c0f60d809d190603d8d193e030ca", "is_disabled": 0, "rental_uris": {"ios": "https://dc.lft.to/lastmile_qr_scan", "android": "https://dc.lft.to/lastmile_qr_scan"}, "is_reserved": 0}, {"lon": -77.020924, "bike_id": "7fb82c3e6f8def3031eecaf25ace23bd", "lat": 38.927034, "fusion_lon": 0.0, "fusion_lat": 0.0, "type": "electric_scooter", "name": "7fb82c3e6f8def3031eecaf25ace23bd", "is_disabled": 0, "rental_uris": {"ios": "https://dc.lft.to/lastmile_qr_scan", "android": "https://dc.lft.to/lastmile_qr_scan"}, "is_reserved": 0}, {"lon": -77.02679666666667, "bike_id": "334005d907da68816851130a92d90d56", "lat": 38.902613, "fusion_lon": 0.0, "fusion_lat": 0.0, "type": "electric_scooter", "name": "334005d907da68816851130a92d90d56", "is_disabled": 0, "rental_uris": {"ios": "https://dc.lft.to/lastmile_qr_scan", "android": "https://dc.lft.to/lastmile_qr_scan"}, "is_reserved": 0}, {"lon": -77.0344095, "bike_id": "e914e3dcd9e02ad12b2584c1e154195e", "lat": 38.936090666666665, "fusion_lon": 0.0, "fusion_lat": 0.0, "type": "electric_scooter", "name": "e914e3dcd9e02ad12b2584c1e154195e", "is_disabled": 0, "rental_uris": {"ios": "https://dc.lft.to/lastmile_qr_scan", "android": "https://dc.lft.to/lastmile_qr_scan"}, "is_reserved": 0}, {"lon": -76.9853265, "bike_id": "968be3bff55ef20f43bb55bdfa2bdc89", "lat": 38.866841666666666, "fusion_lon": 0.0, "fusion_lat": 0.0, "type": "electric_scooter", "name": "968be3bff55ef20f43bb55bdfa2bdc89", "is_disabled": 0, "rental_uris": {"ios": "https://dc.lft.to/lastmile_qr_scan", "android": "https://dc.lft.to/lastmile_qr_scan"}, "is_reserved": 0}, {"lon": -77.04146383333334, "bike_id": "aef3939f118fa9953be327b7a1d921fb", "lat": 38.906315666666664, "fusion_lon": 0.0, "fusion_lat": 0.0, "type": "electric_scooter", "name": "aef3939f118fa9953be327b7a1d921fb", "is_disabled": 0, "rental_uris": {"ios": "https://dc.lft.to/lastmile_qr_scan", "android": "https://dc.lft.to/lastmile_qr_scan"}, "is_reserved": 0}, {"lon": -77.014801, "bike_id": "ed578394cf8889c5b4622d7db70acf2c", "lat": 38.95868016666667, "fusion_lon": 0.0, "fusion_lat": 0.0, "type": "electric_scooter", "name": "ed578394cf8889c5b4622d7db70acf2c", "is_disabled": 0, "rental_uris": {"ios": "https://dc.lft.to/lastmile_qr_scan", "android": "https://dc.lft.to/lastmile_qr_scan"}, "is_reserved": 0}, {"lon": -77.029297, "bike_id": "d2218b58175ad9d78f0d2be74a3aab99", "lat": 38.91691766666667, "fusion_lon": 0.0, "fusion_lat": 0.0, "type": "electric_scooter", "name": "d2218b58175ad9d78f0d2be74a3aab99", "is_disabled": 0, "rental_uris": {"ios": "https://dc.lft.to/lastmile_qr_scan", "android": "https://dc.lft.to/lastmile_qr_scan"}, "is_reserved": 0}, {"lon": -77.1157205, "bike_id": "caaba969157b02fe8cc4025b84294597", "lat": 38.99348783333333, "fusion_lon": 0.0, "fusion_lat": 0.0, "type": "electric_bike", "name": "caaba969157b02fe8cc4025b84294597", "is_disabled": 0, "rental_uris": {"ios": "https://dc.lft.to/lastmile_qr_scan", "android": "https://dc.lft.to/lastmile_qr_scan"}, "is_reserved": 0}, {"lon": -77.03636566666667, "bike_id": "78a69e82df016bb2805391958bb895f5", "lat": 38.9183365, "fusion_lon": 0.0, "fusion_lat": 0.0, "type": "electric_scooter", "name": "78a69e82df016bb2805391958bb895f5", "is_disabled": 0, "rental_uris": {"ios": "https://dc.lft.to/lastmile_qr_scan", "android": "https://dc.lft.to/lastmile_qr_scan"}, "is_reserved": 0}, {"lon": -77.02309883333334, "bike_id": "7a26af52720ddf4be2b9ef9cf06340e6", "lat": 38.918504166666665, "fusion_lon": 0.0, "fusion_lat": 0.0, "type": "electric_scooter", "name": "7a26af52720ddf4be2b9ef9cf06340e6", "is_disabled": 0, "rental_uris": {"ios": "https://dc.lft.to/lastmile_qr_scan", "android": "https://dc.lft.to/lastmile_qr_scan"}, "is_reserved": 0}, {"lon": -77.0297535, "bike_id": "8ac4d43547e77e9c9a7aa8d913bcf8d7", "lat": 38.917266166666664, "fusion_lon": 0.0, "fusion_lat": 0.0, "type": "electric_scooter", "name": "8ac4d43547e77e9c9a7aa8d913bcf8d7", "is_disabled": 0, "rental_uris": {"ios": "https://dc.lft.to/lastmile_qr_scan", "android": "https://dc.lft.to/lastmile_qr_scan"}, "is_reserved": 0}, {"lon": -77.22798416666667, "bike_id": "f8144600b0676dc06dcfc4b5f2ef66fc", "lat": 38.91016533333333, "fusion_lon": 0.0, "fusion_lat": 0.0, "type": "electric_bike", "name": "f8144600b0676dc06dcfc4b5f2ef66fc", "is_disabled": 0, "rental_uris": {"ios": "https://dc.lft.to/lastmile_qr_scan", "android": "https://dc.lft.to/lastmile_qr_scan"}, "is_reserved": 0}, {"lon": -77.02001766666666, "bike_id": "cf438dd85849dcb56060d4009787f443", "lat": 38.9045325, "fusion_lon": 0.0, "fusion_lat": 0.0, "type": "electric_scooter", "name": "cf438dd85849dcb56060d4009787f443", "is_disabled": 0, "rental_uris": {"ios": "https://dc.lft.to/lastmile_qr_scan", "android": "https://dc.lft.to/lastmile_qr_scan"}, "is_reserved": 0}, {"lon": -77.0574235, "bike_id": "3944f057cf817a4d28962730bb6ac39f", "lat": 38.92432783333334, "fusion_lon": 0.0, "fusion_lat": 0.0, "type": "electric_scooter", "name": "3944f057cf817a4d28962730bb6ac39f", "is_disabled": 0, "rental_uris": {"ios": "https://dc.lft.to/lastmile_qr_scan", "android": "https://dc.lft.to/lastmile_qr_scan"}, "is_reserved": 0}, {"lon": -77.04236016666667, "bike_id": "12fcb7e3f3628b141c24bdf41ac6a537", "lat": 38.911218833333336, "fusion_lon": 0.0, "fusion_lat": 0.0, "type": "electric_scooter", "name": "12fcb7e3f3628b141c24bdf41ac6a537", "is_disabled": 0, "rental_uris": {"ios": "https://dc.lft.to/lastmile_qr_scan", "android": "https://dc.lft.to/lastmile_qr_scan"}, "is_reserved": 0}, {"lon": -77.03121183333333, "bike_id": "7fb9bfacb131a4c791942c57952659cc", "lat": 38.98835016666666, "fusion_lon": 0.0, "fusion_lat": 0.0, "type": "electric_scooter", "name": "7fb9bfacb131a4c791942c57952659cc", "is_disabled": 0, "rental_uris": {"ios": "https://dc.lft.to/lastmile_qr_scan", "android": "https://dc.lft.to/lastmile_qr_scan"}, "is_reserved": 0},