{"data": {"bikes": [{"fusion_lat": 0.0, "fusion_lon": 0.0, "rental_uris": {"android": "https://dc.lft.to/lastmile_qr_scan", "ios": "https://dc.lft.to/lastmile_qr_scan"}, "lon": -77.06100916666666, "name": "5dc77320b2cd8e342bbd36fc384e5158", "is_disabled": 0, "is_reserved": 0, "bike_id": "5dc77320b2cd8e342bbd36fc384e5158", "lat": 38.9052035, "type": "electric_scooter"}, {"fusion_lat": 0.0, "fusion_lon": 0.0, "rental_uris": {"android": "https://dc.lft.to/lastmile_qr_scan", "ios": "https://dc.lft.to/lastmile_qr_scan"}, "lon": -77.04534416666667, "name": "d2bcb6042b98215f2c559d76e8bd2f89", "is_disabled": 0, "is_reserved": 0, "bike_id": "d2bcb6042b98215f2c559d76e8bd2f89", "lat": 38.9119245, "type": "electric_scooter"}, {"fusion_lat": 0.0, "fusion_lon": 0.0, "rental_uris": {"android": "https://dc.lft.to/lastmile_qr_scan", "ios": "https://dc.lft.to/lastmile_qr_scan"}, "lon": -77.01155633333333, "name": "44723090cd9c473a14a38a6f5a6c88be", "is_disabled": 0, "is_reserved": 0, "bike_id": "44723090cd9c473a14a38a6f5a6c88be", "lat": 38.91116066666667, "type": "electric_scooter"}, {"fusion_lat": 0.0, "fusion_lon": 0.0, "rental_uris": {"android": "https://dc.lft.to/lastmile_qr_scan", "ios": "https://dc.lft.to/lastmile_qr_scan"}, "lon": -77.0765285, "name": "ee72a74b8606d6381ee383f90e8f9534", "is_disabled": 0, "is_reserved": 0, "bike_id": "ee72a74b8606d6381ee383f90e8f9534", "lat": 38.9432075, "type": "electric_scooter"}, {"fusion_lat": 0.0, "fusion_lon": 0.0, "rental_uris": {"android": "https://dc.lft.to/lastmile_qr_scan", "ios": "https://dc.lft.to/lastmile_qr_scan"}, "lon": -77.035227, "name": "ab5197ab1bbcd6aa2804796287120dfc", "is_disabled": 0, "is_reserved": 0, "bike_id": "ab5197ab1bbcd6aa2804796287120dfc", "lat": 38.925344833333334, "type": "electric_scooter"}, {"fusion_lat": 0.0, "fusion_lon": 0.0, "rental_uris": {"android": "https://dc.lft.to/lastmile_qr_scan", "ios": "https://dc.lft.to/lastmile_qr_scan"}, "lon": -77.042244, "name": "f51b65c549ceb917637b1da258b7e82b", "is_disabled": 0, "is_reserved": 0, "bike_id": "f51b65c549ceb917637b1da258b7e82b", "lat": 38.923001666666664, "type": "electric_scooter"}, {"fusion_lat": 0.0, "fusion_lon": 0.0, "rental_uris": {"android": "https://dc.lft.to/lastmile_qr_scan", "ios": "https://dc.lft.to/lastmile_qr_scan"}, "lon": -77.0415185, "name": "9f99d98e188ac8960c4e1deaeeab6450", "is_disabled": 0, "is_reserved": 0, "bike_id": "9f99d98e188ac8960c4e1deaeeab6450", "lat": 38.901098166666664, "type": "electric_scooter"}, {"fusion_lat": 0.0, "fusion_lon": 0.0, "rental_uris": {"android": "https://dc.lft.to/lastmile_qr_scan", "ios": "https://dc.lft.to/lastmile_qr_scan"}, "lon": -77.0011805, "name": "a4bee95a7ab1a9c3a3d08d6c55991e4a", "is_disabled": 0, "is_reserved": 0, "bike_id": "a4bee95a7ab1a9c3a3d08d6c55991e4a", "lat": 38.87370216666667, "type": "electric_scooter"}, {"fusion_lat": 0.0, "fusion_lon": 0.0, "rental_uris": {"android": "https://dc.lft.to/lastmile_qr_scan", "ios": "https://dc.lft.to/lastmile_qr_scan"}, "lon": -77.01944233333333, "name": "2333b4ceedac9ce0db1849a89e71104b", "is_disabled": 0, "is_reserved": 0, "bike_id": "2333b4ceedac9ce0db1849a89e71104b", "lat": 38.9241775, "type": "electric_scooter"}, {"fusion_lat": 0.0, "fusion_lon": 0.0, "rental_uris": {"android": "https://dc.lft.to/lastmile_qr_scan", "ios": "https://dc.lft.to/lastmile_qr_scan"}, "lon": -77.05858283333333, "name": "535a556b092cf8211e29a0707eecb6c3", "is_disabled": 0, "is_reserved": 0, "bike_id": "535a556b092cf8211e29a0707eecb6c3", "lat": 38.9361045, "type": "electric_scooter"}, {"fusion_lat": 0.0, "fusion_lon": 0.0, "rental_uris": {"android": "https://dc.lft.to/lastmile_qr_scan", "ios": "https://dc.lft.to/lastmile_qr_scan"}, "lon": -77.03813183333334, "name": "31fab33a35e87e37642ae0910a0d30e8", "is_disabled": 0, "is_reserved": 0, "bike_id": "31fab33a35e87e37642ae0910a0d30e8", "lat": 38.9066865, "type": "electric_scooter"}, {"fusion_lat": 0.0, "fusion_lon": 0.0, "rental_uris": {"android": "https://dc.lft.to/lastmile_qr_scan", "ios": "https://dc.lft.to/lastmile_qr_scan"}, "lon": -77.114672, "name": "440297b1b64f16fd889ba31cf59e858a", "is_disabled": 0, "is_reserved": 0, "bike_id": "440297b1b64f16fd889ba31cf59e858a", "lat": 38.841455, "type": "electric_bike"}, {"fusion_lat": 0.0, "fusion_lon": 0.0, "rental_uris": {"android": "https://dc.lft.to/lastmile_qr_scan", "ios": "https://dc.lft.to/lastmile_qr_scan"}, "lon": -77.03198066666667, "name": "53430ce10414e60fa6a407663191740e", "is_disabled": 0, "is_reserved": 0, "bike_id": "53430ce10414e60fa6a407663191740e", "lat": 38.91508366666667, "type": "electric_scooter"}, {"fusion_lat": 0.0, "fusion_lon": 0.0, "rental_uris": {"android": "https://dc.lft.to/lastmile_qr_scan", "ios": "https://dc.lft.to/lastmile_qr_scan"}, "lon": -77.03561833333333, "name": "70a6b9f2b996254596121f1275eab273", "is_disabled": 0, "is_reserved": 0, "bike_id": "70a6b9f2b996254596121f1275eab273", "lat": 38.90831083333333, "type": "electric_scooter"}, {"fusion_lat": 0.0, "fusion_lon": 0.0, "rental_uris": {"android": "https://dc.lft.to/lastmile_qr_scan", "ios": "https://dc.lft.to/lastmile_qr_scan"}, "lon": -77.03335966666667, "name": "6afaa8bb6b558247193ccfe59e16ab09", "is_disabled": 0, "is_reserved": 0, "bike_id": "6afaa8bb6b558247193ccfe59e16ab09", "lat": 38.89829483333333, "type": "electric_scooter"}, {"fusion_lat": 0.0, "fusion_lon": 0.0, "rental_uris": {"android": "https://dc.lft.to/lastmile_qr_scan", "ios": "https://dc.lft.to/lastmile_qr_scan"}, "lon": -76.94417933333334, "name": "c35ff3271f7f3bfa8bf4db14097ff2b8", "is_disabled": 0, "is_reserved": 0, "bike_id": "c35ff3271f7f3bfa8bf4db14097ff2b8", "lat": 38.992224, "type": "electric_bike"}, {"fusion_lat": 0.0, "fusion_lon": 0.0, "rental_uris": {"android": "https://dc.lft.to/lastmile_qr_scan", "ios": "https://dc.lft.to/lastmile_qr_scan"}, "lon": -77.039989, "name": "394c5573727e77124e4891fb4dfa046a", "is_disabled": 0, "is_reserved": 0, "bike_id": "394c5573727e77124e4891fb4dfa046a", "lat": 38.902606666666664, "type": "electric_scooter"}, {"fusion_lat": 0.0, "fusion_lon": 0.0, "rental_uris": {"android": "https://dc.lft.to/lastmile_qr_scan", "ios": "https://dc.lft.to/lastmile_qr_scan"}, "lon": -77.033218, "name": "cc304e81848a7bc77f49ad5e8c8d2146", "is_disabled": 0, "is_reserved": 0, "bike_id": "cc304e81848a7bc77f49ad5e8c8d2146", "lat": 38.911105166666665, "type": "electric_scooter"}, {"fusion_lat": 0.0, "fusion_lon": 0.0, "rental_uris": {"android": "https://dc.lft.to/lastmile_qr_scan", "ios": "https://dc.lft.to/lastmile_qr_scan"}, "lon": -76.94893066666667, "name": "e2bf183042dfdb3fc1e1eeb099b29d0c", "is_disabled": 0, "is_reserved": 0, "bike_id": "e2bf183042dfdb3fc1e1eeb099b29d0c", "lat": 38.8953075, "type": "electric_scooter"}, {"fusion_lat": 0.0, "fusion_lon": 0.0, "rental_uris": {"android": "https://dc.lft.to/lastmile_qr_scan", "ios": "https://dc.lft.to/lastmile_qr_scan"}, "lon": -76.96547366666667, "name": "01922d22f3f67a7b63159ecfff37a14d", "is_disabled": 0, "is_reserved": 0, "bike_id": "01922d22f3f67a7b63159ecfff37a14d", "lat": 38.91868616666667, "type": "electric_scooter"}, {"fusion_lat": 0.0, "fusion_lon": 0.0, "rental_uris": {"android": "https://dc.lft.to/lastmile_qr_scan", "ios": "https://dc.lft.to/lastmile_qr_scan"}, "lon": -77.034053, "name": "c932768d548ff4c486a723134a9a957e", "is_disabled": 0, "is_reserved": 0, "bike_id": "c932768d548ff4c486a723134a9a957e", "lat": 38.924457833333335, "type": "electric_scooter"}, {"fusion_lat": 0.0, "fusion_lon": 0.0, "rental_uris": {"android": "https://dc.lft.to/lastmile_qr_scan", "ios": "https://dc.lft.to/lastmile_qr_scan"}, "lon": -77.0362475, "name": "b46bc1db1c3f7166fba720bb221593d4", "is_disabled": 0, "is_reserved": 0, "bike_id": "b46bc1db1c3f7166fba720bb221593d4", "lat": 38.90683933333333, "type": "electric_scooter"}, {"fusion_lat": 0.0, "fusion_lon": 0.0, "rental_uris": {"android": "https://dc.lft.to/lastmile_qr_scan", "ios": "https://dc.lft.to/lastmile_qr_scan"}, "lon": -77.12022583333334, "name": "05678ff272d05cf61fca9742b914d0f3", "is_disabled": 0, "is_reserved": 0, "bike_id": "05678ff272d05cf61fca9742b914d0f3", "lat": 38.857839, "type": "electric_bike"}, {"fusion_lat": 0.0, "fusion_lon": 0.0, "rental_uris": {"android": "https://dc.lft.to/lastmile_qr_scan", "ios": "https://dc.lft.to/lastmile_qr_scan"}, "lon": -76.97097133333334, "name": "86c91b5f00b43744f3caede8f1c63015", "is_disabled": 0, "is_reserved": 0, "bike_id": "86c91b5f00b43744f3caede8f1c63015", "lat": 38.870616, "type": "electric_scooter"}, {"fusion_lat": 0.0, "fusion_lon": 0.0, "rental_uris": {"android": "https://dc.lft.to/lastmile_qr_scan", "ios": "https://dc.lft.to/lastmile_qr_scan"}, "lon": -77.04077533333333, "name": "7a6b260f49421da16e86b75e3678b845", "is_disabled": 0, "is_reserved": 0, "bike_id": "7a6b260f49421da16e86b75e3678b845", "lat": 38.90381933333333, "type": "electric_scooter"}, {"fusion_lat": 0.0, "fusion_lon": 0.0, "rental_uris": {"android": "https://dc.lft.to/lastmile_qr_scan", "ios": "https://dc.lft.to/lastmile_qr_scan"}, "lon": -77.02096116666667, "name": "fccd772c15480012c2d6e9cd4ef8891e", "is_disabled": 0, "is_reserved": 0, "bike_id": "fccd772c15480012c2d6e9cd4ef8891e", "lat": 38.9215665, "type": "electric_scooter"}, {"fusion_lat": 0.0, "fusion_lon": 0.0, "rental_uris": {"android": "https://dc.lft.to/lastmile_qr_scan", "ios": "https://dc.lft.to/lastmile_qr_scan"}, "lon": -77.04864416666666, "name": "39dee39aeb13fc9979c2d675eb2b523e", "is_disabled": 0, "is_reserved": 0, "bike_id": "39dee39aeb13fc9979c2d675eb2b523e", "lat": 38.909566833333336, "type": "electric_bike"}, {"fusion_lat": 0.0, "fusion_lon": 0.0, "rental_uris": {"android": "https://dc.lft.to/lastmile_qr_scan", "ios": "https://dc.lft.to/lastmile_qr_scan"}, "lon": -77.049872, "name": "ed4489459f29ae4dc54521ab9b75ef0d", "is_disabled": 0, "is_reserved": 0, "bike_id": "ed4489459f29ae4dc54521ab9b75ef0d", "lat": 38.9011695, "type": "electric_scooter"}, {"fusion_lat": 0.0, "fusion_lon": 0.0, "rental_uris": {"android": "https://dc.lft.to/lastmile_qr_scan", "ios": "https://dc.lft.to/lastmile_qr_scan"}, "lon": -76.9318815, "name": "b18e6c5a4d22be2d8f2e5379d2701bd5", "is_disabled": 0, "is_reserved": 0, "bike_id": "b18e6c5a4d22be2d8f2e5379d2701bd5", "lat": 38.89878316666667, "type": "electric_scooter"}, {"fusion_lat": 0.0, "fusion_lon": 0.0, "rental_uris": {"android": "https://dc.lft.to/lastmile_qr_scan", "ios": "https://dc.lft.to/lastmile_qr_scan"}, "lon": -77.03991533333334, "name": "9d895975b1a67f9af57f0093f95dd19f", "is_disabled": 0, "is_reserved": 0, "bike_id": "9d895975b1a67f9af57f0093f95dd19f", "lat": 38.9243945, "type": "electric_scooter"}, {"fusion_lat": 0.0, "fusion_lon": 0.0, "rental_uris": {"android": "https://dc.lft.to/lastmile_qr_scan", "ios": "https://dc.lft.to/lastmile_qr_scan"}, "lon": -77.03283683333333, "name": "1b2ad013f0035eb975d2ab4f134b888c", "is_disabled": 0, "is_reserved": 0, "bike_id": "1b2ad013f0035eb975d2ab4f134b888c", "lat": 38.922728666666664, "type": "electric_scooter"}, {"fusion_lat": 0.0, "fusion_lon": 0.0, "rental_uris": {"android": "https://dc.lft.to/lastmile_qr_scan", "ios": "https://dc.lft.to/lastmile_qr_scan"}, "lon": -76.971637, "name": "7e9e9ac6c895976261931cd2f0b099ef", "is_disabled": 0, "is_reserved": 0, "bike_id": "7e9e9ac6c895976261931cd2f0b099ef", "lat": 38.9243505, "type": "electric_bike"}, {"fusion_lat": 0.0, "fusion_lon": 0.0, "rental_uris": {"android": "https://dc.lft.to/lastmile_qr_scan", "ios": "https://dc.lft.to/lastmile_qr_scan"}, "lon": -77.01232533333334, "name": "b6467cf9f1eda2976d7be4e9ebfb9d23", "is_disabled": 0, "is_reserved": 0, "bike_id": "b6467cf9f1eda2976d7be4e9ebfb9d23", "lat": 38.897352833333336, "type": "electric_scooter"}, {"fusion_lat": 0.0, "fusion_lon": 0.0, "rental_uris": {"android": "https://dc.lft.to/lastmile_qr_scan", "ios": "https://dc.lft.to/lastmile_qr_scan"}, "lon": -76.94541966666667, "name": "8ff2ab847b8680c8c9e1ce69a71e3765", "is_disabled": 0, "is_reserved": 0, "bike_id": "8ff2ab847b8680c8c9e1ce69a71e3765", "lat": 38.8996175, "type": "electric_scooter"}, {"fusion_lat": 0.0, "fusion_lon": 0.0, "rental_uris": {"android": "https://dc.lft.to/lastmile_qr_scan", "ios": "https://dc.lft.to/lastmile_qr_scan"}, "lon": -77.20138766666666, "name": "3cf96e1e35ed164e59803d3ec293c290", "is_disabled": 0, "is_reserved": 0, "bike_id": "3cf96e1e35ed164e59803d3ec293c290", "lat": 38.92216966666667, "type": "electric_bike"}, {"fusion_lat": 0.0, "fusion_lon": 0.0, "rental_uris": {"android": "https://dc.lft.to/lastmile_qr_scan", "ios": "https://dc.lft.to/lastmile_qr_scan"}, "lon": -77.10788766666667, "name": "f0b0ce372d8e2823e5abf2d6c4d2d667", "is_disabled": 0, "is_reserved": 0, "bike_id": "f0b0ce372d8e2823e5abf2d6c4d2d667", "lat": 38.85247483333333, "type": "electric_bike"}, {"fusion_lat": 0.0, "fusion_lon": 0.0, "rental_uris": {"android": "https://dc.lft.to/lastmile_qr_scan", "ios": "https://dc.lft.to/lastmile_qr_scan"}, "lon": -76.99130183333334, "name": "dd64b64bdb1605ede370c0a3d7cf56f3", "is_disabled": 0, "is_reserved": 0, "bike_id": "dd64b64bdb1605ede370c0a3d7cf56f3", "lat": 38.84637016666667, "type": "electric_scooter"}, {"fusion_lat": 0.0, "fusion_lon": 0.0, "rental_uris": {"android": "https://dc.lft.to/lastmile_qr_scan", "ios": "https://dc.lft.to/lastmile_qr_scan"}, "lon": -76.98546133333333, "name": "ffe1b6d240f074777acb21496bcb8048", "is_disabled": 0, "is_reserved": 0, "bike_id": "ffe1b6d240f074777acb21496bcb8048", "lat": 38.8668955, "type": "electric_scooter"}, {"fusion_lat": 0.0, "fusion_lon": 0.0, "rental_uris": {"android": "https://dc.lft.to/lastmile_qr_scan", "ios": "https://dc.lft.to/lastmile_qr_scan"}, "lon": -76.99513983333334, "name": "1272646807b0987ede56838ec1d4477f", "is_disabled": 0, "is_reserved": 0, "bike_id": "1272646807b0987ede56838ec1d4477f", "lat": 38.8217375, "type": "electric_bike"}, {"fusion_lat": 0.0, "fusion_lon": 0.0, "rental_uris": {"android": "https://dc.lft.to/lastmile_qr_scan", "ios": "https://dc.lft.to/lastmile_qr_scan"}, "lon": -77.0477615, "name": "4bb444d28cc23572bb3d1b9e11c4da3b", "is_disabled": 0, "is_reserved": 0, "bike_id": "4bb444d28cc23572bb3d1b9e11c4da3b", "lat": 38.90973116666667, "type": "electric_scooter"}, {"fusion_lat": 0.0, "fusion_lon": 0.0, "rental_uris": {"android": "https://dc.lft.to/lastmile_qr_scan", "ios": "https://dc.lft.to/lastmile_qr_scan"}, "lon": -76.946283, "name": "ab0c335f7fc5d5a7415e61e87f30a806", "is_disabled": 0, "is_reserved": 0, "bike_id": "ab0c335f7fc5d5a7415e61e87f30a806", "lat": 38.898254, "type": "electric_scooter"}, {"fusion_lat": 0.0, "fusion_lon": 0.0, "rental_uris": {"android": "https://dc.lft.to/lastmile_qr_scan", "ios": "https://dc.lft.to/lastmile_qr_scan"}, "lon": -77.04486683333333, "name": "b77b3ae88167b75c3e6ca8ed7399d288", "is_disabled": 0, "is_reserved": 0, "bike_id": "b77b3ae88167b75c3e6ca8ed7399d288", "lat": 38.89951383333333, "type": "electric_bike"}, {"fusion_lat": 0.0, "fusion_lon": 0.0, "rental_uris": {"android": "https://dc.lft.to/lastmile_qr_scan", "ios": "https://dc.lft.to/lastmile_qr_scan"}, "lon": -77.04017116666667, "name": "33e268c57beca8caa3e82dea669b083e", "is_disabled": 0, "is_reserved": 0, "bike_id": "33e268c57beca8caa3e82dea669b083e", "lat": 38.91798266666667, "type": "electric_scooter"}, {"fusion_lat": 0.0, "fusion_lon": 0.0, "rental_uris": {"android": "https://dc.lft.to/lastmile_qr_scan", "ios": "https://dc.lft.to/lastmile_qr_scan"}, "lon": -77.01659916666667, "name": "f44a15fb1fa33a4aa867be368e03fa3c", "is_disabled": 0, "is_reserved": 0, "bike_id": "f44a15fb1fa33a4aa867be368e03fa3c", "lat": 38.88114516666667, "type": "electric_scooter"}, {"fusion_lat": 0.0, "fusion_lon": 0.0, "rental_uris": {"android": "https://dc.lft.to/lastmile_qr_scan", "ios": "https://dc.lft.to/lastmile_qr_scan"}, "lon": -76.9972525, "name": "9f2461cdd462faeef6e1878c04d34549", "is_disabled": 0, "is_reserved": 0, "bike_id": "9f2461cdd462faeef6e1878c04d34549", "lat": 38.899351333333335, "type": "electric_scooter"}, {"fusion_lat": 0.0, "fusion_lon": 0.0, "rental_uris": {"android": "https://dc.lft.to/lastmile_qr_scan", "ios": "https://dc.lft.to/lastmile_qr_scan"}, "lon": -77.05027066666666, "name": "238f65991c791800359298b4a8c6e0ff", "is_disabled": 0, "is_reserved": 0, "bike_id": "238f65991c791800359298b4a8c6e0ff", "lat": 38.8966955, "type": "electric_scooter"}, {"fusion_lat": 0.0, "fusion_lon": 0.0, "rental_uris": {"android": "https://dc.lft.to/lastmile_qr_scan", "ios": "https://dc.lft.to/lastmile_qr_scan"}, "lon": -76.9978055, "name": "118bdbe755d698870ef3dfd9b8c5896d", "is_disabled": 0, "is_reserved": 0, "bike_id": "118bdbe755d698870ef3dfd9b8c5896d", "lat": 38.9089585, "type": "electric_scooter"}, {"fusion_lat": 0.0, "fusion_lon": 0.0, "rental_uris": {"android": "https://dc.lft.to/lastmile_qr_scan", "ios": "https://dc.lft.to/lastmile_qr_scan"}, "lon": -77.03205433333333, "name": "e1e292184bf17991c77e5b0d10acb787", "is_disabled": 0, "is_reserved": 0, "bike_id": "e1e292184bf17991c77e5b0d10acb787", "lat": 38.9178485, "type": "electric_scooter"}, {"fusion_lat": 0.0, "fusion_lon": 0.0, "rental_uris": {"android": "https://dc.lft.to/lastmile_qr_scan", "ios": "https://dc.lft.to/lastmile_qr_scan"}, "lon": -76.9970055, "name": "eb873e824be1a4f547a27eff69e91801", "is_disabled": 0, "is_reserved": 0, "bike_id": "eb873e824be1a4f547a27eff69e91801", "lat": 38.88423433333333, "type": "electric_scooter"}, {"fusion_lat": 0.0, "fusion_lon": 0.0, "rental_uris": {"android": "https://dc.lft.to/lastmile_qr_scan", "ios": "https://dc.lft.to/lastmile_qr_scan"}, "lon": -77.03325716666667, "name": "aeb1e0c4c1a986576061b8c246bf62c0", "is_disabled": 0, "is_reserved": 0, "bike_id": "aeb1e0c4c1a986576061b8c246bf62c0", "lat": 38.89009566666667, "type": "electric_scooter"}, {"fusion_lat": 0.0, "fusion_lon": 0.0, "rental_uris": {"android": "https://dc.lft.to/lastmile_qr_scan", "ios": "https://dc.lft.to/lastmile_qr_scan"}, "lon": -77.022125, "name": "bd7ef1bfdcac93ce26d828b5d1d18c7f", "is_disabled": 0, "is_reserved": 0, "bike_id": "bd7ef1bfdcac93ce26d828b5d1d18c7f", "lat": 38.93397066666667, "type": "electric_bike"}, {"fusion_lat": 0.0, "fusion_lon": 0.0, "rental_uris": {"android": "https://dc.lft.to/lastmile_qr_scan", "ios": "https://dc.lft.to/lastmile_qr_scan"}, "lon": -77.02170766666667, "name": "6d8954233d3c26874294ae178aa2aa38", "is_disabled": 0, "is_reserved": 0, "bike_id": "6d8954233d3c26874294ae178aa2aa38", "lat": 38.94291833333333, "type": "electric_scooter"}, {"fusion_lat": 0.0, "fusion_lon": 0.0, "rental_uris": {"android": "https://dc.lft.to/lastmile_qr_scan", "ios": "https://dc.lft.to/lastmile_qr_scan"}, "lon": -77.03739666666667, "name": "a4809dca19abda74e54bbab84e4d4f2c", "is_disabled": 0, "is_reserved": 0, "bike_id": "a4809dca19abda74e54bbab84e4d4f2c", "lat": 38.928778666666666, "type": "electric_scooter"}, {"fusion_lat": 0.0, "fusion_lon": 0.0, "rental_uris": {"android": "https://dc.lft.to/lastmile_qr_scan", "ios": "https://dc.lft.to/lastmile_qr_scan"}, "lon": -77.0318685, "name": "6879cddb5765b91fade6757640afe7d0", "is_disabled": 0, "is_reserved": 0, "bike_id": "6879cddb5765b91fade6757640afe7d0", "lat": 38.919253499999996, "type": "electric_scooter"}, {"fusion_lat": 0.0, "fusion_lon": 0.0, "rental_uris": {"android": "https://dc.lft.to/lastmile_qr_scan", "ios": "https://dc.lft.to/lastmile_qr_scan"}, "lon": -77.017829, "name": "dd1b3ac442eff72d0fb8ba5d37c35fdf", "is_disabled": 0, "is_reserved": 0, "bike_id": "dd1b3ac442eff72d0fb8ba5d37c35fdf", "lat": 38.87719033333333, "type": "electric_scooter"}, {"fusion_lat": 0.0, "fusion_lon": 0.0, "rental_uris": {"android": "https://dc.lft.to/lastmile_qr_scan", "ios": "https://dc.lft.to/lastmile_qr_scan"}, "lon": -77.04360366666667, "name": "788fb100f35e7e3526b60afe02451682", "is_disabled": 0, "is_reserved": 0, "bike_id": "788fb100f35e7e3526b60afe02451682", "lat": 38.921210333333335, "type": "electric_scooter"}, {"fusion_lat": 0.0, "fusion_lon": 0.0, "rental_uris": {"android": "https://dc.lft.to/lastmile_qr_scan", "ios": "https://dc.lft.to/lastmile_qr_scan"}, "lon": -77.05044566666666, "name": "85f8793286e008d306d5de5da6adce11", "is_disabled": 0, "is_reserved": 0, "bike_id": "85f8793286e008d306d5de5da6adce11", "lat": 38.923382333333336, "type": "electric_scooter"}, {"fusion_lat": 0.0, "fusion_lon": 0.0, "rental_uris": {"android": "https://dc.lft.to/lastmile_qr_scan", "ios": "https://dc.lft.to/lastmile_qr_scan"}, "lon": -77.044936, "name": "81f9de793e54dcbcc3441641bdcbf9da", "is_disabled": 0, "is_reserved": 0, "bike_id": "81f9de793e54dcbcc3441641bdcbf9da", "lat": 38.899406166666665, "type": "electric_scooter"}, {"fusion_lat": 0.0, "fusion_lon": 0.0, "rental_uris": {"android": "https://dc.lft.to/lastmile_qr_scan", "ios": "https://dc.lft.to/lastmile_qr_scan"}, "lon": -77.02159716666667, "name": "60ba1a7cbd30ff42fd8f2dd9052d908a", "is_disabled": 0, "is_reserved": 0, "bike_id": "60ba1a7cbd30ff42fd8f2dd9052d908a", "lat": 38.926110666666666, "type": "electric_scooter"}, {"fusion_lat": 0.0, "fusion_lon": 0.0, "rental_uris": {"android": "https://dc.lft.to/lastmile_qr_scan", "ios": "https://dc.lft.to/lastmile_qr_scan"}, "lon": -77.038558, "name": "1cae4c0f8b76117ab4f14b8aea284a15", "is_disabled": 0, "is_reserved": 0, "bike_id": "1cae4c0f8b76117ab4f14b8aea284a15", "lat": 38.90299483333333, "type": "electric_scooter"}, {"fusion_lat": 0.0, "fusion_lon": 0.0, "rental_uris": {"android": "https://dc.lft.to/lastmile_qr_scan", "ios": "https://dc.lft.to/lastmile_qr_scan"}, "lon": -77.013577, "name": "e4a2b6c8e7288474d5d2769f9b8608b5", "is_disabled": 0, "is_reserved": 0, "bike_id": "e4a2b6c8e7288474d5d2769f9b8608b5", "lat": 38.892204666666665, "type": "electric_scooter"}, {"fusion_lat": 0.0, "fusion_lon": 0.0, "rental_uris": {"android": "https://dc.lft.to/lastmile_qr_scan", "ios": "https://dc.lft.to/lastmile_qr_scan"}, "lon": -76.98566033333333, "name": "279993479953f3633a00b59d1eb8191e", "is_disabled": 0, "is_reserved": 0, "bike_id": "279993479953f3633a00b59d1eb8191e", "lat": 38.86683466666667, "type": "electric_scooter"}, {"fusion_lat": 0.0, "fusion_lon": 0.0, "rental_uris": {"android": "https://dc.lft.to/lastmile_qr_scan", "ios": "https://dc.lft.to/lastmile_qr_scan"}, "lon": -77.03212216666667, "name": "de09c0d7ed5253d73d3635df430f0360", "is_disabled": 0, "is_reserved": 0, "bike_id": "de09c0d7ed5253d73d3635df430f0360", "lat": 38.918415833333334, "type": "electric_scooter"}, {"fusion_lat": 0.0, "fusion_lon": 0.0, "rental_uris": {"android": "https://dc.lft.to/lastmile_qr_scan", "ios": "https://dc.lft.to/lastmile_qr_scan"}, "lon": -76.965269, "name": "1e5f91762779110685372cb24140fae8", "is_disabled": 0, "is_reserved": 0, "bike_id": "1e5f91762779110685372cb24140fae8", "lat": 38.876276, "type": "electric_scooter"}, {"fusion_lat": 0.0, "fusion_lon": 0.0, "rental_uris": {"android": "https://dc.lft.to/lastmile_qr_scan", "ios": "https://dc.lft.to/lastmile_qr_scan"}, "lon": -76.98617683333333, "name": "0142e24d75583eb36ccc9c3915ef69bc", "is_disabled": 0, "is_reserved": 0, "bike_id": "0142e24d75583eb36ccc9c3915ef69bc", "lat": 38.882878, "type": "electric_scooter"}, {"fusion_lat": 0.0, "fusion_lon": 0.0, "rental_uris": {"android": "https://dc.lft.to/lastmile_qr_scan", "ios": "https://dc.lft.to/lastmile_qr_scan"}, "lon": -77.03140366666666, "name": "732480e0ee9432738a177228d563ff03", "is_disabled": 0, "is_reserved": 0, "bike_id": "732480e0ee9432738a177228d563ff03", "lat": 38.918243, "type": "electric_scooter"}, {"fusion_lat": 0.0, "fusion_lon": 0.0, "rental_uris": {"android": "https://dc.lft.to/lastmile_qr_scan", "ios": "https://dc.lft.to/lastmile_qr_scan"}, "lon": -77.041887, "name": "da8423ce641a4c917f16e7e35b490a07", "is_disabled": 0, "is_reserved": 0, "bike_id": "da8423ce641a4c917f16e7e35b490a07", "lat": 38.90578333333333, "type": "electric_scooter"}, {"fusion_lat": 0.0, "fusion_lon": 0.0, "rental_uris": {"android": "https://dc.lft.to/lastmile_qr_scan", "ios": "https://dc.lft.to/lastmile_qr_scan"}, "lon": -76.98765466666667, "name": "3e059717c62237ff816a2e65d4043e8a", "is_disabled": 0, "is_reserved": 0, "bike_id": "3e059717c62237ff816a2e65d4043e8a", "lat": 38.90024566666666, "type": "electric_scooter"}, {"fusion_lat": 0.0, "fusion_lon": 0.0, "rental_uris": {"android": "https://dc.lft.to/lastmile_qr_scan", "ios": "https://dc.lft.to/lastmile_qr_scan"}, "lon": -77.02096616666667, "name": "8de089d1a51a6e0c394be904f7f8119d", "is_disabled": 0, "is_reserved": 0, "bike_id": "8de089d1a51a6e0c394be904f7f8119d", "lat": 38.881818833333334, "type": "electric_scooter"}, {"fusion_lat": 0.0, "fusion_lon": 0.0, "rental_uris": {"android": "https://dc.lft.to/lastmile_qr_scan", "ios": "https://dc.lft.to/lastmile_qr_scan"}, "lon": -76.946388, "name": "8617f2812b292012b4b9e425dbe7fb17", "is_disabled": 0, "is_reserved": 0, "bike_id": "8617f2812b292012b4b9e425dbe7fb17", "lat": 38.89859933333334, "type": "electric_scooter"}, {"fusion_lat": 0.0, "fusion_lon": 0.0, "rental_uris": {"android": "https://dc.lft.to/lastmile_qr_scan", "ios": "https://dc.lft.to/lastmile_qr_scan"}, "lon": -76.9860015, "name": "3ebcd3377460a84429d07b1f902e05ed", "is_disabled": 0, "is_reserved": 0, "bike_id": "3ebcd3377460a84429d07b1f902e05ed", "lat": 38.9001075, "type": "electric_scooter"}, {"fusion_lat": 0.0, "fusion_lon": 0.0, "rental_uris": {"android": "https://dc.lft.to/lastmile_qr_scan", "ios": "https://dc.lft.to/lastmile_qr_scan"}, "lon": -76.97547283333333, "name": "a903e2c95822615d54e10ba5fe6e6c11", "is_disabled": 0, "is_reserved": 0, "bike_id": "a903e2c95822615d54e10ba5fe6e6c11", "lat": 38.903194666666664, "type": "electric_scooter"}, {"fusion_lat": 0.0, "fusion_lon": 0.0, "rental_uris": {"android": "https://dc.lft.to/lastmile_qr_scan", "ios": "https://dc.lft.to/lastmile_qr_scan"}, "lon": -77.0421895, "name": "391b87ff94dca77485abdb7cd529b566", "is_disabled": 0, "is_reserved": 0, "bike_id": "391b87ff94dca77485abdb7cd529b566", "lat": 38.9140935, "type": "electric_scooter"}, {"fusion_lat": 0.0, "fusion_lon": 0.0, "rental_uris": {"android": "https://dc.lft.to/lastmile_qr_scan", "ios": "https://dc.lft.to/lastmile_qr_scan"}, "lon": -77.020943, "name": "bfeceb47c5cf393791934e670cfddfd4", "is_disabled": 0, "is_reserved": 0, "bike_id": "bfeceb47c5cf393791934e670cfddfd4", "lat": 38.96644766666667, "type": "electric_scooter"}, {"fusion_lat": 0.0, "fusion_lon": 0.0, "rental_uris": {"android": "https://dc.lft.to/lastmile_qr_scan", "ios": "https://dc.lft.to/lastmile_qr_scan"}, "lon": -77.0995675, "name": "77ca236f9773486b3e995694b06d2fc4", "is_disabled": 0, "is_reserved": 0, "bike_id": "77ca236f9773486b3e995694b06d2fc4", "lat": 38.85783416666666, "type": "electric_bike"}, {"fusion_lat": 0.0, "fusion_lon": 0.0, "rental_uris": {"android": "https://dc.lft.to/lastmile_qr_scan", "ios": "https://dc.lft.to/lastmile_qr_scan"}, "lon": -77.0320385, "name": "754ccf849ebe36c6033ff6a4b886cda6", "is_disabled": 0, "is_reserved": 0, "bike_id": "754ccf849ebe36c6033ff6a4b886cda6", "lat": 38.91344983333333, "type": "electric_scooter"}, {"fusion_lat": 0.0, "fusion_lon": 0.0, "rental_uris": {"android": "https://dc.lft.to/lastmile_qr_scan", "ios": "https://dc.lft.to/lastmile_qr_scan"}, "lon": -77.04532783333333, "name": "5302439dcb78e01c45bb92b52574e54d", "is_disabled": 0, "is_reserved": 0, "bike_id": "5302439dcb78e01c45bb92b52574e54d", "lat": 39.0330615, "type": "electric_bike"}, {"fusion_lat": 0.0, "fusion_lon": 0.0, "rental_uris": {"android": "https://dc.lft.to/lastmile_qr_scan", "ios": "https://dc.lft.to/lastmile_qr_scan"}, "lon": -76.95838183333333, "name": "45b3ad6b99b86d145c4a8d197b6563ce", "is_disabled": 0, "is_reserved": 0, "bike_id": "45b3ad6b99b86d145c4a8d197b6563ce", "lat": 38.930448166666665, "type": "electric_bike"}, {"fusion_lat": 0.0, "fusion_lon": 0.0, "rental_uris": {"android": "https://dc.lft.to/lastmile_qr_scan", "ios": "https://dc.lft.to/lastmile_qr_scan"}, "lon": -77.051526, "name": "e464224cc3543591e0d6f793e0d824c3", "is_disabled": 0, "is_reserved": 0, "bike_id": "e464224cc3543591e0d6f793e0d824c3", "lat": 38.923749666666666, "type": "electric_scooter"}, {"fusion_lat": 0.0, "fusion_lon": 0.0, "rental_uris": {"android": "https://dc.lft.to/lastmile_qr_scan", "ios": "https://dc.lft.to/lastmile_qr_scan"}, "lon": -77.02848266666666, "name": "e3ad36bbc2db3f2acfca15844b36bb6b", "is_disabled": 0, "is_reserved": 0, "bike_id": "e3ad36bbc2db3f2acfca15844b36bb6b", "lat": 38.893604, "type": "electric_scooter"}, {"fusion_lat": 0.0, "fusion_lon": 0.0, "rental_uris": {"android": "https://dc.lft.to/lastmile_qr_scan", "ios": "https://dc.lft.to/lastmile_qr_scan"}, "lon": -77.03304516666667, "name": "cfb792cbf4d48bd417fcad279362a722", "is_disabled": 0, "is_reserved": 0, "bike_id": "cfb792cbf4d48bd417fcad279362a722", "lat": 38.9034915, "type": "electric_scooter"}, {"fusion_lat": 0.0, "fusion_lon": 0.0, "rental_uris": {"android": "https://dc.lft.to/lastmile_qr_scan", "ios": "https://dc.lft.to/lastmile_qr_scan"}, "lon": -77.0061015, "name": "73523237be79649bd9a0fda48a5565e1", "is_disabled": 0, "is_reserved": 0, "bike_id": "73523237be79649bd9a0fda48a5565e1", "lat": 38.87180766666667, "type": "electric_scooter"}, {"fusion_lat": 0.0, "fusion_lon": 0.0, "rental_uris": {"android": "https://dc.lft.to/lastmile_qr_scan", "ios": "https://dc.lft.to/lastmile_qr_scan"}, "lon": -76.972338, "name": "3e4b5970d476cb283d7fb25dd0309bd4", "is_disabled": 0, "is_reserved": 0, "bike_id": "3e4b5970d476cb283d7fb25dd0309bd4", "lat": 38.90424066666667, "type": "electric_bike"}, {"fusion_lat": 0.0, "fusion_lon": 0.0, "rental_uris": {"android": "https://dc.lft.to/lastmile_qr_scan", "ios": "https://dc.lft.to/lastmile_qr_scan"}, "lon": -77.04094066666667, "name": "bd39e36abe2f18751bb908e42f311eb4", "is_disabled": 0, "is_reserved": 0, "bike_id": "bd39e36abe2f18751bb908e42f311eb4", "lat": 38.9173, "type": "electric_scooter"}, {"fusion_lat": 0.0, "fusion_lon": 0.0, "rental_uris": {"android": "https://dc.lft.to/lastmile_qr_scan", "ios": "https://dc.lft.to/lastmile_qr_scan"}, "lon": -77.02455883333333, "name": "82f3b37915d0dea5dfda979d3b106840", "is_disabled": 0, "is_reserved": 0, "bike_id": "82f3b37915d0dea5dfda979d3b106840", "lat": 38.9170175, "type": "electric_scooter"}, {"fusion_lat": 0.0, "fusion_lon": 0.0, "rental_uris": {"android": "https://dc.lft.to/lastmile_qr_scan", "ios": "https://dc.lft.to/lastmile_qr_scan"}, "lon": -76.98252033333333, "name": "44986e0550f314922cecc7572e0b6fbf", "is_disabled": 0, "is_reserved": 0, "bike_id": "44986e0550f314922cecc7572e0b6fbf", "lat": 38.89543233333333, "type": "electric_scooter"}, {"fusion_lat": 0.0, "fusion_lon": 0.0, "rental_uris": {"android": "https://dc.lft.to/lastmile_qr_scan", "ios": "https://dc.lft.to/lastmile_qr_scan"}, "lon": -77.0297415, "name": "28b9013cbf87ec2c66fea39788c38e26", "is_disabled": 0, "is_reserved": 0, "bike_id": "28b9013cbf87ec2c66fea39788c38e26", "lat": 38.898406666666666, "type": "electric_scooter"}, {"fusion_lat": 0.0, "fusion_lon": 0.0, "rental_uris": {"android": "https://dc.lft.to/lastmile_qr_scan", "ios": "https://dc.lft.to/lastmile_qr_scan"}, "lon": -77.01955133333334, "name": "2fae34d4ba99aea46f22318b04e7a081", "is_disabled": 0, "is_reserved": 0, "bike_id": "2fae34d4ba99aea46f22318b04e7a081", "lat": 38.923284333333335, "type": "electric_scooter"}, {"fusion_lat": 0.0, "fusion_lon": 0.0, "rental_uris": {"android": "https://dc.lft.to/lastmile_qr_scan", "ios": "https://dc.lft.to/lastmile_qr_scan"}, "lon": -77.03437083333333, "name": "9d5752bd68a9ea577ffd334d1fc66774", "is_disabled": 0, "is_reserved": 0, "bike_id": "9d5752bd68a9ea577ffd334d1fc66774", "lat": 38.90254516666667, "type": "electric_scooter"}, {"fusion_lat": 0.0, "fusion_lon": 0.0, "rental_uris": {"android": "https://dc.lft.to/lastmile_qr_scan", "ios": "https://dc.lft.to/lastmile_qr_scan"}, "lon": -77.0210025, "name": "cdbbe985a6c0781281b55a99fd06febf", "is_disabled": 0, "is_reserved": 0, "bike_id": "cdbbe985a6c0781281b55a99fd06febf", "lat": 38.90087783333333, "type": "electric_scooter"}, {"fusion_lat": 0.0, "fusion_lon": 0.0, "rental_uris": {"android": "https://dc.lft.to/lastmile_qr_scan", "ios": "https://dc.lft.to/lastmile_qr_scan"}, "lon": -76.92654683333333, "name": "bdfccc177a18b50fc9b35ea3ffef995d", "is_disabled": 0, "is_reserved": 0, "bike_id": "bdfccc177a18b50fc9b35ea3ffef995d", "lat": 38.90170333333333, "type": "electric_scooter"}, {"fusion_lat": 0.0, "fusion_lon": 0.0, "rental_uris": {"android": "https://dc.lft.to/lastmile_qr_scan", "ios": "https://dc.lft.to/lastmile_qr_scan"}, "lon": -76.952466, "name": "0cdff3c2370e06854a40f33da7b4d0ac", "is_disabled": 0, "is_reserved": 0, "bike_id": "0cdff3c2370e06854a40f33da7b4d0ac", "lat": 38.890428666666665, "type": "electric_scooter"}, {"fusion_lat": 0.0, "fusion_lon": 0.0, "rental_uris": {"android": "https://dc.lft.to/lastmile_qr_scan", "ios": "https://dc.lft.to/lastmile_qr_scan"}, "lon": -76.9889275, "name": "b32694ca1d430d3fba531bce88b4b245", "is_disabled": 0, "is_reserved": 0, "bike_id": "b32694ca1d430d3fba531bce88b4b245", "lat": 38.866619166666666, "type": "electric_scooter"}, {"fusion_lat": 0.0, "fusion_lon": 0.0, "rental_uris": {"android": "https://dc.lft.to/lastmile_qr_scan", "ios": "https://dc.lft.to/lastmile_qr_scan"}, "lon": -77.010233, "name": "cfdbf71bb6a31a08a887ec98dbd21cc2", "is_disabled": 0, "is_reserved": 0, "bike_id": "cfdbf71bb6a31a08a887ec98dbd21cc2", "lat": 38.920313666666665, "type": "electric_scooter"}, {"fusion_lat": 0.0, "fusion_lon": 0.0, "rental_uris": {"android": "https://dc.lft.to/lastmile_qr_scan", "ios": "https://dc.lft.to/lastmile_qr_scan"}, "lon": -77.03287583333334, "name": "0b0161c841605c0923a25a0693a1e365", "is_disabled": 0, "is_reserved": 0, "bike_id": "0b0161c841605c0923a25a0693a1e365", "lat": 38.89890916666667, "type": "electric_scooter"}, {"fusion_lat": 0.0, "fusion_lon": 0.0, "rental_uris": {"android": "https://dc.lft.to/lastmile_qr_scan", "ios": "https://dc.lft.to/lastmile_qr_scan"}, "lon": -77.028001, "name": "91f5fb685b51c59ea01280ff9709aae2", "is_disabled": 0, "is_reserved": 0, "bike_id": "91f5fb685b51c59ea01280ff9709aae2", "lat": 38.899239666666666, "type": "electric_scooter"}, {"fusion_lat": 0.0, "fusion_lon": 0.0, "rental_uris": {"android": "https://dc.lft.to/lastmile_qr_scan", "ios": "https://dc.lft.to/lastmile_qr_scan"}, "lon": -77.03195166666667, "name": "b42d95466e20409909fb0dbc3202fd52", "is_disabled": 0, "is_reserved": 0, "bike_id": "b42d95466e20409909fb0dbc3202fd52", "lat": 38.908678333333334, "type": "electric_scooter"}, {"fusion_lat": 0.0, "fusion_lon": 0.0, "rental_uris": {"android": "https://dc.lft.to/lastmile_qr_scan", "ios": "https://dc.lft.to/lastmile_qr_scan"}, "lon": -76.976279, "name": "97921c160634c4678c213ff38569a9ec", "is_disabled": 0, "is_reserved": 0, "bike_id": "97921c160634c4678c213ff38569a9ec", "lat": 38.901542, "type": "electric_scooter"}, {"fusion_lat": 0.0, "fusion_lon": 0.0, "rental_uris": {"android": "https://dc.lft.to/lastmile_qr_scan", "ios": "https://dc.lft.to/lastmile_qr_scan"}, "lon": -77.041214, "name": "2b7fefe299064ac74ba848f598f2189b", "is_disabled": 0, "is_reserved": 0, "bike_id": "2b7fefe299064ac74ba848f598f2189b", "lat": 38.925283666666665, "type": "electric_scooter"}, {"fusion_lat": 0.0, "fusion_lon": 0.0, "rental_uris": {"android": "https://dc.lft.to/lastmile_qr_scan", "ios": "https://dc.lft.to/lastmile_qr_scan"}, "lon": -77.00932616666667, "name": "733128926c4d5ab8c335ea5b6698eb7d", "is_disabled": 0, "is_reserved": 0, "bike_id": "733128926c4d5ab8c335ea5b6698eb7d", "lat": 38.875039666666666, "type": "electric_scooter"}, {"fusion_lat": 0.0, "fusion_lon": 0.0, "rental_uris": {"android": "https://dc.lft.to/lastmile_qr_scan", "ios": "https://dc.lft.to/lastmile_qr_scan"}, "lon": -77.03590283333334, "name": "ddae0d5ca7921775b84cca1fd8f58323", "is_disabled": 0, "is_reserved": 0, "bike_id": "ddae0d5ca7921775b84cca1fd8f58323", "lat": 38.93145966666667, "type": "electric_scooter"}, {"fusion_lat": 0.0, "fusion_lon": 0.0, "rental_uris": {"android": "https://dc.lft.to/lastmile_qr_scan", "ios": "https://dc.lft.to/lastmile_qr_scan"}, "lon": -77.01146533333333, "name": "f2bb69772f1f6a73670f2e68e5cd536f", "is_disabled": 0, "is_reserved": 0, "bike_id": "f2bb69772f1f6a73670f2e68e5cd536f", "lat": 38.92959033333333, "type": "electric_scooter"}, {"fusion_lat": 0.0, "fusion_lon": 0.0, "rental_uris": {"android": "https://dc.lft.to/lastmile_qr_scan", "ios": "https://dc.lft.to/lastmile_qr_scan"}, "lon": -77.00841616666666, "name": "2a0c7d58d68d1703ab734ff5cdc549df", "is_disabled": 0, "is_reserved": 0, "bike_id": "2a0c7d58d68d1703ab734ff5cdc549df", "lat": 38.876435666666666, "type": "electric_scooter"}, {"fusion_lat": 0.0, "fusion_lon": 0.0, "rental_uris": {"android": "https://dc.lft.to/lastmile_qr_scan", "ios": "https://dc.lft.to/lastmile_qr_scan"}, "lon": -77.03220433333334, "name": "435e8c71a416e8cbe528d951b6026896", "is_disabled": 0, "is_reserved": 0, "bike_id": "435e8c71a416e8cbe528d951b6026896", "lat": 38.8847, "type": "electric_scooter"}, {"fusion_lat": 0.0, "fusion_lon": 0.0, "rental_uris": {"android": "https://dc.lft.to/lastmile_qr_scan", "ios": "https://dc.lft.to/lastmile_qr_scan"}, "lon": -77.031265, "name": "b634a46182f01375bda62ebe36fdf4ab", "is_disabled": 0, "is_reserved": 0, "bike_id": "b634a46182f01375bda62ebe36fdf4ab", "lat": 38.920189666666666, "type": "electric_scooter"}, {"fusion_lat": 0.0, "fusion_lon": 0.0, "rental_uris": {"android": "https://dc.lft.to/lastmile_qr_scan", "ios": "https://dc.lft.to/lastmile_qr_scan"}, "lon": -77.04494733333334, "name": "c6aaebec0f3a4137d2b01b59b63f1fa9", "is_disabled": 0, "is_reserved": 0, "bike_id": "c6aaebec0f3a4137d2b01b59b63f1fa9", "lat": 38.898211833333335, "type": "electric_scooter"}, {"fusion_lat": 0.0, "fusion_lon": 0.0, "rental_uris": {"android": "https://dc.lft.to/lastmile_qr_scan", "ios": "https://dc.lft.to/lastmile_qr_scan"}, "lon": -77.02286233333334, "name": "38306abe28d8d227d200acec5bdc0da7", "is_disabled": 0, "is_reserved": 0, "bike_id": "38306abe28d8d227d200acec5bdc0da7", "lat": 38.89514066666667, "type": "electric_scooter"}, {"fusion_lat": 0.0, "fusion_lon": 0.0, "rental_uris": {"android": "https://dc.lft.to/lastmile_qr_scan", "ios": "https://dc.lft.to/lastmile_qr_scan"}, "lon": -77.011061, "name": "da28ba53a8c8aea18654bba3c4749799", "is_disabled": 0, "is_reserved": 0, "bike_id": "da28ba53a8c8aea18654bba3c4749799", "lat": 38.90967883333333, "type": "electric_scooter"}, {"fusion_lat": 0.0, "fusion_lon": 0.0, "rental_uris": {"android": "https://dc.lft.to/lastmile_qr_scan", "ios": "https://dc.lft.to/lastmile_qr_scan"}, "lon": -77.03272416666667, "name": "e3ba25574b706c42ee12e77d3d544941", "is_disabled": 0, "is_reserved": 0, "bike_id": "e3ba25574b706c42ee12e77d3d544941", "lat": 38.928064166666665, "type": "electric_scooter"}, {"fusion_lat": 0.0, "fusion_lon": 0.0, "rental_uris": {"android": "https://dc.lft.to/lastmile_qr_scan", "ios": "https://dc.lft.to/lastmile_qr_scan"}, "lon": -76.96901283333334, "name": "33ebd2d493120d82cf9bc25f662bdfbe", "is_disabled": 0, "is_reserved": 0, "bike_id": "33ebd2d493120d82cf9bc25f662bdfbe", "lat": 38.87297133333333, "type": "electric_scooter"}, {"fusion_lat": 0.0, "fusion_lon": 0.0, "rental_uris": {"android": "https://dc.lft.to/lastmile_qr_scan", "ios": "https://dc.lft.to/lastmile_qr_scan"}, "lon": -77.04996883333334, "name": "a5245c97c4b57a277f0ae191a302dd71", "is_disabled": 0, "is_reserved": 0, "bike_id": "a5245c97c4b57a277f0ae191a302dd71", "lat": 38.8983565, "type": "electric_scooter"}, {"fusion_lat": 0.0, "fusion_lon": 0.0, "rental_uris": {"android": "https://dc.lft.to/lastmile_qr_scan", "ios": "https://dc.lft.to/lastmile_qr_scan"}, "lon": -77.05108733333333, "name": "ceec2adc39751aa4ec5887099cfd69ec", "is_disabled": 0, "is_reserved": 0, "bike_id": "ceec2adc39751aa4ec5887099cfd69ec", "lat": 38.81331766666667, "type": "electric_bike"}, {"fusion_lat": 0.0, "fusion_lon": 0.0, "rental_uris": {"android": "https://dc.lft.to/lastmile_qr_scan", "ios": "https://dc.lft.to/lastmile_qr_scan"}, "lon": -77.05506483333333, "name": "2d29e37fbfc2e57591c5f3b3e8b96af3", "is_disabled": 0, "is_reserved": 0, "bike_id": "2d29e37fbfc2e57591c5f3b3e8b96af3", "lat": 38.92942733333334, "type": "electric_scooter"}, {"fusion_lat": 0.0, "fusion_lon": 0.0, "rental_uris": {"android": "https://dc.lft.to/lastmile_qr_scan", "ios": "https://dc.lft.to/lastmile_qr_scan"}, "lon": -77.00236833333334, "name": "1ba364a3d9feac07f85262dd208b6b6e", "is_disabled": 0, "is_reserved": 0, "bike_id": "1ba364a3d9feac07f85262dd208b6b6e", "lat": 38.87503516666666, "type": "electric_scooter"}, {"fusion_lat": 0.0, "fusion_lon": 0.0, "rental_uris": {"android": "https://dc.lft.to/lastmile_qr_scan", "ios": "https://dc.lft.to/lastmile_qr_scan"}, "lon": -77.03946266666667, "name": "d20feb953975a54c7b1af0c3e883d64e", "is_disabled": 0, "is_reserved": 0, "bike_id": "d20feb953975a54c7b1af0c3e883d64e", "lat": 38.903102, "type": "electric_scooter"}, {"fusion_lat": 0.0, "fusion_lon": 0.0, "rental_uris": {"android": "https://dc.lft.to/lastmile_qr_scan", "ios": "https://dc.lft.to/lastmile_qr_scan"}, "lon": -77.02405166666667, "name": "41243ae146b4ca2b9746f595e7dad2a3", "is_disabled": 0, "is_reserved": 0, "bike_id": "41243ae146b4ca2b9746f595e7dad2a3", "lat": 38.90573166666667, "type": "electric_scooter"}, {"fusion_lat": 0.0, "fusion_lon": 0.0, "rental_uris": {"android": "https://dc.lft.to/lastmile_qr_scan", "ios": "https://dc.lft.to/lastmile_qr_scan"}, "lon": -77.005917, "name": "b40d9f64c2d69338b616cb5eb414b2ee", "is_disabled": 0, "is_reserved": 0, "bike_id": "b40d9f64c2d69338b616cb5eb414b2ee", "lat": 38.875577666666665, "type": "electric_scooter"}, {"fusion_lat": 0.0, "fusion_lon": 0.0, "rental_uris": {"android": "https://dc.lft.to/lastmile_qr_scan", "ios": "https://dc.lft.to/lastmile_qr_scan"}, "lon": -77.0363495, "name": "5836b0abb6a4d7d7eb913b8540825b3c", "is_disabled": 0, "is_reserved": 0, "bike_id": "5836b0abb6a4d7d7eb913b8540825b3c", "lat": 38.92737183333333, "type": "electric_scooter"}, {"fusion_lat": 0.0, "fusion_lon": 0.0, "rental_uris": {"android": "https://dc.lft.to/lastmile_qr_scan", "ios": "https://dc.lft.to/lastmile_qr_scan"}, "lon": -77.03402633333333, "name": "d2a0bb1d9bcdd3f0683cb2e650dbae2b", "is_disabled": 0, "is_reserved": 0, "bike_id": "d2a0bb1d9bcdd3f0683cb2e650dbae2b", "lat": 38.921971666666664, "type": "electric_scooter"}, {"fusion_lat": 0.0, "fusion_lon": 0.0, "rental_uris": {"android": "https://dc.lft.to/lastmile_qr_scan", "ios": "https://dc.lft.to/lastmile_qr_scan"}, "lon": -77.020893, "name": "ab5243481d9bde1f36ed705b90f46465", "is_disabled": 0, "is_reserved": 0, "bike_id": "ab5243481d9bde1f36ed705b90f46465", "lat": 38.9210615, "type": "electric_scooter"}, {"fusion_lat": 0.0, "fusion_lon": 0.0, "rental_uris": {"android": "https://dc.lft.to/lastmile_qr_scan", "ios": "https://dc.lft.to/lastmile_qr_scan"}, "lon": -76.98543766666667, "name": "4b304ce739c5f0e748531346ce85c635", "is_disabled": 0, "is_reserved": 0, "bike_id": "4b304ce739c5f0e748531346ce85c635", "lat": 38.8799555, "type": "electric_scooter"}, {"fusion_lat": 0.0, "fusion_lon": 0.0, "rental_uris": {"android": "https://dc.lft.to/lastmile_qr_scan", "ios": "https://dc.lft.to/lastmile_qr_scan"}, "lon": -77.02506, "name": "d445728c350228503063e4d5e4611abe", "is_disabled": 0, "is_reserved": 0, "bike_id": "d445728c350228503063e4d5e4611abe", "lat": 38.90728083333333, "type": "electric_scooter"}, {"fusion_lat": 0.0, "fusion_lon": 0.0, "rental_uris": {"android": "https://dc.lft.to/lastmile_qr_scan", "ios": "https://dc.lft.to/lastmile_qr_scan"}, "lon": -77.03830716666667, "name": "6ef1da6d3c370b821b0a249adb040949", "is_disabled": 0, "is_reserved": 0, "bike_id": "6ef1da6d3c370b821b0a249adb040949", "lat": 38.912628, "type": "electric_scooter"}, {"fusion_lat": 0.0, "fusion_lon": 0.0, "rental_uris": {"android": "https://dc.lft.to/lastmile_qr_scan", "ios": "https://dc.lft.to/lastmile_qr_scan"}, "lon": -77.02386166666666, "name": "2e35db00039dc724b8d2b43134346c67", "is_disabled": 0, "is_reserved": 0, "bike_id": "2e35db00039dc724b8d2b43134346c67", "lat": 38.912883666666666, "type": "electric_scooter"}, {"fusion_lat": 0.0, "fusion_lon": 0.0, "rental_uris": {"android": "https://dc.lft.to/lastmile_qr_scan", "ios": "https://dc.lft.to/lastmile_qr_scan"}, "lon": -77.0258965, "name": "b560935e6b083d4e22733efee6236a38", "is_disabled": 0, "is_reserved": 0, "bike_id": "b560935e6b083d4e22733efee6236a38", "lat": 38.900256166666665, "type": "electric_scooter"}, {"fusion_lat": 0.0, "fusion_lon": 0.0, "rental_uris": {"android": "https://dc.lft.to/lastmile_qr_scan", "ios": "https://dc.lft.to/lastmile_qr_scan"}, "lon": -76.97399916666667, "name": "bce1891408f5052cc87b6b676fb2bb9a", "is_disabled": 0, "is_reserved": 0, "bike_id": "bce1891408f5052cc87b6b676fb2bb9a", "lat": 38.84524033333334, "type": "electric_bike"}, {"fusion_lat": 0.0, "fusion_lon": 0.0, "rental_uris": {"android": "https://dc.lft.to/lastmile_qr_scan", "ios": "https://dc.lft.to/lastmile_qr_scan"}, "lon": -77.00340483333333, "name": "c6a6ff8ae167722ff99f9d8c4b20cbd9", "is_disabled": 0, "is_reserved": 0, "bike_id": "c6a6ff8ae167722ff99f9d8c4b20cbd9", "lat": 38.89098216666667, "type": "electric_scooter"}, {"fusion_lat": 0.0, "fusion_lon": 0.0, "rental_uris": {"android": "https://dc.lft.to/lastmile_qr_scan", "ios": "https://dc.lft.to/lastmile_qr_scan"}, "lon": -77.04681133333334, "name": "e9ce2740ebbef2b16b250c4207b77c16", "is_disabled": 0, "is_reserved": 0, "bike_id": "e9ce2740ebbef2b16b250c4207b77c16", "lat": 38.894593666666665, "type": "electric_scooter"}, {"fusion_lat": 0.0, "fusion_lon": 0.0, "rental_uris": {"android": "https://dc.lft.to/lastmile_qr_scan", "ios": "https://dc.lft.to/lastmile_qr_scan"}, "lon": -77.01582916666666, "name": "3ed9288fd0b967f80e587d0127c5231a", "is_disabled": 0, "is_reserved": 0, "bike_id": "3ed9288fd0b967f80e587d0127c5231a", "lat": 38.915751666666665, "type": "electric_scooter"}, {"fusion_lat": 0.0, "fusion_lon": 0.0, "rental_uris": {"android": "https://dc.lft.to/lastmile_qr_scan", "ios": "https://dc.lft.to/lastmile_qr_scan"}, "lon": -76.97223783333334, "name": "4402b956e974cf583f1aa2ad6e829c2c", "is_disabled": 0, "is_reserved": 0, "bike_id": "4402b956e974cf583f1aa2ad6e829c2c", "lat": 38.900354, "type": "electric_bike"}, {"fusion_lat": 0.0, "fusion_lon": 0.0, "rental_uris": {"android": "https://dc.lft.to/lastmile_qr_scan", "ios": "https://dc.lft.to/lastmile_qr_scan"}, "lon": -77.04549033333333, "name": "2fd943f223781fb0f0715e8f9c89a584", "is_disabled": 0, "is_reserved": 0, "bike_id": "2fd943f223781fb0f0715e8f9c89a584", "lat": 38.896079, "type": "electric_scooter"}, {"fusion_lat": 0.0, "fusion_lon": 0.0, "rental_uris": {"android": "https://dc.lft.to/lastmile_qr_scan", "ios": "https://dc.lft.to/lastmile_qr_scan"}, "lon": -77.04801116666667, "name": "f352d93d303a65848ce2978c5c945cee", "is_disabled": 0, "is_reserved": 0, "bike_id": "f352d93d303a65848ce2978c5c945cee", "lat": 38.9194145, "type": "electric_scooter"}, {"fusion_lat": 0.0, "fusion_lon": 0.0, "rental_uris": {"android": "https://dc.lft.to/lastmile_qr_scan", "ios": "https://dc.lft.to/lastmile_qr_scan"}, "lon": -77.041538, "name": "4f890ad013ec54d931355f6d60ed3462", "is_disabled": 0, "is_reserved": 0, "bike_id": "4f890ad013ec54d931355f6d60ed3462", "lat": 38.918584333333335, "type": "electric_scooter"}, {"fusion_lat": 0.0, "fusion_lon": 0.0, "rental_uris": {"android": "https://dc.lft.to/lastmile_qr_scan", "ios": "https://dc.lft.to/lastmile_qr_scan"}, "lon": -77.08965866666666, "name": "5b24e41e8fcf756d9bda4e953c6ea5cc", "is_disabled": 0, "is_reserved": 0, "bike_id": "5b24e41e8fcf756d9bda4e953c6ea5cc", "lat": 38.93428083333333, "type": "electric_scooter"}, {"fusion_lat": 0.0, "fusion_lon": 0.0, "rental_uris": {"android": "https://dc.lft.to/lastmile_qr_scan", "ios": "https://dc.lft.to/lastmile_qr_scan"}, "lon": -76.9465155, "name": "20ab1cbb31afd09baca954ec3524104d", "is_disabled": 0, "is_reserved": 0, "bike_id": "20ab1cbb31afd09baca954ec3524104d", "lat": 38.89826466666667, "type": "electric_scooter"}, {"fusion_lat": 0.0, "fusion_lon": 0.0, "rental_uris": {"android": "https://dc.lft.to/lastmile_qr_scan", "ios": "https://dc.lft.to/lastmile_qr_scan"}, "lon": -77.04710583333333, "name": "204e33f88b3e839834b65458978a9f7b", "is_disabled": 0, "is_reserved": 0, "bike_id": "204e33f88b3e839834b65458978a9f7b", "lat": 38.9023975, "type": "electric_scooter"}, {"fusion_lat": 0.0, "fusion_lon": 0.0, "rental_uris": {"android": "https://dc.lft.to/lastmile_qr_scan", "ios": "https://dc.lft.to/lastmile_qr_scan"}, "lon": -76.99411033333334, "name": "a975245b2ec054e5f4b2ab047d3057e7", "is_disabled": 0, "is_reserved": 0, "bike_id": "a975245b2ec054e5f4b2ab047d3057e7", "lat": 38.877841333333336, "type": "electric_scooter"}, {"fusion_lat": 0.0, "fusion_lon": 0.0, "rental_uris": {"android": "https://dc.lft.to/lastmile_qr_scan", "ios": "https://dc.lft.to/lastmile_qr_scan"}, "lon": -77.010845, "name": "1f00cabd0cccb951b316831b9ccfba0f", "is_disabled": 0, "is_reserved": 0, "bike_id": "1f00cabd0cccb951b316831b9ccfba0f", "lat": 38.91743016666667, "type": "electric_scooter"}, {"fusion_lat": 0.0, "fusion_lon": 0.0, "rental_uris": {"android": "https://dc.lft.to/lastmile_qr_scan", "ios": "https://dc.lft.to/lastmile_qr_scan"}, "lon": -77.07165233333333, "name": "f035f9b5d1eb9fb4c859018f28442510", "is_disabled": 0, "is_reserved": 0, "bike_id": "f035f9b5d1eb9fb4c859018f28442510", "lat": 38.90874633333333, "type": "electric_scooter"}, {"fusion_lat": 0.0, "fusion_lon": 0.0, "rental_uris": {"android": "https://dc.lft.to/lastmile_qr_scan", "ios": "https://dc.lft.to/lastmile_qr_scan"}, "lon": -77.0122745, "name": "77fd83d0bc470c8cdd4b2fbe7e4f5100", "is_disabled": 0, "is_reserved": 0, "bike_id": "77fd83d0bc470c8cdd4b2fbe7e4f5100", "lat": 38.902537833333334, "type": "electric_scooter"}, {"fusion_lat": 0.0, "fusion_lon": 0.0, "rental_uris": {"android": "https://dc.lft.to/lastmile_qr_scan", "ios": "https://dc.lft.to/lastmile_qr_scan"}, "lon": -77.0318875, "name": "9bef65767be9f867d07396f2f79f4d87", "is_disabled": 0, "is_reserved": 0, "bike_id": "9bef65767be9f867d07396f2f79f4d87", "lat": 38.901323, "type": "electric_scooter"}, {"fusion_lat": 0.0, "fusion_lon": 0.0, "rental_uris": {"android": "https://dc.lft.to/lastmile_qr_scan", "ios": "https://dc.lft.to/lastmile_qr_scan"}, "lon": -77.03208516666666, "name": "a3f54a78c51653e5709eeb8af4457ca9", "is_disabled": 0, "is_reserved": 0, "bike_id": "a3f54a78c51653e5709eeb8af4457ca9", "lat": 38.898340833333336, "type": "electric_scooter"}, {"fusion_lat": 0.0, "fusion_lon": 0.0, "rental_uris": {"android": "https://dc.lft.to/lastmile_qr_scan", "ios": "https://dc.lft.to/lastmile_qr_scan"}, "lon": -77.05043183333333, "name": "812ef6db01ef1310f1635bd1fbe02039", "is_disabled": 0, "is_reserved": 0, "bike_id": "812ef6db01ef1310f1635bd1fbe02039", "lat": 38.92362133333334, "type": "electric_scooter"}, {"fusion_lat": 0.0, "fusion_lon": 0.0, "rental_uris": {"android": "https://dc.lft.to/lastmile_qr_scan", "ios": "https://dc.lft.to/lastmile_qr_scan"}, "lon": -77.023637, "name": "72ed7e8bbc25456552d53c17d1ae5c25", "is_disabled": 0, "is_reserved": 0, "bike_id": "72ed7e8bbc25456552d53c17d1ae5c25", "lat": 38.925119, "type": "electric_scooter"}, {"fusion_lat": 0.0, "fusion_lon": 0.0, "rental_uris": {"android": "https://dc.lft.to/lastmile_qr_scan", "ios": "https://dc.lft.to/lastmile_qr_scan"}, "lon": -77.050044, "name": "7c7feade1b1feb0a0483f36809ae33e8", "is_disabled": 0, "is_reserved": 0, "bike_id": "7c7feade1b1feb0a0483f36809ae33e8", "lat": 38.89394383333333, "type": "electric_scooter"}, {"fusion_lat": 0.0, "fusion_lon": 0.0, "rental_uris": {"android": "https://dc.lft.to/lastmile_qr_scan", "ios": "https://dc.lft.to/lastmile_qr_scan"}, "lon": -77.045211, "name": "b83ffb253ce425c7358513d90816e591", "is_disabled": 0, "is_reserved": 0, "bike_id": "b83ffb253ce425c7358513d90816e591", "lat": 38.89954516666667, "type": "electric_scooter"}, {"fusion_lat": 0.0, "fusion_lon": 0.0, "rental_uris": {"android": "https://dc.lft.to/lastmile_qr_scan", "ios": "https://dc.lft.to/lastmile_qr_scan"}, "lon": -77.0292555, "name": "c412e048fc691f99e1cebb0467b3c01c", "is_disabled": 0, "is_reserved": 0, "bike_id": "c412e048fc691f99e1cebb0467b3c01c", "lat": 38.9169265, "type": "electric_scooter"}, {"fusion_lat": 0.0, "fusion_lon": 0.0, "rental_uris": {"android": "https://dc.lft.to/lastmile_qr_scan", "ios": "https://dc.lft.to/lastmile_qr_scan"}, "lon": -77.03100766666667, "name": "447c9489827db83f90231c048a1b5b4c", "is_disabled": 0, "is_reserved": 0, "bike_id": "447c9489827db83f90231c048a1b5b4c", "lat": 38.88321033333333, "type": "electric_scooter"}, {"fusion_lat": 0.0, "fusion_lon": 0.0, "rental_uris": {"android": "https://dc.lft.to/lastmile_qr_scan", "ios": "https://dc.lft.to/lastmile_qr_scan"}, "lon": -77.0425885, "name": "f4019313d6c0051c6078ea2d29019e15", "is_disabled": 0, "is_reserved": 0, "bike_id": "f4019313d6c0051c6078ea2d29019e15", "lat": 38.906423, "type": "electric_scooter"}, {"fusion_lat": 0.0, "fusion_lon": 0.0, "rental_uris": {"android": "https://dc.lft.to/lastmile_qr_scan", "ios": "https://dc.lft.to/lastmile_qr_scan"}, "lon": -77.0269495, "name": "e43b894b4edb0e49161b3a2c368cb096", "is_disabled": 0, "is_reserved": 0, "bike_id": "e43b894b4edb0e49161b3a2c368cb096", "lat": 38.94980016666667, "type": "electric_scooter"}, {"fusion_lat": 0.0, "fusion_lon": 0.0, "rental_uris": {"android": "https://dc.lft.to/lastmile_qr_scan", "ios": "https://dc.lft.to/lastmile_qr_scan"}, "lon": -76.98961883333334, "name": "2f19ca2134bffb02bcd0dfb6d5b7594c", "is_disabled": 0, "is_reserved": 0, "bike_id": "2f19ca2134bffb02bcd0dfb6d5b7594c", "lat": 38.858760833333335, "type": "electric_scooter"}, {"fusion_lat": 0.0, "fusion_lon": 0.0, "rental_uris": {"android": "https://dc.lft.to/lastmile_qr_scan", "ios": "https://dc.lft.to/lastmile_qr_scan"}, "lon": -77.012188, "name": "b6d79642fa9765fa301c5405bb0c3293", "is_disabled": 0, "is_reserved": 0, "bike_id": "b6d79642fa9765fa301c5405bb0c3293", "lat": 38.9134665, "type": "electric_scooter"}, {"fusion_lat": 0.0, "fusion_lon": 0.0, "rental_uris": {"android": "https://dc.lft.to/lastmile_qr_scan", "ios": "https://dc.lft.to/lastmile_qr_scan"}, "lon": -77.03515683333333, "name": "3b70b846c27dd8f4b47ce8bd83e3e868", "is_disabled": 0, "is_reserved": 0, "bike_id": "3b70b846c27dd8f4b47ce8bd83e3e868", "lat": 38.92537266666667, "type": "electric_scooter"}, {"fusion_lat": 0.0, "fusion_lon": 0.0, "rental_uris": {"android": "https://dc.lft.to/lastmile_qr_scan", "ios": "https://dc.lft.to/lastmile_qr_scan"}, "lon": -77.03210316666667, "name": "c9a947415888aab569f2be5d1796dd58", "is_disabled": 0, "is_reserved": 0, "bike_id": "c9a947415888aab569f2be5d1796dd58", "lat": 38.91840966666667, "type": "electric_scooter"}, {"fusion_lat": 0.0, "fusion_lon": 0.0, "rental_uris": {"android": "https://dc.lft.to/lastmile_qr_scan", "ios": "https://dc.lft.to/lastmile_qr_scan"}, "lon": -77.05181283333333, "name": "e904187c0c2ca8a2fb0453e1351df77f", "is_disabled": 0, "is_reserved": 0, "bike_id": "e904187c0c2ca8a2fb0453e1351df77f", "lat": 38.924255333333335, "type": "electric_scooter"}, {"fusion_lat": 0.0, "fusion_lon": 0.0, "rental_uris": {"android": "https://dc.lft.to/lastmile_qr_scan", "ios": "https://dc.lft.to/lastmile_qr_scan"}, "lon": -77.02173433333333, "name": "e1c96c37e20087538fe4678f36198d20", "is_disabled": 0, "is_reserved": 0, "bike_id": "e1c96c37e20087538fe4678f36198d20", "lat": 38.897252333333334, "type": "electric_scooter"}, {"fusion_lat": 0.0, "fusion_lon": 0.0, "rental_uris": {"android": "https://dc.lft.to/lastmile_qr_scan", "ios": "https://dc.lft.to/lastmile_qr_scan"}, "lon": -77.022009, "name": "cef90bb9b1dc072d438e6c0dcf7cf69b", "is_disabled": 0, "is_reserved": 0, "bike_id": "cef90bb9b1dc072d438e6c0dcf7cf69b", "lat": 38.8958795, "type": "electric_scooter"}, {"fusion_lat": 0.0, "fusion_lon": 0.0, "rental_uris": {"android": "https://dc.lft.to/lastmile_qr_scan", "ios": "https://dc.lft.to/lastmile_qr_scan"}, "lon": -77.02650683333333, "name": "e4381129f1730011257604d7cfd1b746", "is_disabled": 0, "is_reserved": 0, "bike_id": "e4381129f1730011257604d7cfd1b746", "lat": 38.994225166666666, "type": "electric_bike"}, {"fusion_lat": 0.0, "fusion_lon": 0.0, "rental_uris": {"android": "https://dc.lft.to/lastmile_qr_scan", "ios": "https://dc.lft.to/lastmile_qr_scan"}, "lon": -77.0318085, "name": "15d7325db8c5fa2e9d0fe060bfe1abbf", "is_disabled": 0, "is_reserved": 0, "bike_id": "15d7325db8c5fa2e9d0fe060bfe1abbf", "lat": 38.91327716666667, "type": "electric_scooter"}, {"fusion_lat": 0.0, "fusion_lon": 0.0, "rental_uris": {"android": "https://dc.lft.to/lastmile_qr_scan", "ios": "https://dc.lft.to/lastmile_qr_scan"}, "lon": -77.0326985, "name": "675234eccb8030a28c69ab66bb16fc4d", "is_disabled": 0, "is_reserved": 0, "bike_id": "675234eccb8030a28c69ab66bb16fc4d", "lat": 38.93433, "type": "electric_scooter"}, {"fusion_lat": 0.0, "fusion_lon": 0.0, "rental_uris": {"android": "https://dc.lft.to/lastmile_qr_scan", "ios": "https://dc.lft.to/lastmile_qr_scan"}, "lon": -77.01654616666667, "name": "986d2887a39113afefa176be1a02d384", "is_disabled": 0, "is_reserved": 0, "bike_id": "986d2887a39113afefa176be1a02d384", "lat": 38.88111216666667, "type": "electric_scooter"}, {"fusion_lat": 0.0, "fusion_lon": 0.0, "rental_uris": {"android": "https://dc.lft.to/lastmile_qr_scan", "ios": "https://dc.lft.to/lastmile_qr_scan"}, "lon": -77.0240575, "name": "bf385008683f1b0ae8ac00c850e1554d", "is_disabled": 0, "is_reserved": 0, "bike_id": "bf385008683f1b0ae8ac00c850e1554d", "lat": 38.9417865, "type": "electric_scooter"}, {"fusion_lat": 0.0, "fusion_lon": 0.0, "rental_uris": {"android": "https://dc.lft.to/lastmile_qr_scan", "ios": "https://dc.lft.to/lastmile_qr_scan"}, "lon": -77.041579, "name": "59a1f49da537a70a7970d6184406b004", "is_disabled": 0, "is_reserved": 0, "bike_id": "59a1f49da537a70a7970d6184406b004", "lat": 38.895570166666666, "type": "electric_scooter"}, {"fusion_lat": 0.0, "fusion_lon": 0.0, "rental_uris": {"android": "https://dc.lft.to/lastmile_qr_scan", "ios": "https://dc.lft.to/lastmile_qr_scan"}, "lon": -77.027312, "name": "c701916d17b4f48e296c314a5ce4912a", "is_disabled": 0, "is_reserved": 0, "bike_id": "c701916d17b4f48e296c314a5ce4912a", "lat": 38.89807283333333, "type": "electric_scooter"}, {"fusion_lat": 0.0, "fusion_lon": 0.0, "rental_uris": {"android": "https://dc.lft.to/lastmile_qr_scan", "ios": "https://dc.lft.to/lastmile_qr_scan"}, "lon": -77.00989333333334, "name": "b3bfc72d2b218afef214d23e913f2efc", "is_disabled": 0, "is_reserved": 0, "bike_id": "b3bfc72d2b218afef214d23e913f2efc", "lat": 38.8729165, "type": "electric_scooter"}, {"fusion_lat": 0.0, "fusion_lon": 0.0, "rental_uris": {"android": "https://dc.lft.to/lastmile_qr_scan", "ios": "https://dc.lft.to/lastmile_qr_scan"}, "lon": -76.982713, "name": "393f5af25a90694a059ecc70953e2d38", "is_disabled": 0, "is_reserved": 0, "bike_id": "393f5af25a90694a059ecc70953e2d38", "lat": 38.8852855, "type": "electric_scooter"}, {"fusion_lat": 0.0, "fusion_lon": 0.0, "rental_uris": {"android": "https://dc.lft.to/lastmile_qr_scan", "ios": "https://dc.lft.to/lastmile_qr_scan"}, "lon": -77.2340635, "name": "940fde4f72e0533e9c2fa12232dbed90", "is_disabled": 0, "is_reserved": 0, "bike_id": "940fde4f72e0533e9c2fa12232dbed90", "lat": 38.87575666666667, "type": "electric_bike"}, {"fusion_lat": 0.0, "fusion_lon": 0.0, "rental_uris": {"android": "https://dc.lft.to/lastmile_qr_scan", "ios": "https://dc.lft.to/lastmile_qr_scan"}, "lon": -77.00136433333333, "name": "3962bbae5a913ccd2ed1133bddb80470", "is_disabled": 0, "is_reserved": 0, "bike_id": "3962bbae5a913ccd2ed1133bddb80470", "lat": 38.87495783333333, "type": "electric_scooter"}, {"fusion_lat": 0.0, "fusion_lon": 0.0, "rental_uris": {"android": "https://dc.lft.to/lastmile_qr_scan", "ios": "https://dc.lft.to/lastmile_qr_scan"}, "lon": -77.04354766666667, "name": "9b42c4d368352cbc7256ae77ddb07738", "is_disabled": 0, "is_reserved": 0, "bike_id": "9b42c4d368352cbc7256ae77ddb07738", "lat": 38.91051783333333, "type": "electric_scooter"}, {"fusion_lat": 0.0, "fusion_lon": 0.0, "rental_uris": {"android": "https://dc.lft.to/lastmile_qr_scan", "ios": "https://dc.lft.to/lastmile_qr_scan"}, "lon": -76.98969633333333, "name": "2876d7af9fd022bf0d26992a2181053d", "is_disabled": 0, "is_reserved": 0, "bike_id": "2876d7af9fd022bf0d26992a2181053d", "lat": 38.8653675, "type": "electric_scooter"}, {"fusion_lat": 0.0, "fusion_lon": 0.0, "rental_uris": {"android": "https://dc.lft.to/lastmile_qr_scan", "ios": "https://dc.lft.to/lastmile_qr_scan"}, "lon": -77.03354133333333, "name": "73796213cc75eb3a41f7c7dd0c610a17", "is_disabled": 0, "is_reserved": 0, "bike_id": "73796213cc75eb3a41f7c7dd0c610a17", "lat": 38.917035166666665, "type": "electric_scooter"}, {"fusion_lat": 0.0, "fusion_lon": 0.0, "rental_uris": {"android": "https://dc.lft.to/lastmile_qr_scan", "ios": "https://dc.lft.to/lastmile_qr_scan"}, "lon": -76.94705716666667, "name": "cfc2a9548fc117a99555c9097d340d34", "is_disabled": 0, "is_reserved": 0, "bike_id": "cfc2a9548fc117a99555c9097d340d34", "lat": 38.893663833333335, "type": "electric_scooter"}, {"fusion_lat": 0.0, "fusion_lon": 0.0, "rental_uris": {"android": "https://dc.lft.to/lastmile_qr_scan", "ios": "https://dc.lft.to/lastmile_qr_scan"}, "lon": -77.03008266666667, "name": "db24cb16df85caafad471b4e590f0927", "is_disabled": 0, "is_reserved": 0, "bike_id": "db24cb16df85caafad471b4e590f0927", "lat": 38.9026445, "type": "electric_scooter"}, {"fusion_lat": 0.0, "fusion_lon": 0.0, "rental_uris": {"android": "https://dc.lft.to/lastmile_qr_scan", "ios": "https://dc.lft.to/lastmile_qr_scan"}, "lon": -77.0313035, "name": "7585bb13d00d02fc0d910c2be9cefbbf", "is_disabled": 0, "is_reserved": 0, "bike_id": "7585bb13d00d02fc0d910c2be9cefbbf", "lat": 38.91601766666667, "type": "electric_scooter"}, {"fusion_lat": 0.0, "fusion_lon": 0.0, "rental_uris": {"android": "https://dc.lft.to/lastmile_qr_scan", "ios": "https://dc.lft.to/lastmile_qr_scan"}, "lon": -77.03535166666667, "name": "a0f080fa56dac8e90c013c45f0942c5e", "is_disabled": 0, "is_reserved": 0, "bike_id": "a0f080fa56dac8e90c013c45f0942c5e", "lat": 38.904863166666665, "type": "electric_scooter"}, {"fusion_lat": 0.0, "fusion_lon": 0.0, "rental_uris": {"android": "https://dc.lft.to/lastmile_qr_scan", "ios": "https://dc.lft.to/lastmile_qr_scan"}, "lon": -77.0432135, "name": "3663e1ff235fedbfb8dc6d1fa6781208", "is_disabled": 0, "is_reserved": 0, "bike_id": "3663e1ff235fedbfb8dc6d1fa6781208", "lat": 38.92632716666667, "type": "electric_scooter"}, {"fusion_lat": 0.0, "fusion_lon": 0.0, "rental_uris": {"android": "https://dc.lft.to/lastmile_qr_scan", "ios": "https://dc.lft.to/lastmile_qr_scan"}, "lon": -77.029633, "name": "7409e656702ad91f15974d64d3c66c16", "is_disabled": 0, "is_reserved": 0, "bike_id": "7409e656702ad91f15974d64d3c66c16", "lat": 38.90239, "type": "electric_scooter"}, {"fusion_lat": 0.0, "fusion_lon": 0.0, "rental_uris": {"android": "https://dc.lft.to/lastmile_qr_scan", "ios": "https://dc.lft.to/lastmile_qr_scan"}, "lon": -77.0259915, "name": "67f596f55bed1fb6f1f3fbef92ee189e", "is_disabled": 0, "is_reserved": 0, "bike_id": "67f596f55bed1fb6f1f3fbef92ee189e", "lat": 38.944086666666664, "type": "electric_scooter"}, {"fusion_lat": 0.0, "fusion_lon": 0.0, "rental_uris": {"android": "https://dc.lft.to/lastmile_qr_scan", "ios": "https://dc.lft.to/lastmile_qr_scan"}, "lon": -76.96535683333333, "name": "ede5f684aca9ecff7f9971c385c3e12c", "is_disabled": 0, "is_reserved": 0, "bike_id": "ede5f684aca9ecff7f9971c385c3e12c", "lat": 38.874754, "type": "electric_bike"}, {"fusion_lat": 0.0, "fusion_lon": 0.0, "rental_uris": {"android": "https://dc.lft.to/lastmile_qr_scan", "ios": "https://dc.lft.to/lastmile_qr_scan"}, "lon": -76.988913, "name": "289922045200cf4d63c73b127ab1204c", "is_disabled": 0, "is_reserved": 0, "bike_id": "289922045200cf4d63c73b127ab1204c", "lat": 38.8666405, "type": "electric_scooter"}, {"fusion_lat": 0.0, "fusion_lon": 0.0, "rental_uris": {"android": "https://dc.lft.to/lastmile_qr_scan", "ios": "https://dc.lft.to/lastmile_qr_scan"}, "lon": -77.07828483333333, "name": "1d5da28f80184e7fdda5deaff4423e46", "is_disabled": 0, "is_reserved": 0, "bike_id": "1d5da28f80184e7fdda5deaff4423e46", "lat": 38.93147883333334, "type": "electric_scooter"}, {"fusion_lat": 0.0, "fusion_lon": 0.0, "rental_uris": {"android": "https://dc.lft.to/lastmile_qr_scan", "ios": "https://dc.lft.to/lastmile_qr_scan"}, "lon": -77.008819, "name": "1a25ffdc9e838b93b5c3b2eba9ba7b0d", "is_disabled": 0, "is_reserved": 0, "bike_id": "1a25ffdc9e838b93b5c3b2eba9ba7b0d", "lat": 38.91450366666667, "type": "electric_scooter"}, {"fusion_lat": 0.0, "fusion_lon": 0.0, "rental_uris": {"android": "https://dc.lft.to/lastmile_qr_scan", "ios": "https://dc.lft.to/lastmile_qr_scan"}, "lon": -77.02835183333333, "name": "633515360cc2fa4ef11230e41ae30398", "is_disabled": 0, "is_reserved": 0, "bike_id": "633515360cc2fa4ef11230e41ae30398", "lat": 38.887297833333335, "type": "electric_scooter"}, {"fusion_lat": 0.0, "fusion_lon": 0.0, "rental_uris": {"android": "https://dc.lft.to/lastmile_qr_scan", "ios": "https://dc.lft.to/lastmile_qr_scan"}, "lon": -76.99580133333333, "name": "904cb00384a0fd53f0c1751d545e1c0b", "is_disabled": 0, "is_reserved": 0, "bike_id": "904cb00384a0fd53f0c1751d545e1c0b", "lat": 38.85175366666667, "type": "electric_scooter"}, {"fusion_lat": 0.0, "fusion_lon": 0.0, "rental_uris": {"android": "https://dc.lft.to/lastmile_qr_scan", "ios": "https://dc.lft.to/lastmile_qr_scan"}, "lon": -77.0499535, "name": "13c1bed84dbb33fa2a1211416173fa7f", "is_disabled": 0, "is_reserved": 0, "bike_id": "13c1bed84dbb33fa2a1211416173fa7f", "lat": 38.90112533333333, "type": "electric_scooter"}, {"fusion_lat": 0.0, "fusion_lon": 0.0, "rental_uris": {"android": "https://dc.lft.to/lastmile_qr_scan", "ios": "https://dc.lft.to/lastmile_qr_scan"}, "lon": -77.06310983333333, "name": "805633dc0ea103b2d6ac69665c723d36", "is_disabled": 0, "is_reserved": 0, "bike_id": "805633dc0ea103b2d6ac69665c723d36", "lat": 38.798524666666665, "type": "electric_bike"}, {"fusion_lat": 0.0, "fusion_lon": 0.0, "rental_uris": {"android": "https://dc.lft.to/lastmile_qr_scan", "ios": "https://dc.lft.to/lastmile_qr_scan"}, "lon": -77.01775233333333, "name": "a9a4b067d583d12875eababa781ddcb2", "is_disabled": 0, "is_reserved": 0, "bike_id": "a9a4b067d583d12875eababa781ddcb2", "lat": 38.87764683333333, "type": "electric_scooter"}, {"fusion_lat": 0.0, "fusion_lon": 0.0, "rental_uris": {"android": "https://dc.lft.to/lastmile_qr_scan", "ios": "https://dc.lft.to/lastmile_qr_scan"}, "lon": -77.022702, "name": "e393c746290043f3ab2359e64be3dcef", "is_disabled": 0, "is_reserved": 0, "bike_id": "e393c746290043f3ab2359e64be3dcef", "lat": 38.89511733333333, "type": "electric_scooter"}, {"fusion_lat": 0.0, "fusion_lon": 0.0, "rental_uris": {"android": "https://dc.lft.to/lastmile_qr_scan", "ios": "https://dc.lft.to/lastmile_qr_scan"}, "lon": -77.02202366666667, "name": "85854d570871e3db443d09c230e6eb33", "is_disabled": 0, "is_reserved": 0, "bike_id": "85854d570871e3db443d09c230e6eb33", "lat": 38.901833, "type": "electric_scooter"}, {"fusion_lat": 0.0, "fusion_lon": 0.0, "rental_uris": {"android": "https://dc.lft.to/lastmile_qr_scan", "ios": "https://dc.lft.to/lastmile_qr_scan"}, "lon": -77.03827516666666, "name": "6052815b1367b5672066cc6f182d0795", "is_disabled": 0, "is_reserved": 0, "bike_id": "6052815b1367b5672066cc6f182d0795", "lat": 38.912685333333336, "type": "electric_scooter"}, {"fusion_lat": 0.0, "fusion_lon": 0.0, "rental_uris": {"android": "https://dc.lft.to/lastmile_qr_scan", "ios": "https://dc.lft.to/lastmile_qr_scan"}, "lon": -76.9977605, "name": "bc9f8ecb6240a554ee5f18e67bb96fbd", "is_disabled": 0, "is_reserved": 0, "bike_id": "bc9f8ecb6240a554ee5f18e67bb96fbd", "lat": 38.84434733333333, "type": "electric_scooter"}, {"fusion_lat": 0.0, "fusion_lon": 0.0, "rental_uris": {"android": "https://dc.lft.to/lastmile_qr_scan", "ios": "https://dc.lft.to/lastmile_qr_scan"}, "lon": -77.0034915, "name": "6d176468a6e91ec5fa01210784a614ea", "is_disabled": 0, "is_reserved": 0, "bike_id": "6d176468a6e91ec5fa01210784a614ea", "lat": 38.89468083333333, "type": "electric_scooter"}, {"fusion_lat": 0.0, "fusion_lon": 0.0, "rental_uris": {"android": "https://dc.lft.to/lastmile_qr_scan", "ios": "https://dc.lft.to/lastmile_qr_scan"}, "lon": -76.995208, "name": "c9d245ac080a1a363301623b4300627f", "is_disabled": 0, "is_reserved": 0, "bike_id": "c9d245ac080a1a363301623b4300627f", "lat": 38.87924, "type": "electric_scooter"}, {"fusion_lat": 0.0, "fusion_lon": 0.0, "rental_uris": {"android": "https://dc.lft.to/lastmile_qr_scan", "ios": "https://dc.lft.to/lastmile_qr_scan"}, "lon": -76.9785445, "name": "183e800c0d73f256f105f082e41d2ec1", "is_disabled": 0, "is_reserved": 0, "bike_id": "183e800c0d73f256f105f082e41d2ec1", "lat": 38.844657833333336, "type": "electric_bike"}, {"fusion_lat": 0.0, "fusion_lon": 0.0, "rental_uris": {"android": "https://dc.lft.to/lastmile_qr_scan", "ios": "https://dc.lft.to/lastmile_qr_scan"}, "lon": -77.05731883333333, "name": "f45e022ac3bdb1a52b27142e446c1d95", "is_disabled": 0, "is_reserved": 0, "bike_id": "f45e022ac3bdb1a52b27142e446c1d95", "lat": 38.93368266666667, "type": "electric_scooter"}, {"fusion_lat": 0.0, "fusion_lon": 0.0, "rental_uris": {"android": "https://dc.lft.to/lastmile_qr_scan", "ios": "https://dc.lft.to/lastmile_qr_scan"}, "lon": -77.0320675, "name": "959a8f0d4b439373f058d2e03c441bb6", "is_disabled": 0, "is_reserved": 0, "bike_id": "959a8f0d4b439373f058d2e03c441bb6", "lat": 38.91925066666667, "type": "electric_scooter"}, {"fusion_lat": 0.0, "fusion_lon": 0.0, "rental_uris": {"android": "https://dc.lft.to/lastmile_qr_scan", "ios": "https://dc.lft.to/lastmile_qr_scan"}, "lon": -77.01201633333334, "name": "54d35278d8d9c6684b0bb3e9d4077eec", "is_disabled": 0, "is_reserved": 0, "bike_id": "54d35278d8d9c6684b0bb3e9d4077eec", "lat": 38.89686, "type": "electric_scooter"}, {"fusion_lat": 0.0, "fusion_lon": 0.0, "rental_uris": {"android": "https://dc.lft.to/lastmile_qr_scan", "ios": "https://dc.lft.to/lastmile_qr_scan"}, "lon": -77.02293333333333, "name": "c689d182ee2198029f78d4a4d5a8ca7a", "is_disabled": 0, "is_reserved": 0, "bike_id": "c689d182ee2198029f78d4a4d5a8ca7a", "lat": 38.897038, "type": "electric_scooter"}, {"fusion_lat": 0.0, "fusion_lon": 0.0, "rental_uris": {"android": "https://dc.lft.to/lastmile_qr_scan", "ios": "https://dc.lft.to/lastmile_qr_scan"}, "lon": -77.04880116666666, "name": "676bc8da9ef3b27f2bff1512c59b46eb", "is_disabled": 0, "is_reserved": 0, "bike_id": "676bc8da9ef3b27f2bff1512c59b46eb", "lat": 38.8986135, "type": "electric_scooter"}, {"fusion_lat": 0.0, "fusion_lon": 0.0, "rental_uris": {"android": "https://dc.lft.to/lastmile_qr_scan", "ios": "https://dc.lft.to/lastmile_qr_scan"}, "lon": -77.02558316666666, "name": "8b066cb97553302420e4bb7917d28a48", "is_disabled": 0, "is_reserved": 0, "bike_id": "8b066cb97553302420e4bb7917d28a48", "lat": 38.909562666666666, "type": "electric_scooter"}, {"fusion_lat": 0.0, "fusion_lon": 0.0, "rental_uris": {"android": "https://dc.lft.to/lastmile_qr_scan", "ios": "https://dc.lft.to/lastmile_qr_scan"}, "lon": -77.03859866666667, "name": "e229309c863cf733b7d6783530b93e56", "is_disabled": 0, "is_reserved": 0, "bike_id": "e229309c863cf733b7d6783530b93e56", "lat": 38.903842833333336, "type": "electric_scooter"}, {"fusion_lat": 0.0, "fusion_lon": 0.0, "rental_uris": {"android": "https://dc.lft.to/lastmile_qr_scan", "ios": "https://dc.lft.to/lastmile_qr_scan"}, "lon": -77.00578266666666, "name": "e8fdb93f94c05b96b7a2c830019ef8f5", "is_disabled": 0, "is_reserved": 0, "bike_id": "e8fdb93f94c05b96b7a2c830019ef8f5", "lat": 38.87651666666667, "type": "electric_scooter"}, {"fusion_lat": 0.0, "fusion_lon": 0.0, "rental_uris": {"android": "https://dc.lft.to/lastmile_qr_scan", "ios": "https://dc.lft.to/lastmile_qr_scan"}, "lon": -77.04865583333333, "name": "23fd8319ccc0169072c02baac4b04f19", "is_disabled": 0, "is_reserved": 0, "bike_id": "23fd8319ccc0169072c02baac4b04f19", "lat": 38.90466633333333, "type": "electric_scooter"}, {"fusion_lat": 0.0, "fusion_lon": 0.0, "rental_uris": {"android": "https://dc.lft.to/lastmile_qr_scan", "ios": "https://dc.lft.to/lastmile_qr_scan"}, "lon": -77.04353466666667, "name": "22d078fa083ff9e218ed7c71689ee866", "is_disabled": 0, "is_reserved": 0, "bike_id": "22d078fa083ff9e218ed7c71689ee866", "lat": 38.92121133333333, "type": "electric_scooter"}, {"fusion_lat": 0.0, "fusion_lon": 0.0, "rental_uris": {"android": "https://dc.lft.to/lastmile_qr_scan", "ios": "https://dc.lft.to/lastmile_qr_scan"}, "lon": -76.95173416666667, "name": "4a93097c28bb961b7aa1119ab53da336", "is_disabled": 0, "is_reserved": 0, "bike_id": "4a93097c28bb961b7aa1119ab53da336", "lat": 39.084384166666666, "type": "electric_bike"}, {"fusion_lat": 0.0, "fusion_lon": 0.0, "rental_uris": {"android": "https://dc.lft.to/lastmile_qr_scan", "ios": "https://dc.lft.to/lastmile_qr_scan"}, "lon": -77.0514585, "name": "48564fa59042b0b20fbc767fe0fc185c", "is_disabled": 0, "is_reserved": 0, "bike_id": "48564fa59042b0b20fbc767fe0fc185c", "lat": 38.92374616666667, "type": "electric_scooter"}, {"fusion_lat": 0.0, "fusion_lon": 0.0, "rental_uris": {"android": "https://dc.lft.to/lastmile_qr_scan", "ios": "https://dc.lft.to/lastmile_qr_scan"}, "lon": -77.04999633333334, "name": "f219e1f1535cf8573bd973ff90cbbec2", "is_disabled": 0, "is_reserved": 0, "bike_id": "f219e1f1535cf8573bd973ff90cbbec2", "lat": 38.892287, "type": "electric_scooter"}, {"fusion_lat": 0.0, "fusion_lon": 0.0, "rental_uris": {"android": "https://dc.lft.to/lastmile_qr_scan", "ios": "https://dc.lft.to/lastmile_qr_scan"}, "lon": -77.06391133333334, "name": "0faef4f682ed0d5d93918c0f610f7da1", "is_disabled": 0, "is_reserved": 0, "bike_id": "0faef4f682ed0d5d93918c0f610f7da1", "lat": 38.94501416666667, "type": "electric_scooter"}, {"fusion_lat": 0.0, "fusion_lon": 0.0, "rental_uris": {"android": "https://dc.lft.to/lastmile_qr_scan", "ios": "https://dc.lft.to/lastmile_qr_scan"}, "lon": -76.99781233333333, "name": "78c7db1d8fb9e75584e2cd8011fd6332", "is_disabled": 0, "is_reserved": 0, "bike_id": "78c7db1d8fb9e75584e2cd8011fd6332", "lat": 38.84434366666667, "type": "electric_scooter"}, {"fusion_lat": 0.0, "fusion_lon": 0.0, "rental_uris": {"android": "https://dc.lft.to/lastmile_qr_scan", "ios": "https://dc.lft.to/lastmile_qr_scan"}, "lon": -77.04338316666667, "name": "f081d0e53ea00304d6f171fdd913c93c", "is_disabled": 0, "is_reserved": 0, "bike_id": "f081d0e53ea00304d6f171fdd913c93c", "lat": 38.92814466666667, "type": "electric_scooter"}, {"fusion_lat": 0.0, "fusion_lon": 0.0, "rental_uris": {"android": "https://dc.lft.to/lastmile_qr_scan", "ios": "https://dc.lft.to/lastmile_qr_scan"}, "lon": -77.02375616666667, "name": "3df4dfb43fcbe5e4523e27bb9547a0c4", "is_disabled": 0, "is_reserved": 0, "bike_id": "3df4dfb43fcbe5e4523e27bb9547a0c4", "lat": 38.916685, "type": "electric_scooter"}, {"fusion_lat": 0.0, "fusion_lon": 0.0, "rental_uris": {"android": "https://dc.lft.to/lastmile_qr_scan", "ios": "https://dc.lft.to/lastmile_qr_scan"}, "lon": -77.02896816666667, "name": "7606cd16563337f42c2dea93bb21e051", "is_disabled": 0, "is_reserved": 0, "bike_id": "7606cd16563337f42c2dea93bb21e051", "lat": 38.92760583333333, "type": "electric_scooter"}, {"fusion_lat": 0.0, "fusion_lon": 0.0, "rental_uris": {"android": "https://dc.lft.to/lastmile_qr_scan", "ios": "https://dc.lft.to/lastmile_qr_scan"}, "lon": -77.02807666666666, "name": "058d732a0b7e588ab7a011b899469188", "is_disabled": 0, "is_reserved": 0, "bike_id": "058d732a0b7e588ab7a011b899469188", "lat": 38.9307855, "type": "electric_scooter"}, {"fusion_lat": 0.0, "fusion_lon": 0.0, "rental_uris": {"android": "https://dc.lft.to/lastmile_qr_scan", "ios": "https://dc.lft.to/lastmile_qr_scan"}, "lon": -77.04130883333333, "name": "34cd9c0b7e4c9fb075e99a0a9c1679e8", "is_disabled": 0, "is_reserved": 0, "bike_id": "34cd9c0b7e4c9fb075e99a0a9c1679e8", "lat": 38.92494683333334, "type": "electric_scooter"}, {"fusion_lat": 0.0, "fusion_lon": 0.0, "rental_uris": {"android": "https://dc.lft.to/lastmile_qr_scan", "ios": "https://dc.lft.to/lastmile_qr_scan"}, "lon": -76.99299216666667, "name": "d4c787e12d23a7cc1f87e79bfb5975fd", "is_disabled": 0, "is_reserved": 0, "bike_id": "d4c787e12d23a7cc1f87e79bfb5975fd", "lat": 38.85765283333333, "type": "electric_scooter"}, {"fusion_lat": 0.0, "fusion_lon": 0.0, "rental_uris": {"android": "https://dc.lft.to/lastmile_qr_scan", "ios": "https://dc.lft.to/lastmile_qr_scan"}, "lon": -77.0441215, "name": "1e2dfe4c6334c02452259488b3b68bc9", "is_disabled": 0, "is_reserved": 0, "bike_id": "1e2dfe4c6334c02452259488b3b68bc9", "lat": 38.900057, "type": "electric_scooter"}, {"fusion_lat": 0.0, "fusion_lon": 0.0, "rental_uris": {"android": "https://dc.lft.to/lastmile_qr_scan", "ios": "https://dc.lft.to/lastmile_qr_scan"}, "lon": -77.03334366666667, "name": "8164e2da989c7b34ed3508a8c31dabe4", "is_disabled": 0, "is_reserved": 0, "bike_id": "8164e2da989c7b34ed3508a8c31dabe4", "lat": 38.8924985, "type": "electric_scooter"}, {"fusion_lat": 0.0, "fusion_lon": 0.0, "rental_uris": {"android": "https://dc.lft.to/lastmile_qr_scan", "ios": "https://dc.lft.to/lastmile_qr_scan"}, "lon": -77.01570516666666, "name": "1c96978e8163e8ed6cd6a0a78ea3ed94", "is_disabled": 0, "is_reserved": 0, "bike_id": "1c96978e8163e8ed6cd6a0a78ea3ed94", "lat": 38.926846, "type": "electric_scooter"}, {"fusion_lat": 0.0, "fusion_lon": 0.0, "rental_uris": {"android": "https://dc.lft.to/lastmile_qr_scan", "ios": "https://dc.lft.to/lastmile_qr_scan"}, "lon": -76.94255183333334, "name": "ae70bc8888370d1bea1092d214c3b26c", "is_disabled": 0, "is_reserved": 0, "bike_id": "ae70bc8888370d1bea1092d214c3b26c", "lat": 38.897379666666666, "type": "electric_bike"}, {"fusion_lat": 0.0, "fusion_lon": 0.0, "rental_uris": {"android": "https://dc.lft.to/lastmile_qr_scan", "ios": "https://dc.lft.to/lastmile_qr_scan"}, "lon": -77.02358316666667, "name": "fdab6df15c67be65c26bc6e860c5dad4", "is_disabled": 0, "is_reserved": 0, "bike_id": "fdab6df15c67be65c26bc6e860c5dad4", "lat": 38.906709166666666, "type": "electric_scooter"}, {"fusion_lat": 0.0, "fusion_lon": 0.0, "rental_uris": {"android": "https://dc.lft.to/lastmile_qr_scan", "ios": "https://dc.lft.to/lastmile_qr_scan"}, "lon": -76.985713, "name": "875432a7809fe744a7a223b176446b0d", "is_disabled": 0, "is_reserved": 0, "bike_id": "875432a7809fe744a7a223b176446b0d", "lat": 38.866789, "type": "electric_scooter"}, {"fusion_lat": 0.0, "fusion_lon": 0.0, "rental_uris": {"android": "https://dc.lft.to/lastmile_qr_scan", "ios": "https://dc.lft.to/lastmile_qr_scan"}, "lon": -76.96332283333334, "name": "30cb9d15734b92aada168b3c0e793fef", "is_disabled": 0, "is_reserved": 0, "bike_id": "30cb9d15734b92aada168b3c0e793fef", "lat": 38.918671333333336, "type": "electric_scooter"}, {"fusion_lat": 0.0, "fusion_lon": 0.0, "rental_uris": {"android": "https://dc.lft.to/lastmile_qr_scan", "ios": "https://dc.lft.to/lastmile_qr_scan"}, "lon": -77.03553816666667, "name": "47e465fe69fe1474e53ae9ce70117b6c", "is_disabled": 0, "is_reserved": 0, "bike_id": "47e465fe69fe1474e53ae9ce70117b6c", "lat": 38.90844966666667, "type": "electric_scooter"}, {"fusion_lat": 0.0, "fusion_lon": 0.0, "rental_uris": {"android": "https://dc.lft.to/lastmile_qr_scan", "ios": "https://dc.lft.to/lastmile_qr_scan"}, "lon": -77.0033405, "name": "f9854c52aa7b44e34271e165487c2ada", "is_disabled": 0, "is_reserved": 0, "bike_id": "f9854c52aa7b44e34271e165487c2ada", "lat": 38.893574, "type": "electric_scooter"}, {"fusion_lat": 0.0, "fusion_lon": 0.0, "rental_uris": {"android": "https://dc.lft.to/lastmile_qr_scan", "ios": "https://dc.lft.to/lastmile_qr_scan"}, "lon": -76.98714533333333, "name": "b9928c21bb55b472c171875a4fee9cd8", "is_disabled": 0, "is_reserved": 0, "bike_id": "b9928c21bb55b472c171875a4fee9cd8", "lat": 38.86625083333333, "type": "electric_scooter"}, {"fusion_lat": 0.0, "fusion_lon": 0.0, "rental_uris": {"android": "https://dc.lft.to/lastmile_qr_scan", "ios": "https://dc.lft.to/lastmile_qr_scan"}, "lon": -76.98657, "name": "623e6eae0d00987e1beb5313b3b517f9", "is_disabled": 0, "is_reserved": 0, "bike_id": "623e6eae0d00987e1beb5313b3b517f9", "lat": 38.85803666666666, "type": "electric_scooter"}, {"fusion_lat": 0.0, "fusion_lon": 0.0, "rental_uris": {"android": "https://dc.lft.to/lastmile_qr_scan", "ios": "https://dc.lft.to/lastmile_qr_scan"}, "lon": -77.02147516666666, "name": "9ec93e1bde68fb73d6313ed92da83ccb", "is_disabled": 0, "is_reserved": 0, "bike_id": "9ec93e1bde68fb73d6313ed92da83ccb", "lat": 38.92338733333333, "type": "electric_scooter"}, {"fusion_lat": 0.0, "fusion_lon": 0.0, "rental_uris": {"android": "https://dc.lft.to/lastmile_qr_scan", "ios": "https://dc.lft.to/lastmile_qr_scan"}, "lon": -77.02714266666666, "name": "8a754301b9f1bf3d131177f3db684248", "is_disabled": 0, "is_reserved": 0, "bike_id": "8a754301b9f1bf3d131177f3db684248", "lat": 38.90797466666667, "type": "electric_scooter"}, {"fusion_lat": 0.0, "fusion_lon": 0.0, "rental_uris": {"android": "https://dc.lft.to/lastmile_qr_scan", "ios": "https://dc.lft.to/lastmile_qr_scan"}, "lon": -77.00761666666666, "name": "ca8be90a35301dfbaea34efca5a6d298", "is_disabled": 0, "is_reserved": 0, "bike_id": "ca8be90a35301dfbaea34efca5a6d298", "lat": 38.895927, "type": "electric_scooter"}, {"fusion_lat": 0.0, "fusion_lon": 0.0, "rental_uris": {"android": "https://dc.lft.to/lastmile_qr_scan", "ios": "https://dc.lft.to/lastmile_qr_scan"}, "lon": -76.98715233333333, "name": "eb73c2dc6c2c3650f0ae22e7aa0927ea", "is_disabled": 0, "is_reserved": 0, "bike_id": "eb73c2dc6c2c3650f0ae22e7aa0927ea", "lat": 38.86623066666667, "type": "electric_scooter"}, {"fusion_lat": 0.0, "fusion_lon": 0.0, "rental_uris": {"android": "https://dc.lft.to/lastmile_qr_scan", "ios": "https://dc.lft.to/lastmile_qr_scan"}, "lon": -77.04197016666667, "name": "4ee8594ec818eb674913117549ec4d5b", "is_disabled": 0, "is_reserved": 0, "bike_id": "4ee8594ec818eb674913117549ec4d5b", "lat": 38.920632166666664, "type": "electric_scooter"}, {"fusion_lat": 0.0, "fusion_lon": 0.0, "rental_uris": {"android": "https://dc.lft.to/lastmile_qr_scan", "ios": "https://dc.lft.to/lastmile_qr_scan"}, "lon": -77.01371, "name": "c35dd168bc8bbf0e6890714498d69c18", "is_disabled": 0, "is_reserved": 0, "bike_id": "c35dd168bc8bbf0e6890714498d69c18", "lat": 38.8864025, "type": "electric_scooter"}, {"fusion_lat": 0.0, "fusion_lon": 0.0, "rental_uris": {"android": "https://dc.lft.to/lastmile_qr_scan", "ios": "https://dc.lft.to/lastmile_qr_scan"}, "lon": -77.0262715, "name": "720ab6f2a990bc51bdeb949e87bbfcc4", "is_disabled": 0, "is_reserved": 0, "bike_id": "720ab6f2a990bc51bdeb949e87bbfcc4", "lat": 38.88766733333333, "type": "electric_scooter"}, {"fusion_lat": 0.0, "fusion_lon": 0.0, "rental_uris": {"android": "https://dc.lft.to/lastmile_qr_scan", "ios": "https://dc.lft.to/lastmile_qr_scan"}, "lon": -77.03960166666667, "name": "6f3cd01e2e9e1dbd4e0b88b1f5d06e95", "is_disabled": 0, "is_reserved": 0, "bike_id": "6f3cd01e2e9e1dbd4e0b88b1f5d06e95", "lat": 38.90821283333333, "type": "electric_scooter"}, {"fusion_lat": 0.0, "fusion_lon": 0.0, "rental_uris": {"android": "https://dc.lft.to/lastmile_qr_scan", "ios": "https://dc.lft.to/lastmile_qr_scan"}, "lon": -77.05046683333333, "name": "f6b16b8a3f32fc326e8e737eaa6a363b", "is_disabled": 0, "is_reserved": 0, "bike_id": "f6b16b8a3f32fc326e8e737eaa6a363b", "lat": 38.92357783333333, "type": "electric_scooter"}, {"fusion_lat": 0.0, "fusion_lon": 0.0, "rental_uris": {"android": "https://dc.lft.to/lastmile_qr_scan", "ios": "https://dc.lft.to/lastmile_qr_scan"}, "lon": -77.0487665, "name": "49b87c2750d42d867c90f96d178e93aa", "is_disabled": 0, "is_reserved": 0, "bike_id": "49b87c2750d42d867c90f96d178e93aa", "lat": 38.90189916666667, "type": "electric_scooter"}, {"fusion_lat": 0.0, "fusion_lon": 0.0, "rental_uris": {"android": "https://dc.lft.to/lastmile_qr_scan", "ios": "https://dc.lft.to/lastmile_qr_scan"}, "lon": -76.96710333333333, "name": "79bcb7429d0320af047af01c9364822b", "is_disabled": 0, "is_reserved": 0, "bike_id": "79bcb7429d0320af047af01c9364822b", "lat": 38.860343, "type": "electric_scooter"}, {"fusion_lat": 0.0, "fusion_lon": 0.0, "rental_uris": {"android": "https://dc.lft.to/lastmile_qr_scan", "ios": "https://dc.lft.to/lastmile_qr_scan"}, "lon": -77.02374633333334, "name": "f56c25a5a6b2de880fb1d0f359c7dd6f", "is_disabled": 0, "is_reserved": 0, "bike_id": "f56c25a5a6b2de880fb1d0f359c7dd6f", "lat": 38.906858, "type": "electric_scooter"}, {"fusion_lat": 0.0, "fusion_lon": 0.0, "rental_uris": {"android": "https://dc.lft.to/lastmile_qr_scan", "ios": "https://dc.lft.to/lastmile_qr_scan"}, "lon": -77.02438716666667, "name": "9e289f9bc5d3c939600ee4ddee35405e", "is_disabled": 0, "is_reserved": 0, "bike_id": "9e289f9bc5d3c939600ee4ddee35405e", "lat": 38.9205585, "type": "electric_scooter"}, {"fusion_lat": 0.0, "fusion_lon": 0.0, "rental_uris": {"android": "https://dc.lft.to/lastmile_qr_scan", "ios": "https://dc.lft.to/lastmile_qr_scan"}, "lon": -77.07165516666667, "name": "eb7ce23bd3697992e16d4100987f08c9", "is_disabled": 0, "is_reserved": 0, "bike_id": "eb7ce23bd3697992e16d4100987f08c9", "lat": 38.90773733333333, "type": "electric_scooter"}, {"fusion_lat": 0.0, "fusion_lon": 0.0, "rental_uris": {"android": "https://dc.lft.to/lastmile_qr_scan", "ios": "https://dc.lft.to/lastmile_qr_scan"}, "lon": -77.00712033333333, "name": "6536a439ca921ca5223f84a9bf1c697e", "is_disabled": 0, "is_reserved": 0, "bike_id": "6536a439ca921ca5223f84a9bf1c697e", "lat": 38.88488566666667, "type": "electric_scooter"}, {"fusion_lat": 0.0, "fusion_lon": 0.0, "rental_uris": {"android": "https://dc.lft.to/lastmile_qr_scan", "ios": "https://dc.lft.to/lastmile_qr_scan"}, "lon": -77.04244716666666, "name": "a2f6c99de66d874bebd96991dd652fff", "is_disabled": 0, "is_reserved": 0, "bike_id": "a2f6c99de66d874bebd96991dd652fff", "lat": 38.9227575, "type": "electric_scooter"}, {"fusion_lat": 0.0, "fusion_lon": 0.0, "rental_uris": {"android": "https://dc.lft.to/lastmile_qr_scan", "ios": "https://dc.lft.to/lastmile_qr_scan"}, "lon": -77.03446816666667, "name": "61965ce2c64deb9b6e73d0ee0d2e46c5", "is_disabled": 0, "is_reserved": 0, "bike_id": "61965ce2c64deb9b6e73d0ee0d2e46c5", "lat": 38.908468166666665, "type": "electric_scooter"}, {"fusion_lat": 0.0, "fusion_lon": 0.0, "rental_uris": {"android": "https://dc.lft.to/lastmile_qr_scan", "ios": "https://dc.lft.to/lastmile_qr_scan"}, "lon": -76.98211483333333, "name": "b3b888a8d3760e3d179ef2d7d6ad3f2d", "is_disabled": 0, "is_reserved": 0, "bike_id": "b3b888a8d3760e3d179ef2d7d6ad3f2d", "lat": 38.985025666666665, "type": "electric_bike"}, {"fusion_lat": 0.0, "fusion_lon": 0.0, "rental_uris": {"android": "https://dc.lft.to/lastmile_qr_scan", "ios": "https://dc.lft.to/lastmile_qr_scan"}, "lon": -77.00371666666666, "name": "16bd954365fcbf7fd460fa30e76c1f4b", "is_disabled": 0, "is_reserved": 0, "bike_id": "16bd954365fcbf7fd460fa30e76c1f4b", "lat": 38.876361, "type": "electric_scooter"}, {"fusion_lat": 0.0, "fusion_lon": 0.0, "rental_uris": {"android": "https://dc.lft.to/lastmile_qr_scan", "ios": "https://dc.lft.to/lastmile_qr_scan"}, "lon": -77.04992916666667, "name": "beacd7f1473d01fcfc4114594850f6f2", "is_disabled": 0, "is_reserved": 0, "bike_id": "beacd7f1473d01fcfc4114594850f6f2", "lat": 38.904167666666666, "type": "electric_scooter"}, {"fusion_lat": 0.0, "fusion_lon": 0.0, "rental_uris": {"android": "https://dc.lft.to/lastmile_qr_scan", "ios": "https://dc.lft.to/lastmile_qr_scan"}, "lon": -77.03594683333333, "name": "4ecd3a05710aad2b3396246ecb1106d9", "is_disabled": 0, "is_reserved": 0, "bike_id": "4ecd3a05710aad2b3396246ecb1106d9", "lat": 38.93145633333334, "type": "electric_scooter"}, {"fusion_lat": 0.0, "fusion_lon": 0.0, "rental_uris": {"android": "https://dc.lft.to/lastmile_qr_scan", "ios": "https://dc.lft.to/lastmile_qr_scan"}, "lon": -77.0971415, "name": "829756734df0de57686dddc11a6c27da", "is_disabled": 0, "is_reserved": 0, "bike_id": "829756734df0de57686dddc11a6c27da", "lat": 38.950994333333334, "type": "electric_scooter"}, {"fusion_lat": 0.0, "fusion_lon": 0.0, "rental_uris": {"android": "https://dc.lft.to/lastmile_qr_scan", "ios": "https://dc.lft.to/lastmile_qr_scan"}, "lon": -77.03583216666667, "name": "c5667278334be5ccb691b003bbb5d0e7", "is_disabled": 0, "is_reserved": 0, "bike_id": "c5667278334be5ccb691b003bbb5d0e7", "lat": 38.931452, "type": "electric_scooter"}, {"fusion_lat": 0.0, "fusion_lon": 0.0, "rental_uris": {"android": "https://dc.lft.to/lastmile_qr_scan", "ios": "https://dc.lft.to/lastmile_qr_scan"}, "lon": -77.026955, "name": "4c68a6b7233690f11613f892ecfc9b69", "is_disabled": 0, "is_reserved": 0, "bike_id": "4c68a6b7233690f11613f892ecfc9b69", "lat": 38.90841483333333, "type": "electric_scooter"}, {"fusion_lat": 0.0, "fusion_lon": 0.0, "rental_uris": {"android": "https://dc.lft.to/lastmile_qr_scan", "ios": "https://dc.lft.to/lastmile_qr_scan"}, "lon": -77.00210533333333, "name": "0395dbcb932f7f43265f0de01ab9574d", "is_disabled": 0, "is_reserved": 0, "bike_id": "0395dbcb932f7f43265f0de01ab9574d", "lat": 38.895183833333334, "type": "electric_scooter"}, {"fusion_lat": 0.0, "fusion_lon": 0.0, "rental_uris": {"android": "https://dc.lft.to/lastmile_qr_scan", "ios": "https://dc.lft.to/lastmile_qr_scan"}, "lon": -77.07723, "name": "95b8987845ae1d81eee2482b4f0c9909", "is_disabled": 0, "is_reserved": 0, "bike_id": "95b8987845ae1d81eee2482b4f0c9909", "lat": 38.94094333333334, "type": "electric_scooter"}, {"fusion_lat": 0.0, "fusion_lon": 0.0, "rental_uris": {"android": "https://dc.lft.to/lastmile_qr_scan", "ios": "https://dc.lft.to/lastmile_qr_scan"}, "lon": -77.02708083333333, "name": "6e5e6803c6e2c727a9abbcfbbc4ee8bb", "is_disabled": 0, "is_reserved": 0, "bike_id": "6e5e6803c6e2c727a9abbcfbbc4ee8bb", "lat": 38.897038333333334, "type": "electric_scooter"}, {"fusion_lat": 0.0, "fusion_lon": 0.0, "rental_uris": {"android": "https://dc.lft.to/lastmile_qr_scan", "ios": "https://dc.lft.to/lastmile_qr_scan"}, "lon": -77.02275883333333, "name": "e2bc50957cab43eccbf2ba5fba063c89", "is_disabled": 0, "is_reserved": 0, "bike_id": "e2bc50957cab43eccbf2ba5fba063c89", "lat": 38.91410883333333, "type": "electric_scooter"}, {"fusion_lat": 0.0, "fusion_lon": 0.0, "rental_uris": {"android": "https://dc.lft.to/lastmile_qr_scan", "ios": "https://dc.lft.to/lastmile_qr_scan"}, "lon": -77.003465, "name": "7a63dc413eed5db12568813e4b76c659", "is_disabled": 0, "is_reserved": 0, "bike_id": "7a63dc413eed5db12568813e4b76c659", "lat": 38.89461816666667, "type": "electric_scooter"}, {"fusion_lat": 0.0, "fusion_lon": 0.0, "rental_uris": {"android": "https://dc.lft.to/lastmile_qr_scan", "ios": "https://dc.lft.to/lastmile_qr_scan"}, "lon": -76.983195, "name": "bc033a1c9935ae4d7edbcf74a94b490c", "is_disabled": 0, "is_reserved": 0, "bike_id": "bc033a1c9935ae4d7edbcf74a94b490c", "lat": 38.904389, "type": "electric_scooter"}, {"fusion_lat": 0.0, "fusion_lon": 0.0, "rental_uris": {"android": "https://dc.lft.to/lastmile_qr_scan", "ios": "https://dc.lft.to/lastmile_qr_scan"}, "lon": -77.05249266666667, "name": "00022bed14a30ebdfe3939e5bfeb4c98", "is_disabled": 0, "is_reserved": 0, "bike_id": "00022bed14a30ebdfe3939e5bfeb4c98", "lat": 38.90515833333333, "type": "electric_scooter"}, {"fusion_lat": 0.0, "fusion_lon": 0.0, "rental_uris": {"android": "https://dc.lft.to/lastmile_qr_scan", "ios": "https://dc.lft.to/lastmile_qr_scan"}, "lon": -77.01512616666666, "name": "476d8ac5f9fbc9d54669779f9e1134bc", "is_disabled": 0, "is_reserved": 0, "bike_id": "476d8ac5f9fbc9d54669779f9e1134bc", "lat": 38.902375166666666, "type": "electric_scooter"}, {"fusion_lat": 0.0, "fusion_lon": 0.0, "rental_uris": {"android": "https://dc.lft.to/lastmile_qr_scan", "ios": "https://dc.lft.to/lastmile_qr_scan"}, "lon": -76.99163166666666, "name": "5e3b3cef08d342ce978f102e7ff7f1b9", "is_disabled": 0, "is_reserved": 0, "bike_id": "5e3b3cef08d342ce978f102e7ff7f1b9", "lat": 38.901369833333334, "type": "electric_scooter"}, {"fusion_lat": 0.0, "fusion_lon": 0.0, "rental_uris": {"android": "https://dc.lft.to/lastmile_qr_scan", "ios": "https://dc.lft.to/lastmile_qr_scan"}, "lon": -77.02484866666667, "name": "d4df0bd6021fb776e786f3e542a146f2", "is_disabled": 0, "is_reserved": 0, "bike_id": "d4df0bd6021fb776e786f3e542a146f2", "lat": 38.93847483333333, "type": "electric_scooter"}, {"fusion_lat": 0.0, "fusion_lon": 0.0, "rental_uris": {"android": "https://dc.lft.to/lastmile_qr_scan", "ios": "https://dc.lft.to/lastmile_qr_scan"}, "lon": -77.07307166666666, "name": "1df92352804075571986bff72b4cfe6d", "is_disabled": 0, "is_reserved": 0, "bike_id": "1df92352804075571986bff72b4cfe6d", "lat": 38.926697, "type": "electric_scooter"}, {"fusion_lat": 0.0, "fusion_lon": 0.0, "rental_uris": {"android": "https://dc.lft.to/lastmile_qr_scan", "ios": "https://dc.lft.to/lastmile_qr_scan"}, "lon": -77.05349516666666, "name": "7378c20d3e6c701039882de72185a1af", "is_disabled": 0, "is_reserved": 0, "bike_id": "7378c20d3e6c701039882de72185a1af", "lat": 38.92724233333333, "type": "electric_scooter"}, {"fusion_lat": 0.0, "fusion_lon": 0.0, "rental_uris": {"android": "https://dc.lft.to/lastmile_qr_scan", "ios": "https://dc.lft.to/lastmile_qr_scan"}, "lon": -77.0513235, "name": "16958f5dc183f6f3d2a7a60db169b4ca", "is_disabled": 0, "is_reserved": 0, "bike_id": "16958f5dc183f6f3d2a7a60db169b4ca", "lat": 38.92517816666667, "type": "electric_scooter"}, {"fusion_lat": 0.0, "fusion_lon": 0.0, "rental_uris": {"android": "https://dc.lft.to/lastmile_qr_scan", "ios": "https://dc.lft.to/lastmile_qr_scan"}, "lon": -77.05107, "name": "09255866a0b0cc566c7fddeb04c5579b", "is_disabled": 0, "is_reserved": 0, "bike_id": "09255866a0b0cc566c7fddeb04c5579b", "lat": 38.923622333333334, "type": "electric_scooter"}, {"fusion_lat": 0.0, "fusion_lon": 0.0, "rental_uris": {"android": "https://dc.lft.to/lastmile_qr_scan", "ios": "https://dc.lft.to/lastmile_qr_scan"}, "lon": -77.026303, "name": "4c059e0f179ba7fc0719765fe3237661", "is_disabled": 0, "is_reserved": 0, "bike_id": "4c059e0f179ba7fc0719765fe3237661", "lat": 38.8876805, "type": "electric_scooter"}, {"fusion_lat": 0.0, "fusion_lon": 0.0, "rental_uris": {"android": "https://dc.lft.to/lastmile_qr_scan", "ios": "https://dc.lft.to/lastmile_qr_scan"}, "lon": -77.05456066666666, "name": "8969262e345b0798ef2b85608344ee74", "is_disabled": 0, "is_reserved": 0, "bike_id": "8969262e345b0798ef2b85608344ee74", "lat": 38.9023745, "type": "electric_scooter"}, {"fusion_lat": 0.0, "fusion_lon": 0.0, "rental_uris": {"android": "https://dc.lft.to/lastmile_qr_scan", "ios": "https://dc.lft.to/lastmile_qr_scan"}, "lon": -77.005715, "name": "cc8ab6a1e985b372ab2256ff0477859d", "is_disabled": 0, "is_reserved": 0, "bike_id": "cc8ab6a1e985b372ab2256ff0477859d", "lat": 38.876738833333334, "type": "electric_scooter"}, {"fusion_lat": 0.0, "fusion_lon": 0.0, "rental_uris": {"android": "https://dc.lft.to/lastmile_qr_scan", "ios": "https://dc.lft.to/lastmile_qr_scan"}, "lon": -77.02692733333333, "name": "076cb5ea3c59b397b584a8192aaf65bd", "is_disabled": 0, "is_reserved": 0, "bike_id": "076cb5ea3c59b397b584a8192aaf65bd", "lat": 38.94980066666667, "type": "electric_scooter"}, {"fusion_lat": 0.0, "fusion_lon": 0.0, "rental_uris": {"android": "https://dc.lft.to/lastmile_qr_scan", "ios": "https://dc.lft.to/lastmile_qr_scan"}, "lon": -77.03940533333333, "name": "11fbaf45e30c7896440b591cd28a3cc3", "is_disabled": 0, "is_reserved": 0, "bike_id": "11fbaf45e30c7896440b591cd28a3cc3", "lat": 38.90367466666667, "type": "electric_scooter"}, {"fusion_lat": 0.0, "fusion_lon": 0.0, "rental_uris": {"android": "https://dc.lft.to/lastmile_qr_scan", "ios": "https://dc.lft.to/lastmile_qr_scan"}, "lon": -77.06501066666667, "name": "5650afb5fb8eb5178e0e26a7e03dc399", "is_disabled": 0, "is_reserved": 0, "bike_id": "5650afb5fb8eb5178e0e26a7e03dc399", "lat": 38.905060166666665, "type": "electric_scooter"}, {"fusion_lat": 0.0, "fusion_lon": 0.0, "rental_uris": {"android": "https://dc.lft.to/lastmile_qr_scan", "ios": "https://dc.lft.to/lastmile_qr_scan"}, "lon": -77.02695716666666, "name": "323efbba9610c150e62cc477f17f5687", "is_disabled": 0, "is_reserved": 0, "bike_id": "323efbba9610c150e62cc477f17f5687", "lat": 38.90685233333333, "type": "electric_scooter"}, {"fusion_lat": 0.0, "fusion_lon": 0.0, "rental_uris": {"android": "https://dc.lft.to/lastmile_qr_scan", "ios": "https://dc.lft.to/lastmile_qr_scan"}, "lon": -76.93073366666667, "name": "0aeed3bee45b053542f37e9d795a9f51", "is_disabled": 0, "is_reserved": 0, "bike_id": "0aeed3bee45b053542f37e9d795a9f51", "lat": 38.90162083333333, "type": "electric_scooter"}, {"fusion_lat": 0.0, "fusion_lon": 0.0, "rental_uris": {"android": "https://dc.lft.to/lastmile_qr_scan", "ios": "https://dc.lft.to/lastmile_qr_scan"}, "lon": -77.02837933333333, "name": "c801530a0c9ba091816027dd9d316d53", "is_disabled": 0, "is_reserved": 0, "bike_id": "c801530a0c9ba091816027dd9d316d53", "lat": 38.916998666666665, "type": "electric_scooter"}, {"fusion_lat": 0.0, "fusion_lon": 0.0, "rental_uris": {"android": "https://dc.lft.to/lastmile_qr_scan", "ios": "https://dc.lft.to/lastmile_qr_scan"}, "lon": -77.07956533333333, "name": "63498705a749c45cf8591cbf4ba9c0fb", "is_disabled": 0, "is_reserved": 0, "bike_id": "63498705a749c45cf8591cbf4ba9c0fb", "lat": 38.94561866666667, "type": "electric_scooter"}, {"fusion_lat": 0.0, "fusion_lon": 0.0, "rental_uris": {"android": "https://dc.lft.to/lastmile_qr_scan", "ios": "https://dc.lft.to/lastmile_qr_scan"}, "lon": -77.0514935, "name": "4da0e546afbc71320967e61ebe5dcbcc", "is_disabled": 0, "is_reserved": 0, "bike_id": "4da0e546afbc71320967e61ebe5dcbcc", "lat": 38.9068455, "type": "electric_scooter"}, {"fusion_lat": 0.0, "fusion_lon": 0.0, "rental_uris": {"android": "https://dc.lft.to/lastmile_qr_scan", "ios": "https://dc.lft.to/lastmile_qr_scan"}, "lon": -77.03215083333333, "name": "8eea01a925420f13b285d62f8c5e5a2b", "is_disabled": 0, "is_reserved": 0, "bike_id": "8eea01a925420f13b285d62f8c5e5a2b", "lat": 38.90957866666667, "type": "electric_scooter"}, {"fusion_lat": 0.0, "fusion_lon": 0.0, "rental_uris": {"android": "https://dc.lft.to/lastmile_qr_scan", "ios": "https://dc.lft.to/lastmile_qr_scan"}, "lon": -76.9949735, "name": "c623f706d193943892f67352ec3c61dc", "is_disabled": 0, "is_reserved": 0, "bike_id": "c623f706d193943892f67352ec3c61dc", "lat": 38.9098125, "type": "electric_scooter"}, {"fusion_lat": 0.0, "fusion_lon": 0.0, "rental_uris": {"android": "https://dc.lft.to/lastmile_qr_scan", "ios": "https://dc.lft.to/lastmile_qr_scan"}, "lon": -77.05000916666667, "name": "cce726c0d0d40d96cf69548696d258de", "is_disabled": 0, "is_reserved": 0, "bike_id": "cce726c0d0d40d96cf69548696d258de", "lat": 38.83766716666667, "type": "electric_bike"}, {"fusion_lat": 0.0, "fusion_lon": 0.0, "rental_uris": {"android": "https://dc.lft.to/lastmile_qr_scan", "ios": "https://dc.lft.to/lastmile_qr_scan"}, "lon": -77.0640655, "name": "b42faf865187135063bde06e0370165d", "is_disabled": 0, "is_reserved": 0, "bike_id": "b42faf865187135063bde06e0370165d", "lat": 38.9440995, "type": "electric_scooter"}, {"fusion_lat": 0.0, "fusion_lon": 0.0, "rental_uris": {"android": "https://dc.lft.to/lastmile_qr_scan", "ios": "https://dc.lft.to/lastmile_qr_scan"}, "lon": -77.02694966666667, "name": "a0496957fa84bd0a2551b6e5f2c45109", "is_disabled": 0, "is_reserved": 0, "bike_id": "a0496957fa84bd0a2551b6e5f2c45109", "lat": 38.908403166666666, "type": "electric_scooter"}, {"fusion_lat": 0.0, "fusion_lon": 0.0, "rental_uris": {"android": "https://dc.lft.to/lastmile_qr_scan", "ios": "https://dc.lft.to/lastmile_qr_scan"}, "lon": -77.022364, "name": "b9a3f8cce7bc3a90a2bd520b3a676241", "is_disabled": 0, "is_reserved": 0, "bike_id": "b9a3f8cce7bc3a90a2bd520b3a676241", "lat": 38.92221416666667, "type": "electric_scooter"}, {"fusion_lat": 0.0, "fusion_lon": 0.0, "rental_uris": {"android": "https://dc.lft.to/lastmile_qr_scan", "ios": "https://dc.lft.to/lastmile_qr_scan"}, "lon": -77.043524, "name": "e1b1c17b77bcb72f301affda49e025b6", "is_disabled": 0, "is_reserved": 0, "bike_id": "e1b1c17b77bcb72f301affda49e025b6", "lat": 38.90840733333334, "type": "electric_scooter"}, {"fusion_lat": 0.0, "fusion_lon": 0.0, "rental_uris": {"android": "https://dc.lft.to/lastmile_qr_scan", "ios": "https://dc.lft.to/lastmile_qr_scan"},