{"data": {"bikes": [{"lon": -77.06102966666667, "bike_id": "e392ed4fd334515ac7161cd0ff767e9d", "lat": 38.9436145, "fusion_lon": 0.0, "fusion_lat": 0.0, "type": "electric_scooter", "name": "e392ed4fd334515ac7161cd0ff767e9d", "is_disabled": 0, "rental_uris": {"ios": "https://dc.lft.to/lastmile_qr_scan", "android": "https://dc.lft.to/lastmile_qr_scan"}, "is_reserved": 0}, {"lon": -77.0214495, "bike_id": "2422f165b668570f9501e6cc5981d5a0", "lat": 38.901875833333335, "fusion_lon": 0.0, "fusion_lat": 0.0, "type": "electric_scooter", "name": "2422f165b668570f9501e6cc5981d5a0", "is_disabled": 0, "rental_uris": {"ios": "https://dc.lft.to/lastmile_qr_scan", "android": "https://dc.lft.to/lastmile_qr_scan"}, "is_reserved": 0}, {"lon": -76.9837575, "bike_id": "b390f5a242268d65c48471eef36afc9c", "lat": 38.8914085, "fusion_lon": 0.0, "fusion_lat": 0.0, "type": "electric_scooter", "name": "b390f5a242268d65c48471eef36afc9c", "is_disabled": 0, "rental_uris": {"ios": "https://dc.lft.to/lastmile_qr_scan", "android": "https://dc.lft.to/lastmile_qr_scan"}, "is_reserved": 0}, {"lon": -77.03183816666666, "bike_id": "49de5f08a1949341e0c358c69a615855", "lat": 38.936009166666665, "fusion_lon": 0.0, "fusion_lat": 0.0, "type": "electric_scooter", "name": "49de5f08a1949341e0c358c69a615855", "is_disabled": 0, "rental_uris": {"ios": "https://dc.lft.to/lastmile_qr_scan", "android": "https://dc.lft.to/lastmile_qr_scan"}, "is_reserved": 0}, {"lon": -76.9857255, "bike_id": "06578b6dd17ecc750002e1f3f7612eeb", "lat": 38.89618766666667, "fusion_lon": 0.0, "fusion_lat": 0.0, "type": "electric_scooter", "name": "06578b6dd17ecc750002e1f3f7612eeb", "is_disabled": 0, "rental_uris": {"ios": "https://dc.lft.to/lastmile_qr_scan", "android": "https://dc.lft.to/lastmile_qr_scan"}, "is_reserved": 0}, {"lon": -77.00919716666667, "bike_id": "eb0faba094917278c19ce365906a2f6a", "lat": 38.9106345, "fusion_lon": 0.0, "fusion_lat": 0.0, "type": "electric_scooter", "name": "eb0faba094917278c19ce365906a2f6a", "is_disabled": 0, "rental_uris": {"ios": "https://dc.lft.to/lastmile_qr_scan", "android": "https://dc.lft.to/lastmile_qr_scan"}, "is_reserved": 0}, {"lon": -77.025654, "bike_id": "c5b3ebf69a4a69e97322c2f7f015862a", "lat": 38.90151066666667, "fusion_lon": 0.0, "fusion_lat": 0.0, "type": "electric_scooter", "name": "c5b3ebf69a4a69e97322c2f7f015862a", "is_disabled": 0, "rental_uris": {"ios": "https://dc.lft.to/lastmile_qr_scan", "android": "https://dc.lft.to/lastmile_qr_scan"}, "is_reserved": 0}, {"lon": -77.04493516666666, "bike_id": "555164f0a1e6d26a05d6241bda9157c0", "lat": 38.90717016666667, "fusion_lon": 0.0, "fusion_lat": 0.0, "type": "electric_scooter", "name": "555164f0a1e6d26a05d6241bda9157c0", "is_disabled": 0, "rental_uris": {"ios": "https://dc.lft.to/lastmile_qr_scan", "android": "https://dc.lft.to/lastmile_qr_scan"}, "is_reserved": 0}, {"lon": -77.03779683333333, "bike_id": "26bd7cdbb7ef000ec0c084c11dd72489", "lat": 38.925873833333334, "fusion_lon": 0.0, "fusion_lat": 0.0, "type": "electric_scooter", "name": "26bd7cdbb7ef000ec0c084c11dd72489", "is_disabled": 0, "rental_uris": {"ios": "https://dc.lft.to/lastmile_qr_scan", "android": "https://dc.lft.to/lastmile_qr_scan"}, "is_reserved": 0}, {"lon": -77.05161, "bike_id": "62d47a93951b939f72d0cce916b467b0", "lat": 38.903154666666666, "fusion_lon": 0.0, "fusion_lat": 0.0, "type": "electric_scooter", "name": "62d47a93951b939f72d0cce916b467b0", "is_disabled": 0, "rental_uris": {"ios": "https://dc.lft.to/lastmile_qr_scan", "android": "https://dc.lft.to/lastmile_qr_scan"}, "is_reserved": 0}, {"lon": -77.04019783333334, "bike_id": "011b42b0d7502f0dfd46fb50f321a266", "lat": 38.916067166666664, "fusion_lon": 0.0, "fusion_lat": 0.0, "type": "electric_scooter", "name": "011b42b0d7502f0dfd46fb50f321a266", "is_disabled": 0, "rental_uris": {"ios": "https://dc.lft.to/lastmile_qr_scan", "android": "https://dc.lft.to/lastmile_qr_scan"}, "is_reserved": 0}, {"lon": -76.98839266666667, "bike_id": "43fa99a93ee2d40449551cbb485ce878", "lat": 38.90069483333333, "fusion_lon": 0.0, "fusion_lat": 0.0, "type": "electric_scooter", "name": "43fa99a93ee2d40449551cbb485ce878", "is_disabled": 0, "rental_uris": {"ios": "https://dc.lft.to/lastmile_qr_scan", "android": "https://dc.lft.to/lastmile_qr_scan"}, "is_reserved": 0}, {"lon": -77.04472183333333, "bike_id": "c893a159a3092af180c371f1b705cf92", "lat": 38.9153035, "fusion_lon": 0.0, "fusion_lat": 0.0, "type": "electric_scooter", "name": "c893a159a3092af180c371f1b705cf92", "is_disabled": 0, "rental_uris": {"ios": "https://dc.lft.to/lastmile_qr_scan", "android": "https://dc.lft.to/lastmile_qr_scan"}, "is_reserved": 0}, {"lon": -77.0386545, "bike_id": "33d1820f8aad414906a8a9b95e38070d", "lat": 38.91705816666666, "fusion_lon": 0.0, "fusion_lat": 0.0, "type": "electric_scooter", "name": "33d1820f8aad414906a8a9b95e38070d", "is_disabled": 0, "rental_uris": {"ios": "https://dc.lft.to/lastmile_qr_scan", "android": "https://dc.lft.to/lastmile_qr_scan"}, "is_reserved": 0}, {"lon": -77.028036, "bike_id": "ea71306bdb76066ca60c024370992792", "lat": 38.906655, "fusion_lon": 0.0, "fusion_lat": 0.0, "type": "electric_scooter", "name": "ea71306bdb76066ca60c024370992792", "is_disabled": 0, "rental_uris": {"ios": "https://dc.lft.to/lastmile_qr_scan", "android": "https://dc.lft.to/lastmile_qr_scan"}, "is_reserved": 0}, {"lon": -77.05574633333333, "bike_id": "62c3f84a2fd8250e241070daeebce6ee", "lat": 38.897316333333336, "fusion_lon": 0.0, "fusion_lat": 0.0, "type": "electric_scooter", "name": "62c3f84a2fd8250e241070daeebce6ee", "is_disabled": 0, "rental_uris": {"ios": "https://dc.lft.to/lastmile_qr_scan", "android": "https://dc.lft.to/lastmile_qr_scan"}, "is_reserved": 0}, {"lon": -76.99544116666667, "bike_id": "9309ba77f597e4f2bbcc17dbd3899ff0", "lat": 38.862138, "fusion_lon": 0.0, "fusion_lat": 0.0, "type": "electric_scooter", "name": "9309ba77f597e4f2bbcc17dbd3899ff0", "is_disabled": 0, "rental_uris": {"ios": "https://dc.lft.to/lastmile_qr_scan", "android": "https://dc.lft.to/lastmile_qr_scan"}, "is_reserved": 0}, {"lon": -76.9465305, "bike_id": "ae7dcd485934e663da025d157e700689", "lat": 38.898259833333334, "fusion_lon": 0.0, "fusion_lat": 0.0, "type": "electric_scooter", "name": "ae7dcd485934e663da025d157e700689", "is_disabled": 0, "rental_uris": {"ios": "https://dc.lft.to/lastmile_qr_scan", "android": "https://dc.lft.to/lastmile_qr_scan"}, "is_reserved": 0}, {"lon": -77.1392275, "bike_id": "44d02a0cccb8fe6d3ec6db81bdec72c6", "lat": 38.872968, "fusion_lon": 0.0, "fusion_lat": 0.0, "type": "electric_bike", "name": "44d02a0cccb8fe6d3ec6db81bdec72c6", "is_disabled": 0, "rental_uris": {"ios": "https://dc.lft.to/lastmile_qr_scan", "android": "https://dc.lft.to/lastmile_qr_scan"}, "is_reserved": 0}, {"lon": -76.98232316666666, "bike_id": "2d1eb8df5228cb10c41734114d9eaa06", "lat": 38.86469, "fusion_lon": 0.0, "fusion_lat": 0.0, "type": "electric_scooter", "name": "2d1eb8df5228cb10c41734114d9eaa06", "is_disabled": 0, "rental_uris": {"ios": "https://dc.lft.to/lastmile_qr_scan", "android": "https://dc.lft.to/lastmile_qr_scan"}, "is_reserved": 0}, {"lon": -77.01761883333333, "bike_id": "9cecddcb8d446ec4c2ba8ab581f93170", "lat": 38.900233166666666, "fusion_lon": 0.0, "fusion_lat": 0.0, "type": "electric_scooter", "name": "9cecddcb8d446ec4c2ba8ab581f93170", "is_disabled": 0, "rental_uris": {"ios": "https://dc.lft.to/lastmile_qr_scan", "android": "https://dc.lft.to/lastmile_qr_scan"}, "is_reserved": 0}, {"lon": -76.99032633333333, "bike_id": "2d869a0d055e1bf9c30e8b8593ac3bcd", "lat": 38.895998166666665, "fusion_lon": 0.0, "fusion_lat": 0.0, "type": "electric_scooter", "name": "2d869a0d055e1bf9c30e8b8593ac3bcd", "is_disabled": 0, "rental_uris": {"ios": "https://dc.lft.to/lastmile_qr_scan", "android": "https://dc.lft.to/lastmile_qr_scan"}, "is_reserved": 0}, {"lon": -77.034255, "bike_id": "ce1192757b2f6c52cf1317bc1ee1dcdd", "lat": 38.965331666666664, "fusion_lon": 0.0, "fusion_lat": 0.0, "type": "electric_bike", "name": "ce1192757b2f6c52cf1317bc1ee1dcdd", "is_disabled": 0, "rental_uris": {"ios": "https://dc.lft.to/lastmile_qr_scan", "android": "https://dc.lft.to/lastmile_qr_scan"}, "is_reserved": 0}, {"lon": -77.04909583333334, "bike_id": "df9ccf2ff4c21ca26e934697e9f00ff1", "lat": 38.915963166666664, "fusion_lon": 0.0, "fusion_lat": 0.0, "type": "electric_scooter", "name": "df9ccf2ff4c21ca26e934697e9f00ff1", "is_disabled": 0, "rental_uris": {"ios": "https://dc.lft.to/lastmile_qr_scan", "android": "https://dc.lft.to/lastmile_qr_scan"}, "is_reserved": 0}, {"lon": -77.0258055, "bike_id": "1e384d9108fa8a823f7500ae2a85f303", "lat": 38.91401, "fusion_lon": 0.0, "fusion_lat": 0.0, "type": "electric_scooter", "name": "1e384d9108fa8a823f7500ae2a85f303", "is_disabled": 0, "rental_uris": {"ios": "https://dc.lft.to/lastmile_qr_scan", "android": "https://dc.lft.to/lastmile_qr_scan"}, "is_reserved": 0}, {"lon": -76.97206616666666, "bike_id": "fcc49deb8271c27a23d7cc7caa87e348", "lat": 38.892909333333336, "fusion_lon": 0.0, "fusion_lat": 0.0, "type": "electric_bike", "name": "fcc49deb8271c27a23d7cc7caa87e348", "is_disabled": 0, "rental_uris": {"ios": "https://dc.lft.to/lastmile_qr_scan", "android": "https://dc.lft.to/lastmile_qr_scan"}, "is_reserved": 0}, {"lon": -77.05311416666666, "bike_id": "815f68016f3be6e2d7f810dcb37dce63", "lat": 38.90072583333333, "fusion_lon": 0.0, "fusion_lat": 0.0, "type": "electric_scooter", "name": "815f68016f3be6e2d7f810dcb37dce63", "is_disabled": 0, "rental_uris": {"ios": "https://dc.lft.to/lastmile_qr_scan", "android": "https://dc.lft.to/lastmile_qr_scan"}, "is_reserved": 0}, {"lon": -77.0034095, "bike_id": "abc5d48f720cd8285e88731dea1c89cd", "lat": 38.895227166666665, "fusion_lon": 0.0, "fusion_lat": 0.0, "type": "electric_scooter", "name": "abc5d48f720cd8285e88731dea1c89cd", "is_disabled": 0, "rental_uris": {"ios": "https://dc.lft.to/lastmile_qr_scan", "android": "https://dc.lft.to/lastmile_qr_scan"}, "is_reserved": 0}, {"lon": -77.03070683333333, "bike_id": "ca8a289b8ffe5a1db298216aa31dcb92", "lat": 38.885896833333334, "fusion_lon": 0.0, "fusion_lat": 0.0, "type": "electric_scooter", "name": "ca8a289b8ffe5a1db298216aa31dcb92", "is_disabled": 0, "rental_uris": {"ios": "https://dc.lft.to/lastmile_qr_scan", "android": "https://dc.lft.to/lastmile_qr_scan"}, "is_reserved": 0}, {"lon": -77.02115066666667, "bike_id": "ce96a9024cce20c54f6a4f3f0145c2ae", "lat": 38.930022666666666, "fusion_lon": 0.0, "fusion_lat": 0.0, "type": "electric_scooter", "name": "ce96a9024cce20c54f6a4f3f0145c2ae", "is_disabled": 0, "rental_uris": {"ios": "https://dc.lft.to/lastmile_qr_scan", "android": "https://dc.lft.to/lastmile_qr_scan"}, "is_reserved": 0}, {"lon": -77.05002283333333, "bike_id": "9aa37ea34c2b2c0994d1f70d90d4b456", "lat": 38.89771066666667, "fusion_lon": 0.0, "fusion_lat": 0.0, "type": "electric_scooter", "name": "9aa37ea34c2b2c0994d1f70d90d4b456", "is_disabled": 0, "rental_uris": {"ios": "https://dc.lft.to/lastmile_qr_scan", "android": "https://dc.lft.to/lastmile_qr_scan"}, "is_reserved": 0}, {"lon": -77.04733966666667, "bike_id": "37476615da53dea6d106f12caa55f0ec", "lat": 38.909510166666664, "fusion_lon": 0.0, "fusion_lat": 0.0, "type": "electric_scooter", "name": "37476615da53dea6d106f12caa55f0ec", "is_disabled": 0, "rental_uris": {"ios": "https://dc.lft.to/lastmile_qr_scan", "android": "https://dc.lft.to/lastmile_qr_scan"}, "is_reserved": 0}, {"lon": -77.00043266666667, "bike_id": "28ce1632e352d15d3ee602120dd4b938", "lat": 38.90008366666667, "fusion_lon": 0.0, "fusion_lat": 0.0, "type": "electric_scooter", "name": "28ce1632e352d15d3ee602120dd4b938", "is_disabled": 0, "rental_uris": {"ios": "https://dc.lft.to/lastmile_qr_scan", "android": "https://dc.lft.to/lastmile_qr_scan"}, "is_reserved": 0}, {"lon": -77.029877, "bike_id": "860681dd8cad1e2b266df60cf06f0e53", "lat": 38.97440316666667, "fusion_lon": 0.0, "fusion_lat": 0.0, "type": "electric_bike", "name": "860681dd8cad1e2b266df60cf06f0e53", "is_disabled": 0, "rental_uris": {"ios": "https://dc.lft.to/lastmile_qr_scan", "android": "https://dc.lft.to/lastmile_qr_scan"}, "is_reserved": 0}, {"lon": -77.0486525, "bike_id": "f687c07bc7c2e764b5fcf96aa4e90f61", "lat": 38.8922285, "fusion_lon": 0.0, "fusion_lat": 0.0, "type": "electric_scooter", "name": "f687c07bc7c2e764b5fcf96aa4e90f61", "is_disabled": 0, "rental_uris": {"ios": "https://dc.lft.to/lastmile_qr_scan", "android": "https://dc.lft.to/lastmile_qr_scan"}, "is_reserved": 0}, {"lon": -77.01885466666667, "bike_id": "5647a3d9100857b69ba17afc6a4c2cdc", "lat": 38.914858333333335, "fusion_lon": 0.0, "fusion_lat": 0.0, "type": "electric_scooter", "name": "5647a3d9100857b69ba17afc6a4c2cdc", "is_disabled": 0, "rental_uris": {"ios": "https://dc.lft.to/lastmile_qr_scan", "android": "https://dc.lft.to/lastmile_qr_scan"}, "is_reserved": 0}, {"lon": -76.99765766666667, "bike_id": "b6978383322451819d81565bb29d1fe6", "lat": 38.92445683333333, "fusion_lon": 0.0, "fusion_lat": 0.0, "type": "electric_scooter", "name": "b6978383322451819d81565bb29d1fe6", "is_disabled": 0, "rental_uris": {"ios": "https://dc.lft.to/lastmile_qr_scan", "android": "https://dc.lft.to/lastmile_qr_scan"}, "is_reserved": 0}, {"lon": -77.0230765, "bike_id": "ce58e563f262ed332e2945e560533756", "lat": 38.909687, "fusion_lon": 0.0, "fusion_lat": 0.0, "type": "electric_scooter", "name": "ce58e563f262ed332e2945e560533756", "is_disabled": 0, "rental_uris": {"ios": "https://dc.lft.to/lastmile_qr_scan", "android": "https://dc.lft.to/lastmile_qr_scan"}, "is_reserved": 0}, {"lon": -77.05126616666666, "bike_id": "dd11bd1284ff3687c9d38ceecac2399b", "lat": 38.9236275, "fusion_lon": 0.0, "fusion_lat": 0.0, "type": "electric_scooter", "name": "dd11bd1284ff3687c9d38ceecac2399b", "is_disabled": 0, "rental_uris": {"ios": "https://dc.lft.to/lastmile_qr_scan", "android": "https://dc.lft.to/lastmile_qr_scan"}, "is_reserved": 0}, {"lon": -77.05862133333333, "bike_id": "0da136142a038cf6b6a8cf23b32280c4", "lat": 38.936053666666666, "fusion_lon": 0.0, "fusion_lat": 0.0, "type": "electric_scooter", "name": "0da136142a038cf6b6a8cf23b32280c4", "is_disabled": 0, "rental_uris": {"ios": "https://dc.lft.to/lastmile_qr_scan", "android": "https://dc.lft.to/lastmile_qr_scan"}, "is_reserved": 0}, {"lon": -77.01762116666667, "bike_id": "a538d78d1f76d86ce67efed0a0e87816", "lat": 38.921056, "fusion_lon": 0.0, "fusion_lat": 0.0, "type": "electric_scooter", "name": "a538d78d1f76d86ce67efed0a0e87816", "is_disabled": 0, "rental_uris": {"ios": "https://dc.lft.to/lastmile_qr_scan", "android": "https://dc.lft.to/lastmile_qr_scan"}, "is_reserved": 0}, {"lon": -77.02898333333333, "bike_id": "3e5d3ac8bc067fd16c2de1fa875891de", "lat": 38.928159, "fusion_lon": 0.0, "fusion_lat": 0.0, "type": "electric_scooter", "name": "3e5d3ac8bc067fd16c2de1fa875891de", "is_disabled": 0, "rental_uris": {"ios": "https://dc.lft.to/lastmile_qr_scan", "android": "https://dc.lft.to/lastmile_qr_scan"}, "is_reserved": 0}, {"lon": -77.03672933333333, "bike_id": "45e921f7253ca168e550a079734cec57", "lat": 38.93919666666667, "fusion_lon": 0.0, "fusion_lat": 0.0, "type": "electric_scooter", "name": "45e921f7253ca168e550a079734cec57", "is_disabled": 0, "rental_uris": {"ios": "https://dc.lft.to/lastmile_qr_scan", "android": "https://dc.lft.to/lastmile_qr_scan"}, "is_reserved": 0}, {"lon": -77.00774683333333, "bike_id": "5e5281e172c2e534a9487612174133f0", "lat": 38.981304333333334, "fusion_lon": 0.0, "fusion_lat": 0.0, "type": "electric_bike", "name": "5e5281e172c2e534a9487612174133f0", "is_disabled": 0, "rental_uris": {"ios": "https://dc.lft.to/lastmile_qr_scan", "android": "https://dc.lft.to/lastmile_qr_scan"}, "is_reserved": 0}, {"lon": -77.03491583333333, "bike_id": "243d08dd1ed4e36ee4532381bb03ed0a", "lat": 38.935412, "fusion_lon": 0.0, "fusion_lat": 0.0, "type": "electric_scooter", "name": "243d08dd1ed4e36ee4532381bb03ed0a", "is_disabled": 0, "rental_uris": {"ios": "https://dc.lft.to/lastmile_qr_scan", "android": "https://dc.lft.to/lastmile_qr_scan"}, "is_reserved": 0}, {"lon": -77.02550783333334, "bike_id": "1b489654a56c270d199d6577ae58cd1c", "lat": 38.91499733333333, "fusion_lon": 0.0, "fusion_lat": 0.0, "type": "electric_scooter", "name": "1b489654a56c270d199d6577ae58cd1c", "is_disabled": 0, "rental_uris": {"ios": "https://dc.lft.to/lastmile_qr_scan", "android": "https://dc.lft.to/lastmile_qr_scan"}, "is_reserved": 0}, {"lon": -77.00196316666667, "bike_id": "13567307599eaeb84ba8dbcf963ed541", "lat": 38.915915166666665, "fusion_lon": 0.0, "fusion_lat": 0.0, "type": "electric_scooter", "name": "13567307599eaeb84ba8dbcf963ed541", "is_disabled": 0, "rental_uris": {"ios": "https://dc.lft.to/lastmile_qr_scan", "android": "https://dc.lft.to/lastmile_qr_scan"}, "is_reserved": 0}, {"lon": -76.98025166666666, "bike_id": "d556b6c7de2b485c789d977c3f372cce", "lat": 38.9029635, "fusion_lon": 0.0, "fusion_lat": 0.0, "type": "electric_scooter", "name": "d556b6c7de2b485c789d977c3f372cce", "is_disabled": 0, "rental_uris": {"ios": "https://dc.lft.to/lastmile_qr_scan", "android": "https://dc.lft.to/lastmile_qr_scan"}, "is_reserved": 0}, {"lon": -77.02347616666667, "bike_id": "2908f5b425c284d8d7b6ec20a9b9fc8b", "lat": 38.935322166666666, "fusion_lon": 0.0, "fusion_lat": 0.0, "type": "electric_scooter", "name": "2908f5b425c284d8d7b6ec20a9b9fc8b", "is_disabled": 0, "rental_uris": {"ios": "https://dc.lft.to/lastmile_qr_scan", "android": "https://dc.lft.to/lastmile_qr_scan"}, "is_reserved": 0}, {"lon": -76.99882083333334, "bike_id": "943ac32c02fb990c95cd5612a17a0930", "lat": 38.90127416666667, "fusion_lon": 0.0, "fusion_lat": 0.0, "type": "electric_scooter", "name": "943ac32c02fb990c95cd5612a17a0930", "is_disabled": 0, "rental_uris": {"ios": "https://dc.lft.to/lastmile_qr_scan", "android": "https://dc.lft.to/lastmile_qr_scan"}, "is_reserved": 0}, {"lon": -77.029194, "bike_id": "0daae290c4c6b2a25227529d3d88c918", "lat": 38.92367816666667, "fusion_lon": 0.0, "fusion_lat": 0.0, "type": "electric_scooter", "name": "0daae290c4c6b2a25227529d3d88c918", "is_disabled": 0, "rental_uris": {"ios": "https://dc.lft.to/lastmile_qr_scan", "android": "https://dc.lft.to/lastmile_qr_scan"}, "is_reserved": 0}, {"lon": -77.04437283333333, "bike_id": "2b36b169bacb99451a6cb35dd792584c", "lat": 38.921366166666665, "fusion_lon": 0.0, "fusion_lat": 0.0, "type": "electric_scooter", "name": "2b36b169bacb99451a6cb35dd792584c", "is_disabled": 0, "rental_uris": {"ios": "https://dc.lft.to/lastmile_qr_scan", "android": "https://dc.lft.to/lastmile_qr_scan"}, "is_reserved": 0}, {"lon": -77.01419483333333, "bike_id": "70f8377e394aafbc91974fadcb387155", "lat": 38.92858116666667, "fusion_lon": 0.0, "fusion_lat": 0.0, "type": "electric_scooter", "name": "70f8377e394aafbc91974fadcb387155", "is_disabled": 0, "rental_uris": {"ios": "https://dc.lft.to/lastmile_qr_scan", "android": "https://dc.lft.to/lastmile_qr_scan"}, "is_reserved": 0}, {"lon": -77.04003083333333, "bike_id": "6fcb297772ff313296c54aee4bc71e47", "lat": 38.90988433333333, "fusion_lon": 0.0, "fusion_lat": 0.0, "type": "electric_scooter", "name": "6fcb297772ff313296c54aee4bc71e47", "is_disabled": 0, "rental_uris": {"ios": "https://dc.lft.to/lastmile_qr_scan", "android": "https://dc.lft.to/lastmile_qr_scan"}, "is_reserved": 0}, {"lon": -77.02512466666667, "bike_id": "482087145bfa16299d83e9001323103d", "lat": 38.904046, "fusion_lon": 0.0, "fusion_lat": 0.0, "type": "electric_scooter", "name": "482087145bfa16299d83e9001323103d", "is_disabled": 0, "rental_uris": {"ios": "https://dc.lft.to/lastmile_qr_scan", "android": "https://dc.lft.to/lastmile_qr_scan"}, "is_reserved": 0}, {"lon": -77.03292466666667, "bike_id": "cd2ef24e2bb79fb7fb5723261a7bd078", "lat": 38.92556283333333, "fusion_lon": 0.0, "fusion_lat": 0.0, "type": "electric_scooter", "name": "cd2ef24e2bb79fb7fb5723261a7bd078", "is_disabled": 0, "rental_uris": {"ios": "https://dc.lft.to/lastmile_qr_scan", "android": "https://dc.lft.to/lastmile_qr_scan"}, "is_reserved": 0}, {"lon": -77.06284816666667, "bike_id": "9a15da37a2f0ed84bcdbc11d3dd65fa3", "lat": 38.905456666666666, "fusion_lon": 0.0, "fusion_lat": 0.0, "type": "electric_scooter", "name": "9a15da37a2f0ed84bcdbc11d3dd65fa3", "is_disabled": 0, "rental_uris": {"ios": "https://dc.lft.to/lastmile_qr_scan", "android": "https://dc.lft.to/lastmile_qr_scan"}, "is_reserved": 0}, {"lon": -77.04439566666667, "bike_id": "f15757622c26d7dec6ed0607c31ceefb", "lat": 38.92159483333333, "fusion_lon": 0.0, "fusion_lat": 0.0, "type": "electric_scooter", "name": "f15757622c26d7dec6ed0607c31ceefb", "is_disabled": 0, "rental_uris": {"ios": "https://dc.lft.to/lastmile_qr_scan", "android": "https://dc.lft.to/lastmile_qr_scan"}, "is_reserved": 0}, {"lon": -76.9772705, "bike_id": "52e8e3bb2bbc2fb0a85a184120f6fd49", "lat": 38.872843833333334, "fusion_lon": 0.0, "fusion_lat": 0.0, "type": "electric_scooter", "name": "52e8e3bb2bbc2fb0a85a184120f6fd49", "is_disabled": 0, "rental_uris": {"ios": "https://dc.lft.to/lastmile_qr_scan", "android": "https://dc.lft.to/lastmile_qr_scan"}, "is_reserved": 0}, {"lon": -77.03054216666666, "bike_id": "352dff81d612b8472ff0410bcf39f904", "lat": 38.9125095, "fusion_lon": 0.0, "fusion_lat": 0.0, "type": "electric_scooter", "name": "352dff81d612b8472ff0410bcf39f904", "is_disabled": 0, "rental_uris": {"ios": "https://dc.lft.to/lastmile_qr_scan", "android": "https://dc.lft.to/lastmile_qr_scan"}, "is_reserved": 0}, {"lon": -77.02798366666667, "bike_id": "bf5fe152eb7084a742ba778505b6ecd2", "lat": 38.935354, "fusion_lon": 0.0, "fusion_lat": 0.0, "type": "electric_scooter", "name": "bf5fe152eb7084a742ba778505b6ecd2", "is_disabled": 0, "rental_uris": {"ios": "https://dc.lft.to/lastmile_qr_scan", "android": "https://dc.lft.to/lastmile_qr_scan"}, "is_reserved": 0}, {"lon": -77.03202, "bike_id": "a20921f90f87a3d91f0ec17a0640f743", "lat": 38.939659666666664, "fusion_lon": 0.0, "fusion_lat": 0.0, "type": "electric_scooter", "name": "a20921f90f87a3d91f0ec17a0640f743", "is_disabled": 0, "rental_uris": {"ios": "https://dc.lft.to/lastmile_qr_scan", "android": "https://dc.lft.to/lastmile_qr_scan"}, "is_reserved": 0}, {"lon": -76.99069083333333, "bike_id": "252bfbfe85aefb2387c948d77dee9baf", "lat": 38.8636675, "fusion_lon": 0.0, "fusion_lat": 0.0, "type": "electric_scooter", "name": "252bfbfe85aefb2387c948d77dee9baf", "is_disabled": 0, "rental_uris": {"ios": "https://dc.lft.to/lastmile_qr_scan", "android": "https://dc.lft.to/lastmile_qr_scan"}, "is_reserved": 0}, {"lon": -76.99603466666667, "bike_id": "bf2e53e4616d313a47951b35af5a6460", "lat": 38.856999, "fusion_lon": 0.0, "fusion_lat": 0.0, "type": "electric_scooter", "name": "bf2e53e4616d313a47951b35af5a6460", "is_disabled": 0, "rental_uris": {"ios": "https://dc.lft.to/lastmile_qr_scan", "android": "https://dc.lft.to/lastmile_qr_scan"}, "is_reserved": 0}, {"lon": -77.05382466666667, "bike_id": "7d45ecf6f2517acb826336da4903d28b", "lat": 38.92731066666666, "fusion_lon": 0.0, "fusion_lat": 0.0, "type": "electric_scooter", "name": "7d45ecf6f2517acb826336da4903d28b", "is_disabled": 0, "rental_uris": {"ios": "https://dc.lft.to/lastmile_qr_scan", "android": "https://dc.lft.to/lastmile_qr_scan"}, "is_reserved": 0}, {"lon": -77.03044466666667, "bike_id": "480d849bb46da212658a1809c5a7f339", "lat": 38.89833216666667, "fusion_lon": 0.0, "fusion_lat": 0.0, "type": "electric_scooter", "name": "480d849bb46da212658a1809c5a7f339", "is_disabled": 0, "rental_uris": {"ios": "https://dc.lft.to/lastmile_qr_scan", "android": "https://dc.lft.to/lastmile_qr_scan"}, "is_reserved": 0}, {"lon": -77.0136355, "bike_id": "87e8fcbbb196114d86308834be5e3a3f", "lat": 38.887032, "fusion_lon": 0.0, "fusion_lat": 0.0, "type": "electric_scooter", "name": "87e8fcbbb196114d86308834be5e3a3f", "is_disabled": 0, "rental_uris": {"ios": "https://dc.lft.to/lastmile_qr_scan", "android": "https://dc.lft.to/lastmile_qr_scan"}, "is_reserved": 0}, {"lon": -77.02577833333334, "bike_id": "fd7a692894bcf0db4bcad06667639b8d", "lat": 38.92725766666667, "fusion_lon": 0.0, "fusion_lat": 0.0, "type": "electric_scooter", "name": "fd7a692894bcf0db4bcad06667639b8d", "is_disabled": 0, "rental_uris": {"ios": "https://dc.lft.to/lastmile_qr_scan", "android": "https://dc.lft.to/lastmile_qr_scan"}, "is_reserved": 0}, {"lon": -77.04600966666666, "bike_id": "36dfc13a7b06e69aabd8433ec916edb6", "lat": 38.916038, "fusion_lon": 0.0, "fusion_lat": 0.0, "type": "electric_scooter", "name": "36dfc13a7b06e69aabd8433ec916edb6", "is_disabled": 0, "rental_uris": {"ios": "https://dc.lft.to/lastmile_qr_scan", "android": "https://dc.lft.to/lastmile_qr_scan"}, "is_reserved": 0}, {"lon": -77.0238165, "bike_id": "066b515c8a7824be2b2fc143600db7d8", "lat": 38.920036833333334, "fusion_lon": 0.0, "fusion_lat": 0.0, "type": "electric_scooter", "name": "066b515c8a7824be2b2fc143600db7d8", "is_disabled": 0, "rental_uris": {"ios": "https://dc.lft.to/lastmile_qr_scan", "android": "https://dc.lft.to/lastmile_qr_scan"}, "is_reserved": 0}, {"lon": -76.98828733333333, "bike_id": "e9d8d96210e09dd2fea6322ec6f4ccae", "lat": 38.8907775, "fusion_lon": 0.0, "fusion_lat": 0.0, "type": "electric_scooter", "name": "e9d8d96210e09dd2fea6322ec6f4ccae", "is_disabled": 0, "rental_uris": {"ios": "https://dc.lft.to/lastmile_qr_scan", "android": "https://dc.lft.to/lastmile_qr_scan"}, "is_reserved": 0}, {"lon": -77.0294085, "bike_id": "4425bee02632282b2326e55b1e800c12", "lat": 38.89834233333333, "fusion_lon": 0.0, "fusion_lat": 0.0, "type": "electric_scooter", "name": "4425bee02632282b2326e55b1e800c12", "is_disabled": 0, "rental_uris": {"ios": "https://dc.lft.to/lastmile_qr_scan", "android": "https://dc.lft.to/lastmile_qr_scan"}, "is_reserved": 0}, {"lon": -77.01962566666667, "bike_id": "7f0a2552acf3e1c7151ac90f4feb0205", "lat": 38.95229483333333, "fusion_lon": 0.0, "fusion_lat": 0.0, "type": "electric_scooter", "name": "7f0a2552acf3e1c7151ac90f4feb0205", "is_disabled": 0, "rental_uris": {"ios": "https://dc.lft.to/lastmile_qr_scan", "android": "https://dc.lft.to/lastmile_qr_scan"}, "is_reserved": 0}, {"lon": -77.00555, "bike_id": "00b2bac9bed477882a6669dc3c746e59", "lat": 38.87471466666667, "fusion_lon": 0.0, "fusion_lat": 0.0, "type": "electric_scooter", "name": "00b2bac9bed477882a6669dc3c746e59", "is_disabled": 0, "rental_uris": {"ios": "https://dc.lft.to/lastmile_qr_scan", "android": "https://dc.lft.to/lastmile_qr_scan"}, "is_reserved": 0}, {"lon": -77.00747516666667, "bike_id": "f9b90fc67799e97f3cc67b313743fdee", "lat": 38.87648083333333, "fusion_lon": 0.0, "fusion_lat": 0.0, "type": "electric_scooter", "name": "f9b90fc67799e97f3cc67b313743fdee", "is_disabled": 0, "rental_uris": {"ios": "https://dc.lft.to/lastmile_qr_scan", "android": "https://dc.lft.to/lastmile_qr_scan"}, "is_reserved": 0}, {"lon": -77.002578, "bike_id": "7961db2a06e3e8da8c813d3e7d1986d4", "lat": 38.90870183333333, "fusion_lon": 0.0, "fusion_lat": 0.0, "type": "electric_scooter", "name": "7961db2a06e3e8da8c813d3e7d1986d4", "is_disabled": 0, "rental_uris": {"ios": "https://dc.lft.to/lastmile_qr_scan", "android": "https://dc.lft.to/lastmile_qr_scan"}, "is_reserved": 0}, {"lon": -76.96152216666667, "bike_id": "c1003546af8856108986eac83c8d56ba", "lat": 38.8835805, "fusion_lon": 0.0, "fusion_lat": 0.0, "type": "electric_scooter", "name": "c1003546af8856108986eac83c8d56ba", "is_disabled": 0, "rental_uris": {"ios": "https://dc.lft.to/lastmile_qr_scan", "android": "https://dc.lft.to/lastmile_qr_scan"}, "is_reserved": 0}, {"lon": -77.03864583333333, "bike_id": "257e2337654cb9c7e6b19577e47eaa63", "lat": 38.945023166666665, "fusion_lon": 0.0, "fusion_lat": 0.0, "type": "electric_scooter", "name": "257e2337654cb9c7e6b19577e47eaa63", "is_disabled": 0, "rental_uris": {"ios": "https://dc.lft.to/lastmile_qr_scan", "android": "https://dc.lft.to/lastmile_qr_scan"}, "is_reserved": 0}, {"lon": -77.03267516666666, "bike_id": "779c6fcf6aa30d08a210a9a6682ba088", "lat": 38.937205166666665, "fusion_lon": 0.0, "fusion_lat": 0.0, "type": "electric_scooter", "name": "779c6fcf6aa30d08a210a9a6682ba088", "is_disabled": 0, "rental_uris": {"ios": "https://dc.lft.to/lastmile_qr_scan", "android": "https://dc.lft.to/lastmile_qr_scan"}, "is_reserved": 0}, {"lon": -76.98727283333334, "bike_id": "b9ba7cd825411a9f503b1cd77894e54c", "lat": 38.86679983333333, "fusion_lon": 0.0, "fusion_lat": 0.0, "type": "electric_scooter", "name": "b9ba7cd825411a9f503b1cd77894e54c", "is_disabled": 0, "rental_uris": {"ios": "https://dc.lft.to/lastmile_qr_scan", "android": "https://dc.lft.to/lastmile_qr_scan"}, "is_reserved": 0}, {"lon": -77.03885933333333, "bike_id": "45831ebf166fa1a69339fd0d0ea31387", "lat": 38.909989833333334, "fusion_lon": 0.0, "fusion_lat": 0.0, "type": "electric_scooter", "name": "45831ebf166fa1a69339fd0d0ea31387", "is_disabled": 0, "rental_uris": {"ios": "https://dc.lft.to/lastmile_qr_scan", "android": "https://dc.lft.to/lastmile_qr_scan"}, "is_reserved": 0}, {"lon": -76.95367216666666, "bike_id": "25ae920a81996e0122b9c42eb4c1a67a", "lat": 38.892043, "fusion_lon": 0.0, "fusion_lat": 0.0, "type": "electric_scooter", "name": "25ae920a81996e0122b9c42eb4c1a67a", "is_disabled": 0, "rental_uris": {"ios": "https://dc.lft.to/lastmile_qr_scan", "android": "https://dc.lft.to/lastmile_qr_scan"}, "is_reserved": 0}, {"lon": -77.03532233333334, "bike_id": "a9680007785b31bb10e77be453cc299e", "lat": 38.9241965, "fusion_lon": 0.0, "fusion_lat": 0.0, "type": "electric_bike", "name": "a9680007785b31bb10e77be453cc299e", "is_disabled": 0, "rental_uris": {"ios": "https://dc.lft.to/lastmile_qr_scan", "android": "https://dc.lft.to/lastmile_qr_scan"}, "is_reserved": 0}, {"lon": -76.998505, "bike_id": "c1312c7a6ca8540ca3230fb72b5ef971", "lat": 38.902158, "fusion_lon": 0.0, "fusion_lat": 0.0, "type": "electric_scooter", "name": "c1312c7a6ca8540ca3230fb72b5ef971", "is_disabled": 0, "rental_uris": {"ios": "https://dc.lft.to/lastmile_qr_scan", "android": "https://dc.lft.to/lastmile_qr_scan"}, "is_reserved": 0}, {"lon": -77.0348205, "bike_id": "94095c36b721bc605305dc9910563e75", "lat": 38.92871516666666, "fusion_lon": 0.0, "fusion_lat": 0.0, "type": "electric_scooter", "name": "94095c36b721bc605305dc9910563e75", "is_disabled": 0, "rental_uris": {"ios": "https://dc.lft.to/lastmile_qr_scan", "android": "https://dc.lft.to/lastmile_qr_scan"}, "is_reserved": 0}, {"lon": -77.0057605, "bike_id": "d62911b17547f4a4f42604bb82c1bf5c", "lat": 38.884416333333334, "fusion_lon": 0.0, "fusion_lat": 0.0, "type": "electric_scooter", "name": "d62911b17547f4a4f42604bb82c1bf5c", "is_disabled": 0, "rental_uris": {"ios": "https://dc.lft.to/lastmile_qr_scan", "android": "https://dc.lft.to/lastmile_qr_scan"}, "is_reserved": 0}, {"lon": -77.03705266666667, "bike_id": "5b0d5c2ec7a6c85d6bdb6002b2cbc2fb", "lat": 38.92640516666667, "fusion_lon": 0.0, "fusion_lat": 0.0, "type": "electric_scooter", "name": "5b0d5c2ec7a6c85d6bdb6002b2cbc2fb", "is_disabled": 0, "rental_uris": {"ios": "https://dc.lft.to/lastmile_qr_scan", "android": "https://dc.lft.to/lastmile_qr_scan"}, "is_reserved": 0}, {"lon": -77.0420885, "bike_id": "208832e062cecf4bde017388a4ed7b64", "lat": 38.92085483333334, "fusion_lon": 0.0, "fusion_lat": 0.0, "type": "electric_scooter", "name": "208832e062cecf4bde017388a4ed7b64", "is_disabled": 0, "rental_uris": {"ios": "https://dc.lft.to/lastmile_qr_scan", "android": "https://dc.lft.to/lastmile_qr_scan"}, "is_reserved": 0}, {"lon": -76.96781416666667, "bike_id": "c198fc960d5bcd3797a1b9032000a219", "lat": 38.8684815, "fusion_lon": 0.0, "fusion_lat": 0.0, "type": "electric_scooter", "name": "c198fc960d5bcd3797a1b9032000a219", "is_disabled": 0, "rental_uris": {"ios": "https://dc.lft.to/lastmile_qr_scan", "android": "https://dc.lft.to/lastmile_qr_scan"}, "is_reserved": 0}, {"lon": -77.00968233333333, "bike_id": "fc64ac9247006ebb4920a0e10c60583b", "lat": 38.91181233333333, "fusion_lon": 0.0, "fusion_lat": 0.0, "type": "electric_scooter", "name": "fc64ac9247006ebb4920a0e10c60583b", "is_disabled": 0, "rental_uris": {"ios": "https://dc.lft.to/lastmile_qr_scan", "android": "https://dc.lft.to/lastmile_qr_scan"}, "is_reserved": 0}, {"lon": -77.0354495, "bike_id": "b1cdb6c2fa4a0bac4fb3eff27084b193", "lat": 38.924159833333334, "fusion_lon": 0.0, "fusion_lat": 0.0, "type": "electric_scooter", "name": "b1cdb6c2fa4a0bac4fb3eff27084b193", "is_disabled": 0, "rental_uris": {"ios": "https://dc.lft.to/lastmile_qr_scan", "android": "https://dc.lft.to/lastmile_qr_scan"}, "is_reserved": 0}, {"lon": -76.98162366666666, "bike_id": "72fdc90610fb279ef2fb07c5ef81dae5", "lat": 38.92565283333333, "fusion_lon": 0.0, "fusion_lat": 0.0, "type": "electric_scooter", "name": "72fdc90610fb279ef2fb07c5ef81dae5", "is_disabled": 0, "rental_uris": {"ios": "https://dc.lft.to/lastmile_qr_scan", "android": "https://dc.lft.to/lastmile_qr_scan"}, "is_reserved": 0}, {"lon": -77.02586166666667, "bike_id": "3cca19f3d652830385e78a127cd07f45", "lat": 38.89229066666667, "fusion_lon": 0.0, "fusion_lat": 0.0, "type": "electric_scooter", "name": "3cca19f3d652830385e78a127cd07f45", "is_disabled": 0, "rental_uris": {"ios": "https://dc.lft.to/lastmile_qr_scan", "android": "https://dc.lft.to/lastmile_qr_scan"}, "is_reserved": 0}, {"lon": -77.02276183333333, "bike_id": "2907acd309366539cc34baa587677eeb", "lat": 38.92681666666667, "fusion_lon": 0.0, "fusion_lat": 0.0, "type": "electric_scooter", "name": "2907acd309366539cc34baa587677eeb", "is_disabled": 0, "rental_uris": {"ios": "https://dc.lft.to/lastmile_qr_scan", "android": "https://dc.lft.to/lastmile_qr_scan"}, "is_reserved": 0}, {"lon": -77.00753233333333, "bike_id": "7bcd6c162d2538bed84af1226efab4bf", "lat": 38.90054883333333, "fusion_lon": 0.0, "fusion_lat": 0.0, "type": "electric_scooter", "name": "7bcd6c162d2538bed84af1226efab4bf", "is_disabled": 0, "rental_uris": {"ios": "https://dc.lft.to/lastmile_qr_scan", "android": "https://dc.lft.to/lastmile_qr_scan"}, "is_reserved": 0}, {"lon": -77.049845, "bike_id": "ccacee377e289e9317d762e75a33076c", "lat": 38.896081833333334, "fusion_lon": 0.0, "fusion_lat": 0.0, "type": "electric_scooter", "name": "ccacee377e289e9317d762e75a33076c", "is_disabled": 0, "rental_uris": {"ios": "https://dc.lft.to/lastmile_qr_scan", "android": "https://dc.lft.to/lastmile_qr_scan"}, "is_reserved": 0}, {"lon": -76.99171966666667, "bike_id": "c569c5949a8576334f6144727055c6d3", "lat": 38.889882666666665, "fusion_lon": 0.0, "fusion_lat": 0.0, "type": "electric_scooter", "name": "c569c5949a8576334f6144727055c6d3", "is_disabled": 0, "rental_uris": {"ios": "https://dc.lft.to/lastmile_qr_scan", "android": "https://dc.lft.to/lastmile_qr_scan"}, "is_reserved": 0}, {"lon": -76.99650983333333, "bike_id": "acc1b04bf52d07ee512fdbe2c34878e0", "lat": 38.98824966666667, "fusion_lon": 0.0, "fusion_lat": 0.0, "type": "electric_bike", "name": "acc1b04bf52d07ee512fdbe2c34878e0", "is_disabled": 0, "rental_uris": {"ios": "https://dc.lft.to/lastmile_qr_scan", "android": "https://dc.lft.to/lastmile_qr_scan"}, "is_reserved": 0}, {"lon": -77.016235, "bike_id": "3db5c9c48168abf45bbc2fcabd31f372", "lat": 38.899394666666666, "fusion_lon": 0.0, "fusion_lat": 0.0, "type": "electric_scooter", "name": "3db5c9c48168abf45bbc2fcabd31f372", "is_disabled": 0, "rental_uris": {"ios": "https://dc.lft.to/lastmile_qr_scan", "android": "https://dc.lft.to/lastmile_qr_scan"}, "is_reserved": 0}, {"lon": -77.050487, "bike_id": "b1907477928993ecdb4ca1297b934951", "lat": 38.92386783333333, "fusion_lon": 0.0, "fusion_lat": 0.0, "type": "electric_scooter", "name": "b1907477928993ecdb4ca1297b934951", "is_disabled": 0, "rental_uris": {"ios": "https://dc.lft.to/lastmile_qr_scan", "android": "https://dc.lft.to/lastmile_qr_scan"}, "is_reserved": 0}, {"lon": -77.0326715, "bike_id": "042bf197da1710b43f9e2007292a3732", "lat": 38.909673166666664, "fusion_lon": 0.0, "fusion_lat": 0.0, "type": "electric_scooter", "name": "042bf197da1710b43f9e2007292a3732", "is_disabled": 0, "rental_uris": {"ios": "https://dc.lft.to/lastmile_qr_scan", "android": "https://dc.lft.to/lastmile_qr_scan"}, "is_reserved": 0}, {"lon": -77.05139366666667, "bike_id": "fbf4ff8dd3334312315f86031e5c4d4a", "lat": 38.89851916666667, "fusion_lon": 0.0, "fusion_lat": 0.0, "type": "electric_scooter", "name": "fbf4ff8dd3334312315f86031e5c4d4a", "is_disabled": 0, "rental_uris": {"ios": "https://dc.lft.to/lastmile_qr_scan", "android": "https://dc.lft.to/lastmile_qr_scan"}, "is_reserved": 0}, {"lon": -77.0128745, "bike_id": "2962898d70a922a01ae0be183932085c", "lat": 38.910344, "fusion_lon": 0.0, "fusion_lat": 0.0, "type": "electric_scooter", "name": "2962898d70a922a01ae0be183932085c", "is_disabled": 0, "rental_uris": {"ios": "https://dc.lft.to/lastmile_qr_scan", "android": "https://dc.lft.to/lastmile_qr_scan"}, "is_reserved": 0}, {"lon": -77.021539, "bike_id": "4a13e8847743ec6508266e20b9a1b7e1", "lat": 38.894053666666665, "fusion_lon": 0.0, "fusion_lat": 0.0, "type": "electric_scooter", "name": "4a13e8847743ec6508266e20b9a1b7e1", "is_disabled": 0, "rental_uris": {"ios": "https://dc.lft.to/lastmile_qr_scan", "android": "https://dc.lft.to/lastmile_qr_scan"}, "is_reserved": 0}, {"lon": -77.03662716666666, "bike_id": "72a9bbc19af6718370e5580ddbb4c0aa", "lat": 38.91867833333333, "fusion_lon": 0.0, "fusion_lat": 0.0, "type": "electric_scooter", "name": "72a9bbc19af6718370e5580ddbb4c0aa", "is_disabled": 0, "rental_uris": {"ios": "https://dc.lft.to/lastmile_qr_scan", "android": "https://dc.lft.to/lastmile_qr_scan"}, "is_reserved": 0}, {"lon": -77.02597683333333, "bike_id": "1490da059af08a306d58a7a6443a468f", "lat": 38.904896666666666, "fusion_lon": 0.0, "fusion_lat": 0.0, "type": "electric_scooter", "name": "1490da059af08a306d58a7a6443a468f", "is_disabled": 0, "rental_uris": {"ios": "https://dc.lft.to/lastmile_qr_scan", "android": "https://dc.lft.to/lastmile_qr_scan"}, "is_reserved": 0}, {"lon": -76.98933616666666, "bike_id": "78283ce914a8298bbd49751f80d7e2ce", "lat": 38.918374166666666, "fusion_lon": 0.0, "fusion_lat": 0.0, "type": "electric_scooter", "name": "78283ce914a8298bbd49751f80d7e2ce", "is_disabled": 0, "rental_uris": {"ios": "https://dc.lft.to/lastmile_qr_scan", "android": "https://dc.lft.to/lastmile_qr_scan"}, "is_reserved": 0}, {"lon": -77.04990666666667, "bike_id": "35c4422e0f0206349cfd7184f0bfd5a2", "lat": 38.89460016666666, "fusion_lon": 0.0, "fusion_lat": 0.0, "type": "electric_scooter", "name": "35c4422e0f0206349cfd7184f0bfd5a2", "is_disabled": 0, "rental_uris": {"ios": "https://dc.lft.to/lastmile_qr_scan", "android": "https://dc.lft.to/lastmile_qr_scan"}, "is_reserved": 0}, {"lon": -77.04876216666666, "bike_id": "5e774716a1a0aee0977859a35fe235b0", "lat": 38.90977216666667, "fusion_lon": 0.0, "fusion_lat": 0.0, "type": "electric_scooter", "name": "5e774716a1a0aee0977859a35fe235b0", "is_disabled": 0, "rental_uris": {"ios": "https://dc.lft.to/lastmile_qr_scan", "android": "https://dc.lft.to/lastmile_qr_scan"}, "is_reserved": 0}, {"lon": -77.04500566666667, "bike_id": "85273ccd8f4106d7f9e6ae1e338c2e57", "lat": 38.91931433333333, "fusion_lon": 0.0, "fusion_lat": 0.0, "type": "electric_scooter", "name": "85273ccd8f4106d7f9e6ae1e338c2e57", "is_disabled": 0, "rental_uris": {"ios": "https://dc.lft.to/lastmile_qr_scan", "android": "https://dc.lft.to/lastmile_qr_scan"}, "is_reserved": 0}, {"lon": -77.0576265, "bike_id": "ffa0001b1f7853718a4a5adcad9d374c", "lat": 38.9249545, "fusion_lon": 0.0, "fusion_lat": 0.0, "type": "electric_bike", "name": "ffa0001b1f7853718a4a5adcad9d374c", "is_disabled": 0, "rental_uris": {"ios": "https://dc.lft.to/lastmile_qr_scan", "android": "https://dc.lft.to/lastmile_qr_scan"}, "is_reserved": 0}, {"lon": -77.1084095, "bike_id": "556e88a7b41f7739ae64fa519b6389b4", "lat": 38.812008, "fusion_lon": 0.0, "fusion_lat": 0.0, "type": "electric_bike", "name": "556e88a7b41f7739ae64fa519b6389b4", "is_disabled": 0, "rental_uris": {"ios": "https://dc.lft.to/lastmile_qr_scan", "android": "https://dc.lft.to/lastmile_qr_scan"}, "is_reserved": 0}, {"lon": -77.00009766666666, "bike_id": "3bb2465358ee915e8f3e67182868d138", "lat": 38.8974315, "fusion_lon": 0.0, "fusion_lat": 0.0, "type": "electric_scooter", "name": "3bb2465358ee915e8f3e67182868d138", "is_disabled": 0, "rental_uris": {"ios": "https://dc.lft.to/lastmile_qr_scan", "android": "https://dc.lft.to/lastmile_qr_scan"}, "is_reserved": 0}, {"lon": -76.96499433333334, "bike_id": "e030a708e0fe53b39904e2897b484ccd", "lat": 38.876453166666664, "fusion_lon": 0.0, "fusion_lat": 0.0, "type": "electric_scooter", "name": "e030a708e0fe53b39904e2897b484ccd", "is_disabled": 0, "rental_uris": {"ios": "https://dc.lft.to/lastmile_qr_scan", "android": "https://dc.lft.to/lastmile_qr_scan"}, "is_reserved": 0}, {"lon": -77.0412785, "bike_id": "6cf346120c7311c1545f417a5a796554", "lat": 38.91556833333333, "fusion_lon": 0.0, "fusion_lat": 0.0, "type": "electric_scooter", "name": "6cf346120c7311c1545f417a5a796554", "is_disabled": 0, "rental_uris": {"ios": "https://dc.lft.to/lastmile_qr_scan", "android": "https://dc.lft.to/lastmile_qr_scan"}, "is_reserved": 0}, {"lon": -77.02807966666667, "bike_id": "91e73abe9f86621b45070c4111e5f2e9", "lat": 38.907326833333336, "fusion_lon": 0.0, "fusion_lat": 0.0, "type": "electric_scooter", "name": "91e73abe9f86621b45070c4111e5f2e9", "is_disabled": 0, "rental_uris": {"ios": "https://dc.lft.to/lastmile_qr_scan", "android": "https://dc.lft.to/lastmile_qr_scan"}, "is_reserved": 0}, {"lon": -76.99766466666667, "bike_id": "b4b6684e3327809023d1abc28262bab4", "lat": 38.887660333333336, "fusion_lon": 0.0, "fusion_lat": 0.0, "type": "electric_scooter", "name": "b4b6684e3327809023d1abc28262bab4", "is_disabled": 0, "rental_uris": {"ios": "https://dc.lft.to/lastmile_qr_scan", "android": "https://dc.lft.to/lastmile_qr_scan"}, "is_reserved": 0}, {"lon": -77.06579966666666, "bike_id": "7e05b9d67868ca7bed8cdc4d31aafea6", "lat": 38.91130166666667, "fusion_lon": 0.0, "fusion_lat": 0.0, "type": "electric_bike", "name": "7e05b9d67868ca7bed8cdc4d31aafea6", "is_disabled": 0, "rental_uris": {"ios": "https://dc.lft.to/lastmile_qr_scan", "android": "https://dc.lft.to/lastmile_qr_scan"}, "is_reserved": 0}, {"lon": -76.94197733333333, "bike_id": "09157b9b76d3a1d76cb76d24909c07e1", "lat": 38.893705833333335, "fusion_lon": 0.0, "fusion_lat": 0.0, "type": "electric_scooter", "name": "09157b9b76d3a1d76cb76d24909c07e1", "is_disabled": 0, "rental_uris": {"ios": "https://dc.lft.to/lastmile_qr_scan", "android": "https://dc.lft.to/lastmile_qr_scan"}, "is_reserved": 0}, {"lon": -77.01541866666666, "bike_id": "44c237b214b3d7284cdbbcceb087b46e", "lat": 38.88494, "fusion_lon": 0.0, "fusion_lat": 0.0, "type": "electric_scooter", "name": "44c237b214b3d7284cdbbcceb087b46e", "is_disabled": 0, "rental_uris": {"ios": "https://dc.lft.to/lastmile_qr_scan", "android": "https://dc.lft.to/lastmile_qr_scan"}, "is_reserved": 0}, {"lon": -77.034202, "bike_id": "0937d5c68b998c0064773bc33848f60b", "lat": 38.927446333333336, "fusion_lon": 0.0, "fusion_lat": 0.0, "type": "electric_scooter", "name": "0937d5c68b998c0064773bc33848f60b", "is_disabled": 0, "rental_uris": {"ios": "https://dc.lft.to/lastmile_qr_scan", "android": "https://dc.lft.to/lastmile_qr_scan"}, "is_reserved": 0}, {"lon": -76.98842916666666, "bike_id": "f89b4fff6eb955ec40109b5519924895", "lat": 38.89667333333333, "fusion_lon": 0.0, "fusion_lat": 0.0, "type": "electric_scooter", "name": "f89b4fff6eb955ec40109b5519924895", "is_disabled": 0, "rental_uris": {"ios": "https://dc.lft.to/lastmile_qr_scan", "android": "https://dc.lft.to/lastmile_qr_scan"}, "is_reserved": 0}, {"lon": -77.04498883333333, "bike_id": "ace6d199ce9ef8de621eb79390e5c854", "lat": 38.90509516666667, "fusion_lon": 0.0, "fusion_lat": 0.0, "type": "electric_scooter", "name": "ace6d199ce9ef8de621eb79390e5c854", "is_disabled": 0, "rental_uris": {"ios": "https://dc.lft.to/lastmile_qr_scan", "android": "https://dc.lft.to/lastmile_qr_scan"}, "is_reserved": 0}, {"lon": -77.02839466666667, "bike_id": "51628a3b20e22a1ccc7b7684880ef3e6", "lat": 38.887704166666666, "fusion_lon": 0.0, "fusion_lat": 0.0, "type": "electric_scooter", "name": "51628a3b20e22a1ccc7b7684880ef3e6", "is_disabled": 0, "rental_uris": {"ios": "https://dc.lft.to/lastmile_qr_scan", "android": "https://dc.lft.to/lastmile_qr_scan"}, "is_reserved": 0}, {"lon": -77.023104, "bike_id": "ffcd1a3a5022a2205d885b966942fc10", "lat": 38.927301166666666, "fusion_lon": 0.0, "fusion_lat": 0.0, "type": "electric_scooter", "name": "ffcd1a3a5022a2205d885b966942fc10", "is_disabled": 0, "rental_uris": {"ios": "https://dc.lft.to/lastmile_qr_scan", "android": "https://dc.lft.to/lastmile_qr_scan"}, "is_reserved": 0}, {"lon": -76.946825, "bike_id": "4a81fd01c0b2f8f5dbeb91b22574a498", "lat": 38.8863085, "fusion_lon": 0.0, "fusion_lat": 0.0, "type": "electric_scooter", "name": "4a81fd01c0b2f8f5dbeb91b22574a498", "is_disabled": 0, "rental_uris": {"ios": "https://dc.lft.to/lastmile_qr_scan", "android": "https://dc.lft.to/lastmile_qr_scan"}, "is_reserved": 0}, {"lon": -77.0276995, "bike_id": "1e9afa303d26a1b2af0025038f29df5e", "lat": 38.954233333333335, "fusion_lon": 0.0, "fusion_lat": 0.0, "type": "electric_scooter", "name": "1e9afa303d26a1b2af0025038f29df5e", "is_disabled": 0, "rental_uris": {"ios": "https://dc.lft.to/lastmile_qr_scan", "android": "https://dc.lft.to/lastmile_qr_scan"}, "is_reserved": 0}, {"lon": -76.96599766666667, "bike_id": "c478f8ec80047c3a705b24ce0ea3eba1", "lat": 38.87109566666667, "fusion_lon": 0.0, "fusion_lat": 0.0, "type": "electric_scooter", "name": "c478f8ec80047c3a705b24ce0ea3eba1", "is_disabled": 0, "rental_uris": {"ios": "https://dc.lft.to/lastmile_qr_scan", "android": "https://dc.lft.to/lastmile_qr_scan"}, "is_reserved": 0}, {"lon": -77.04328, "bike_id": "2818ad0067f767eca7fb77863aa32f76", "lat": 38.92366716666667, "fusion_lon": 0.0, "fusion_lat": 0.0, "type": "electric_scooter", "name": "2818ad0067f767eca7fb77863aa32f76", "is_disabled": 0, "rental_uris": {"ios": "https://dc.lft.to/lastmile_qr_scan", "android": "https://dc.lft.to/lastmile_qr_scan"}, "is_reserved": 0}, {"lon": -77.03455266666667, "bike_id": "f0d25959c75f3849f7e858433bb566fd", "lat": 38.9343725, "fusion_lon": 0.0, "fusion_lat": 0.0, "type": "electric_scooter", "name": "f0d25959c75f3849f7e858433bb566fd", "is_disabled": 0, "rental_uris": {"ios": "https://dc.lft.to/lastmile_qr_scan", "android": "https://dc.lft.to/lastmile_qr_scan"}, "is_reserved": 0}, {"lon": -77.02021733333333, "bike_id": "29557801487ac19e6196c16a942a23a7", "lat": 38.90556466666666, "fusion_lon": 0.0, "fusion_lat": 0.0, "type": "electric_scooter", "name": "29557801487ac19e6196c16a942a23a7", "is_disabled": 0, "rental_uris": {"ios": "https://dc.lft.to/lastmile_qr_scan", "android": "https://dc.lft.to/lastmile_qr_scan"}, "is_reserved": 0}, {"lon": -77.04024333333334, "bike_id": "3c2daa01a2d439d3dee3435098c1b2ee", "lat": 38.9217135, "fusion_lon": 0.0, "fusion_lat": 0.0, "type": "electric_scooter", "name": "3c2daa01a2d439d3dee3435098c1b2ee", "is_disabled": 0, "rental_uris": {"ios": "https://dc.lft.to/lastmile_qr_scan", "android": "https://dc.lft.to/lastmile_qr_scan"}, "is_reserved": 0}, {"lon": -77.04461533333334, "bike_id": "6e6e3212c3266324a332c0af1931dd41", "lat": 38.9184205, "fusion_lon": 0.0, "fusion_lat": 0.0, "type": "electric_scooter", "name": "6e6e3212c3266324a332c0af1931dd41", "is_disabled": 0, "rental_uris": {"ios": "https://dc.lft.to/lastmile_qr_scan", "android": "https://dc.lft.to/lastmile_qr_scan"}, "is_reserved": 0}, {"lon": -77.02297483333334, "bike_id": "0b0a574fc8cb5d16425066ea2551065f", "lat": 38.92225366666667, "fusion_lon": 0.0, "fusion_lat": 0.0, "type": "electric_scooter", "name": "0b0a574fc8cb5d16425066ea2551065f", "is_disabled": 0, "rental_uris": {"ios": "https://dc.lft.to/lastmile_qr_scan", "android": "https://dc.lft.to/lastmile_qr_scan"}, "is_reserved": 0}, {"lon": -77.008158, "bike_id": "7e51f0206dfc32012dd77e2c28f6aeae", "lat": 38.876400333333336, "fusion_lon": 0.0, "fusion_lat": 0.0, "type": "electric_scooter", "name": "7e51f0206dfc32012dd77e2c28f6aeae", "is_disabled": 0, "rental_uris": {"ios": "https://dc.lft.to/lastmile_qr_scan", "android": "https://dc.lft.to/lastmile_qr_scan"}, "is_reserved": 0}, {"lon": -77.0326415, "bike_id": "ed1d97153a74062a1ae7ec334ea3bec1", "lat": 38.91992966666667, "fusion_lon": 0.0, "fusion_lat": 0.0, "type": "electric_scooter", "name": "ed1d97153a74062a1ae7ec334ea3bec1", "is_disabled": 0, "rental_uris": {"ios": "https://dc.lft.to/lastmile_qr_scan", "android": "https://dc.lft.to/lastmile_qr_scan"}, "is_reserved": 0}, {"lon": -77.029634, "bike_id": "4f023e9ede3a7e0d3c6513a5c90bfcdf", "lat": 38.92288716666667, "fusion_lon": 0.0, "fusion_lat": 0.0, "type": "electric_scooter", "name": "4f023e9ede3a7e0d3c6513a5c90bfcdf", "is_disabled": 0, "rental_uris": {"ios": "https://dc.lft.to/lastmile_qr_scan", "android": "https://dc.lft.to/lastmile_qr_scan"}, "is_reserved": 0}, {"lon": -77.0263855, "bike_id": "67b7f4f31e79de1f9bfa5d5c22301be3", "lat": 38.90415333333333, "fusion_lon": 0.0, "fusion_lat": 0.0, "type": "electric_scooter", "name": "67b7f4f31e79de1f9bfa5d5c22301be3", "is_disabled": 0, "rental_uris": {"ios": "https://dc.lft.to/lastmile_qr_scan", "android": "https://dc.lft.to/lastmile_qr_scan"}, "is_reserved": 0}, {"lon": -77.003066, "bike_id": "e4e1833da7e1ce2454b23c859f05f3b4", "lat": 38.89493433333333, "fusion_lon": 0.0, "fusion_lat": 0.0, "type": "electric_scooter", "name": "e4e1833da7e1ce2454b23c859f05f3b4", "is_disabled": 0, "rental_uris": {"ios": "https://dc.lft.to/lastmile_qr_scan", "android": "https://dc.lft.to/lastmile_qr_scan"}, "is_reserved": 0}, {"lon": -77.01105916666667, "bike_id": "605a0ebb83d849042f3ac84cf7ed4870", "lat": 38.90343383333333, "fusion_lon": 0.0, "fusion_lat": 0.0, "type": "electric_scooter", "name": "605a0ebb83d849042f3ac84cf7ed4870", "is_disabled": 0, "rental_uris": {"ios": "https://dc.lft.to/lastmile_qr_scan", "android": "https://dc.lft.to/lastmile_qr_scan"}, "is_reserved": 0}, {"lon": -77.0388385, "bike_id": "ee15e4adbe99eae60b576f2df5558d03", "lat": 38.9251695, "fusion_lon": 0.0, "fusion_lat": 0.0, "type": "electric_scooter", "name": "ee15e4adbe99eae60b576f2df5558d03", "is_disabled": 0, "rental_uris": {"ios": "https://dc.lft.to/lastmile_qr_scan", "android": "https://dc.lft.to/lastmile_qr_scan"}, "is_reserved": 0}, {"lon": -77.084986, "bike_id": "643de483efb7c70e093c5f29ce4c0d4c", "lat": 38.95930033333333, "fusion_lon": 0.0, "fusion_lat": 0.0, "type": "electric_scooter", "name": "643de483efb7c70e093c5f29ce4c0d4c", "is_disabled": 0, "rental_uris": {"ios": "https://dc.lft.to/lastmile_qr_scan", "android": "https://dc.lft.to/lastmile_qr_scan"}, "is_reserved": 0}, {"lon": -77.0200685, "bike_id": "2d937e83604c2e2b397a89a7145a7187", "lat": 38.9241605, "fusion_lon": 0.0, "fusion_lat": 0.0, "type": "electric_scooter", "name": "2d937e83604c2e2b397a89a7145a7187", "is_disabled": 0, "rental_uris": {"ios": "https://dc.lft.to/lastmile_qr_scan", "android": "https://dc.lft.to/lastmile_qr_scan"}, "is_reserved": 0}, {"lon": -77.02493933333334, "bike_id": "597d94b045a0331e41f88ab3645a2381", "lat": 38.907272666666664, "fusion_lon": 0.0, "fusion_lat": 0.0, "type": "electric_scooter", "name": "597d94b045a0331e41f88ab3645a2381", "is_disabled": 0, "rental_uris": {"ios": "https://dc.lft.to/lastmile_qr_scan", "android": "https://dc.lft.to/lastmile_qr_scan"}, "is_reserved": 0}, {"lon": -77.04135933333333, "bike_id": "06773db530fc09c278055de463abd560", "lat": 38.90623566666667, "fusion_lon": 0.0, "fusion_lat": 0.0, "type": "electric_scooter", "name": "06773db530fc09c278055de463abd560", "is_disabled": 0, "rental_uris": {"ios": "https://dc.lft.to/lastmile_qr_scan", "android": "https://dc.lft.to/lastmile_qr_scan"}, "is_reserved": 0}, {"lon": -77.030421, "bike_id": "e081f3ccfeb7dcd2c20e0af9d6382424", "lat": 38.878363666666665, "fusion_lon": 0.0, "fusion_lat": 0.0, "type": "electric_scooter", "name": "e081f3ccfeb7dcd2c20e0af9d6382424", "is_disabled": 0, "rental_uris": {"ios": "https://dc.lft.to/lastmile_qr_scan", "android": "https://dc.lft.to/lastmile_qr_scan"}, "is_reserved": 0}, {"lon": -77.01817166666666, "bike_id": "c204f13523d01b9b206e31dbae90ef06", "lat": 38.923656666666666, "fusion_lon": 0.0, "fusion_lat": 0.0, "type": "electric_scooter", "name": "c204f13523d01b9b206e31dbae90ef06", "is_disabled": 0, "rental_uris": {"ios": "https://dc.lft.to/lastmile_qr_scan", "android": "https://dc.lft.to/lastmile_qr_scan"}, "is_reserved": 0}, {"lon": -77.0509975, "bike_id": "1f32ff7c98a8863dcdc9ce755086f471", "lat": 38.92306266666667, "fusion_lon": 0.0, "fusion_lat": 0.0, "type": "electric_scooter", "name": "1f32ff7c98a8863dcdc9ce755086f471", "is_disabled": 0, "rental_uris": {"ios": "https://dc.lft.to/lastmile_qr_scan", "android": "https://dc.lft.to/lastmile_qr_scan"}, "is_reserved": 0}, {"lon": -77.01309866666666, "bike_id": "cb63e7408266ec1dcbaa20a449d716d2", "lat": 38.90732333333333, "fusion_lon": 0.0, "fusion_lat": 0.0, "type": "electric_scooter", "name": "cb63e7408266ec1dcbaa20a449d716d2", "is_disabled": 0, "rental_uris": {"ios": "https://dc.lft.to/lastmile_qr_scan", "android": "https://dc.lft.to/lastmile_qr_scan"}, "is_reserved": 0}, {"lon": -77.00550883333334, "bike_id": "c8da1cf603a37eaaa8b08c15e6fb30f4", "lat": 38.88753616666666, "fusion_lon": 0.0, "fusion_lat": 0.0, "type": "electric_scooter", "name": "c8da1cf603a37eaaa8b08c15e6fb30f4", "is_disabled": 0, "rental_uris": {"ios": "https://dc.lft.to/lastmile_qr_scan", "android": "https://dc.lft.to/lastmile_qr_scan"}, "is_reserved": 0}, {"lon": -77.0106205, "bike_id": "84c2396a51c8e60e1ec55bf2ef7be595", "lat": 38.86667416666667, "fusion_lon": 0.0, "fusion_lat": 0.0, "type": "electric_scooter", "name": "84c2396a51c8e60e1ec55bf2ef7be595", "is_disabled": 0, "rental_uris": {"ios": "https://dc.lft.to/lastmile_qr_scan", "android": "https://dc.lft.to/lastmile_qr_scan"}, "is_reserved": 0}, {"lon": -77.02579916666667, "bike_id": "29c07f4b63ed39983da246727c7a2c5a", "lat": 38.9140715, "fusion_lon": 0.0, "fusion_lat": 0.0, "type": "electric_scooter", "name": "29c07f4b63ed39983da246727c7a2c5a", "is_disabled": 0, "rental_uris": {"ios": "https://dc.lft.to/lastmile_qr_scan", "android": "https://dc.lft.to/lastmile_qr_scan"}, "is_reserved": 0}, {"lon": -77.0397785, "bike_id": "922910f0e9e7daa1ecb2f74fed7e28d2", "lat": 38.92082766666667, "fusion_lon": 0.0, "fusion_lat": 0.0, "type": "electric_scooter", "name": "922910f0e9e7daa1ecb2f74fed7e28d2", "is_disabled": 0, "rental_uris": {"ios": "https://dc.lft.to/lastmile_qr_scan", "android": "https://dc.lft.to/lastmile_qr_scan"}, "is_reserved": 0}, {"lon": -77.00150716666667, "bike_id": "3601bd445e9734e0e24f11897e94e0d7", "lat": 38.90748633333333, "fusion_lon": 0.0, "fusion_lat": 0.0, "type": "electric_scooter", "name": "3601bd445e9734e0e24f11897e94e0d7", "is_disabled": 0, "rental_uris": {"ios": "https://dc.lft.to/lastmile_qr_scan", "android": "https://dc.lft.to/lastmile_qr_scan"}, "is_reserved": 0}, {"lon": -77.0073625, "bike_id": "ee317f394311c02b20f06ffa5746d9a7", "lat": 38.92541516666667, "fusion_lon": 0.0, "fusion_lat": 0.0, "type": "electric_scooter", "name": "ee317f394311c02b20f06ffa5746d9a7", "is_disabled": 0, "rental_uris": {"ios": "https://dc.lft.to/lastmile_qr_scan", "android": "https://dc.lft.to/lastmile_qr_scan"}, "is_reserved": 0}, {"lon": -76.95756333333334, "bike_id": "3cec044613473f336b8aefd9f3e1c305", "lat": 38.884290666666665, "fusion_lon": 0.0, "fusion_lat": 0.0, "type": "electric_scooter", "name": "3cec044613473f336b8aefd9f3e1c305", "is_disabled": 0, "rental_uris": {"ios": "https://dc.lft.to/lastmile_qr_scan", "android": "https://dc.lft.to/lastmile_qr_scan"}, "is_reserved": 0}, {"lon": -77.03059316666666, "bike_id": "2c4eec68f9d77ae20c885f4dc2647cdb", "lat": 38.93094633333333, "fusion_lon": 0.0, "fusion_lat": 0.0, "type": "electric_scooter", "name": "2c4eec68f9d77ae20c885f4dc2647cdb", "is_disabled": 0, "rental_uris": {"ios": "https://dc.lft.to/lastmile_qr_scan", "android": "https://dc.lft.to/lastmile_qr_scan"}, "is_reserved": 0}, {"lon": -77.036638, "bike_id": "e9570124af70b5ab6478b5005ee84f98", "lat": 38.922120666666665, "fusion_lon": 0.0, "fusion_lat": 0.0, "type": "electric_scooter", "name": "e9570124af70b5ab6478b5005ee84f98", "is_disabled": 0, "rental_uris": {"ios": "https://dc.lft.to/lastmile_qr_scan", "android": "https://dc.lft.to/lastmile_qr_scan"}, "is_reserved": 0}, {"lon": -77.03208033333334, "bike_id": "765a782faf61626d437dbd34ee79004b", "lat": 38.93492883333333, "fusion_lon": 0.0, "fusion_lat": 0.0, "type": "electric_bike", "name": "765a782faf61626d437dbd34ee79004b", "is_disabled": 0, "rental_uris": {"ios": "https://dc.lft.to/lastmile_qr_scan", "android": "https://dc.lft.to/lastmile_qr_scan"}, "is_reserved": 0}, {"lon": -77.03855216666666, "bike_id": "521567c27ced7dc9b160f3b08a0f1d10", "lat": 38.91663283333333, "fusion_lon": 0.0, "fusion_lat": 0.0, "type": "electric_scooter", "name": "521567c27ced7dc9b160f3b08a0f1d10", "is_disabled": 0, "rental_uris": {"ios": "https://dc.lft.to/lastmile_qr_scan", "android": "https://dc.lft.to/lastmile_qr_scan"}, "is_reserved": 0}, {"lon": -77.0895485, "bike_id": "3d89a72d4d54d143c1656d40d291ca87", "lat": 38.8429385, "fusion_lon": 0.0, "fusion_lat": 0.0, "type": "electric_bike", "name": "3d89a72d4d54d143c1656d40d291ca87", "is_disabled": 0, "rental_uris": {"ios": "https://dc.lft.to/lastmile_qr_scan", "android": "https://dc.lft.to/lastmile_qr_scan"}, "is_reserved": 0}, {"lon": -77.0296355, "bike_id": "d27bcb25f2fc40635d844f52e45ed998", "lat": 38.923854166666665, "fusion_lon": 0.0, "fusion_lat": 0.0, "type": "electric_scooter", "name": "d27bcb25f2fc40635d844f52e45ed998", "is_disabled": 0, "rental_uris": {"ios": "https://dc.lft.to/lastmile_qr_scan", "android": "https://dc.lft.to/lastmile_qr_scan"}, "is_reserved": 0}, {"lon": -77.02201016666666, "bike_id": "96b855d409815375bc98948d8e9a146c", "lat": 38.920944, "fusion_lon": 0.0, "fusion_lat": 0.0, "type": "electric_scooter", "name": "96b855d409815375bc98948d8e9a146c", "is_disabled": 0, "rental_uris": {"ios": "https://dc.lft.to/lastmile_qr_scan", "android": "https://dc.lft.to/lastmile_qr_scan"}, "is_reserved": 0}, {"lon": -77.03347966666666, "bike_id": "d410cf506c8e5bc2b9840f89b3bfc0dc", "lat": 38.898379, "fusion_lon": 0.0, "fusion_lat": 0.0, "type": "electric_scooter", "name": "d410cf506c8e5bc2b9840f89b3bfc0dc", "is_disabled": 0, "rental_uris": {"ios": "https://dc.lft.to/lastmile_qr_scan", "android": "https://dc.lft.to/lastmile_qr_scan"}, "is_reserved": 0}, {"lon": -77.01022233333333, "bike_id": "f0eb8de2c033b660f9758001eadf9929", "lat": 38.91708783333333, "fusion_lon": 0.0, "fusion_lat": 0.0, "type": "electric_scooter", "name": "f0eb8de2c033b660f9758001eadf9929", "is_disabled": 0, "rental_uris": {"ios": "https://dc.lft.to/lastmile_qr_scan", "android": "https://dc.lft.to/lastmile_qr_scan"}, "is_reserved": 0}, {"lon": -77.03125433333334, "bike_id": "e4ff9319cda35c02fdcdde7b0e4a6005", "lat": 38.9149705, "fusion_lon": 0.0, "fusion_lat": 0.0, "type": "electric_scooter", "name": "e4ff9319cda35c02fdcdde7b0e4a6005", "is_disabled": 0, "rental_uris": {"ios": "https://dc.lft.to/lastmile_qr_scan", "android": "https://dc.lft.to/lastmile_qr_scan"}, "is_reserved": 0}, {"lon": -76.94957933333333, "bike_id": "97287530244467fc21bb33bebccc65c5", "lat": 38.90490583333333, "fusion_lon": 0.0, "fusion_lat": 0.0, "type": "electric_scooter", "name": "97287530244467fc21bb33bebccc65c5", "is_disabled": 0, "rental_uris": {"ios": "https://dc.lft.to/lastmile_qr_scan", "android": "https://dc.lft.to/lastmile_qr_scan"}, "is_reserved": 0}, {"lon": -77.02540366666666, "bike_id": "5e1699370b0df2838746a7f7d6197f1a", "lat": 38.9274445, "fusion_lon": 0.0, "fusion_lat": 0.0, "type": "electric_scooter", "name": "5e1699370b0df2838746a7f7d6197f1a", "is_disabled": 0, "rental_uris": {"ios": "https://dc.lft.to/lastmile_qr_scan", "android": "https://dc.lft.to/lastmile_qr_scan"}, "is_reserved": 0}, {"lon": -76.96391433333334, "bike_id": "d12d5b677cf3dc93562d148867279329", "lat": 38.95169883333333, "fusion_lon": 0.0, "fusion_lat": 0.0, "type": "electric_bike", "name": "d12d5b677cf3dc93562d148867279329", "is_disabled": 0, "rental_uris": {"ios": "https://dc.lft.to/lastmile_qr_scan", "android": "https://dc.lft.to/lastmile_qr_scan"}, "is_reserved": 0}, {"lon": -77.0078905, "bike_id": "0186ba1c0c55693ce206256da869e978", "lat": 38.8966775, "fusion_lon": 0.0, "fusion_lat": 0.0, "type": "electric_scooter", "name": "0186ba1c0c55693ce206256da869e978", "is_disabled": 0, "rental_uris": {"ios": "https://dc.lft.to/lastmile_qr_scan", "android": "https://dc.lft.to/lastmile_qr_scan"}, "is_reserved": 0}, {"lon": -77.03616983333333, "bike_id": "8918adadecd8142d7a758d384a379f58", "lat": 38.9373355, "fusion_lon": 0.0, "fusion_lat": 0.0, "type": "electric_scooter", "name": "8918adadecd8142d7a758d384a379f58", "is_disabled": 0, "rental_uris": {"ios": "https://dc.lft.to/lastmile_qr_scan", "android": "https://dc.lft.to/lastmile_qr_scan"}, "is_reserved": 0}, {"lon": -77.03072883333333, "bike_id": "b959139380083fdf9113443b412efc5c", "lat": 38.9181315, "fusion_lon": 0.0, "fusion_lat": 0.0, "type": "electric_scooter", "name": "b959139380083fdf9113443b412efc5c", "is_disabled": 0, "rental_uris": {"ios": "https://dc.lft.to/lastmile_qr_scan", "android": "https://dc.lft.to/lastmile_qr_scan"}, "is_reserved": 0}, {"lon": -77.01141716666666, "bike_id": "0090fa6a51b74d83d03922c83e2daf5c", "lat": 38.9063995, "fusion_lon": 0.0, "fusion_lat": 0.0, "type": "electric_scooter", "name": "0090fa6a51b74d83d03922c83e2daf5c", "is_disabled": 0, "rental_uris": {"ios": "https://dc.lft.to/lastmile_qr_scan", "android": "https://dc.lft.to/lastmile_qr_scan"}, "is_reserved": 0}, {"lon": -77.03263183333334, "bike_id": "29dbe5702e3c8faafe4e49121ec16387", "lat": 38.904532333333336, "fusion_lon": 0.0, "fusion_lat": 0.0, "type": "electric_scooter", "name": "29dbe5702e3c8faafe4e49121ec16387", "is_disabled": 0, "rental_uris": {"ios": "https://dc.lft.to/lastmile_qr_scan", "android": "https://dc.lft.to/lastmile_qr_scan"}, "is_reserved": 0}, {"lon": -76.98591266666666, "bike_id": "ac095d1514002ba5f46e6b842d8b67da", "lat": 38.90810033333333, "fusion_lon": 0.0, "fusion_lat": 0.0, "type": "electric_scooter", "name": "ac095d1514002ba5f46e6b842d8b67da", "is_disabled": 0, "rental_uris": {"ios": "https://dc.lft.to/lastmile_qr_scan", "android": "https://dc.lft.to/lastmile_qr_scan"}, "is_reserved": 0}, {"lon": -76.93364233333334, "bike_id": "d3cb2f9b5f2b3b2dffedbeb0a2091cc0", "lat": 38.89916516666667, "fusion_lon": 0.0, "fusion_lat": 0.0, "type": "electric_scooter", "name": "d3cb2f9b5f2b3b2dffedbeb0a2091cc0", "is_disabled": 0, "rental_uris": {"ios": "https://dc.lft.to/lastmile_qr_scan", "android": "https://dc.lft.to/lastmile_qr_scan"}, "is_reserved": 0}, {"lon": -76.94436733333333, "bike_id": "3e98213485eddf57ea87864d9d113197", "lat": 38.90041183333334, "fusion_lon": 0.0, "fusion_lat": 0.0, "type": "electric_scooter", "name": "3e98213485eddf57ea87864d9d113197", "is_disabled": 0, "rental_uris": {"ios": "https://dc.lft.to/lastmile_qr_scan", "android": "https://dc.lft.to/lastmile_qr_scan"}, "is_reserved": 0}, {"lon": -77.027137, "bike_id": "038e84ecebe112ba522d46c16290e27d", "lat": 38.9066755, "fusion_lon": 0.0, "fusion_lat": 0.0, "type": "electric_scooter", "name": "038e84ecebe112ba522d46c16290e27d", "is_disabled": 0, "rental_uris": {"ios": "https://dc.lft.to/lastmile_qr_scan", "android": "https://dc.lft.to/lastmile_qr_scan"}, "is_reserved": 0}, {"lon": -76.983672, "bike_id": "9c9098199b792a5314cc7913e62e8f86", "lat": 38.91493116666667, "fusion_lon": 0.0, "fusion_lat": 0.0, "type": "electric_scooter", "name": "9c9098199b792a5314cc7913e62e8f86", "is_disabled": 0, "rental_uris": {"ios": "https://dc.lft.to/lastmile_qr_scan", "android": "https://dc.lft.to/lastmile_qr_scan"}, "is_reserved": 0}, {"lon": -77.01771116666667, "bike_id": "30aa97a3fdcd129aaac244825f2e4664", "lat": 38.9211785, "fusion_lon": 0.0, "fusion_lat": 0.0, "type": "electric_scooter", "name": "30aa97a3fdcd129aaac244825f2e4664", "is_disabled": 0, "rental_uris": {"ios": "https://dc.lft.to/lastmile_qr_scan", "android": "https://dc.lft.to/lastmile_qr_scan"}, "is_reserved": 0}, {"lon": -76.987829, "bike_id": "6be59c65f8fbb3fb88610770d25c85f3", "lat": 38.90656283333333, "fusion_lon": 0.0, "fusion_lat": 0.0, "type": "electric_scooter", "name": "6be59c65f8fbb3fb88610770d25c85f3", "is_disabled": 0, "rental_uris": {"ios": "https://dc.lft.to/lastmile_qr_scan", "android": "https://dc.lft.to/lastmile_qr_scan"}, "is_reserved": 0}, {"lon": -77.029506, "bike_id": "863ee101613efa31d4e93a9638610879", "lat": 38.90802033333333, "fusion_lon": 0.0, "fusion_lat": 0.0, "type": "electric_scooter", "name": "863ee101613efa31d4e93a9638610879", "is_disabled": 0, "rental_uris": {"ios": "https://dc.lft.to/lastmile_qr_scan", "android": "https://dc.lft.to/lastmile_qr_scan"}, "is_reserved": 0}, {"lon": -77.10089016666667, "bike_id": "6125f4350a338a5254226838c4644133", "lat": 38.95950933333334, "fusion_lon": 0.0, "fusion_lat": 0.0, "type": "electric_bike", "name": "6125f4350a338a5254226838c4644133", "is_disabled": 0, "rental_uris": {"ios": "https://dc.lft.to/lastmile_qr_scan", "android": "https://dc.lft.to/lastmile_qr_scan"}, "is_reserved": 0}, {"lon": -77.01150866666667, "bike_id": "28b1d0b625587ed3c5b759307afaca7e", "lat": 38.91402433333333, "fusion_lon": 0.0, "fusion_lat": 0.0, "type": "electric_scooter", "name": "28b1d0b625587ed3c5b759307afaca7e", "is_disabled": 0, "rental_uris": {"ios": "https://dc.lft.to/lastmile_qr_scan", "android": "https://dc.lft.to/lastmile_qr_scan"}, "is_reserved": 0}, {"lon": -77.03058033333333, "bike_id": "2b6e1114ca3260f5c02b8b2a714d0001", "lat": 38.90796783333333, "fusion_lon": 0.0, "fusion_lat": 0.0, "type": "electric_scooter", "name": "2b6e1114ca3260f5c02b8b2a714d0001", "is_disabled": 0, "rental_uris": {"ios": "https://dc.lft.to/lastmile_qr_scan", "android": "https://dc.lft.to/lastmile_qr_scan"}, "is_reserved": 0}, {"lon": -77.011624, "bike_id": "62ec4bf6f9871ff41cb468181505fe90", "lat": 38.872277, "fusion_lon": 0.0, "fusion_lat": 0.0, "type": "electric_bike", "name": "62ec4bf6f9871ff41cb468181505fe90", "is_disabled": 0, "rental_uris": {"ios": "https://dc.lft.to/lastmile_qr_scan", "android": "https://dc.lft.to/lastmile_qr_scan"}, "is_reserved": 0}, {"lon": -76.982599, "bike_id": "b20e23a711157aebb49676d8719d169c", "lat": 38.908552666666665, "fusion_lon": 0.0, "fusion_lat": 0.0, "type": "electric_scooter", "name": "b20e23a711157aebb49676d8719d169c", "is_disabled": 0, "rental_uris": {"ios": "https://dc.lft.to/lastmile_qr_scan", "android": "https://dc.lft.to/lastmile_qr_scan"}, "is_reserved": 0}, {"lon": -76.99409116666666, "bike_id": "6fe3cfb389826c7d81b79bbb8ef17b88", "lat": 38.831365166666664, "fusion_lon": 0.0, "fusion_lat": 0.0, "type": "electric_bike", "name": "6fe3cfb389826c7d81b79bbb8ef17b88", "is_disabled": 0, "rental_uris": {"ios": "https://dc.lft.to/lastmile_qr_scan", "android": "https://dc.lft.to/lastmile_qr_scan"}, "is_reserved": 0}, {"lon": -76.9849965, "bike_id": "9b7e58f1ad85ec28e2ce7e86941eb1d8", "lat": 38.92002433333333, "fusion_lon": 0.0, "fusion_lat": 0.0, "type": "electric_scooter", "name": "9b7e58f1ad85ec28e2ce7e86941eb1d8", "is_disabled": 0, "rental_uris": {"ios": "https://dc.lft.to/lastmile_qr_scan", "android": "https://dc.lft.to/lastmile_qr_scan"}, "is_reserved": 0}, {"lon": -77.03665233333334, "bike_id": "042dfbe83a2db808c4d982b00e059019", "lat": 38.91749166666666, "fusion_lon": 0.0, "fusion_lat": 0.0, "type": "electric_scooter", "name": "042dfbe83a2db808c4d982b00e059019", "is_disabled": 0, "rental_uris": {"ios": "https://dc.lft.to/lastmile_qr_scan", "android": "https://dc.lft.to/lastmile_qr_scan"}, "is_reserved": 0}, {"lon": -76.99146983333333, "bike_id": "f1ac955ba769e4b61d307b957f66953f", "lat": 38.90118316666667, "fusion_lon": 0.0, "fusion_lat": 0.0, "type": "electric_scooter", "name": "f1ac955ba769e4b61d307b957f66953f", "is_disabled": 0, "rental_uris": {"ios": "https://dc.lft.to/lastmile_qr_scan", "android": "https://dc.lft.to/lastmile_qr_scan"}, "is_reserved": 0}, {"lon": -77.00158183333333, "bike_id": "445ec824e30254175087686a3613786a", "lat": 38.8751665, "fusion_lon": 0.0, "fusion_lat": 0.0, "type": "electric_scooter", "name": "445ec824e30254175087686a3613786a", "is_disabled": 0, "rental_uris": {"ios": "https://dc.lft.to/lastmile_qr_scan", "android": "https://dc.lft.to/lastmile_qr_scan"}, "is_reserved": 0}, {"lon": -77.02400183333333, "bike_id": "f97364f80747f32cd21ab364fee9ee92", "lat": 38.91520666666667, "fusion_lon": 0.0, "fusion_lat": 0.0, "type": "electric_scooter", "name": "f97364f80747f32cd21ab364fee9ee92", "is_disabled": 0, "rental_uris": {"ios": "https://dc.lft.to/lastmile_qr_scan", "android": "https://dc.lft.to/lastmile_qr_scan"}, "is_reserved": 0}, {"lon": -77.03354316666666, "bike_id": "151ea8d8ecec3654dba5728935b63d69", "lat": 38.88700816666667, "fusion_lon": 0.0, "fusion_lat": 0.0, "type": "electric_scooter", "name": "151ea8d8ecec3654dba5728935b63d69", "is_disabled": 0, "rental_uris": {"ios": "https://dc.lft.to/lastmile_qr_scan", "android": "https://dc.lft.to/lastmile_qr_scan"}, "is_reserved": 0}, {"lon": -77.07454533333333, "bike_id": "9eba424f29fd6b34d740edad48dbf92c", "lat": 38.945108166666664, "fusion_lon": 0.0, "fusion_lat": 0.0, "type": "electric_scooter", "name": "9eba424f29fd6b34d740edad48dbf92c", "is_disabled": 0, "rental_uris": {"ios": "https://dc.lft.to/lastmile_qr_scan", "android": "https://dc.lft.to/lastmile_qr_scan"}, "is_reserved": 0}, {"lon": -77.1252465, "bike_id": "ea149e02b6625e5eb1225283287a9dc2", "lat": 39.056347, "fusion_lon": 0.0, "fusion_lat": 0.0, "type": "electric_bike", "name": "ea149e02b6625e5eb1225283287a9dc2", "is_disabled": 0, "rental_uris": {"ios": "https://dc.lft.to/lastmile_qr_scan", "android": "https://dc.lft.to/lastmile_qr_scan"}, "is_reserved": 0}, {"lon": -76.97623816666666, "bike_id": "254c4c0d55b4fb260d9eaf1154f0744d", "lat": 38.90571816666667, "fusion_lon": 0.0, "fusion_lat": 0.0, "type": "electric_scooter", "name": "254c4c0d55b4fb260d9eaf1154f0744d", "is_disabled": 0, "rental_uris": {"ios": "https://dc.lft.to/lastmile_qr_scan", "android": "https://dc.lft.to/lastmile_qr_scan"}, "is_reserved": 0}, {"lon": -77.0590925, "bike_id": "a17f617fa026a6c461b38f7a70e0945f", "lat": 38.9035535, "fusion_lon": 0.0, "fusion_lat": 0.0, "type": "electric_scooter", "name": "a17f617fa026a6c461b38f7a70e0945f", "is_disabled": 0, "rental_uris": {"ios": "https://dc.lft.to/lastmile_qr_scan", "android": "https://dc.lft.to/lastmile_qr_scan"}, "is_reserved": 0}, {"lon": -77.038392, "bike_id": "b3f740cdbdbda325f2ed7637c957c002", "lat": 38.901144333333335, "fusion_lon": 0.0, "fusion_lat": 0.0, "type": "electric_scooter", "name": "b3f740cdbdbda325f2ed7637c957c002", "is_disabled": 0, "rental_uris": {"ios": "https://dc.lft.to/lastmile_qr_scan", "android": "https://dc.lft.to/lastmile_qr_scan"}, "is_reserved": 0}, {"lon": -77.04482833333333, "bike_id": "c0340b1f964df7cb058a4947ea240a54", "lat": 38.892599833333335, "fusion_lon": 0.0, "fusion_lat": 0.0, "type": "electric_scooter", "name": "c0340b1f964df7cb058a4947ea240a54", "is_disabled": 0, "rental_uris": {"ios": "https://dc.lft.to/lastmile_qr_scan", "android": "https://dc.lft.to/lastmile_qr_scan"}, "is_reserved": 0}, {"lon": -77.07565, "bike_id": "65ebee59440e64aa445a903c0bbbd93d", "lat": 38.8944985, "fusion_lon": 0.0, "fusion_lat": 0.0, "type": "electric_scooter", "name": "65ebee59440e64aa445a903c0bbbd93d", "is_disabled": 0, "rental_uris": {"ios": "https://dc.lft.to/lastmile_qr_scan", "android": "https://dc.lft.to/lastmile_qr_scan"}, "is_reserved": 0}, {"lon": -77.036219, "bike_id": "a775774c31c29154a87155ef83223865", "lat": 38.931513333333335, "fusion_lon": 0.0, "fusion_lat": 0.0, "type": "electric_scooter", "name": "a775774c31c29154a87155ef83223865", "is_disabled": 0, "rental_uris": {"ios": "https://dc.lft.to/lastmile_qr_scan", "android": "https://dc.lft.to/lastmile_qr_scan"}, "is_reserved": 0}, {"lon": -77.02568766666667, "bike_id": "90d40489970f05930031a0e2d1289d86", "lat": 38.9245955, "fusion_lon": 0.0, "fusion_lat": 0.0, "type": "electric_scooter", "name": "90d40489970f05930031a0e2d1289d86", "is_disabled": 0, "rental_uris": {"ios": "https://dc.lft.to/lastmile_qr_scan", "android": "https://dc.lft.to/lastmile_qr_scan"}, "is_reserved": 0}, {"lon": -77.02391483333334, "bike_id": "6cb190edd17105037430b9589e56422c", "lat": 38.91815666666667, "fusion_lon": 0.0, "fusion_lat": 0.0, "type": "electric_scooter", "name": "6cb190edd17105037430b9589e56422c", "is_disabled": 0, "rental_uris": {"ios": "https://dc.lft.to/lastmile_qr_scan", "android": "https://dc.lft.to/lastmile_qr_scan"}, "is_reserved": 0}, {"lon": -76.99841066666667, "bike_id": "c01853e6be4123d99039f19ab7075a2b", "lat": 38.90237333333334, "fusion_lon": 0.0, "fusion_lat": 0.0, "type": "electric_scooter", "name": "c01853e6be4123d99039f19ab7075a2b", "is_disabled": 0, "rental_uris": {"ios": "https://dc.lft.to/lastmile_qr_scan", "android": "https://dc.lft.to/lastmile_qr_scan"}, "is_reserved": 0}, {"lon": -77.03861716666667, "bike_id": "a0a62ef4aa5b2c5a9f0d374a0eb4a918", "lat": 38.90771066666667, "fusion_lon": 0.0, "fusion_lat": 0.0, "type": "electric_scooter", "name": "a0a62ef4aa5b2c5a9f0d374a0eb4a918", "is_disabled": 0, "rental_uris": {"ios": "https://dc.lft.to/lastmile_qr_scan", "android": "https://dc.lft.to/lastmile_qr_scan"}, "is_reserved": 0}, {"lon": -77.005383, "bike_id": "3859489aee2d6956302b589ee9a8c05d", "lat": 38.878320333333335, "fusion_lon": 0.0, "fusion_lat": 0.0, "type": "electric_scooter", "name": "3859489aee2d6956302b589ee9a8c05d", "is_disabled": 0, "rental_uris": {"ios": "https://dc.lft.to/lastmile_qr_scan", "android": "https://dc.lft.to/lastmile_qr_scan"}, "is_reserved": 0}, {"lon": -76.931723, "bike_id": "1df51e1f2f4c45bd53bc95b674e68d8d", "lat": 38.898822, "fusion_lon": 0.0, "fusion_lat": 0.0, "type": "electric_scooter", "name": "1df51e1f2f4c45bd53bc95b674e68d8d", "is_disabled": 0, "rental_uris": {"ios": "https://dc.lft.to/lastmile_qr_scan", "android": "https://dc.lft.to/lastmile_qr_scan"}, "is_reserved": 0}, {"lon": -77.034789, "bike_id": "eba7c3400eda3820261baaa4ea19d011", "lat": 38.92866983333333, "fusion_lon": 0.0, "fusion_lat": 0.0, "type": "electric_scooter", "name": "eba7c3400eda3820261baaa4ea19d011", "is_disabled": 0, "rental_uris": {"ios": "https://dc.lft.to/lastmile_qr_scan", "android": "https://dc.lft.to/lastmile_qr_scan"}, "is_reserved": 0}, {"lon": -76.94956333333333, "bike_id": "a0820928cb9cbaf30ff3229e152fea65", "lat": 38.894367833333334, "fusion_lon": 0.0, "fusion_lat": 0.0, "type": "electric_scooter", "name": "a0820928cb9cbaf30ff3229e152fea65", "is_disabled": 0, "rental_uris": {"ios": "https://dc.lft.to/lastmile_qr_scan", "android": "https://dc.lft.to/lastmile_qr_scan"}, "is_reserved": 0}, {"lon": -76.99471266666667, "bike_id": "86bef74650bcb69210b5584b0be7057f", "lat": 38.86213266666667, "fusion_lon": 0.0, "fusion_lat": 0.0, "type": "electric_scooter", "name": "86bef74650bcb69210b5584b0be7057f", "is_disabled": 0, "rental_uris": {"ios": "https://dc.lft.to/lastmile_qr_scan", "android": "https://dc.lft.to/lastmile_qr_scan"}, "is_reserved": 0}, {"lon": -76.98089233333333, "bike_id": "2f983fd53a66e0d16b8d2b3cdf6fa8f5", "lat": 38.881324166666666, "fusion_lon": 0.0, "fusion_lat": 0.0, "type": "electric_bike", "name": "2f983fd53a66e0d16b8d2b3cdf6fa8f5", "is_disabled": 0, "rental_uris": {"ios": "https://dc.lft.to/lastmile_qr_scan", "android": "https://dc.lft.to/lastmile_qr_scan"}, "is_reserved": 0}, {"lon": -77.04711716666667, "bike_id": "4bc73eb5b026bd4a76a899a35b6427c8", "lat": 38.92227333333334, "fusion_lon": 0.0, "fusion_lat": 0.0, "type": "electric_scooter", "name": "4bc73eb5b026bd4a76a899a35b6427c8", "is_disabled": 0, "rental_uris": {"ios": "https://dc.lft.to/lastmile_qr_scan", "android": "https://dc.lft.to/lastmile_qr_scan"}, "is_reserved": 0}, {"lon": -77.02711516666666, "bike_id": "9f50d1101f75c0d5cc24cfde231a0d72", "lat": 38.92565783333333, "fusion_lon": 0.0, "fusion_lat": 0.0, "type": "electric_scooter", "name": "9f50d1101f75c0d5cc24cfde231a0d72", "is_disabled": 0, "rental_uris": {"ios": "https://dc.lft.to/lastmile_qr_scan", "android": "https://dc.lft.to/lastmile_qr_scan"}, "is_reserved": 0}, {"lon": -77.033231, "bike_id": "0c7e7f0c0d338fba10ee49ca6ca9a3ee", "lat": 38.947117666666664, "fusion_lon": 0.0, "fusion_lat": 0.0, "type": "electric_scooter", "name": "0c7e7f0c0d338fba10ee49ca6ca9a3ee", "is_disabled": 0, "rental_uris": {"ios": "https://dc.lft.to/lastmile_qr_scan", "android": "https://dc.lft.to/lastmile_qr_scan"}, "is_reserved": 0}, {"lon": -77.0050825, "bike_id": "a68be84715511f5c1bcfe01722588f82", "lat": 38.87936, "fusion_lon": 0.0, "fusion_lat": 0.0, "type": "electric_scooter", "name": "a68be84715511f5c1bcfe01722588f82", "is_disabled": 0, "rental_uris": {"ios": "https://dc.lft.to/lastmile_qr_scan", "android": "https://dc.lft.to/lastmile_qr_scan"}, "is_reserved": 0}, {"lon": -77.0114145, "bike_id": "886d1652caa6f6f58f2543a62040647c", "lat": 38.91259616666667, "fusion_lon": 0.0, "fusion_lat": 0.0, "type": "electric_scooter", "name": "886d1652caa6f6f58f2543a62040647c", "is_disabled": 0, "rental_uris": {"ios": "https://dc.lft.to/lastmile_qr_scan", "android": "https://dc.lft.to/lastmile_qr_scan"}, "is_reserved": 0}, {"lon": -77.00505916666667, "bike_id": "39feef6bc1838be45c135bb0b9307ea3", "lat": 38.91686683333333, "fusion_lon": 0.0, "fusion_lat": 0.0, "type": "electric_scooter", "name": "39feef6bc1838be45c135bb0b9307ea3", "is_disabled": 0, "rental_uris": {"ios": "https://dc.lft.to/lastmile_qr_scan", "android": "https://dc.lft.to/lastmile_qr_scan"}, "is_reserved": 0}, {"lon": -76.95192916666667, "bike_id": "f750fcf0d1a6a8ca8b195f9c37af55fc", "lat": 38.89997566666667, "fusion_lon": 0.0, "fusion_lat": 0.0, "type": "electric_scooter", "name": "f750fcf0d1a6a8ca8b195f9c37af55fc", "is_disabled": 0, "rental_uris": {"ios": "https://dc.lft.to/lastmile_qr_scan", "android": "https://dc.lft.to/lastmile_qr_scan"}, "is_reserved": 0}, {"lon": -77.0419125, "bike_id": "db5afcb834ed0ea9dc34a0bc3fba1b09", "lat": 38.92617, "fusion_lon": 0.0, "fusion_lat": 0.0, "type": "electric_scooter", "name": "db5afcb834ed0ea9dc34a0bc3fba1b09", "is_disabled": 0, "rental_uris": {"ios": "https://dc.lft.to/lastmile_qr_scan", "android": "https://dc.lft.to/lastmile_qr_scan"}, "is_reserved": 0}, {"lon": -76.9336885, "bike_id": "a896dafbb2dd9e8519db0a77035e30fa", "lat": 38.899132333333334, "fusion_lon": 0.0, "fusion_lat": 0.0, "type": "electric_scooter", "name": "a896dafbb2dd9e8519db0a77035e30fa", "is_disabled": 0, "rental_uris": {"ios": "https://dc.lft.to/lastmile_qr_scan", "android": "https://dc.lft.to/lastmile_qr_scan"}, "is_reserved": 0}, {"lon": -77.0412275, "bike_id": "f1571cf797e74aa832eb6633d4fe6f53", "lat": 38.92530816666667, "fusion_lon": 0.0, "fusion_lat": 0.0, "type": "electric_scooter", "name": "f1571cf797e74aa832eb6633d4fe6f53", "is_disabled": 0, "rental_uris": {"ios": "https://dc.lft.to/lastmile_qr_scan", "android": "https://dc.lft.to/lastmile_qr_scan"}, "is_reserved": 0}, {"lon": -77.04830666666666, "bike_id": "3621164fa59b40758678bb2c6c041ca2", "lat": 38.91883683333333, "fusion_lon": 0.0, "fusion_lat": 0.0, "type": "electric_scooter", "name": "3621164fa59b40758678bb2c6c041ca2", "is_disabled": 0, "rental_uris": {"ios": "https://dc.lft.to/lastmile_qr_scan", "android": "https://dc.lft.to/lastmile_qr_scan"}, "is_reserved": 0}, {"lon": -77.041033, "bike_id": "fb5ab9c6b848bdf5355148a72ae84f29", "lat": 38.91853166666667, "fusion_lon": 0.0, "fusion_lat": 0.0, "type": "electric_scooter", "name": "fb5ab9c6b848bdf5355148a72ae84f29", "is_disabled": 0, "rental_uris": {"ios": "https://dc.lft.to/lastmile_qr_scan", "android": "https://dc.lft.to/lastmile_qr_scan"}, "is_reserved": 0}, {"lon": -77.0199615, "bike_id": "e4f4c3d5e043a258f122ffb5fbdef580", "lat": 38.87590433333333, "fusion_lon": 0.0, "fusion_lat": 0.0, "type": "electric_scooter", "name": "e4f4c3d5e043a258f122ffb5fbdef580", "is_disabled": 0, "rental_uris": {"ios": "https://dc.lft.to/lastmile_qr_scan", "android": "https://dc.lft.to/lastmile_qr_scan"}, "is_reserved": 0}, {"lon": -77.0347265, "bike_id": "1a8bd681b60c3617a10befbca3223f7c", "lat": 38.884841333333334, "fusion_lon": 0.0, "fusion_lat": 0.0, "type": "electric_scooter", "name": "1a8bd681b60c3617a10befbca3223f7c", "is_disabled": 0, "rental_uris": {"ios": "https://dc.lft.to/lastmile_qr_scan", "android": "https://dc.lft.to/lastmile_qr_scan"}, "is_reserved": 0}, {"lon": -77.0416965, "bike_id": "5d0399a8e6a29573e92cecfa8ffa9d54", "lat": 38.90310483333333, "fusion_lon": 0.0, "fusion_lat": 0.0, "type": "electric_scooter", "name": "5d0399a8e6a29573e92cecfa8ffa9d54", "is_disabled": 0, "rental_uris": {"ios": "https://dc.lft.to/lastmile_qr_scan", "android": "https://dc.lft.to/lastmile_qr_scan"}, "is_reserved": 0}, {"lon": -77.03357066666666, "bike_id": "5c291ccd31595ffbd9f3be33113fa27e", "lat": 38.902797166666666, "fusion_lon": 0.0, "fusion_lat": 0.0, "type": "electric_scooter", "name": "5c291ccd31595ffbd9f3be33113fa27e", "is_disabled": 0, "rental_uris": {"ios": "https://dc.lft.to/lastmile_qr_scan", "android": "https://dc.lft.to/lastmile_qr_scan"}, "is_reserved": 0}, {"lon": -76.987434, "bike_id": "bf0306213032140b8703b6c7567a3bdf", "lat": 38.886066, "fusion_lon": 0.0, "fusion_lat": 0.0, "type": "electric_scooter", "name": "bf0306213032140b8703b6c7567a3bdf", "is_disabled": 0, "rental_uris": {"ios": "https://dc.lft.to/lastmile_qr_scan", "android": "https://dc.lft.to/lastmile_qr_scan"}, "is_reserved": 0}, {"lon": -77.02167266666666, "bike_id": "e8fb92c46d03bde1d375e6daf1dc71ce", "lat": 38.94290783333334, "fusion_lon": 0.0, "fusion_lat": 0.0, "type": "electric_scooter", "name": "e8fb92c46d03bde1d375e6daf1dc71ce", "is_disabled": 0, "rental_uris": {"ios": "https://dc.lft.to/lastmile_qr_scan", "android": "https://dc.lft.to/lastmile_qr_scan"}, "is_reserved": 0}, {"lon": -77.02974733333333, "bike_id": "fef9ea232bb5320040f898d487286d77", "lat": 38.93063583333333, "fusion_lon": 0.0, "fusion_lat": 0.0, "type": "electric_scooter", "name": "fef9ea232bb5320040f898d487286d77", "is_disabled": 0, "rental_uris": {"ios": "https://dc.lft.to/lastmile_qr_scan", "android": "https://dc.lft.to/lastmile_qr_scan"}, "is_reserved": 0}, {"lon": -76.97684983333333, "bike_id": "9b430bd920de898887a5bc6f8b8cc881", "lat": 38.896150166666665, "fusion_lon": 0.0, "fusion_lat": 0.0, "type": "electric_scooter", "name": "9b430bd920de898887a5bc6f8b8cc881", "is_disabled": 0, "rental_uris": {"ios": "https://dc.lft.to/lastmile_qr_scan", "android": "https://dc.lft.to/lastmile_qr_scan"}, "is_reserved": 0}, {"lon": -77.0265495, "bike_id": "a42a3d5f18f2b67afa1c5f042ce32290", "lat": 38.92980583333333, "fusion_lon": 0.0, "fusion_lat": 0.0, "type": "electric_scooter", "name": "a42a3d5f18f2b67afa1c5f042ce32290", "is_disabled": 0, "rental_uris": {"ios": "https://dc.lft.to/lastmile_qr_scan", "android": "https://dc.lft.to/lastmile_qr_scan"}, "is_reserved": 0}, {"lon": -77.00035766666667, "bike_id": "a0cf1ea79dade28b4aee1d0e0868d7ea", "lat": 38.9677895, "fusion_lon": 0.0, "fusion_lat": 0.0, "type": "electric_bike", "name": "a0cf1ea79dade28b4aee1d0e0868d7ea", "is_disabled": 0, "rental_uris": {"ios": "https://dc.lft.to/lastmile_qr_scan", "android": "https://dc.lft.to/lastmile_qr_scan"}, "is_reserved": 0}, {"lon": -77.0298965, "bike_id": "f258e1c62bffa230ff9db7f306528283", "lat": 38.90730933333333, "fusion_lon": 0.0, "fusion_lat": 0.0, "type": "electric_scooter", "name": "f258e1c62bffa230ff9db7f306528283", "is_disabled": 0, "rental_uris": {"ios": "https://dc.lft.to/lastmile_qr_scan", "android": "https://dc.lft.to/lastmile_qr_scan"}, "is_reserved": 0}, {"lon": -77.0540215, "bike_id": "d6b97f47216d0c5c7e11e372d1025b77", "lat": 38.901548, "fusion_lon": 0.0, "fusion_lat": 0.0, "type": "electric_scooter", "name": "d6b97f47216d0c5c7e11e372d1025b77", "is_disabled": 0, "rental_uris": {"ios": "https://dc.lft.to/lastmile_qr_scan", "android": "https://dc.lft.to/lastmile_qr_scan"}, "is_reserved": 0}, {"lon": -76.98881516666667, "bike_id": "eee5769c22e8d6ae42da4a14e9a7b9d6", "lat": 38.866578833333335, "fusion_lon": 0.0, "fusion_lat": 0.0, "type": "electric_scooter", "name": "eee5769c22e8d6ae42da4a14e9a7b9d6", "is_disabled": 0, "rental_uris": {"ios": "https://dc.lft.to/lastmile_qr_scan", "android": "https://dc.lft.to/lastmile_qr_scan"}, "is_reserved": 0}, {"lon": -77.02082166666666, "bike_id": "9f5ac9f373d93f55da24415dc64e1789", "lat": 38.93633416666667, "fusion_lon": 0.0, "fusion_lat": 0.0, "type": "electric_scooter", "name": "9f5ac9f373d93f55da24415dc64e1789", "is_disabled": 0, "rental_uris": {"ios": "https://dc.lft.to/lastmile_qr_scan", "android": "https://dc.lft.to/lastmile_qr_scan"}, "is_reserved": 0}, {"lon": -77.03823116666666, "bike_id": "4b7bf7b268d10b3d7b968aa8554afa20", "lat": 38.91687366666667, "fusion_lon": 0.0, "fusion_lat": 0.0, "type": "electric_scooter", "name": "4b7bf7b268d10b3d7b968aa8554afa20", "is_disabled": 0, "rental_uris": {"ios": "https://dc.lft.to/lastmile_qr_scan", "android": "https://dc.lft.to/lastmile_qr_scan"}, "is_reserved": 0}, {"lon": -77.02407966666667, "bike_id": "187ba513d75db6f4537ddad3d2325426", "lat": 38.90950183333333, "fusion_lon": 0.0, "fusion_lat": 0.0, "type": "electric_scooter", "name": "187ba513d75db6f4537ddad3d2325426", "is_disabled": 0, "rental_uris": {"ios": "https://dc.lft.to/lastmile_qr_scan", "android": "https://dc.lft.to/lastmile_qr_scan"}, "is_reserved": 0}, {"lon": -77.02692433333333, "bike_id": "0e1b497974ad08169fbb96a3ef60fb2e", "lat": 38.9023245, "fusion_lon": 0.0, "fusion_lat": 0.0, "type": "electric_scooter", "name": "0e1b497974ad08169fbb96a3ef60fb2e", "is_disabled": 0, "rental_uris": {"ios": "https://dc.lft.to/lastmile_qr_scan", "android": "https://dc.lft.to/lastmile_qr_scan"}, "is_reserved": 0}, {"lon": -77.0456785, "bike_id": "cd220908d16c19f6b574080004573b5a", "lat": 38.9146955, "fusion_lon": 0.0, "fusion_lat": 0.0, "type": "electric_scooter", "name": "cd220908d16c19f6b574080004573b5a", "is_disabled": 0, "rental_uris": {"ios": "https://dc.lft.to/lastmile_qr_scan", "android": "https://dc.lft.to/lastmile_qr_scan"}, "is_reserved": 0}, {"lon": -77.00783666666666, "bike_id": "a3c76316cd48e55f5724c52acd497c00", "lat": 38.90569333333333, "fusion_lon": 0.0, "fusion_lat": 0.0, "type": "electric_scooter", "name": "a3c76316cd48e55f5724c52acd497c00", "is_disabled": 0, "rental_uris": {"ios": "https://dc.lft.to/lastmile_qr_scan", "android": "https://dc.lft.to/lastmile_qr_scan"}, "is_reserved": 0}, {"lon": -76.97906966666666, "bike_id": "367bb9481333c6f0fd6ba9d1f71a4820", "lat": 38.924592, "fusion_lon": 0.0, "fusion_lat": 0.0, "type": "electric_bike", "name": "367bb9481333c6f0fd6ba9d1f71a4820", "is_disabled": 0, "rental_uris": {"ios": "https://dc.lft.to/lastmile_qr_scan", "android": "https://dc.lft.to/lastmile_qr_scan"}, "is_reserved": 0}, {"lon": -76.98497966666666, "bike_id": "0e3b662943bf025687a41fbecc6746e7", "lat": 38.893556333333336, "fusion_lon": 0.0, "fusion_lat": 0.0, "type": "electric_scooter", "name": "0e3b662943bf025687a41fbecc6746e7", "is_disabled": 0, "rental_uris": {"ios": "https://dc.lft.to/lastmile_qr_scan", "android": "https://dc.lft.to/lastmile_qr_scan"}, "is_reserved": 0}, {"lon": -76.97325816666667, "bike_id": "346d1dbe27ebb9d25bdca05c269078f4", "lat": 38.904781166666666, "fusion_lon": 0.0, "fusion_lat": 0.0, "type": "electric_bike", "name": "346d1dbe27ebb9d25bdca05c269078f4", "is_disabled": 0, "rental_uris": {"ios": "https://dc.lft.to/lastmile_qr_scan", "android": "https://dc.lft.to/lastmile_qr_scan"}, "is_reserved": 0}, {"lon": -77.03852933333333, "bike_id": "cf84aee9bc5785bb652bd0b466a616b0", "lat": 38.90676716666667, "fusion_lon": 0.0, "fusion_lat": 0.0, "type": "electric_scooter", "name": "cf84aee9bc5785bb652bd0b466a616b0", "is_disabled": 0, "rental_uris": {"ios": "https://dc.lft.to/lastmile_qr_scan", "android": "https://dc.lft.to/lastmile_qr_scan"}, "is_reserved": 0}, {"lon": -77.03468383333333, "bike_id": "85e34decdc7bc9887407b03d0bfb4641", "lat": 38.91869616666666, "fusion_lon": 0.0, "fusion_lat": 0.0, "type": "electric_scooter", "name": "85e34decdc7bc9887407b03d0bfb4641", "is_disabled": 0, "rental_uris": {"ios": "https://dc.lft.to/lastmile_qr_scan", "android": "https://dc.lft.to/lastmile_qr_scan"}, "is_reserved": 0}, {"lon": -77.04323833333333, "bike_id": "3c56b57f63d7719e3d0c3f975f70ccfe", "lat": 38.89220733333333, "fusion_lon": 0.0, "fusion_lat": 0.0, "type": "electric_scooter", "name": "3c56b57f63d7719e3d0c3f975f70ccfe", "is_disabled": 0, "rental_uris": {"ios": "https://dc.lft.to/lastmile_qr_scan", "android": "https://dc.lft.to/lastmile_qr_scan"}, "is_reserved": 0}, {"lon": -76.9979445, "bike_id": "2e634841a12362fb21ff43de4db91685", "lat": 38.956401666666665, "fusion_lon": 0.0, "fusion_lat": 0.0, "type": "electric_bike", "name": "2e634841a12362fb21ff43de4db91685", "is_disabled": 0, "rental_uris": {"ios": "https://dc.lft.to/lastmile_qr_scan", "android": "https://dc.lft.to/lastmile_qr_scan"}, "is_reserved": 0}, {"lon": -77.05724116666667, "bike_id": "184277d4f6a925925eb6741023dbab87", "lat": 38.9336225, "fusion_lon": 0.0, "fusion_lat": 0.0, "type": "electric_scooter", "name": "184277d4f6a925925eb6741023dbab87", "is_disabled": 0, "rental_uris": {"ios": "https://dc.lft.to/lastmile_qr_scan", "android": "https://dc.lft.to/lastmile_qr_scan"}, "is_reserved": 0}, {"lon": -77.00596966666667, "bike_id": "d2fa756bf190691c109c434447fa99fd", "lat": 38.909197166666665, "fusion_lon": 0.0, "fusion_lat": 0.0, "type": "electric_scooter", "name": "d2fa756bf190691c109c434447fa99fd", "is_disabled": 0, "rental_uris": {"ios": "https://dc.lft.to/lastmile_qr_scan", "android": "https://dc.lft.to/lastmile_qr_scan"}, "is_reserved": 0}, {"lon": -77.0048615, "bike_id": "080c6aa1c487e08496b87854b0a888a5", "lat": 38.874752, "fusion_lon": 0.0, "fusion_lat": 0.0, "type": "electric_scooter", "name": "080c6aa1c487e08496b87854b0a888a5", "is_disabled": 0, "rental_uris": {"ios": "https://dc.lft.to/lastmile_qr_scan", "android": "https://dc.lft.to/lastmile_qr_scan"}, "is_reserved": 0}, {"lon": -77.0069815, "bike_id": "ca9c571e77bbafd2de7564617e0d9e6c", "lat": 38.917401166666664, "fusion_lon": 0.0, "fusion_lat": 0.0, "type": "electric_scooter", "name": "ca9c571e77bbafd2de7564617e0d9e6c", "is_disabled": 0, "rental_uris": {"ios": "https://dc.lft.to/lastmile_qr_scan", "android": "https://dc.lft.to/lastmile_qr_scan"}, "is_reserved": 0}, {"lon": -77.04097033333333, "bike_id": "66f3d099ba8a51cb934c106459132a04", "lat": 38.925267, "fusion_lon": 0.0, "fusion_lat": 0.0, "type": "electric_scooter", "name": "66f3d099ba8a51cb934c106459132a04", "is_disabled": 0, "rental_uris": {"ios": "https://dc.lft.to/lastmile_qr_scan", "android": "https://dc.lft.to/lastmile_qr_scan"}, "is_reserved": 0}, {"lon": -76.99528166666667, "bike_id": "d14f78b2d9eac7a82e67ede5013a2fe0", "lat": 38.894771666666664, "fusion_lon": 0.0, "fusion_lat": 0.0, "type": "electric_scooter", "name": "d14f78b2d9eac7a82e67ede5013a2fe0", "is_disabled": 0, "rental_uris": {"ios": "https://dc.lft.to/lastmile_qr_scan", "android": "https://dc.lft.to/lastmile_qr_scan"}, "is_reserved": 0}, {"lon": -76.95526866666667, "bike_id": "9b4e47509dd0f67ec4f54841d0f00697", "lat": 38.88769583333333, "fusion_lon": 0.0, "fusion_lat": 0.0, "type": "electric_scooter", "name": "9b4e47509dd0f67ec4f54841d0f00697", "is_disabled": 0, "rental_uris": {"ios": "https://dc.lft.to/lastmile_qr_scan", "android": "https://dc.lft.to/lastmile_qr_scan"}, "is_reserved": 0}, {"lon": -77.00536, "bike_id": "3c0f94ed75e97e4d0f24b0505847228d", "lat": 38.8754455, "fusion_lon": 0.0, "fusion_lat": 0.0, "type": "electric_scooter", "name": "3c0f94ed75e97e4d0f24b0505847228d", "is_disabled": 0, "rental_uris": {"ios": "https://dc.lft.to/lastmile_qr_scan", "android": "https://dc.lft.to/lastmile_qr_scan"}, "is_reserved": 0}, {"lon": -77.01124983333334, "bike_id": "c92a397ffe863e53caed1570e7545a1e", "lat": 38.89580433333333, "fusion_lon": 0.0, "fusion_lat": 0.0, "type": "electric_scooter", "name": "c92a397ffe863e53caed1570e7545a1e", "is_disabled": 0, "rental_uris": {"ios": "https://dc.lft.to/lastmile_qr_scan", "android": "https://dc.lft.to/lastmile_qr_scan"}, "is_reserved": 0}, {"lon": -77.1179855, "bike_id": "b2aed3a7260714dc7ee93157abe1ca3c", "lat": 38.873719666666666, "fusion_lon": 0.0, "fusion_lat": 0.0, "type": "electric_bike", "name": "b2aed3a7260714dc7ee93157abe1ca3c", "is_disabled": 0, "rental_uris": {"ios": "https://dc.lft.to/lastmile_qr_scan", "android": "https://dc.lft.to/lastmile_qr_scan"}, "is_reserved": 0}, {"lon": -77.02512516666667, "bike_id": "3cf2f5ecac535a3f5596ccafb6692cc4", "lat": 38.942012166666665, "fusion_lon": 0.0, "fusion_lat": 0.0, "type": "electric_scooter", "name": "3cf2f5ecac535a3f5596ccafb6692cc4", "is_disabled": 0, "rental_uris": {"ios": "https://dc.lft.to/lastmile_qr_scan", "android": "https://dc.lft.to/lastmile_qr_scan"}, "is_reserved": 0}, {"lon": -76.97604916666667, "bike_id": "7f937c7497c3a21e6c694cfcd83e60d4", "lat": 38.89751733333333, "fusion_lon": 0.0, "fusion_lat": 0.0, "type": "electric_scooter", "name": "7f937c7497c3a21e6c694cfcd83e60d4", "is_disabled": 0, "rental_uris": {"ios": "https://dc.lft.to/lastmile_qr_scan", "android": "https://dc.lft.to/lastmile_qr_scan"}, "is_reserved": 0}, {"lon": -77.02962766666667, "bike_id": "ea3b6779a1f0e362da36e8a80fc311de", "lat": 38.92290716666667, "fusion_lon": 0.0, "fusion_lat": 0.0, "type": "electric_scooter", "name": "ea3b6779a1f0e362da36e8a80fc311de", "is_disabled": 0, "rental_uris": {"ios": "https://dc.lft.to/lastmile_qr_scan", "android": "https://dc.lft.to/lastmile_qr_scan"}, "is_reserved": 0}, {"lon": -76.97888366666666, "bike_id": "e00c53b047477d29ec91acb747c552b8", "lat": 38.885384, "fusion_lon": 0.0, "fusion_lat": 0.0, "type": "electric_scooter", "name": "e00c53b047477d29ec91acb747c552b8", "is_disabled": 0, "rental_uris": {"ios": "https://dc.lft.to/lastmile_qr_scan", "android": "https://dc.lft.to/lastmile_qr_scan"}, "is_reserved": 0}, {"lon": -76.98335366666667, "bike_id": "f91cc7bcd02fedd6e881561904af97f3", "lat": 38.895444499999996, "fusion_lon": 0.0, "fusion_lat": 0.0, "type": "electric_scooter", "name": "f91cc7bcd02fedd6e881561904af97f3", "is_disabled": 0, "rental_uris": {"ios": "https://dc.lft.to/lastmile_qr_scan", "android": "https://dc.lft.to/lastmile_qr_scan"}, "is_reserved": 0}, {"lon": -77.032525, "bike_id": "ec3b4eb7063e885959ba513958a5ce72", "lat": 38.9276985, "fusion_lon": 0.0, "fusion_lat": 0.0, "type": "electric_scooter", "name": "ec3b4eb7063e885959ba513958a5ce72", "is_disabled": 0, "rental_uris": {"ios": "https://dc.lft.to/lastmile_qr_scan", "android": "https://dc.lft.to/lastmile_qr_scan"}, "is_reserved": 0}, {"lon": -77.0316145, "bike_id": "fae8669cb6abb05f6f4949b5ab7c8257", "lat": 38.892185833333336, "fusion_lon": 0.0, "fusion_lat": 0.0, "type": "electric_scooter", "name": "fae8669cb6abb05f6f4949b5ab7c8257", "is_disabled": 0, "rental_uris": {"ios": "https://dc.lft.to/lastmile_qr_scan", "android": "https://dc.lft.to/lastmile_qr_scan"}, "is_reserved": 0}, {"lon": -77.02688083333334, "bike_id": "8903d428bbb2c55f364bea54b919882e", "lat": 38.90237666666667, "fusion_lon": 0.0, "fusion_lat": 0.0, "type": "electric_scooter", "name": "8903d428bbb2c55f364bea54b919882e", "is_disabled": 0, "rental_uris": {"ios": "https://dc.lft.to/lastmile_qr_scan", "android": "https://dc.lft.to/lastmile_qr_scan"}, "is_reserved": 0}, {"lon": -76.99506433333333, "bike_id": "bff994457c51ec2032638a181f4cf9b9", "lat": 38.897669666666665, "fusion_lon": 0.0, "fusion_lat": 0.0, "type": "electric_scooter", "name": "bff994457c51ec2032638a181f4cf9b9", "is_disabled": 0, "rental_uris": {"ios": "https://dc.lft.to/lastmile_qr_scan", "android": "https://dc.lft.to/lastmile_qr_scan"}, "is_reserved": 0}, {"lon": -77.0174015, "bike_id": "b4a64f3a69d9d26684f44057d979d990", "lat": 38.88199766666666, "fusion_lon": 0.0, "fusion_lat": 0.0, "type": "electric_scooter", "name": "b4a64f3a69d9d26684f44057d979d990", "is_disabled": 0, "rental_uris": {"ios": "https://dc.lft.to/lastmile_qr_scan", "android": "https://dc.lft.to/lastmile_qr_scan"}, "is_reserved": 0}, {"lon": -76.9970065, "bike_id": "b5c8f353661f95c2fc692329f5882c94", "lat": 38.84427783333334, "fusion_lon": 0.0, "fusion_lat": 0.0, "type": "electric_scooter", "name": "b5c8f353661f95c2fc692329f5882c94", "is_disabled": 0, "rental_uris": {"ios": "https://dc.lft.to/lastmile_qr_scan", "android": "https://dc.lft.to/lastmile_qr_scan"}, "is_reserved": 0}, {"lon": -76.99570966666667, "bike_id": "cfb0a50016fd1b1ab8f0b3f8bc4b9c4a", "lat": 38.862094, "fusion_lon": 0.0, "fusion_lat": 0.0, "type": "electric_scooter", "name": "cfb0a50016fd1b1ab8f0b3f8bc4b9c4a", "is_disabled": 0, "rental_uris": {"ios": "https://dc.lft.to/lastmile_qr_scan", "android": "https://dc.lft.to/lastmile_qr_scan"}, "is_reserved": 0}, {"lon": -76.9291975, "bike_id": "d514fec5d94ada08c009b299c9b33ab5", "lat": 38.892998166666665, "fusion_lon": 0.0, "fusion_lat": 0.0, "type": "electric_scooter", "name": "d514fec5d94ada08c009b299c9b33ab5", "is_disabled": 0, "rental_uris": {"ios": "https://dc.lft.to/lastmile_qr_scan", "android": "https://dc.lft.to/lastmile_qr_scan"}, "is_reserved": 0}, {"lon": -77.03502283333333, "bike_id": "4be4f984842b8a4af50d875c5e9d8326", "lat": 38.9247395, "fusion_lon": 0.0, "fusion_lat": 0.0, "type": "electric_scooter", "name": "4be4f984842b8a4af50d875c5e9d8326", "is_disabled": 0, "rental_uris": {"ios": "https://dc.lft.to/lastmile_qr_scan", "android": "https://dc.lft.to/lastmile_qr_scan"}, "is_reserved": 0}, {"lon": -77.0012865, "bike_id": "ececd1bd99a6a93e71dfd0e67f665789", "lat": 38.8851985, "fusion_lon": 0.0, "fusion_lat": 0.0, "type": "electric_scooter", "name": "ececd1bd99a6a93e71dfd0e67f665789", "is_disabled": 0, "rental_uris": {"ios": "https://dc.lft.to/lastmile_qr_scan", "android": "https://dc.lft.to/lastmile_qr_scan"}, "is_reserved": 0}, {"lon": -77.051177, "bike_id": "bb8fc9fef2d6220a342ae40541794c67", "lat": 38.923435, "fusion_lon": 0.0, "fusion_lat": 0.0, "type": "electric_scooter", "name": "bb8fc9fef2d6220a342ae40541794c67", "is_disabled": 0, "rental_uris": {"ios": "https://dc.lft.to/lastmile_qr_scan", "android": "https://dc.lft.to/lastmile_qr_scan"}, "is_reserved": 0}, {"lon": -77.002775, "bike_id": "d92cea51eda69df5ad2768d091554f55", "lat": 38.91800883333333, "fusion_lon": 0.0, "fusion_lat": 0.0, "type": "electric_scooter", "name": "d92cea51eda69df5ad2768d091554f55", "is_disabled": 0, "rental_uris": {"ios": "https://dc.lft.to/lastmile_qr_scan", "android": "https://dc.lft.to/lastmile_qr_scan"}, "is_reserved": 0}, {"lon": -77.00926883333334, "bike_id": "89f6dfdbf7dc1faf75ec389d80fb0621", "lat": 38.91805633333333, "fusion_lon": 0.0, "fusion_lat": 0.0, "type": "electric_scooter", "name": "89f6dfdbf7dc1faf75ec389d80fb0621", "is_disabled": 0, "rental_uris": {"ios": "https://dc.lft.to/lastmile_qr_scan", "android": "https://dc.lft.to/lastmile_qr_scan"}, "is_reserved": 0}, {"lon": -77.025833, "bike_id": "f947d92594320e3174fe61d8d300fbab", "lat": 38.903646333333334, "fusion_lon": 0.0, "fusion_lat": 0.0, "type": "electric_scooter", "name": "f947d92594320e3174fe61d8d300fbab", "is_disabled": 0, "rental_uris": {"ios": "https://dc.lft.to/lastmile_qr_scan", "android": "https://dc.lft.to/lastmile_qr_scan"}, "is_reserved": 0}, {"lon": -77.01197933333333, "bike_id": "9cd3f7c510ebef5bfb6df22a88e0fab6", "lat": 38.8931845, "fusion_lon": 0.0, "fusion_lat": 0.0, "type": "electric_scooter", "name": "9cd3f7c510ebef5bfb6df22a88e0fab6", "is_disabled": 0, "rental_uris": {"ios": "https://dc.lft.to/lastmile_qr_scan", "android": "https://dc.lft.to/lastmile_qr_scan"}, "is_reserved": 0}, {"lon": -77.02294983333333, "bike_id": "42bbae6b638d9b9099eb00cf9c5f4a91", "lat": 38.92331016666667, "fusion_lon": 0.0, "fusion_lat": 0.0, "type": "electric_bike", "name": "42bbae6b638d9b9099eb00cf9c5f4a91", "is_disabled": 0, "rental_uris": {"ios": "https://dc.lft.to/lastmile_qr_scan", "android": "https://dc.lft.to/lastmile_qr_scan"}, "is_reserved": 0}, {"lon": -76.98880166666666, "bike_id": "20808d3143c677cdde2907f8bf4ed5e0", "lat": 38.866566666666664, "fusion_lon": 0.0, "fusion_lat": 0.0, "type": "electric_scooter", "name": "20808d3143c677cdde2907f8bf4ed5e0", "is_disabled": 0, "rental_uris": {"ios": "https://dc.lft.to/lastmile_qr_scan", "android": "https://dc.lft.to/lastmile_qr_scan"}, "is_reserved": 0},