{"data": {"bikes": [{"rental_uris": {"android": "https://dc.lft.to/lastmile_qr_scan", "ios": "https://dc.lft.to/lastmile_qr_scan"}, "lon": -77.03808383333333, "name": "d8962716595e803ed958237e1845cf02", "lat": 38.920693166666666, "is_reserved": 0, "fusion_lat": 0.0, "bike_id": "d8962716595e803ed958237e1845cf02", "type": "electric_scooter", "is_disabled": 0, "fusion_lon": 0.0}, {"rental_uris": {"android": "https://dc.lft.to/lastmile_qr_scan", "ios": "https://dc.lft.to/lastmile_qr_scan"}, "lon": -77.037074, "name": "98a3ddd5ebcee950ae8261f358d3cbb7", "lat": 38.927753833333334, "is_reserved": 0, "fusion_lat": 0.0, "bike_id": "98a3ddd5ebcee950ae8261f358d3cbb7", "type": "electric_scooter", "is_disabled": 0, "fusion_lon": 0.0}, {"rental_uris": {"android": "https://dc.lft.to/lastmile_qr_scan", "ios": "https://dc.lft.to/lastmile_qr_scan"}, "lon": -77.07657383333333, "name": "8892b84143d06a1327505284f99bdda8", "lat": 38.935244, "is_reserved": 0, "fusion_lat": 0.0, "bike_id": "8892b84143d06a1327505284f99bdda8", "type": "electric_scooter", "is_disabled": 0, "fusion_lon": 0.0}, {"rental_uris": {"android": "https://dc.lft.to/lastmile_qr_scan", "ios": "https://dc.lft.to/lastmile_qr_scan"}, "lon": -77.030876, "name": "0283411e3f5581df788a887dd1292c7c", "lat": 38.92672966666667, "is_reserved": 0, "fusion_lat": 0.0, "bike_id": "0283411e3f5581df788a887dd1292c7c", "type": "electric_scooter", "is_disabled": 0, "fusion_lon": 0.0}, {"rental_uris": {"android": "https://dc.lft.to/lastmile_qr_scan", "ios": "https://dc.lft.to/lastmile_qr_scan"}, "lon": -77.03325933333333, "name": "2fd37e0653a3a69aa3b2e8dc24002b19", "lat": 38.91397966666667, "is_reserved": 0, "fusion_lat": 0.0, "bike_id": "2fd37e0653a3a69aa3b2e8dc24002b19", "type": "electric_scooter", "is_disabled": 0, "fusion_lon": 0.0}, {"rental_uris": {"android": "https://dc.lft.to/lastmile_qr_scan", "ios": "https://dc.lft.to/lastmile_qr_scan"}, "lon": -76.9347745, "name": "8ca8214e9798565bd51b64cb90ac2ce3", "lat": 38.89501583333333, "is_reserved": 0, "fusion_lat": 0.0, "bike_id": "8ca8214e9798565bd51b64cb90ac2ce3", "type": "electric_scooter", "is_disabled": 0, "fusion_lon": 0.0}, {"rental_uris": {"android": "https://dc.lft.to/lastmile_qr_scan", "ios": "https://dc.lft.to/lastmile_qr_scan"}, "lon": -77.03284383333333, "name": "051cea6ce42ca0ae0c90d6e1ec8841f8", "lat": 38.940545666666665, "is_reserved": 0, "fusion_lat": 0.0, "bike_id": "051cea6ce42ca0ae0c90d6e1ec8841f8", "type": "electric_scooter", "is_disabled": 0, "fusion_lon": 0.0}, {"rental_uris": {"android": "https://dc.lft.to/lastmile_qr_scan", "ios": "https://dc.lft.to/lastmile_qr_scan"}, "lon": -77.02469383333333, "name": "f3a2cd96cee87859e33ff11fba46cdeb", "lat": 38.920638833333335, "is_reserved": 0, "fusion_lat": 0.0, "bike_id": "f3a2cd96cee87859e33ff11fba46cdeb", "type": "electric_scooter", "is_disabled": 0, "fusion_lon": 0.0}, {"rental_uris": {"android": "https://dc.lft.to/lastmile_qr_scan", "ios": "https://dc.lft.to/lastmile_qr_scan"}, "lon": -76.9464595, "name": "d0696791bd9fbe30f9d090eb7c45d94b", "lat": 38.898617, "is_reserved": 0, "fusion_lat": 0.0, "bike_id": "d0696791bd9fbe30f9d090eb7c45d94b", "type": "electric_scooter", "is_disabled": 0, "fusion_lon": 0.0}, {"rental_uris": {"android": "https://dc.lft.to/lastmile_qr_scan", "ios": "https://dc.lft.to/lastmile_qr_scan"}, "lon": -77.0433945, "name": "25234273d8f8c0eea24b31295f953a71", "lat": 38.90879733333333, "is_reserved": 0, "fusion_lat": 0.0, "bike_id": "25234273d8f8c0eea24b31295f953a71", "type": "electric_scooter", "is_disabled": 0, "fusion_lon": 0.0}, {"rental_uris": {"android": "https://dc.lft.to/lastmile_qr_scan", "ios": "https://dc.lft.to/lastmile_qr_scan"}, "lon": -76.99966133333334, "name": "a0320a7280a619560d86d38c26773093", "lat": 38.874204166666665, "is_reserved": 0, "fusion_lat": 0.0, "bike_id": "a0320a7280a619560d86d38c26773093", "type": "electric_scooter", "is_disabled": 0, "fusion_lon": 0.0}, {"rental_uris": {"android": "https://dc.lft.to/lastmile_qr_scan", "ios": "https://dc.lft.to/lastmile_qr_scan"}, "lon": -77.043481, "name": "d469b451d7c6a5469d0725776a539646", "lat": 38.908778166666664, "is_reserved": 0, "fusion_lat": 0.0, "bike_id": "d469b451d7c6a5469d0725776a539646", "type": "electric_scooter", "is_disabled": 0, "fusion_lon": 0.0}, {"rental_uris": {"android": "https://dc.lft.to/lastmile_qr_scan", "ios": "https://dc.lft.to/lastmile_qr_scan"}, "lon": -77.08194333333333, "name": "06ca6a438325783504e50674906ec13e", "lat": 38.93329383333333, "is_reserved": 0, "fusion_lat": 0.0, "bike_id": "06ca6a438325783504e50674906ec13e", "type": "electric_scooter", "is_disabled": 0, "fusion_lon": 0.0}, {"rental_uris": {"android": "https://dc.lft.to/lastmile_qr_scan", "ios": "https://dc.lft.to/lastmile_qr_scan"}, "lon": -77.02621316666666, "name": "d3055ac9d5b59933d21ac119d94c7ffe", "lat": 38.894533333333335, "is_reserved": 0, "fusion_lat": 0.0, "bike_id": "d3055ac9d5b59933d21ac119d94c7ffe", "type": "electric_scooter", "is_disabled": 0, "fusion_lon": 0.0}, {"rental_uris": {"android": "https://dc.lft.to/lastmile_qr_scan", "ios": "https://dc.lft.to/lastmile_qr_scan"}, "lon": -77.03853816666667, "name": "7d84d7a23e15d65b9e2ddac42df0b946", "lat": 38.91771633333333, "is_reserved": 0, "fusion_lat": 0.0, "bike_id": "7d84d7a23e15d65b9e2ddac42df0b946", "type": "electric_scooter", "is_disabled": 0, "fusion_lon": 0.0}, {"rental_uris": {"android": "https://dc.lft.to/lastmile_qr_scan", "ios": "https://dc.lft.to/lastmile_qr_scan"}, "lon": -77.03190133333334, "name": "29ed5cb15aa6b274986f76bfe5a6312a", "lat": 38.92059316666667, "is_reserved": 0, "fusion_lat": 0.0, "bike_id": "29ed5cb15aa6b274986f76bfe5a6312a", "type": "electric_scooter", "is_disabled": 0, "fusion_lon": 0.0}, {"rental_uris": {"android": "https://dc.lft.to/lastmile_qr_scan", "ios": "https://dc.lft.to/lastmile_qr_scan"}, "lon": -76.97255316666667, "name": "33ffc68ea49b1b5f16bde92713b5dab9", "lat": 38.957453666666666, "is_reserved": 0, "fusion_lat": 0.0, "bike_id": "33ffc68ea49b1b5f16bde92713b5dab9", "type": "electric_bike", "is_disabled": 0, "fusion_lon": 0.0}, {"rental_uris": {"android": "https://dc.lft.to/lastmile_qr_scan", "ios": "https://dc.lft.to/lastmile_qr_scan"}, "lon": -77.00801566666667, "name": "e558254a9c5034a2ede90aadfad1acb2", "lat": 38.949238, "is_reserved": 0, "fusion_lat": 0.0, "bike_id": "e558254a9c5034a2ede90aadfad1acb2", "type": "electric_bike", "is_disabled": 0, "fusion_lon": 0.0}, {"rental_uris": {"android": "https://dc.lft.to/lastmile_qr_scan", "ios": "https://dc.lft.to/lastmile_qr_scan"}, "lon": -77.01480683333334, "name": "4abbdeed6a6d19f737f508477002401c", "lat": 38.91407566666667, "is_reserved": 0, "fusion_lat": 0.0, "bike_id": "4abbdeed6a6d19f737f508477002401c", "type": "electric_scooter", "is_disabled": 0, "fusion_lon": 0.0}, {"rental_uris": {"android": "https://dc.lft.to/lastmile_qr_scan", "ios": "https://dc.lft.to/lastmile_qr_scan"}, "lon": -76.99835733333333, "name": "bd4fc4fc3eb7ce840cd721f2c85a6656", "lat": 38.90381133333333, "is_reserved": 0, "fusion_lat": 0.0, "bike_id": "bd4fc4fc3eb7ce840cd721f2c85a6656", "type": "electric_scooter", "is_disabled": 0, "fusion_lon": 0.0}, {"rental_uris": {"android": "https://dc.lft.to/lastmile_qr_scan", "ios": "https://dc.lft.to/lastmile_qr_scan"}, "lon": -77.00071333333334, "name": "143caac84bc8ba803761abaa8975ec40", "lat": 38.9254885, "is_reserved": 0, "fusion_lat": 0.0, "bike_id": "143caac84bc8ba803761abaa8975ec40", "type": "electric_scooter", "is_disabled": 0, "fusion_lon": 0.0}, {"rental_uris": {"android": "https://dc.lft.to/lastmile_qr_scan", "ios": "https://dc.lft.to/lastmile_qr_scan"}, "lon": -77.035006, "name": "6f0e708d3c382be4231351fca868f481", "lat": 38.92152316666667, "is_reserved": 0, "fusion_lat": 0.0, "bike_id": "6f0e708d3c382be4231351fca868f481", "type": "electric_scooter", "is_disabled": 0, "fusion_lon": 0.0}, {"rental_uris": {"android": "https://dc.lft.to/lastmile_qr_scan", "ios": "https://dc.lft.to/lastmile_qr_scan"}, "lon": -77.010784, "name": "244cff56cf5db4f6c2906131d09bd82d", "lat": 38.90959383333333, "is_reserved": 0, "fusion_lat": 0.0, "bike_id": "244cff56cf5db4f6c2906131d09bd82d", "type": "electric_scooter", "is_disabled": 0, "fusion_lon": 0.0}, {"rental_uris": {"android": "https://dc.lft.to/lastmile_qr_scan", "ios": "https://dc.lft.to/lastmile_qr_scan"}, "lon": -76.9725255, "name": "a5cc0c1b74e4106c197da54fe82ea01d", "lat": 38.95739583333334, "is_reserved": 0, "fusion_lat": 0.0, "bike_id": "a5cc0c1b74e4106c197da54fe82ea01d", "type": "electric_bike", "is_disabled": 0, "fusion_lon": 0.0}, {"rental_uris": {"android": "https://dc.lft.to/lastmile_qr_scan", "ios": "https://dc.lft.to/lastmile_qr_scan"}, "lon": -77.01765383333333, "name": "9352e52c936c282d6dfe856fe3a9f8db", "lat": 38.87719, "is_reserved": 0, "fusion_lat": 0.0, "bike_id": "9352e52c936c282d6dfe856fe3a9f8db", "type": "electric_scooter", "is_disabled": 0, "fusion_lon": 0.0}, {"rental_uris": {"android": "https://dc.lft.to/lastmile_qr_scan", "ios": "https://dc.lft.to/lastmile_qr_scan"}, "lon": -77.041222, "name": "209a61eea012e1f4ccd71d8148729732", "lat": 38.89985983333333, "is_reserved": 0, "fusion_lat": 0.0, "bike_id": "209a61eea012e1f4ccd71d8148729732", "type": "electric_scooter", "is_disabled": 0, "fusion_lon": 0.0}, {"rental_uris": {"android": "https://dc.lft.to/lastmile_qr_scan", "ios": "https://dc.lft.to/lastmile_qr_scan"}, "lon": -77.02689966666667, "name": "36139cbe9cc790819c250d194119375b", "lat": 38.909524166666664, "is_reserved": 0, "fusion_lat": 0.0, "bike_id": "36139cbe9cc790819c250d194119375b", "type": "electric_scooter", "is_disabled": 0, "fusion_lon": 0.0}, {"rental_uris": {"android": "https://dc.lft.to/lastmile_qr_scan", "ios": "https://dc.lft.to/lastmile_qr_scan"}, "lon": -77.02983683333333, "name": "abc517ef41ad06740aa8928360fe066a", "lat": 38.94603866666667, "is_reserved": 0, "fusion_lat": 0.0, "bike_id": "abc517ef41ad06740aa8928360fe066a", "type": "electric_scooter", "is_disabled": 0, "fusion_lon": 0.0}, {"rental_uris": {"android": "https://dc.lft.to/lastmile_qr_scan", "ios": "https://dc.lft.to/lastmile_qr_scan"}, "lon": -77.03170733333333, "name": "5b66077c32d9021891d57ee6af7ba794", "lat": 38.917511833333336, "is_reserved": 0, "fusion_lat": 0.0, "bike_id": "5b66077c32d9021891d57ee6af7ba794", "type": "electric_scooter", "is_disabled": 0, "fusion_lon": 0.0}, {"rental_uris": {"android": "https://dc.lft.to/lastmile_qr_scan", "ios": "https://dc.lft.to/lastmile_qr_scan"}, "lon": -77.07886816666667, "name": "a75d93ca6bb2ed6d3df59007449de206", "lat": 38.84253833333333, "is_reserved": 0, "fusion_lat": 0.0, "bike_id": "a75d93ca6bb2ed6d3df59007449de206", "type": "electric_bike", "is_disabled": 0, "fusion_lon": 0.0}, {"rental_uris": {"android": "https://dc.lft.to/lastmile_qr_scan", "ios": "https://dc.lft.to/lastmile_qr_scan"}, "lon": -77.03445233333333, "name": "593ab8485837fcd6eb0452edd25cebc5", "lat": 38.909448166666664, "is_reserved": 0, "fusion_lat": 0.0, "bike_id": "593ab8485837fcd6eb0452edd25cebc5", "type": "electric_scooter", "is_disabled": 0, "fusion_lon": 0.0}, {"rental_uris": {"android": "https://dc.lft.to/lastmile_qr_scan", "ios": "https://dc.lft.to/lastmile_qr_scan"}, "lon": -76.98657116666666, "name": "e30c59fb77d9395816833b5ad68ac4e7", "lat": 38.858082, "is_reserved": 0, "fusion_lat": 0.0, "bike_id": "e30c59fb77d9395816833b5ad68ac4e7", "type": "electric_scooter", "is_disabled": 0, "fusion_lon": 0.0}, {"rental_uris": {"android": "https://dc.lft.to/lastmile_qr_scan", "ios": "https://dc.lft.to/lastmile_qr_scan"}, "lon": -77.042794, "name": "af53ad1b7e44fbfe739495f6d74d7a8b", "lat": 38.907284, "is_reserved": 0, "fusion_lat": 0.0, "bike_id": "af53ad1b7e44fbfe739495f6d74d7a8b", "type": "electric_scooter", "is_disabled": 0, "fusion_lon": 0.0}, {"rental_uris": {"android": "https://dc.lft.to/lastmile_qr_scan", "ios": "https://dc.lft.to/lastmile_qr_scan"}, "lon": -77.022161, "name": "0e6fb38f12fad5ea82979c6d1b5afe50", "lat": 38.9126765, "is_reserved": 0, "fusion_lat": 0.0, "bike_id": "0e6fb38f12fad5ea82979c6d1b5afe50", "type": "electric_scooter", "is_disabled": 0, "fusion_lon": 0.0}, {"rental_uris": {"android": "https://dc.lft.to/lastmile_qr_scan", "ios": "https://dc.lft.to/lastmile_qr_scan"}, "lon": -77.04000283333333, "name": "d8cd3c99d4bd6c5416b8e7dd424d6045", "lat": 38.99626383333333, "is_reserved": 0, "fusion_lat": 0.0, "bike_id": "d8cd3c99d4bd6c5416b8e7dd424d6045", "type": "electric_bike", "is_disabled": 0, "fusion_lon": 0.0}, {"rental_uris": {"android": "https://dc.lft.to/lastmile_qr_scan", "ios": "https://dc.lft.to/lastmile_qr_scan"}, "lon": -77.03676466666667, "name": "e24f87c036b3c12f980fab39fa2f2591", "lat": 38.9364195, "is_reserved": 0, "fusion_lat": 0.0, "bike_id": "e24f87c036b3c12f980fab39fa2f2591", "type": "electric_scooter", "is_disabled": 0, "fusion_lon": 0.0}, {"rental_uris": {"android": "https://dc.lft.to/lastmile_qr_scan", "ios": "https://dc.lft.to/lastmile_qr_scan"}, "lon": -77.01189316666667, "name": "0cabf6cf6dc481c9cc2f3286e2659ecd", "lat": 38.9156645, "is_reserved": 0, "fusion_lat": 0.0, "bike_id": "0cabf6cf6dc481c9cc2f3286e2659ecd", "type": "electric_scooter", "is_disabled": 0, "fusion_lon": 0.0}, {"rental_uris": {"android": "https://dc.lft.to/lastmile_qr_scan", "ios": "https://dc.lft.to/lastmile_qr_scan"}, "lon": -77.03064733333333, "name": "1ece55077a59a53cb4e2241d0ad93be9", "lat": 38.93083883333333, "is_reserved": 0, "fusion_lat": 0.0, "bike_id": "1ece55077a59a53cb4e2241d0ad93be9", "type": "electric_scooter", "is_disabled": 0, "fusion_lon": 0.0}, {"rental_uris": {"android": "https://dc.lft.to/lastmile_qr_scan", "ios": "https://dc.lft.to/lastmile_qr_scan"}, "lon": -77.035461, "name": "87dfe0661ed6eae4079ae833221c9d11", "lat": 38.924999166666666, "is_reserved": 0, "fusion_lat": 0.0, "bike_id": "87dfe0661ed6eae4079ae833221c9d11", "type": "electric_scooter", "is_disabled": 0, "fusion_lon": 0.0}, {"rental_uris": {"android": "https://dc.lft.to/lastmile_qr_scan", "ios": "https://dc.lft.to/lastmile_qr_scan"}, "lon": -77.02247533333333, "name": "92fc9057cd7f23c86b6e541410cbf4e4", "lat": 38.92467333333333, "is_reserved": 0, "fusion_lat": 0.0, "bike_id": "92fc9057cd7f23c86b6e541410cbf4e4", "type": "electric_scooter", "is_disabled": 0, "fusion_lon": 0.0}, {"rental_uris": {"android": "https://dc.lft.to/lastmile_qr_scan", "ios": "https://dc.lft.to/lastmile_qr_scan"}, "lon": -77.02760516666666, "name": "702269de8106a5faf788bf45a5beae2f", "lat": 38.91693866666667, "is_reserved": 0, "fusion_lat": 0.0, "bike_id": "702269de8106a5faf788bf45a5beae2f", "type": "electric_scooter", "is_disabled": 0, "fusion_lon": 0.0}, {"rental_uris": {"android": "https://dc.lft.to/lastmile_qr_scan", "ios": "https://dc.lft.to/lastmile_qr_scan"}, "lon": -77.04537266666667, "name": "7737d470f86cb8bf43ccefda528449e1", "lat": 38.913260333333334, "is_reserved": 0, "fusion_lat": 0.0, "bike_id": "7737d470f86cb8bf43ccefda528449e1", "type": "electric_scooter", "is_disabled": 0, "fusion_lon": 0.0}, {"rental_uris": {"android": "https://dc.lft.to/lastmile_qr_scan", "ios": "https://dc.lft.to/lastmile_qr_scan"}, "lon": -77.032283, "name": "100d77a2c2bd25a66ec17a3a54e87654", "lat": 38.90152116666667, "is_reserved": 0, "fusion_lat": 0.0, "bike_id": "100d77a2c2bd25a66ec17a3a54e87654", "type": "electric_scooter", "is_disabled": 0, "fusion_lon": 0.0}, {"rental_uris": {"android": "https://dc.lft.to/lastmile_qr_scan", "ios": "https://dc.lft.to/lastmile_qr_scan"}, "lon": -77.021893, "name": "32ceda8134c577bdab53c6d682ebdfae", "lat": 38.92826516666667, "is_reserved": 0, "fusion_lat": 0.0, "bike_id": "32ceda8134c577bdab53c6d682ebdfae", "type": "electric_scooter", "is_disabled": 0, "fusion_lon": 0.0}, {"rental_uris": {"android": "https://dc.lft.to/lastmile_qr_scan", "ios": "https://dc.lft.to/lastmile_qr_scan"}, "lon": -77.02812766666666, "name": "0bc282a5344998e663f8182f5888b57f", "lat": 38.91649016666667, "is_reserved": 0, "fusion_lat": 0.0, "bike_id": "0bc282a5344998e663f8182f5888b57f", "type": "electric_scooter", "is_disabled": 0, "fusion_lon": 0.0}, {"rental_uris": {"android": "https://dc.lft.to/lastmile_qr_scan", "ios": "https://dc.lft.to/lastmile_qr_scan"}, "lon": -77.02287883333334, "name": "c18ef244d154f9c0975dc0b9d17704a6", "lat": 38.8947565, "is_reserved": 0, "fusion_lat": 0.0, "bike_id": "c18ef244d154f9c0975dc0b9d17704a6", "type": "electric_scooter", "is_disabled": 0, "fusion_lon": 0.0}, {"rental_uris": {"android": "https://dc.lft.to/lastmile_qr_scan", "ios": "https://dc.lft.to/lastmile_qr_scan"}, "lon": -77.00067333333334, "name": "226c7353cad3530d20a9402e6cfd3639", "lat": 38.876862333333335, "is_reserved": 0, "fusion_lat": 0.0, "bike_id": "226c7353cad3530d20a9402e6cfd3639", "type": "electric_scooter", "is_disabled": 0, "fusion_lon": 0.0}, {"rental_uris": {"android": "https://dc.lft.to/lastmile_qr_scan", "ios": "https://dc.lft.to/lastmile_qr_scan"}, "lon": -77.074356, "name": "182e9ffb6ed4ac65dfc5f725180abdbf", "lat": 38.935965333333336, "is_reserved": 0, "fusion_lat": 0.0, "bike_id": "182e9ffb6ed4ac65dfc5f725180abdbf", "type": "electric_scooter", "is_disabled": 0, "fusion_lon": 0.0}, {"rental_uris": {"android": "https://dc.lft.to/lastmile_qr_scan", "ios": "https://dc.lft.to/lastmile_qr_scan"}, "lon": -77.03316166666667, "name": "b7f86c1a9acc9d6ae0add9805b15e663", "lat": 38.91120766666667, "is_reserved": 0, "fusion_lat": 0.0, "bike_id": "b7f86c1a9acc9d6ae0add9805b15e663", "type": "electric_scooter", "is_disabled": 0, "fusion_lon": 0.0}, {"rental_uris": {"android": "https://dc.lft.to/lastmile_qr_scan", "ios": "https://dc.lft.to/lastmile_qr_scan"}, "lon": -77.02650116666666, "name": "9600dfb71ee9ea08d20fa8c194d1cbab", "lat": 38.938591833333334, "is_reserved": 0, "fusion_lat": 0.0, "bike_id": "9600dfb71ee9ea08d20fa8c194d1cbab", "type": "electric_scooter", "is_disabled": 0, "fusion_lon": 0.0}, {"rental_uris": {"android": "https://dc.lft.to/lastmile_qr_scan", "ios": "https://dc.lft.to/lastmile_qr_scan"}, "lon": -76.99842983333333, "name": "e189eac74982282ca118982bd595e112", "lat": 38.90031966666667, "is_reserved": 0, "fusion_lat": 0.0, "bike_id": "e189eac74982282ca118982bd595e112", "type": "electric_scooter", "is_disabled": 0, "fusion_lon": 0.0}, {"rental_uris": {"android": "https://dc.lft.to/lastmile_qr_scan", "ios": "https://dc.lft.to/lastmile_qr_scan"}, "lon": -76.98508366666667, "name": "f55e6127ddd7adab73e84c735d78900e", "lat": 38.90675, "is_reserved": 0, "fusion_lat": 0.0, "bike_id": "f55e6127ddd7adab73e84c735d78900e", "type": "electric_bike", "is_disabled": 0, "fusion_lon": 0.0}, {"rental_uris": {"android": "https://dc.lft.to/lastmile_qr_scan", "ios": "https://dc.lft.to/lastmile_qr_scan"}, "lon": -76.97966583333333, "name": "8466ba2ab818caffb2ee7bac6b33c823", "lat": 38.892263666666665, "is_reserved": 0, "fusion_lat": 0.0, "bike_id": "8466ba2ab818caffb2ee7bac6b33c823", "type": "electric_scooter", "is_disabled": 0, "fusion_lon": 0.0}, {"rental_uris": {"android": "https://dc.lft.to/lastmile_qr_scan", "ios": "https://dc.lft.to/lastmile_qr_scan"}, "lon": -77.03473683333333, "name": "7eb5da47263800cb54bfa85b671f3244", "lat": 38.92059883333334, "is_reserved": 0, "fusion_lat": 0.0, "bike_id": "7eb5da47263800cb54bfa85b671f3244", "type": "electric_scooter", "is_disabled": 0, "fusion_lon": 0.0}, {"rental_uris": {"android": "https://dc.lft.to/lastmile_qr_scan", "ios": "https://dc.lft.to/lastmile_qr_scan"}, "lon": -77.01105516666667, "name": "deed0b8c0095e7967fd765178d56db10", "lat": 38.90791516666667, "is_reserved": 0, "fusion_lat": 0.0, "bike_id": "deed0b8c0095e7967fd765178d56db10", "type": "electric_scooter", "is_disabled": 0, "fusion_lon": 0.0}, {"rental_uris": {"android": "https://dc.lft.to/lastmile_qr_scan", "ios": "https://dc.lft.to/lastmile_qr_scan"}, "lon": -77.01340166666667, "name": "845106040910b96b35585a39e54e1ccc", "lat": 38.926426166666666, "is_reserved": 0, "fusion_lat": 0.0, "bike_id": "845106040910b96b35585a39e54e1ccc", "type": "electric_scooter", "is_disabled": 0, "fusion_lon": 0.0}, {"rental_uris": {"android": "https://dc.lft.to/lastmile_qr_scan", "ios": "https://dc.lft.to/lastmile_qr_scan"}, "lon": -77.00399566666667, "name": "d46002ab07a7980ee6e7163fd53a55d0", "lat": 38.90566916666667, "is_reserved": 0, "fusion_lat": 0.0, "bike_id": "d46002ab07a7980ee6e7163fd53a55d0", "type": "electric_scooter", "is_disabled": 0, "fusion_lon": 0.0}, {"rental_uris": {"android": "https://dc.lft.to/lastmile_qr_scan", "ios": "https://dc.lft.to/lastmile_qr_scan"}, "lon": -77.0463075, "name": "915bdb83d36b469f28a47fefeed6544a", "lat": 38.91456866666667, "is_reserved": 0, "fusion_lat": 0.0, "bike_id": "915bdb83d36b469f28a47fefeed6544a", "type": "electric_scooter", "is_disabled": 0, "fusion_lon": 0.0}, {"rental_uris": {"android": "https://dc.lft.to/lastmile_qr_scan", "ios": "https://dc.lft.to/lastmile_qr_scan"}, "lon": -77.0209495, "name": "7acc4c9300e1056fa4f9b04b78224df3", "lat": 38.884994166666665, "is_reserved": 0, "fusion_lat": 0.0, "bike_id": "7acc4c9300e1056fa4f9b04b78224df3", "type": "electric_scooter", "is_disabled": 0, "fusion_lon": 0.0}, {"rental_uris": {"android": "https://dc.lft.to/lastmile_qr_scan", "ios": "https://dc.lft.to/lastmile_qr_scan"}, "lon": -77.0228655, "name": "af741e5338f4a5af7912c7f88f89beaa", "lat": 38.912578333333336, "is_reserved": 0, "fusion_lat": 0.0, "bike_id": "af741e5338f4a5af7912c7f88f89beaa", "type": "electric_scooter", "is_disabled": 0, "fusion_lon": 0.0}, {"rental_uris": {"android": "https://dc.lft.to/lastmile_qr_scan", "ios": "https://dc.lft.to/lastmile_qr_scan"}, "lon": -77.03871583333333, "name": "cc962a86509d03608a59327926043f6a", "lat": 38.906576, "is_reserved": 0, "fusion_lat": 0.0, "bike_id": "cc962a86509d03608a59327926043f6a", "type": "electric_scooter", "is_disabled": 0, "fusion_lon": 0.0}, {"rental_uris": {"android": "https://dc.lft.to/lastmile_qr_scan", "ios": "https://dc.lft.to/lastmile_qr_scan"}, "lon": -77.02197516666666, "name": "fb19853cfd170a493134f970e2a6dcd6", "lat": 38.89628916666667, "is_reserved": 0, "fusion_lat": 0.0, "bike_id": "fb19853cfd170a493134f970e2a6dcd6", "type": "electric_scooter", "is_disabled": 0, "fusion_lon": 0.0}, {"rental_uris": {"android": "https://dc.lft.to/lastmile_qr_scan", "ios": "https://dc.lft.to/lastmile_qr_scan"}, "lon": -76.98893699999999, "name": "e956046d469d19327deee0e6f43f9e55", "lat": 38.866644, "is_reserved": 0, "fusion_lat": 0.0, "bike_id": "e956046d469d19327deee0e6f43f9e55", "type": "electric_scooter", "is_disabled": 0, "fusion_lon": 0.0}, {"rental_uris": {"android": "https://dc.lft.to/lastmile_qr_scan", "ios": "https://dc.lft.to/lastmile_qr_scan"}, "lon": -77.02123783333333, "name": "6047a9815e077ea273dcdc1a36bb315d", "lat": 38.88731883333333, "is_reserved": 0, "fusion_lat": 0.0, "bike_id": "6047a9815e077ea273dcdc1a36bb315d", "type": "electric_scooter", "is_disabled": 0, "fusion_lon": 0.0}, {"rental_uris": {"android": "https://dc.lft.to/lastmile_qr_scan", "ios": "https://dc.lft.to/lastmile_qr_scan"}, "lon": -76.9541515, "name": "49116c682bc49ddb400cb87bb6e0f5a3", "lat": 38.88406066666667, "is_reserved": 0, "fusion_lat": 0.0, "bike_id": "49116c682bc49ddb400cb87bb6e0f5a3", "type": "electric_bike", "is_disabled": 0, "fusion_lon": 0.0}, {"rental_uris": {"android": "https://dc.lft.to/lastmile_qr_scan", "ios": "https://dc.lft.to/lastmile_qr_scan"}, "lon": -77.07074183333333, "name": "8eb074c78de6c74dfaa8af9d1a702651", "lat": 38.91459433333333, "is_reserved": 0, "fusion_lat": 0.0, "bike_id": "8eb074c78de6c74dfaa8af9d1a702651", "type": "electric_scooter", "is_disabled": 0, "fusion_lon": 0.0}, {"rental_uris": {"android": "https://dc.lft.to/lastmile_qr_scan", "ios": "https://dc.lft.to/lastmile_qr_scan"}, "lon": -77.03373683333334, "name": "4a45827f20690960842ee08093e77e17", "lat": 38.90394583333333, "is_reserved": 0, "fusion_lat": 0.0, "bike_id": "4a45827f20690960842ee08093e77e17", "type": "electric_scooter", "is_disabled": 0, "fusion_lon": 0.0}, {"rental_uris": {"android": "https://dc.lft.to/lastmile_qr_scan", "ios": "https://dc.lft.to/lastmile_qr_scan"}, "lon": -77.03072833333333, "name": "9fc3ace7bf98361063f6b93d393a02e8", "lat": 38.92249116666667, "is_reserved": 0, "fusion_lat": 0.0, "bike_id": "9fc3ace7bf98361063f6b93d393a02e8", "type": "electric_scooter", "is_disabled": 0, "fusion_lon": 0.0}, {"rental_uris": {"android": "https://dc.lft.to/lastmile_qr_scan", "ios": "https://dc.lft.to/lastmile_qr_scan"}, "lon": -77.02290333333333, "name": "29b344ce03a5134b5cbde1c455c0d449", "lat": 38.914357833333334, "is_reserved": 0, "fusion_lat": 0.0, "bike_id": "29b344ce03a5134b5cbde1c455c0d449", "type": "electric_scooter", "is_disabled": 0, "fusion_lon": 0.0}, {"rental_uris": {"android": "https://dc.lft.to/lastmile_qr_scan", "ios": "https://dc.lft.to/lastmile_qr_scan"}, "lon": -77.01306166666667, "name": "d705ef32d4cbef7c6b56ac39f9ea7804", "lat": 38.901788833333335, "is_reserved": 0, "fusion_lat": 0.0, "bike_id": "d705ef32d4cbef7c6b56ac39f9ea7804", "type": "electric_scooter", "is_disabled": 0, "fusion_lon": 0.0}, {"rental_uris": {"android": "https://dc.lft.to/lastmile_qr_scan", "ios": "https://dc.lft.to/lastmile_qr_scan"}, "lon": -77.02386333333334, "name": "afcf20daf6eadcfa9dc4af0021e44722", "lat": 38.92658, "is_reserved": 0, "fusion_lat": 0.0, "bike_id": "afcf20daf6eadcfa9dc4af0021e44722", "type": "electric_scooter", "is_disabled": 0, "fusion_lon": 0.0}, {"rental_uris": {"android": "https://dc.lft.to/lastmile_qr_scan", "ios": "https://dc.lft.to/lastmile_qr_scan"}, "lon": -77.04351316666667, "name": "8ef8680f3b27eb1c79951fcb2bbdff28", "lat": 38.907235666666665, "is_reserved": 0, "fusion_lat": 0.0, "bike_id": "8ef8680f3b27eb1c79951fcb2bbdff28", "type": "electric_scooter", "is_disabled": 0, "fusion_lon": 0.0}, {"rental_uris": {"android": "https://dc.lft.to/lastmile_qr_scan", "ios": "https://dc.lft.to/lastmile_qr_scan"}, "lon": -77.04998516666667, "name": "a4a8f9e83a9ddbbc68b92b953df21b4c", "lat": 38.899135333333334, "is_reserved": 0, "fusion_lat": 0.0, "bike_id": "a4a8f9e83a9ddbbc68b92b953df21b4c", "type": "electric_scooter", "is_disabled": 0, "fusion_lon": 0.0}, {"rental_uris": {"android": "https://dc.lft.to/lastmile_qr_scan", "ios": "https://dc.lft.to/lastmile_qr_scan"}, "lon": -76.98723383333333, "name": "39bf0b534bb87c01cc5e96b51f375dbb", "lat": 38.8354995, "is_reserved": 0, "fusion_lat": 0.0, "bike_id": "39bf0b534bb87c01cc5e96b51f375dbb", "type": "electric_bike", "is_disabled": 0, "fusion_lon": 0.0}, {"rental_uris": {"android": "https://dc.lft.to/lastmile_qr_scan", "ios": "https://dc.lft.to/lastmile_qr_scan"}, "lon": -77.02696533333334, "name": "85718a530f9c97935c428ae73866f35c", "lat": 38.949797, "is_reserved": 0, "fusion_lat": 0.0, "bike_id": "85718a530f9c97935c428ae73866f35c", "type": "electric_scooter", "is_disabled": 0, "fusion_lon": 0.0}, {"rental_uris": {"android": "https://dc.lft.to/lastmile_qr_scan", "ios": "https://dc.lft.to/lastmile_qr_scan"}, "lon": -77.01228766666667, "name": "dd2ee8154d32870edb831d3d0c80f288", "lat": 38.916835166666665, "is_reserved": 0, "fusion_lat": 0.0, "bike_id": "dd2ee8154d32870edb831d3d0c80f288", "type": "electric_scooter", "is_disabled": 0, "fusion_lon": 0.0}, {"rental_uris": {"android": "https://dc.lft.to/lastmile_qr_scan", "ios": "https://dc.lft.to/lastmile_qr_scan"}, "lon": -76.98796783333333, "name": "85e1233acc35983cae7431156f10c8f3", "lat": 38.844931333333335, "is_reserved": 0, "fusion_lat": 0.0, "bike_id": "85e1233acc35983cae7431156f10c8f3", "type": "electric_scooter", "is_disabled": 0, "fusion_lon": 0.0}, {"rental_uris": {"android": "https://dc.lft.to/lastmile_qr_scan", "ios": "https://dc.lft.to/lastmile_qr_scan"}, "lon": -77.00216133333333, "name": "767b8141f530c88469735169b7503bd6", "lat": 38.907835666666664, "is_reserved": 0, "fusion_lat": 0.0, "bike_id": "767b8141f530c88469735169b7503bd6", "type": "electric_scooter", "is_disabled": 0, "fusion_lon": 0.0}, {"rental_uris": {"android": "https://dc.lft.to/lastmile_qr_scan", "ios": "https://dc.lft.to/lastmile_qr_scan"}, "lon": -77.0238145, "name": "9ac32759f3733500f1c679dd3b32fea3", "lat": 38.892228833333334, "is_reserved": 0, "fusion_lat": 0.0, "bike_id": "9ac32759f3733500f1c679dd3b32fea3", "type": "electric_scooter", "is_disabled": 0, "fusion_lon": 0.0}, {"rental_uris": {"android": "https://dc.lft.to/lastmile_qr_scan", "ios": "https://dc.lft.to/lastmile_qr_scan"}, "lon": -77.01779133333334, "name": "72e75cf13a243f2be5417e222cf26d22", "lat": 38.88714266666667, "is_reserved": 0, "fusion_lat": 0.0, "bike_id": "72e75cf13a243f2be5417e222cf26d22", "type": "electric_scooter", "is_disabled": 0, "fusion_lon": 0.0}, {"rental_uris": {"android": "https://dc.lft.to/lastmile_qr_scan", "ios": "https://dc.lft.to/lastmile_qr_scan"}, "lon": -77.042263, "name": "bb2d5a03e5c27102b8d183caddae2df8", "lat": 38.9027335, "is_reserved": 0, "fusion_lat": 0.0, "bike_id": "bb2d5a03e5c27102b8d183caddae2df8", "type": "electric_scooter", "is_disabled": 0, "fusion_lon": 0.0}, {"rental_uris": {"android": "https://dc.lft.to/lastmile_qr_scan", "ios": "https://dc.lft.to/lastmile_qr_scan"}, "lon": -77.04195633333333, "name": "015e32a17b81446ad406571249899427", "lat": 38.892204166666666, "is_reserved": 0, "fusion_lat": 0.0, "bike_id": "015e32a17b81446ad406571249899427", "type": "electric_scooter", "is_disabled": 0, "fusion_lon": 0.0}, {"rental_uris": {"android": "https://dc.lft.to/lastmile_qr_scan", "ios": "https://dc.lft.to/lastmile_qr_scan"}, "lon": -77.03870133333334, "name": "ccee388a188668b73a102a828be90b44", "lat": 38.99052016666667, "is_reserved": 0, "fusion_lat": 0.0, "bike_id": "ccee388a188668b73a102a828be90b44", "type": "electric_bike", "is_disabled": 0, "fusion_lon": 0.0}, {"rental_uris": {"android": "https://dc.lft.to/lastmile_qr_scan", "ios": "https://dc.lft.to/lastmile_qr_scan"}, "lon": -77.02598733333333, "name": "9906c7d555c6e59f5b83b5943e1a0c0c", "lat": 38.89656033333333, "is_reserved": 0, "fusion_lat": 0.0, "bike_id": "9906c7d555c6e59f5b83b5943e1a0c0c", "type": "electric_scooter", "is_disabled": 0, "fusion_lon": 0.0}, {"rental_uris": {"android": "https://dc.lft.to/lastmile_qr_scan", "ios": "https://dc.lft.to/lastmile_qr_scan"}, "lon": -77.02721283333334, "name": "da8667a101339121c278a1e247de7cb0", "lat": 38.9067665, "is_reserved": 0, "fusion_lat": 0.0, "bike_id": "da8667a101339121c278a1e247de7cb0", "type": "electric_scooter", "is_disabled": 0, "fusion_lon": 0.0}, {"rental_uris": {"android": "https://dc.lft.to/lastmile_qr_scan", "ios": "https://dc.lft.to/lastmile_qr_scan"}, "lon": -77.03645183333333, "name": "8fe2c094541068478bec88c4295e0bbd", "lat": 38.92738516666667, "is_reserved": 0, "fusion_lat": 0.0, "bike_id": "8fe2c094541068478bec88c4295e0bbd", "type": "electric_scooter", "is_disabled": 0, "fusion_lon": 0.0}, {"rental_uris": {"android": "https://dc.lft.to/lastmile_qr_scan", "ios": "https://dc.lft.to/lastmile_qr_scan"}, "lon": -77.01679766666666, "name": "77e40d1d45b3106c137cb9726f73ba1e", "lat": 38.9010695, "is_reserved": 0, "fusion_lat": 0.0, "bike_id": "77e40d1d45b3106c137cb9726f73ba1e", "type": "electric_scooter", "is_disabled": 0, "fusion_lon": 0.0}, {"rental_uris": {"android": "https://dc.lft.to/lastmile_qr_scan", "ios": "https://dc.lft.to/lastmile_qr_scan"}, "lon": -77.01161766666667, "name": "81396aa4666c37ae96fa4798be177d00", "lat": 38.92026666666667, "is_reserved": 0, "fusion_lat": 0.0, "bike_id": "81396aa4666c37ae96fa4798be177d00", "type": "electric_scooter", "is_disabled": 0, "fusion_lon": 0.0}, {"rental_uris": {"android": "https://dc.lft.to/lastmile_qr_scan", "ios": "https://dc.lft.to/lastmile_qr_scan"}, "lon": -77.02086833333334, "name": "586c41a3d49063cbfa783aabb5a49058", "lat": 38.92106233333333, "is_reserved": 0, "fusion_lat": 0.0, "bike_id": "586c41a3d49063cbfa783aabb5a49058", "type": "electric_scooter", "is_disabled": 0, "fusion_lon": 0.0}, {"rental_uris": {"android": "https://dc.lft.to/lastmile_qr_scan", "ios": "https://dc.lft.to/lastmile_qr_scan"}, "lon": -77.03449466666666, "name": "4b1f62705d48e76439cc9c174c336917", "lat": 38.90947833333333, "is_reserved": 0, "fusion_lat": 0.0, "bike_id": "4b1f62705d48e76439cc9c174c336917", "type": "electric_scooter", "is_disabled": 0, "fusion_lon": 0.0}, {"rental_uris": {"android": "https://dc.lft.to/lastmile_qr_scan", "ios": "https://dc.lft.to/lastmile_qr_scan"}, "lon": -77.05755416666666, "name": "93480e61dfbb7b5c6b36879999fe9c9d", "lat": 38.924235833333334, "is_reserved": 0, "fusion_lat": 0.0, "bike_id": "93480e61dfbb7b5c6b36879999fe9c9d", "type": "electric_scooter", "is_disabled": 0, "fusion_lon": 0.0}, {"rental_uris": {"android": "https://dc.lft.to/lastmile_qr_scan", "ios": "https://dc.lft.to/lastmile_qr_scan"}, "lon": -77.02212066666667, "name": "39c0e2bf297d0e722c417def07eea675", "lat": 38.90578466666667, "is_reserved": 0, "fusion_lat": 0.0, "bike_id": "39c0e2bf297d0e722c417def07eea675", "type": "electric_scooter", "is_disabled": 0, "fusion_lon": 0.0}, {"rental_uris": {"android": "https://dc.lft.to/lastmile_qr_scan", "ios": "https://dc.lft.to/lastmile_qr_scan"}, "lon": -77.01852933333333, "name": "10dbd6294d62b2a1aeacd1fe0b1f90ee", "lat": 38.97367333333333, "is_reserved": 0, "fusion_lat": 0.0, "bike_id": "10dbd6294d62b2a1aeacd1fe0b1f90ee", "type": "electric_scooter", "is_disabled": 0, "fusion_lon": 0.0}, {"rental_uris": {"android": "https://dc.lft.to/lastmile_qr_scan", "ios": "https://dc.lft.to/lastmile_qr_scan"}, "lon": -76.95160466666667, "name": "cac2d7d9b59038bc46ff28c2c9c94aad", "lat": 38.885199166666666, "is_reserved": 0, "fusion_lat": 0.0, "bike_id": "cac2d7d9b59038bc46ff28c2c9c94aad", "type": "electric_bike", "is_disabled": 0, "fusion_lon": 0.0}, {"rental_uris": {"android": "https://dc.lft.to/lastmile_qr_scan", "ios": "https://dc.lft.to/lastmile_qr_scan"}, "lon": -76.9900485, "name": "9a6e0b6afa5e22a9f67f15094090b555", "lat": 38.865068, "is_reserved": 0, "fusion_lat": 0.0, "bike_id": "9a6e0b6afa5e22a9f67f15094090b555", "type": "electric_scooter", "is_disabled": 0, "fusion_lon": 0.0}, {"rental_uris": {"android": "https://dc.lft.to/lastmile_qr_scan", "ios": "https://dc.lft.to/lastmile_qr_scan"}, "lon": -77.0242945, "name": "ac1cebc77da59d9600b7ad299bd3ec12", "lat": 38.92056133333333, "is_reserved": 0, "fusion_lat": 0.0, "bike_id": "ac1cebc77da59d9600b7ad299bd3ec12", "type": "electric_scooter", "is_disabled": 0, "fusion_lon": 0.0}, {"rental_uris": {"android": "https://dc.lft.to/lastmile_qr_scan", "ios": "https://dc.lft.to/lastmile_qr_scan"}, "lon": -76.98825216666667, "name": "ca283a964766d5c185ef33fb1a1dcd93", "lat": 38.900371166666666, "is_reserved": 0, "fusion_lat": 0.0, "bike_id": "ca283a964766d5c185ef33fb1a1dcd93", "type": "electric_scooter", "is_disabled": 0, "fusion_lon": 0.0}, {"rental_uris": {"android": "https://dc.lft.to/lastmile_qr_scan", "ios": "https://dc.lft.to/lastmile_qr_scan"}, "lon": -77.02183966666666, "name": "abf966b94bd06f0f29527d9f9355ab5e", "lat": 38.91566816666667, "is_reserved": 0, "fusion_lat": 0.0, "bike_id": "abf966b94bd06f0f29527d9f9355ab5e", "type": "electric_scooter", "is_disabled": 0, "fusion_lon": 0.0}, {"rental_uris": {"android": "https://dc.lft.to/lastmile_qr_scan", "ios": "https://dc.lft.to/lastmile_qr_scan"}, "lon": -77.03212933333333, "name": "b7cacfd99b7457f4f5b25d85470fcc16", "lat": 38.90360783333333, "is_reserved": 0, "fusion_lat": 0.0, "bike_id": "b7cacfd99b7457f4f5b25d85470fcc16", "type": "electric_scooter", "is_disabled": 0, "fusion_lon": 0.0}, {"rental_uris": {"android": "https://dc.lft.to/lastmile_qr_scan", "ios": "https://dc.lft.to/lastmile_qr_scan"}, "lon": -77.032876, "name": "1429e318d4b55d135303861659be8596", "lat": 38.93687666666667, "is_reserved": 0, "fusion_lat": 0.0, "bike_id": "1429e318d4b55d135303861659be8596", "type": "electric_scooter", "is_disabled": 0, "fusion_lon": 0.0}, {"rental_uris": {"android": "https://dc.lft.to/lastmile_qr_scan", "ios": "https://dc.lft.to/lastmile_qr_scan"}, "lon": -77.041625, "name": "9b36a83a4a69f4fad008bcb5d2c568ff", "lat": 38.89231816666667, "is_reserved": 0, "fusion_lat": 0.0, "bike_id": "9b36a83a4a69f4fad008bcb5d2c568ff", "type": "electric_scooter", "is_disabled": 0, "fusion_lon": 0.0}, {"rental_uris": {"android": "https://dc.lft.to/lastmile_qr_scan", "ios": "https://dc.lft.to/lastmile_qr_scan"}, "lon": -77.03207183333333, "name": "f1492b67e64b70ef6d2f04505da0b921", "lat": 38.892322166666666, "is_reserved": 0, "fusion_lat": 0.0, "bike_id": "f1492b67e64b70ef6d2f04505da0b921", "type": "electric_scooter", "is_disabled": 0, "fusion_lon": 0.0}, {"rental_uris": {"android": "https://dc.lft.to/lastmile_qr_scan", "ios": "https://dc.lft.to/lastmile_qr_scan"}, "lon": -77.04696916666667, "name": "7f663d56fe319d1375afa475dd0b318e", "lat": 38.921049333333336, "is_reserved": 0, "fusion_lat": 0.0, "bike_id": "7f663d56fe319d1375afa475dd0b318e", "type": "electric_scooter", "is_disabled": 0, "fusion_lon": 0.0}, {"rental_uris": {"android": "https://dc.lft.to/lastmile_qr_scan", "ios": "https://dc.lft.to/lastmile_qr_scan"}, "lon": -76.94856933333334, "name": "51278c490785a7e4a3bed730f70ac2a3", "lat": 38.882983833333334, "is_reserved": 0, "fusion_lat": 0.0, "bike_id": "51278c490785a7e4a3bed730f70ac2a3", "type": "electric_scooter", "is_disabled": 0, "fusion_lon": 0.0}, {"rental_uris": {"android": "https://dc.lft.to/lastmile_qr_scan", "ios": "https://dc.lft.to/lastmile_qr_scan"}, "lon": -76.94780033333333, "name": "2dde37fc622a9c36544d143b9e388e7b", "lat": 38.89612966666667, "is_reserved": 0, "fusion_lat": 0.0, "bike_id": "2dde37fc622a9c36544d143b9e388e7b", "type": "electric_scooter", "is_disabled": 0, "fusion_lon": 0.0}, {"rental_uris": {"android": "https://dc.lft.to/lastmile_qr_scan", "ios": "https://dc.lft.to/lastmile_qr_scan"}, "lon": -76.94892966666667, "name": "8aa38bddc08dc8d85117b6f7dbc66fa9", "lat": 38.89531216666666, "is_reserved": 0, "fusion_lat": 0.0, "bike_id": "8aa38bddc08dc8d85117b6f7dbc66fa9", "type": "electric_scooter", "is_disabled": 0, "fusion_lon": 0.0}, {"rental_uris": {"android": "https://dc.lft.to/lastmile_qr_scan", "ios": "https://dc.lft.to/lastmile_qr_scan"}, "lon": -77.02247616666666, "name": "9baea36b2aa67d25a9e933d0979b21f4", "lat": 38.92271133333333, "is_reserved": 0, "fusion_lat": 0.0, "bike_id": "9baea36b2aa67d25a9e933d0979b21f4", "type": "electric_scooter", "is_disabled": 0, "fusion_lon": 0.0}, {"rental_uris": {"android": "https://dc.lft.to/lastmile_qr_scan", "ios": "https://dc.lft.to/lastmile_qr_scan"}, "lon": -77.03378033333334, "name": "76d47d4c3525ea326ae0dc6b43873d47", "lat": 38.9244295, "is_reserved": 0, "fusion_lat": 0.0, "bike_id": "76d47d4c3525ea326ae0dc6b43873d47", "type": "electric_scooter", "is_disabled": 0, "fusion_lon": 0.0}, {"rental_uris": {"android": "https://dc.lft.to/lastmile_qr_scan", "ios": "https://dc.lft.to/lastmile_qr_scan"}, "lon": -76.98699916666666, "name": "b3ee447ad6170bb4e3fd546a6bff3514", "lat": 38.90012433333333, "is_reserved": 0, "fusion_lat": 0.0, "bike_id": "b3ee447ad6170bb4e3fd546a6bff3514", "type": "electric_scooter", "is_disabled": 0, "fusion_lon": 0.0}, {"rental_uris": {"android": "https://dc.lft.to/lastmile_qr_scan", "ios": "https://dc.lft.to/lastmile_qr_scan"}, "lon": -77.00188133333333, "name": "2e2498398e0c116c380746fd59f4b1bd", "lat": 38.8221885, "is_reserved": 0, "fusion_lat": 0.0, "bike_id": "2e2498398e0c116c380746fd59f4b1bd", "type": "electric_scooter", "is_disabled": 0, "fusion_lon": 0.0}, {"rental_uris": {"android": "https://dc.lft.to/lastmile_qr_scan", "ios": "https://dc.lft.to/lastmile_qr_scan"}, "lon": -77.02411683333334, "name": "dbba57113851b6747c977389580fd853", "lat": 38.936978, "is_reserved": 0, "fusion_lat": 0.0, "bike_id": "dbba57113851b6747c977389580fd853", "type": "electric_scooter", "is_disabled": 0, "fusion_lon": 0.0}, {"rental_uris": {"android": "https://dc.lft.to/lastmile_qr_scan", "ios": "https://dc.lft.to/lastmile_qr_scan"}, "lon": -77.020445, "name": "65cdf7990feb6be218a4b177b85dc8f1", "lat": 38.885266666666666, "is_reserved": 0, "fusion_lat": 0.0, "bike_id": "65cdf7990feb6be218a4b177b85dc8f1", "type": "electric_scooter", "is_disabled": 0, "fusion_lon": 0.0}, {"rental_uris": {"android": "https://dc.lft.to/lastmile_qr_scan", "ios": "https://dc.lft.to/lastmile_qr_scan"}, "lon": -77.03154566666667, "name": "596e2bfb5479d0c53fdafdad90e8b7e0", "lat": 38.91711266666667, "is_reserved": 0, "fusion_lat": 0.0, "bike_id": "596e2bfb5479d0c53fdafdad90e8b7e0", "type": "electric_scooter", "is_disabled": 0, "fusion_lon": 0.0}, {"rental_uris": {"android": "https://dc.lft.to/lastmile_qr_scan", "ios": "https://dc.lft.to/lastmile_qr_scan"}, "lon": -77.03170066666667, "name": "791e698c9fcfb6c73f832dbee1041432", "lat": 38.916176666666665, "is_reserved": 0, "fusion_lat": 0.0, "bike_id": "791e698c9fcfb6c73f832dbee1041432", "type": "electric_scooter", "is_disabled": 0, "fusion_lon": 0.0}, {"rental_uris": {"android": "https://dc.lft.to/lastmile_qr_scan", "ios": "https://dc.lft.to/lastmile_qr_scan"}, "lon": -77.05705166666667, "name": "8bf83e638f0d4e06fb48699d2a77d7c6", "lat": 38.93320933333333, "is_reserved": 0, "fusion_lat": 0.0, "bike_id": "8bf83e638f0d4e06fb48699d2a77d7c6", "type": "electric_scooter", "is_disabled": 0, "fusion_lon": 0.0}, {"rental_uris": {"android": "https://dc.lft.to/lastmile_qr_scan", "ios": "https://dc.lft.to/lastmile_qr_scan"}, "lon": -77.07697766666666, "name": "e8d0d4f0b027c4f3e6efaaa09b90a614", "lat": 38.994202, "is_reserved": 0, "fusion_lat": 0.0, "bike_id": "e8d0d4f0b027c4f3e6efaaa09b90a614", "type": "electric_bike", "is_disabled": 0, "fusion_lon": 0.0}, {"rental_uris": {"android": "https://dc.lft.to/lastmile_qr_scan", "ios": "https://dc.lft.to/lastmile_qr_scan"}, "lon": -77.02973683333333, "name": "ed870850ba324d9e8730919d406d8567", "lat": 38.917226166666666, "is_reserved": 0, "fusion_lat": 0.0, "bike_id": "ed870850ba324d9e8730919d406d8567", "type": "electric_scooter", "is_disabled": 0, "fusion_lon": 0.0}, {"rental_uris": {"android": "https://dc.lft.to/lastmile_qr_scan", "ios": "https://dc.lft.to/lastmile_qr_scan"}, "lon": -77.024108, "name": "d6d3af40fd5ba441a7215ee451a2659e", "lat": 38.93100166666667, "is_reserved": 0, "fusion_lat": 0.0, "bike_id": "d6d3af40fd5ba441a7215ee451a2659e", "type": "electric_scooter", "is_disabled": 0, "fusion_lon": 0.0}, {"rental_uris": {"android": "https://dc.lft.to/lastmile_qr_scan", "ios": "https://dc.lft.to/lastmile_qr_scan"}, "lon": -77.03470433333334, "name": "347f585d9d9cc04b7b7099732cc972db", "lat": 38.905614166666666, "is_reserved": 0, "fusion_lat": 0.0, "bike_id": "347f585d9d9cc04b7b7099732cc972db", "type": "electric_scooter", "is_disabled": 0, "fusion_lon": 0.0}, {"rental_uris": {"android": "https://dc.lft.to/lastmile_qr_scan", "ios": "https://dc.lft.to/lastmile_qr_scan"}, "lon": -76.934014, "name": "651bcac16d6d89789e0dfb1a407c42dd", "lat": 38.898936666666664, "is_reserved": 0, "fusion_lat": 0.0, "bike_id": "651bcac16d6d89789e0dfb1a407c42dd", "type": "electric_scooter", "is_disabled": 0, "fusion_lon": 0.0}, {"rental_uris": {"android": "https://dc.lft.to/lastmile_qr_scan", "ios": "https://dc.lft.to/lastmile_qr_scan"}, "lon": -77.034999, "name": "44b0f08411e3666802ca2507e0e4667e", "lat": 38.921397, "is_reserved": 0, "fusion_lat": 0.0, "bike_id": "44b0f08411e3666802ca2507e0e4667e", "type": "electric_scooter", "is_disabled": 0, "fusion_lon": 0.0}, {"rental_uris": {"android": "https://dc.lft.to/lastmile_qr_scan", "ios": "https://dc.lft.to/lastmile_qr_scan"}, "lon": -77.005898, "name": "c19ef430fe31dd2e44b6787a2dbbb977", "lat": 38.8755995, "is_reserved": 0, "fusion_lat": 0.0, "bike_id": "c19ef430fe31dd2e44b6787a2dbbb977", "type": "electric_scooter", "is_disabled": 0, "fusion_lon": 0.0}, {"rental_uris": {"android": "https://dc.lft.to/lastmile_qr_scan", "ios": "https://dc.lft.to/lastmile_qr_scan"}, "lon": -77.0328265, "name": "1f5f6e93f0f1af8a0fecc99bb53da8f4", "lat": 38.92049083333333, "is_reserved": 0, "fusion_lat": 0.0, "bike_id": "1f5f6e93f0f1af8a0fecc99bb53da8f4", "type": "electric_scooter", "is_disabled": 0, "fusion_lon": 0.0}, {"rental_uris": {"android": "https://dc.lft.to/lastmile_qr_scan", "ios": "https://dc.lft.to/lastmile_qr_scan"}, "lon": -77.02958333333333, "name": "ff3616f5fc5852f6847df646a28d4cc5", "lat": 38.908732, "is_reserved": 0, "fusion_lat": 0.0, "bike_id": "ff3616f5fc5852f6847df646a28d4cc5", "type": "electric_scooter", "is_disabled": 0, "fusion_lon": 0.0}, {"rental_uris": {"android": "https://dc.lft.to/lastmile_qr_scan", "ios": "https://dc.lft.to/lastmile_qr_scan"}, "lon": -77.017625, "name": "1a6eda1453eb84772bb02c074811352b", "lat": 38.902599, "is_reserved": 0, "fusion_lat": 0.0, "bike_id": "1a6eda1453eb84772bb02c074811352b", "type": "electric_scooter", "is_disabled": 0, "fusion_lon": 0.0}, {"rental_uris": {"android": "https://dc.lft.to/lastmile_qr_scan", "ios": "https://dc.lft.to/lastmile_qr_scan"}, "lon": -77.02676183333334, "name": "03801e7c7aeab66c0e31f25270071e30", "lat": 38.897386166666664, "is_reserved": 0, "fusion_lat": 0.0, "bike_id": "03801e7c7aeab66c0e31f25270071e30", "type": "electric_scooter", "is_disabled": 0, "fusion_lon": 0.0}, {"rental_uris": {"android": "https://dc.lft.to/lastmile_qr_scan", "ios": "https://dc.lft.to/lastmile_qr_scan"}, "lon": -77.01374033333333, "name": "6444421c73f66a82b1445df81c7b5256", "lat": 38.887067, "is_reserved": 0, "fusion_lat": 0.0, "bike_id": "6444421c73f66a82b1445df81c7b5256", "type": "electric_scooter", "is_disabled": 0, "fusion_lon": 0.0}, {"rental_uris": {"android": "https://dc.lft.to/lastmile_qr_scan", "ios": "https://dc.lft.to/lastmile_qr_scan"}, "lon": -77.03783116666666, "name": "81f0c3de563cbf1fe3b6989f767f87b0", "lat": 38.936123333333335, "is_reserved": 0, "fusion_lat": 0.0, "bike_id": "81f0c3de563cbf1fe3b6989f767f87b0", "type": "electric_scooter", "is_disabled": 0, "fusion_lon": 0.0}, {"rental_uris": {"android": "https://dc.lft.to/lastmile_qr_scan", "ios": "https://dc.lft.to/lastmile_qr_scan"}, "lon": -77.01762483333333, "name": "389fbce43a610c7628d8983ed36a9402", "lat": 38.9027125, "is_reserved": 0, "fusion_lat": 0.0, "bike_id": "389fbce43a610c7628d8983ed36a9402", "type": "electric_scooter", "is_disabled": 0, "fusion_lon": 0.0}, {"rental_uris": {"android": "https://dc.lft.to/lastmile_qr_scan", "ios": "https://dc.lft.to/lastmile_qr_scan"}, "lon": -77.0257875, "name": "2c04055dc8f016a7a8e03df7457eb42e", "lat": 38.920466833333336, "is_reserved": 0, "fusion_lat": 0.0, "bike_id": "2c04055dc8f016a7a8e03df7457eb42e", "type": "electric_scooter", "is_disabled": 0, "fusion_lon": 0.0}, {"rental_uris": {"android": "https://dc.lft.to/lastmile_qr_scan", "ios": "https://dc.lft.to/lastmile_qr_scan"}, "lon": -76.9871955, "name": "ec01b3bb7a03f99c8fd4d54c6f52320c", "lat": 38.855896333333334, "is_reserved": 0, "fusion_lat": 0.0, "bike_id": "ec01b3bb7a03f99c8fd4d54c6f52320c", "type": "electric_scooter", "is_disabled": 0, "fusion_lon": 0.0}, {"rental_uris": {"android": "https://dc.lft.to/lastmile_qr_scan", "ios": "https://dc.lft.to/lastmile_qr_scan"}, "lon": -77.0333195, "name": "137544500f9e4c25999d8e006269568a", "lat": 38.89842633333333, "is_reserved": 0, "fusion_lat": 0.0, "bike_id": "137544500f9e4c25999d8e006269568a", "type": "electric_scooter", "is_disabled": 0, "fusion_lon": 0.0}, {"rental_uris": {"android": "https://dc.lft.to/lastmile_qr_scan", "ios": "https://dc.lft.to/lastmile_qr_scan"}, "lon": -77.0017965, "name": "7fc5c6fc08fb18e82913c873d817dcf0", "lat": 38.90611883333333, "is_reserved": 0, "fusion_lat": 0.0, "bike_id": "7fc5c6fc08fb18e82913c873d817dcf0", "type": "electric_scooter", "is_disabled": 0, "fusion_lon": 0.0}, {"rental_uris": {"android": "https://dc.lft.to/lastmile_qr_scan", "ios": "https://dc.lft.to/lastmile_qr_scan"}, "lon": -77.02981533333333, "name": "b3fd30f79667454de3edf91d72fb3859", "lat": 38.923576, "is_reserved": 0, "fusion_lat": 0.0, "bike_id": "b3fd30f79667454de3edf91d72fb3859", "type": "electric_scooter", "is_disabled": 0, "fusion_lon": 0.0}, {"rental_uris": {"android": "https://dc.lft.to/lastmile_qr_scan", "ios": "https://dc.lft.to/lastmile_qr_scan"}, "lon": -76.98573583333334, "name": "f397139a4a4f062ba0a411e5cdd052dd", "lat": 38.866806, "is_reserved": 0, "fusion_lat": 0.0, "bike_id": "f397139a4a4f062ba0a411e5cdd052dd", "type": "electric_scooter", "is_disabled": 0, "fusion_lon": 0.0}, {"rental_uris": {"android": "https://dc.lft.to/lastmile_qr_scan", "ios": "https://dc.lft.to/lastmile_qr_scan"}, "lon": -77.12487016666667, "name": "ae62e086c12115e7ecf3a6b3507b4f7d", "lat": 38.8279105, "is_reserved": 0, "fusion_lat": 0.0, "bike_id": "ae62e086c12115e7ecf3a6b3507b4f7d", "type": "electric_bike", "is_disabled": 0, "fusion_lon": 0.0}, {"rental_uris": {"android": "https://dc.lft.to/lastmile_qr_scan", "ios": "https://dc.lft.to/lastmile_qr_scan"}, "lon": -77.021453, "name": "a3e09240585d1cfe80ebd54e52765a8e", "lat": 38.92337166666667, "is_reserved": 0, "fusion_lat": 0.0, "bike_id": "a3e09240585d1cfe80ebd54e52765a8e", "type": "electric_scooter", "is_disabled": 0, "fusion_lon": 0.0}, {"rental_uris": {"android": "https://dc.lft.to/lastmile_qr_scan", "ios": "https://dc.lft.to/lastmile_qr_scan"}, "lon": -77.017212, "name": "12c5ac9e1695ba08beb63125a3cd8188", "lat": 38.89227483333333, "is_reserved": 0, "fusion_lat": 0.0, "bike_id": "12c5ac9e1695ba08beb63125a3cd8188", "type": "electric_scooter", "is_disabled": 0, "fusion_lon": 0.0}, {"rental_uris": {"android": "https://dc.lft.to/lastmile_qr_scan", "ios": "https://dc.lft.to/lastmile_qr_scan"}, "lon": -77.01572233333333, "name": "e2ec11de886f2817099d8f67fb0a012c", "lat": 38.92683366666667, "is_reserved": 0, "fusion_lat": 0.0, "bike_id": "e2ec11de886f2817099d8f67fb0a012c", "type": "electric_scooter", "is_disabled": 0, "fusion_lon": 0.0}, {"rental_uris": {"android": "https://dc.lft.to/lastmile_qr_scan", "ios": "https://dc.lft.to/lastmile_qr_scan"}, "lon": -77.05516516666667, "name": "517c08cc97e4ee68055d04c95eb65895", "lat": 38.89928483333333, "is_reserved": 0, "fusion_lat": 0.0, "bike_id": "517c08cc97e4ee68055d04c95eb65895", "type": "electric_scooter", "is_disabled": 0, "fusion_lon": 0.0}, {"rental_uris": {"android": "https://dc.lft.to/lastmile_qr_scan", "ios": "https://dc.lft.to/lastmile_qr_scan"}, "lon": -77.002009, "name": "1d323b3132da4674b2b88273c75db749", "lat": 38.90238083333333, "is_reserved": 0, "fusion_lat": 0.0, "bike_id": "1d323b3132da4674b2b88273c75db749", "type": "electric_scooter", "is_disabled": 0, "fusion_lon": 0.0}, {"rental_uris": {"android": "https://dc.lft.to/lastmile_qr_scan", "ios": "https://dc.lft.to/lastmile_qr_scan"}, "lon": -76.98658933333333, "name": "df1811488fb2468d1afe1227d16dae71", "lat": 38.858064, "is_reserved": 0, "fusion_lat": 0.0, "bike_id": "df1811488fb2468d1afe1227d16dae71", "type": "electric_scooter", "is_disabled": 0, "fusion_lon": 0.0}, {"rental_uris": {"android": "https://dc.lft.to/lastmile_qr_scan", "ios": "https://dc.lft.to/lastmile_qr_scan"}, "lon": -77.02955116666666, "name": "6aedd63271a5a526c6efc918611af724", "lat": 38.90493633333333, "is_reserved": 0, "fusion_lat": 0.0, "bike_id": "6aedd63271a5a526c6efc918611af724", "type": "electric_scooter", "is_disabled": 0, "fusion_lon": 0.0}, {"rental_uris": {"android": "https://dc.lft.to/lastmile_qr_scan", "ios": "https://dc.lft.to/lastmile_qr_scan"}, "lon": -76.98715116666666, "name": "e4d027b57b09d7015b9c7d9e629ac2b9", "lat": 38.86632733333333, "is_reserved": 0, "fusion_lat": 0.0, "bike_id": "e4d027b57b09d7015b9c7d9e629ac2b9", "type": "electric_scooter", "is_disabled": 0, "fusion_lon": 0.0}, {"rental_uris": {"android": "https://dc.lft.to/lastmile_qr_scan", "ios": "https://dc.lft.to/lastmile_qr_scan"}, "lon": -77.026837, "name": "6aa1868f8bf1bf4caa1f646387d76328", "lat": 38.902369666666665, "is_reserved": 0, "fusion_lat": 0.0, "bike_id": "6aa1868f8bf1bf4caa1f646387d76328", "type": "electric_scooter", "is_disabled": 0, "fusion_lon": 0.0}, {"rental_uris": {"android": "https://dc.lft.to/lastmile_qr_scan", "ios": "https://dc.lft.to/lastmile_qr_scan"}, "lon": -76.99844416666667, "name": "7ac3776e0ac9bed9664630bcbf59598f", "lat": 38.9000565, "is_reserved": 0, "fusion_lat": 0.0, "bike_id": "7ac3776e0ac9bed9664630bcbf59598f", "type": "electric_bike", "is_disabled": 0, "fusion_lon": 0.0}, {"rental_uris": {"android": "https://dc.lft.to/lastmile_qr_scan", "ios": "https://dc.lft.to/lastmile_qr_scan"}, "lon": -77.04867866666666, "name": "06fb762d8932e22b6ebc2fb3422b306f", "lat": 38.90961733333333, "is_reserved": 0, "fusion_lat": 0.0, "bike_id": "06fb762d8932e22b6ebc2fb3422b306f", "type": "electric_scooter", "is_disabled": 0, "fusion_lon": 0.0}, {"rental_uris": {"android": "https://dc.lft.to/lastmile_qr_scan", "ios": "https://dc.lft.to/lastmile_qr_scan"}, "lon": -77.03713316666666, "name": "4705d7a43dbcf699cfc9a9d0a577e621", "lat": 38.926443, "is_reserved": 0, "fusion_lat": 0.0, "bike_id": "4705d7a43dbcf699cfc9a9d0a577e621", "type": "electric_scooter", "is_disabled": 0, "fusion_lon": 0.0}, {"rental_uris": {"android": "https://dc.lft.to/lastmile_qr_scan", "ios": "https://dc.lft.to/lastmile_qr_scan"}, "lon": -77.01537583333334, "name": "dfb0727fa01aaf27ede41f0990cbe8c8", "lat": 38.884117833333335, "is_reserved": 0, "fusion_lat": 0.0, "bike_id": "dfb0727fa01aaf27ede41f0990cbe8c8", "type": "electric_scooter", "is_disabled": 0, "fusion_lon": 0.0}, {"rental_uris": {"android": "https://dc.lft.to/lastmile_qr_scan", "ios": "https://dc.lft.to/lastmile_qr_scan"}, "lon": -77.0250105, "name": "a54200501caee5e68441d2110802d438", "lat": 38.94171333333333, "is_reserved": 0, "fusion_lat": 0.0, "bike_id": "a54200501caee5e68441d2110802d438", "type": "electric_scooter", "is_disabled": 0, "fusion_lon": 0.0}, {"rental_uris": {"android": "https://dc.lft.to/lastmile_qr_scan", "ios": "https://dc.lft.to/lastmile_qr_scan"}, "lon": -76.99564883333333, "name": "7aa9e4eb4c9fea200787d766c86d8d22", "lat": 38.92069683333333, "is_reserved": 0, "fusion_lat": 0.0, "bike_id": "7aa9e4eb4c9fea200787d766c86d8d22", "type": "electric_scooter", "is_disabled": 0, "fusion_lon": 0.0}, {"rental_uris": {"android": "https://dc.lft.to/lastmile_qr_scan", "ios": "https://dc.lft.to/lastmile_qr_scan"}, "lon": -77.0326695, "name": "25935a122f4333ff5c244866b0df17ef", "lat": 38.932565333333336, "is_reserved": 0, "fusion_lat": 0.0, "bike_id": "25935a122f4333ff5c244866b0df17ef", "type": "electric_scooter", "is_disabled": 0, "fusion_lon": 0.0}, {"rental_uris": {"android": "https://dc.lft.to/lastmile_qr_scan", "ios": "https://dc.lft.to/lastmile_qr_scan"}, "lon": -77.032401, "name": "b005cb545b2fe039de09f31549f6a068", "lat": 38.927276666666664, "is_reserved": 0, "fusion_lat": 0.0, "bike_id": "b005cb545b2fe039de09f31549f6a068", "type": "electric_scooter", "is_disabled": 0, "fusion_lon": 0.0}, {"rental_uris": {"android": "https://dc.lft.to/lastmile_qr_scan", "ios": "https://dc.lft.to/lastmile_qr_scan"}, "lon": -77.024905, "name": "9ec6c2a093912096d18efdd4fe176856", "lat": 38.90404866666667, "is_reserved": 0, "fusion_lat": 0.0, "bike_id": "9ec6c2a093912096d18efdd4fe176856", "type": "electric_scooter", "is_disabled": 0, "fusion_lon": 0.0}, {"rental_uris": {"android": "https://dc.lft.to/lastmile_qr_scan", "ios": "https://dc.lft.to/lastmile_qr_scan"}, "lon": -77.01882583333334, "name": "cd7c3e6dd6c123d06b4373e0ba12d6bc", "lat": 38.9056135, "is_reserved": 0, "fusion_lat": 0.0, "bike_id": "cd7c3e6dd6c123d06b4373e0ba12d6bc", "type": "electric_scooter", "is_disabled": 0, "fusion_lon": 0.0}, {"rental_uris": {"android": "https://dc.lft.to/lastmile_qr_scan", "ios": "https://dc.lft.to/lastmile_qr_scan"}, "lon": -77.050911, "name": "2ca08596d04f2e04181e67638765cc28", "lat": 38.900625166666664, "is_reserved": 0, "fusion_lat": 0.0, "bike_id": "2ca08596d04f2e04181e67638765cc28", "type": "electric_scooter", "is_disabled": 0, "fusion_lon": 0.0}, {"rental_uris": {"android": "https://dc.lft.to/lastmile_qr_scan", "ios": "https://dc.lft.to/lastmile_qr_scan"}, "lon": -77.00214083333333, "name": "2dd9151c3c41ee1b59e0f869185dcf40", "lat": 38.895146833333335, "is_reserved": 0, "fusion_lat": 0.0, "bike_id": "2dd9151c3c41ee1b59e0f869185dcf40", "type": "electric_scooter", "is_disabled": 0, "fusion_lon": 0.0}, {"rental_uris": {"android": "https://dc.lft.to/lastmile_qr_scan", "ios": "https://dc.lft.to/lastmile_qr_scan"}, "lon": -77.0326175, "name": "83bf883bc4d125f111828daa8c279071", "lat": 38.9397985, "is_reserved": 0, "fusion_lat": 0.0, "bike_id": "83bf883bc4d125f111828daa8c279071", "type": "electric_scooter", "is_disabled": 0, "fusion_lon": 0.0}, {"rental_uris": {"android": "https://dc.lft.to/lastmile_qr_scan", "ios": "https://dc.lft.to/lastmile_qr_scan"}, "lon": -77.02628483333334, "name": "a00bbd5d22b9d937f43e3705fcd0ba68", "lat": 38.88769033333333, "is_reserved": 0, "fusion_lat": 0.0, "bike_id": "a00bbd5d22b9d937f43e3705fcd0ba68", "type": "electric_scooter", "is_disabled": 0, "fusion_lon": 0.0}, {"rental_uris": {"android": "https://dc.lft.to/lastmile_qr_scan", "ios": "https://dc.lft.to/lastmile_qr_scan"}, "lon": -76.99262266666666, "name": "15f884c05ec50b4eacaf0b40ee8da08f", "lat": 38.89432266666667, "is_reserved": 0, "fusion_lat": 0.0, "bike_id": "15f884c05ec50b4eacaf0b40ee8da08f", "type": "electric_scooter", "is_disabled": 0, "fusion_lon": 0.0}, {"rental_uris": {"android": "https://dc.lft.to/lastmile_qr_scan", "ios": "https://dc.lft.to/lastmile_qr_scan"}, "lon": -77.03862883333333, "name": "c8ea72767a13b5f1f1c8ba3d9f0ba199", "lat": 38.917111, "is_reserved": 0, "fusion_lat": 0.0, "bike_id": "c8ea72767a13b5f1f1c8ba3d9f0ba199", "type": "electric_scooter", "is_disabled": 0, "fusion_lon": 0.0}, {"rental_uris": {"android": "https://dc.lft.to/lastmile_qr_scan", "ios": "https://dc.lft.to/lastmile_qr_scan"}, "lon": -77.00944483333333, "name": "5d65aa0c9407f9ce18a84a868d4b1ced", "lat": 38.905737, "is_reserved": 0, "fusion_lat": 0.0, "bike_id": "5d65aa0c9407f9ce18a84a868d4b1ced", "type": "electric_scooter", "is_disabled": 0, "fusion_lon": 0.0}, {"rental_uris": {"android": "https://dc.lft.to/lastmile_qr_scan", "ios": "https://dc.lft.to/lastmile_qr_scan"}, "lon": -77.023814, "name": "3850547fb6905a2564e8a2fd6b3972f3", "lat": 38.95244733333333, "is_reserved": 0, "fusion_lat": 0.0, "bike_id": "3850547fb6905a2564e8a2fd6b3972f3", "type": "electric_scooter", "is_disabled": 0, "fusion_lon": 0.0}, {"rental_uris": {"android": "https://dc.lft.to/lastmile_qr_scan", "ios": "https://dc.lft.to/lastmile_qr_scan"}, "lon": -77.07036766666667, "name": "bea65888f2f6152481081393652fae09", "lat": 38.9225465, "is_reserved": 0, "fusion_lat": 0.0, "bike_id": "bea65888f2f6152481081393652fae09", "type": "electric_scooter", "is_disabled": 0, "fusion_lon": 0.0}, {"rental_uris": {"android": "https://dc.lft.to/lastmile_qr_scan", "ios": "https://dc.lft.to/lastmile_qr_scan"}, "lon": -77.03466183333333, "name": "49602a87951fb4fa0e10b7bad67e289d", "lat": 38.90685233333333, "is_reserved": 0, "fusion_lat": 0.0, "bike_id": "49602a87951fb4fa0e10b7bad67e289d", "type": "electric_scooter", "is_disabled": 0, "fusion_lon": 0.0}, {"rental_uris": {"android": "https://dc.lft.to/lastmile_qr_scan", "ios": "https://dc.lft.to/lastmile_qr_scan"}, "lon": -76.9832235, "name": "cf2cba5d7bf3e4f7f483bbd3f80e53ee", "lat": 38.9044005, "is_reserved": 0, "fusion_lat": 0.0, "bike_id": "cf2cba5d7bf3e4f7f483bbd3f80e53ee", "type": "electric_scooter", "is_disabled": 0, "fusion_lon": 0.0}, {"rental_uris": {"android": "https://dc.lft.to/lastmile_qr_scan", "ios": "https://dc.lft.to/lastmile_qr_scan"}, "lon": -77.01825466666666, "name": "8b30655a4c158647562294a3da3e23fc", "lat": 38.9081905, "is_reserved": 0, "fusion_lat": 0.0, "bike_id": "8b30655a4c158647562294a3da3e23fc", "type": "electric_bike", "is_disabled": 0, "fusion_lon": 0.0}, {"rental_uris": {"android": "https://dc.lft.to/lastmile_qr_scan", "ios": "https://dc.lft.to/lastmile_qr_scan"}, "lon": -77.03469983333333, "name": "c7491e350a887a1e8947c9b2d37da8cc", "lat": 38.91705966666667, "is_reserved": 0, "fusion_lat": 0.0, "bike_id": "c7491e350a887a1e8947c9b2d37da8cc", "type": "electric_scooter", "is_disabled": 0, "fusion_lon": 0.0}, {"rental_uris": {"android": "https://dc.lft.to/lastmile_qr_scan", "ios": "https://dc.lft.to/lastmile_qr_scan"}, "lon": -77.0752885, "name": "71840c74101848d042b764f98fb93b23", "lat": 38.9396005, "is_reserved": 0, "fusion_lat": 0.0, "bike_id": "71840c74101848d042b764f98fb93b23", "type": "electric_scooter", "is_disabled": 0, "fusion_lon": 0.0}, {"rental_uris": {"android": "https://dc.lft.to/lastmile_qr_scan", "ios": "https://dc.lft.to/lastmile_qr_scan"}, "lon": -77.02402166666667, "name": "bee0c654e66468415b4668b5ea7b5285", "lat": 38.9573135, "is_reserved": 0, "fusion_lat": 0.0, "bike_id": "bee0c654e66468415b4668b5ea7b5285", "type": "electric_scooter", "is_disabled": 0, "fusion_lon": 0.0}, {"rental_uris": {"android": "https://dc.lft.to/lastmile_qr_scan", "ios": "https://dc.lft.to/lastmile_qr_scan"}, "lon": -77.00349683333333, "name": "c050a77c757cbd75cbabea6328c0abd3", "lat": 38.89463166666667, "is_reserved": 0, "fusion_lat": 0.0, "bike_id": "c050a77c757cbd75cbabea6328c0abd3", "type": "electric_scooter", "is_disabled": 0, "fusion_lon": 0.0}, {"rental_uris": {"android": "https://dc.lft.to/lastmile_qr_scan", "ios": "https://dc.lft.to/lastmile_qr_scan"}, "lon": -77.120248, "name": "d4e2e0de52cf1126f266483d110a3900", "lat": 38.857876166666664, "is_reserved": 0, "fusion_lat": 0.0, "bike_id": "d4e2e0de52cf1126f266483d110a3900", "type": "electric_bike", "is_disabled": 0, "fusion_lon": 0.0}, {"rental_uris": {"android": "https://dc.lft.to/lastmile_qr_scan", "ios": "https://dc.lft.to/lastmile_qr_scan"}, "lon": -77.04545283333333, "name": "1aa42fd7f83e3e940708a89ea8f09be0", "lat": 38.91942683333333, "is_reserved": 0, "fusion_lat": 0.0, "bike_id": "1aa42fd7f83e3e940708a89ea8f09be0", "type": "electric_scooter", "is_disabled": 0, "fusion_lon": 0.0}, {"rental_uris": {"android": "https://dc.lft.to/lastmile_qr_scan", "ios": "https://dc.lft.to/lastmile_qr_scan"}, "lon": -77.04011166666666, "name": "5ab85282bdf9064ded9c616c9321c800", "lat": 38.902788666666666, "is_reserved": 0, "fusion_lat": 0.0, "bike_id": "5ab85282bdf9064ded9c616c9321c800", "type": "electric_scooter", "is_disabled": 0, "fusion_lon": 0.0}, {"rental_uris": {"android": "https://dc.lft.to/lastmile_qr_scan", "ios": "https://dc.lft.to/lastmile_qr_scan"}, "lon": -77.03317766666666, "name": "9ddb488c77147877e9aa4392b0595393", "lat": 38.898107333333336, "is_reserved": 0, "fusion_lat": 0.0, "bike_id": "9ddb488c77147877e9aa4392b0595393", "type": "electric_scooter", "is_disabled": 0, "fusion_lon": 0.0}, {"rental_uris": {"android": "https://dc.lft.to/lastmile_qr_scan", "ios": "https://dc.lft.to/lastmile_qr_scan"}, "lon": -77.02164783333333, "name": "6d9042a799feb144b659d6c40f9ba95d", "lat": 38.9250795, "is_reserved": 0, "fusion_lat": 0.0, "bike_id": "6d9042a799feb144b659d6c40f9ba95d", "type": "electric_scooter", "is_disabled": 0, "fusion_lon": 0.0}, {"rental_uris": {"android": "https://dc.lft.to/lastmile_qr_scan", "ios": "https://dc.lft.to/lastmile_qr_scan"}, "lon": -77.00587483333334, "name": "957e158fda7ac68d06ba103c04151054", "lat": 38.9055775, "is_reserved": 0, "fusion_lat": 0.0, "bike_id": "957e158fda7ac68d06ba103c04151054", "type": "electric_scooter", "is_disabled": 0, "fusion_lon": 0.0}, {"rental_uris": {"android": "https://dc.lft.to/lastmile_qr_scan", "ios": "https://dc.lft.to/lastmile_qr_scan"}, "lon": -77.0086865, "name": "fe7a74c357dee27633a995211d5f4ad8", "lat": 38.96744066666667, "is_reserved": 0, "fusion_lat": 0.0, "bike_id": "fe7a74c357dee27633a995211d5f4ad8", "type": "electric_scooter", "is_disabled": 0, "fusion_lon": 0.0}, {"rental_uris": {"android": "https://dc.lft.to/lastmile_qr_scan", "ios": "https://dc.lft.to/lastmile_qr_scan"}, "lon": -76.95694166666667, "name": "8d9a9ba885d5e82ec9b4e670f45fc673", "lat": 38.8920735, "is_reserved": 0, "fusion_lat": 0.0, "bike_id": "8d9a9ba885d5e82ec9b4e670f45fc673", "type": "electric_scooter", "is_disabled": 0, "fusion_lon": 0.0}, {"rental_uris": {"android": "https://dc.lft.to/lastmile_qr_scan", "ios": "https://dc.lft.to/lastmile_qr_scan"}, "lon": -77.01405883333334, "name": "64d0a0a7e4b00621c645d449deef2ec8", "lat": 38.9049715, "is_reserved": 0, "fusion_lat": 0.0, "bike_id": "64d0a0a7e4b00621c645d449deef2ec8", "type": "electric_scooter", "is_disabled": 0, "fusion_lon": 0.0}, {"rental_uris": {"android": "https://dc.lft.to/lastmile_qr_scan", "ios": "https://dc.lft.to/lastmile_qr_scan"}, "lon": -76.94415833333333, "name": "9614f546f6cc1aac29b4f3117351e259", "lat": 38.992199, "is_reserved": 0, "fusion_lat": 0.0, "bike_id": "9614f546f6cc1aac29b4f3117351e259", "type": "electric_bike", "is_disabled": 0, "fusion_lon": 0.0}, {"rental_uris": {"android": "https://dc.lft.to/lastmile_qr_scan", "ios": "https://dc.lft.to/lastmile_qr_scan"}, "lon": -77.025769, "name": "454a96a23704f795d954b31b868d5711", "lat": 38.92047, "is_reserved": 0, "fusion_lat": 0.0, "bike_id": "454a96a23704f795d954b31b868d5711", "type": "electric_scooter", "is_disabled": 0, "fusion_lon": 0.0}, {"rental_uris": {"android": "https://dc.lft.to/lastmile_qr_scan", "ios": "https://dc.lft.to/lastmile_qr_scan"}, "lon": -77.044087, "name": "0c5f64983e138c7cb9eec71daef81ffe", "lat": 38.91350966666667, "is_reserved": 0, "fusion_lat": 0.0, "bike_id": "0c5f64983e138c7cb9eec71daef81ffe", "type": "electric_scooter", "is_disabled": 0, "fusion_lon": 0.0}, {"rental_uris": {"android": "https://dc.lft.to/lastmile_qr_scan", "ios": "https://dc.lft.to/lastmile_qr_scan"}, "lon": -77.02561733333333, "name": "f0eab3e9534583f1d6ab0c946c640878", "lat": 38.895604666666664, "is_reserved": 0, "fusion_lat": 0.0, "bike_id": "f0eab3e9534583f1d6ab0c946c640878", "type": "electric_scooter", "is_disabled": 0, "fusion_lon": 0.0}, {"rental_uris": {"android": "https://dc.lft.to/lastmile_qr_scan", "ios": "https://dc.lft.to/lastmile_qr_scan"}, "lon": -77.12079633333333, "name": "34880c9d51a8df3ca31e03d84b7002bd", "lat": 38.855014, "is_reserved": 0, "fusion_lat": 0.0, "bike_id": "34880c9d51a8df3ca31e03d84b7002bd", "type": "electric_bike", "is_disabled": 0, "fusion_lon": 0.0}, {"rental_uris": {"android": "https://dc.lft.to/lastmile_qr_scan", "ios": "https://dc.lft.to/lastmile_qr_scan"}, "lon": -77.01168116666666, "name": "af1616474d7a5bdcb5e3a1c3091c1c4b", "lat": 38.92136416666666, "is_reserved": 0, "fusion_lat": 0.0, "bike_id": "af1616474d7a5bdcb5e3a1c3091c1c4b", "type": "electric_scooter", "is_disabled": 0, "fusion_lon": 0.0}, {"rental_uris": {"android": "https://dc.lft.to/lastmile_qr_scan", "ios": "https://dc.lft.to/lastmile_qr_scan"}, "lon": -77.00568616666666, "name": "b4607a61d877b444daa9a4263ff1563e", "lat": 38.9057405, "is_reserved": 0, "fusion_lat": 0.0, "bike_id": "b4607a61d877b444daa9a4263ff1563e", "type": "electric_scooter", "is_disabled": 0, "fusion_lon": 0.0}, {"rental_uris": {"android": "https://dc.lft.to/lastmile_qr_scan", "ios": "https://dc.lft.to/lastmile_qr_scan"}, "lon": -76.9994, "name": "ef01ea659582343609cf1dc57addcd25", "lat": 38.940633166666665, "is_reserved": 0, "fusion_lat": 0.0, "bike_id": "ef01ea659582343609cf1dc57addcd25", "type": "electric_scooter", "is_disabled": 0, "fusion_lon": 0.0}, {"rental_uris": {"android": "https://dc.lft.to/lastmile_qr_scan", "ios": "https://dc.lft.to/lastmile_qr_scan"}, "lon": -77.02203283333333, "name": "ba0f359c124bb7e90be75079743a79d7", "lat": 38.91592683333333, "is_reserved": 0, "fusion_lat": 0.0, "bike_id": "ba0f359c124bb7e90be75079743a79d7", "type": "electric_scooter", "is_disabled": 0, "fusion_lon": 0.0}, {"rental_uris": {"android": "https://dc.lft.to/lastmile_qr_scan", "ios": "https://dc.lft.to/lastmile_qr_scan"}, "lon": -77.02574333333334, "name": "f46c7cf990550f4a06f8ac5cd5f5707b", "lat": 38.92575033333333, "is_reserved": 0, "fusion_lat": 0.0, "bike_id": "f46c7cf990550f4a06f8ac5cd5f5707b", "type": "electric_scooter", "is_disabled": 0, "fusion_lon": 0.0}, {"rental_uris": {"android": "https://dc.lft.to/lastmile_qr_scan", "ios": "https://dc.lft.to/lastmile_qr_scan"}, "lon": -77.0224505, "name": "962ca2d71ca23e8f45ef2278f2bd98c4", "lat": 38.924662, "is_reserved": 0, "fusion_lat": 0.0, "bike_id": "962ca2d71ca23e8f45ef2278f2bd98c4", "type": "electric_scooter", "is_disabled": 0, "fusion_lon": 0.0}, {"rental_uris": {"android": "https://dc.lft.to/lastmile_qr_scan", "ios": "https://dc.lft.to/lastmile_qr_scan"}, "lon": -77.021722, "name": "182bf9d2a3af2872cabed061bf280a56", "lat": 38.942906666666666, "is_reserved": 0, "fusion_lat": 0.0, "bike_id": "182bf9d2a3af2872cabed061bf280a56", "type": "electric_scooter", "is_disabled": 0, "fusion_lon": 0.0}, {"rental_uris": {"android": "https://dc.lft.to/lastmile_qr_scan", "ios": "https://dc.lft.to/lastmile_qr_scan"}, "lon": -77.01752633333334, "name": "c1f58c0054c570be7dd27ca0632a3dad", "lat": 38.9145015, "is_reserved": 0, "fusion_lat": 0.0, "bike_id": "c1f58c0054c570be7dd27ca0632a3dad", "type": "electric_scooter", "is_disabled": 0, "fusion_lon": 0.0}, {"rental_uris": {"android": "https://dc.lft.to/lastmile_qr_scan", "ios": "https://dc.lft.to/lastmile_qr_scan"}, "lon": -77.01438616666667, "name": "1a07f16600b7a7f48e7e01cfc92d7ce4", "lat": 38.919608333333336, "is_reserved": 0, "fusion_lat": 0.0, "bike_id": "1a07f16600b7a7f48e7e01cfc92d7ce4", "type": "electric_scooter", "is_disabled": 0, "fusion_lon": 0.0}, {"rental_uris": {"android": "https://dc.lft.to/lastmile_qr_scan", "ios": "https://dc.lft.to/lastmile_qr_scan"}, "lon": -77.00595266666667, "name": "d9277598cb95bacd30ac3bf0cc673906", "lat": 38.905677833333336, "is_reserved": 0, "fusion_lat": 0.0, "bike_id": "d9277598cb95bacd30ac3bf0cc673906", "type": "electric_scooter", "is_disabled": 0, "fusion_lon": 0.0}, {"rental_uris": {"android": "https://dc.lft.to/lastmile_qr_scan", "ios": "https://dc.lft.to/lastmile_qr_scan"}, "lon": -77.045139, "name": "1dde9553a384b1e0551c3fb7b37cdfc4", "lat": 38.8922285, "is_reserved": 0, "fusion_lat": 0.0, "bike_id": "1dde9553a384b1e0551c3fb7b37cdfc4", "type": "electric_scooter", "is_disabled": 0, "fusion_lon": 0.0}, {"rental_uris": {"android": "https://dc.lft.to/lastmile_qr_scan", "ios": "https://dc.lft.to/lastmile_qr_scan"}, "lon": -76.98339733333333, "name": "6468adda4007841beb2c24a8a9e8cc18", "lat": 38.8656625, "is_reserved": 0, "fusion_lat": 0.0, "bike_id": "6468adda4007841beb2c24a8a9e8cc18", "type": "electric_scooter", "is_disabled": 0, "fusion_lon": 0.0}, {"rental_uris": {"android": "https://dc.lft.to/lastmile_qr_scan", "ios": "https://dc.lft.to/lastmile_qr_scan"}, "lon": -77.03857666666667, "name": "6fcaa03ccb593b4907c6c5df5612febc", "lat": 38.907862, "is_reserved": 0, "fusion_lat": 0.0, "bike_id": "6fcaa03ccb593b4907c6c5df5612febc", "type": "electric_scooter", "is_disabled": 0, "fusion_lon": 0.0}, {"rental_uris": {"android": "https://dc.lft.to/lastmile_qr_scan", "ios": "https://dc.lft.to/lastmile_qr_scan"}, "lon": -77.026358, "name": "d3f8e99ef42ce072610bc1d6ab916818", "lat": 38.8921685, "is_reserved": 0, "fusion_lat": 0.0, "bike_id": "d3f8e99ef42ce072610bc1d6ab916818", "type": "electric_scooter", "is_disabled": 0, "fusion_lon": 0.0}, {"rental_uris": {"android": "https://dc.lft.to/lastmile_qr_scan", "ios": "https://dc.lft.to/lastmile_qr_scan"}, "lon": -77.038365, "name": "9579148f1406c01faa10037f7b3bc6e9", "lat": 38.90261666666667, "is_reserved": 0, "fusion_lat": 0.0, "bike_id": "9579148f1406c01faa10037f7b3bc6e9", "type": "electric_scooter", "is_disabled": 0, "fusion_lon": 0.0}, {"rental_uris": {"android": "https://dc.lft.to/lastmile_qr_scan", "ios": "https://dc.lft.to/lastmile_qr_scan"}, "lon": -77.04630583333334, "name": "cd9201de75a7619e5a51516bc618db4a", "lat": 38.90068816666667, "is_reserved": 0, "fusion_lat": 0.0, "bike_id": "cd9201de75a7619e5a51516bc618db4a", "type": "electric_scooter", "is_disabled": 0, "fusion_lon": 0.0}, {"rental_uris": {"android": "https://dc.lft.to/lastmile_qr_scan", "ios": "https://dc.lft.to/lastmile_qr_scan"}, "lon": -77.04072183333334, "name": "3ae0d5c1dff1b1f95ea098bb17911af2", "lat": 38.93141116666666, "is_reserved": 0, "fusion_lat": 0.0, "bike_id": "3ae0d5c1dff1b1f95ea098bb17911af2", "type": "electric_scooter", "is_disabled": 0, "fusion_lon": 0.0}, {"rental_uris": {"android": "https://dc.lft.to/lastmile_qr_scan", "ios": "https://dc.lft.to/lastmile_qr_scan"}, "lon": -77.0460275, "name": "d9df6c245c20e7eac9b7f403663eee65", "lat": 38.91608516666667, "is_reserved": 0, "fusion_lat": 0.0, "bike_id": "d9df6c245c20e7eac9b7f403663eee65", "type": "electric_scooter", "is_disabled": 0, "fusion_lon": 0.0}, {"rental_uris": {"android": "https://dc.lft.to/lastmile_qr_scan", "ios": "https://dc.lft.to/lastmile_qr_scan"}, "lon": -77.02409983333334, "name": "7f8103fab7c8f781ccd4b8cb3a07838f", "lat": 38.91176683333333, "is_reserved": 0, "fusion_lat": 0.0, "bike_id": "7f8103fab7c8f781ccd4b8cb3a07838f", "type": "electric_scooter", "is_disabled": 0, "fusion_lon": 0.0}, {"rental_uris": {"android": "https://dc.lft.to/lastmile_qr_scan", "ios": "https://dc.lft.to/lastmile_qr_scan"}, "lon": -77.03214216666667, "name": "fc5c808c6012e6ec893571d26d1650e5", "lat": 38.89234366666667, "is_reserved": 0, "fusion_lat": 0.0, "bike_id": "fc5c808c6012e6ec893571d26d1650e5", "type": "electric_scooter", "is_disabled": 0, "fusion_lon": 0.0}, {"rental_uris": {"android": "https://dc.lft.to/lastmile_qr_scan", "ios": "https://dc.lft.to/lastmile_qr_scan"}, "lon": -77.01379, "name": "813f6cb0f5925bceb71296b3d1aecf0d", "lat": 38.95231666666667, "is_reserved": 0, "fusion_lat": 0.0, "bike_id": "813f6cb0f5925bceb71296b3d1aecf0d", "type": "electric_scooter", "is_disabled": 0, "fusion_lon": 0.0}, {"rental_uris": {"android": "https://dc.lft.to/lastmile_qr_scan", "ios": "https://dc.lft.to/lastmile_qr_scan"}, "lon": -77.00713633333334, "name": "f30adb38aec354f44c907befad2e5473", "lat": 38.8848925, "is_reserved": 0, "fusion_lat": 0.0, "bike_id": "f30adb38aec354f44c907befad2e5473", "type": "electric_scooter", "is_disabled": 0, "fusion_lon": 0.0}, {"rental_uris": {"android": "https://dc.lft.to/lastmile_qr_scan", "ios": "https://dc.lft.to/lastmile_qr_scan"}, "lon": -77.042666, "name": "78886f50ae582067daf3ef75a2b4d198", "lat": 38.90726933333333, "is_reserved": 0, "fusion_lat": 0.0, "bike_id": "78886f50ae582067daf3ef75a2b4d198", "type": "electric_scooter", "is_disabled": 0, "fusion_lon": 0.0}, {"rental_uris": {"android": "https://dc.lft.to/lastmile_qr_scan", "ios": "https://dc.lft.to/lastmile_qr_scan"}, "lon": -76.98283033333334, "name": "075c7ab142a5a56ff99b57074f9498c8", "lat": 38.86756783333333, "is_reserved": 0, "fusion_lat": 0.0, "bike_id": "075c7ab142a5a56ff99b57074f9498c8", "type": "electric_scooter", "is_disabled": 0, "fusion_lon": 0.0}, {"rental_uris": {"android": "https://dc.lft.to/lastmile_qr_scan", "ios": "https://dc.lft.to/lastmile_qr_scan"}, "lon": -77.0122365, "name": "44c900c9e80d39d7230f0573b32f00e7", "lat": 38.9259755, "is_reserved": 0, "fusion_lat": 0.0, "bike_id": "44c900c9e80d39d7230f0573b32f00e7", "type": "electric_scooter", "is_disabled": 0, "fusion_lon": 0.0}, {"rental_uris": {"android": "https://dc.lft.to/lastmile_qr_scan", "ios": "https://dc.lft.to/lastmile_qr_scan"}, "lon": -77.038442, "name": "18cf1e2d05b1c83cbcf4dbfdd9955330", "lat": 38.90865266666667, "is_reserved": 0, "fusion_lat": 0.0, "bike_id": "18cf1e2d05b1c83cbcf4dbfdd9955330", "type": "electric_scooter", "is_disabled": 0, "fusion_lon": 0.0}, {"rental_uris": {"android": "https://dc.lft.to/lastmile_qr_scan", "ios": "https://dc.lft.to/lastmile_qr_scan"}, "lon": -77.001909, "name": "608ae2417278ec796e037c7d83a8a5ce", "lat": 38.912296166666664, "is_reserved": 0, "fusion_lat": 0.0, "bike_id": "608ae2417278ec796e037c7d83a8a5ce", "type": "electric_scooter", "is_disabled": 0, "fusion_lon": 0.0}, {"rental_uris": {"android": "https://dc.lft.to/lastmile_qr_scan", "ios": "https://dc.lft.to/lastmile_qr_scan"}, "lon": -77.021866, "name": "a86b3581beec8f596f6abcf4629d63a2", "lat": 38.894898, "is_reserved": 0, "fusion_lat": 0.0, "bike_id": "a86b3581beec8f596f6abcf4629d63a2", "type": "electric_scooter", "is_disabled": 0, "fusion_lon": 0.0}, {"rental_uris": {"android": "https://dc.lft.to/lastmile_qr_scan", "ios": "https://dc.lft.to/lastmile_qr_scan"}, "lon": -77.0282735, "name": "549c7141995512889f17dd70aebf0ada", "lat": 38.917085666666665, "is_reserved": 0, "fusion_lat": 0.0, "bike_id": "549c7141995512889f17dd70aebf0ada", "type": "electric_scooter", "is_disabled": 0, "fusion_lon": 0.0}, {"rental_uris": {"android": "https://dc.lft.to/lastmile_qr_scan", "ios": "https://dc.lft.to/lastmile_qr_scan"}, "lon": -77.04516166666667, "name": "7e9134dee6a021a24b575a6b5fd5858e", "lat": 38.89609683333333, "is_reserved": 0, "fusion_lat": 0.0, "bike_id": "7e9134dee6a021a24b575a6b5fd5858e", "type": "electric_scooter", "is_disabled": 0, "fusion_lon": 0.0}, {"rental_uris": {"android": "https://dc.lft.to/lastmile_qr_scan", "ios": "https://dc.lft.to/lastmile_qr_scan"}, "lon": -77.03858566666666, "name": "ab4339c7a4e18ea2602ba23c795fe3c1", "lat": 38.915486333333334, "is_reserved": 0, "fusion_lat": 0.0, "bike_id": "ab4339c7a4e18ea2602ba23c795fe3c1", "type": "electric_scooter", "is_disabled": 0, "fusion_lon": 0.0}, {"rental_uris": {"android": "https://dc.lft.to/lastmile_qr_scan", "ios": "https://dc.lft.to/lastmile_qr_scan"}, "lon": -76.98088316666667, "name": "878f1fb3760ecbe1fefa427b2dd8e692", "lat": 38.95756316666667, "is_reserved": 0, "fusion_lat": 0.0, "bike_id": "878f1fb3760ecbe1fefa427b2dd8e692", "type": "electric_bike", "is_disabled": 0, "fusion_lon": 0.0}, {"rental_uris": {"android": "https://dc.lft.to/lastmile_qr_scan", "ios": "https://dc.lft.to/lastmile_qr_scan"}, "lon": -77.01510683333333, "name": "e2efacc2c657bbce277f7de63f7cdfa8", "lat": 38.9100235, "is_reserved": 0, "fusion_lat": 0.0, "bike_id": "e2efacc2c657bbce277f7de63f7cdfa8", "type": "electric_scooter", "is_disabled": 0, "fusion_lon": 0.0}, {"rental_uris": {"android": "https://dc.lft.to/lastmile_qr_scan", "ios": "https://dc.lft.to/lastmile_qr_scan"}, "lon": -76.96940166666667, "name": "11e507284422b7e2ee61aadd9f6dc8ad", "lat": 38.959844833333335, "is_reserved": 0, "fusion_lat": 0.0, "bike_id": "11e507284422b7e2ee61aadd9f6dc8ad", "type": "electric_bike", "is_disabled": 0, "fusion_lon": 0.0}, {"rental_uris": {"android": "https://dc.lft.to/lastmile_qr_scan", "ios": "https://dc.lft.to/lastmile_qr_scan"}, "lon": -77.03908533333333, "name": "5fce1e953625cf654ebabb4e73f98446", "lat": 38.9140065, "is_reserved": 0, "fusion_lat": 0.0, "bike_id": "5fce1e953625cf654ebabb4e73f98446", "type": "electric_scooter", "is_disabled": 0, "fusion_lon": 0.0}, {"rental_uris": {"android": "https://dc.lft.to/lastmile_qr_scan", "ios": "https://dc.lft.to/lastmile_qr_scan"}, "lon": -77.0310365, "name": "f4d2ae06fd11fddfdc8504edf471b8d3", "lat": 38.9318335, "is_reserved": 0, "fusion_lat": 0.0, "bike_id": "f4d2ae06fd11fddfdc8504edf471b8d3", "type": "electric_scooter", "is_disabled": 0, "fusion_lon": 0.0}, {"rental_uris": {"android": "https://dc.lft.to/lastmile_qr_scan", "ios": "https://dc.lft.to/lastmile_qr_scan"}, "lon": -77.04238116666667, "name": "5333451c22f402cd30c22985fb888bc3", "lat": 38.92227333333334, "is_reserved": 0, "fusion_lat": 0.0, "bike_id": "5333451c22f402cd30c22985fb888bc3", "type": "electric_scooter", "is_disabled": 0, "fusion_lon": 0.0}, {"rental_uris": {"android": "https://dc.lft.to/lastmile_qr_scan", "ios": "https://dc.lft.to/lastmile_qr_scan"}, "lon": -77.04254966666667, "name": "c8f3832165472027a4549d5dbdc6ac80", "lat": 38.922015, "is_reserved": 0, "fusion_lat": 0.0, "bike_id": "c8f3832165472027a4549d5dbdc6ac80", "type": "electric_scooter", "is_disabled": 0, "fusion_lon": 0.0}, {"rental_uris": {"android": "https://dc.lft.to/lastmile_qr_scan", "ios": "https://dc.lft.to/lastmile_qr_scan"}, "lon": -77.002153, "name": "cb52e2d5fdd015450909543fa9f7eb75", "lat": 38.919975666666666, "is_reserved": 0, "fusion_lat": 0.0, "bike_id": "cb52e2d5fdd015450909543fa9f7eb75", "type": "electric_scooter", "is_disabled": 0, "fusion_lon": 0.0}, {"rental_uris": {"android": "https://dc.lft.to/lastmile_qr_scan", "ios": "https://dc.lft.to/lastmile_qr_scan"}, "lon": -77.02486866666666, "name": "25765bc2232aa8985513aa7dc3915bad", "lat": 38.93880583333333, "is_reserved": 0, "fusion_lat": 0.0, "bike_id": "25765bc2232aa8985513aa7dc3915bad", "type": "electric_scooter", "is_disabled": 0, "fusion_lon": 0.0}, {"rental_uris": {"android": "https://dc.lft.to/lastmile_qr_scan", "ios": "https://dc.lft.to/lastmile_qr_scan"}, "lon": -77.03363566666667, "name": "0617190a13ec13349d7496e02fde50a1", "lat": 38.931962, "is_reserved": 0, "fusion_lat": 0.0, "bike_id": "0617190a13ec13349d7496e02fde50a1", "type": "electric_scooter", "is_disabled": 0, "fusion_lon": 0.0}, {"rental_uris": {"android": "https://dc.lft.to/lastmile_qr_scan", "ios": "https://dc.lft.to/lastmile_qr_scan"}, "lon": -76.99858366666666, "name": "b38be1a56843f2342a4251b0981b3fe6", "lat": 38.90760266666667, "is_reserved": 0, "fusion_lat": 0.0, "bike_id": "b38be1a56843f2342a4251b0981b3fe6", "type": "electric_scooter", "is_disabled": 0, "fusion_lon": 0.0}, {"rental_uris": {"android": "https://dc.lft.to/lastmile_qr_scan", "ios": "https://dc.lft.to/lastmile_qr_scan"}, "lon": -77.04702733333333, "name": "5bd4705b95c91f204d101f4dcce34afe", "lat": 38.921833, "is_reserved": 0, "fusion_lat": 0.0, "bike_id": "5bd4705b95c91f204d101f4dcce34afe", "type": "electric_scooter", "is_disabled": 0, "fusion_lon": 0.0}, {"rental_uris": {"android": "https://dc.lft.to/lastmile_qr_scan", "ios": "https://dc.lft.to/lastmile_qr_scan"}, "lon": -77.0219905, "name": "56908ef3941ceb57af131d817b49664c", "lat": 38.91483083333333, "is_reserved": 0, "fusion_lat": 0.0, "bike_id": "56908ef3941ceb57af131d817b49664c", "type": "electric_scooter", "is_disabled": 0, "fusion_lon": 0.0}, {"rental_uris": {"android": "https://dc.lft.to/lastmile_qr_scan", "ios": "https://dc.lft.to/lastmile_qr_scan"}, "lon": -77.02681083333333, "name": "e08e69c4842719a6c0f215aa6247afbd", "lat": 38.907226333333334, "is_reserved": 0, "fusion_lat": 0.0, "bike_id": "e08e69c4842719a6c0f215aa6247afbd", "type": "electric_scooter", "is_disabled": 0, "fusion_lon": 0.0}, {"rental_uris": {"android": "https://dc.lft.to/lastmile_qr_scan", "ios": "https://dc.lft.to/lastmile_qr_scan"}, "lon": -77.06330133333333, "name": "b84b4c53a119a40aada9f7f04d4831e2", "lat": 38.92109133333334, "is_reserved": 0, "fusion_lat": 0.0, "bike_id": "b84b4c53a119a40aada9f7f04d4831e2", "type": "electric_scooter", "is_disabled": 0, "fusion_lon": 0.0}, {"rental_uris": {"android": "https://dc.lft.to/lastmile_qr_scan", "ios": "https://dc.lft.to/lastmile_qr_scan"}, "lon": -77.031967, "name": "665fb437755f0b7d936f8e8f1a4b285a", "lat": 38.893274, "is_reserved": 0, "fusion_lat": 0.0, "bike_id": "665fb437755f0b7d936f8e8f1a4b285a", "type": "electric_scooter", "is_disabled": 0, "fusion_lon": 0.0}, {"rental_uris": {"android": "https://dc.lft.to/lastmile_qr_scan", "ios": "https://dc.lft.to/lastmile_qr_scan"}, "lon": -77.02341616666666, "name": "40534856e7d3ea0db8d60eedab9e9c2d", "lat": 38.931147833333334, "is_reserved": 0, "fusion_lat": 0.0, "bike_id": "40534856e7d3ea0db8d60eedab9e9c2d", "type": "electric_scooter", "is_disabled": 0, "fusion_lon": 0.0}, {"rental_uris": {"android": "https://dc.lft.to/lastmile_qr_scan", "ios": "https://dc.lft.to/lastmile_qr_scan"}, "lon": -77.068832, "name": "9f5a15ae92d5cc092a46458d14cd1d3f", "lat": 38.9050335, "is_reserved": 0, "fusion_lat": 0.0, "bike_id": "9f5a15ae92d5cc092a46458d14cd1d3f", "type": "electric_scooter", "is_disabled": 0, "fusion_lon": 0.0}, {"rental_uris": {"android": "https://dc.lft.to/lastmile_qr_scan", "ios": "https://dc.lft.to/lastmile_qr_scan"}, "lon": -77.01212533333333, "name": "f7c7a1225702add46c359385a38c6488", "lat": 38.919017833333335, "is_reserved": 0, "fusion_lat": 0.0, "bike_id": "f7c7a1225702add46c359385a38c6488", "type": "electric_scooter", "is_disabled": 0, "fusion_lon": 0.0}, {"rental_uris": {"android": "https://dc.lft.to/lastmile_qr_scan", "ios": "https://dc.lft.to/lastmile_qr_scan"}, "lon": -77.0317625, "name": "d9786d27d2d67ec27aa4d40293f077c5", "lat": 38.90727, "is_reserved": 0, "fusion_lat": 0.0, "bike_id": "d9786d27d2d67ec27aa4d40293f077c5", "type": "electric_scooter", "is_disabled": 0, "fusion_lon": 0.0}, {"rental_uris": {"android": "https://dc.lft.to/lastmile_qr_scan", "ios": "https://dc.lft.to/lastmile_qr_scan"}, "lon": -77.02456383333333, "name": "f977df28a571e93d7c78fa75d0422596", "lat": 38.937075666666665, "is_reserved": 0, "fusion_lat": 0.0, "bike_id": "f977df28a571e93d7c78fa75d0422596", "type": "electric_scooter", "is_disabled": 0, "fusion_lon": 0.0}, {"rental_uris": {"android": "https://dc.lft.to/lastmile_qr_scan", "ios": "https://dc.lft.to/lastmile_qr_scan"}, "lon": -77.04273316666666, "name": "55ac11e4bfad315931420e18c6beb88c", "lat": 38.90881566666667, "is_reserved": 0, "fusion_lat": 0.0, "bike_id": "55ac11e4bfad315931420e18c6beb88c", "type": "electric_scooter", "is_disabled": 0, "fusion_lon": 0.0}, {"rental_uris": {"android": "https://dc.lft.to/lastmile_qr_scan", "ios": "https://dc.lft.to/lastmile_qr_scan"}, "lon": -77.00066183333334, "name": "a686e775eef970cd44f201be2d784a44", "lat": 38.92545916666667, "is_reserved": 0, "fusion_lat": 0.0, "bike_id": "a686e775eef970cd44f201be2d784a44", "type": "electric_scooter", "is_disabled": 0, "fusion_lon": 0.0}, {"rental_uris": {"android": "https://dc.lft.to/lastmile_qr_scan", "ios": "https://dc.lft.to/lastmile_qr_scan"}, "lon": -77.03861683333334, "name": "b44a38ba801b535e37c93b08126f4206", "lat": 38.91552883333333, "is_reserved": 0, "fusion_lat": 0.0, "bike_id": "b44a38ba801b535e37c93b08126f4206", "type": "electric_scooter", "is_disabled": 0, "fusion_lon": 0.0}, {"rental_uris": {"android": "https://dc.lft.to/lastmile_qr_scan", "ios": "https://dc.lft.to/lastmile_qr_scan"}, "lon": -77.00127033333334, "name": "498fadce78d794adf7a77a1b98abbdd2", "lat": 38.87793666666666, "is_reserved": 0, "fusion_lat": 0.0, "bike_id": "498fadce78d794adf7a77a1b98abbdd2", "type": "electric_scooter", "is_disabled": 0, "fusion_lon": 0.0}, {"rental_uris": {"android": "https://dc.lft.to/lastmile_qr_scan", "ios": "https://dc.lft.to/lastmile_qr_scan"}, "lon": -77.05785866666666, "name": "0c513c729a2ffe7ca98a206b878dbea3", "lat": 38.900965166666666, "is_reserved": 0, "fusion_lat": 0.0, "bike_id": "0c513c729a2ffe7ca98a206b878dbea3", "type": "electric_scooter", "is_disabled": 0, "fusion_lon": 0.0}, {"rental_uris": {"android": "https://dc.lft.to/lastmile_qr_scan", "ios": "https://dc.lft.to/lastmile_qr_scan"}, "lon": -77.01113383333333, "name": "09124077ec641c498942fb9398612911", "lat": 38.89550116666667, "is_reserved": 0, "fusion_lat": 0.0, "bike_id": "09124077ec641c498942fb9398612911", "type": "electric_scooter", "is_disabled": 0, "fusion_lon": 0.0}, {"rental_uris": {"android": "https://dc.lft.to/lastmile_qr_scan", "ios": "https://dc.lft.to/lastmile_qr_scan"}, "lon": -76.99945416666667, "name": "b1d63db25a6503c7895cc0cb3a66de89", "lat": 38.842928, "is_reserved": 0, "fusion_lat": 0.0, "bike_id": "b1d63db25a6503c7895cc0cb3a66de89", "type": "electric_scooter", "is_disabled": 0, "fusion_lon": 0.0}, {"rental_uris": {"android": "https://dc.lft.to/lastmile_qr_scan", "ios": "https://dc.lft.to/lastmile_qr_scan"}, "lon": -77.04894733333333, "name": "8433f6df48b071a144f92c848485ccd3", "lat": 38.8967765, "is_reserved": 0, "fusion_lat": 0.0, "bike_id": "8433f6df48b071a144f92c848485ccd3", "type": "electric_scooter", "is_disabled": 0, "fusion_lon": 0.0}, {"rental_uris": {"android": "https://dc.lft.to/lastmile_qr_scan", "ios": "https://dc.lft.to/lastmile_qr_scan"}, "lon": -77.04477066666666, "name": "46e2086ad6d978f1fa00fc65ddaa055d", "lat": 38.9188175, "is_reserved": 0, "fusion_lat": 0.0, "bike_id": "46e2086ad6d978f1fa00fc65ddaa055d", "type": "electric_scooter", "is_disabled": 0, "fusion_lon": 0.0}, {"rental_uris": {"android": "https://dc.lft.to/lastmile_qr_scan", "ios": "https://dc.lft.to/lastmile_qr_scan"}, "lon": -77.00207316666666, "name": "2d6ad46fc490d048cb630407bc209e49", "lat": 38.90030316666667, "is_reserved": 0, "fusion_lat": 0.0, "bike_id": "2d6ad46fc490d048cb630407bc209e49", "type": "electric_scooter", "is_disabled": 0, "fusion_lon": 0.0}, {"rental_uris": {"android": "https://dc.lft.to/lastmile_qr_scan", "ios": "https://dc.lft.to/lastmile_qr_scan"}, "lon": -77.06883966666666, "name": "c4312966cc29f977152c4c5df5a3ad1e", "lat": 38.90499633333334, "is_reserved": 0, "fusion_lat": 0.0, "bike_id": "c4312966cc29f977152c4c5df5a3ad1e", "type": "electric_scooter", "is_disabled": 0, "fusion_lon": 0.0}, {"rental_uris": {"android": "https://dc.lft.to/lastmile_qr_scan", "ios": "https://dc.lft.to/lastmile_qr_scan"}, "lon": -77.01208183333334, "name": "eab8c1a2afccc1c0aaaf6a111cf992ec", "lat": 38.919123166666665, "is_reserved": 0, "fusion_lat": 0.0, "bike_id": "eab8c1a2afccc1c0aaaf6a111cf992ec", "type": "electric_scooter", "is_disabled": 0, "fusion_lon": 0.0}, {"rental_uris": {"android": "https://dc.lft.to/lastmile_qr_scan", "ios": "https://dc.lft.to/lastmile_qr_scan"}, "lon": -76.9576375, "name": "b20250e732281e9cdee0a8acd9752876", "lat": 38.88430733333333, "is_reserved": 0, "fusion_lat": 0.0, "bike_id": "b20250e732281e9cdee0a8acd9752876", "type": "electric_scooter", "is_disabled": 0, "fusion_lon": 0.0}, {"rental_uris": {"android": "https://dc.lft.to/lastmile_qr_scan", "ios": "https://dc.lft.to/lastmile_qr_scan"}, "lon": -77.0354255, "name": "b734eb49e0e2a1cc3e68a28bcb340c4c", "lat": 38.924722333333335, "is_reserved": 0, "fusion_lat": 0.0, "bike_id": "b734eb49e0e2a1cc3e68a28bcb340c4c", "type": "electric_scooter", "is_disabled": 0, "fusion_lon": 0.0}, {"rental_uris": {"android": "https://dc.lft.to/lastmile_qr_scan", "ios": "https://dc.lft.to/lastmile_qr_scan"}, "lon": -77.0318165, "name": "b603bdcea2a2bbc5dcde1cd3f573873b", "lat": 38.90981033333333, "is_reserved": 0, "fusion_lat": 0.0, "bike_id": "b603bdcea2a2bbc5dcde1cd3f573873b", "type": "electric_scooter", "is_disabled": 0, "fusion_lon": 0.0}, {"rental_uris": {"android": "https://dc.lft.to/lastmile_qr_scan", "ios": "https://dc.lft.to/lastmile_qr_scan"}, "lon": -77.02477266666666, "name": "ddcd70e23f0abe1202dbb3954c68d0ea", "lat": 38.9310105, "is_reserved": 0, "fusion_lat": 0.0, "bike_id": "ddcd70e23f0abe1202dbb3954c68d0ea", "type": "electric_scooter", "is_disabled": 0, "fusion_lon": 0.0}, {"rental_uris": {"android": "https://dc.lft.to/lastmile_qr_scan", "ios": "https://dc.lft.to/lastmile_qr_scan"}, "lon": -77.019777, "name": "a7cf4c54444c299405a0199cbf5caa68", "lat": 38.902328833333335, "is_reserved": 0, "fusion_lat": 0.0, "bike_id": "a7cf4c54444c299405a0199cbf5caa68", "type": "electric_scooter", "is_disabled": 0, "fusion_lon": 0.0}, {"rental_uris": {"android": "https://dc.lft.to/lastmile_qr_scan", "ios": "https://dc.lft.to/lastmile_qr_scan"}, "lon": -77.02565416666667, "name": "839af7647e39c7202c9c0c87517285ce", "lat": 38.92398383333333, "is_reserved": 0, "fusion_lat": 0.0, "bike_id": "839af7647e39c7202c9c0c87517285ce", "type": "electric_scooter", "is_disabled": 0, "fusion_lon": 0.0}, {"rental_uris": {"android": "https://dc.lft.to/lastmile_qr_scan", "ios": "https://dc.lft.to/lastmile_qr_scan"}, "lon": -77.01972466666666, "name": "bc13294ca6c0f9c5aaad907f13792710", "lat": 38.89887316666667, "is_reserved": 0, "fusion_lat": 0.0, "bike_id": "bc13294ca6c0f9c5aaad907f13792710", "type": "electric_scooter", "is_disabled": 0, "fusion_lon": 0.0}, {"rental_uris": {"android": "https://dc.lft.to/lastmile_qr_scan", "ios": "https://dc.lft.to/lastmile_qr_scan"}, "lon": -77.00590283333334, "name": "f75a92b09a41cc6435946534ba53128d", "lat": 38.929432166666665, "is_reserved": 0, "fusion_lat": 0.0, "bike_id": "f75a92b09a41cc6435946534ba53128d", "type": "electric_scooter", "is_disabled": 0, "fusion_lon": 0.0}, {"rental_uris": {"android": "https://dc.lft.to/lastmile_qr_scan", "ios": "https://dc.lft.to/lastmile_qr_scan"}, "lon": -77.0215735, "name": "58882a70d4a7fb49c63604e8a7f768f1", "lat": 38.92461, "is_reserved": 0, "fusion_lat": 0.0, "bike_id": "58882a70d4a7fb49c63604e8a7f768f1", "type": "electric_scooter", "is_disabled": 0, "fusion_lon": 0.0}, {"rental_uris": {"android": "https://dc.lft.to/lastmile_qr_scan", "ios": "https://dc.lft.to/lastmile_qr_scan"}, "lon": -76.94653933333333, "name": "39775c74991894f744efeeefe595f907", "lat": 38.89826766666667, "is_reserved": 0, "fusion_lat": 0.0, "bike_id": "39775c74991894f744efeeefe595f907", "type": "electric_scooter", "is_disabled": 0, "fusion_lon": 0.0}, {"rental_uris": {"android": "https://dc.lft.to/lastmile_qr_scan", "ios": "https://dc.lft.to/lastmile_qr_scan"}, "lon": -77.00868366666667, "name": "96663ea1fc01d02de45aaab390b91bd5", "lat": 38.9645935, "is_reserved": 0, "fusion_lat": 0.0, "bike_id": "96663ea1fc01d02de45aaab390b91bd5", "type": "electric_bike", "is_disabled": 0, "fusion_lon": 0.0}, {"rental_uris": {"android": "https://dc.lft.to/lastmile_qr_scan", "ios": "https://dc.lft.to/lastmile_qr_scan"}, "lon": -77.03276316666667, "name": "3e70f2847c1158460cfd9587f48aaa1a", "lat": 38.928032333333334, "is_reserved": 0, "fusion_lat": 0.0, "bike_id": "3e70f2847c1158460cfd9587f48aaa1a", "type": "electric_scooter", "is_disabled": 0, "fusion_lon": 0.0}, {"rental_uris": {"android": "https://dc.lft.to/lastmile_qr_scan", "ios": "https://dc.lft.to/lastmile_qr_scan"}, "lon": -77.01999233333333, "name": "1b14bd414b108eb9b8aba03241dcae9e", "lat": 38.91362683333333, "is_reserved": 0, "fusion_lat": 0.0, "bike_id": "1b14bd414b108eb9b8aba03241dcae9e", "type": "electric_scooter", "is_disabled": 0, "fusion_lon": 0.0}, {"rental_uris": {"android": "https://dc.lft.to/lastmile_qr_scan", "ios": "https://dc.lft.to/lastmile_qr_scan"}, "lon": -77.0283605, "name": "54efd3d090607ec7c9626ad4a183b7f4", "lat": 38.93191766666666, "is_reserved": 0, "fusion_lat": 0.0, "bike_id": "54efd3d090607ec7c9626ad4a183b7f4", "type": "electric_scooter", "is_disabled": 0, "fusion_lon": 0.0}, {"rental_uris": {"android": "https://dc.lft.to/lastmile_qr_scan", "ios": "https://dc.lft.to/lastmile_qr_scan"}, "lon": -77.0353965, "name": "9507ab65b8a7f931095535d6f0f9efff", "lat": 38.923416833333334, "is_reserved": 0, "fusion_lat": 0.0, "bike_id": "9507ab65b8a7f931095535d6f0f9efff", "type": "electric_scooter", "is_disabled": 0, "fusion_lon": 0.0}, {"rental_uris": {"android": "https://dc.lft.to/lastmile_qr_scan", "ios": "https://dc.lft.to/lastmile_qr_scan"}, "lon": -77.23410183333333, "name": "8c60c7665c5a4046f3d7e6ebd640ea94", "lat": 38.87577533333334, "is_reserved": 0, "fusion_lat": 0.0, "bike_id": "8c60c7665c5a4046f3d7e6ebd640ea94", "type": "electric_bike", "is_disabled": 0, "fusion_lon": 0.0}, {"rental_uris": {"android": "https://dc.lft.to/lastmile_qr_scan", "ios": "https://dc.lft.to/lastmile_qr_scan"}, "lon": -77.03825016666667, "name": "280681c474bec5321cddc3e377bc4cbe", "lat": 38.912523166666666, "is_reserved": 0, "fusion_lat": 0.0, "bike_id": "280681c474bec5321cddc3e377bc4cbe", "type": "electric_scooter", "is_disabled": 0, "fusion_lon": 0.0}, {"rental_uris": {"android": "https://dc.lft.to/lastmile_qr_scan", "ios": "https://dc.lft.to/lastmile_qr_scan"}, "lon": -77.03120883333334, "name": "4074619ed2bf336e8e8677dabf382d47", "lat": 38.9160635, "is_reserved": 0, "fusion_lat": 0.0, "bike_id": "4074619ed2bf336e8e8677dabf382d47", "type": "electric_scooter", "is_disabled": 0, "fusion_lon": 0.0}, {"rental_uris": {"android": "https://dc.lft.to/lastmile_qr_scan", "ios": "https://dc.lft.to/lastmile_qr_scan"}, "lon": -77.04399166666667, "name": "397c14f9cdbc9b830fadef1122d11795", "lat": 38.908901166666666, "is_reserved": 0, "fusion_lat": 0.0, "bike_id": "397c14f9cdbc9b830fadef1122d11795", "type": "electric_scooter", "is_disabled": 0, "fusion_lon": 0.0}, {"rental_uris": {"android": "https://dc.lft.to/lastmile_qr_scan", "ios": "https://dc.lft.to/lastmile_qr_scan"}, "lon": -76.94703683333333, "name": "47ac77ade13bc0f9a6ccd2cb72300adb", "lat": 38.89365333333333, "is_reserved": 0, "fusion_lat": 0.0, "bike_id": "47ac77ade13bc0f9a6ccd2cb72300adb", "type": "electric_scooter", "is_disabled": 0, "fusion_lon": 0.0}, {"rental_uris": {"android": "https://dc.lft.to/lastmile_qr_scan", "ios": "https://dc.lft.to/lastmile_qr_scan"}, "lon": -77.02183933333333, "name": "b573ef065236f63543b455a92ba118e7", "lat": 38.9150755, "is_reserved": 0, "fusion_lat": 0.0, "bike_id": "b573ef065236f63543b455a92ba118e7", "type": "electric_scooter", "is_disabled": 0, "fusion_lon": 0.0}, {"rental_uris": {"android": "https://dc.lft.to/lastmile_qr_scan", "ios": "https://dc.lft.to/lastmile_qr_scan"}, "lon": -77.01183383333333, "name": "e1cce7e40d7ed540bf2459bc70e72e09", "lat": 38.900300666666666, "is_reserved": 0, "fusion_lat": 0.0, "bike_id": "e1cce7e40d7ed540bf2459bc70e72e09", "type": "electric_scooter", "is_disabled": 0, "fusion_lon": 0.0}, {"rental_uris": {"android": "https://dc.lft.to/lastmile_qr_scan", "ios": "https://dc.lft.to/lastmile_qr_scan"}, "lon": -76.98506066666667, "name": "519c4633b30db25766c3e41b0d937b50", "lat": 38.860609333333336, "is_reserved": 0, "fusion_lat": 0.0, "bike_id": "519c4633b30db25766c3e41b0d937b50", "type": "electric_scooter", "is_disabled": 0, "fusion_lon": 0.0}, {"rental_uris": {"android": "https://dc.lft.to/lastmile_qr_scan", "ios": "https://dc.lft.to/lastmile_qr_scan"}, "lon": -77.04228033333334, "name": "4f6876ece83ebfc90e8d5d4393e7821c", "lat": 38.9110405, "is_reserved": 0, "fusion_lat": 0.0, "bike_id": "4f6876ece83ebfc90e8d5d4393e7821c", "type": "electric_scooter", "is_disabled": 0, "fusion_lon": 0.0}, {"rental_uris": {"android": "https://dc.lft.to/lastmile_qr_scan", "ios": "https://dc.lft.to/lastmile_qr_scan"}, "lon": -76.98375683333333, "name": "0d6253e3da44c05a9ce6de8c5334d56d", "lat": 38.91498983333334, "is_reserved": 0, "fusion_lat": 0.0, "bike_id": "0d6253e3da44c05a9ce6de8c5334d56d", "type": "electric_scooter", "is_disabled": 0, "fusion_lon": 0.0}, {"rental_uris": {"android": "https://dc.lft.to/lastmile_qr_scan", "ios": "https://dc.lft.to/lastmile_qr_scan"}, "lon": -77.00673266666666, "name": "52ffee632c2e69e9bd2ea258f5034d50", "lat": 38.945081333333334, "is_reserved": 0, "fusion_lat": 0.0, "bike_id": "52ffee632c2e69e9bd2ea258f5034d50", "type": "electric_bike", "is_disabled": 0, "fusion_lon": 0.0}, {"rental_uris": {"android": "https://dc.lft.to/lastmile_qr_scan", "ios": "https://dc.lft.to/lastmile_qr_scan"}, "lon": -77.03535116666667, "name": "9237d47428cfbcdf20e37cca2d8e38df", "lat": 38.92342416666666, "is_reserved": 0, "fusion_lat": 0.0, "bike_id": "9237d47428cfbcdf20e37cca2d8e38df", "type": "electric_scooter", "is_disabled": 0, "fusion_lon": 0.0}, {"rental_uris": {"android": "https://dc.lft.to/lastmile_qr_scan", "ios": "https://dc.lft.to/lastmile_qr_scan"}, "lon": -77.0640015, "name": "530f4cb52f9006ae4913c76b1e59d558", "lat": 38.944125, "is_reserved": 0, "fusion_lat": 0.0, "bike_id": "530f4cb52f9006ae4913c76b1e59d558", "type": "electric_scooter", "is_disabled": 0, "fusion_lon": 0.0}, {"rental_uris": {"android": "https://dc.lft.to/lastmile_qr_scan", "ios": "https://dc.lft.to/lastmile_qr_scan"}, "lon": -77.03805483333333, "name": "45ef9a34868803a316a6450ac136e762", "lat": 38.932267833333334, "is_reserved": 0, "fusion_lat": 0.0, "bike_id": "45ef9a34868803a316a6450ac136e762", "type": "electric_scooter", "is_disabled": 0, "fusion_lon": 0.0}, {"rental_uris": {"android": "https://dc.lft.to/lastmile_qr_scan", "ios": "https://dc.lft.to/lastmile_qr_scan"}, "lon": -77.0269375, "name": "8ce7ecc4825325512acef7ed61b07217", "lat": 38.90660466666667, "is_reserved": 0, "fusion_lat": 0.0, "bike_id": "8ce7ecc4825325512acef7ed61b07217", "type": "electric_scooter", "is_disabled": 0, "fusion_lon": 0.0}, {"rental_uris": {"android": "https://dc.lft.to/lastmile_qr_scan", "ios": "https://dc.lft.to/lastmile_qr_scan"}, "lon": -77.0120715, "name": "7d7c5bef3198967f416832d14fefbf32", "lat": 38.893311833333335, "is_reserved": 0, "fusion_lat": 0.0, "bike_id": "7d7c5bef3198967f416832d14fefbf32", "type": "electric_scooter", "is_disabled": 0, "fusion_lon": 0.0}, {"rental_uris": {"android": "https://dc.lft.to/lastmile_qr_scan", "ios": "https://dc.lft.to/lastmile_qr_scan"}, "lon": -77.07331216666667, "name": "58e0842ef9c00d91b161e2126cc86775", "lat": 38.925637333333334, "is_reserved": 0, "fusion_lat": 0.0, "bike_id": "58e0842ef9c00d91b161e2126cc86775", "type": "electric_scooter", "is_disabled": 0, "fusion_lon": 0.0}, {"rental_uris": {"android": "https://dc.lft.to/lastmile_qr_scan", "ios": "https://dc.lft.to/lastmile_qr_scan"},