{"data": {"bikes": [{"rental_uris": {"ios": "https://dc.lft.to/lastmile_qr_scan", "android": "https://dc.lft.to/lastmile_qr_scan"}, "type": "electric_scooter", "lon": -77.05431766666666, "lat": 38.92847116666667, "fusion_lon": 0.0, "name": "494adea2d183e3360a2ed9350667ddd3", "bike_id": "494adea2d183e3360a2ed9350667ddd3", "is_reserved": 0, "fusion_lat": 0.0, "is_disabled": 0}, {"rental_uris": {"ios": "https://dc.lft.to/lastmile_qr_scan", "android": "https://dc.lft.to/lastmile_qr_scan"}, "type": "electric_scooter", "lon": -77.00332733333333, "lat": 38.893575166666665, "fusion_lon": 0.0, "name": "68d263edd6cb1ddc0aab27b5dc885cbe", "bike_id": "68d263edd6cb1ddc0aab27b5dc885cbe", "is_reserved": 0, "fusion_lat": 0.0, "is_disabled": 0}, {"rental_uris": {"ios": "https://dc.lft.to/lastmile_qr_scan", "android": "https://dc.lft.to/lastmile_qr_scan"}, "type": "electric_scooter", "lon": -77.00450733333334, "lat": 38.881248666666664, "fusion_lon": 0.0, "name": "92e666cc904adce82e1360064052103c", "bike_id": "92e666cc904adce82e1360064052103c", "is_reserved": 0, "fusion_lat": 0.0, "is_disabled": 0}, {"rental_uris": {"ios": "https://dc.lft.to/lastmile_qr_scan", "android": "https://dc.lft.to/lastmile_qr_scan"}, "type": "electric_scooter", "lon": -77.0232525, "lat": 38.930591666666665, "fusion_lon": 0.0, "name": "c2dbf6b23eada0f3209dd229b292c638", "bike_id": "c2dbf6b23eada0f3209dd229b292c638", "is_reserved": 0, "fusion_lat": 0.0, "is_disabled": 0}, {"rental_uris": {"ios": "https://dc.lft.to/lastmile_qr_scan", "android": "https://dc.lft.to/lastmile_qr_scan"}, "type": "electric_scooter", "lon": -77.020948, "lat": 38.894801666666666, "fusion_lon": 0.0, "name": "8bb7da8d9faab95ab9ef7d5b7a4bc8c6", "bike_id": "8bb7da8d9faab95ab9ef7d5b7a4bc8c6", "is_reserved": 0, "fusion_lat": 0.0, "is_disabled": 0}, {"rental_uris": {"ios": "https://dc.lft.to/lastmile_qr_scan", "android": "https://dc.lft.to/lastmile_qr_scan"}, "type": "electric_scooter", "lon": -77.08022966666667, "lat": 38.94611366666667, "fusion_lon": 0.0, "name": "8b32a37092c9d93cf79f7bad07e607dc", "bike_id": "8b32a37092c9d93cf79f7bad07e607dc", "is_reserved": 0, "fusion_lat": 0.0, "is_disabled": 0}, {"rental_uris": {"ios": "https://dc.lft.to/lastmile_qr_scan", "android": "https://dc.lft.to/lastmile_qr_scan"}, "type": "electric_scooter", "lon": -77.03659016666667, "lat": 38.936274166666664, "fusion_lon": 0.0, "name": "2139911324c52e02f9b8ef6b8e443599", "bike_id": "2139911324c52e02f9b8ef6b8e443599", "is_reserved": 0, "fusion_lat": 0.0, "is_disabled": 0}, {"rental_uris": {"ios": "https://dc.lft.to/lastmile_qr_scan", "android": "https://dc.lft.to/lastmile_qr_scan"}, "type": "electric_scooter", "lon": -77.03302116666667, "lat": 38.95634183333333, "fusion_lon": 0.0, "name": "a2cb18b29917808ef3840398d05a7ad3", "bike_id": "a2cb18b29917808ef3840398d05a7ad3", "is_reserved": 0, "fusion_lat": 0.0, "is_disabled": 0}, {"rental_uris": {"ios": "https://dc.lft.to/lastmile_qr_scan", "android": "https://dc.lft.to/lastmile_qr_scan"}, "type": "electric_scooter", "lon": -77.05475816666667, "lat": 38.91061466666667, "fusion_lon": 0.0, "name": "87bd0247f8d86b27f1023d2bf18b975c", "bike_id": "87bd0247f8d86b27f1023d2bf18b975c", "is_reserved": 0, "fusion_lat": 0.0, "is_disabled": 0}, {"rental_uris": {"ios": "https://dc.lft.to/lastmile_qr_scan", "android": "https://dc.lft.to/lastmile_qr_scan"}, "type": "electric_scooter", "lon": -77.05145533333334, "lat": 38.90439766666667, "fusion_lon": 0.0, "name": "c758ec23b4e4130063d7c43a54608a35", "bike_id": "c758ec23b4e4130063d7c43a54608a35", "is_reserved": 0, "fusion_lat": 0.0, "is_disabled": 0}, {"rental_uris": {"ios": "https://dc.lft.to/lastmile_qr_scan", "android": "https://dc.lft.to/lastmile_qr_scan"}, "type": "electric_scooter", "lon": -77.039516, "lat": 38.9306095, "fusion_lon": 0.0, "name": "fbce00dd54ac921d96a3144bb5de2e8a", "bike_id": "fbce00dd54ac921d96a3144bb5de2e8a", "is_reserved": 0, "fusion_lat": 0.0, "is_disabled": 0}, {"rental_uris": {"ios": "https://dc.lft.to/lastmile_qr_scan", "android": "https://dc.lft.to/lastmile_qr_scan"}, "type": "electric_bike", "lon": -77.05440733333333, "lat": 38.784619166666666, "fusion_lon": 0.0, "name": "4f1d3e87ce88df5ea2a4166807634f0f", "bike_id": "4f1d3e87ce88df5ea2a4166807634f0f", "is_reserved": 0, "fusion_lat": 0.0, "is_disabled": 0}, {"rental_uris": {"ios": "https://dc.lft.to/lastmile_qr_scan", "android": "https://dc.lft.to/lastmile_qr_scan"}, "type": "electric_scooter", "lon": -77.04342466666667, "lat": 38.900440833333334, "fusion_lon": 0.0, "name": "4be3867376e11a1532727c055e5ea911", "bike_id": "4be3867376e11a1532727c055e5ea911", "is_reserved": 0, "fusion_lat": 0.0, "is_disabled": 0}, {"rental_uris": {"ios": "https://dc.lft.to/lastmile_qr_scan", "android": "https://dc.lft.to/lastmile_qr_scan"}, "type": "electric_scooter", "lon": -77.01554316666666, "lat": 38.927965666666665, "fusion_lon": 0.0, "name": "04ae778d7e747dccb364ed22010bd6eb", "bike_id": "04ae778d7e747dccb364ed22010bd6eb", "is_reserved": 0, "fusion_lat": 0.0, "is_disabled": 0}, {"rental_uris": {"ios": "https://dc.lft.to/lastmile_qr_scan", "android": "https://dc.lft.to/lastmile_qr_scan"}, "type": "electric_scooter", "lon": -77.013594, "lat": 38.962252, "fusion_lon": 0.0, "name": "f89a944366c300bacf2ad1a98419f62f", "bike_id": "f89a944366c300bacf2ad1a98419f62f", "is_reserved": 0, "fusion_lat": 0.0, "is_disabled": 0}, {"rental_uris": {"ios": "https://dc.lft.to/lastmile_qr_scan", "android": "https://dc.lft.to/lastmile_qr_scan"}, "type": "electric_scooter", "lon": -77.04566783333334, "lat": 38.902370166666664, "fusion_lon": 0.0, "name": "39f7329febc04510a3ecafe91a195a23", "bike_id": "39f7329febc04510a3ecafe91a195a23", "is_reserved": 0, "fusion_lat": 0.0, "is_disabled": 0}, {"rental_uris": {"ios": "https://dc.lft.to/lastmile_qr_scan", "android": "https://dc.lft.to/lastmile_qr_scan"}, "type": "electric_scooter", "lon": -77.01039083333333, "lat": 38.90958766666667, "fusion_lon": 0.0, "name": "7328c2964f4dba78d650926485cdf36b", "bike_id": "7328c2964f4dba78d650926485cdf36b", "is_reserved": 0, "fusion_lat": 0.0, "is_disabled": 0}, {"rental_uris": {"ios": "https://dc.lft.to/lastmile_qr_scan", "android": "https://dc.lft.to/lastmile_qr_scan"}, "type": "electric_scooter", "lon": -77.044693, "lat": 38.89221033333333, "fusion_lon": 0.0, "name": "5c5515049cf7fe71a1581a72ef88e3df", "bike_id": "5c5515049cf7fe71a1581a72ef88e3df", "is_reserved": 0, "fusion_lat": 0.0, "is_disabled": 0}, {"rental_uris": {"ios": "https://dc.lft.to/lastmile_qr_scan", "android": "https://dc.lft.to/lastmile_qr_scan"}, "type": "electric_scooter", "lon": -77.03275716666667, "lat": 38.92971516666667, "fusion_lon": 0.0, "name": "55c78d65b4ed3503baf4d813da48e1bd", "bike_id": "55c78d65b4ed3503baf4d813da48e1bd", "is_reserved": 0, "fusion_lat": 0.0, "is_disabled": 0}, {"rental_uris": {"ios": "https://dc.lft.to/lastmile_qr_scan", "android": "https://dc.lft.to/lastmile_qr_scan"}, "type": "electric_scooter", "lon": -77.00634183333334, "lat": 38.871108, "fusion_lon": 0.0, "name": "26d551ef7a6ea4ff41b7be5b31958d6a", "bike_id": "26d551ef7a6ea4ff41b7be5b31958d6a", "is_reserved": 0, "fusion_lat": 0.0, "is_disabled": 0}, {"rental_uris": {"ios": "https://dc.lft.to/lastmile_qr_scan", "android": "https://dc.lft.to/lastmile_qr_scan"}, "type": "electric_scooter", "lon": -76.9882695, "lat": 38.87803016666667, "fusion_lon": 0.0, "name": "39ab8053bfd1bfb979dcb86d5bc8cfc8", "bike_id": "39ab8053bfd1bfb979dcb86d5bc8cfc8", "is_reserved": 0, "fusion_lat": 0.0, "is_disabled": 0}, {"rental_uris": {"ios": "https://dc.lft.to/lastmile_qr_scan", "android": "https://dc.lft.to/lastmile_qr_scan"}, "type": "electric_scooter", "lon": -77.03660266666667, "lat": 38.91546133333333, "fusion_lon": 0.0, "name": "e0e764fc22724d6dfe84970bfe77566a", "bike_id": "e0e764fc22724d6dfe84970bfe77566a", "is_reserved": 0, "fusion_lat": 0.0, "is_disabled": 0}, {"rental_uris": {"ios": "https://dc.lft.to/lastmile_qr_scan", "android": "https://dc.lft.to/lastmile_qr_scan"}, "type": "electric_scooter", "lon": -77.03386083333334, "lat": 38.9021175, "fusion_lon": 0.0, "name": "a2e7854e431abba94ea6776112dcc78a", "bike_id": "a2e7854e431abba94ea6776112dcc78a", "is_reserved": 0, "fusion_lat": 0.0, "is_disabled": 0}, {"rental_uris": {"ios": "https://dc.lft.to/lastmile_qr_scan", "android": "https://dc.lft.to/lastmile_qr_scan"}, "type": "electric_scooter", "lon": -77.01934883333334, "lat": 38.922533666666666, "fusion_lon": 0.0, "name": "cf7d8f9d178f32d49c68dd031e902431", "bike_id": "cf7d8f9d178f32d49c68dd031e902431", "is_reserved": 0, "fusion_lat": 0.0, "is_disabled": 0}, {"rental_uris": {"ios": "https://dc.lft.to/lastmile_qr_scan", "android": "https://dc.lft.to/lastmile_qr_scan"}, "type": "electric_bike", "lon": -77.04958716666667, "lat": 39.01091866666667, "fusion_lon": 0.0, "name": "c9fd9a681fd7693b2cde7dc0138ba188", "bike_id": "c9fd9a681fd7693b2cde7dc0138ba188", "is_reserved": 0, "fusion_lat": 0.0, "is_disabled": 0}, {"rental_uris": {"ios": "https://dc.lft.to/lastmile_qr_scan", "android": "https://dc.lft.to/lastmile_qr_scan"}, "type": "electric_bike", "lon": -77.0693635, "lat": 38.95546733333333, "fusion_lon": 0.0, "name": "4e86cd73e1ffbac9cad92f0cf07fe8a2", "bike_id": "4e86cd73e1ffbac9cad92f0cf07fe8a2", "is_reserved": 0, "fusion_lat": 0.0, "is_disabled": 0}, {"rental_uris": {"ios": "https://dc.lft.to/lastmile_qr_scan", "android": "https://dc.lft.to/lastmile_qr_scan"}, "type": "electric_scooter", "lon": -77.00288716666667, "lat": 38.87649716666667, "fusion_lon": 0.0, "name": "68076364bd977638b3b632d3b88910b3", "bike_id": "68076364bd977638b3b632d3b88910b3", "is_reserved": 0, "fusion_lat": 0.0, "is_disabled": 0}, {"rental_uris": {"ios": "https://dc.lft.to/lastmile_qr_scan", "android": "https://dc.lft.to/lastmile_qr_scan"}, "type": "electric_scooter", "lon": -77.0454855, "lat": 38.93404483333333, "fusion_lon": 0.0, "name": "67e25315077d6dda74a3b118dff8f7af", "bike_id": "67e25315077d6dda74a3b118dff8f7af", "is_reserved": 0, "fusion_lat": 0.0, "is_disabled": 0}, {"rental_uris": {"ios": "https://dc.lft.to/lastmile_qr_scan", "android": "https://dc.lft.to/lastmile_qr_scan"}, "type": "electric_scooter", "lon": -77.036645, "lat": 38.92239283333333, "fusion_lon": 0.0, "name": "bf3b21d45762f0dacbf783f081778e57", "bike_id": "bf3b21d45762f0dacbf783f081778e57", "is_reserved": 0, "fusion_lat": 0.0, "is_disabled": 0}, {"rental_uris": {"ios": "https://dc.lft.to/lastmile_qr_scan", "android": "https://dc.lft.to/lastmile_qr_scan"}, "type": "electric_scooter", "lon": -77.00223633333333, "lat": 38.885036666666664, "fusion_lon": 0.0, "name": "738cdeab647b2731159f98fe3d99b110", "bike_id": "738cdeab647b2731159f98fe3d99b110", "is_reserved": 0, "fusion_lat": 0.0, "is_disabled": 0}, {"rental_uris": {"ios": "https://dc.lft.to/lastmile_qr_scan", "android": "https://dc.lft.to/lastmile_qr_scan"}, "type": "electric_scooter", "lon": -77.03193333333333, "lat": 38.907937833333335, "fusion_lon": 0.0, "name": "d6b70f25d4d116d8f845e1eeb8c640d3", "bike_id": "d6b70f25d4d116d8f845e1eeb8c640d3", "is_reserved": 0, "fusion_lat": 0.0, "is_disabled": 0}, {"rental_uris": {"ios": "https://dc.lft.to/lastmile_qr_scan", "android": "https://dc.lft.to/lastmile_qr_scan"}, "type": "electric_scooter", "lon": -77.030685, "lat": 38.92247483333333, "fusion_lon": 0.0, "name": "8ec9521d6c175f0d982237f74cd07a4b", "bike_id": "8ec9521d6c175f0d982237f74cd07a4b", "is_reserved": 0, "fusion_lat": 0.0, "is_disabled": 0}, {"rental_uris": {"ios": "https://dc.lft.to/lastmile_qr_scan", "android": "https://dc.lft.to/lastmile_qr_scan"}, "type": "electric_scooter", "lon": -76.92662483333334, "lat": 38.895463666666664, "fusion_lon": 0.0, "name": "cdd7e16c90e33409cffc6f625c4e87dd", "bike_id": "cdd7e16c90e33409cffc6f625c4e87dd", "is_reserved": 0, "fusion_lat": 0.0, "is_disabled": 0}, {"rental_uris": {"ios": "https://dc.lft.to/lastmile_qr_scan", "android": "https://dc.lft.to/lastmile_qr_scan"}, "type": "electric_scooter", "lon": -77.0331895, "lat": 38.89894366666667, "fusion_lon": 0.0, "name": "552d9d7ee431034f5e1b52d43f32f8e6", "bike_id": "552d9d7ee431034f5e1b52d43f32f8e6", "is_reserved": 0, "fusion_lat": 0.0, "is_disabled": 0}, {"rental_uris": {"ios": "https://dc.lft.to/lastmile_qr_scan", "android": "https://dc.lft.to/lastmile_qr_scan"}, "type": "electric_scooter", "lon": -77.0122035, "lat": 38.897734, "fusion_lon": 0.0, "name": "b1baf20793541afbfd70652c2a4ebbbb", "bike_id": "b1baf20793541afbfd70652c2a4ebbbb", "is_reserved": 0, "fusion_lat": 0.0, "is_disabled": 0}, {"rental_uris": {"ios": "https://dc.lft.to/lastmile_qr_scan", "android": "https://dc.lft.to/lastmile_qr_scan"}, "type": "electric_scooter", "lon": -77.04345966666666, "lat": 38.90370766666667, "fusion_lon": 0.0, "name": "39f7aa51836e29371ae199b029d050b7", "bike_id": "39f7aa51836e29371ae199b029d050b7", "is_reserved": 0, "fusion_lat": 0.0, "is_disabled": 0}, {"rental_uris": {"ios": "https://dc.lft.to/lastmile_qr_scan", "android": "https://dc.lft.to/lastmile_qr_scan"}, "type": "electric_scooter", "lon": -77.003357, "lat": 38.88608166666667, "fusion_lon": 0.0, "name": "ef30b26a60650ab5241451ba8d54fad8", "bike_id": "ef30b26a60650ab5241451ba8d54fad8", "is_reserved": 0, "fusion_lat": 0.0, "is_disabled": 0}, {"rental_uris": {"ios": "https://dc.lft.to/lastmile_qr_scan", "android": "https://dc.lft.to/lastmile_qr_scan"}, "type": "electric_scooter", "lon": -77.04811083333334, "lat": 38.902082666666665, "fusion_lon": 0.0, "name": "f92f70f1dbda1de524d3371c2aecc498", "bike_id": "f92f70f1dbda1de524d3371c2aecc498", "is_reserved": 0, "fusion_lat": 0.0, "is_disabled": 0}, {"rental_uris": {"ios": "https://dc.lft.to/lastmile_qr_scan", "android": "https://dc.lft.to/lastmile_qr_scan"}, "type": "electric_scooter", "lon": -77.0276925, "lat": 38.8963705, "fusion_lon": 0.0, "name": "e5c08d230c4a9200d625a441443bf3a7", "bike_id": "e5c08d230c4a9200d625a441443bf3a7", "is_reserved": 0, "fusion_lat": 0.0, "is_disabled": 0}, {"rental_uris": {"ios": "https://dc.lft.to/lastmile_qr_scan", "android": "https://dc.lft.to/lastmile_qr_scan"}, "type": "electric_scooter", "lon": -77.01955083333333, "lat": 38.923246166666665, "fusion_lon": 0.0, "name": "81cbce39ee62e596df404cea1d0584d0", "bike_id": "81cbce39ee62e596df404cea1d0584d0", "is_reserved": 0, "fusion_lat": 0.0, "is_disabled": 0}, {"rental_uris": {"ios": "https://dc.lft.to/lastmile_qr_scan", "android": "https://dc.lft.to/lastmile_qr_scan"}, "type": "electric_scooter", "lon": -77.032655, "lat": 38.91404516666667, "fusion_lon": 0.0, "name": "0c73f75e2df7ef843153a3e76ccd2267", "bike_id": "0c73f75e2df7ef843153a3e76ccd2267", "is_reserved": 0, "fusion_lat": 0.0, "is_disabled": 0}, {"rental_uris": {"ios": "https://dc.lft.to/lastmile_qr_scan", "android": "https://dc.lft.to/lastmile_qr_scan"}, "type": "electric_scooter", "lon": -77.01744433333333, "lat": 38.90237916666667, "fusion_lon": 0.0, "name": "8e5923c40a88081c4173f8a6e937b678", "bike_id": "8e5923c40a88081c4173f8a6e937b678", "is_reserved": 0, "fusion_lat": 0.0, "is_disabled": 0}, {"rental_uris": {"ios": "https://dc.lft.to/lastmile_qr_scan", "android": "https://dc.lft.to/lastmile_qr_scan"}, "type": "electric_scooter", "lon": -77.01513433333334, "lat": 38.913151666666664, "fusion_lon": 0.0, "name": "ed1d9f809c269faf6ed06c3e709ae389", "bike_id": "ed1d9f809c269faf6ed06c3e709ae389", "is_reserved": 0, "fusion_lat": 0.0, "is_disabled": 0}, {"rental_uris": {"ios": "https://dc.lft.to/lastmile_qr_scan", "android": "https://dc.lft.to/lastmile_qr_scan"}, "type": "electric_scooter", "lon": -77.0220195, "lat": 38.92474683333333, "fusion_lon": 0.0, "name": "a64dcf11b18b4ab400b1d80ae6186df0", "bike_id": "a64dcf11b18b4ab400b1d80ae6186df0", "is_reserved": 0, "fusion_lat": 0.0, "is_disabled": 0}, {"rental_uris": {"ios": "https://dc.lft.to/lastmile_qr_scan", "android": "https://dc.lft.to/lastmile_qr_scan"}, "type": "electric_scooter", "lon": -77.04379716666666, "lat": 38.911145833333336, "fusion_lon": 0.0, "name": "1d0c34d285bb4a1f52ea397c374ee810", "bike_id": "1d0c34d285bb4a1f52ea397c374ee810", "is_reserved": 0, "fusion_lat": 0.0, "is_disabled": 0}, {"rental_uris": {"ios": "https://dc.lft.to/lastmile_qr_scan", "android": "https://dc.lft.to/lastmile_qr_scan"}, "type": "electric_scooter", "lon": -77.04388, "lat": 38.9166105, "fusion_lon": 0.0, "name": "348c274b652dcd197b71e58f71db0fec", "bike_id": "348c274b652dcd197b71e58f71db0fec", "is_reserved": 0, "fusion_lat": 0.0, "is_disabled": 0}, {"rental_uris": {"ios": "https://dc.lft.to/lastmile_qr_scan", "android": "https://dc.lft.to/lastmile_qr_scan"}, "type": "electric_scooter", "lon": -77.01829633333334, "lat": 38.907814, "fusion_lon": 0.0, "name": "d3200e5ee37e17bec6b011ed5b564087", "bike_id": "d3200e5ee37e17bec6b011ed5b564087", "is_reserved": 0, "fusion_lat": 0.0, "is_disabled": 0}, {"rental_uris": {"ios": "https://dc.lft.to/lastmile_qr_scan", "android": "https://dc.lft.to/lastmile_qr_scan"}, "type": "electric_scooter", "lon": -77.05318966666667, "lat": 38.91832516666667, "fusion_lon": 0.0, "name": "afbcb91b563d260f63b55c6b7f58333b", "bike_id": "afbcb91b563d260f63b55c6b7f58333b", "is_reserved": 0, "fusion_lat": 0.0, "is_disabled": 0}, {"rental_uris": {"ios": "https://dc.lft.to/lastmile_qr_scan", "android": "https://dc.lft.to/lastmile_qr_scan"}, "type": "electric_scooter", "lon": -77.04182983333334, "lat": 38.905614, "fusion_lon": 0.0, "name": "1be5f764ca991baf074a19f98aaff248", "bike_id": "1be5f764ca991baf074a19f98aaff248", "is_reserved": 0, "fusion_lat": 0.0, "is_disabled": 0}, {"rental_uris": {"ios": "https://dc.lft.to/lastmile_qr_scan", "android": "https://dc.lft.to/lastmile_qr_scan"}, "type": "electric_scooter", "lon": -77.03956366666667, "lat": 38.8924355, "fusion_lon": 0.0, "name": "a8e2248451c3c62e8625e1beedc55779", "bike_id": "a8e2248451c3c62e8625e1beedc55779", "is_reserved": 0, "fusion_lat": 0.0, "is_disabled": 0}, {"rental_uris": {"ios": "https://dc.lft.to/lastmile_qr_scan", "android": "https://dc.lft.to/lastmile_qr_scan"}, "type": "electric_bike", "lon": -77.08075133333334, "lat": 38.90859433333333, "fusion_lon": 0.0, "name": "c79d46a82a0faf5c0b1d3aaa8d46bb53", "bike_id": "c79d46a82a0faf5c0b1d3aaa8d46bb53", "is_reserved": 0, "fusion_lat": 0.0, "is_disabled": 0}, {"rental_uris": {"ios": "https://dc.lft.to/lastmile_qr_scan", "android": "https://dc.lft.to/lastmile_qr_scan"}, "type": "electric_scooter", "lon": -77.0271385, "lat": 38.924645166666664, "fusion_lon": 0.0, "name": "bbbf3a7381b7b57d57fce817a40b83be", "bike_id": "bbbf3a7381b7b57d57fce817a40b83be", "is_reserved": 0, "fusion_lat": 0.0, "is_disabled": 0}, {"rental_uris": {"ios": "https://dc.lft.to/lastmile_qr_scan", "android": "https://dc.lft.to/lastmile_qr_scan"}, "type": "electric_scooter", "lon": -77.04776333333334, "lat": 38.9008965, "fusion_lon": 0.0, "name": "548f5b2cff2cd82879eac81922dd55e2", "bike_id": "548f5b2cff2cd82879eac81922dd55e2", "is_reserved": 0, "fusion_lat": 0.0, "is_disabled": 0}, {"rental_uris": {"ios": "https://dc.lft.to/lastmile_qr_scan", "android": "https://dc.lft.to/lastmile_qr_scan"}, "type": "electric_scooter", "lon": -77.0430735, "lat": 38.922316, "fusion_lon": 0.0, "name": "af6a40eb702dced312aaa22936caeadd", "bike_id": "af6a40eb702dced312aaa22936caeadd", "is_reserved": 0, "fusion_lat": 0.0, "is_disabled": 0}, {"rental_uris": {"ios": "https://dc.lft.to/lastmile_qr_scan", "android": "https://dc.lft.to/lastmile_qr_scan"}, "type": "electric_scooter", "lon": -77.0296085, "lat": 38.91685833333333, "fusion_lon": 0.0, "name": "e927367ae2ef27317018b4da4ee950a2", "bike_id": "e927367ae2ef27317018b4da4ee950a2", "is_reserved": 0, "fusion_lat": 0.0, "is_disabled": 0}, {"rental_uris": {"ios": "https://dc.lft.to/lastmile_qr_scan", "android": "https://dc.lft.to/lastmile_qr_scan"}, "type": "electric_scooter", "lon": -77.0045475, "lat": 38.914003666666666, "fusion_lon": 0.0, "name": "90d83fe7e500f8aef45ccb3cc6978f02", "bike_id": "90d83fe7e500f8aef45ccb3cc6978f02", "is_reserved": 0, "fusion_lat": 0.0, "is_disabled": 0}, {"rental_uris": {"ios": "https://dc.lft.to/lastmile_qr_scan", "android": "https://dc.lft.to/lastmile_qr_scan"}, "type": "electric_bike", "lon": -76.95255683333333, "lat": 38.906963833333336, "fusion_lon": 0.0, "name": "c2d1cd42d925261f41e6ed6e535da127", "bike_id": "c2d1cd42d925261f41e6ed6e535da127", "is_reserved": 0, "fusion_lat": 0.0, "is_disabled": 0}, {"rental_uris": {"ios": "https://dc.lft.to/lastmile_qr_scan", "android": "https://dc.lft.to/lastmile_qr_scan"}, "type": "electric_scooter", "lon": -77.01225716666667, "lat": 38.89774766666667, "fusion_lon": 0.0, "name": "689d277471afa6f219e7f371c70b65ab", "bike_id": "689d277471afa6f219e7f371c70b65ab", "is_reserved": 0, "fusion_lat": 0.0, "is_disabled": 0}, {"rental_uris": {"ios": "https://dc.lft.to/lastmile_qr_scan", "android": "https://dc.lft.to/lastmile_qr_scan"}, "type": "electric_scooter", "lon": -77.03268083333333, "lat": 38.928846, "fusion_lon": 0.0, "name": "ab98992884654cf1d79f1bda21751cfc", "bike_id": "ab98992884654cf1d79f1bda21751cfc", "is_reserved": 0, "fusion_lat": 0.0, "is_disabled": 0}, {"rental_uris": {"ios": "https://dc.lft.to/lastmile_qr_scan", "android": "https://dc.lft.to/lastmile_qr_scan"}, "type": "electric_scooter", "lon": -77.04065833333334, "lat": 38.923995, "fusion_lon": 0.0, "name": "d93ef04274cd50d001c21005dde8a40f", "bike_id": "d93ef04274cd50d001c21005dde8a40f", "is_reserved": 0, "fusion_lat": 0.0, "is_disabled": 0}, {"rental_uris": {"ios": "https://dc.lft.to/lastmile_qr_scan", "android": "https://dc.lft.to/lastmile_qr_scan"}, "type": "electric_scooter", "lon": -77.03531816666667, "lat": 38.927238333333335, "fusion_lon": 0.0, "name": "bce4fe0504832912544dd5049fc1fb38", "bike_id": "bce4fe0504832912544dd5049fc1fb38", "is_reserved": 0, "fusion_lat": 0.0, "is_disabled": 0}, {"rental_uris": {"ios": "https://dc.lft.to/lastmile_qr_scan", "android": "https://dc.lft.to/lastmile_qr_scan"}, "type": "electric_scooter", "lon": -77.00514633333333, "lat": 38.8803155, "fusion_lon": 0.0, "name": "dd4df219882de872b22dde95f30799f1", "bike_id": "dd4df219882de872b22dde95f30799f1", "is_reserved": 0, "fusion_lat": 0.0, "is_disabled": 0}, {"rental_uris": {"ios": "https://dc.lft.to/lastmile_qr_scan", "android": "https://dc.lft.to/lastmile_qr_scan"}, "type": "electric_bike", "lon": -77.02888633333333, "lat": 38.99803966666666, "fusion_lon": 0.0, "name": "9a5559584b111e5e8f251222260161e4", "bike_id": "9a5559584b111e5e8f251222260161e4", "is_reserved": 0, "fusion_lat": 0.0, "is_disabled": 0}, {"rental_uris": {"ios": "https://dc.lft.to/lastmile_qr_scan", "android": "https://dc.lft.to/lastmile_qr_scan"}, "type": "electric_scooter", "lon": -77.00056133333334, "lat": 38.87879, "fusion_lon": 0.0, "name": "0837be3adc194ccece6b5599a315ca89", "bike_id": "0837be3adc194ccece6b5599a315ca89", "is_reserved": 0, "fusion_lat": 0.0, "is_disabled": 0}, {"rental_uris": {"ios": "https://dc.lft.to/lastmile_qr_scan", "android": "https://dc.lft.to/lastmile_qr_scan"}, "type": "electric_scooter", "lon": -76.9934385, "lat": 38.900128333333335, "fusion_lon": 0.0, "name": "3f029049915bea66eb127ebc0007256e", "bike_id": "3f029049915bea66eb127ebc0007256e", "is_reserved": 0, "fusion_lat": 0.0, "is_disabled": 0}, {"rental_uris": {"ios": "https://dc.lft.to/lastmile_qr_scan", "android": "https://dc.lft.to/lastmile_qr_scan"}, "type": "electric_scooter", "lon": -77.03514633333333, "lat": 38.93108183333333, "fusion_lon": 0.0, "name": "ddb288117eb513521f2eb0c278204047", "bike_id": "ddb288117eb513521f2eb0c278204047", "is_reserved": 0, "fusion_lat": 0.0, "is_disabled": 0}, {"rental_uris": {"ios": "https://dc.lft.to/lastmile_qr_scan", "android": "https://dc.lft.to/lastmile_qr_scan"}, "type": "electric_scooter", "lon": -77.04468983333334, "lat": 38.8922145, "fusion_lon": 0.0, "name": "2930464ea2af13fd55d8bb98fce4cdf8", "bike_id": "2930464ea2af13fd55d8bb98fce4cdf8", "is_reserved": 0, "fusion_lat": 0.0, "is_disabled": 0}, {"rental_uris": {"ios": "https://dc.lft.to/lastmile_qr_scan", "android": "https://dc.lft.to/lastmile_qr_scan"}, "type": "electric_scooter", "lon": -76.99770566666666, "lat": 38.89422733333333, "fusion_lon": 0.0, "name": "0ecbc65c309e32b15eba41f6476a0527", "bike_id": "0ecbc65c309e32b15eba41f6476a0527", "is_reserved": 0, "fusion_lat": 0.0, "is_disabled": 0}, {"rental_uris": {"ios": "https://dc.lft.to/lastmile_qr_scan", "android": "https://dc.lft.to/lastmile_qr_scan"}, "type": "electric_scooter", "lon": -77.07026616666667, "lat": 38.90779583333333, "fusion_lon": 0.0, "name": "128971110612863f968c4cc38cad5d19", "bike_id": "128971110612863f968c4cc38cad5d19", "is_reserved": 0, "fusion_lat": 0.0, "is_disabled": 0}, {"rental_uris": {"ios": "https://dc.lft.to/lastmile_qr_scan", "android": "https://dc.lft.to/lastmile_qr_scan"}, "type": "electric_scooter", "lon": -77.02965916666666, "lat": 38.89931633333333, "fusion_lon": 0.0, "name": "bb997d71ef9a9365f4c8c4dd3e1cd333", "bike_id": "bb997d71ef9a9365f4c8c4dd3e1cd333", "is_reserved": 0, "fusion_lat": 0.0, "is_disabled": 0}, {"rental_uris": {"ios": "https://dc.lft.to/lastmile_qr_scan", "android": "https://dc.lft.to/lastmile_qr_scan"}, "type": "electric_bike", "lon": -76.98471033333334, "lat": 38.8799, "fusion_lon": 0.0, "name": "e507339a7c96ee35a22ba3ec35a9274d", "bike_id": "e507339a7c96ee35a22ba3ec35a9274d", "is_reserved": 0, "fusion_lat": 0.0, "is_disabled": 0}, {"rental_uris": {"ios": "https://dc.lft.to/lastmile_qr_scan", "android": "https://dc.lft.to/lastmile_qr_scan"}, "type": "electric_scooter", "lon": -77.0275665, "lat": 38.90269216666667, "fusion_lon": 0.0, "name": "761b4017c3cfba835a5ce741c7b50946", "bike_id": "761b4017c3cfba835a5ce741c7b50946", "is_reserved": 0, "fusion_lat": 0.0, "is_disabled": 0}, {"rental_uris": {"ios": "https://dc.lft.to/lastmile_qr_scan", "android": "https://dc.lft.to/lastmile_qr_scan"}, "type": "electric_scooter", "lon": -77.01760916666667, "lat": 38.876900666666664, "fusion_lon": 0.0, "name": "0b7431e47dbf8916ea3b5834f0dcb83e", "bike_id": "0b7431e47dbf8916ea3b5834f0dcb83e", "is_reserved": 0, "fusion_lat": 0.0, "is_disabled": 0}, {"rental_uris": {"ios": "https://dc.lft.to/lastmile_qr_scan", "android": "https://dc.lft.to/lastmile_qr_scan"}, "type": "electric_scooter", "lon": -77.05016666666667, "lat": 38.923405833333334, "fusion_lon": 0.0, "name": "2168c49e2dbdddee5819ef21c2c5565b", "bike_id": "2168c49e2dbdddee5819ef21c2c5565b", "is_reserved": 0, "fusion_lat": 0.0, "is_disabled": 0}, {"rental_uris": {"ios": "https://dc.lft.to/lastmile_qr_scan", "android": "https://dc.lft.to/lastmile_qr_scan"}, "type": "electric_scooter", "lon": -77.04008583333334, "lat": 38.90999, "fusion_lon": 0.0, "name": "d99913eada4817262944f7095e3586c5", "bike_id": "d99913eada4817262944f7095e3586c5", "is_reserved": 0, "fusion_lat": 0.0, "is_disabled": 0}, {"rental_uris": {"ios": "https://dc.lft.to/lastmile_qr_scan", "android": "https://dc.lft.to/lastmile_qr_scan"}, "type": "electric_scooter", "lon": -77.00521666666667, "lat": 38.8807195, "fusion_lon": 0.0, "name": "146bc4da266383558f206a055f5d8012", "bike_id": "146bc4da266383558f206a055f5d8012", "is_reserved": 0, "fusion_lat": 0.0, "is_disabled": 0}, {"rental_uris": {"ios": "https://dc.lft.to/lastmile_qr_scan", "android": "https://dc.lft.to/lastmile_qr_scan"}, "type": "electric_scooter", "lon": -77.05243566666667, "lat": 38.92468183333333, "fusion_lon": 0.0, "name": "e8b2183e5d6eb9f817cbb0e964727f1d", "bike_id": "e8b2183e5d6eb9f817cbb0e964727f1d", "is_reserved": 0, "fusion_lat": 0.0, "is_disabled": 0}, {"rental_uris": {"ios": "https://dc.lft.to/lastmile_qr_scan", "android": "https://dc.lft.to/lastmile_qr_scan"}, "type": "electric_scooter", "lon": -77.02748433333333, "lat": 38.92677883333333, "fusion_lon": 0.0, "name": "e53f305b1537c4d982cb37eab3cf53ad", "bike_id": "e53f305b1537c4d982cb37eab3cf53ad", "is_reserved": 0, "fusion_lat": 0.0, "is_disabled": 0}, {"rental_uris": {"ios": "https://dc.lft.to/lastmile_qr_scan", "android": "https://dc.lft.to/lastmile_qr_scan"}, "type": "electric_scooter", "lon": -77.00976283333334, "lat": 38.907010166666666, "fusion_lon": 0.0, "name": "109920c4d405c4fc1d7313ee23c618c9", "bike_id": "109920c4d405c4fc1d7313ee23c618c9", "is_reserved": 0, "fusion_lat": 0.0, "is_disabled": 0}, {"rental_uris": {"ios": "https://dc.lft.to/lastmile_qr_scan", "android": "https://dc.lft.to/lastmile_qr_scan"}, "type": "electric_scooter", "lon": -77.01686766666667, "lat": 38.89956766666667, "fusion_lon": 0.0, "name": "5ec5deb3b1a69c0402e5618be018ea5a", "bike_id": "5ec5deb3b1a69c0402e5618be018ea5a", "is_reserved": 0, "fusion_lat": 0.0, "is_disabled": 0}, {"rental_uris": {"ios": "https://dc.lft.to/lastmile_qr_scan", "android": "https://dc.lft.to/lastmile_qr_scan"}, "type": "electric_scooter", "lon": -77.0372585, "lat": 38.9170885, "fusion_lon": 0.0, "name": "cd60d2dca41741ea53b8763899a3ced4", "bike_id": "cd60d2dca41741ea53b8763899a3ced4", "is_reserved": 0, "fusion_lat": 0.0, "is_disabled": 0}, {"rental_uris": {"ios": "https://dc.lft.to/lastmile_qr_scan", "android": "https://dc.lft.to/lastmile_qr_scan"}, "type": "electric_bike", "lon": -77.01357683333333, "lat": 39.029209333333334, "fusion_lon": 0.0, "name": "7cd5ad6765124933900cfb430967adb9", "bike_id": "7cd5ad6765124933900cfb430967adb9", "is_reserved": 0, "fusion_lat": 0.0, "is_disabled": 0}, {"rental_uris": {"ios": "https://dc.lft.to/lastmile_qr_scan", "android": "https://dc.lft.to/lastmile_qr_scan"}, "type": "electric_scooter", "lon": -77.02119216666667, "lat": 38.93005733333333, "fusion_lon": 0.0, "name": "633d1856616e01355aa7b262660c9af3", "bike_id": "633d1856616e01355aa7b262660c9af3", "is_reserved": 0, "fusion_lat": 0.0, "is_disabled": 0}, {"rental_uris": {"ios": "https://dc.lft.to/lastmile_qr_scan", "android": "https://dc.lft.to/lastmile_qr_scan"}, "type": "electric_scooter", "lon": -76.98974983333333, "lat": 38.909299, "fusion_lon": 0.0, "name": "1883092ac1badf20c06f7517eb65d5b7", "bike_id": "1883092ac1badf20c06f7517eb65d5b7", "is_reserved": 0, "fusion_lat": 0.0, "is_disabled": 0}, {"rental_uris": {"ios": "https://dc.lft.to/lastmile_qr_scan", "android": "https://dc.lft.to/lastmile_qr_scan"}, "type": "electric_scooter", "lon": -77.03393266666667, "lat": 38.908178166666666, "fusion_lon": 0.0, "name": "0cebad1b29e3a23f089418ccddbdf691", "bike_id": "0cebad1b29e3a23f089418ccddbdf691", "is_reserved": 0, "fusion_lat": 0.0, "is_disabled": 0}, {"rental_uris": {"ios": "https://dc.lft.to/lastmile_qr_scan", "android": "https://dc.lft.to/lastmile_qr_scan"}, "type": "electric_scooter", "lon": -77.04622566666667, "lat": 38.8996505, "fusion_lon": 0.0, "name": "10c7de5650660b51fd05eab02b8d96cc", "bike_id": "10c7de5650660b51fd05eab02b8d96cc", "is_reserved": 0, "fusion_lat": 0.0, "is_disabled": 0}, {"rental_uris": {"ios": "https://dc.lft.to/lastmile_qr_scan", "android": "https://dc.lft.to/lastmile_qr_scan"}, "type": "electric_scooter", "lon": -77.01575083333333, "lat": 38.916824166666665, "fusion_lon": 0.0, "name": "444a817db18277ea83e4d82d06af2267", "bike_id": "444a817db18277ea83e4d82d06af2267", "is_reserved": 0, "fusion_lat": 0.0, "is_disabled": 0}, {"rental_uris": {"ios": "https://dc.lft.to/lastmile_qr_scan", "android": "https://dc.lft.to/lastmile_qr_scan"}, "type": "electric_bike", "lon": -77.019688, "lat": 38.93136966666667, "fusion_lon": 0.0, "name": "96a6af814c19e2577ee62fcc95c91ce3", "bike_id": "96a6af814c19e2577ee62fcc95c91ce3", "is_reserved": 0, "fusion_lat": 0.0, "is_disabled": 0}, {"rental_uris": {"ios": "https://dc.lft.to/lastmile_qr_scan", "android": "https://dc.lft.to/lastmile_qr_scan"}, "type": "electric_scooter", "lon": -76.97705833333333, "lat": 38.888188666666665, "fusion_lon": 0.0, "name": "685c2fd401b1bba11a36b29738287425", "bike_id": "685c2fd401b1bba11a36b29738287425", "is_reserved": 0, "fusion_lat": 0.0, "is_disabled": 0}, {"rental_uris": {"ios": "https://dc.lft.to/lastmile_qr_scan", "android": "https://dc.lft.to/lastmile_qr_scan"}, "type": "electric_scooter", "lon": -76.98337683333334, "lat": 38.88708866666666, "fusion_lon": 0.0, "name": "2ae7634bf7d062fa497902bde8b4d8ca", "bike_id": "2ae7634bf7d062fa497902bde8b4d8ca", "is_reserved": 0, "fusion_lat": 0.0, "is_disabled": 0}, {"rental_uris": {"ios": "https://dc.lft.to/lastmile_qr_scan", "android": "https://dc.lft.to/lastmile_qr_scan"}, "type": "electric_scooter", "lon": -76.980786, "lat": 38.901646166666666, "fusion_lon": 0.0, "name": "ca6b4f88011faf20d2230611a67d2706", "bike_id": "ca6b4f88011faf20d2230611a67d2706", "is_reserved": 0, "fusion_lat": 0.0, "is_disabled": 0}, {"rental_uris": {"ios": "https://dc.lft.to/lastmile_qr_scan", "android": "https://dc.lft.to/lastmile_qr_scan"}, "type": "electric_scooter", "lon": -77.04468333333334, "lat": 38.896056, "fusion_lon": 0.0, "name": "edc5965ebc47ebe8609eaba48544abbb", "bike_id": "edc5965ebc47ebe8609eaba48544abbb", "is_reserved": 0, "fusion_lat": 0.0, "is_disabled": 0}, {"rental_uris": {"ios": "https://dc.lft.to/lastmile_qr_scan", "android": "https://dc.lft.to/lastmile_qr_scan"}, "type": "electric_scooter", "lon": -77.005715, "lat": 38.8850385, "fusion_lon": 0.0, "name": "2a2f7ee55e25bbd5aabc14ae0684594a", "bike_id": "2a2f7ee55e25bbd5aabc14ae0684594a", "is_reserved": 0, "fusion_lat": 0.0, "is_disabled": 0}, {"rental_uris": {"ios": "https://dc.lft.to/lastmile_qr_scan", "android": "https://dc.lft.to/lastmile_qr_scan"}, "type": "electric_scooter", "lon": -77.035336, "lat": 38.921512166666666, "fusion_lon": 0.0, "name": "446db9529fce1565516796a5757e1c0c", "bike_id": "446db9529fce1565516796a5757e1c0c", "is_reserved": 0, "fusion_lat": 0.0, "is_disabled": 0}, {"rental_uris": {"ios": "https://dc.lft.to/lastmile_qr_scan", "android": "https://dc.lft.to/lastmile_qr_scan"}, "type": "electric_scooter", "lon": -77.02180016666667, "lat": 38.91976733333333, "fusion_lon": 0.0, "name": "5c5754fc631b4b685d7863bdafe0aa2f", "bike_id": "5c5754fc631b4b685d7863bdafe0aa2f", "is_reserved": 0, "fusion_lat": 0.0, "is_disabled": 0}, {"rental_uris": {"ios": "https://dc.lft.to/lastmile_qr_scan", "android": "https://dc.lft.to/lastmile_qr_scan"}, "type": "electric_scooter", "lon": -77.00331533333333, "lat": 38.8922985, "fusion_lon": 0.0, "name": "c92e10f1c13afe3b3636d958bf86db1c", "bike_id": "c92e10f1c13afe3b3636d958bf86db1c", "is_reserved": 0, "fusion_lat": 0.0, "is_disabled": 0}, {"rental_uris": {"ios": "https://dc.lft.to/lastmile_qr_scan", "android": "https://dc.lft.to/lastmile_qr_scan"}, "type": "electric_scooter", "lon": -77.00213483333333, "lat": 38.891005166666666, "fusion_lon": 0.0, "name": "4abb9d0692dafc6e7114c90a8814ca9f", "bike_id": "4abb9d0692dafc6e7114c90a8814ca9f", "is_reserved": 0, "fusion_lat": 0.0, "is_disabled": 0}, {"rental_uris": {"ios": "https://dc.lft.to/lastmile_qr_scan", "android": "https://dc.lft.to/lastmile_qr_scan"}, "type": "electric_bike", "lon": -77.07903583333334, "lat": 38.83934283333333, "fusion_lon": 0.0, "name": "574619f128116b7eb2e8fdbb8500a22c", "bike_id": "574619f128116b7eb2e8fdbb8500a22c", "is_reserved": 0, "fusion_lat": 0.0, "is_disabled": 0}, {"rental_uris": {"ios": "https://dc.lft.to/lastmile_qr_scan", "android": "https://dc.lft.to/lastmile_qr_scan"}, "type": "electric_scooter", "lon": -77.0229085, "lat": 38.92690016666667, "fusion_lon": 0.0, "name": "3097011e9717d437072a3108bac822f0", "bike_id": "3097011e9717d437072a3108bac822f0", "is_reserved": 0, "fusion_lat": 0.0, "is_disabled": 0}, {"rental_uris": {"ios": "https://dc.lft.to/lastmile_qr_scan", "android": "https://dc.lft.to/lastmile_qr_scan"}, "type": "electric_scooter", "lon": -77.04067133333334, "lat": 38.89893766666667, "fusion_lon": 0.0, "name": "5c0ebbccdda4af9b2c3c122abee5b07b", "bike_id": "5c0ebbccdda4af9b2c3c122abee5b07b", "is_reserved": 0, "fusion_lat": 0.0, "is_disabled": 0}, {"rental_uris": {"ios": "https://dc.lft.to/lastmile_qr_scan", "android": "https://dc.lft.to/lastmile_qr_scan"}, "type": "electric_scooter", "lon": -77.06906983333333, "lat": 38.907560333333336, "fusion_lon": 0.0, "name": "6544a81de7f2e90e1602e09bb4138e4e", "bike_id": "6544a81de7f2e90e1602e09bb4138e4e", "is_reserved": 0, "fusion_lat": 0.0, "is_disabled": 0}, {"rental_uris": {"ios": "https://dc.lft.to/lastmile_qr_scan", "android": "https://dc.lft.to/lastmile_qr_scan"}, "type": "electric_scooter", "lon": -77.045797, "lat": 38.91623583333333, "fusion_lon": 0.0, "name": "255163c13c9e2d1a29be443ff6b7cbc0", "bike_id": "255163c13c9e2d1a29be443ff6b7cbc0", "is_reserved": 0, "fusion_lat": 0.0, "is_disabled": 0}, {"rental_uris": {"ios": "https://dc.lft.to/lastmile_qr_scan", "android": "https://dc.lft.to/lastmile_qr_scan"}, "type": "electric_scooter", "lon": -77.019472, "lat": 38.92265583333333, "fusion_lon": 0.0, "name": "c81790ceeda5a54344710c0ae58169a7", "bike_id": "c81790ceeda5a54344710c0ae58169a7", "is_reserved": 0, "fusion_lat": 0.0, "is_disabled": 0}, {"rental_uris": {"ios": "https://dc.lft.to/lastmile_qr_scan", "android": "https://dc.lft.to/lastmile_qr_scan"}, "type": "electric_scooter", "lon": -77.025884, "lat": 38.96399066666667, "fusion_lon": 0.0, "name": "e19268116a0af9133e7fb4b1aa13fa1b", "bike_id": "e19268116a0af9133e7fb4b1aa13fa1b", "is_reserved": 0, "fusion_lat": 0.0, "is_disabled": 0}, {"rental_uris": {"ios": "https://dc.lft.to/lastmile_qr_scan", "android": "https://dc.lft.to/lastmile_qr_scan"}, "type": "electric_bike", "lon": -77.10168266666666, "lat": 38.918961, "fusion_lon": 0.0, "name": "57b409ce4505fc6b763f3797af82d4b8", "bike_id": "57b409ce4505fc6b763f3797af82d4b8", "is_reserved": 0, "fusion_lat": 0.0, "is_disabled": 0}, {"rental_uris": {"ios": "https://dc.lft.to/lastmile_qr_scan", "android": "https://dc.lft.to/lastmile_qr_scan"}, "type": "electric_scooter", "lon": -76.97612333333333, "lat": 38.9034025, "fusion_lon": 0.0, "name": "e88a9f5ec34fc2a45bf510cd27c972a1", "bike_id": "e88a9f5ec34fc2a45bf510cd27c972a1", "is_reserved": 0, "fusion_lat": 0.0, "is_disabled": 0}, {"rental_uris": {"ios": "https://dc.lft.to/lastmile_qr_scan", "android": "https://dc.lft.to/lastmile_qr_scan"}, "type": "electric_scooter", "lon": -77.02147166666667, "lat": 38.92560566666667, "fusion_lon": 0.0, "name": "0ee685d17342efe63cd0047151795be1", "bike_id": "0ee685d17342efe63cd0047151795be1", "is_reserved": 0, "fusion_lat": 0.0, "is_disabled": 0}, {"rental_uris": {"ios": "https://dc.lft.to/lastmile_qr_scan", "android": "https://dc.lft.to/lastmile_qr_scan"}, "type": "electric_scooter", "lon": -77.070102, "lat": 38.9557475, "fusion_lon": 0.0, "name": "a04540c4072bddb2c156ec66c7176375", "bike_id": "a04540c4072bddb2c156ec66c7176375", "is_reserved": 0, "fusion_lat": 0.0, "is_disabled": 0}, {"rental_uris": {"ios": "https://dc.lft.to/lastmile_qr_scan", "android": "https://dc.lft.to/lastmile_qr_scan"}, "type": "electric_scooter", "lon": -77.07009483333333, "lat": 38.95467216666667, "fusion_lon": 0.0, "name": "9794bbfa19bd889965f567086af1903f", "bike_id": "9794bbfa19bd889965f567086af1903f", "is_reserved": 0, "fusion_lat": 0.0, "is_disabled": 0}, {"rental_uris": {"ios": "https://dc.lft.to/lastmile_qr_scan", "android": "https://dc.lft.to/lastmile_qr_scan"}, "type": "electric_scooter", "lon": -77.01623316666667, "lat": 38.91329133333333, "fusion_lon": 0.0, "name": "62b0a99bff59a3f8ed2632146a5fecda", "bike_id": "62b0a99bff59a3f8ed2632146a5fecda", "is_reserved": 0, "fusion_lat": 0.0, "is_disabled": 0}, {"rental_uris": {"ios": "https://dc.lft.to/lastmile_qr_scan", "android": "https://dc.lft.to/lastmile_qr_scan"}, "type": "electric_scooter", "lon": -77.00347516666666, "lat": 38.89372083333333, "fusion_lon": 0.0, "name": "1a030186cc4a396cf61529ad13582855", "bike_id": "1a030186cc4a396cf61529ad13582855", "is_reserved": 0, "fusion_lat": 0.0, "is_disabled": 0}, {"rental_uris": {"ios": "https://dc.lft.to/lastmile_qr_scan", "android": "https://dc.lft.to/lastmile_qr_scan"}, "type": "electric_scooter", "lon": -77.0221785, "lat": 38.92474166666667, "fusion_lon": 0.0, "name": "0ad338a0996b575af5bc4be2dd316d70", "bike_id": "0ad338a0996b575af5bc4be2dd316d70", "is_reserved": 0, "fusion_lat": 0.0, "is_disabled": 0}, {"rental_uris": {"ios": "https://dc.lft.to/lastmile_qr_scan", "android": "https://dc.lft.to/lastmile_qr_scan"}, "type": "electric_scooter", "lon": -76.9854045, "lat": 38.91295366666667, "fusion_lon": 0.0, "name": "0dc58500b2c6164a4218abaf90662eb9", "bike_id": "0dc58500b2c6164a4218abaf90662eb9", "is_reserved": 0, "fusion_lat": 0.0, "is_disabled": 0}, {"rental_uris": {"ios": "https://dc.lft.to/lastmile_qr_scan", "android": "https://dc.lft.to/lastmile_qr_scan"}, "type": "electric_scooter", "lon": -77.029349, "lat": 38.901461166666664, "fusion_lon": 0.0, "name": "dd03d9cbde3b052c00a1ace4adb094bd", "bike_id": "dd03d9cbde3b052c00a1ace4adb094bd", "is_reserved": 0, "fusion_lat": 0.0, "is_disabled": 0}, {"rental_uris": {"ios": "https://dc.lft.to/lastmile_qr_scan", "android": "https://dc.lft.to/lastmile_qr_scan"}, "type": "electric_scooter", "lon": -77.028282, "lat": 38.88705383333333, "fusion_lon": 0.0, "name": "a7c36bb12ddcaf916ad92f999f8079e3", "bike_id": "a7c36bb12ddcaf916ad92f999f8079e3", "is_reserved": 0, "fusion_lat": 0.0, "is_disabled": 0}, {"rental_uris": {"ios": "https://dc.lft.to/lastmile_qr_scan", "android": "https://dc.lft.to/lastmile_qr_scan"}, "type": "electric_scooter", "lon": -77.02417216666667, "lat": 38.92654316666667, "fusion_lon": 0.0, "name": "100b3ab01bf48bde3860ff91d855916d", "bike_id": "100b3ab01bf48bde3860ff91d855916d", "is_reserved": 0, "fusion_lat": 0.0, "is_disabled": 0}, {"rental_uris": {"ios": "https://dc.lft.to/lastmile_qr_scan", "android": "https://dc.lft.to/lastmile_qr_scan"}, "type": "electric_scooter", "lon": -77.02481566666667, "lat": 38.90320033333333, "fusion_lon": 0.0, "name": "64af9e5b16c7aa1ab7ed810ec7da1291", "bike_id": "64af9e5b16c7aa1ab7ed810ec7da1291", "is_reserved": 0, "fusion_lat": 0.0, "is_disabled": 0}, {"rental_uris": {"ios": "https://dc.lft.to/lastmile_qr_scan", "android": "https://dc.lft.to/lastmile_qr_scan"}, "type": "electric_scooter", "lon": -77.038177, "lat": 38.916988833333335, "fusion_lon": 0.0, "name": "e0a1fd6ecc36d8090059fedb519023a5", "bike_id": "e0a1fd6ecc36d8090059fedb519023a5", "is_reserved": 0, "fusion_lat": 0.0, "is_disabled": 0}, {"rental_uris": {"ios": "https://dc.lft.to/lastmile_qr_scan", "android": "https://dc.lft.to/lastmile_qr_scan"}, "type": "electric_scooter", "lon": -76.9989735, "lat": 38.9003035, "fusion_lon": 0.0, "name": "02604a0950fc9a9d40f7e94d2da3aaf2", "bike_id": "02604a0950fc9a9d40f7e94d2da3aaf2", "is_reserved": 0, "fusion_lat": 0.0, "is_disabled": 0}, {"rental_uris": {"ios": "https://dc.lft.to/lastmile_qr_scan", "android": "https://dc.lft.to/lastmile_qr_scan"}, "type": "electric_scooter", "lon": -77.021654, "lat": 38.89220266666667, "fusion_lon": 0.0, "name": "eddbc848d42ec6b7980f2040826c1925", "bike_id": "eddbc848d42ec6b7980f2040826c1925", "is_reserved": 0, "fusion_lat": 0.0, "is_disabled": 0}, {"rental_uris": {"ios": "https://dc.lft.to/lastmile_qr_scan", "android": "https://dc.lft.to/lastmile_qr_scan"}, "type": "electric_bike", "lon": -76.970686, "lat": 38.92062716666667, "fusion_lon": 0.0, "name": "0b64c77630bba3cca0bc7e951f0b212a", "bike_id": "0b64c77630bba3cca0bc7e951f0b212a", "is_reserved": 0, "fusion_lat": 0.0, "is_disabled": 0}, {"rental_uris": {"ios": "https://dc.lft.to/lastmile_qr_scan", "android": "https://dc.lft.to/lastmile_qr_scan"}, "type": "electric_scooter", "lon": -77.03226983333333, "lat": 38.93885933333333, "fusion_lon": 0.0, "name": "5ccd27564f4eb28b3f5c778b803a673d", "bike_id": "5ccd27564f4eb28b3f5c778b803a673d", "is_reserved": 0, "fusion_lat": 0.0, "is_disabled": 0}, {"rental_uris": {"ios": "https://dc.lft.to/lastmile_qr_scan", "android": "https://dc.lft.to/lastmile_qr_scan"}, "type": "electric_scooter", "lon": -77.043488, "lat": 38.89746983333333, "fusion_lon": 0.0, "name": "8fe8b01a1495aa1d2f4a9b5e512d1efc", "bike_id": "8fe8b01a1495aa1d2f4a9b5e512d1efc", "is_reserved": 0, "fusion_lat": 0.0, "is_disabled": 0}, {"rental_uris": {"ios": "https://dc.lft.to/lastmile_qr_scan", "android": "https://dc.lft.to/lastmile_qr_scan"}, "type": "electric_scooter", "lon": -77.02192916666667, "lat": 38.92483283333333, "fusion_lon": 0.0, "name": "6bfcddca4d2edf2bd5dfe4bd265a40a8", "bike_id": "6bfcddca4d2edf2bd5dfe4bd265a40a8", "is_reserved": 0, "fusion_lat": 0.0, "is_disabled": 0}, {"rental_uris": {"ios": "https://dc.lft.to/lastmile_qr_scan", "android": "https://dc.lft.to/lastmile_qr_scan"}, "type": "electric_scooter", "lon": -77.04324716666666, "lat": 38.908031333333334, "fusion_lon": 0.0, "name": "deb04d227cee44da60ae56d6abce5d0c", "bike_id": "deb04d227cee44da60ae56d6abce5d0c", "is_reserved": 0, "fusion_lat": 0.0, "is_disabled": 0}, {"rental_uris": {"ios": "https://dc.lft.to/lastmile_qr_scan", "android": "https://dc.lft.to/lastmile_qr_scan"}, "type": "electric_bike", "lon": -77.079668, "lat": 38.94755383333333, "fusion_lon": 0.0, "name": "4dc3494e2f9f24a892a7bc3c0cdbef73", "bike_id": "4dc3494e2f9f24a892a7bc3c0cdbef73", "is_reserved": 0, "fusion_lat": 0.0, "is_disabled": 0}, {"rental_uris": {"ios": "https://dc.lft.to/lastmile_qr_scan", "android": "https://dc.lft.to/lastmile_qr_scan"}, "type": "electric_scooter", "lon": -77.04534233333334, "lat": 38.913295, "fusion_lon": 0.0, "name": "f87972c343bf7e38ddd126316bff6efb", "bike_id": "f87972c343bf7e38ddd126316bff6efb", "is_reserved": 0, "fusion_lat": 0.0, "is_disabled": 0}, {"rental_uris": {"ios": "https://dc.lft.to/lastmile_qr_scan", "android": "https://dc.lft.to/lastmile_qr_scan"}, "type": "electric_scooter", "lon": -77.05430266666667, "lat": 38.92344033333333, "fusion_lon": 0.0, "name": "41661db25caf306a32b0a3436cd24cbe", "bike_id": "41661db25caf306a32b0a3436cd24cbe", "is_reserved": 0, "fusion_lat": 0.0, "is_disabled": 0}, {"rental_uris": {"ios": "https://dc.lft.to/lastmile_qr_scan", "android": "https://dc.lft.to/lastmile_qr_scan"}, "type": "electric_scooter", "lon": -77.0281355, "lat": 38.91658233333333, "fusion_lon": 0.0, "name": "b3ab0a9c4794cff248b4b97d8cd69b17", "bike_id": "b3ab0a9c4794cff248b4b97d8cd69b17", "is_reserved": 0, "fusion_lat": 0.0, "is_disabled": 0}, {"rental_uris": {"ios": "https://dc.lft.to/lastmile_qr_scan", "android": "https://dc.lft.to/lastmile_qr_scan"}, "type": "electric_scooter", "lon": -77.04999316666667, "lat": 38.8923325, "fusion_lon": 0.0, "name": "cb18d5b868fbf2c246ca03c0fbaab957", "bike_id": "cb18d5b868fbf2c246ca03c0fbaab957", "is_reserved": 0, "fusion_lat": 0.0, "is_disabled": 0}, {"rental_uris": {"ios": "https://dc.lft.to/lastmile_qr_scan", "android": "https://dc.lft.to/lastmile_qr_scan"}, "type": "electric_scooter", "lon": -77.04644683333333, "lat": 38.89223716666667, "fusion_lon": 0.0, "name": "a0bae4557c5e59c0a2578d8f038d7576", "bike_id": "a0bae4557c5e59c0a2578d8f038d7576", "is_reserved": 0, "fusion_lat": 0.0, "is_disabled": 0}, {"rental_uris": {"ios": "https://dc.lft.to/lastmile_qr_scan", "android": "https://dc.lft.to/lastmile_qr_scan"}, "type": "electric_scooter", "lon": -77.02171533333333, "lat": 38.887058, "fusion_lon": 0.0, "name": "1198bf5d141b24203db5e00d6ae7c5d8", "bike_id": "1198bf5d141b24203db5e00d6ae7c5d8", "is_reserved": 0, "fusion_lat": 0.0, "is_disabled": 0}, {"rental_uris": {"ios": "https://dc.lft.to/lastmile_qr_scan", "android": "https://dc.lft.to/lastmile_qr_scan"}, "type": "electric_scooter", "lon": -77.02704616666666, "lat": 38.902718166666666, "fusion_lon": 0.0, "name": "183c0fc4152c5553beec605a5a0dc623", "bike_id": "183c0fc4152c5553beec605a5a0dc623", "is_reserved": 0, "fusion_lat": 0.0, "is_disabled": 0}, {"rental_uris": {"ios": "https://dc.lft.to/lastmile_qr_scan", "android": "https://dc.lft.to/lastmile_qr_scan"}, "type": "electric_scooter", "lon": -77.03194533333334, "lat": 38.919009833333334, "fusion_lon": 0.0, "name": "eac4f224d166da4e2e218eff11ff241e", "bike_id": "eac4f224d166da4e2e218eff11ff241e", "is_reserved": 0, "fusion_lat": 0.0, "is_disabled": 0}, {"rental_uris": {"ios": "https://dc.lft.to/lastmile_qr_scan", "android": "https://dc.lft.to/lastmile_qr_scan"}, "type": "electric_scooter", "lon": -77.048098, "lat": 38.895931833333336, "fusion_lon": 0.0, "name": "8e3b94e6824baf717e1a8c0528cb49a6", "bike_id": "8e3b94e6824baf717e1a8c0528cb49a6", "is_reserved": 0, "fusion_lat": 0.0, "is_disabled": 0}, {"rental_uris": {"ios": "https://dc.lft.to/lastmile_qr_scan", "android": "https://dc.lft.to/lastmile_qr_scan"}, "type": "electric_scooter", "lon": -77.04643916666667, "lat": 38.89219933333333, "fusion_lon": 0.0, "name": "225215f42690fa67b3646d5d39b405db", "bike_id": "225215f42690fa67b3646d5d39b405db", "is_reserved": 0, "fusion_lat": 0.0, "is_disabled": 0}, {"rental_uris": {"ios": "https://dc.lft.to/lastmile_qr_scan", "android": "https://dc.lft.to/lastmile_qr_scan"}, "type": "electric_bike", "lon": -76.93448116666667, "lat": 38.90844233333333, "fusion_lon": 0.0, "name": "5dc8676da6f53eaccabb9a0563101f5d", "bike_id": "5dc8676da6f53eaccabb9a0563101f5d", "is_reserved": 0, "fusion_lat": 0.0, "is_disabled": 0}, {"rental_uris": {"ios": "https://dc.lft.to/lastmile_qr_scan", "android": "https://dc.lft.to/lastmile_qr_scan"}, "type": "electric_scooter", "lon": -77.02292766666666, "lat": 38.91683833333333, "fusion_lon": 0.0, "name": "17c277d9a3fc62b1ceb9999626a0801f", "bike_id": "17c277d9a3fc62b1ceb9999626a0801f", "is_reserved": 0, "fusion_lat": 0.0, "is_disabled": 0}, {"rental_uris": {"ios": "https://dc.lft.to/lastmile_qr_scan", "android": "https://dc.lft.to/lastmile_qr_scan"}, "type": "electric_scooter", "lon": -77.02133266666667, "lat": 38.924255333333335, "fusion_lon": 0.0, "name": "8967b8697812d038fe0c748d1114e1f5", "bike_id": "8967b8697812d038fe0c748d1114e1f5", "is_reserved": 0, "fusion_lat": 0.0, "is_disabled": 0}, {"rental_uris": {"ios": "https://dc.lft.to/lastmile_qr_scan", "android": "https://dc.lft.to/lastmile_qr_scan"}, "type": "electric_scooter", "lon": -76.99795116666667, "lat": 38.93227533333334, "fusion_lon": 0.0, "name": "5da99f5972a11b1dae5664bcbd6642ba", "bike_id": "5da99f5972a11b1dae5664bcbd6642ba", "is_reserved": 0, "fusion_lat": 0.0, "is_disabled": 0}, {"rental_uris": {"ios": "https://dc.lft.to/lastmile_qr_scan", "android": "https://dc.lft.to/lastmile_qr_scan"}, "type": "electric_scooter", "lon": -77.02149566666667, "lat": 38.9213175, "fusion_lon": 0.0, "name": "466e0c4326677585ce407e8c5a05af5f", "bike_id": "466e0c4326677585ce407e8c5a05af5f", "is_reserved": 0, "fusion_lat": 0.0, "is_disabled": 0}, {"rental_uris": {"ios": "https://dc.lft.to/lastmile_qr_scan", "android": "https://dc.lft.to/lastmile_qr_scan"}, "type": "electric_scooter", "lon": -77.03035566666667, "lat": 38.8960565, "fusion_lon": 0.0, "name": "b524cd0e706b006beae11f691088bdd1", "bike_id": "b524cd0e706b006beae11f691088bdd1", "is_reserved": 0, "fusion_lat": 0.0, "is_disabled": 0}, {"rental_uris": {"ios": "https://dc.lft.to/lastmile_qr_scan", "android": "https://dc.lft.to/lastmile_qr_scan"}, "type": "electric_scooter", "lon": -77.03985066666667, "lat": 38.896374333333334, "fusion_lon": 0.0, "name": "1c902b5c34e06e5f0aebc265377b42dc", "bike_id": "1c902b5c34e06e5f0aebc265377b42dc", "is_reserved": 0, "fusion_lat": 0.0, "is_disabled": 0}, {"rental_uris": {"ios": "https://dc.lft.to/lastmile_qr_scan", "android": "https://dc.lft.to/lastmile_qr_scan"}, "type": "electric_bike", "lon": -76.986065, "lat": 38.8544915, "fusion_lon": 0.0, "name": "512ea684daef0a47c31d75628219b028", "bike_id": "512ea684daef0a47c31d75628219b028", "is_reserved": 0, "fusion_lat": 0.0, "is_disabled": 0}, {"rental_uris": {"ios": "https://dc.lft.to/lastmile_qr_scan", "android": "https://dc.lft.to/lastmile_qr_scan"}, "type": "electric_scooter", "lon": -77.02696166666666, "lat": 38.92399866666667, "fusion_lon": 0.0, "name": "dd72156c5a5632fa0c7a05400f0d6d22", "bike_id": "dd72156c5a5632fa0c7a05400f0d6d22", "is_reserved": 0, "fusion_lat": 0.0, "is_disabled": 0}, {"rental_uris": {"ios": "https://dc.lft.to/lastmile_qr_scan", "android": "https://dc.lft.to/lastmile_qr_scan"}, "type": "electric_scooter", "lon": -76.97366816666667, "lat": 38.903986333333336, "fusion_lon": 0.0, "name": "8d01a736001a8e9754c4a0c2a15a145e", "bike_id": "8d01a736001a8e9754c4a0c2a15a145e", "is_reserved": 0, "fusion_lat": 0.0, "is_disabled": 0}, {"rental_uris": {"ios": "https://dc.lft.to/lastmile_qr_scan", "android": "https://dc.lft.to/lastmile_qr_scan"}, "type": "electric_scooter", "lon": -77.046097, "lat": 38.8982945, "fusion_lon": 0.0, "name": "d562de211b2055cd8395f8b4628636d3", "bike_id": "d562de211b2055cd8395f8b4628636d3", "is_reserved": 0, "fusion_lat": 0.0, "is_disabled": 0}, {"rental_uris": {"ios": "https://dc.lft.to/lastmile_qr_scan", "android": "https://dc.lft.to/lastmile_qr_scan"}, "type": "electric_scooter", "lon": -76.99663366666667, "lat": 38.878639166666666, "fusion_lon": 0.0, "name": "dd6b61cd8ec8001b16675c322bc38579", "bike_id": "dd6b61cd8ec8001b16675c322bc38579", "is_reserved": 0, "fusion_lat": 0.0, "is_disabled": 0}, {"rental_uris": {"ios": "https://dc.lft.to/lastmile_qr_scan", "android": "https://dc.lft.to/lastmile_qr_scan"}, "type": "electric_scooter", "lon": -77.02981433333333, "lat": 38.90579966666667, "fusion_lon": 0.0, "name": "d99671a7b87f2449b295dc1e37ff96c0", "bike_id": "d99671a7b87f2449b295dc1e37ff96c0", "is_reserved": 0, "fusion_lat": 0.0, "is_disabled": 0}, {"rental_uris": {"ios": "https://dc.lft.to/lastmile_qr_scan", "android": "https://dc.lft.to/lastmile_qr_scan"}, "type": "electric_scooter", "lon": -76.97328566666667, "lat": 38.904086166666666, "fusion_lon": 0.0, "name": "0f37f53978815241aac14fc036570dc7", "bike_id": "0f37f53978815241aac14fc036570dc7", "is_reserved": 0, "fusion_lat": 0.0, "is_disabled": 0}, {"rental_uris": {"ios": "https://dc.lft.to/lastmile_qr_scan", "android": "https://dc.lft.to/lastmile_qr_scan"}, "type": "electric_scooter", "lon": -77.03547266666666, "lat": 38.92381016666667, "fusion_lon": 0.0, "name": "2b2dedd80b4db7dec4e9816003bfd3ba", "bike_id": "2b2dedd80b4db7dec4e9816003bfd3ba", "is_reserved": 0, "fusion_lat": 0.0, "is_disabled": 0}, {"rental_uris": {"ios": "https://dc.lft.to/lastmile_qr_scan", "android": "https://dc.lft.to/lastmile_qr_scan"}, "type": "electric_scooter", "lon": -77.0139535, "lat": 38.91947916666667, "fusion_lon": 0.0, "name": "b03532bafc2c7e1a0179d7d24f8cc995", "bike_id": "b03532bafc2c7e1a0179d7d24f8cc995", "is_reserved": 0, "fusion_lat": 0.0, "is_disabled": 0}, {"rental_uris": {"ios": "https://dc.lft.to/lastmile_qr_scan", "android": "https://dc.lft.to/lastmile_qr_scan"}, "type": "electric_scooter", "lon": -77.0265815, "lat": 38.8946415, "fusion_lon": 0.0, "name": "b543dafb4553e9f70d5fd1b4dc07f8e9", "bike_id": "b543dafb4553e9f70d5fd1b4dc07f8e9", "is_reserved": 0, "fusion_lat": 0.0, "is_disabled": 0}, {"rental_uris": {"ios": "https://dc.lft.to/lastmile_qr_scan", "android": "https://dc.lft.to/lastmile_qr_scan"}, "type": "electric_scooter", "lon": -76.98478583333333, "lat": 38.902513166666665, "fusion_lon": 0.0, "name": "eb0b0a941fc3589c97b1605fa7686b1f", "bike_id": "eb0b0a941fc3589c97b1605fa7686b1f", "is_reserved": 0, "fusion_lat": 0.0, "is_disabled": 0}, {"rental_uris": {"ios": "https://dc.lft.to/lastmile_qr_scan", "android": "https://dc.lft.to/lastmile_qr_scan"}, "type": "electric_scooter", "lon": -77.044905, "lat": 38.9051125, "fusion_lon": 0.0, "name": "f61718afac42771d54be4aa1ec34cd58", "bike_id": "f61718afac42771d54be4aa1ec34cd58", "is_reserved": 0, "fusion_lat": 0.0, "is_disabled": 0}, {"rental_uris": {"ios": "https://dc.lft.to/lastmile_qr_scan", "android": "https://dc.lft.to/lastmile_qr_scan"}, "type": "electric_scooter", "lon": -76.964439, "lat": 38.93457433333333, "fusion_lon": 0.0, "name": "8fca4407de98d9948e933cbf54f2a615", "bike_id": "8fca4407de98d9948e933cbf54f2a615", "is_reserved": 0, "fusion_lat": 0.0, "is_disabled": 0}, {"rental_uris": {"ios": "https://dc.lft.to/lastmile_qr_scan", "android": "https://dc.lft.to/lastmile_qr_scan"}, "type": "electric_bike", "lon": -76.96973016666666, "lat": 38.845858166666666, "fusion_lon": 0.0, "name": "74342b2c91a871f144b23feba795c7a0", "bike_id": "74342b2c91a871f144b23feba795c7a0", "is_reserved": 0, "fusion_lat": 0.0, "is_disabled": 0}, {"rental_uris": {"ios": "https://dc.lft.to/lastmile_qr_scan", "android": "https://dc.lft.to/lastmile_qr_scan"}, "type": "electric_scooter", "lon": -77.00720866666667, "lat": 38.9155705, "fusion_lon": 0.0, "name": "5a975be6058481b3b4db28c3d58c3e0f", "bike_id": "5a975be6058481b3b4db28c3d58c3e0f", "is_reserved": 0, "fusion_lat": 0.0, "is_disabled": 0}, {"rental_uris": {"ios": "https://dc.lft.to/lastmile_qr_scan", "android": "https://dc.lft.to/lastmile_qr_scan"}, "type": "electric_scooter", "lon": -77.04006716666666, "lat": 38.90589533333333, "fusion_lon": 0.0, "name": "3d42e2f606fd00420c230b3f2cc7d130", "bike_id": "3d42e2f606fd00420c230b3f2cc7d130", "is_reserved": 0, "fusion_lat": 0.0, "is_disabled": 0}, {"rental_uris": {"ios": "https://dc.lft.to/lastmile_qr_scan", "android": "https://dc.lft.to/lastmile_qr_scan"}, "type": "electric_scooter", "lon": -77.04126433333333, "lat": 38.92492333333333, "fusion_lon": 0.0, "name": "31c4a9ea463c9b6a9a1d6c87d5ddbf05", "bike_id": "31c4a9ea463c9b6a9a1d6c87d5ddbf05", "is_reserved": 0, "fusion_lat": 0.0, "is_disabled": 0}, {"rental_uris": {"ios": "https://dc.lft.to/lastmile_qr_scan", "android": "https://dc.lft.to/lastmile_qr_scan"}, "type": "electric_scooter", "lon": -77.0334225, "lat": 38.902754, "fusion_lon": 0.0, "name": "9e8ee48a99ccedc274fc58ebf25e13e5", "bike_id": "9e8ee48a99ccedc274fc58ebf25e13e5", "is_reserved": 0, "fusion_lat": 0.0, "is_disabled": 0}, {"rental_uris": {"ios": "https://dc.lft.to/lastmile_qr_scan", "android": "https://dc.lft.to/lastmile_qr_scan"}, "type": "electric_scooter", "lon": -77.03653266666667, "lat": 38.94176983333333, "fusion_lon": 0.0, "name": "b643b64ea0d99bbc73827ba4c6a7913b", "bike_id": "b643b64ea0d99bbc73827ba4c6a7913b", "is_reserved": 0, "fusion_lat": 0.0, "is_disabled": 0}, {"rental_uris": {"ios": "https://dc.lft.to/lastmile_qr_scan", "android": "https://dc.lft.to/lastmile_qr_scan"}, "type": "electric_scooter", "lon": -77.06139733333333, "lat": 38.941087333333336, "fusion_lon": 0.0, "name": "5bd28ee878e45a33c24edf5a5dc56663", "bike_id": "5bd28ee878e45a33c24edf5a5dc56663", "is_reserved": 0, "fusion_lat": 0.0, "is_disabled": 0}, {"rental_uris": {"ios": "https://dc.lft.to/lastmile_qr_scan", "android": "https://dc.lft.to/lastmile_qr_scan"}, "type": "electric_scooter", "lon": -77.03778916666667, "lat": 38.9200245, "fusion_lon": 0.0, "name": "12c43600df1e5d5d009d16af03e8b11f", "bike_id": "12c43600df1e5d5d009d16af03e8b11f", "is_reserved": 0, "fusion_lat": 0.0, "is_disabled": 0}, {"rental_uris": {"ios": "https://dc.lft.to/lastmile_qr_scan", "android": "https://dc.lft.to/lastmile_qr_scan"}, "type": "electric_scooter", "lon": -77.07270183333333, "lat": 38.90899733333333, "fusion_lon": 0.0, "name": "9bd781649d607fff0c96de3c7a384ffc", "bike_id": "9bd781649d607fff0c96de3c7a384ffc", "is_reserved": 0, "fusion_lat": 0.0, "is_disabled": 0}, {"rental_uris": {"ios": "https://dc.lft.to/lastmile_qr_scan", "android": "https://dc.lft.to/lastmile_qr_scan"}, "type": "electric_scooter", "lon": -77.0308265, "lat": 38.92792933333333, "fusion_lon": 0.0, "name": "42d8ab4e9eb4a93784fb67079c399d07", "bike_id": "42d8ab4e9eb4a93784fb67079c399d07", "is_reserved": 0, "fusion_lat": 0.0, "is_disabled": 0}, {"rental_uris": {"ios": "https://dc.lft.to/lastmile_qr_scan", "android": "https://dc.lft.to/lastmile_qr_scan"}, "type": "electric_scooter", "lon": -77.0296035, "lat": 38.923802333333335, "fusion_lon": 0.0, "name": "464034bb096d132ecc5ad1b4147b5fac", "bike_id": "464034bb096d132ecc5ad1b4147b5fac", "is_reserved": 0, "fusion_lat": 0.0, "is_disabled": 0}, {"rental_uris": {"ios": "https://dc.lft.to/lastmile_qr_scan", "android": "https://dc.lft.to/lastmile_qr_scan"}, "type": "electric_scooter", "lon": -76.9979425, "lat": 38.874937333333335, "fusion_lon": 0.0, "name": "3c28959f342abcb94b0075f69f0d1793", "bike_id": "3c28959f342abcb94b0075f69f0d1793", "is_reserved": 0, "fusion_lat": 0.0, "is_disabled": 0}, {"rental_uris": {"ios": "https://dc.lft.to/lastmile_qr_scan", "android": "https://dc.lft.to/lastmile_qr_scan"}, "type": "electric_scooter", "lon": -77.03557983333333, "lat": 38.903806333333335, "fusion_lon": 0.0, "name": "ecbda31cdd0824c8ab7f23b4811d1120", "bike_id": "ecbda31cdd0824c8ab7f23b4811d1120", "is_reserved": 0, "fusion_lat": 0.0, "is_disabled": 0}, {"rental_uris": {"ios": "https://dc.lft.to/lastmile_qr_scan", "android": "https://dc.lft.to/lastmile_qr_scan"}, "type": "electric_scooter", "lon": -77.03289466666666, "lat": 38.96405466666667, "fusion_lon": 0.0, "name": "730dcadd0d45ac1998752db466ffa171", "bike_id": "730dcadd0d45ac1998752db466ffa171", "is_reserved": 0, "fusion_lat": 0.0, "is_disabled": 0}, {"rental_uris": {"ios": "https://dc.lft.to/lastmile_qr_scan", "android": "https://dc.lft.to/lastmile_qr_scan"}, "type": "electric_scooter", "lon": -77.0340115, "lat": 38.92394933333333, "fusion_lon": 0.0, "name": "89d0ee5e5bcc56a88212fda8635172cc", "bike_id": "89d0ee5e5bcc56a88212fda8635172cc", "is_reserved": 0, "fusion_lat": 0.0, "is_disabled": 0}, {"rental_uris": {"ios": "https://dc.lft.to/lastmile_qr_scan", "android": "https://dc.lft.to/lastmile_qr_scan"}, "type": "electric_scooter", "lon": -77.02307966666666, "lat": 38.89492116666667, "fusion_lon": 0.0, "name": "214d156965e6884e505029768216cdc0", "bike_id": "214d156965e6884e505029768216cdc0", "is_reserved": 0, "fusion_lat": 0.0, "is_disabled": 0}, {"rental_uris": {"ios": "https://dc.lft.to/lastmile_qr_scan", "android": "https://dc.lft.to/lastmile_qr_scan"}, "type": "electric_scooter", "lon": -77.03027283333333, "lat": 38.902394, "fusion_lon": 0.0, "name": "95c80bd873c9cde274f74f893e0c1861", "bike_id": "95c80bd873c9cde274f74f893e0c1861", "is_reserved": 0, "fusion_lat": 0.0, "is_disabled": 0}, {"rental_uris": {"ios": "https://dc.lft.to/lastmile_qr_scan", "android": "https://dc.lft.to/lastmile_qr_scan"}, "type": "electric_scooter", "lon": -77.04752033333334, "lat": 38.90076216666667, "fusion_lon": 0.0, "name": "56af1710ce42eb9e85caa86a2ca48311", "bike_id": "56af1710ce42eb9e85caa86a2ca48311", "is_reserved": 0, "fusion_lat": 0.0, "is_disabled": 0}, {"rental_uris": {"ios": "https://dc.lft.to/lastmile_qr_scan", "android": "https://dc.lft.to/lastmile_qr_scan"}, "type": "electric_scooter", "lon": -77.0385155, "lat": 38.93246883333333, "fusion_lon": 0.0, "name": "c0557408a9e424f6509deb056a63d50f", "bike_id": "c0557408a9e424f6509deb056a63d50f", "is_reserved": 0, "fusion_lat": 0.0, "is_disabled": 0}, {"rental_uris": {"ios": "https://dc.lft.to/lastmile_qr_scan", "android": "https://dc.lft.to/lastmile_qr_scan"}, "type": "electric_scooter", "lon": -77.02967916666667, "lat": 38.92687683333333, "fusion_lon": 0.0, "name": "10b3dc6725f34514912036c557cc0a8b", "bike_id": "10b3dc6725f34514912036c557cc0a8b", "is_reserved": 0, "fusion_lat": 0.0, "is_disabled": 0}, {"rental_uris": {"ios": "https://dc.lft.to/lastmile_qr_scan", "android": "https://dc.lft.to/lastmile_qr_scan"}, "type": "electric_scooter", "lon": -77.02034233333333, "lat": 38.924185, "fusion_lon": 0.0, "name": "a24559cba2921c553febbf1bd885138f", "bike_id": "a24559cba2921c553febbf1bd885138f", "is_reserved": 0, "fusion_lat": 0.0, "is_disabled": 0}, {"rental_uris": {"ios": "https://dc.lft.to/lastmile_qr_scan", "android": "https://dc.lft.to/lastmile_qr_scan"}, "type": "electric_scooter", "lon": -77.03454116666667, "lat": 38.906661, "fusion_lon": 0.0, "name": "45aeb2f680843e727c741a911c0cbefe", "bike_id": "45aeb2f680843e727c741a911c0cbefe", "is_reserved": 0, "fusion_lat": 0.0, "is_disabled": 0}, {"rental_uris": {"ios": "https://dc.lft.to/lastmile_qr_scan", "android": "https://dc.lft.to/lastmile_qr_scan"}, "type": "electric_scooter", "lon": -77.02278583333333, "lat": 38.92821633333333, "fusion_lon": 0.0, "name": "f640881a22fa80a339cab69c9ae603df", "bike_id": "f640881a22fa80a339cab69c9ae603df", "is_reserved": 0, "fusion_lat": 0.0, "is_disabled": 0}, {"rental_uris": {"ios": "https://dc.lft.to/lastmile_qr_scan", "android": "https://dc.lft.to/lastmile_qr_scan"}, "type": "electric_scooter", "lon": -77.02373616666667, "lat": 38.90218333333333, "fusion_lon": 0.0, "name": "70fd8443bfb8dbc8adfb96a185bd9e5d", "bike_id": "70fd8443bfb8dbc8adfb96a185bd9e5d", "is_reserved": 0, "fusion_lat": 0.0, "is_disabled": 0}, {"rental_uris": {"ios": "https://dc.lft.to/lastmile_qr_scan", "android": "https://dc.lft.to/lastmile_qr_scan"}, "type": "electric_bike", "lon": -77.1104265, "lat": 38.870681166666664, "fusion_lon": 0.0, "name": "41bfa54b83afc8eb62427940f4c5615e", "bike_id": "41bfa54b83afc8eb62427940f4c5615e", "is_reserved": 0, "fusion_lat": 0.0, "is_disabled": 0}, {"rental_uris": {"ios": "https://dc.lft.to/lastmile_qr_scan", "android": "https://dc.lft.to/lastmile_qr_scan"}, "type": "electric_scooter", "lon": -77.037316, "lat": 38.9171015, "fusion_lon": 0.0, "name": "abc91ec7b2ffedf8e0babdb20caf57be", "bike_id": "abc91ec7b2ffedf8e0babdb20caf57be", "is_reserved": 0, "fusion_lat": 0.0, "is_disabled": 0}, {"rental_uris": {"ios": "https://dc.lft.to/lastmile_qr_scan", "android": "https://dc.lft.to/lastmile_qr_scan"}, "type": "electric_scooter", "lon": -77.0435035, "lat": 38.9040205, "fusion_lon": 0.0, "name": "e1a45ce51967c266cf31a4d0a2db7717", "bike_id": "e1a45ce51967c266cf31a4d0a2db7717", "is_reserved": 0, "fusion_lat": 0.0, "is_disabled": 0}, {"rental_uris": {"ios": "https://dc.lft.to/lastmile_qr_scan", "android": "https://dc.lft.to/lastmile_qr_scan"}, "type": "electric_scooter", "lon": -77.00924283333333, "lat": 38.899799333333334, "fusion_lon": 0.0, "name": "c1c545e174c4879ed8c22769afc19ebe", "bike_id": "c1c545e174c4879ed8c22769afc19ebe", "is_reserved": 0, "fusion_lat": 0.0, "is_disabled": 0}, {"rental_uris": {"ios": "https://dc.lft.to/lastmile_qr_scan", "android": "https://dc.lft.to/lastmile_qr_scan"}, "type": "electric_scooter", "lon": -77.03530033333334, "lat": 38.92148683333333, "fusion_lon": 0.0, "name": "9eb1eceb9424685e0a45ed37bca45ea6", "bike_id": "9eb1eceb9424685e0a45ed37bca45ea6", "is_reserved": 0, "fusion_lat": 0.0, "is_disabled": 0}, {"rental_uris": {"ios": "https://dc.lft.to/lastmile_qr_scan", "android": "https://dc.lft.to/lastmile_qr_scan"}, "type": "electric_scooter", "lon": -77.0064655, "lat": 38.87184966666667, "fusion_lon": 0.0, "name": "62383fbc7fdb8f853d2cd3b061e213e3", "bike_id": "62383fbc7fdb8f853d2cd3b061e213e3", "is_reserved": 0, "fusion_lat": 0.0, "is_disabled": 0}, {"rental_uris": {"ios": "https://dc.lft.to/lastmile_qr_scan", "android": "https://dc.lft.to/lastmile_qr_scan"}, "type": "electric_scooter", "lon": -77.03187633333333, "lat": 38.909114333333335, "fusion_lon": 0.0, "name": "f7d6c8939cf90e062da184815229e62c", "bike_id": "f7d6c8939cf90e062da184815229e62c", "is_reserved": 0, "fusion_lat": 0.0, "is_disabled": 0}, {"rental_uris": {"ios": "https://dc.lft.to/lastmile_qr_scan", "android": "https://dc.lft.to/lastmile_qr_scan"}, "type": "electric_bike", "lon": -77.04448583333334, "lat": 39.0254085, "fusion_lon": 0.0, "name": "31b389f4e8b75c5a219d7b1af36d39dd", "bike_id": "31b389f4e8b75c5a219d7b1af36d39dd", "is_reserved": 0, "fusion_lat": 0.0, "is_disabled": 0}, {"rental_uris": {"ios": "https://dc.lft.to/lastmile_qr_scan", "android": "https://dc.lft.to/lastmile_qr_scan"}, "type": "electric_scooter", "lon": -77.0406215, "lat": 38.8989885, "fusion_lon": 0.0, "name": "8e8373f293f2f7f0c791d799aa9e46f8", "bike_id": "8e8373f293f2f7f0c791d799aa9e46f8", "is_reserved": 0, "fusion_lat": 0.0, "is_disabled": 0}, {"rental_uris": {"ios": "https://dc.lft.to/lastmile_qr_scan", "android": "https://dc.lft.to/lastmile_qr_scan"}, "type": "electric_scooter", "lon": -77.043651, "lat": 38.91118633333333, "fusion_lon": 0.0, "name": "b8a00b940ae65c9db2d2522fee449ff4", "bike_id": "b8a00b940ae65c9db2d2522fee449ff4", "is_reserved": 0, "fusion_lat": 0.0, "is_disabled": 0}, {"rental_uris": {"ios": "https://dc.lft.to/lastmile_qr_scan", "android": "https://dc.lft.to/lastmile_qr_scan"}, "type": "electric_scooter", "lon": -77.04640316666666, "lat": 38.895014, "fusion_lon": 0.0, "name": "d9694f1135deea94e04e012a92050775", "bike_id": "d9694f1135deea94e04e012a92050775", "is_reserved": 0, "fusion_lat": 0.0, "is_disabled": 0}, {"rental_uris": {"ios": "https://dc.lft.to/lastmile_qr_scan", "android": "https://dc.lft.to/lastmile_qr_scan"}, "type": "electric_scooter", "lon": -77.02062066666667, "lat": 38.899906666666666, "fusion_lon": 0.0, "name": "4564b540266868fe02593401331ffaef", "bike_id": "4564b540266868fe02593401331ffaef", "is_reserved": 0, "fusion_lat": 0.0, "is_disabled": 0}, {"rental_uris": {"ios": "https://dc.lft.to/lastmile_qr_scan", "android": "https://dc.lft.to/lastmile_qr_scan"}, "type": "electric_scooter", "lon": -77.0425105, "lat": 38.920684666666666, "fusion_lon": 0.0, "name": "831ab86ea6c03480f814be57a2302ccf", "bike_id": "831ab86ea6c03480f814be57a2302ccf", "is_reserved": 0, "fusion_lat": 0.0, "is_disabled": 0}, {"rental_uris": {"ios": "https://dc.lft.to/lastmile_qr_scan", "android": "https://dc.lft.to/lastmile_qr_scan"}, "type": "electric_scooter", "lon": -76.97574666666667, "lat": 38.897506, "fusion_lon": 0.0, "name": "6a6e4846c2ff0bee9f74e1423fc352bf", "bike_id": "6a6e4846c2ff0bee9f74e1423fc352bf", "is_reserved": 0, "fusion_lat": 0.0, "is_disabled": 0}, {"rental_uris": {"ios": "https://dc.lft.to/lastmile_qr_scan", "android": "https://dc.lft.to/lastmile_qr_scan"}, "type": "electric_scooter", "lon": -77.014178, "lat": 38.928209833333334, "fusion_lon": 0.0, "name": "266cbc6651d616cb3e1fdf3c749c37a5", "bike_id": "266cbc6651d616cb3e1fdf3c749c37a5", "is_reserved": 0, "fusion_lat": 0.0, "is_disabled": 0}, {"rental_uris": {"ios": "https://dc.lft.to/lastmile_qr_scan", "android": "https://dc.lft.to/lastmile_qr_scan"}, "type": "electric_scooter", "lon": -77.03677133333333, "lat": 38.923241, "fusion_lon": 0.0, "name": "044c27e44eb2d27d69cea96936187064", "bike_id": "044c27e44eb2d27d69cea96936187064", "is_reserved": 0, "fusion_lat": 0.0, "is_disabled": 0}, {"rental_uris": {"ios": "https://dc.lft.to/lastmile_qr_scan", "android": "https://dc.lft.to/lastmile_qr_scan"}, "type": "electric_scooter", "lon": -77.02663716666666, "lat": 38.92213116666667, "fusion_lon": 0.0, "name": "bc95ab7580ab868496c4956bb3f38ac6", "bike_id": "bc95ab7580ab868496c4956bb3f38ac6", "is_reserved": 0, "fusion_lat": 0.0, "is_disabled": 0}, {"rental_uris": {"ios": "https://dc.lft.to/lastmile_qr_scan", "android": "https://dc.lft.to/lastmile_qr_scan"}, "type": "electric_bike", "lon": -76.9867475, "lat": 38.899628, "fusion_lon": 0.0, "name": "516c54100381d9469663621e7bb84428", "bike_id": "516c54100381d9469663621e7bb84428", "is_reserved": 0, "fusion_lat": 0.0, "is_disabled": 0}, {"rental_uris": {"ios": "https://dc.lft.to/lastmile_qr_scan", "android": "https://dc.lft.to/lastmile_qr_scan"}, "type": "electric_scooter", "lon": -77.04612733333333, "lat": 38.9024035, "fusion_lon": 0.0, "name": "af3425660b9c29aa314b867f252815b6", "bike_id": "af3425660b9c29aa314b867f252815b6", "is_reserved": 0, "fusion_lat": 0.0, "is_disabled": 0}, {"rental_uris": {"ios": "https://dc.lft.to/lastmile_qr_scan", "android": "https://dc.lft.to/lastmile_qr_scan"}, "type": "electric_scooter", "lon": -77.04394516666666, "lat": 38.921157, "fusion_lon": 0.0, "name": "3b666d3925d71ae97f99e959adf9779b", "bike_id": "3b666d3925d71ae97f99e959adf9779b", "is_reserved": 0, "fusion_lat": 0.0, "is_disabled": 0}, {"rental_uris": {"ios": "https://dc.lft.to/lastmile_qr_scan", "android": "https://dc.lft.to/lastmile_qr_scan"}, "type": "electric_scooter", "lon": -76.9260225, "lat": 38.8845675, "fusion_lon": 0.0, "name": "f729ae557736b67695387573a1e95382", "bike_id": "f729ae557736b67695387573a1e95382", "is_reserved": 0, "fusion_lat": 0.0, "is_disabled": 0}, {"rental_uris": {"ios": "https://dc.lft.to/lastmile_qr_scan", "android": "https://dc.lft.to/lastmile_qr_scan"}, "type": "electric_scooter", "lon": -77.02166033333333, "lat": 38.8921905, "fusion_lon": 0.0, "name": "c21e7e358be2a869c8acc9179b39f487", "bike_id": "c21e7e358be2a869c8acc9179b39f487", "is_reserved": 0, "fusion_lat": 0.0, "is_disabled": 0}, {"rental_uris": {"ios": "https://dc.lft.to/lastmile_qr_scan", "android": "https://dc.lft.to/lastmile_qr_scan"}, "type": "electric_scooter", "lon": -77.05842666666666, "lat": 38.93589433333333, "fusion_lon": 0.0, "name": "d9581ab98e1d1c4c554450917597c825", "bike_id": "d9581ab98e1d1c4c554450917597c825", "is_reserved": 0, "fusion_lat": 0.0, "is_disabled": 0}, {"rental_uris": {"ios": "https://dc.lft.to/lastmile_qr_scan", "android": "https://dc.lft.to/lastmile_qr_scan"}, "type": "electric_scooter", "lon": -76.94980966666667, "lat": 38.90163783333333, "fusion_lon": 0.0, "name": "df73b02bc4db6053fd10dac49b158c71", "bike_id": "df73b02bc4db6053fd10dac49b158c71", "is_reserved": 0, "fusion_lat": 0.0, "is_disabled": 0}, {"rental_uris": {"ios": "https://dc.lft.to/lastmile_qr_scan", "android": "https://dc.lft.to/lastmile_qr_scan"}, "type": "electric_scooter", "lon": -77.00351783333333, "lat": 38.91106283333333, "fusion_lon": 0.0, "name": "51f4fd6ad1b2e6313db82f42c79519c3", "bike_id": "51f4fd6ad1b2e6313db82f42c79519c3", "is_reserved": 0, "fusion_lat": 0.0, "is_disabled": 0}, {"rental_uris": {"ios": "https://dc.lft.to/lastmile_qr_scan", "android": "https://dc.lft.to/lastmile_qr_scan"}, "type": "electric_scooter", "lon": -77.01256283333333, "lat": 38.901833, "fusion_lon": 0.0, "name": "dadd37068c70e5ae8a7bc2c2d8f38a5d", "bike_id": "dadd37068c70e5ae8a7bc2c2d8f38a5d", "is_reserved": 0, "fusion_lat": 0.0, "is_disabled": 0}, {"rental_uris": {"ios": "https://dc.lft.to/lastmile_qr_scan", "android": "https://dc.lft.to/lastmile_qr_scan"}, "type": "electric_bike", "lon": -77.0902405, "lat": 38.92649316666667, "fusion_lon": 0.0, "name": "e72f2b2b1a2a1658850e303bc79411fb", "bike_id": "e72f2b2b1a2a1658850e303bc79411fb", "is_reserved": 0, "fusion_lat": 0.0, "is_disabled": 0}, {"rental_uris": {"ios": "https://dc.lft.to/lastmile_qr_scan", "android": "https://dc.lft.to/lastmile_qr_scan"}, "type": "electric_scooter", "lon": -77.028924, "lat": 38.9169325, "fusion_lon": 0.0, "name": "062188bf35cffb52c3901f17b6bd369b", "bike_id": "062188bf35cffb52c3901f17b6bd369b", "is_reserved": 0, "fusion_lat": 0.0, "is_disabled": 0}, {"rental_uris": {"ios": "https://dc.lft.to/lastmile_qr_scan", "android": "https://dc.lft.to/lastmile_qr_scan"}, "type": "electric_scooter", "lon": -77.07273883333333, "lat": 38.9091035, "fusion_lon": 0.0, "name": "0297d2414c2b43f6de84e88a9f5535a0", "bike_id": "0297d2414c2b43f6de84e88a9f5535a0", "is_reserved": 0, "fusion_lat": 0.0, "is_disabled": 0}, {"rental_uris": {"ios": "https://dc.lft.to/lastmile_qr_scan", "android": "https://dc.lft.to/lastmile_qr_scan"}, "type": "electric_scooter", "lon": -77.02133716666667, "lat": 38.92413583333333, "fusion_lon": 0.0, "name": "f7baac7f5f4560700c762fb84295e400", "bike_id": "f7baac7f5f4560700c762fb84295e400", "is_reserved": 0, "fusion_lat": 0.0, "is_disabled": 0}, {"rental_uris": {"ios": "https://dc.lft.to/lastmile_qr_scan", "android": "https://dc.lft.to/lastmile_qr_scan"}, "type": "electric_scooter", "lon": -77.04550133333333, "lat": 38.91266816666667, "fusion_lon": 0.0, "name": "eb4ef4677c102c1fdc8e29724f5fabe9", "bike_id": "eb4ef4677c102c1fdc8e29724f5fabe9", "is_reserved": 0, "fusion_lat": 0.0, "is_disabled": 0}, {"rental_uris": {"ios": "https://dc.lft.to/lastmile_qr_scan", "android": "https://dc.lft.to/lastmile_qr_scan"}, "type": "electric_scooter", "lon": -77.01629783333334, "lat": 38.903122833333335, "fusion_lon": 0.0, "name": "433b39596a9fc3d014d804364742f110", "bike_id": "433b39596a9fc3d014d804364742f110", "is_reserved": 0, "fusion_lat": 0.0, "is_disabled": 0}, {"rental_uris": {"ios": "https://dc.lft.to/lastmile_qr_scan", "android": "https://dc.lft.to/lastmile_qr_scan"}, "type": "electric_scooter", "lon": -77.00713283333333, "lat": 38.88492566666667, "fusion_lon": 0.0, "name": "f6ee052840fcc27b16d55996401a0368", "bike_id": "f6ee052840fcc27b16d55996401a0368", "is_reserved": 0, "fusion_lat": 0.0, "is_disabled": 0}, {"rental_uris": {"ios": "https://dc.lft.to/lastmile_qr_scan", "android": "https://dc.lft.to/lastmile_qr_scan"}, "type": "electric_scooter", "lon": -77.031907, "lat": 38.896988666666665, "fusion_lon": 0.0, "name": "32acdd4bb65a720bb1dd62a684467054", "bike_id": "32acdd4bb65a720bb1dd62a684467054", "is_reserved": 0, "fusion_lat": 0.0, "is_disabled": 0}, {"rental_uris": {"ios": "https://dc.lft.to/lastmile_qr_scan", "android": "https://dc.lft.to/lastmile_qr_scan"}, "type": "electric_scooter", "lon": -77.0454415, "lat": 38.90133766666667, "fusion_lon": 0.0, "name": "c24e1367a14428fd640f31059da7c753", "bike_id": "c24e1367a14428fd640f31059da7c753", "is_reserved": 0, "fusion_lat": 0.0, "is_disabled": 0}, {"rental_uris": {"ios": "https://dc.lft.to/lastmile_qr_scan", "android": "https://dc.lft.to/lastmile_qr_scan"}, "type": "electric_scooter", "lon": -77.0319875, "lat": 38.90722816666667, "fusion_lon": 0.0, "name": "04a022bdf09e88ce4272888248720abd", "bike_id": "04a022bdf09e88ce4272888248720abd", "is_reserved": 0, "fusion_lat": 0.0, "is_disabled": 0}, {"rental_uris": {"ios": "https://dc.lft.to/lastmile_qr_scan", "android": "https://dc.lft.to/lastmile_qr_scan"}, "type": "electric_bike", "lon": -77.00382216666667, "lat": 38.83610483333333, "fusion_lon": 0.0, "name": "5e5b6da716edbc50beecb310adf5cf11", "bike_id": "5e5b6da716edbc50beecb310adf5cf11", "is_reserved": 0, "fusion_lat": 0.0, "is_disabled": 0}, {"rental_uris": {"ios": "https://dc.lft.to/lastmile_qr_scan", "android": "https://dc.lft.to/lastmile_qr_scan"}, "type": "electric_bike", "lon": -77.02866616666667, "lat": 38.921325833333334, "fusion_lon": 0.0, "name": "64a00357bd654cea8dcd574cbdb4a7e6", "bike_id": "64a00357bd654cea8dcd574cbdb4a7e6", "is_reserved": 0, "fusion_lat": 0.0, "is_disabled": 0}, {"rental_uris": {"ios": "https://dc.lft.to/lastmile_qr_scan", "android": "https://dc.lft.to/lastmile_qr_scan"}, "type": "electric_bike", "lon": -76.93237283333333, "lat": 38.882798, "fusion_lon": 0.0, "name": "545cb1abdd28e7d1fdd351a99019ae7a", "bike_id": "545cb1abdd28e7d1fdd351a99019ae7a", "is_reserved": 0, "fusion_lat": 0.0, "is_disabled": 0}, {"rental_uris": {"ios": "https://dc.lft.to/lastmile_qr_scan", "android": "https://dc.lft.to/lastmile_qr_scan"}, "type": "electric_scooter", "lon": -77.019836, "lat": 38.90263866666667, "fusion_lon": 0.0, "name": "aabefff1766e7da298faf08893b631ee", "bike_id": "aabefff1766e7da298faf08893b631ee", "is_reserved": 0, "fusion_lat": 0.0, "is_disabled": 0}, {"rental_uris": {"ios": "https://dc.lft.to/lastmile_qr_scan", "android": "https://dc.lft.to/lastmile_qr_scan"}, "type": "electric_scooter", "lon": -77.03954266666666, "lat": 38.90044116666667, "fusion_lon": 0.0, "name": "25dfb622a44778aa38bb9851f890da03", "bike_id": "25dfb622a44778aa38bb9851f890da03", "is_reserved": 0, "fusion_lat": 0.0, "is_disabled": 0}, {"rental_uris": {"ios": "https://dc.lft.to/lastmile_qr_scan", "android": "https://dc.lft.to/lastmile_qr_scan"}, "type": "electric_bike", "lon": -76.964374, "lat": 38.91877066666667, "fusion_lon": 0.0, "name": "56e5ca260bd3818d18001b5665d4ce73", "bike_id": "56e5ca260bd3818d18001b5665d4ce73", "is_reserved": 0, "fusion_lat": 0.0, "is_disabled": 0}, {"rental_uris": {"ios": "https://dc.lft.to/lastmile_qr_scan", "android": "https://dc.lft.to/lastmile_qr_scan"}, "type": "electric_scooter", "lon": -77.02761633333333, "lat": 38.925806, "fusion_lon": 0.0, "name": "b41d3a089ef9297ba1d4aecc085fdc86", "bike_id": "b41d3a089ef9297ba1d4aecc085fdc86", "is_reserved": 0, "fusion_lat": 0.0, "is_disabled": 0}, {"rental_uris": {"ios": "https://dc.lft.to/lastmile_qr_scan", "android": "https://dc.lft.to/lastmile_qr_scan"}, "type": "electric_scooter", "lon": -76.99588883333334, "lat": 38.92403083333333, "fusion_lon": 0.0, "name": "be4db051d7a0c71e14e74e3c52577970", "bike_id": "be4db051d7a0c71e14e74e3c52577970", "is_reserved": 0, "fusion_lat": 0.0, "is_disabled": 0}, {"rental_uris": {"ios": "https://dc.lft.to/lastmile_qr_scan", "android": "https://dc.lft.to/lastmile_qr_scan"}, "type": "electric_scooter", "lon": -76.93669766666666, "lat": 38.8968385, "fusion_lon": 0.0, "name": "7fa3254d2558f231f9d7013aab5fd9a3", "bike_id": "7fa3254d2558f231f9d7013aab5fd9a3", "is_reserved": 0, "fusion_lat": 0.0, "is_disabled": 0}, {"rental_uris": {"ios": "https://dc.lft.to/lastmile_qr_scan", "android": "https://dc.lft.to/lastmile_qr_scan"}, "type": "electric_bike", "lon": -76.98817883333334, "lat": 38.803847166666664, "fusion_lon": 0.0, "name": "6e2c0c0ab639c42721d74ae052c88f63", "bike_id": "6e2c0c0ab639c42721d74ae052c88f63", "is_reserved": 0, "fusion_lat": 0.0, "is_disabled": 0}, {"rental_uris": {"ios": "https://dc.lft.to/lastmile_qr_scan", "android": "https://dc.lft.to/lastmile_qr_scan"}, "type": "electric_scooter", "lon": -77.007194, "lat": 38.91558083333334, "fusion_lon": 0.0, "name": "ef97111539095fcf6f88c7d96c8fbad0", "bike_id": "ef97111539095fcf6f88c7d96c8fbad0", "is_reserved": 0, "fusion_lat": 0.0, "is_disabled": 0}, {"rental_uris": {"ios": "https://dc.lft.to/lastmile_qr_scan", "android": "https://dc.lft.to/lastmile_qr_scan"}, "type": "electric_scooter", "lon": -76.98344633333333, "lat": 38.88710433333333, "fusion_lon": 0.0, "name": "4a8fb2789b3f3313a4aeb6ced949de40", "bike_id": "4a8fb2789b3f3313a4aeb6ced949de40", "is_reserved": 0, "fusion_lat": 0.0, "is_disabled": 0}, {"rental_uris": {"ios": "https://dc.lft.to/lastmile_qr_scan", "android": "https://dc.lft.to/lastmile_qr_scan"}, "type": "electric_scooter", "lon": -77.0422715, "lat": 38.90732216666667, "fusion_lon": 0.0, "name": "e41ed572e4fbc30092d5c8e1f307d345", "bike_id": "e41ed572e4fbc30092d5c8e1f307d345", "is_reserved": 0, "fusion_lat": 0.0, "is_disabled": 0}, {"rental_uris": {"ios": "https://dc.lft.to/lastmile_qr_scan", "android": "https://dc.lft.to/lastmile_qr_scan"}, "type": "electric_scooter", "lon": -77.03674566666666, "lat": 38.9036655, "fusion_lon": 0.0, "name": "ff824d1f49e950bf277ed326f2eeaa66", "bike_id": "ff824d1f49e950bf277ed326f2eeaa66", "is_reserved": 0, "fusion_lat": 0.0, "is_disabled": 0}, {"rental_uris": {"ios": "https://dc.lft.to/lastmile_qr_scan", "android": "https://dc.lft.to/lastmile_qr_scan"}, "type": "electric_scooter", "lon": -76.943242, "lat": 38.880240666666666, "fusion_lon": 0.0, "name": "91548aea4ff4f5c6de7f1008d312e2d8", "bike_id": "91548aea4ff4f5c6de7f1008d312e2d8", "is_reserved": 0, "fusion_lat": 0.0, "is_disabled": 0}, {"rental_uris": {"ios": "https://dc.lft.to/lastmile_qr_scan", "android": "https://dc.lft.to/lastmile_qr_scan"}, "type": "electric_scooter", "lon": -76.978373, "lat": 38.8656615, "fusion_lon": 0.0, "name": "7a91b775ca6e250c4d91347c6f8451cd", "bike_id": "7a91b775ca6e250c4d91347c6f8451cd", "is_reserved": 0, "fusion_lat": 0.0, "is_disabled": 0}, {"rental_uris": {"ios": "https://dc.lft.to/lastmile_qr_scan", "android": "https://dc.lft.to/lastmile_qr_scan"}, "type": "electric_scooter", "lon": -77.03096483333333, "lat": 38.94183866666667, "fusion_lon": 0.0, "name": "423bbf13fea8b0faceb597a6a969e73d", "bike_id": "423bbf13fea8b0faceb597a6a969e73d", "is_reserved": 0, "fusion_lat": 0.0, "is_disabled": 0}, {"rental_uris": {"ios": "https://dc.lft.to/lastmile_qr_scan", "android": "https://dc.lft.to/lastmile_qr_scan"}, "type": "electric_scooter", "lon": -77.02215416666667, "lat": 38.89839466666667, "fusion_lon": 0.0, "name": "1ea61cb1cf8d2d0d64b4d3d123749a32", "bike_id": "1ea61cb1cf8d2d0d64b4d3d123749a32", "is_reserved": 0, "fusion_lat": 0.0, "is_disabled": 0}, {"rental_uris": {"ios": "https://dc.lft.to/lastmile_qr_scan", "android": "https://dc.lft.to/lastmile_qr_scan"}, "type": "electric_scooter", "lon": -77.0297405, "lat": 38.92261666666667, "fusion_lon": 0.0, "name": "7b119a608c9deafd6f1572598136e3ca", "bike_id": "7b119a608c9deafd6f1572598136e3ca", "is_reserved": 0, "fusion_lat": 0.0, "is_disabled": 0}, {"rental_uris": {"ios": "https://dc.lft.to/lastmile_qr_scan", "android": "https://dc.lft.to/lastmile_qr_scan"}, "type": "electric_scooter", "lon": -77.04412533333333, "lat": 38.911298, "fusion_lon": 0.0, "name": "2d55b297b6933d483c46ba4e666e90a1", "bike_id": "2d55b297b6933d483c46ba4e666e90a1", "is_reserved": 0, "fusion_lat": 0.0, "is_disabled": 0}, {"rental_uris": {"ios": "https://dc.lft.to/lastmile_qr_scan", "android": "https://dc.lft.to/lastmile_qr_scan"}, "type": "electric_scooter", "lon": -77.02052783333333, "lat": 38.914333166666665, "fusion_lon": 0.0, "name": "03c5cc4bde0efcdd0d99683fd672ddb1", "bike_id": "03c5cc4bde0efcdd0d99683fd672ddb1", "is_reserved": 0, "fusion_lat": 0.0, "is_disabled": 0}, {"rental_uris": {"ios": "https://dc.lft.to/lastmile_qr_scan", "android": "https://dc.lft.to/lastmile_qr_scan"}, "type": "electric_scooter", "lon": -77.05064683333333, "lat": 38.92411583333333, "fusion_lon": 0.0, "name": "4ceeadb81c0fe32bdbc8427354cef869", "bike_id": "4ceeadb81c0fe32bdbc8427354cef869", "is_reserved": 0, "fusion_lat": 0.0, "is_disabled": 0}, {"rental_uris": {"ios": "https://dc.lft.to/lastmile_qr_scan", "android": "https://dc.lft.to/lastmile_qr_scan"}, "type": "electric_scooter", "lon": -77.048478, "lat": 38.90468283333333, "fusion_lon": 0.0, "name": "fa67830096123f788dc55c5af03cf5ff", "bike_id": "fa67830096123f788dc55c5af03cf5ff", "is_reserved": 0, "fusion_lat": 0.0, "is_disabled": 0}, {"rental_uris": {"ios": "https://dc.lft.to/lastmile_qr_scan", "android": "https://dc.lft.to/lastmile_qr_scan"}, "type": "electric_scooter", "lon": -76.990915, "lat": 38.882363166666664, "fusion_lon": 0.0, "name": "989e4a6c62c1821a55fedbcf90d45a00", "bike_id": "989e4a6c62c1821a55fedbcf90d45a00", "is_reserved": 0, "fusion_lat": 0.0, "is_disabled": 0}, {"rental_uris": {"ios": "https://dc.lft.to/lastmile_qr_scan", "android": "https://dc.lft.to/lastmile_qr_scan"}, "type": "electric_scooter", "lon": -77.0415975, "lat": 38.9145415, "fusion_lon": 0.0, "name": "adbc07b0f3ef91d84c300ff7bcc4dbe8", "bike_id": "adbc07b0f3ef91d84c300ff7bcc4dbe8", "is_reserved": 0, "fusion_lat": 0.0, "is_disabled": 0}, {"rental_uris": {"ios": "https://dc.lft.to/lastmile_qr_scan", "android": "https://dc.lft.to/lastmile_qr_scan"}, "type": "electric_scooter", "lon": -77.05394483333333, "lat": 38.92333416666666, "fusion_lon": 0.0, "name": "75fb4835c8e7ff3175eddb99690098e3", "bike_id": "75fb4835c8e7ff3175eddb99690098e3", "is_reserved": 0, "fusion_lat": 0.0, "is_disabled": 0}, {"rental_uris": {"ios": "https://dc.lft.to/lastmile_qr_scan", "android": "https://dc.lft.to/lastmile_qr_scan"}, "type": "electric_scooter", "lon": -77.04543416666667, "lat": 38.91321283333333, "fusion_lon": 0.0, "name": "572b8ec2d8f0f0dfb78a6bb681f6110c", "bike_id": "572b8ec2d8f0f0dfb78a6bb681f6110c", "is_reserved": 0, "fusion_lat": 0.0, "is_disabled": 0}, {"rental_uris": {"ios": "https://dc.lft.to/lastmile_qr_scan", "android": "https://dc.lft.to/lastmile_qr_scan"}, "type": "electric_scooter", "lon": -77.03228533333333, "lat": 38.916148666666665, "fusion_lon": 0.0, "name": "f9357bb9e5d543ebbdda8b65dcab7a89", "bike_id": "f9357bb9e5d543ebbdda8b65dcab7a89", "is_reserved": 0, "fusion_lat": 0.0, "is_disabled": 0}, {"rental_uris": {"ios": "https://dc.lft.to/lastmile_qr_scan", "android": "https://dc.lft.to/lastmile_qr_scan"}, "type": "electric_scooter", "lon": -76.95836266666667, "lat": 38.93045866666667, "fusion_lon": 0.0, "name": "a971e7c566c0e1fa020c343d1dfc95c8", "bike_id": "a971e7c566c0e1fa020c343d1dfc95c8", "is_reserved": 0, "fusion_lat": 0.0, "is_disabled": 0}, {"rental_uris": {"ios": "https://dc.lft.to/lastmile_qr_scan", "android": "https://dc.lft.to/lastmile_qr_scan"}, "type": "electric_bike", "lon": -77.13920483333334, "lat": 38.846741333333334, "fusion_lon": 0.0, "name": "27cf5a8a21ecab4370c468d172732901", "bike_id": "27cf5a8a21ecab4370c468d172732901", "is_reserved": 0, "fusion_lat": 0.0, "is_disabled": 0}, {"rental_uris": {"ios": "https://dc.lft.to/lastmile_qr_scan", "android": "https://dc.lft.to/lastmile_qr_scan"}, "type": "electric_scooter", "lon": -76.99362933333333, "lat": 38.901237333333334, "fusion_lon": 0.0, "name": "da7ac4a6fb25fc1151a87d6bff995cc4", "bike_id": "da7ac4a6fb25fc1151a87d6bff995cc4", "is_reserved": 0, "fusion_lat": 0.0, "is_disabled": 0}, {"rental_uris": {"ios": "https://dc.lft.to/lastmile_qr_scan", "android": "https://dc.lft.to/lastmile_qr_scan"}, "type": "electric_scooter", "lon": -77.03378266666667, "lat": 38.8999985, "fusion_lon": 0.0, "name": "880d4cfaec832729bb5fd0d477f562bd", "bike_id": "880d4cfaec832729bb5fd0d477f562bd", "is_reserved": 0, "fusion_lat": 0.0, "is_disabled": 0}, {"rental_uris": {"ios": "https://dc.lft.to/lastmile_qr_scan", "android": "https://dc.lft.to/lastmile_qr_scan"}, "type": "electric_scooter", "lon": -77.02206816666667, "lat": 38.90021866666667, "fusion_lon": 0.0, "name": "065bfa6a03c87af1d1cddbf7d46131ad", "bike_id": "065bfa6a03c87af1d1cddbf7d46131ad", "is_reserved": 0, "fusion_lat": 0.0, "is_disabled": 0}, {"rental_uris": {"ios": "https://dc.lft.to/lastmile_qr_scan", "android": "https://dc.lft.to/lastmile_qr_scan"}, "type": "electric_scooter", "lon": -77.024089, "lat": 38.9098455, "fusion_lon": 0.0, "name": "e31174644ae44a512da939b999a20b65", "bike_id": "e31174644ae44a512da939b999a20b65", "is_reserved": 0, "fusion_lat": 0.0, "is_disabled": 0}, {"rental_uris": {"ios": "https://dc.lft.to/lastmile_qr_scan", "android": "https://dc.lft.to/lastmile_qr_scan"}, "type": "electric_scooter", "lon": -77.01945066666667, "lat": 38.928078166666666, "fusion_lon": 0.0, "name": "7a224f0fa8dd80a86c11b088e28f2f88", "bike_id": "7a224f0fa8dd80a86c11b088e28f2f88", "is_reserved": 0, "fusion_lat": 0.0, "is_disabled": 0}, {"rental_uris": {"ios": "https://dc.lft.to/lastmile_qr_scan", "android": "https://dc.lft.to/lastmile_qr_scan"}, "type": "electric_scooter", "lon": -77.02570183333333, "lat": 38.887444, "fusion_lon": 0.0, "name": "1057e0fb21fdac418c7cd88eb5148a8f", "bike_id": "1057e0fb21fdac418c7cd88eb5148a8f", "is_reserved": 0, "fusion_lat": 0.0, "is_disabled": 0}, {"rental_uris": {"ios": "https://dc.lft.to/lastmile_qr_scan", "android": "https://dc.lft.to/lastmile_qr_scan"}, "type": "electric_bike", "lon": -77.05047366666666, "lat": 38.8928105, "fusion_lon": 0.0, "name": "9e329a1aaa77f6708e19a54e3c6cfcc2", "bike_id": "9e329a1aaa77f6708e19a54e3c6cfcc2", "is_reserved": 0, "fusion_lat": 0.0, "is_disabled": 0}, {"rental_uris": {"ios": "https://dc.lft.to/lastmile_qr_scan", "android": "https://dc.lft.to/lastmile_qr_scan"}, "type": "electric_scooter", "lon": -77.01756866666666, "lat": 38.87689983333333, "fusion_lon": 0.0, "name": "a37b3763515f21cddf9c36c56ca0283e", "bike_id": "a37b3763515f21cddf9c36c56ca0283e", "is_reserved": 0, "fusion_lat": 0.0, "is_disabled": 0}, {"rental_uris": {"ios": "https://dc.lft.to/lastmile_qr_scan", "android": "https://dc.lft.to/lastmile_qr_scan"}, "type": "electric_scooter", "lon": -76.93175666666667, "lat": 38.89885483333333, "fusion_lon": 0.0, "name": "3a78921e2e8609f94da07287af4973c0", "bike_id": "3a78921e2e8609f94da07287af4973c0", "is_reserved": 0, "fusion_lat": 0.0, "is_disabled": 0}, {"rental_uris": {"ios": "https://dc.lft.to/lastmile_qr_scan", "android": "https://dc.lft.to/lastmile_qr_scan"}, "type": "electric_scooter", "lon": -77.02978616666667, "lat": 38.898844, "fusion_lon": 0.0, "name": "05614c24b2f4490fd862170e98737f1d", "bike_id": "05614c24b2f4490fd862170e98737f1d", "is_reserved": 0, "fusion_lat": 0.0, "is_disabled": 0}, {"rental_uris": {"ios": "https://dc.lft.to/lastmile_qr_scan", "android": "https://dc.lft.to/lastmile_qr_scan"}, "type": "electric_bike", "lon": -77.16243883333334, "lat": 38.886861833333334, "fusion_lon": 0.0, "name": "6ce44c3325294864f435ec868fd46175", "bike_id": "6ce44c3325294864f435ec868fd46175", "is_reserved": 0, "fusion_lat": 0.0, "is_disabled": 0}, {"rental_uris": {"ios": "https://dc.lft.to/lastmile_qr_scan", "android": "https://dc.lft.to/lastmile_qr_scan"}, "type": "electric_scooter", "lon": -77.04470366666666, "lat": 38.919109666666664, "fusion_lon": 0.0, "name": "a0d876e8b77c93cc77640b1c41cedc31", "bike_id": "a0d876e8b77c93cc77640b1c41cedc31", "is_reserved": 0, "fusion_lat": 0.0, "is_disabled": 0}, {"rental_uris": {"ios": "https://dc.lft.to/lastmile_qr_scan", "android": "https://dc.lft.to/lastmile_qr_scan"}, "type": "electric_scooter", "lon": -77.031834, "lat": 38.913103, "fusion_lon": 0.0, "name": "ae1b2b401c69c6195cb2e8ebbab02295", "bike_id": "ae1b2b401c69c6195cb2e8ebbab02295", "is_reserved": 0, "fusion_lat": 0.0, "is_disabled": 0}, {"rental_uris": {"ios": "https://dc.lft.to/lastmile_qr_scan", "android": "https://dc.lft.to/lastmile_qr_scan"}, "type": "electric_scooter", "lon": -77.035024, "lat": 38.916244666666664, "fusion_lon": 0.0, "name": "b3a4c000ee392cbffbe5ed41a8b6419b", "bike_id": "b3a4c000ee392cbffbe5ed41a8b6419b", "is_reserved": 0, "fusion_lat": 0.0, "is_disabled": 0}, {"rental_uris": {"ios": "https://dc.lft.to/lastmile_qr_scan", "android": "https://dc.lft.to/lastmile_qr_scan"}, "type": "electric_scooter", "lon": -77.06787683333333, "lat": 38.915624, "fusion_lon": 0.0, "name": "4a020e2a7071544bf50aa90ca5d25112", "bike_id": "4a020e2a7071544bf50aa90ca5d25112", "is_reserved": 0, "fusion_lat": 0.0, "is_disabled": 0}, {"rental_uris": {"ios": "https://dc.lft.to/lastmile_qr_scan", "android": "https://dc.lft.to/lastmile_qr_scan"}, "type": "electric_scooter", "lon": -77.0271015, "lat": 38.91794466666666, "fusion_lon": 0.0, "name": "3facb24798a4ea386e40e4c1eb68cc2f", "bike_id": "3facb24798a4ea386e40e4c1eb68cc2f", "is_reserved": 0, "fusion_lat": 0.0, "is_disabled": 0}, {"rental_uris": {"ios": "https://dc.lft.to/lastmile_qr_scan", "android": "https://dc.lft.to/lastmile_qr_scan"}, "type": "electric_scooter", "lon": -76.93736783333334, "lat": 38.89016066666667, "fusion_lon": 0.0, "name": "e8f97a90343a04aea46f62d12b34dcb4", "bike_id": "e8f97a90343a04aea46f62d12b34dcb4", "is_reserved": 0, "fusion_lat": 0.0, "is_disabled": 0}, {"rental_uris": {"ios": "https://dc.lft.to/lastmile_qr_scan", "android": "https://dc.lft.to/lastmile_qr_scan"}, "type": "electric_scooter", "lon": -77.03186566666666, "lat": 38.91849116666667, "fusion_lon": 0.0, "name": "eefb20dcea5cfafd3e95d52719507c70", "bike_id": "eefb20dcea5cfafd3e95d52719507c70", "is_reserved": 0, "fusion_lat": 0.0, "is_disabled": 0}, {"rental_uris": {"ios": "https://dc.lft.to/lastmile_qr_scan", "android": "https://dc.lft.to/lastmile_qr_scan"}, "type": "electric_scooter", "lon": -77.033142, "lat": 38.90837633333334, "fusion_lon": 0.0, "name": "713d7ba505c850e5f72164101814580b", "bike_id": "713d7ba505c850e5f72164101814580b", "is_reserved": 0, "fusion_lat": 0.0, "is_disabled": 0}, {"rental_uris": {"ios": "https://dc.lft.to/lastmile_qr_scan", "android": "https://dc.lft.to/lastmile_qr_scan"}, "type": "electric_scooter", "lon": -77.00351016666667, "lat": 38.876475166666665, "fusion_lon": 0.0, "name": "50e05a7e9aae97b4b9013af70ad4db59", "bike_id": "50e05a7e9aae97b4b9013af70ad4db59", "is_reserved": 0, "fusion_lat": 0.0, "is_disabled": 0}, {"rental_uris": {"ios": "https://dc.lft.to/lastmile_qr_scan", "android": "https://dc.lft.to/lastmile_qr_scan"}, "type": "electric_scooter", "lon": -77.03856583333334, "lat": 38.916638166666665, "fusion_lon": 0.0, "name": "75d08b2474a401d8015c983c6e8c31b8", "bike_id": "75d08b2474a401d8015c983c6e8c31b8", "is_reserved": 0, "fusion_lat": 0.0, "is_disabled": 0}, {"rental_uris": {"ios": "https://dc.lft.to/lastmile_qr_scan", "android": "https://dc.lft.to/lastmile_qr_scan"}, "type": "electric_scooter", "lon": -77.0059205, "lat": 38.87648133333333, "fusion_lon": 0.0, "name": "0fa7775b04c62004560f880915e232e8", "bike_id": "0fa7775b04c62004560f880915e232e8", "is_reserved": 0, "fusion_lat": 0.0, "is_disabled": 0}, {"rental_uris": {"ios": "https://dc.lft.to/lastmile_qr_scan", "android": "https://dc.lft.to/lastmile_qr_scan"}, "type": "electric_scooter", "lon": -77.06187083333333, "lat": 38.93014333333333, "fusion_lon": 0.0, "name": "044c9e9efe1ad2d392e000c9e00364f2", "bike_id": "044c9e9efe1ad2d392e000c9e00364f2", "is_reserved": 0, "fusion_lat": 0.0, "is_disabled": 0}, {"rental_uris": {"ios": "https://dc.lft.to/lastmile_qr_scan", "android": "https://dc.lft.to/lastmile_qr_scan"}, "type": "electric_scooter", "lon": -77.02717116666666, "lat": 38.89716116666666, "fusion_lon": 0.0, "name": "ee5862c040ad18933496d36bce0950e3", "bike_id": "ee5862c040ad18933496d36bce0950e3", "is_reserved": 0, "fusion_lat": 0.0, "is_disabled": 0}, {"rental_uris": {"ios": "https://dc.lft.to/lastmile_qr_scan", "android": "https://dc.lft.to/lastmile_qr_scan"}, "type": "electric_scooter", "lon": -76.97706066666667, "lat": 38.88819816666667, "fusion_lon": 0.0, "name": "cf7d05076d1192cecd4d20277ae1b450", "bike_id": "cf7d05076d1192cecd4d20277ae1b450", "is_reserved": 0, "fusion_lat": 0.0, "is_disabled": 0}, {"rental_uris": {"ios": "https://dc.lft.to/lastmile_qr_scan", "android": "https://dc.lft.to/lastmile_qr_scan"}, "type": "electric_scooter", "lon": -76.9488725, "lat": 38.895115, "fusion_lon": 0.0, "name": "44510fcf156ed5a983e5a78d2b828b2c", "bike_id": "44510fcf156ed5a983e5a78d2b828b2c", "is_reserved": 0, "fusion_lat": 0.0, "is_disabled": 0}, {"rental_uris": {"ios": "https://dc.lft.to/lastmile_qr_scan", "android": "https://dc.lft.to/lastmile_qr_scan"}, "type": "electric_scooter", "lon": -77.04629383333334, "lat": 38.89363, "fusion_lon": 0.0, "name": "27ba0d73f97a45bbbed0a8ab1bb6434a", "bike_id": "27ba0d73f97a45bbbed0a8ab1bb6434a", "is_reserved": 0, "fusion_lat": 0.0, "is_disabled": 0}, {"rental_uris": {"ios": "https://dc.lft.to/lastmile_qr_scan", "android": "https://dc.lft.to/lastmile_qr_scan"}, "type": "electric_scooter", "lon": -77.0575705, "lat": 38.9246475, "fusion_lon": 0.0, "name": "bfff090540148c4cae4a8fd381a4692c", "bike_id": "bfff090540148c4cae4a8fd381a4692c", "is_reserved": 0, "fusion_lat": 0.0, "is_disabled": 0}, {"rental_uris": {"ios": "https://dc.lft.to/lastmile_qr_scan", "android": "https://dc.lft.to/lastmile_qr_scan"}, "type": "electric_scooter", "lon": -77.01174883333333, "lat": 38.87661716666667, "fusion_lon": 0.0, "name": "9c1879956ec93bfffe76b0fd5f61acda", "bike_id": "9c1879956ec93bfffe76b0fd5f61acda", "is_reserved": 0, "fusion_lat": 0.0, "is_disabled": 0}, {"rental_uris": {"ios": "https://dc.lft.to/lastmile_qr_scan", "android": "https://dc.lft.to/lastmile_qr_scan"}, "type": "electric_scooter", "lon": -77.04487683333333, "lat": 38.9109145, "fusion_lon": 0.0, "name": "3e3d691375c33c562d7a49395bcd251f", "bike_id": "3e3d691375c33c562d7a49395bcd251f", "is_reserved": 0, "fusion_lat": 0.0, "is_disabled": 0}, {"rental_uris": {"ios": "https://dc.lft.to/lastmile_qr_scan", "android": "https://dc.lft.to/lastmile_qr_scan"}, "type": "electric_scooter", "lon": -77.03266333333333, "lat": 38.9025525, "fusion_lon": 0.0, "name": "58f3d71c41c9298633664dfd77aab5dd", "bike_id": "58f3d71c41c9298633664dfd77aab5dd", "is_reserved": 0, "fusion_lat": 0.0, "is_disabled": 0}, {"rental_uris": {"ios": "https://dc.lft.to/lastmile_qr_scan", "android": "https://dc.lft.to/lastmile_qr_scan"}, "type": "electric_scooter", "lon": -76.93917133333333, "lat": 38.896997166666665, "fusion_lon": 0.0, "name": "0f7ea29833735d2303b831b4b9330922", "bike_id": "0f7ea29833735d2303b831b4b9330922", "is_reserved": 0, "fusion_lat": 0.0, "is_disabled": 0}, {"rental_uris": {"ios": "https://dc.lft.to/lastmile_qr_scan", "android": "https://dc.lft.to/lastmile_qr_scan"}, "type": "electric_scooter", "lon": -77.009192, "lat": 38.91061966666667, "fusion_lon": 0.0, "name": "21a919579c19a93c4bfd737183f24ef3", "bike_id": "21a919579c19a93c4bfd737183f24ef3", "is_reserved": 0, "fusion_lat": 0.0, "is_disabled": 0}, {"rental_uris": {"ios": "https://dc.lft.to/lastmile_qr_scan", "android": "https://dc.lft.to/lastmile_qr_scan"}, "type": "electric_scooter", "lon": -77.01132466666667, "lat": 38.88526066666667, "fusion_lon": 0.0, "name": "7ad41f77d9b5e21581977dfd2c3516e5", "bike_id": "7ad41f77d9b5e21581977dfd2c3516e5", "is_reserved": 0, "fusion_lat": 0.0, "is_disabled": 0}, {"rental_uris": {"ios": "https://dc.lft.to/lastmile_qr_scan", "android": "https://dc.lft.to/lastmile_qr_scan"}, "type": "electric_scooter", "lon": -77.01891883333333, "lat": 38.922672666666664, "fusion_lon": 0.0, "name": "541aa9b894380191ad94a05ff144aada", "bike_id": "541aa9b894380191ad94a05ff144aada", "is_reserved": 0, "fusion_lat": 0.0, "is_disabled": 0}, {"rental_uris": {"ios": "https://dc.lft.to/lastmile_qr_scan", "android": "https://dc.lft.to/lastmile_qr_scan"}, "type": "electric_scooter", "lon": -77.03249283333334, "lat": 38.956181666666666, "fusion_lon": 0.0, "name": "09b5cd509d822e7f06cd58ef6098f924", "bike_id": "09b5cd509d822e7f06cd58ef6098f924", "is_reserved": 0, "fusion_lat": 0.0, "is_disabled": 0},